~Version Information
 VERS.                  2.0:   CWLS log ASCII Standard -VERSION 2.0
 WRAP.                   NO:   One line per depth step
~Well Information Block
#MNEM.UNIT     VALUE/NAME     DESCRIPTION
#---------     -----------    ---------------------------
 STRT.S             01:57:49 28-Aug-21: START TIME 01:57:49 28-Aug-21
 STOP.S             02:04:41 28-Aug-21: STOP TIME  02:04:41 28-Aug-21
 STEP.S                   0.00: STEP TIME
 NULL.                 -999.25: NULL VALUE
 DFWT.                        :  DIST FWL TEXT
 DFST.                        :  DIST FSL TEXT
 DMF .             Drill Floor:  DRILL MEAS FROM
 STIM.      20.00.00 17-Aug-21:  START TIME
 DATE.      19.00.00 29-Aug-21:  END TIME
 SPUD.               15-Aug-21:  SPUD DATE
 NREF.                    Grid:  NORTH REFERENCE
 HPTY.       Minimum Curvature:  HOLE POS TYPE
 DMOD.             Drill Model:  DRILL MOD DESC
 SVYD.                  Survey:  SURVEY DESC
 ILTD.               Lithology:  INTERP LTH DESC
 FTOP.          Formation Tops:  FORM TOPS DESC
 RIG .              East Azeri:  RIG NAME
 PDAT.          Mean Sea Level:  PERMANENT DATUM
 FLD .                     ACG:  FIELD NAME
 SON .        AZ-XX-0907180857:  JOB NUMBER
 CTRY.              Azerbaijan:  COUNTRY NAME
 WELL.                    D23x:  WELL NAME
 SRVC.     Turan Drilling and Engineering:  CONTRACTOR
 COMP.     BP Exploration (Caspian Sea) Ltd.:  COMPANY
 UWI .            /AZE00000214:  UNIQUE WELL IDENTIFIER
 API .            /AZE00000214:  API NUMBER
 MDS .        Operator Entered:  MAG DATA SOURCE
 BASE.              Azerbaijan:  LOGGING EQUIPMENT BASE LOCATION
 REGN.                   EESSA:  REGION
 PROV.                    Baku:  PROVINCE
 STAT.                    Baku:  STATE NAME
 MWDS.                    Baku:  MWD SHOP
 DOE .                     N/A:  DOE NUMBER
 DCON.         Sperry Drilling:  DIRECTNL CONTR
 UNIT.                     N/A:  LOGGING EQUIPMENT ID
 WTYP.                Deviated:  WELL TYPE
 CNTY.                        :  COUNTY
 LOC .                        :  LOCATION
 LMF .             Drill Floor:  LOG MEASURED FROM
 TVDS.m                  43.60:  TVDSS CORRECTN
 LATI.deg                40.02:  LATITUDE
 LONG.deg                51.45:  LONGITUDE
 WHNS.m                  -7.04:  WELL HEAD N/S
 WHEW.m                  -0.67:  WELL HEAD E/W
 UTMX.m              538762.90:  UTM X
 UTMY.m             4431871.34:  UTM Y
 DFWL.m                   0.00:  DISTANCE FWL
 DFSL.m                   0.00:  DISTANCE FSL
 SDEP.m                4127.00:  START DEPTH
 TDD .m                5084.50:  TOTAL DEPTH (DRILLER)
 VSDR.deg               140.47:  VERT SEC DIRECT
 GVFD.g                   1.00:  GRAVITY FIELD
 MFLD.nT              50362.00:  MAGNETIC FIELD
 MDIP.deg                59.48:  MAGNETIC DIP
 MDEC.deg                 6.47:  MAGNETIC DECL
 GRDC.deg                 0.31:  GRID CORRECTION
 AZTC.deg                 6.16:  AZM TOTAL CORR
 EPD .m                   0.00:  ELEVATION
 EGL .m                   0.00:  GROUND ELEVATION
 WDMS.m                 151.80:  WD ELEV
 APD .m                  43.60:  DEPTH ABOVE PD
 DEP .m                4092.57:  DEPTH
 AGAP.m                  43.60:  AIR GAP
 VSEW.m                  -0.67:  VERT SEC E/W
 VSNS.m                  -7.04:  VERT SEC N/S
 EKB .m                  43.60:  KB ELEVATION
 EDF .m                  43.60:  DF ELEVATION
 TDL .m                 957.50:  TOTAL DEPTH (LOGGER)
 VSC .                       0:  VS TO CLOSURE
 MAGU.                 1851413:  MAGUTM CHECKSUM
~Parameter Information Block
#MNEM.UNIT       Value        Description
#---------     -----------    ---------------------------
 AV  .mps                 1.50:  Ann Velocity 
 AVMX.mps                 2.00:  Max Ann Veloc 
 AZIF.deg               184.66:  Azm, Final 
 BHAT.        Rotary Steerable:  BHA Type 
 BREV.rev               300.00:  Rev Bit Total 
 BROT.°/30m              -0.50:  Build Rotating 
 BS  .in                  8.50:  Bit Size 
 BSZ .in                  8.50:  Bit Size 
 BTPL.psig              370.00:  Bit Press Loss 
 CABU.                      No:  Customer Abuse 
 CGEO.      Behruz Shahbaliyev:  Customer Geo 
 COMM.                     Äi}:  Run Comments 1 
 TCS .hr                140.08:  Time Ciculation Ended 
 CV  .mps                 3.00:  Crit Velocity 
 CVMX.mps                 3.20:  Max Crit Veloc 
 DD1 .            Musa Ahmadov:  Direct Drillr 1 
 DD2 .           Hamid Ahmadov:  Direct Drillr 2 
 DDSV.               Geo-Pilot:  DD Service 
 DEFF.%                  98.40:  % Det Eff 
 DLRX.°/30m               3.40:  Dogleg Rot Max 
 DLSO.°/30m               1.45:  Dogleg Oriented 
 DLSX.°/30m               3.40:  Dogleg Str Max 
 DRET.      18.40.00 29-Aug-21:  Drill End Time 
 DRST.      21.00.00 20-Aug-21:  Drill Start Tim 
 DTIM.hr                 69.47:  Time Drilling 
 EDEP.m                5084.50:  End Depth 
 ENG1.      Artemiy Matviyanov:  Engineer 1 
 ENG2.         Almaz Almadatov:  Engineer 2 
 ETIM.      18.40.00 29-Aug-21:  End Time 
 FLOI.gpm               500.00:  Flow In 
 FLON.gpm               400.00:  Flow In Min 
 FLOS.cptm                0.00:  Fluid Loss 
 FLOX.gpm               500.00:  Flow In Max 
 DFT .        Mineral Oil Base:  Mud Type 
 HFLO.                      No:  High Flow 
 HPRE.                      No:  High Pressure 
 HTEM.                      No:  High Temp 
 HYDO.m                   1.80:  Hydro Offset 
 IFIN.deg                25.62:  Inc, Final 
 IMAX.deg                48.69:  Inc Max 
 IMIN.deg                24.01:  Inc Min 
 IMND.m                4962.57:  Inc Min Depth 
 IMXD.m                4119.01:  Inc Max Depth 
 JARR.                      No:  Jarring 
 LETM.      18.40.00 29-Aug-21:  Log End Time 
 LOST.hr                     0:  Lost Rig Time 
 LSTM.      21.00.00 20-Aug-21:  Log Start Time 
 MDCL.ppm             41500.00:  Mud Chlorides 
 MDES.     Inversion Oil/Synthetic:  Mud Desc 
 DFD .sg                  1.56:  Mud Density 
 MDMN.sg                  1.56:  Dens Mud Min 
 MDMX.sg                  1.56:  Dens Mud Max 
 MOIL.                      70:  Run Mud Oil % 
 MOWR.                   70:30:  Run Mud OWR 
 MSND.                     0.2:  Run Mud Sand % 
 MSOL.                    23.3:  Run Mud Solids% 
 DFV .spqt               78.00:  Mud Viscosity 
 MWOD.in                  6.75:  MWD Tool OD 
 MWSI.                      No:  Serv Intrp, MWD 
 OTIM.hr                218.30:  Time Operating 
 PCON.           Look Like New:  Pad Condition 
 PMAX.psia            11015.30:  Press Op, Max 
 PV  .cP                 38.00:  Mud PV 
 RUN .                     300:  Run Number 
 ROPA.m/hr               15.00:  ROP Avg 
 ROPN.m/hr                9.00:  ROP Min 
 ROPX.m/hr               17.00:  ROP Max 
 RPMA.rpm               120.00:  RPM Surface Avg 
 RPMN.rpm                90.00:  RPM Surface Min 
 RPMX.rpm               140.00:  RPM Surface Max 
 RRUN.                     300:  Rig Run Number 
 RTIM.hr                 31.53:  Time Reaming 
 SAZI.deg               331.64:  Azm, Start 
 SDEP.m                4127.00:  Start Depth 
 SIDD.                      No:  Serv Intrp, DD 
 SINC.deg                48.43:  Inc, Start 
 SPPA.psig             5830.00:  SPP Avg 
 SPPN.psig             5600.00:  SPP Min 
 SPPX.psig             5900.00:  SPP Max 
 STIM.      21.00.00 20-Aug-21:  Start Time 
 SVCS.                 DD, MWD:  Services 
 SVER.                    9.20:  Sperry Version 
 TDAT.m                 957.50:  Tot Depth Attmp 
 TDDF.                      No:  Trip for DD 
 TDLG.m                 957.50:  Tot Depth Loggd 
 TFF .                      No:  Trip for Fail 
 TQAA.f-kp               15.00:  Torque Abs Avg 
 TQAN.f-kp               12.00:  Torque Abs Min 
 TQAX.f-kp               19.00:  Torque Abs Max 
 TRRT.°/30m              -3.40:  Turn Rotating 
 MRT .                  EWR-M5:  Maximum Recorded Temperature 
 TTMX.degC              100.00:  Max Tool Temp 
 VS01.                90639251:  Virtual Str1 SN 
 VS02.                90634715:  Virtual Str2 SN 
 VS03.                90652479:  Virtual Str3 SN 
 VS04.                90642262:  Virtual Str4 SN 
 WBMN.klb                 0.00:  WOB Min 
 WITN.           Murad Guliyev:  Customer Rep 
 WITN.          Yashar Gaziyev:  Customer Rep 2 
 WOBA.klb                 9.00:  WOB Avg 
 WOBX.klb                12.00:  WOB Max 
 YP  .lhf2               30.00:  Yield Point 
~Curve Information Block
#MNEM.UNIT                 API CODE     Curve Description
#---------               -----------    ---------------------------
 TIME.HHMMSS            00 000 000 000:  GT Time & Date
 GTDEPTH.m              00 000 000 000:  GT Depth
 GTPQH.psia             00 000 000 000:  GT HR Quartz Pressure
 GTTQ.degC              00 000 000 000:  GT Quartz Temperature
 GTTN.NONE              00 000 000 000:  GT Test Number
 GTET.sec               00 000 000 000:  GT Elapsed Test Time
 GTTVD.m                00 000 000 000:  GT True Vertical Depth
#Other Information
#
#WARRANTY: Halliburton will use its best efforts to furnish customers with 
#accurate information and interpretations that are part of, and incident to, the services 
#provided.  However, Halliburton cannot and does not warrant the accuracy 
#or correctness of such information and interpretations.  Under no circumstances should any 
#such information or interpretation be relied upon as the sole basis for any drilling, 
#completion, production, or financial decision or any procedure involving any risk to the 
#safety of any drilling venture, drilling rig or its crew or any other third party.  The 
#Customer has full responsibility for all drilling, completion and production operation.  
#Halliburton makes no representations or warranties, either expressed or 
#implied, including, but not limited to, the implied warranties of merchantability or fitness 
#for a particular purpose, with respect to the services rendered.  In no event will 
#Halliburton be liable for failure to obtain any particular results or for 
#any damages, including, but not limited to, indirect, special or consequential damages, 
#resulting from the use of any information or interpretation provided by Halliburton.
#
~A           TIME           GTDEPTH  GTPQH  GTTQ  GTTN   GTET   GTTVD  
# ...
   02:03:51.065.28-Aug-2021 4879.00 7763.69 81.09 27.00 361.71 3229.53
   02:03:51.266.28-Aug-2021 4879.00 7755.79 81.09 27.00 361.91 3229.53
   02:03:51.466.28-Aug-2021 4879.00 7758.96 81.09 27.00 362.11 3229.53
   02:03:51.666.28-Aug-2021 4879.00 7758.96 81.09 27.00 362.31 3229.53
   02:03:51.866.28-Aug-2021 4879.00 7757.60 81.09 27.00 362.51 3229.53
   02:03:52.066.28-Aug-2021 4879.00 7757.39 81.09 27.00 362.71 3229.53
   02:03:52.266.28-Aug-2021 4879.00 7757.31 81.09 27.00 362.91 3229.53
   02:03:52.466.28-Aug-2021 4879.00 7756.97 81.09 27.00 363.11 3229.53
   02:03:52.666.28-Aug-2021 4879.00 7756.97 81.09 27.00 363.31 3229.53
   02:03:52.866.28-Aug-2021 4879.00 7757.71 81.09 27.00 363.51 3229.53
   02:03:53.066.28-Aug-2021 4879.00 7757.92 81.09 27.00 363.71 3229.53
   02:03:53.266.28-Aug-2021 4879.00 7758.19 81.09 27.00 363.91 3229.53
   02:03:53.466.28-Aug-2021 4879.00 7758.26 81.09 27.00 364.11 3229.53
   02:03:53.666.28-Aug-2021 4879.00 7758.26 81.09 27.00 364.31 3229.53
   02:03:53.866.28-Aug-2021 4879.00 7758.22 81.09 27.00 364.51 3229.53
   02:03:54.066.28-Aug-2021 4879.00 7758.00 81.09 27.00 364.71 3229.53
   02:03:54.266.28-Aug-2021 4879.00 7759.69 81.09 27.00 364.91 3229.53
   02:03:54.467.28-Aug-2021 4879.00 7758.93 81.09 27.00 365.11 3229.53
   02:03:54.667.28-Aug-2021 4879.00 7758.93 81.09 27.00 365.32 3229.53
   02:03:54.867.28-Aug-2021 4879.00 7758.56 81.09 27.00 365.52 3229.53
   02:03:55.067.28-Aug-2021 4879.00 7757.82 81.09 27.00 365.72 3229.53
   02:03:55.267.28-Aug-2021 4879.00 7757.53 81.09 27.00 365.92 3229.53
   02:03:55.467.28-Aug-2021 4879.00 7757.43 81.09 27.00 366.12 3229.53
   02:03:55.667.28-Aug-2021 4879.00 7757.43 81.09 27.00 366.32 3229.53
   02:03:55.867.28-Aug-2021 4879.00 7757.63 81.09 27.00 366.52 3229.53
   02:03:56.067.28-Aug-2021 4879.00 7757.83 81.09 27.00 366.72 3229.53
   02:03:56.267.28-Aug-2021 4879.00 7758.25 81.09 27.00 366.92 3229.53
   02:03:56.467.28-Aug-2021 4879.00 7758.30 81.09 27.00 367.12 3229.53
   02:03:56.667.28-Aug-2021 4879.00 7758.30 81.09 27.00 367.32 3229.53
   02:03:56.867.28-Aug-2021 4879.00 7758.49 81.09 27.00 367.52 3229.53
   02:03:57.067.28-Aug-2021 4879.00 7758.40 81.09 27.00 367.72 3229.53
   02:03:57.267.28-Aug-2021 4879.00 7758.39 81.09 27.00 367.92 3229.53
   02:03:57.467.28-Aug-2021 4879.00 7758.22 81.09 27.00 368.12 3229.53
   02:03:57.668.28-Aug-2021 4879.00 7758.22 81.09 27.00 368.32 3229.53
   02:03:57.868.28-Aug-2021 4879.00 7759.32 81.08 27.00 368.52 3229.53
   02:03:58.068.28-Aug-2021 4879.00 7758.32 81.08 27.00 368.72 3229.53
   02:03:58.268.28-Aug-2021 4879.00 7758.81 81.08 27.00 368.92 3229.53
   02:03:58.468.28-Aug-2021 4879.00 7758.01 81.08 27.00 369.12 3229.53
   02:03:58.668.28-Aug-2021 4879.00 7758.01 81.08 27.00 369.32 3229.53
   02:03:58.868.28-Aug-2021 4879.00 7757.51 81.08 27.00 369.52 3229.53
   02:03:59.068.28-Aug-2021 4879.00 7758.66 81.08 27.00 369.72 3229.53
   02:03:59.268.28-Aug-2021 4879.00 7757.69 81.08 27.00 369.92 3229.53
   02:03:59.468.28-Aug-2021 4879.00 7757.44 81.08 27.00 370.12 3229.53
   02:03:59.668.28-Aug-2021 4879.00 7757.44 81.08 27.00 370.32 3229.53
   02:03:59.868.28-Aug-2021 4879.00 7760.82 81.08 27.00 370.52 3229.53
   02:04:00.068.28-Aug-2021 4879.00 7757.68 81.08 27.00 370.72 3229.53
   02:04:00.268.28-Aug-2021 4879.00 7758.84 81.08 27.00 370.92 3229.53
   02:04:00.468.28-Aug-2021 4879.00 7763.45 81.08 27.00 371.12 3229.53
   02:04:00.668.28-Aug-2021 4879.00 7763.45 81.08 27.00 371.32 3229.53
   02:04:00.869.28-Aug-2021 4879.00 7759.16 81.08 27.00 371.52 3229.53
   02:04:01.069.28-Aug-2021 4879.00 7758.48 81.08 27.00 371.72 3229.53
   02:04:01.269.28-Aug-2021 4879.00 7757.96 81.08 27.00 371.92 3229.53
   02:04:01.469.28-Aug-2021 4879.00 7757.63 81.08 27.00 372.12 3229.53
   02:04:01.669.28-Aug-2021 4879.00 7757.63 81.08 27.00 372.32 3229.53
   02:04:01.869.28-Aug-2021 4879.00 7757.24 81.08 27.00 372.52 3229.53
   02:04:02.069.28-Aug-2021 4879.00 7757.95 81.08 27.00 372.72 3229.53
   02:04:02.269.28-Aug-2021 4879.00 7757.94 81.08 27.00 372.92 3229.53
   02:04:02.469.28-Aug-2021 4879.00 7758.25 81.08 27.00 373.12 3229.53
   02:04:02.669.28-Aug-2021 4879.00 7758.25 81.08 27.00 373.32 3229.53
   02:04:02.869.28-Aug-2021 4879.00 7758.37 81.08 27.00 373.52 3229.53
   02:04:03.069.28-Aug-2021 4879.00 7758.43 81.08 27.00 373.72 3229.53
   02:04:03.269.28-Aug-2021 4879.00 7758.43 81.08 27.00 373.92 3229.53
   02:04:03.469.28-Aug-2021 4879.00 7758.34 81.08 27.00 374.12 3229.53
   02:04:03.669.28-Aug-2021 4879.00 7758.34 81.08 27.00 374.32 3229.53
   02:04:03.869.28-Aug-2021 4879.00 7759.44 81.08 27.00 374.52 3229.53
   02:04:04.070.28-Aug-2021 4879.00 7758.35 81.08 27.00 374.72 3229.53
   02:04:04.270.28-Aug-2021 4879.00 7759.01 81.08 27.00 374.92 3229.53
   02:04:04.470.28-Aug-2021 4879.00 7758.04 81.08 27.00 375.12 3229.53
   02:04:04.670.28-Aug-2021 4879.00 7758.04 81.08 27.00 375.32 3229.53
   02:04:04.870.28-Aug-2021 4879.00 7757.54 81.08 27.00 375.52 3229.53
   02:04:05.070.28-Aug-2021 4879.00 7757.68 81.08 27.00 375.72 3229.53
   02:04:05.270.28-Aug-2021 4879.00 7757.70 81.08 27.00 375.92 3229.53
   02:04:05.470.28-Aug-2021 4879.00 7757.78 81.08 27.00 376.12 3229.53
   02:04:05.670.28-Aug-2021 4879.00 7757.78 81.08 27.00 376.32 3229.53
   02:04:05.870.28-Aug-2021 4879.00 7758.16 81.08 27.00 376.52 3229.53
   02:04:06.070.28-Aug-2021 4879.00 7758.45 81.08 27.00 376.72 3229.53
   02:04:06.270.28-Aug-2021 4879.00 7758.24 81.08 27.00 376.92 3229.53
   02:04:06.470.28-Aug-2021 4879.00 7758.39 81.08 27.00 377.12 3229.53
   02:04:06.670.28-Aug-2021 4879.00 7758.39 81.08 27.00 377.32 3229.53
   02:04:06.870.28-Aug-2021 4879.00 7758.14 81.08 27.00 377.52 3229.53
   02:04:07.070.28-Aug-2021 4879.00 7759.58 81.08 27.00 377.72 3229.53
   02:04:07.271.28-Aug-2021 4879.00 7759.49 81.08 27.00 377.92 3229.53
   02:04:07.471.28-Aug-2021 4879.00 7758.30 81.08 27.00 378.12 3229.53
   02:04:07.671.28-Aug-2021 4879.00 7758.30 81.08 27.00 378.32 3229.53
   02:04:07.871.28-Aug-2021 4879.00 7758.11 81.08 27.00 378.52 3229.53
   02:04:08.071.28-Aug-2021 4879.00 7760.76 81.08 27.00 378.72 3229.53
   02:04:08.271.28-Aug-2021 4879.00 7757.69 81.08 27.00 378.92 3229.53
   02:04:08.471.28-Aug-2021 4879.00 7758.60 81.08 27.00 379.12 3229.53
   02:04:08.671.28-Aug-2021 4879.00 7758.60 81.08 27.00 379.32 3229.53
   02:04:08.871.28-Aug-2021 4879.00 7757.44 81.08 27.00 379.52 3229.53
   02:04:09.071.28-Aug-2021 4879.00 7757.59 81.08 27.00 379.72 3229.53
   02:04:09.271.28-Aug-2021 4879.00 7760.77 81.08 27.00 379.92 3229.53
   02:04:09.471.28-Aug-2021 4879.00 7757.81 81.08 27.00 380.12 3229.53
   02:04:09.671.28-Aug-2021 4879.00 7757.81 81.08 27.00 380.32 3229.53
   02:04:09.871.28-Aug-2021 4879.00 7763.44 81.08 27.00 380.52 3229.53
   02:04:10.071.28-Aug-2021 4879.00 7755.71 81.08 27.00 380.72 3229.53
   02:04:10.271.28-Aug-2021 4879.00 7758.98 81.08 27.00 380.92 3229.53
   02:04:10.472.28-Aug-2021 4879.00 7758.43 81.08 27.00 381.12 3229.53
   02:04:10.672.28-Aug-2021 4879.00 7758.43 81.08 27.00 381.32 3229.53
   02:04:10.872.28-Aug-2021 4879.00 7757.56 81.08 27.00 381.52 3229.53
   02:04:11.072.28-Aug-2021 4879.00 7757.51 81.08 27.00 381.72 3229.53
   02:04:11.272.28-Aug-2021 4879.00 7757.23 81.08 27.00 381.92 3229.53
   02:04:11.472.28-Aug-2021 4879.00 7757.80 81.08 27.00 382.12 3229.53
   02:04:11.672.28-Aug-2021 4879.00 7757.80 81.08 27.00 382.32 3229.53
   02:04:11.872.28-Aug-2021 4879.00 7758.13 81.08 27.00 382.52 3229.53
   02:04:12.072.28-Aug-2021 4879.00 7758.44 81.08 27.00 382.72 3229.53
   02:04:12.272.28-Aug-2021 4879.00 7758.41 81.08 27.00 382.92 3229.53
   02:04:12.472.28-Aug-2021 4879.00 7758.42 81.08 27.00 383.12 3229.53
   02:04:12.672.28-Aug-2021 4879.00 7758.42 81.08 27.00 383.32 3229.53
   02:04:12.872.28-Aug-2021 4879.00 7758.18 81.08 27.00 383.52 3229.53
   02:04:13.072.28-Aug-2021 4879.00 7759.51 81.08 27.00 383.72 3229.53
   02:04:13.272.28-Aug-2021 4879.00 7759.26 81.08 27.00 383.92 3229.53
   02:04:13.472.28-Aug-2021 4879.00 7758.12 81.08 27.00 384.12 3229.53
