~Version Information
 VERS.                  2.0:   CWLS log ASCII Standard -VERSION 2.0
 WRAP.                   NO:   One line per depth step
~Well Information Block
#MNEM.UNIT     VALUE/NAME     DESCRIPTION
#---------     -----------    ---------------------------
 STRT.S             06:14:43 27-Aug-21: START TIME 06:14:43 27-Aug-21
 STOP.S             06:21:54 27-Aug-21: STOP TIME  06:21:54 27-Aug-21
 STEP.S                   0.00: STEP TIME
 NULL.                 -999.25: NULL VALUE
 DFWT.                        :  DIST FWL TEXT
 DFST.                        :  DIST FSL TEXT
 DMF .             Drill Floor:  DRILL MEAS FROM
 STIM.      20.00.00 17-Aug-21:  START TIME
 DATE.      19.00.00 29-Aug-21:  END TIME
 SPUD.               15-Aug-21:  SPUD DATE
 NREF.                    Grid:  NORTH REFERENCE
 HPTY.       Minimum Curvature:  HOLE POS TYPE
 DMOD.             Drill Model:  DRILL MOD DESC
 SVYD.                  Survey:  SURVEY DESC
 ILTD.               Lithology:  INTERP LTH DESC
 FTOP.          Formation Tops:  FORM TOPS DESC
 RIG .              East Azeri:  RIG NAME
 PDAT.          Mean Sea Level:  PERMANENT DATUM
 FLD .                     ACG:  FIELD NAME
 SON .        AZ-XX-0907180857:  JOB NUMBER
 CTRY.              Azerbaijan:  COUNTRY NAME
 WELL.                    D23x:  WELL NAME
 SRVC.     Turan Drilling and Engineering:  CONTRACTOR
 COMP.     BP Exploration (Caspian Sea) Ltd.:  COMPANY
 UWI .            /AZE00000214:  UNIQUE WELL IDENTIFIER
 API .            /AZE00000214:  API NUMBER
 MDS .        Operator Entered:  MAG DATA SOURCE
 BASE.              Azerbaijan:  LOGGING EQUIPMENT BASE LOCATION
 REGN.                   EESSA:  REGION
 PROV.                    Baku:  PROVINCE
 STAT.                    Baku:  STATE NAME
 MWDS.                    Baku:  MWD SHOP
 DOE .                     N/A:  DOE NUMBER
 DCON.         Sperry Drilling:  DIRECTNL CONTR
 UNIT.                     N/A:  LOGGING EQUIPMENT ID
 WTYP.                Deviated:  WELL TYPE
 CNTY.                        :  COUNTY
 LOC .                        :  LOCATION
 LMF .             Drill Floor:  LOG MEASURED FROM
 TVDS.m                  43.60:  TVDSS CORRECTN
 LATI.deg                40.02:  LATITUDE
 LONG.deg                51.45:  LONGITUDE
 WHNS.m                  -7.04:  WELL HEAD N/S
 WHEW.m                  -0.67:  WELL HEAD E/W
 UTMX.m              538762.90:  UTM X
 UTMY.m             4431871.34:  UTM Y
 DFWL.m                   0.00:  DISTANCE FWL
 DFSL.m                   0.00:  DISTANCE FSL
 SDEP.m                4127.00:  START DEPTH
 TDD .m                5084.50:  TOTAL DEPTH (DRILLER)
 VSDR.deg               140.47:  VERT SEC DIRECT
 GVFD.g                   1.00:  GRAVITY FIELD
 MFLD.nT              50362.00:  MAGNETIC FIELD
 MDIP.deg                59.48:  MAGNETIC DIP
 MDEC.deg                 6.47:  MAGNETIC DECL
 GRDC.deg                 0.31:  GRID CORRECTION
 AZTC.deg                 6.16:  AZM TOTAL CORR
 EPD .m                   0.00:  ELEVATION
 EGL .m                   0.00:  GROUND ELEVATION
 WDMS.m                 151.80:  WD ELEV
 APD .m                  43.60:  DEPTH ABOVE PD
 DEP .m                4092.57:  DEPTH
 AGAP.m                  43.60:  AIR GAP
 VSEW.m                  -0.67:  VERT SEC E/W
 VSNS.m                  -7.04:  VERT SEC N/S
 EKB .m                  43.60:  KB ELEVATION
 EDF .m                  43.60:  DF ELEVATION
 TDL .m                 957.50:  TOTAL DEPTH (LOGGER)
 VSC .                       0:  VS TO CLOSURE
 MAGU.                 1851413:  MAGUTM CHECKSUM
~Parameter Information Block
#MNEM.UNIT       Value        Description
#---------     -----------    ---------------------------
 AV  .mps                 1.50:  Ann Velocity 
 AVMX.mps                 2.00:  Max Ann Veloc 
 AZIF.deg               184.66:  Azm, Final 
 BHAT.        Rotary Steerable:  BHA Type 
 BREV.rev               300.00:  Rev Bit Total 
 BROT.°/30m              -0.50:  Build Rotating 
 BS  .in                  8.50:  Bit Size 
 BSZ .in                  8.50:  Bit Size 
 BTPL.psig              370.00:  Bit Press Loss 
 CABU.                      No:  Customer Abuse 
 CGEO.      Behruz Shahbaliyev:  Customer Geo 
 COMM.                     4V:  Run Comments 1 
 TCS .hr                140.08:  Time Ciculation Ended 
 CV  .mps                 3.00:  Crit Velocity 
 CVMX.mps                 3.20:  Max Crit Veloc 
 DD1 .            Musa Ahmadov:  Direct Drillr 1 
 DD2 .           Hamid Ahmadov:  Direct Drillr 2 
 DDSV.               Geo-Pilot:  DD Service 
 DEFF.%                  98.40:  % Det Eff 
 DLRX.°/30m               3.40:  Dogleg Rot Max 
 DLSO.°/30m               1.45:  Dogleg Oriented 
 DLSX.°/30m               3.40:  Dogleg Str Max 
 DRET.      18.40.00 29-Aug-21:  Drill End Time 
 DRST.      21.00.00 20-Aug-21:  Drill Start Tim 
 DTIM.hr                 69.47:  Time Drilling 
 EDEP.m                5084.50:  End Depth 
 ENG1.      Artemiy Matviyanov:  Engineer 1 
 ENG2.         Almaz Almadatov:  Engineer 2 
 ETIM.      18.40.00 29-Aug-21:  End Time 
 FLOI.gpm               500.00:  Flow In 
 FLON.gpm               400.00:  Flow In Min 
 FLOS.cptm                0.00:  Fluid Loss 
 FLOX.gpm               500.00:  Flow In Max 
 DFT .        Mineral Oil Base:  Mud Type 
 HFLO.                      No:  High Flow 
 HPRE.                      No:  High Pressure 
 HTEM.                      No:  High Temp 
 HYDO.m                   1.80:  Hydro Offset 
 IFIN.deg                25.62:  Inc, Final 
 IMAX.deg                48.69:  Inc Max 
 IMIN.deg                24.01:  Inc Min 
 IMND.m                4962.57:  Inc Min Depth 
 IMXD.m                4119.01:  Inc Max Depth 
 JARR.                      No:  Jarring 
 LETM.      18.40.00 29-Aug-21:  Log End Time 
 LOST.hr                     0:  Lost Rig Time 
 LSTM.      21.00.00 20-Aug-21:  Log Start Time 
 MDCL.ppm             41500.00:  Mud Chlorides 
 MDES.     Inversion Oil/Synthetic:  Mud Desc 
 DFD .sg                  1.56:  Mud Density 
 MDMN.sg                  1.56:  Dens Mud Min 
 MDMX.sg                  1.56:  Dens Mud Max 
 MOIL.                      70:  Run Mud Oil % 
 MOWR.                   70:30:  Run Mud OWR 
 MSND.                     0.2:  Run Mud Sand % 
 MSOL.                    23.3:  Run Mud Solids% 
 DFV .spqt               78.00:  Mud Viscosity 
 MWOD.in                  6.75:  MWD Tool OD 
 MWSI.                      No:  Serv Intrp, MWD 
 OTIM.hr                218.30:  Time Operating 
 PCON.           Look Like New:  Pad Condition 
 PMAX.psia            11015.30:  Press Op, Max 
 PV  .cP                 38.00:  Mud PV 
 RUN .                     300:  Run Number 
 ROPA.m/hr               15.00:  ROP Avg 
 ROPN.m/hr                9.00:  ROP Min 
 ROPX.m/hr               17.00:  ROP Max 
 RPMA.rpm               120.00:  RPM Surface Avg 
 RPMN.rpm                90.00:  RPM Surface Min 
 RPMX.rpm               140.00:  RPM Surface Max 
 RRUN.                     300:  Rig Run Number 
 RTIM.hr                 31.53:  Time Reaming 
 SAZI.deg               331.64:  Azm, Start 
 SDEP.m                4127.00:  Start Depth 
 SIDD.                      No:  Serv Intrp, DD 
 SINC.deg                48.43:  Inc, Start 
 SPPA.psig             5830.00:  SPP Avg 
 SPPN.psig             5600.00:  SPP Min 
 SPPX.psig             5900.00:  SPP Max 
 STIM.      21.00.00 20-Aug-21:  Start Time 
 SVCS.                 DD, MWD:  Services 
 SVER.                    9.20:  Sperry Version 
 TDAT.m                 957.50:  Tot Depth Attmp 
 TDDF.                      No:  Trip for DD 
 TDLG.m                 957.50:  Tot Depth Loggd 
 TFF .                      No:  Trip for Fail 
 TQAA.f-kp               15.00:  Torque Abs Avg 
 TQAN.f-kp               12.00:  Torque Abs Min 
 TQAX.f-kp               19.00:  Torque Abs Max 
 TRRT.°/30m              -3.40:  Turn Rotating 
 MRT .                  EWR-M5:  Maximum Recorded Temperature 
 TTMX.degC              100.00:  Max Tool Temp 
 VS01.                90639251:  Virtual Str1 SN 
 VS02.                90634715:  Virtual Str2 SN 
 VS03.                90652479:  Virtual Str3 SN 
 VS04.                90642262:  Virtual Str4 SN 
 WBMN.klb                 0.00:  WOB Min 
 WITN.           Murad Guliyev:  Customer Rep 
 WITN.          Yashar Gaziyev:  Customer Rep 2 
 WOBA.klb                 9.00:  WOB Avg 
 WOBX.klb                12.00:  WOB Max 
 YP  .lhf2               30.00:  Yield Point 
~Curve Information Block
#MNEM.UNIT                 API CODE     Curve Description
#---------               -----------    ---------------------------
 TIME.HHMMSS            00 000 000 000:  GT Time & Date
 GTDEPTH.m              00 000 000 000:  GT Depth
 GTPQH.psia             00 000 000 000:  GT HR Quartz Pressure
 GTTQ.degC              00 000 000 000:  GT Quartz Temperature
 GTTN.NONE              00 000 000 000:  GT Test Number
 GTET.sec               00 000 000 000:  GT Elapsed Test Time
 GTTVD.m                00 000 000 000:  GT True Vertical Depth
#Other Information
#
#WARRANTY: Halliburton will use its best efforts to furnish customers with 
#accurate information and interpretations that are part of, and incident to, the services 
#provided.  However, Halliburton cannot and does not warrant the accuracy 
#or correctness of such information and interpretations.  Under no circumstances should any 
#such information or interpretation be relied upon as the sole basis for any drilling, 
#completion, production, or financial decision or any procedure involving any risk to the 
#safety of any drilling venture, drilling rig or its crew or any other third party.  The 
#Customer has full responsibility for all drilling, completion and production operation.  
#Halliburton makes no representations or warranties, either expressed or 
#implied, including, but not limited to, the implied warranties of merchantability or fitness 
#for a particular purpose, with respect to the services rendered.  In no event will 
#Halliburton be liable for failure to obtain any particular results or for 
#any damages, including, but not limited to, indirect, special or consequential damages, 
#resulting from the use of any information or interpretation provided by Halliburton.
#
~A           TIME           GTDEPTH  GTPQH  GTTQ  GTTN  GTET   GTTVD  
# ...
   06:15:06.626.27-Aug-2021 5020.50 7968.66 88.23 2.00  23.00 3358.11
   06:15:06.826.27-Aug-2021 5020.50 7968.66 88.23 2.00  23.20 3358.11
   06:15:07.026.27-Aug-2021 5020.50 7975.62 88.23 2.00  23.40 3358.11
   06:15:07.226.27-Aug-2021 5020.50 7968.66 88.23 2.00  23.60 3358.11
   06:15:07.426.27-Aug-2021 5020.50 7969.50 88.23 2.00  23.80 3358.11
   06:15:07.626.27-Aug-2021 5020.50 7969.81 88.23 2.00  24.00 3358.11
   06:15:07.826.27-Aug-2021 5020.50 7969.81 88.23 2.00  24.20 3358.11
   06:15:08.026.27-Aug-2021 5020.50 7970.24 88.23 2.00  24.40 3358.11
   06:15:08.226.27-Aug-2021 5020.50 7970.65 88.23 2.00  24.60 3358.11
   06:15:08.426.27-Aug-2021 5020.50 7970.30 88.23 2.00  24.80 3358.11
   06:15:08.626.27-Aug-2021 5020.50 7970.87 88.23 2.00  25.00 3358.11
   06:15:08.827.27-Aug-2021 5020.50 7970.87 88.23 2.00  25.20 3358.11
   06:15:09.027.27-Aug-2021 5020.50 7971.49 88.23 2.00  25.40 3358.11
   06:15:09.227.27-Aug-2021 5020.50 7972.54 88.23 2.00  25.60 3358.11
   06:15:09.427.27-Aug-2021 5020.50 7972.28 88.23 2.00  25.80 3358.11
   06:15:09.627.27-Aug-2021 5020.50 7972.30 88.23 2.00  26.00 3358.11
   06:15:09.827.27-Aug-2021 5020.50 7972.30 88.23 2.00  26.20 3358.11
   06:15:10.027.27-Aug-2021 5020.50 7972.16 88.23 2.00  26.40 3358.11
   06:15:10.227.27-Aug-2021 5020.50 7971.91 88.22 2.00  26.60 3358.11
   06:15:10.427.27-Aug-2021 5020.50 7978.92 88.22 2.00  26.80 3358.11
   06:15:10.627.27-Aug-2021 5020.50 7970.67 88.22 2.00  27.00 3358.11
   06:15:10.827.27-Aug-2021 5020.50 7970.67 88.22 2.00  27.20 3358.11
   06:15:11.027.27-Aug-2021 5020.50 7972.10 88.22 2.00  27.40 3358.11
   06:15:11.227.27-Aug-2021 5020.50 7978.72 88.22 2.00  27.60 3358.11
   06:15:11.427.27-Aug-2021 5020.50 7970.94 88.22 2.00  27.80 3358.11
   06:15:11.627.27-Aug-2021 5020.50 7972.53 88.22 2.00  28.00 3358.11
   06:15:11.827.27-Aug-2021 5020.50 7972.53 88.22 2.00  28.20 3358.11
   06:15:12.027.27-Aug-2021 5020.50 7972.28 88.22 2.00  28.40 3358.11
   06:15:12.227.27-Aug-2021 5020.50 7979.08 88.22 2.00  28.60 3358.11
   06:15:12.427.27-Aug-2021 5020.50 7971.95 88.22 2.00  28.80 3358.11
   06:15:12.627.27-Aug-2021 5020.50 7973.32 88.22 2.00  29.00 3358.11
   06:15:12.827.27-Aug-2021 5020.50 7973.32 88.22 2.00  29.20 3358.11
   06:15:13.027.27-Aug-2021 5020.50 7973.50 88.22 2.00  29.40 3358.11
   06:15:13.227.27-Aug-2021 5020.50 7980.71 88.22 2.00  29.60 3358.11
   06:15:13.427.27-Aug-2021 5020.50 7973.87 88.22 2.00  29.80 3358.11
   06:15:13.627.27-Aug-2021 5020.50 7974.00 88.22 2.00  30.00 3358.11
   06:15:13.827.27-Aug-2021 5020.50 7974.00 88.22 2.00  30.20 3358.11
   06:15:14.027.27-Aug-2021 5020.50 7974.33 88.22 2.00  30.40 3358.11
   06:15:14.227.27-Aug-2021 5020.50 7974.94 88.22 2.00  30.61 3358.11
   06:15:14.427.27-Aug-2021 5020.50 7975.52 88.22 2.00  30.81 3358.11
   06:15:14.627.27-Aug-2021 5020.50 7975.41 88.22 2.00  31.01 3358.11
   06:15:14.827.27-Aug-2021 5020.50 7975.41 88.22 2.00  31.21 3358.11
   06:15:15.028.27-Aug-2021 5020.50 7975.30 88.22 2.00  31.41 3358.11
   06:15:15.228.27-Aug-2021 5020.50 7975.69 88.22 2.00  31.61 3358.11
   06:15:15.428.27-Aug-2021 5020.50 7976.79 88.22 2.00  31.81 3358.11
   06:15:15.628.27-Aug-2021 5020.50 7976.73 88.22 2.00  32.01 3358.11
   06:15:15.828.27-Aug-2021 5020.50 7976.73 88.22 2.00  32.21 3358.11
   06:15:16.028.27-Aug-2021 5020.50 7976.45 88.22 2.00  32.41 3358.11
   06:15:16.228.27-Aug-2021 5020.50 7976.09 88.22 2.00  32.61 3358.11
   06:15:16.428.27-Aug-2021 5020.50 7983.12 88.22 2.00  32.81 3358.11
   06:15:16.628.27-Aug-2021 5020.50 7974.77 88.22 2.00  33.01 3358.11
   06:15:16.828.27-Aug-2021 5020.50 7974.77 88.22 2.00  33.21 3358.11
   06:15:17.028.27-Aug-2021 5020.50 7976.33 88.22 2.00  33.41 3358.11
   06:15:17.228.27-Aug-2021 5020.50 7976.67 88.22 2.00  33.61 3358.11
   06:15:17.428.27-Aug-2021 5020.50 7976.64 88.22 2.00  33.81 3358.11
   06:15:17.628.27-Aug-2021 5020.50 7977.39 88.22 2.00  34.01 3358.11
   06:15:17.828.27-Aug-2021 5020.50 7977.39 88.22 2.00  34.21 3358.11
   06:15:18.028.27-Aug-2021 5020.50 7977.09 88.22 2.00  34.41 3358.11
   06:15:18.228.27-Aug-2021 5020.50 7977.41 88.22 2.00  34.61 3358.11
   06:15:18.428.27-Aug-2021 5020.50 7977.77 88.22 2.00  34.81 3358.11
   06:15:18.628.27-Aug-2021 5020.50 7979.12 88.22 2.00  35.01 3358.11
   06:15:18.828.27-Aug-2021 5020.50 7979.12 88.22 2.00  35.21 3358.11
   06:15:19.028.27-Aug-2021 5020.50 7979.17 88.22 2.00  35.41 3358.11
   06:15:19.228.27-Aug-2021 5020.50 7979.07 88.22 2.00  35.61 3358.11
   06:15:19.428.27-Aug-2021 5020.50 7978.67 88.22 2.00  35.81 3358.11
   06:15:19.628.27-Aug-2021 5020.50 7979.03 88.22 2.00  36.01 3358.11
   06:15:19.828.27-Aug-2021 5020.50 7979.03 88.22 2.00  36.21 3358.11
   06:15:20.028.27-Aug-2021 5020.50 7981.33 88.22 2.00  36.41 3358.11
   06:15:20.228.27-Aug-2021 5020.50 7979.79 88.22 2.00  36.61 3358.11
   06:15:20.428.27-Aug-2021 5020.50 7978.57 88.22 2.00  36.81 3358.11
   06:15:20.628.27-Aug-2021 5020.50 7978.94 88.22 2.00  37.01 3358.11
   06:15:20.828.27-Aug-2021 5020.50 7978.94 88.22 2.00  37.21 3358.11
   06:15:21.029.27-Aug-2021 5020.50 7978.30 88.22 2.00  37.41 3358.11
   06:15:21.229.27-Aug-2021 5020.50 7978.49 88.22 2.00  37.61 3358.11
   06:15:21.429.27-Aug-2021 5020.50 7978.99 88.22 2.00  37.81 3358.11
   06:15:21.629.27-Aug-2021 5020.50 7985.39 88.22 2.00  38.01 3358.11
   06:15:21.829.27-Aug-2021 5020.50 7985.39 88.22 2.00  38.21 3358.11
   06:15:22.029.27-Aug-2021 5020.50 7979.87 88.22 2.00  38.41 3358.11
   06:15:22.229.27-Aug-2021 5020.50 7979.79 88.22 2.00  38.61 3358.11
   06:15:22.429.27-Aug-2021 5020.50 7979.80 88.22 2.00  38.81 3358.11
   06:15:22.629.27-Aug-2021 5020.50 7986.27 88.22 2.00  39.01 3358.11
   06:15:22.829.27-Aug-2021 5020.50 7986.27 88.22 2.00  39.21 3358.11
   06:15:23.029.27-Aug-2021 5020.50 7979.93 88.22 2.00  39.41 3358.11
   06:15:23.229.27-Aug-2021 5020.50 7980.81 88.22 2.00  39.61 3358.11
   06:15:23.429.27-Aug-2021 5020.50 7980.40 88.22 2.00  39.81 3358.11
   06:15:23.629.27-Aug-2021 5020.50 7981.16 88.22 2.00  40.01 3358.11
   06:15:23.829.27-Aug-2021 5020.50 7981.16 88.22 2.00  40.21 3358.11
   06:15:24.029.27-Aug-2021 5020.50 7980.61 88.22 2.00  40.41 3358.11
   06:15:24.229.27-Aug-2021 5020.50 7980.57 88.22 2.00  40.61 3358.11
   06:15:24.429.27-Aug-2021 5020.50 7980.40 88.22 2.00  40.81 3358.11
   06:15:24.629.27-Aug-2021 5020.50 7981.21 88.22 2.00  41.01 3358.11
   06:15:24.829.27-Aug-2021 5020.50 7981.21 88.22 2.00  41.21 3358.11
   06:15:25.029.27-Aug-2021 5020.50 7982.13 88.22 2.00  41.41 3358.11
   06:15:25.229.27-Aug-2021 5020.50 7981.98 88.22 2.00  41.61 3358.11
   06:15:25.429.27-Aug-2021 5020.50 7982.04 88.22 2.00  41.81 3358.11
   06:15:25.629.27-Aug-2021 5020.50 7981.88 88.22 2.00  42.01 3358.11
   06:15:25.829.27-Aug-2021 5020.50 7981.88 88.22 2.00  42.21 3358.11
   06:15:26.029.27-Aug-2021 5020.50 7982.33 88.22 2.00  42.41 3358.11
   06:15:26.229.27-Aug-2021 5020.50 7984.19 88.22 2.00  42.61 3358.11
   06:15:26.429.27-Aug-2021 5020.50 7984.62 88.22 2.00  42.81 3358.11
   06:15:26.629.27-Aug-2021 5020.50 7983.32 88.22 2.00  43.01 3358.11
   06:15:26.829.27-Aug-2021 5020.50 7983.32 88.22 2.00  43.21 3358.11
   06:15:27.029.27-Aug-2021 5020.50 7982.52 88.22 2.00  43.41 3358.11
   06:15:27.230.27-Aug-2021 5020.50 7982.43 88.21 2.00  43.61 3358.11
   06:15:27.430.27-Aug-2021 5020.50 7983.10 88.21 2.00  43.81 3358.11
   06:15:27.630.27-Aug-2021 5020.50 7981.99 88.21 2.00  44.01 3358.11
   06:15:27.830.27-Aug-2021 5020.50 7981.99 88.21 2.00  44.21 3358.11
   06:15:28.030.27-Aug-2021 5020.50 7982.51 88.21 2.00  44.41 3358.11
   06:15:28.230.27-Aug-2021 5020.50 7983.37 88.21 2.00  44.61 3358.11
   06:15:28.430.27-Aug-2021 5020.50 7984.15 88.21 2.00  44.81 3358.11
   06:15:28.630.27-Aug-2021 5020.50 7985.09 88.21 2.00  45.01 3358.11
   06:15:28.830.27-Aug-2021 5020.50 7985.09 88.21 2.00  45.21 3358.11
   06:15:29.030.27-Aug-2021 5020.50 7984.73 88.21 2.00  45.41 3358.11
   06:15:29.230.27-Aug-2021 5020.50 7984.66 88.21 2.00  45.61 3358.11
   06:15:29.430.27-Aug-2021 5020.50 7986.08 88.21 2.00  45.81 3358.11
