~Version Information
 VERS.                  2.0:   CWLS log ASCII Standard -VERSION 2.0
 WRAP.                   NO:   One line per depth step
~Well Information Block
#MNEM.UNIT     VALUE/NAME     DESCRIPTION
#---------     -----------    ---------------------------
 STRT.S             07:46:52 27-Aug-21: START TIME 07:46:52 27-Aug-21
 STOP.S             07:54:09 27-Aug-21: STOP TIME  07:54:09 27-Aug-21
 STEP.S                   0.00: STEP TIME
 NULL.                 -999.25: NULL VALUE
 DFWT.                        :  DIST FWL TEXT
 DFST.                        :  DIST FSL TEXT
 DMF .             Drill Floor:  DRILL MEAS FROM
 STIM.      20.00.00 17-Aug-21:  START TIME
 DATE.      19.00.00 29-Aug-21:  END TIME
 SPUD.               15-Aug-21:  SPUD DATE
 NREF.                    Grid:  NORTH REFERENCE
 HPTY.       Minimum Curvature:  HOLE POS TYPE
 DMOD.             Drill Model:  DRILL MOD DESC
 SVYD.                  Survey:  SURVEY DESC
 ILTD.               Lithology:  INTERP LTH DESC
 FTOP.          Formation Tops:  FORM TOPS DESC
 RIG .              East Azeri:  RIG NAME
 PDAT.          Mean Sea Level:  PERMANENT DATUM
 FLD .                     ACG:  FIELD NAME
 SON .        AZ-XX-0907180857:  JOB NUMBER
 CTRY.              Azerbaijan:  COUNTRY NAME
 WELL.                    D23x:  WELL NAME
 SRVC.     Turan Drilling and Engineering:  CONTRACTOR
 COMP.     BP Exploration (Caspian Sea) Ltd.:  COMPANY
 UWI .            /AZE00000214:  UNIQUE WELL IDENTIFIER
 API .            /AZE00000214:  API NUMBER
 MDS .        Operator Entered:  MAG DATA SOURCE
 BASE.              Azerbaijan:  LOGGING EQUIPMENT BASE LOCATION
 REGN.                   EESSA:  REGION
 PROV.                    Baku:  PROVINCE
 STAT.                    Baku:  STATE NAME
 MWDS.                    Baku:  MWD SHOP
 DOE .                     N/A:  DOE NUMBER
 DCON.         Sperry Drilling:  DIRECTNL CONTR
 UNIT.                     N/A:  LOGGING EQUIPMENT ID
 WTYP.                Deviated:  WELL TYPE
 CNTY.                        :  COUNTY
 LOC .                        :  LOCATION
 LMF .             Drill Floor:  LOG MEASURED FROM
 TVDS.m                  43.60:  TVDSS CORRECTN
 LATI.deg                40.02:  LATITUDE
 LONG.deg                51.45:  LONGITUDE
 WHNS.m                  -7.04:  WELL HEAD N/S
 WHEW.m                  -0.67:  WELL HEAD E/W
 UTMX.m              538762.90:  UTM X
 UTMY.m             4431871.34:  UTM Y
 DFWL.m                   0.00:  DISTANCE FWL
 DFSL.m                   0.00:  DISTANCE FSL
 SDEP.m                4127.00:  START DEPTH
 TDD .m                5084.50:  TOTAL DEPTH (DRILLER)
 VSDR.deg               140.47:  VERT SEC DIRECT
 GVFD.g                   1.00:  GRAVITY FIELD
 MFLD.nT              50362.00:  MAGNETIC FIELD
 MDIP.deg                59.48:  MAGNETIC DIP
 MDEC.deg                 6.47:  MAGNETIC DECL
 GRDC.deg                 0.31:  GRID CORRECTION
 AZTC.deg                 6.16:  AZM TOTAL CORR
 EPD .m                   0.00:  ELEVATION
 EGL .m                   0.00:  GROUND ELEVATION
 WDMS.m                 151.80:  WD ELEV
 APD .m                  43.60:  DEPTH ABOVE PD
 DEP .m                4092.57:  DEPTH
 AGAP.m                  43.60:  AIR GAP
 VSEW.m                  -0.67:  VERT SEC E/W
 VSNS.m                  -7.04:  VERT SEC N/S
 EKB .m                  43.60:  KB ELEVATION
 EDF .m                  43.60:  DF ELEVATION
 TDL .m                 957.50:  TOTAL DEPTH (LOGGER)
 VSC .                       0:  VS TO CLOSURE
 MAGU.                 1851413:  MAGUTM CHECKSUM
~Parameter Information Block
#MNEM.UNIT       Value        Description
#---------     -----------    ---------------------------
 AV  .mps                 1.50:  Ann Velocity 
 AVMX.mps                 2.00:  Max Ann Veloc 
 AZIF.deg               184.66:  Azm, Final 
 BHAT.        Rotary Steerable:  BHA Type 
 BREV.rev               300.00:  Rev Bit Total 
 BROT.°/30m              -0.50:  Build Rotating 
 BS  .in                  8.50:  Bit Size 
 BSZ .in                  8.50:  Bit Size 
 BTPL.psig              370.00:  Bit Press Loss 
 CABU.                      No:  Customer Abuse 
 CGEO.      Behruz Shahbaliyev:  Customer Geo 
 COMM.                     T\d:  Run Comments 1 
 TCS .hr                140.08:  Time Ciculation Ended 
 CV  .mps                 3.00:  Crit Velocity 
 CVMX.mps                 3.20:  Max Crit Veloc 
 DD1 .            Musa Ahmadov:  Direct Drillr 1 
 DD2 .           Hamid Ahmadov:  Direct Drillr 2 
 DDSV.               Geo-Pilot:  DD Service 
 DEFF.%                  98.40:  % Det Eff 
 DLRX.°/30m               3.40:  Dogleg Rot Max 
 DLSO.°/30m               1.45:  Dogleg Oriented 
 DLSX.°/30m               3.40:  Dogleg Str Max 
 DRET.      18.40.00 29-Aug-21:  Drill End Time 
 DRST.      21.00.00 20-Aug-21:  Drill Start Tim 
 DTIM.hr                 69.47:  Time Drilling 
 EDEP.m                5084.50:  End Depth 
 ENG1.      Artemiy Matviyanov:  Engineer 1 
 ENG2.         Almaz Almadatov:  Engineer 2 
 ETIM.      18.40.00 29-Aug-21:  End Time 
 FLOI.gpm               500.00:  Flow In 
 FLON.gpm               400.00:  Flow In Min 
 FLOS.cptm                0.00:  Fluid Loss 
 FLOX.gpm               500.00:  Flow In Max 
 DFT .        Mineral Oil Base:  Mud Type 
 HFLO.                      No:  High Flow 
 HPRE.                      No:  High Pressure 
 HTEM.                      No:  High Temp 
 HYDO.m                   1.80:  Hydro Offset 
 IFIN.deg                25.62:  Inc, Final 
 IMAX.deg                48.69:  Inc Max 
 IMIN.deg                24.01:  Inc Min 
 IMND.m                4962.57:  Inc Min Depth 
 IMXD.m                4119.01:  Inc Max Depth 
 JARR.                      No:  Jarring 
 LETM.      18.40.00 29-Aug-21:  Log End Time 
 LOST.hr                     0:  Lost Rig Time 
 LSTM.      21.00.00 20-Aug-21:  Log Start Time 
 MDCL.ppm             41500.00:  Mud Chlorides 
 MDES.     Inversion Oil/Synthetic:  Mud Desc 
 DFD .sg                  1.56:  Mud Density 
 MDMN.sg                  1.56:  Dens Mud Min 
 MDMX.sg                  1.56:  Dens Mud Max 
 MOIL.                      70:  Run Mud Oil % 
 MOWR.                   70:30:  Run Mud OWR 
 MSND.                     0.2:  Run Mud Sand % 
 MSOL.                    23.3:  Run Mud Solids% 
 DFV .spqt               78.00:  Mud Viscosity 
 MWOD.in                  6.75:  MWD Tool OD 
 MWSI.                      No:  Serv Intrp, MWD 
 OTIM.hr                218.30:  Time Operating 
 PCON.           Look Like New:  Pad Condition 
 PMAX.psia            11015.30:  Press Op, Max 
 PV  .cP                 38.00:  Mud PV 
 RUN .                     300:  Run Number 
 ROPA.m/hr               15.00:  ROP Avg 
 ROPN.m/hr                9.00:  ROP Min 
 ROPX.m/hr               17.00:  ROP Max 
 RPMA.rpm               120.00:  RPM Surface Avg 
 RPMN.rpm                90.00:  RPM Surface Min 
 RPMX.rpm               140.00:  RPM Surface Max 
 RRUN.                     300:  Rig Run Number 
 RTIM.hr                 31.53:  Time Reaming 
 SAZI.deg               331.64:  Azm, Start 
 SDEP.m                4127.00:  Start Depth 
 SIDD.                      No:  Serv Intrp, DD 
 SINC.deg                48.43:  Inc, Start 
 SPPA.psig             5830.00:  SPP Avg 
 SPPN.psig             5600.00:  SPP Min 
 SPPX.psig             5900.00:  SPP Max 
 STIM.      21.00.00 20-Aug-21:  Start Time 
 SVCS.                 DD, MWD:  Services 
 SVER.                    9.20:  Sperry Version 
 TDAT.m                 957.50:  Tot Depth Attmp 
 TDDF.                      No:  Trip for DD 
 TDLG.m                 957.50:  Tot Depth Loggd 
 TFF .                      No:  Trip for Fail 
 TQAA.f-kp               15.00:  Torque Abs Avg 
 TQAN.f-kp               12.00:  Torque Abs Min 
 TQAX.f-kp               19.00:  Torque Abs Max 
 TRRT.°/30m              -3.40:  Turn Rotating 
 MRT .                  EWR-M5:  Maximum Recorded Temperature 
 TTMX.degC              100.00:  Max Tool Temp 
 VS01.                90639251:  Virtual Str1 SN 
 VS02.                90634715:  Virtual Str2 SN 
 VS03.                90652479:  Virtual Str3 SN 
 VS04.                90642262:  Virtual Str4 SN 
 WBMN.klb                 0.00:  WOB Min 
 WITN.           Murad Guliyev:  Customer Rep 
 WITN.          Yashar Gaziyev:  Customer Rep 2 
 WOBA.klb                 9.00:  WOB Avg 
 WOBX.klb                12.00:  WOB Max 
 YP  .lhf2               30.00:  Yield Point 
~Curve Information Block
#MNEM.UNIT                 API CODE     Curve Description
#---------               -----------    ---------------------------
 TIME.HHMMSS            00 000 000 000:  GT Time & Date
 GTDEPTH.m              00 000 000 000:  GT Depth
 GTPQH.psia             00 000 000 000:  GT HR Quartz Pressure
 GTTQ.degC              00 000 000 000:  GT Quartz Temperature
 GTTN.NONE              00 000 000 000:  GT Test Number
 GTET.sec               00 000 000 000:  GT Elapsed Test Time
 GTTVD.m                00 000 000 000:  GT True Vertical Depth
#Other Information
#
#WARRANTY: Halliburton will use its best efforts to furnish customers with 
#accurate information and interpretations that are part of, and incident to, the services 
#provided.  However, Halliburton cannot and does not warrant the accuracy 
#or correctness of such information and interpretations.  Under no circumstances should any 
#such information or interpretation be relied upon as the sole basis for any drilling, 
#completion, production, or financial decision or any procedure involving any risk to the 
#safety of any drilling venture, drilling rig or its crew or any other third party.  The 
#Customer has full responsibility for all drilling, completion and production operation.  
#Halliburton makes no representations or warranties, either expressed or 
#implied, including, but not limited to, the implied warranties of merchantability or fitness 
#for a particular purpose, with respect to the services rendered.  In no event will 
#Halliburton be liable for failure to obtain any particular results or for 
#any damages, including, but not limited to, indirect, special or consequential damages, 
#resulting from the use of any information or interpretation provided by Halliburton.
#
~A           TIME           GTDEPTH  GTPQH  GTTQ  GTTN  GTET   GTTVD  
# ...
   07:48:47.549.27-Aug-2021 5003.00 4274.40 87.38 4.00 115.02 3342.33
   07:48:47.749.27-Aug-2021 5003.00 4274.40 87.38 4.00 115.22 3342.33
   07:48:47.949.27-Aug-2021 5003.00 4274.47 87.38 4.00 115.42 3342.33
   07:48:48.149.27-Aug-2021 5003.00 4274.42 87.38 4.00 115.62 3342.33
   07:48:48.349.27-Aug-2021 5003.00 4274.03 87.38 4.00 115.82 3342.33
   07:48:48.549.27-Aug-2021 5003.00 4273.90 87.38 4.00 116.02 3342.33
   07:48:48.749.27-Aug-2021 5003.00 4273.90 87.38 4.00 116.22 3342.33
   07:48:48.950.27-Aug-2021 5003.00 4274.02 87.38 4.00 116.42 3342.33
   07:48:49.150.27-Aug-2021 5003.00 4274.08 87.38 4.00 116.62 3342.33
   07:48:49.350.27-Aug-2021 5003.00 4274.12 87.38 4.00 116.82 3342.33
   07:48:49.550.27-Aug-2021 5003.00 4274.09 87.38 4.00 117.02 3342.33
   07:48:49.750.27-Aug-2021 5003.00 4274.09 87.38 4.00 117.22 3342.33
   07:48:49.950.27-Aug-2021 5003.00 4273.85 87.38 4.00 117.42 3342.33
   07:48:50.150.27-Aug-2021 5003.00 4273.91 87.38 4.00 117.62 3342.33
   07:48:50.350.27-Aug-2021 5003.00 4273.94 87.38 4.00 117.82 3342.33
   07:48:50.550.27-Aug-2021 5003.00 4273.83 87.38 4.00 118.02 3342.33
   07:48:50.750.27-Aug-2021 5003.00 4273.83 87.38 4.00 118.22 3342.33
   07:48:50.950.27-Aug-2021 5003.00 4273.78 87.38 4.00 118.42 3342.33
   07:48:51.150.27-Aug-2021 5003.00 4273.82 87.38 4.00 118.62 3342.33
   07:48:51.350.27-Aug-2021 5003.00 4273.86 87.38 4.00 118.82 3342.33
   07:48:51.550.27-Aug-2021 5003.00 4273.70 87.38 4.00 119.02 3342.33
   07:48:51.750.27-Aug-2021 5003.00 4273.70 87.38 4.00 119.22 3342.33
   07:48:51.950.27-Aug-2021 5003.00 4273.75 87.38 4.00 119.42 3342.33
   07:48:52.150.27-Aug-2021 5003.00 4273.79 87.38 4.00 119.62 3342.33
   07:48:52.350.27-Aug-2021 5003.00 4273.83 87.38 4.00 119.82 3342.33
   07:48:52.550.27-Aug-2021 5003.00 4273.89 87.38 4.00 120.02 3342.33
   07:48:52.750.27-Aug-2021 5003.00 4273.89 87.38 4.00 120.22 3342.33
   07:48:52.950.27-Aug-2021 5003.00 4273.98 87.38 4.00 120.42 3342.33
   07:48:53.150.27-Aug-2021 5003.00 4274.03 87.38 4.00 120.62 3342.33
   07:48:53.350.27-Aug-2021 5003.00 4274.07 87.38 4.00 120.82 3342.33
   07:48:53.550.27-Aug-2021 5003.00 4274.11 87.38 4.00 121.02 3342.33
   07:48:53.750.27-Aug-2021 5003.00 4274.11 87.38 4.00 121.22 3342.33
   07:48:53.950.27-Aug-2021 5003.00 4274.17 87.38 4.00 121.42 3342.33
   07:48:54.150.27-Aug-2021 5003.00 4274.20 87.38 4.00 121.62 3342.33
   07:48:54.350.27-Aug-2021 5003.00 4274.22 87.38 4.00 121.82 3342.33
   07:48:54.550.27-Aug-2021 5003.00 4274.00 87.38 4.00 122.02 3342.33
   07:48:54.750.27-Aug-2021 5003.00 4274.00 87.38 4.00 122.22 3342.33
   07:48:54.950.27-Aug-2021 5003.00 4273.90 87.38 4.00 122.42 3342.33
   07:48:55.151.27-Aug-2021 5003.00 4273.94 87.38 4.00 122.62 3342.33
   07:48:55.351.27-Aug-2021 5003.00 4273.99 87.38 4.00 122.82 3342.33
   07:48:55.551.27-Aug-2021 5003.00 4274.03 87.38 4.00 123.02 3342.33
   07:48:55.751.27-Aug-2021 5003.00 4274.03 87.38 4.00 123.22 3342.33
   07:48:55.951.27-Aug-2021 5003.00 4274.11 87.38 4.00 123.42 3342.33
   07:48:56.151.27-Aug-2021 5003.00 4274.14 87.38 4.00 123.62 3342.33
   07:48:56.351.27-Aug-2021 5003.00 4274.18 87.38 4.00 123.82 3342.33
   07:48:56.551.27-Aug-2021 5003.00 4274.22 87.38 4.00 124.02 3342.33
   07:48:56.751.27-Aug-2021 5003.00 4274.22 87.38 4.00 124.22 3342.33
   07:48:56.951.27-Aug-2021 5003.00 4274.26 87.38 4.00 124.42 3342.33
   07:48:57.151.27-Aug-2021 5003.00 4274.30 87.38 4.00 124.62 3342.33
   07:48:57.351.27-Aug-2021 5003.00 4274.32 87.38 4.00 124.82 3342.33
   07:48:57.551.27-Aug-2021 5003.00 4274.35 87.38 4.00 125.02 3342.33
   07:48:57.751.27-Aug-2021 5003.00 4274.35 87.38 4.00 125.22 3342.33
   07:48:57.951.27-Aug-2021 5003.00 4273.91 87.38 4.00 125.42 3342.33
   07:48:58.151.27-Aug-2021 5003.00 4273.89 87.38 4.00 125.62 3342.33
   07:48:58.351.27-Aug-2021 5003.00 4273.93 87.38 4.00 125.82 3342.33
   07:48:58.551.27-Aug-2021 5003.00 4273.97 87.38 4.00 126.02 3342.33
   07:48:58.751.27-Aug-2021 5003.00 4273.97 87.38 4.00 126.22 3342.33
   07:48:58.951.27-Aug-2021 5003.00 4274.05 87.38 4.00 126.42 3342.33
   07:48:59.151.27-Aug-2021 5003.00 4273.94 87.38 4.00 126.62 3342.33
   07:48:59.351.27-Aug-2021 5003.00 4273.80 87.38 4.00 126.82 3342.33
   07:48:59.551.27-Aug-2021 5003.00 4273.81 87.38 4.00 127.02 3342.33
   07:48:59.751.27-Aug-2021 5003.00 4273.81 87.38 4.00 127.22 3342.33
   07:48:59.951.27-Aug-2021 5003.00 4273.85 87.38 4.00 127.42 3342.33
   07:49:00.151.27-Aug-2021 5003.00 4273.77 87.38 4.00 127.62 3342.33
   07:49:00.351.27-Aug-2021 5003.00 4273.70 87.38 4.00 127.82 3342.33
   07:49:00.551.27-Aug-2021 5003.00 4273.72 87.38 4.00 128.02 3342.33
   07:49:00.751.27-Aug-2021 5003.00 4273.72 87.38 4.00 128.22 3342.33
   07:49:00.951.27-Aug-2021 5003.00 4273.73 87.38 4.00 128.42 3342.33
   07:49:01.152.27-Aug-2021 5003.00 4273.65 87.38 4.00 128.62 3342.33
   07:49:01.352.27-Aug-2021 5003.00 4273.65 87.38 4.00 128.82 3342.33
   07:49:01.552.27-Aug-2021 5003.00 4273.67 87.38 4.00 129.02 3342.33
   07:49:01.752.27-Aug-2021 5003.00 4273.67 87.38 4.00 129.22 3342.33
   07:49:01.952.27-Aug-2021 5003.00 4273.75 87.38 4.00 129.42 3342.33
   07:49:02.152.27-Aug-2021 5003.00 4273.77 87.38 4.00 129.62 3342.33
   07:49:02.352.27-Aug-2021 5003.00 4273.80 87.38 4.00 129.82 3342.33
   07:49:02.552.27-Aug-2021 5003.00 4273.83 87.38 4.00 130.02 3342.33
   07:49:02.752.27-Aug-2021 5003.00 4273.83 87.38 4.00 130.22 3342.33
   07:49:02.952.27-Aug-2021 5003.00 4273.90 87.38 4.00 130.42 3342.33
   07:49:03.152.27-Aug-2021 5003.00 4273.94 87.38 4.00 130.62 3342.33
   07:49:03.352.27-Aug-2021 5003.00 4273.96 87.38 4.00 130.82 3342.33
   07:49:03.552.27-Aug-2021 5003.00 4273.99 87.38 4.00 131.02 3342.33
   07:49:03.752.27-Aug-2021 5003.00 4273.99 87.38 4.00 131.22 3342.33
   07:49:03.952.27-Aug-2021 5003.00 4274.00 87.38 4.00 131.42 3342.33
   07:49:04.152.27-Aug-2021 5003.00 4273.87 87.38 4.00 131.62 3342.33
   07:49:04.352.27-Aug-2021 5003.00 4273.78 87.38 4.00 131.82 3342.33
   07:49:04.552.27-Aug-2021 5003.00 4273.81 87.38 4.00 132.02 3342.33
   07:49:04.752.27-Aug-2021 5003.00 4273.81 87.38 4.00 132.22 3342.33
   07:49:04.952.27-Aug-2021 5003.00 4273.87 87.38 4.00 132.42 3342.33
   07:49:05.152.27-Aug-2021 5003.00 4273.90 87.38 4.00 132.62 3342.33
   07:49:05.352.27-Aug-2021 5003.00 4273.93 87.38 4.00 132.82 3342.33
   07:49:05.552.27-Aug-2021 5003.00 4273.96 87.38 4.00 133.02 3342.33
   07:49:05.752.27-Aug-2021 5003.00 4273.96 87.38 4.00 133.22 3342.33
   07:49:05.952.27-Aug-2021 5003.00 4274.03 87.38 4.00 133.42 3342.33
   07:49:06.152.27-Aug-2021 5003.00 4274.04 87.38 4.00 133.62 3342.33
   07:49:06.352.27-Aug-2021 5003.00 4274.06 87.38 4.00 133.82 3342.33
   07:49:06.552.27-Aug-2021 5003.00 4274.08 87.38 4.00 134.02 3342.33
   07:49:06.752.27-Aug-2021 5003.00 4274.08 87.38 4.00 134.22 3342.33
   07:49:06.952.27-Aug-2021 5003.00 4274.12 87.38 4.00 134.42 3342.33
   07:49:07.152.27-Aug-2021 5003.00 4274.14 87.38 4.00 134.62 3342.33
   07:49:07.353.27-Aug-2021 5003.00 4274.02 87.38 4.00 134.82 3342.33
   07:49:07.553.27-Aug-2021 5003.00 4273.84 87.38 4.00 135.02 3342.33
   07:49:07.753.27-Aug-2021 5003.00 4273.84 87.38 4.00 135.22 3342.33
   07:49:07.953.27-Aug-2021 5003.00 4273.87 87.38 4.00 135.42 3342.33
   07:49:08.153.27-Aug-2021 5003.00 4273.91 87.38 4.00 135.62 3342.33
   07:49:08.353.27-Aug-2021 5003.00 4273.94 87.38 4.00 135.82 3342.33
   07:49:08.553.27-Aug-2021 5003.00 4273.93 87.38 4.00 136.02 3342.33
   07:49:08.753.27-Aug-2021 5003.00 4273.93 87.38 4.00 136.22 3342.33
   07:49:08.953.27-Aug-2021 5003.00 4273.73 87.38 4.00 136.42 3342.33
   07:49:09.153.27-Aug-2021 5003.00 4273.72 87.38 4.00 136.62 3342.33
   07:49:09.353.27-Aug-2021 5003.00 4273.76 87.38 4.00 136.82 3342.33
   07:49:09.553.27-Aug-2021 5003.00 4273.77 87.38 4.00 137.02 3342.33
   07:49:09.753.27-Aug-2021 5003.00 4273.77 87.38 4.00 137.22 3342.33
   07:49:09.953.27-Aug-2021 5003.00 4273.62 87.38 4.00 137.42 3342.33
   07:49:10.153.27-Aug-2021 5003.00 4273.65 87.38 4.00 137.62 3342.33
   07:49:10.353.27-Aug-2021 5003.00 4273.66 87.38 4.00 137.82 3342.33
