~Version Information
 VERS.                  2.0:   CWLS log ASCII Standard -VERSION 2.0
 WRAP.                   NO:   One line per depth step
~Well Information Block
#MNEM.UNIT     VALUE/NAME     DESCRIPTION
#---------     -----------    ---------------------------
 STRT.S             05:44:14 27-Aug-21: START TIME 05:44:14 27-Aug-21
 STOP.S             05:51:24 27-Aug-21: STOP TIME  05:51:24 27-Aug-21
 STEP.S                   0.00: STEP TIME
 NULL.                 -999.25: NULL VALUE
 DFWT.                        :  DIST FWL TEXT
 DFST.                        :  DIST FSL TEXT
 DMF .             Drill Floor:  DRILL MEAS FROM
 STIM.      20.00.00 17-Aug-21:  START TIME
 DATE.      19.00.00 29-Aug-21:  END TIME
 SPUD.               15-Aug-21:  SPUD DATE
 NREF.                    Grid:  NORTH REFERENCE
 HPTY.       Minimum Curvature:  HOLE POS TYPE
 DMOD.             Drill Model:  DRILL MOD DESC
 SVYD.                  Survey:  SURVEY DESC
 ILTD.               Lithology:  INTERP LTH DESC
 FTOP.          Formation Tops:  FORM TOPS DESC
 RIG .              East Azeri:  RIG NAME
 PDAT.          Mean Sea Level:  PERMANENT DATUM
 FLD .                     ACG:  FIELD NAME
 SON .        AZ-XX-0907180857:  JOB NUMBER
 CTRY.              Azerbaijan:  COUNTRY NAME
 WELL.                    D23x:  WELL NAME
 SRVC.     Turan Drilling and Engineering:  CONTRACTOR
 COMP.     BP Exploration (Caspian Sea) Ltd.:  COMPANY
 UWI .            /AZE00000214:  UNIQUE WELL IDENTIFIER
 API .            /AZE00000214:  API NUMBER
 MDS .        Operator Entered:  MAG DATA SOURCE
 BASE.              Azerbaijan:  LOGGING EQUIPMENT BASE LOCATION
 REGN.                   EESSA:  REGION
 PROV.                    Baku:  PROVINCE
 STAT.                    Baku:  STATE NAME
 MWDS.                    Baku:  MWD SHOP
 DOE .                     N/A:  DOE NUMBER
 DCON.         Sperry Drilling:  DIRECTNL CONTR
 UNIT.                     N/A:  LOGGING EQUIPMENT ID
 WTYP.                Deviated:  WELL TYPE
 CNTY.                        :  COUNTY
 LOC .                        :  LOCATION
 LMF .             Drill Floor:  LOG MEASURED FROM
 TVDS.m                  43.60:  TVDSS CORRECTN
 LATI.deg                40.02:  LATITUDE
 LONG.deg                51.45:  LONGITUDE
 WHNS.m                  -7.04:  WELL HEAD N/S
 WHEW.m                  -0.67:  WELL HEAD E/W
 UTMX.m              538762.90:  UTM X
 UTMY.m             4431871.34:  UTM Y
 DFWL.m                   0.00:  DISTANCE FWL
 DFSL.m                   0.00:  DISTANCE FSL
 SDEP.m                4127.00:  START DEPTH
 TDD .m                5084.50:  TOTAL DEPTH (DRILLER)
 VSDR.deg               140.47:  VERT SEC DIRECT
 GVFD.g                   1.00:  GRAVITY FIELD
 MFLD.nT              50362.00:  MAGNETIC FIELD
 MDIP.deg                59.48:  MAGNETIC DIP
 MDEC.deg                 6.47:  MAGNETIC DECL
 GRDC.deg                 0.31:  GRID CORRECTION
 AZTC.deg                 6.16:  AZM TOTAL CORR
 EPD .m                   0.00:  ELEVATION
 EGL .m                   0.00:  GROUND ELEVATION
 WDMS.m                 151.80:  WD ELEV
 APD .m                  43.60:  DEPTH ABOVE PD
 DEP .m                4092.57:  DEPTH
 AGAP.m                  43.60:  AIR GAP
 VSEW.m                  -0.67:  VERT SEC E/W
 VSNS.m                  -7.04:  VERT SEC N/S
 EKB .m                  43.60:  KB ELEVATION
 EDF .m                  43.60:  DF ELEVATION
 TDL .m                 957.50:  TOTAL DEPTH (LOGGER)
 VSC .                       0:  VS TO CLOSURE
 MAGU.                 1851413:  MAGUTM CHECKSUM
~Parameter Information Block
#MNEM.UNIT       Value        Description
#---------     -----------    ---------------------------
 AV  .mps                 1.50:  Ann Velocity 
 AVMX.mps                 2.00:  Max Ann Veloc 
 AZIF.deg               184.66:  Azm, Final 
 BHAT.        Rotary Steerable:  BHA Type 
 BREV.rev               300.00:  Rev Bit Total 
 BROT.°/30m              -0.50:  Build Rotating 
 BS  .in                  8.50:  Bit Size 
 BSZ .in                  8.50:  Bit Size 
 BTPL.psig              370.00:  Bit Press Loss 
 CABU.                      No:  Customer Abuse 
 CGEO.      Behruz Shahbaliyev:  Customer Geo 
 COMM.                     ä=U:  Run Comments 1 
 TCS .hr                140.08:  Time Ciculation Ended 
 CV  .mps                 3.00:  Crit Velocity 
 CVMX.mps                 3.20:  Max Crit Veloc 
 DD1 .            Musa Ahmadov:  Direct Drillr 1 
 DD2 .           Hamid Ahmadov:  Direct Drillr 2 
 DDSV.               Geo-Pilot:  DD Service 
 DEFF.%                  98.40:  % Det Eff 
 DLRX.°/30m               3.40:  Dogleg Rot Max 
 DLSO.°/30m               1.45:  Dogleg Oriented 
 DLSX.°/30m               3.40:  Dogleg Str Max 
 DRET.      18.40.00 29-Aug-21:  Drill End Time 
 DRST.      21.00.00 20-Aug-21:  Drill Start Tim 
 DTIM.hr                 69.47:  Time Drilling 
 EDEP.m                5084.50:  End Depth 
 ENG1.      Artemiy Matviyanov:  Engineer 1 
 ENG2.         Almaz Almadatov:  Engineer 2 
 ETIM.      18.40.00 29-Aug-21:  End Time 
 FLOI.gpm               500.00:  Flow In 
 FLON.gpm               400.00:  Flow In Min 
 FLOS.cptm                0.00:  Fluid Loss 
 FLOX.gpm               500.00:  Flow In Max 
 DFT .        Mineral Oil Base:  Mud Type 
 HFLO.                      No:  High Flow 
 HPRE.                      No:  High Pressure 
 HTEM.                      No:  High Temp 
 HYDO.m                   1.80:  Hydro Offset 
 IFIN.deg                25.62:  Inc, Final 
 IMAX.deg                48.69:  Inc Max 
 IMIN.deg                24.01:  Inc Min 
 IMND.m                4962.57:  Inc Min Depth 
 IMXD.m                4119.01:  Inc Max Depth 
 JARR.                      No:  Jarring 
 LETM.      18.40.00 29-Aug-21:  Log End Time 
 LOST.hr                     0:  Lost Rig Time 
 LSTM.      21.00.00 20-Aug-21:  Log Start Time 
 MDCL.ppm             41500.00:  Mud Chlorides 
 MDES.     Inversion Oil/Synthetic:  Mud Desc 
 DFD .sg                  1.56:  Mud Density 
 MDMN.sg                  1.56:  Dens Mud Min 
 MDMX.sg                  1.56:  Dens Mud Max 
 MOIL.                      70:  Run Mud Oil % 
 MOWR.                   70:30:  Run Mud OWR 
 MSND.                     0.2:  Run Mud Sand % 
 MSOL.                    23.3:  Run Mud Solids% 
 DFV .spqt               78.00:  Mud Viscosity 
 MWOD.in                  6.75:  MWD Tool OD 
 MWSI.                      No:  Serv Intrp, MWD 
 OTIM.hr                218.30:  Time Operating 
 PCON.           Look Like New:  Pad Condition 
 PMAX.psia            11015.30:  Press Op, Max 
 PV  .cP                 38.00:  Mud PV 
 RUN .                     300:  Run Number 
 ROPA.m/hr               15.00:  ROP Avg 
 ROPN.m/hr                9.00:  ROP Min 
 ROPX.m/hr               17.00:  ROP Max 
 RPMA.rpm               120.00:  RPM Surface Avg 
 RPMN.rpm                90.00:  RPM Surface Min 
 RPMX.rpm               140.00:  RPM Surface Max 
 RRUN.                     300:  Rig Run Number 
 RTIM.hr                 31.53:  Time Reaming 
 SAZI.deg               331.64:  Azm, Start 
 SDEP.m                4127.00:  Start Depth 
 SIDD.                      No:  Serv Intrp, DD 
 SINC.deg                48.43:  Inc, Start 
 SPPA.psig             5830.00:  SPP Avg 
 SPPN.psig             5600.00:  SPP Min 
 SPPX.psig             5900.00:  SPP Max 
 STIM.      21.00.00 20-Aug-21:  Start Time 
 SVCS.                 DD, MWD:  Services 
 SVER.                    9.20:  Sperry Version 
 TDAT.m                 957.50:  Tot Depth Attmp 
 TDDF.                      No:  Trip for DD 
 TDLG.m                 957.50:  Tot Depth Loggd 
 TFF .                      No:  Trip for Fail 
 TQAA.f-kp               15.00:  Torque Abs Avg 
 TQAN.f-kp               12.00:  Torque Abs Min 
 TQAX.f-kp               19.00:  Torque Abs Max 
 TRRT.°/30m              -3.40:  Turn Rotating 
 MRT .                  EWR-M5:  Maximum Recorded Temperature 
 TTMX.degC              100.00:  Max Tool Temp 
 VS01.                90639251:  Virtual Str1 SN 
 VS02.                90634715:  Virtual Str2 SN 
 VS03.                90652479:  Virtual Str3 SN 
 VS04.                90642262:  Virtual Str4 SN 
 WBMN.klb                 0.00:  WOB Min 
 WITN.           Murad Guliyev:  Customer Rep 
 WITN.          Yashar Gaziyev:  Customer Rep 2 
 WOBA.klb                 9.00:  WOB Avg 
 WOBX.klb                12.00:  WOB Max 
 YP  .lhf2               30.00:  Yield Point 
~Curve Information Block
#MNEM.UNIT                 API CODE     Curve Description
#---------               -----------    ---------------------------
 TIME.HHMMSS            00 000 000 000:  GT Time & Date
 GTDEPTH.m              00 000 000 000:  GT Depth
 GTPQH.psia             00 000 000 000:  GT HR Quartz Pressure
 GTTQ.degC              00 000 000 000:  GT Quartz Temperature
 GTTN.NONE              00 000 000 000:  GT Test Number
 GTET.sec               00 000 000 000:  GT Elapsed Test Time
 GTTVD.m                00 000 000 000:  GT True Vertical Depth
#Other Information
#
#WARRANTY: Halliburton will use its best efforts to furnish customers with 
#accurate information and interpretations that are part of, and incident to, the services 
#provided.  However, Halliburton cannot and does not warrant the accuracy 
#or correctness of such information and interpretations.  Under no circumstances should any 
#such information or interpretation be relied upon as the sole basis for any drilling, 
#completion, production, or financial decision or any procedure involving any risk to the 
#safety of any drilling venture, drilling rig or its crew or any other third party.  The 
#Customer has full responsibility for all drilling, completion and production operation.  
#Halliburton makes no representations or warranties, either expressed or 
#implied, including, but not limited to, the implied warranties of merchantability or fitness 
#for a particular purpose, with respect to the services rendered.  In no event will 
#Halliburton be liable for failure to obtain any particular results or for 
#any damages, including, but not limited to, indirect, special or consequential damages, 
#resulting from the use of any information or interpretation provided by Halliburton.
#
~A           TIME           GTDEPTH  GTPQH  GTTQ  GTTN  GTET   GTTVD  
# ...
   05:48:04.360.27-Aug-2021 5021.00 7997.67 88.56 1.00 230.04 3358.56
   05:48:04.560.27-Aug-2021 5021.00 7997.67 88.56 1.00 230.24 3358.56
   05:48:04.760.27-Aug-2021 5021.00 7998.96 88.56 1.00 230.44 3358.56
   05:48:04.960.27-Aug-2021 5021.00 7999.56 88.56 1.00 230.64 3358.56
   05:48:05.160.27-Aug-2021 5021.00 7998.93 88.56 1.00 230.84 3358.56
   05:48:05.360.27-Aug-2021 5021.00 7998.91 88.56 1.00 231.04 3358.56
   05:48:05.560.27-Aug-2021 5021.00 7998.91 88.56 1.00 231.24 3358.56
   05:48:05.760.27-Aug-2021 5021.00 7998.59 88.56 1.00 231.44 3358.56
   05:48:05.960.27-Aug-2021 5021.00 8000.11 88.56 1.00 231.64 3358.56
   05:48:06.160.27-Aug-2021 5021.00 8000.85 88.56 1.00 231.84 3358.56
   05:48:06.360.27-Aug-2021 5021.00 7999.93 88.56 1.00 232.04 3358.56
   05:48:06.560.27-Aug-2021 5021.00 7999.93 88.56 1.00 232.24 3358.56
   05:48:06.760.27-Aug-2021 5021.00 7998.14 88.56 1.00 232.44 3358.56
   05:48:06.960.27-Aug-2021 5021.00 7997.84 88.56 1.00 232.64 3358.56
   05:48:07.160.27-Aug-2021 5021.00 8002.76 88.56 1.00 232.84 3358.56
   05:48:07.360.27-Aug-2021 5021.00 7998.97 88.56 1.00 233.04 3358.56
   05:48:07.560.27-Aug-2021 5021.00 7998.97 88.56 1.00 233.24 3358.56
   05:48:07.760.27-Aug-2021 5021.00 7997.44 88.56 1.00 233.44 3358.56
   05:48:07.960.27-Aug-2021 5021.00 7997.45 88.56 1.00 233.64 3358.56
   05:48:08.160.27-Aug-2021 5021.00 8003.34 88.56 1.00 233.84 3358.56
   05:48:08.360.27-Aug-2021 5021.00 7999.37 88.56 1.00 234.04 3358.56
   05:48:08.560.27-Aug-2021 5021.00 7999.37 88.56 1.00 234.24 3358.56
   05:48:08.760.27-Aug-2021 5021.00 8003.73 88.56 1.00 234.44 3358.56
   05:48:08.960.27-Aug-2021 5021.00 7996.43 88.56 1.00 234.64 3358.56
   05:48:09.161.27-Aug-2021 5021.00 7999.01 88.56 1.00 234.84 3358.56
   05:48:09.361.27-Aug-2021 5021.00 7997.97 88.56 1.00 235.04 3358.56
   05:48:09.561.27-Aug-2021 5021.00 7997.97 88.56 1.00 235.24 3358.56
   05:48:09.761.27-Aug-2021 5021.00 7996.81 88.56 1.00 235.44 3358.56
   05:48:09.961.27-Aug-2021 5021.00 7997.61 88.56 1.00 235.64 3358.56
   05:48:10.161.27-Aug-2021 5021.00 7997.21 88.56 1.00 235.84 3358.56
   05:48:10.361.27-Aug-2021 5021.00 7998.36 88.56 1.00 236.04 3358.56
   05:48:10.561.27-Aug-2021 5021.00 7998.36 88.56 1.00 236.24 3358.56
   05:48:10.761.27-Aug-2021 5021.00 7998.45 88.55 1.00 236.44 3358.56
   05:48:10.961.27-Aug-2021 5021.00 7999.25 88.55 1.00 236.64 3358.56
   05:48:11.161.27-Aug-2021 5021.00 7999.23 88.55 1.00 236.84 3358.56
   05:48:11.361.27-Aug-2021 5021.00 7999.04 88.55 1.00 237.04 3358.56
   05:48:11.561.27-Aug-2021 5021.00 7999.04 88.55 1.00 237.24 3358.56
   05:48:11.761.27-Aug-2021 5021.00 7998.98 88.55 1.00 237.44 3358.56
   05:48:11.961.27-Aug-2021 5021.00 8000.10 88.55 1.00 237.64 3358.56
   05:48:12.161.27-Aug-2021 5021.00 8000.98 88.55 1.00 237.84 3358.56
   05:48:12.361.27-Aug-2021 5021.00 7999.87 88.55 1.00 238.04 3358.56
   05:48:12.561.27-Aug-2021 5021.00 7999.87 88.55 1.00 238.24 3358.56
   05:48:12.761.27-Aug-2021 5021.00 7998.40 88.55 1.00 238.44 3358.56
   05:48:12.961.27-Aug-2021 5021.00 7997.91 88.55 1.00 238.64 3358.56
   05:48:13.161.27-Aug-2021 5021.00 7998.79 88.55 1.00 238.84 3358.56
   05:48:13.361.27-Aug-2021 5021.00 7997.51 88.55 1.00 239.04 3358.56
   05:48:13.561.27-Aug-2021 5021.00 7997.51 88.55 1.00 239.24 3358.56
   05:48:13.761.27-Aug-2021 5021.00 7997.56 88.55 1.00 239.44 3358.56
   05:48:13.961.27-Aug-2021 5021.00 7998.29 88.55 1.00 239.64 3358.56
   05:48:14.161.27-Aug-2021 5021.00 7999.19 88.55 1.00 239.84 3358.56
   05:48:14.361.27-Aug-2021 5021.00 7999.72 88.55 1.00 240.04 3358.56
   05:48:14.561.27-Aug-2021 5021.00 7999.72 88.55 1.00 240.24 3358.56
   05:48:14.761.27-Aug-2021 5021.00 7998.97 88.55 1.00 240.44 3358.56
   05:48:14.961.27-Aug-2021 5021.00 7999.11 88.55 1.00 240.64 3358.56
   05:48:15.161.27-Aug-2021 5021.00 7998.76 88.55 1.00 240.84 3358.56
   05:48:15.362.27-Aug-2021 5021.00 7998.90 88.55 1.00 241.04 3358.56
   05:48:15.562.27-Aug-2021 5021.00 7998.90 88.55 1.00 241.24 3358.56
   05:48:15.762.27-Aug-2021 5021.00 7999.84 88.55 1.00 241.44 3358.56
   05:48:15.962.27-Aug-2021 5021.00 7997.98 88.55 1.00 241.64 3358.56
   05:48:16.162.27-Aug-2021 5021.00 7998.02 88.55 1.00 241.84 3358.56
   05:48:16.362.27-Aug-2021 5021.00 7998.05 88.55 1.00 242.04 3358.56
   05:48:16.562.27-Aug-2021 5021.00 7998.05 88.55 1.00 242.24 3358.56
   05:48:16.762.27-Aug-2021 5021.00 7996.03 88.55 1.00 242.44 3358.56
   05:48:16.962.27-Aug-2021 5021.00 7996.99 88.55 1.00 242.64 3358.56
   05:48:17.162.27-Aug-2021 5021.00 7997.39 88.55 1.00 242.84 3358.56
   05:48:17.362.27-Aug-2021 5021.00 7997.49 88.55 1.00 243.04 3358.56
   05:48:17.562.27-Aug-2021 5021.00 7997.49 88.55 1.00 243.24 3358.56
   05:48:17.762.27-Aug-2021 5021.00 7997.31 88.55 1.00 243.44 3358.56
   05:48:17.962.27-Aug-2021 5021.00 7997.42 88.55 1.00 243.64 3358.56
   05:48:18.162.27-Aug-2021 5021.00 7999.37 88.55 1.00 243.84 3358.56
   05:48:18.362.27-Aug-2021 5021.00 7999.82 88.55 1.00 244.04 3358.56
   05:48:18.562.27-Aug-2021 5021.00 7999.82 88.55 1.00 244.24 3358.56
   05:48:18.762.27-Aug-2021 5021.00 7998.40 88.55 1.00 244.44 3358.56
   05:48:18.962.27-Aug-2021 5021.00 7997.97 88.55 1.00 244.64 3358.56
   05:48:19.162.27-Aug-2021 5021.00 7997.38 88.55 1.00 244.84 3358.56
   05:48:19.362.27-Aug-2021 5021.00 7997.71 88.55 1.00 245.04 3358.56
   05:48:19.562.27-Aug-2021 5021.00 7997.71 88.55 1.00 245.24 3358.56
   05:48:19.762.27-Aug-2021 5021.00 7998.31 88.55 1.00 245.44 3358.56
   05:48:19.962.27-Aug-2021 5021.00 7998.54 88.55 1.00 245.64 3358.56
   05:48:20.162.27-Aug-2021 5021.00 7998.48 88.55 1.00 245.84 3358.56
   05:48:20.362.27-Aug-2021 5021.00 7999.49 88.55 1.00 246.04 3358.56
   05:48:20.562.27-Aug-2021 5021.00 7999.49 88.55 1.00 246.24 3358.56
   05:48:20.762.27-Aug-2021 5021.00 7999.30 88.55 1.00 246.44 3358.56
   05:48:20.962.27-Aug-2021 5021.00 7999.32 88.55 1.00 246.64 3358.56
   05:48:21.162.27-Aug-2021 5021.00 7999.09 88.55 1.00 246.84 3358.56
   05:48:21.363.27-Aug-2021 5021.00 7998.96 88.55 1.00 247.04 3358.56
   05:48:21.563.27-Aug-2021 5021.00 7998.96 88.55 1.00 247.24 3358.56
   05:48:21.763.27-Aug-2021 5021.00 7999.88 88.55 1.00 247.44 3358.56
   05:48:21.963.27-Aug-2021 5021.00 7997.77 88.55 1.00 247.64 3358.56
   05:48:22.163.27-Aug-2021 5021.00 7998.32 88.55 1.00 247.84 3358.56
   05:48:22.363.27-Aug-2021 5021.00 7997.83 88.55 1.00 248.04 3358.56
   05:48:22.563.27-Aug-2021 5021.00 7997.83 88.55 1.00 248.24 3358.56
   05:48:22.763.27-Aug-2021 5021.00 7997.82 88.55 1.00 248.44 3358.56
   05:48:22.963.27-Aug-2021 5021.00 7997.55 88.55 1.00 248.64 3358.56
   05:48:23.163.27-Aug-2021 5021.00 7997.81 88.55 1.00 248.84 3358.56
   05:48:23.363.27-Aug-2021 5021.00 7997.82 88.55 1.00 249.04 3358.56
   05:48:23.563.27-Aug-2021 5021.00 7997.82 88.55 1.00 249.24 3358.56
   05:48:23.763.27-Aug-2021 5021.00 7999.49 88.55 1.00 249.44 3358.56
   05:48:23.963.27-Aug-2021 5021.00 7999.50 88.55 1.00 249.64 3358.56
   05:48:24.163.27-Aug-2021 5021.00 7999.05 88.55 1.00 249.84 3358.56
   05:48:24.363.27-Aug-2021 5021.00 7998.77 88.55 1.00 250.04 3358.56
   05:48:24.563.27-Aug-2021 5021.00 7998.77 88.55 1.00 250.24 3358.56
   05:48:24.763.27-Aug-2021 5021.00 7998.48 88.55 1.00 250.44 3358.56
   05:48:24.963.27-Aug-2021 5021.00 8006.34 88.54 1.00 250.64 3358.56
   05:48:25.163.27-Aug-2021 5021.00 7996.42 88.54 1.00 250.84 3358.56
   05:48:25.363.27-Aug-2021 5021.00 7997.85 88.54 1.00 251.04 3358.56
   05:48:25.563.27-Aug-2021 5021.00 7997.85 88.54 1.00 251.24 3358.56
   05:48:25.763.27-Aug-2021 5021.00 7997.84 88.54 1.00 251.44 3358.56
   05:48:25.963.27-Aug-2021 5021.00 8004.13 88.54 1.00 251.64 3358.56
   05:48:26.163.27-Aug-2021 5021.00 7997.01 88.54 1.00 251.84 3358.56
   05:48:26.363.27-Aug-2021 5021.00 7997.79 88.54 1.00 252.04 3358.56
   05:48:26.563.27-Aug-2021 5021.00 7997.79 88.54 1.00 252.24 3358.56
   05:48:26.763.27-Aug-2021 5021.00 7997.52 88.54 1.00 252.44 3358.56
   05:48:26.963.27-Aug-2021 5021.00 7999.08 88.54 1.00 252.64 3358.56
   05:48:27.163.27-Aug-2021 5021.00 8001.64 88.54 1.00 252.84 3358.56
