~Version Information
 VERS.                  2.0:   CWLS log ASCII Standard -VERSION 2.0
 WRAP.                   NO:   One line per depth step
~Well Information Block
#MNEM.UNIT     VALUE/NAME     DESCRIPTION
#---------     -----------    ---------------------------
 STRT.S             05:44:14 27-Aug-21: START TIME 05:44:14 27-Aug-21
 STOP.S             05:51:24 27-Aug-21: STOP TIME  05:51:24 27-Aug-21
 STEP.S                   0.00: STEP TIME
 NULL.                 -999.25: NULL VALUE
 DFWT.                        :  DIST FWL TEXT
 DFST.                        :  DIST FSL TEXT
 DMF .             Drill Floor:  DRILL MEAS FROM
 STIM.      20.00.00 17-Aug-21:  START TIME
 DATE.      19.00.00 29-Aug-21:  END TIME
 SPUD.               15-Aug-21:  SPUD DATE
 NREF.                    Grid:  NORTH REFERENCE
 HPTY.       Minimum Curvature:  HOLE POS TYPE
 DMOD.             Drill Model:  DRILL MOD DESC
 SVYD.                  Survey:  SURVEY DESC
 ILTD.               Lithology:  INTERP LTH DESC
 FTOP.          Formation Tops:  FORM TOPS DESC
 RIG .              East Azeri:  RIG NAME
 PDAT.          Mean Sea Level:  PERMANENT DATUM
 FLD .                     ACG:  FIELD NAME
 SON .        AZ-XX-0907180857:  JOB NUMBER
 CTRY.              Azerbaijan:  COUNTRY NAME
 WELL.                    D23x:  WELL NAME
 SRVC.     Turan Drilling and Engineering:  CONTRACTOR
 COMP.     BP Exploration (Caspian Sea) Ltd.:  COMPANY
 UWI .            /AZE00000214:  UNIQUE WELL IDENTIFIER
 API .            /AZE00000214:  API NUMBER
 MDS .        Operator Entered:  MAG DATA SOURCE
 BASE.              Azerbaijan:  LOGGING EQUIPMENT BASE LOCATION
 REGN.                   EESSA:  REGION
 PROV.                    Baku:  PROVINCE
 STAT.                    Baku:  STATE NAME
 MWDS.                    Baku:  MWD SHOP
 DOE .                     N/A:  DOE NUMBER
 DCON.         Sperry Drilling:  DIRECTNL CONTR
 UNIT.                     N/A:  LOGGING EQUIPMENT ID
 WTYP.                Deviated:  WELL TYPE
 CNTY.                        :  COUNTY
 LOC .                        :  LOCATION
 LMF .             Drill Floor:  LOG MEASURED FROM
 TVDS.m                  43.60:  TVDSS CORRECTN
 LATI.deg                40.02:  LATITUDE
 LONG.deg                51.45:  LONGITUDE
 WHNS.m                  -7.04:  WELL HEAD N/S
 WHEW.m                  -0.67:  WELL HEAD E/W
 UTMX.m              538762.90:  UTM X
 UTMY.m             4431871.34:  UTM Y
 DFWL.m                   0.00:  DISTANCE FWL
 DFSL.m                   0.00:  DISTANCE FSL
 SDEP.m                4127.00:  START DEPTH
 TDD .m                5084.50:  TOTAL DEPTH (DRILLER)
 VSDR.deg               140.47:  VERT SEC DIRECT
 GVFD.g                   1.00:  GRAVITY FIELD
 MFLD.nT              50362.00:  MAGNETIC FIELD
 MDIP.deg                59.48:  MAGNETIC DIP
 MDEC.deg                 6.47:  MAGNETIC DECL
 GRDC.deg                 0.31:  GRID CORRECTION
 AZTC.deg                 6.16:  AZM TOTAL CORR
 EPD .m                   0.00:  ELEVATION
 EGL .m                   0.00:  GROUND ELEVATION
 WDMS.m                 151.80:  WD ELEV
 APD .m                  43.60:  DEPTH ABOVE PD
 DEP .m                4092.57:  DEPTH
 AGAP.m                  43.60:  AIR GAP
 VSEW.m                  -0.67:  VERT SEC E/W
 VSNS.m                  -7.04:  VERT SEC N/S
 EKB .m                  43.60:  KB ELEVATION
 EDF .m                  43.60:  DF ELEVATION
 TDL .m                 957.50:  TOTAL DEPTH (LOGGER)
 VSC .                       0:  VS TO CLOSURE
 MAGU.                 1851413:  MAGUTM CHECKSUM
~Parameter Information Block
#MNEM.UNIT       Value        Description
#---------     -----------    ---------------------------
 AV  .mps                 1.50:  Ann Velocity 
 AVMX.mps                 2.00:  Max Ann Veloc 
 AZIF.deg               184.66:  Azm, Final 
 BHAT.        Rotary Steerable:  BHA Type 
 BREV.rev               300.00:  Rev Bit Total 
 BROT.°/30m              -0.50:  Build Rotating 
 BS  .in                  8.50:  Bit Size 
 BSZ .in                  8.50:  Bit Size 
 BTPL.psig              370.00:  Bit Press Loss 
 CABU.                      No:  Customer Abuse 
 CGEO.      Behruz Shahbaliyev:  Customer Geo 
 COMM.                     ä=U:  Run Comments 1 
 TCS .hr                140.08:  Time Ciculation Ended 
 CV  .mps                 3.00:  Crit Velocity 
 CVMX.mps                 3.20:  Max Crit Veloc 
 DD1 .            Musa Ahmadov:  Direct Drillr 1 
 DD2 .           Hamid Ahmadov:  Direct Drillr 2 
 DDSV.               Geo-Pilot:  DD Service 
 DEFF.%                  98.40:  % Det Eff 
 DLRX.°/30m               3.40:  Dogleg Rot Max 
 DLSO.°/30m               1.45:  Dogleg Oriented 
 DLSX.°/30m               3.40:  Dogleg Str Max 
 DRET.      18.40.00 29-Aug-21:  Drill End Time 
 DRST.      21.00.00 20-Aug-21:  Drill Start Tim 
 DTIM.hr                 69.47:  Time Drilling 
 EDEP.m                5084.50:  End Depth 
 ENG1.      Artemiy Matviyanov:  Engineer 1 
 ENG2.         Almaz Almadatov:  Engineer 2 
 ETIM.      18.40.00 29-Aug-21:  End Time 
 FLOI.gpm               500.00:  Flow In 
 FLON.gpm               400.00:  Flow In Min 
 FLOS.cptm                0.00:  Fluid Loss 
 FLOX.gpm               500.00:  Flow In Max 
 DFT .        Mineral Oil Base:  Mud Type 
 HFLO.                      No:  High Flow 
 HPRE.                      No:  High Pressure 
 HTEM.                      No:  High Temp 
 HYDO.m                   1.80:  Hydro Offset 
 IFIN.deg                25.62:  Inc, Final 
 IMAX.deg                48.69:  Inc Max 
 IMIN.deg                24.01:  Inc Min 
 IMND.m                4962.57:  Inc Min Depth 
 IMXD.m                4119.01:  Inc Max Depth 
 JARR.                      No:  Jarring 
 LETM.      18.40.00 29-Aug-21:  Log End Time 
 LOST.hr                     0:  Lost Rig Time 
 LSTM.      21.00.00 20-Aug-21:  Log Start Time 
 MDCL.ppm             41500.00:  Mud Chlorides 
 MDES.     Inversion Oil/Synthetic:  Mud Desc 
 DFD .sg                  1.56:  Mud Density 
 MDMN.sg                  1.56:  Dens Mud Min 
 MDMX.sg                  1.56:  Dens Mud Max 
 MOIL.                      70:  Run Mud Oil % 
 MOWR.                   70:30:  Run Mud OWR 
 MSND.                     0.2:  Run Mud Sand % 
 MSOL.                    23.3:  Run Mud Solids% 
 DFV .spqt               78.00:  Mud Viscosity 
 MWOD.in                  6.75:  MWD Tool OD 
 MWSI.                      No:  Serv Intrp, MWD 
 OTIM.hr                218.30:  Time Operating 
 PCON.           Look Like New:  Pad Condition 
 PMAX.psia            11015.30:  Press Op, Max 
 PV  .cP                 38.00:  Mud PV 
 RUN .                     300:  Run Number 
 ROPA.m/hr               15.00:  ROP Avg 
 ROPN.m/hr                9.00:  ROP Min 
 ROPX.m/hr               17.00:  ROP Max 
 RPMA.rpm               120.00:  RPM Surface Avg 
 RPMN.rpm                90.00:  RPM Surface Min 
 RPMX.rpm               140.00:  RPM Surface Max 
 RRUN.                     300:  Rig Run Number 
 RTIM.hr                 31.53:  Time Reaming 
 SAZI.deg               331.64:  Azm, Start 
 SDEP.m                4127.00:  Start Depth 
 SIDD.                      No:  Serv Intrp, DD 
 SINC.deg                48.43:  Inc, Start 
 SPPA.psig             5830.00:  SPP Avg 
 SPPN.psig             5600.00:  SPP Min 
 SPPX.psig             5900.00:  SPP Max 
 STIM.      21.00.00 20-Aug-21:  Start Time 
 SVCS.                 DD, MWD:  Services 
 SVER.                    9.20:  Sperry Version 
 TDAT.m                 957.50:  Tot Depth Attmp 
 TDDF.                      No:  Trip for DD 
 TDLG.m                 957.50:  Tot Depth Loggd 
 TFF .                      No:  Trip for Fail 
 TQAA.f-kp               15.00:  Torque Abs Avg 
 TQAN.f-kp               12.00:  Torque Abs Min 
 TQAX.f-kp               19.00:  Torque Abs Max 
 TRRT.°/30m              -3.40:  Turn Rotating 
 MRT .                  EWR-M5:  Maximum Recorded Temperature 
 TTMX.degC              100.00:  Max Tool Temp 
 VS01.                90639251:  Virtual Str1 SN 
 VS02.                90634715:  Virtual Str2 SN 
 VS03.                90652479:  Virtual Str3 SN 
 VS04.                90642262:  Virtual Str4 SN 
 WBMN.klb                 0.00:  WOB Min 
 WITN.           Murad Guliyev:  Customer Rep 
 WITN.          Yashar Gaziyev:  Customer Rep 2 
 WOBA.klb                 9.00:  WOB Avg 
 WOBX.klb                12.00:  WOB Max 
 YP  .lhf2               30.00:  Yield Point 
~Curve Information Block
#MNEM.UNIT                 API CODE     Curve Description
#---------               -----------    ---------------------------
 TIME.HHMMSS            00 000 000 000:  GT Time & Date
 GTDEPTH.m              00 000 000 000:  GT Depth
 GTPQH.psia             00 000 000 000:  GT HR Quartz Pressure
 GTTQ.degC              00 000 000 000:  GT Quartz Temperature
 GTTN.NONE              00 000 000 000:  GT Test Number
 GTET.sec               00 000 000 000:  GT Elapsed Test Time
 GTTVD.m                00 000 000 000:  GT True Vertical Depth
#Other Information
#
#WARRANTY: Halliburton will use its best efforts to furnish customers with 
#accurate information and interpretations that are part of, and incident to, the services 
#provided.  However, Halliburton cannot and does not warrant the accuracy 
#or correctness of such information and interpretations.  Under no circumstances should any 
#such information or interpretation be relied upon as the sole basis for any drilling, 
#completion, production, or financial decision or any procedure involving any risk to the 
#safety of any drilling venture, drilling rig or its crew or any other third party.  The 
#Customer has full responsibility for all drilling, completion and production operation.  
#Halliburton makes no representations or warranties, either expressed or 
#implied, including, but not limited to, the implied warranties of merchantability or fitness 
#for a particular purpose, with respect to the services rendered.  In no event will 
#Halliburton be liable for failure to obtain any particular results or for 
#any damages, including, but not limited to, indirect, special or consequential damages, 
#resulting from the use of any information or interpretation provided by Halliburton.
#
~A           TIME           GTDEPTH  GTPQH  GTTQ  GTTN  GTET   GTTVD  
# ...
   05:50:45.386.27-Aug-2021 5021.00 7995.80 88.46 1.00 391.06 3358.56
   05:50:45.586.27-Aug-2021 5021.00 7995.80 88.46 1.00 391.26 3358.56
   05:50:45.786.27-Aug-2021 5021.00 7999.32 88.46 1.00 391.46 3358.56
   05:50:45.986.27-Aug-2021 5021.00 7995.81 88.46 1.00 391.66 3358.56
   05:50:46.186.27-Aug-2021 5021.00 7995.57 88.46 1.00 391.86 3358.56
   05:50:46.386.27-Aug-2021 5021.00 7994.47 88.46 1.00 392.06 3358.56
   05:50:46.586.27-Aug-2021 5021.00 7994.47 88.46 1.00 392.26 3358.56
   05:50:46.786.27-Aug-2021 5021.00 7994.30 88.46 1.00 392.46 3358.56
   05:50:46.986.27-Aug-2021 5021.00 7994.79 88.46 1.00 392.66 3358.56
   05:50:47.186.27-Aug-2021 5021.00 7994.14 88.46 1.00 392.86 3358.56
   05:50:47.386.27-Aug-2021 5021.00 7994.24 88.46 1.00 393.06 3358.56
   05:50:47.587.27-Aug-2021 5021.00 7994.24 88.46 1.00 393.26 3358.56
   05:50:47.787.27-Aug-2021 5021.00 7994.78 88.46 1.00 393.46 3358.56
   05:50:47.987.27-Aug-2021 5021.00 7995.76 88.46 1.00 393.66 3358.56
   05:50:48.187.27-Aug-2021 5021.00 7996.39 88.46 1.00 393.86 3358.56
   05:50:48.387.27-Aug-2021 5021.00 7995.78 88.46 1.00 394.06 3358.56
   05:50:48.587.27-Aug-2021 5021.00 7995.78 88.46 1.00 394.26 3358.56
   05:50:48.787.27-Aug-2021 5021.00 7995.24 88.46 1.00 394.46 3358.56
   05:50:48.987.27-Aug-2021 5021.00 7995.31 88.46 1.00 394.66 3358.56
   05:50:49.187.27-Aug-2021 5021.00 7995.07 88.46 1.00 394.86 3358.56
   05:50:49.387.27-Aug-2021 5021.00 7998.47 88.46 1.00 395.06 3358.56
   05:50:49.587.27-Aug-2021 5021.00 7998.47 88.46 1.00 395.26 3358.56
   05:50:49.787.27-Aug-2021 5021.00 7994.02 88.46 1.00 395.46 3358.56
   05:50:49.987.27-Aug-2021 5021.00 7994.41 88.46 1.00 395.66 3358.56
   05:50:50.187.27-Aug-2021 5021.00 7994.14 88.46 1.00 395.87 3358.56
   05:50:50.387.27-Aug-2021 5021.00 7998.61 88.46 1.00 396.07 3358.56
   05:50:50.587.27-Aug-2021 5021.00 7998.61 88.46 1.00 396.27 3358.56
   05:50:50.787.27-Aug-2021 5021.00 7993.72 88.46 1.00 396.47 3358.56
   05:50:50.987.27-Aug-2021 5021.00 7993.71 88.45 1.00 396.67 3358.56
   05:50:51.187.27-Aug-2021 5021.00 7993.92 88.45 1.00 396.87 3358.56
   05:50:51.387.27-Aug-2021 5021.00 7999.07 88.45 1.00 397.07 3358.56
   05:50:51.587.27-Aug-2021 5021.00 7999.07 88.45 1.00 397.27 3358.56
   05:50:51.787.27-Aug-2021 5021.00 7994.33 88.45 1.00 397.47 3358.56
   05:50:51.987.27-Aug-2021 5021.00 7994.08 88.45 1.00 397.67 3358.56
   05:50:52.187.27-Aug-2021 5021.00 8002.38 88.45 1.00 397.87 3358.56
   05:50:52.387.27-Aug-2021 5021.00 7993.00 88.45 1.00 398.07 3358.56
   05:50:52.587.27-Aug-2021 5021.00 7993.00 88.45 1.00 398.27 3358.56
   05:50:52.787.27-Aug-2021 5021.00 7994.23 88.45 1.00 398.47 3358.56
   05:50:52.987.27-Aug-2021 5021.00 7993.56 88.45 1.00 398.67 3358.56
   05:50:53.187.27-Aug-2021 5021.00 7993.89 88.45 1.00 398.87 3358.56
   05:50:53.387.27-Aug-2021 5021.00 7994.77 88.45 1.00 399.07 3358.56
   05:50:53.588.27-Aug-2021 5021.00 7994.77 88.45 1.00 399.27 3358.56
   05:50:53.788.27-Aug-2021 5021.00 7994.41 88.45 1.00 399.47 3358.56
   05:50:53.988.27-Aug-2021 5021.00 7994.33 88.45 1.00 399.67 3358.56
   05:50:54.188.27-Aug-2021 5021.00 7994.81 88.45 1.00 399.87 3358.56
   05:50:54.388.27-Aug-2021 5021.00 7995.76 88.45 1.00 400.07 3358.56
   05:50:54.588.27-Aug-2021 5021.00 7995.76 88.45 1.00 400.27 3358.56
   05:50:54.788.27-Aug-2021 5021.00 7995.77 88.45 1.00 400.47 3358.56
   05:50:54.988.27-Aug-2021 5021.00 7995.69 88.45 1.00 400.67 3358.56
   05:50:55.188.27-Aug-2021 5021.00 7995.17 88.45 1.00 400.87 3358.56
   05:50:55.388.27-Aug-2021 5021.00 7999.07 88.45 1.00 401.07 3358.56
   05:50:55.588.27-Aug-2021 5021.00 7999.07 88.45 1.00 401.27 3358.56
   05:50:55.788.27-Aug-2021 5021.00 7995.81 88.45 1.00 401.47 3358.56
   05:50:55.988.27-Aug-2021 5021.00 7994.47 88.45 1.00 401.67 3358.56
   05:50:56.188.27-Aug-2021 5021.00 7994.53 88.45 1.00 401.87 3358.56
   05:50:56.388.27-Aug-2021 5021.00 7994.18 88.45 1.00 402.07 3358.56
   05:50:56.588.27-Aug-2021 5021.00 7994.18 88.45 1.00 402.27 3358.56
   05:50:56.788.27-Aug-2021 5021.00 7993.81 88.45 1.00 402.47 3358.56
   05:50:56.988.27-Aug-2021 5021.00 7994.00 88.45 1.00 402.67 3358.56
   05:50:57.188.27-Aug-2021 5021.00 7994.11 88.45 1.00 402.87 3358.56
   05:50:57.388.27-Aug-2021 5021.00 7994.46 88.45 1.00 403.07 3358.56
   05:50:57.588.27-Aug-2021 5021.00 7994.46 88.45 1.00 403.27 3358.56
   05:50:57.788.27-Aug-2021 5021.00 7995.88 88.45 1.00 403.47 3358.56
   05:50:57.988.27-Aug-2021 5021.00 7995.49 88.45 1.00 403.67 3358.56
   05:50:58.188.27-Aug-2021 5021.00 7995.32 88.45 1.00 403.87 3358.56
   05:50:58.388.27-Aug-2021 5021.00 7994.88 88.45 1.00 404.07 3358.56
   05:50:58.588.27-Aug-2021 5021.00 7994.88 88.45 1.00 404.27 3358.56
   05:50:58.788.27-Aug-2021 5021.00 7996.13 88.45 1.00 404.47 3358.56
   05:50:58.988.27-Aug-2021 5021.00 7999.48 88.45 1.00 404.67 3358.56
   05:50:59.188.27-Aug-2021 5021.00 7997.40 88.45 1.00 404.87 3358.56
   05:50:59.388.27-Aug-2021 5021.00 7994.94 88.45 1.00 405.07 3358.56
   05:50:59.588.27-Aug-2021 5021.00 7994.94 88.45 1.00 405.27 3358.56
   05:50:59.789.27-Aug-2021 5021.00 7994.95 88.45 1.00 405.47 3358.56
   05:50:59.989.27-Aug-2021 5021.00 8001.44 88.45 1.00 405.67 3358.56
   05:51:00.189.27-Aug-2021 5021.00 7994.58 88.45 1.00 405.87 3358.56
   05:51:00.389.27-Aug-2021 5021.00 7994.72 88.45 1.00 406.07 3358.56
   05:51:00.589.27-Aug-2021 5021.00 7994.72 88.45 1.00 406.27 3358.56
   05:51:00.789.27-Aug-2021 5021.00 7995.21 88.45 1.00 406.47 3358.56
   05:51:00.989.27-Aug-2021 5021.00 8000.01 88.45 1.00 406.67 3358.56
   05:51:01.189.27-Aug-2021 5021.00 7998.08 88.45 1.00 406.87 3358.56
   05:51:01.389.27-Aug-2021 5021.00 7995.41 88.45 1.00 407.07 3358.56
   05:51:01.589.27-Aug-2021 5021.00 7995.41 88.45 1.00 407.27 3358.56
   05:51:01.789.27-Aug-2021 5021.00 7995.13 88.45 1.00 407.47 3358.56
   05:51:01.989.27-Aug-2021 5021.00 7999.69 88.45 1.00 407.67 3358.56
   05:51:02.189.27-Aug-2021 5021.00 7997.63 88.45 1.00 407.87 3358.56
   05:51:02.389.27-Aug-2021 5021.00 7995.07 88.45 1.00 408.07 3358.56
   05:51:02.589.27-Aug-2021 5021.00 7995.07 88.45 1.00 408.27 3358.56
   05:51:02.789.27-Aug-2021 5021.00 7994.80 88.45 1.00 408.47 3358.56
   05:51:02.989.27-Aug-2021 5021.00 7995.96 88.45 1.00 408.67 3358.56
   05:51:03.189.27-Aug-2021 5021.00 7995.58 88.45 1.00 408.87 3358.56
   05:51:03.389.27-Aug-2021 5021.00 7995.25 88.45 1.00 409.07 3358.56
   05:51:03.589.27-Aug-2021 5021.00 7995.25 88.45 1.00 409.27 3358.56
   05:51:03.789.27-Aug-2021 5021.00 7995.31 88.45 1.00 409.47 3358.56
   05:51:03.989.27-Aug-2021 5021.00 7996.53 88.45 1.00 409.67 3358.56
   05:51:04.189.27-Aug-2021 5021.00 7997.09 88.45 1.00 409.87 3358.56
   05:51:04.389.27-Aug-2021 5021.00 7996.65 88.45 1.00 410.07 3358.56
   05:51:04.589.27-Aug-2021 5021.00 7996.65 88.45 1.00 410.27 3358.56
   05:51:04.789.27-Aug-2021 5021.00 7996.06 88.45 1.00 410.47 3358.56
   05:51:04.989.27-Aug-2021 5021.00 7996.06 88.45 1.00 410.67 3358.56
   05:51:05.189.27-Aug-2021 5021.00 8001.39 88.45 1.00 410.87 3358.56
   05:51:05.389.27-Aug-2021 5021.00 7996.09 88.45 1.00 411.07 3358.56
   05:51:05.589.27-Aug-2021 5021.00 7996.09 88.45 1.00 411.27 3358.56
   05:51:05.790.27-Aug-2021 5021.00 7995.64 88.45 1.00 411.47 3358.56
   05:51:05.990.27-Aug-2021 5021.00 7995.13 88.45 1.00 411.67 3358.56
   05:51:06.190.27-Aug-2021 5021.00 7995.33 88.45 1.00 411.87 3358.56
   05:51:06.390.27-Aug-2021 5021.00 7995.04 88.45 1.00 412.07 3358.56
   05:51:06.590.27-Aug-2021 5021.00 7995.04 88.45 1.00 412.27 3358.56
   05:51:06.790.27-Aug-2021 5021.00 7995.15 88.45 1.00 412.47 3358.56
   05:51:06.990.27-Aug-2021 5021.00 7995.09 88.45 1.00 412.67 3358.56
   05:51:07.190.27-Aug-2021 5021.00 7996.15 88.45 1.00 412.87 3358.56
   05:51:07.390.27-Aug-2021 5021.00 7996.85 88.45 1.00 413.07 3358.56
   05:51:07.590.27-Aug-2021 5021.00 7996.85 88.45 1.00 413.27 3358.56
   05:51:07.790.27-Aug-2021 5021.00 7996.24 88.45 1.00 413.47 3358.56
   05:51:07.990.27-Aug-2021 5021.00 7995.73 88.45 1.00 413.67 3358.56
   05:51:08.190.27-Aug-2021 5021.00 7995.71 88.45 1.00 413.87 3358.56
