~Version Information
 VERS.                  2.0:   CWLS log ASCII Standard -VERSION 2.0
 WRAP.                   NO:   One line per depth step
~Well Information Block
#MNEM.UNIT     VALUE/NAME     DESCRIPTION
#---------     -----------    ---------------------------
 STRT.S             16:56:36 27-Aug-21: START TIME 16:56:36 27-Aug-21
 STOP.S             17:03:52 27-Aug-21: STOP TIME  17:03:52 27-Aug-21
 STEP.S                   0.00: STEP TIME
 NULL.                 -999.25: NULL VALUE
 DFWT.                        :  DIST FWL TEXT
 DFST.                        :  DIST FSL TEXT
 DMF .             Drill Floor:  DRILL MEAS FROM
 STIM.      20.00.00 17-Aug-21:  START TIME
 DATE.      19.00.00 29-Aug-21:  END TIME
 SPUD.               15-Aug-21:  SPUD DATE
 NREF.                    Grid:  NORTH REFERENCE
 HPTY.       Minimum Curvature:  HOLE POS TYPE
 DMOD.             Drill Model:  DRILL MOD DESC
 SVYD.                  Survey:  SURVEY DESC
 ILTD.               Lithology:  INTERP LTH DESC
 FTOP.          Formation Tops:  FORM TOPS DESC
 RIG .              East Azeri:  RIG NAME
 PDAT.          Mean Sea Level:  PERMANENT DATUM
 FLD .                     ACG:  FIELD NAME
 SON .        AZ-XX-0907180857:  JOB NUMBER
 CTRY.              Azerbaijan:  COUNTRY NAME
 WELL.                    D23x:  WELL NAME
 SRVC.     Turan Drilling and Engineering:  CONTRACTOR
 COMP.     BP Exploration (Caspian Sea) Ltd.:  COMPANY
 UWI .            /AZE00000214:  UNIQUE WELL IDENTIFIER
 API .            /AZE00000214:  API NUMBER
 MDS .        Operator Entered:  MAG DATA SOURCE
 BASE.              Azerbaijan:  LOGGING EQUIPMENT BASE LOCATION
 REGN.                   EESSA:  REGION
 PROV.                    Baku:  PROVINCE
 STAT.                    Baku:  STATE NAME
 MWDS.                    Baku:  MWD SHOP
 DOE .                     N/A:  DOE NUMBER
 DCON.         Sperry Drilling:  DIRECTNL CONTR
 UNIT.                     N/A:  LOGGING EQUIPMENT ID
 WTYP.                Deviated:  WELL TYPE
 CNTY.                        :  COUNTY
 LOC .                        :  LOCATION
 LMF .             Drill Floor:  LOG MEASURED FROM
 TVDS.m                  43.60:  TVDSS CORRECTN
 LATI.deg                40.02:  LATITUDE
 LONG.deg                51.45:  LONGITUDE
 WHNS.m                  -7.04:  WELL HEAD N/S
 WHEW.m                  -0.67:  WELL HEAD E/W
 UTMX.m              538762.90:  UTM X
 UTMY.m             4431871.34:  UTM Y
 DFWL.m                   0.00:  DISTANCE FWL
 DFSL.m                   0.00:  DISTANCE FSL
 SDEP.m                4127.00:  START DEPTH
 TDD .m                5084.50:  TOTAL DEPTH (DRILLER)
 VSDR.deg               140.47:  VERT SEC DIRECT
 GVFD.g                   1.00:  GRAVITY FIELD
 MFLD.nT              50362.00:  MAGNETIC FIELD
 MDIP.deg                59.48:  MAGNETIC DIP
 MDEC.deg                 6.47:  MAGNETIC DECL
 GRDC.deg                 0.31:  GRID CORRECTION
 AZTC.deg                 6.16:  AZM TOTAL CORR
 EPD .m                   0.00:  ELEVATION
 EGL .m                   0.00:  GROUND ELEVATION
 WDMS.m                 151.80:  WD ELEV
 APD .m                  43.60:  DEPTH ABOVE PD
 DEP .m                4092.57:  DEPTH
 AGAP.m                  43.60:  AIR GAP
 VSEW.m                  -0.67:  VERT SEC E/W
 VSNS.m                  -7.04:  VERT SEC N/S
 EKB .m                  43.60:  KB ELEVATION
 EDF .m                  43.60:  DF ELEVATION
 TDL .m                 957.50:  TOTAL DEPTH (LOGGER)
 VSC .                       0:  VS TO CLOSURE
 MAGU.                 1851413:  MAGUTM CHECKSUM
~Parameter Information Block
#MNEM.UNIT       Value        Description
#---------     -----------    ---------------------------
 AV  .mps                 1.50:  Ann Velocity 
 AVMX.mps                 2.00:  Max Ann Veloc 
 AZIF.deg               184.66:  Azm, Final 
 BHAT.        Rotary Steerable:  BHA Type 
 BREV.rev               300.00:  Rev Bit Total 
 BROT.°/30m              -0.50:  Build Rotating 
 BS  .in                  8.50:  Bit Size 
 BSZ .in                  8.50:  Bit Size 
 BTPL.psig              370.00:  Bit Press Loss 
 CABU.                      No:  Customer Abuse 
 CGEO.      Behruz Shahbaliyev:  Customer Geo 
 COMM.                     T
k:  Run Comments 1 
 TCS .hr                140.08:  Time Ciculation Ended 
 CV  .mps                 3.00:  Crit Velocity 
 CVMX.mps                 3.20:  Max Crit Veloc 
 DD1 .            Musa Ahmadov:  Direct Drillr 1 
 DD2 .           Hamid Ahmadov:  Direct Drillr 2 
 DDSV.               Geo-Pilot:  DD Service 
 DEFF.%                  98.40:  % Det Eff 
 DLRX.°/30m               3.40:  Dogleg Rot Max 
 DLSO.°/30m               1.45:  Dogleg Oriented 
 DLSX.°/30m               3.40:  Dogleg Str Max 
 DRET.      18.40.00 29-Aug-21:  Drill End Time 
 DRST.      21.00.00 20-Aug-21:  Drill Start Tim 
 DTIM.hr                 69.47:  Time Drilling 
 EDEP.m                5084.50:  End Depth 
 ENG1.      Artemiy Matviyanov:  Engineer 1 
 ENG2.         Almaz Almadatov:  Engineer 2 
 ETIM.      18.40.00 29-Aug-21:  End Time 
 FLOI.gpm               500.00:  Flow In 
 FLON.gpm               400.00:  Flow In Min 
 FLOS.cptm                0.00:  Fluid Loss 
 FLOX.gpm               500.00:  Flow In Max 
 DFT .        Mineral Oil Base:  Mud Type 
 HFLO.                      No:  High Flow 
 HPRE.                      No:  High Pressure 
 HTEM.                      No:  High Temp 
 HYDO.m                   1.80:  Hydro Offset 
 IFIN.deg                25.62:  Inc, Final 
 IMAX.deg                48.69:  Inc Max 
 IMIN.deg                24.01:  Inc Min 
 IMND.m                4962.57:  Inc Min Depth 
 IMXD.m                4119.01:  Inc Max Depth 
 JARR.                      No:  Jarring 
 LETM.      18.40.00 29-Aug-21:  Log End Time 
 LOST.hr                     0:  Lost Rig Time 
 LSTM.      21.00.00 20-Aug-21:  Log Start Time 
 MDCL.ppm             41500.00:  Mud Chlorides 
 MDES.     Inversion Oil/Synthetic:  Mud Desc 
 DFD .sg                  1.56:  Mud Density 
 MDMN.sg                  1.56:  Dens Mud Min 
 MDMX.sg                  1.56:  Dens Mud Max 
 MOIL.                      70:  Run Mud Oil % 
 MOWR.                   70:30:  Run Mud OWR 
 MSND.                     0.2:  Run Mud Sand % 
 MSOL.                    23.3:  Run Mud Solids% 
 DFV .spqt               78.00:  Mud Viscosity 
 MWOD.in                  6.75:  MWD Tool OD 
 MWSI.                      No:  Serv Intrp, MWD 
 OTIM.hr                218.30:  Time Operating 
 PCON.           Look Like New:  Pad Condition 
 PMAX.psia            11015.30:  Press Op, Max 
 PV  .cP                 38.00:  Mud PV 
 RUN .                     300:  Run Number 
 ROPA.m/hr               15.00:  ROP Avg 
 ROPN.m/hr                9.00:  ROP Min 
 ROPX.m/hr               17.00:  ROP Max 
 RPMA.rpm               120.00:  RPM Surface Avg 
 RPMN.rpm                90.00:  RPM Surface Min 
 RPMX.rpm               140.00:  RPM Surface Max 
 RRUN.                     300:  Rig Run Number 
 RTIM.hr                 31.53:  Time Reaming 
 SAZI.deg               331.64:  Azm, Start 
 SDEP.m                4127.00:  Start Depth 
 SIDD.                      No:  Serv Intrp, DD 
 SINC.deg                48.43:  Inc, Start 
 SPPA.psig             5830.00:  SPP Avg 
 SPPN.psig             5600.00:  SPP Min 
 SPPX.psig             5900.00:  SPP Max 
 STIM.      21.00.00 20-Aug-21:  Start Time 
 SVCS.                 DD, MWD:  Services 
 SVER.                    9.20:  Sperry Version 
 TDAT.m                 957.50:  Tot Depth Attmp 
 TDDF.                      No:  Trip for DD 
 TDLG.m                 957.50:  Tot Depth Loggd 
 TFF .                      No:  Trip for Fail 
 TQAA.f-kp               15.00:  Torque Abs Avg 
 TQAN.f-kp               12.00:  Torque Abs Min 
 TQAX.f-kp               19.00:  Torque Abs Max 
 TRRT.°/30m              -3.40:  Turn Rotating 
 MRT .                  EWR-M5:  Maximum Recorded Temperature 
 TTMX.degC              100.00:  Max Tool Temp 
 VS01.                90639251:  Virtual Str1 SN 
 VS02.                90634715:  Virtual Str2 SN 
 VS03.                90652479:  Virtual Str3 SN 
 VS04.                90642262:  Virtual Str4 SN 
 WBMN.klb                 0.00:  WOB Min 
 WITN.           Murad Guliyev:  Customer Rep 
 WITN.          Yashar Gaziyev:  Customer Rep 2 
 WOBA.klb                 9.00:  WOB Avg 
 WOBX.klb                12.00:  WOB Max 
 YP  .lhf2               30.00:  Yield Point 
~Curve Information Block
#MNEM.UNIT                 API CODE     Curve Description
#---------               -----------    ---------------------------
 TIME.HHMMSS            00 000 000 000:  GT Time & Date
 GTDEPTH.m              00 000 000 000:  GT Depth
 GTPQH.psia             00 000 000 000:  GT HR Quartz Pressure
 GTTQ.degC              00 000 000 000:  GT Quartz Temperature
 GTTN.NONE              00 000 000 000:  GT Test Number
 GTET.sec               00 000 000 000:  GT Elapsed Test Time
 GTTVD.m                00 000 000 000:  GT True Vertical Depth
#Other Information
#
#WARRANTY: Halliburton will use its best efforts to furnish customers with 
#accurate information and interpretations that are part of, and incident to, the services 
#provided.  However, Halliburton cannot and does not warrant the accuracy 
#or correctness of such information and interpretations.  Under no circumstances should any 
#such information or interpretation be relied upon as the sole basis for any drilling, 
#completion, production, or financial decision or any procedure involving any risk to the 
#safety of any drilling venture, drilling rig or its crew or any other third party.  The 
#Customer has full responsibility for all drilling, completion and production operation.  
#Halliburton makes no representations or warranties, either expressed or 
#implied, including, but not limited to, the implied warranties of merchantability or fitness 
#for a particular purpose, with respect to the services rendered.  In no event will 
#Halliburton be liable for failure to obtain any particular results or for 
#any damages, including, but not limited to, indirect, special or consequential damages, 
#resulting from the use of any information or interpretation provided by Halliburton.
#
~A           TIME           GTDEPTH  GTPQH  GTTQ  GTTN   GTET   GTTVD  
   16:56:36.169.27-Aug-2021 4788.50 7566.15 83.21 18.00   0.00 3147.67
   16:56:36.368.27-Aug-2021 4788.50 7566.15 83.21 18.00   0.20 3147.67
   16:56:36.568.27-Aug-2021 4788.50 7568.81 83.21 18.00   0.40 3147.67
   16:56:36.768.27-Aug-2021 4788.50 7566.26 83.21 18.00   0.60 3147.67
   16:56:36.968.27-Aug-2021 4788.50 7565.87 83.21 18.00   0.80 3147.67
   16:56:37.168.27-Aug-2021 4788.50 7565.98 83.21 18.00   1.00 3147.67
   16:56:37.367.27-Aug-2021 4788.50 7565.98 83.21 18.00   1.20 3147.67
   16:56:37.567.27-Aug-2021 4788.50 7568.96 83.21 18.00   1.40 3147.67
   16:56:37.767.27-Aug-2021 4788.50 7565.00 83.21 18.00   1.60 3147.67
   16:56:37.967.27-Aug-2021 4788.50 7565.56 83.21 18.00   1.80 3147.67
   16:56:38.167.27-Aug-2021 4788.50 7563.33 83.21 18.00   2.00 3147.67
   16:56:38.366.27-Aug-2021 4788.50 7563.33 83.21 18.00   2.20 3147.67
   16:56:38.566.27-Aug-2021 4788.50 7560.60 83.21 18.00   2.40 3147.67
   16:56:38.766.27-Aug-2021 4788.50 7567.96 83.21 18.00   2.60 3147.67
   16:56:38.966.27-Aug-2021 4788.50 7565.16 83.21 18.00   2.80 3147.67
   16:56:39.166.27-Aug-2021 4788.50 7565.22 83.21 18.00   3.00 3147.67
   16:56:39.365.27-Aug-2021 4788.50 7565.22 83.21 18.00   3.20 3147.67
   16:56:39.565.27-Aug-2021 4788.50 7571.61 83.21 18.00   3.40 3147.67
   16:56:39.765.27-Aug-2021 4788.50 7571.52 83.21 18.00   3.60 3147.67
   16:56:39.965.27-Aug-2021 4788.50 7570.90 83.21 18.00   3.80 3147.67
   16:56:40.165.27-Aug-2021 4788.50 7576.36 83.21 18.00   4.00 3147.67
   16:56:40.364.27-Aug-2021 4788.50 7576.36 83.21 18.00   4.20 3147.67
   16:56:40.564.27-Aug-2021 4788.50 7575.33 83.21 18.00   4.40 3147.67
   16:56:40.764.27-Aug-2021 4788.50 7575.62 83.21 18.00   4.60 3147.67
   16:56:40.964.27-Aug-2021 4788.50 7578.89 83.21 18.00   4.80 3147.67
   16:56:41.164.27-Aug-2021 4788.50 7578.20 83.21 18.00   5.00 3147.67
   16:56:41.363.27-Aug-2021 4788.50 7578.20 83.21 18.00   5.19 3147.67
   16:56:41.563.27-Aug-2021 4788.50 7578.20 83.21 18.00   5.39 3147.67
   16:56:41.763.27-Aug-2021 4788.50 7578.21 83.21 18.00   5.59 3147.67
   16:56:41.963.27-Aug-2021 4788.50 7579.51 83.21 18.00   5.79 3147.67
   16:56:42.163.27-Aug-2021 4788.50 7580.28 83.21 18.00   5.99 3147.67
   16:56:42.362.27-Aug-2021 4788.50 7580.28 83.21 18.00   6.19 3147.67
   16:56:42.562.27-Aug-2021 4788.50 7580.54 83.21 18.00   6.39 3147.67
   16:56:42.762.27-Aug-2021 4788.50 7580.35 83.21 18.00   6.59 3147.67
   16:56:42.962.27-Aug-2021 4788.50 7580.37 83.21 18.00   6.79 3147.67
   16:56:43.162.27-Aug-2021 4788.50 7580.37 83.21 18.00   6.99 3147.67
   16:56:43.361.27-Aug-2021 4788.50 7580.37 83.21 18.00   7.19 3147.67
   16:56:43.561.27-Aug-2021 4788.50 7580.40 83.21 18.00   7.39 3147.67
   16:56:43.761.27-Aug-2021 4788.50 7580.49 83.21 18.00   7.59 3147.67
   16:56:43.961.27-Aug-2021 4788.50 7580.45 83.21 18.00   7.79 3147.67
   16:56:44.161.27-Aug-2021 4788.50 7580.47 83.21 18.00   7.99 3147.67
   16:56:44.360.27-Aug-2021 4788.50 7580.47 83.21 18.00   8.19 3147.67
   16:56:44.560.27-Aug-2021 4788.50 7654.79 83.21 18.00   8.39 3147.67
   16:56:44.760.27-Aug-2021 4788.50 7636.49 83.21 18.00   8.59 3147.67
   16:56:44.960.27-Aug-2021 4788.50 7634.30 83.21 18.00   8.79 3147.67
   16:56:45.160.27-Aug-2021 4788.50 7633.23 83.21 18.00   8.99 3147.67
   16:56:45.359.27-Aug-2021 4788.50 7633.23 83.21 18.00   9.19 3147.67
   16:56:45.559.27-Aug-2021 4788.50 7631.92 83.21 18.00   9.39 3147.67
   16:56:45.759.27-Aug-2021 4788.50 7637.07 83.21 18.00   9.59 3147.67
   16:56:45.959.27-Aug-2021 4788.50 7635.53 83.21 18.00   9.79 3147.67
   16:56:46.159.27-Aug-2021 4788.50 7635.63 83.21 18.00   9.99 3147.67
   16:56:46.358.27-Aug-2021 4788.50 7635.63 83.21 18.00  10.19 3147.67
   16:56:46.558.27-Aug-2021 4788.50 7635.12 83.21 18.00  10.39 3147.67
   16:56:46.758.27-Aug-2021 4788.50 7635.34 83.21 18.00  10.59 3147.67
   16:56:46.958.27-Aug-2021 4788.50 7635.24 83.21 18.00  10.79 3147.67
   16:56:47.158.27-Aug-2021 4788.50 7635.52 83.21 18.00  10.99 3147.67
   16:56:47.357.27-Aug-2021 4788.50 7635.52 83.21 18.00  11.19 3147.67
   16:56:47.557.27-Aug-2021 4788.50 7636.18 83.21 18.00  11.39 3147.67
   16:56:47.757.27-Aug-2021 4788.50 7636.52 83.21 18.00  11.59 3147.67
   16:56:47.957.27-Aug-2021 4788.50 7640.41 83.21 18.00  11.79 3147.67
   16:56:48.157.27-Aug-2021 4788.50 7651.42 83.21 18.00  11.99 3147.67
   16:56:48.356.27-Aug-2021 4788.50 7651.42 83.21 18.00  12.19 3147.67
   16:56:48.556.27-Aug-2021 4788.50 7652.12 83.21 18.00  12.39 3147.67
   16:56:48.756.27-Aug-2021 4788.50 7651.94 83.21 18.00  12.59 3147.67
   16:56:48.956.27-Aug-2021 4788.50 7657.58 83.21 18.00  12.79 3147.67
   16:56:49.156.27-Aug-2021 4788.50 7655.76 83.21 18.00  12.99 3147.67
   16:56:49.355.27-Aug-2021 4788.50 7655.76 83.21 18.00  13.19 3147.67
   16:56:49.555.27-Aug-2021 4788.50 7654.34 83.21 18.00  13.39 3147.67
   16:56:49.755.27-Aug-2021 4788.50 7653.13 83.21 18.00  13.59 3147.67
   16:56:49.955.27-Aug-2021 4788.50 7652.49 83.21 18.00  13.79 3147.67
   16:56:50.155.27-Aug-2021 4788.50 7656.19 83.21 18.00  13.99 3147.67
   16:56:50.354.27-Aug-2021 4788.50 7656.19 83.21 18.00  14.19 3147.67
   16:56:50.554.27-Aug-2021 4788.50 7654.03 83.21 18.00  14.39 3147.67
   16:56:50.754.27-Aug-2021 4788.50 7653.38 83.21 18.00  14.59 3147.67
   16:56:50.954.27-Aug-2021 4788.50 7652.48 83.21 18.00  14.79 3147.67
   16:56:51.154.27-Aug-2021 4788.50 7652.07 83.21 18.00  14.99 3147.67
   16:56:51.353.27-Aug-2021 4788.50 7652.07 83.21 18.00  15.18 3147.67
   16:56:51.553.27-Aug-2021 4788.50 7653.11 83.20 18.00  15.38 3147.67
   16:56:51.753.27-Aug-2021 4788.50 7653.00 83.21 18.00  15.58 3147.67
   16:56:51.953.27-Aug-2021 4788.50 7652.52 83.20 18.00  15.78 3147.67
   16:56:52.153.27-Aug-2021 4788.50 7651.72 83.20 18.00  15.98 3147.67
   16:56:52.352.27-Aug-2021 4788.50 7651.72 83.20 18.00  16.18 3147.67
   16:56:52.552.27-Aug-2021 4788.50 7652.40 83.20 18.00  16.38 3147.67
   16:56:52.752.27-Aug-2021 4788.50 7652.53 83.20 18.00  16.58 3147.67
   16:56:52.952.27-Aug-2021 4788.50 7652.43 83.20 18.00  16.78 3147.67
   16:56:53.152.27-Aug-2021 4788.50 7654.95 83.20 18.00  16.98 3147.67
   16:56:53.351.27-Aug-2021 4788.50 7654.95 83.20 18.00  17.18 3147.67
   16:56:53.551.27-Aug-2021 4788.50 7652.11 83.20 18.00  17.38 3147.67
   16:56:53.751.27-Aug-2021 4788.50 7651.98 83.20 18.00  17.58 3147.67
   16:56:53.951.27-Aug-2021 4788.50 7651.44 83.20 18.00  17.78 3147.67
   16:56:54.151.27-Aug-2021 4788.50 7654.32 83.20 18.00  17.98 3147.67
   16:56:54.350.27-Aug-2021 4788.50 7654.32 83.20 18.00  18.18 3147.67
   16:56:54.550.27-Aug-2021 4788.50 7652.49 83.20 18.00  18.38 3147.67
   16:56:54.750.27-Aug-2021 4788.50 7652.75 83.20 18.00  18.58 3147.67
   16:56:54.950.27-Aug-2021 4788.50 7652.19 83.20 18.00  18.78 3147.67
   16:56:55.150.27-Aug-2021 4788.50 7652.13 83.20 18.00  18.98 3147.67
   16:56:55.349.27-Aug-2021 4788.50 7652.13 83.20 18.00  19.18 3147.67
   16:56:55.549.27-Aug-2021 4788.50 7651.90 83.20 18.00  19.38 3147.67
   16:56:55.749.27-Aug-2021 4788.50 7652.01 83.20 18.00  19.58 3147.67
   16:56:55.949.27-Aug-2021 4788.50 7651.97 83.20 18.00  19.78 3147.67
   16:56:56.149.27-Aug-2021 4788.50 7652.02 83.20 18.00  19.98 3147.67
   16:56:56.348.27-Aug-2021 4788.50 7652.02 83.20 18.00  20.18 3147.67
   16:56:56.548.27-Aug-2021 4788.50 7652.44 83.20 18.00  20.38 3147.67
   16:56:56.748.27-Aug-2021 4788.50 7652.73 83.20 18.00  20.58 3147.67
   16:56:56.948.27-Aug-2021 4788.50 7653.08 83.20 18.00  20.78 3147.67
   16:56:57.148.27-Aug-2021 4788.50 7653.55 83.20 18.00  20.98 3147.67
   16:56:57.347.27-Aug-2021 4788.50 7653.55 83.20 18.00  21.18 3147.67
   16:56:57.547.27-Aug-2021 4788.50 7657.52 83.20 18.00  21.38 3147.67
   16:56:57.747.27-Aug-2021 4788.50 7658.05 83.20 18.00  21.58 3147.67
   16:56:57.947.27-Aug-2021 4788.50 7658.67 83.20 18.00  21.78 3147.67
   16:56:58.147.27-Aug-2021 4788.50 7658.86 83.20 18.00  21.98 3147.67
   16:56:58.346.27-Aug-2021 4788.50 7658.86 83.20 18.00  22.18 3147.67
   16:56:58.546.27-Aug-2021 4788.50 7659.51 83.20 18.00  22.38 3147.67
