~Version Information
 VERS.                  2.0:   CWLS log ASCII Standard -VERSION 2.0
 WRAP.                   NO:   One line per depth step
~Well Information Block
#MNEM.UNIT     VALUE/NAME     DESCRIPTION
#---------     -----------    ---------------------------
 STRT.S             11:48:55 27-Aug-21: START TIME 11:48:55 27-Aug-21
 STOP.S             11:56:03 27-Aug-21: STOP TIME  11:56:03 27-Aug-21
 STEP.S                   0.00: STEP TIME
 NULL.                 -999.25: NULL VALUE
 DFWT.                        :  DIST FWL TEXT
 DFST.                        :  DIST FSL TEXT
 DMF .             Drill Floor:  DRILL MEAS FROM
 STIM.      20.00.00 17-Aug-21:  START TIME
 DATE.      19.00.00 29-Aug-21:  END TIME
 SPUD.               15-Aug-21:  SPUD DATE
 NREF.                    Grid:  NORTH REFERENCE
 HPTY.       Minimum Curvature:  HOLE POS TYPE
 DMOD.             Drill Model:  DRILL MOD DESC
 SVYD.                  Survey:  SURVEY DESC
 ILTD.               Lithology:  INTERP LTH DESC
 FTOP.          Formation Tops:  FORM TOPS DESC
 RIG .              East Azeri:  RIG NAME
 PDAT.          Mean Sea Level:  PERMANENT DATUM
 FLD .                     ACG:  FIELD NAME
 SON .        AZ-XX-0907180857:  JOB NUMBER
 CTRY.              Azerbaijan:  COUNTRY NAME
 WELL.                    D23x:  WELL NAME
 SRVC.     Turan Drilling and Engineering:  CONTRACTOR
 COMP.     BP Exploration (Caspian Sea) Ltd.:  COMPANY
 UWI .            /AZE00000214:  UNIQUE WELL IDENTIFIER
 API .            /AZE00000214:  API NUMBER
 MDS .        Operator Entered:  MAG DATA SOURCE
 BASE.              Azerbaijan:  LOGGING EQUIPMENT BASE LOCATION
 REGN.                   EESSA:  REGION
 PROV.                    Baku:  PROVINCE
 STAT.                    Baku:  STATE NAME
 MWDS.                    Baku:  MWD SHOP
 DOE .                     N/A:  DOE NUMBER
 DCON.         Sperry Drilling:  DIRECTNL CONTR
 UNIT.                     N/A:  LOGGING EQUIPMENT ID
 WTYP.                Deviated:  WELL TYPE
 CNTY.                        :  COUNTY
 LOC .                        :  LOCATION
 LMF .             Drill Floor:  LOG MEASURED FROM
 TVDS.m                  43.60:  TVDSS CORRECTN
 LATI.deg                40.02:  LATITUDE
 LONG.deg                51.45:  LONGITUDE
 WHNS.m                  -7.04:  WELL HEAD N/S
 WHEW.m                  -0.67:  WELL HEAD E/W
 UTMX.m              538762.90:  UTM X
 UTMY.m             4431871.34:  UTM Y
 DFWL.m                   0.00:  DISTANCE FWL
 DFSL.m                   0.00:  DISTANCE FSL
 SDEP.m                4127.00:  START DEPTH
 TDD .m                5084.50:  TOTAL DEPTH (DRILLER)
 VSDR.deg               140.47:  VERT SEC DIRECT
 GVFD.g                   1.00:  GRAVITY FIELD
 MFLD.nT              50362.00:  MAGNETIC FIELD
 MDIP.deg                59.48:  MAGNETIC DIP
 MDEC.deg                 6.47:  MAGNETIC DECL
 GRDC.deg                 0.31:  GRID CORRECTION
 AZTC.deg                 6.16:  AZM TOTAL CORR
 EPD .m                   0.00:  ELEVATION
 EGL .m                   0.00:  GROUND ELEVATION
 WDMS.m                 151.80:  WD ELEV
 APD .m                  43.60:  DEPTH ABOVE PD
 DEP .m                4092.57:  DEPTH
 AGAP.m                  43.60:  AIR GAP
 VSEW.m                  -0.67:  VERT SEC E/W
 VSNS.m                  -7.04:  VERT SEC N/S
 EKB .m                  43.60:  KB ELEVATION
 EDF .m                  43.60:  DF ELEVATION
 TDL .m                 957.50:  TOTAL DEPTH (LOGGER)
 VSC .                       0:  VS TO CLOSURE
 MAGU.                 1851413:  MAGUTM CHECKSUM
~Parameter Information Block
#MNEM.UNIT       Value        Description
#---------     -----------    ---------------------------
 AV  .mps                 1.50:  Ann Velocity 
 AVMX.mps                 2.00:  Max Ann Veloc 
 AZIF.deg               184.66:  Azm, Final 
 BHAT.        Rotary Steerable:  BHA Type 
 BREV.rev               300.00:  Rev Bit Total 
 BROT.°/30m              -0.50:  Build Rotating 
 BS  .in                  8.50:  Bit Size 
 BSZ .in                  8.50:  Bit Size 
 BTPL.psig              370.00:  Bit Press Loss 
 CABU.                      No:  Customer Abuse 
 CGEO.      Behruz Shahbaliyev:  Customer Geo 
 COMM.                     L*e:  Run Comments 1 
 TCS .hr                140.08:  Time Ciculation Ended 
 CV  .mps                 3.00:  Crit Velocity 
 CVMX.mps                 3.20:  Max Crit Veloc 
 DD1 .            Musa Ahmadov:  Direct Drillr 1 
 DD2 .           Hamid Ahmadov:  Direct Drillr 2 
 DDSV.               Geo-Pilot:  DD Service 
 DEFF.%                  98.40:  % Det Eff 
 DLRX.°/30m               3.40:  Dogleg Rot Max 
 DLSO.°/30m               1.45:  Dogleg Oriented 
 DLSX.°/30m               3.40:  Dogleg Str Max 
 DRET.      18.40.00 29-Aug-21:  Drill End Time 
 DRST.      21.00.00 20-Aug-21:  Drill Start Tim 
 DTIM.hr                 69.47:  Time Drilling 
 EDEP.m                5084.50:  End Depth 
 ENG1.      Artemiy Matviyanov:  Engineer 1 
 ENG2.         Almaz Almadatov:  Engineer 2 
 ETIM.      18.40.00 29-Aug-21:  End Time 
 FLOI.gpm               500.00:  Flow In 
 FLON.gpm               400.00:  Flow In Min 
 FLOS.cptm                0.00:  Fluid Loss 
 FLOX.gpm               500.00:  Flow In Max 
 DFT .        Mineral Oil Base:  Mud Type 
 HFLO.                      No:  High Flow 
 HPRE.                      No:  High Pressure 
 HTEM.                      No:  High Temp 
 HYDO.m                   1.80:  Hydro Offset 
 IFIN.deg                25.62:  Inc, Final 
 IMAX.deg                48.69:  Inc Max 
 IMIN.deg                24.01:  Inc Min 
 IMND.m                4962.57:  Inc Min Depth 
 IMXD.m                4119.01:  Inc Max Depth 
 JARR.                      No:  Jarring 
 LETM.      18.40.00 29-Aug-21:  Log End Time 
 LOST.hr                     0:  Lost Rig Time 
 LSTM.      21.00.00 20-Aug-21:  Log Start Time 
 MDCL.ppm             41500.00:  Mud Chlorides 
 MDES.     Inversion Oil/Synthetic:  Mud Desc 
 DFD .sg                  1.56:  Mud Density 
 MDMN.sg                  1.56:  Dens Mud Min 
 MDMX.sg                  1.56:  Dens Mud Max 
 MOIL.                      70:  Run Mud Oil % 
 MOWR.                   70:30:  Run Mud OWR 
 MSND.                     0.2:  Run Mud Sand % 
 MSOL.                    23.3:  Run Mud Solids% 
 DFV .spqt               78.00:  Mud Viscosity 
 MWOD.in                  6.75:  MWD Tool OD 
 MWSI.                      No:  Serv Intrp, MWD 
 OTIM.hr                218.30:  Time Operating 
 PCON.           Look Like New:  Pad Condition 
 PMAX.psia            11015.30:  Press Op, Max 
 PV  .cP                 38.00:  Mud PV 
 RUN .                     300:  Run Number 
 ROPA.m/hr               15.00:  ROP Avg 
 ROPN.m/hr                9.00:  ROP Min 
 ROPX.m/hr               17.00:  ROP Max 
 RPMA.rpm               120.00:  RPM Surface Avg 
 RPMN.rpm                90.00:  RPM Surface Min 
 RPMX.rpm               140.00:  RPM Surface Max 
 RRUN.                     300:  Rig Run Number 
 RTIM.hr                 31.53:  Time Reaming 
 SAZI.deg               331.64:  Azm, Start 
 SDEP.m                4127.00:  Start Depth 
 SIDD.                      No:  Serv Intrp, DD 
 SINC.deg                48.43:  Inc, Start 
 SPPA.psig             5830.00:  SPP Avg 
 SPPN.psig             5600.00:  SPP Min 
 SPPX.psig             5900.00:  SPP Max 
 STIM.      21.00.00 20-Aug-21:  Start Time 
 SVCS.                 DD, MWD:  Services 
 SVER.                    9.20:  Sperry Version 
 TDAT.m                 957.50:  Tot Depth Attmp 
 TDDF.                      No:  Trip for DD 
 TDLG.m                 957.50:  Tot Depth Loggd 
 TFF .                      No:  Trip for Fail 
 TQAA.f-kp               15.00:  Torque Abs Avg 
 TQAN.f-kp               12.00:  Torque Abs Min 
 TQAX.f-kp               19.00:  Torque Abs Max 
 TRRT.°/30m              -3.40:  Turn Rotating 
 MRT .                  EWR-M5:  Maximum Recorded Temperature 
 TTMX.degC              100.00:  Max Tool Temp 
 VS01.                90639251:  Virtual Str1 SN 
 VS02.                90634715:  Virtual Str2 SN 
 VS03.                90652479:  Virtual Str3 SN 
 VS04.                90642262:  Virtual Str4 SN 
 WBMN.klb                 0.00:  WOB Min 
 WITN.           Murad Guliyev:  Customer Rep 
 WITN.          Yashar Gaziyev:  Customer Rep 2 
 WOBA.klb                 9.00:  WOB Avg 
 WOBX.klb                12.00:  WOB Max 
 YP  .lhf2               30.00:  Yield Point 
~Curve Information Block
#MNEM.UNIT                 API CODE     Curve Description
#---------               -----------    ---------------------------
 TIME.HHMMSS            00 000 000 000:  GT Time & Date
 GTDEPTH.m              00 000 000 000:  GT Depth
 GTPQH.psia             00 000 000 000:  GT HR Quartz Pressure
 GTTQ.degC              00 000 000 000:  GT Quartz Temperature
 GTTN.NONE              00 000 000 000:  GT Test Number
 GTET.sec               00 000 000 000:  GT Elapsed Test Time
 GTTVD.m                00 000 000 000:  GT True Vertical Depth
#Other Information
#
#WARRANTY: Halliburton will use its best efforts to furnish customers with 
#accurate information and interpretations that are part of, and incident to, the services 
#provided.  However, Halliburton cannot and does not warrant the accuracy 
#or correctness of such information and interpretations.  Under no circumstances should any 
#such information or interpretation be relied upon as the sole basis for any drilling, 
#completion, production, or financial decision or any procedure involving any risk to the 
#safety of any drilling venture, drilling rig or its crew or any other third party.  The 
#Customer has full responsibility for all drilling, completion and production operation.  
#Halliburton makes no representations or warranties, either expressed or 
#implied, including, but not limited to, the implied warranties of merchantability or fitness 
#for a particular purpose, with respect to the services rendered.  In no event will 
#Halliburton be liable for failure to obtain any particular results or for 
#any damages, including, but not limited to, indirect, special or consequential damages, 
#resulting from the use of any information or interpretation provided by Halliburton.
#
~A           TIME           GTDEPTH  GTPQH  GTTQ  GTTN   GTET   GTTVD  
# ...
   11:53:04.336.27-Aug-2021 4914.00 7815.10 85.27 11.00 248.69 3261.31
   11:53:04.536.27-Aug-2021 4914.00 7805.25 85.27 11.00 248.89 3261.31
   11:53:04.736.27-Aug-2021 4914.00 7809.77 85.27 11.00 249.09 3261.31
   11:53:04.936.27-Aug-2021 4914.00 7809.77 85.27 11.00 249.29 3261.31
   11:53:05.136.27-Aug-2021 4914.00 7808.05 85.27 11.00 249.49 3261.31
   11:53:05.336.27-Aug-2021 4914.00 7808.12 85.27 11.00 249.69 3261.31
   11:53:05.537.27-Aug-2021 4914.00 7810.69 85.27 11.00 249.89 3261.31
   11:53:05.737.27-Aug-2021 4914.00 7809.15 85.27 11.00 250.09 3261.31
   11:53:05.937.27-Aug-2021 4914.00 7809.15 85.27 11.00 250.29 3261.31
   11:53:06.137.27-Aug-2021 4914.00 7808.74 85.27 11.00 250.49 3261.31
   11:53:06.337.27-Aug-2021 4914.00 7807.94 85.27 11.00 250.69 3261.31
   11:53:06.537.27-Aug-2021 4914.00 7810.39 85.27 11.00 250.89 3261.31
   11:53:06.737.27-Aug-2021 4914.00 7809.14 85.27 11.00 251.09 3261.31
   11:53:06.937.27-Aug-2021 4914.00 7809.14 85.27 11.00 251.29 3261.31
   11:53:07.137.27-Aug-2021 4914.00 7808.28 85.27 11.00 251.49 3261.31
   11:53:07.337.27-Aug-2021 4914.00 7814.67 85.27 11.00 251.69 3261.31
   11:53:07.537.27-Aug-2021 4914.00 7805.53 85.27 11.00 251.89 3261.31
   11:53:07.737.27-Aug-2021 4914.00 7809.76 85.27 11.00 252.09 3261.31
   11:53:07.937.27-Aug-2021 4914.00 7809.76 85.27 11.00 252.29 3261.31
   11:53:08.137.27-Aug-2021 4914.00 7808.83 85.27 11.00 252.49 3261.31
   11:53:08.338.27-Aug-2021 4914.00 7808.66 85.27 11.00 252.69 3261.31
   11:53:08.538.27-Aug-2021 4914.00 7808.35 85.27 11.00 252.89 3261.31
   11:53:08.738.27-Aug-2021 4914.00 7808.37 85.27 11.00 253.09 3261.31
   11:53:08.938.27-Aug-2021 4914.00 7808.37 85.27 11.00 253.29 3261.31
   11:53:09.138.27-Aug-2021 4914.00 7808.17 85.27 11.00 253.49 3261.31
   11:53:09.338.27-Aug-2021 4914.00 7808.83 85.27 11.00 253.69 3261.31
   11:53:09.538.27-Aug-2021 4914.00 7808.77 85.27 11.00 253.89 3261.31
   11:53:09.738.27-Aug-2021 4914.00 7808.97 85.27 11.00 254.09 3261.31
   11:53:09.938.27-Aug-2021 4914.00 7808.97 85.27 11.00 254.29 3261.31
   11:53:10.138.27-Aug-2021 4914.00 7808.70 85.27 11.00 254.49 3261.31
   11:53:10.338.27-Aug-2021 4914.00 7808.74 85.27 11.00 254.69 3261.31
   11:53:10.538.27-Aug-2021 4914.00 7812.25 85.27 11.00 254.89 3261.31
   11:53:10.738.27-Aug-2021 4914.00 7808.17 85.27 11.00 255.09 3261.31
   11:53:10.938.27-Aug-2021 4914.00 7808.17 85.27 11.00 255.29 3261.31
   11:53:11.139.27-Aug-2021 4914.00 7808.67 85.27 11.00 255.49 3261.31
   11:53:11.339.27-Aug-2021 4914.00 7808.06 85.27 11.00 255.69 3261.31
   11:53:11.539.27-Aug-2021 4914.00 7807.99 85.27 11.00 255.89 3261.31
   11:53:11.739.27-Aug-2021 4914.00 7807.77 85.27 11.00 256.09 3261.31
   11:53:11.939.27-Aug-2021 4914.00 7807.77 85.27 11.00 256.29 3261.31
   11:53:12.139.27-Aug-2021 4914.00 7807.61 85.27 11.00 256.49 3261.31
   11:53:12.339.27-Aug-2021 4914.00 7807.94 85.27 11.00 256.69 3261.31
   11:53:12.539.27-Aug-2021 4914.00 7808.75 85.27 11.00 256.89 3261.31
   11:53:12.739.27-Aug-2021 4914.00 7808.73 85.27 11.00 257.09 3261.31
   11:53:12.939.27-Aug-2021 4914.00 7808.73 85.27 11.00 257.29 3261.31
   11:53:13.139.27-Aug-2021 4914.00 7808.92 85.27 11.00 257.49 3261.31
   11:53:13.339.27-Aug-2021 4914.00 7808.85 85.27 11.00 257.69 3261.31
   11:53:13.539.27-Aug-2021 4914.00 7808.65 85.27 11.00 257.89 3261.31
   11:53:13.739.27-Aug-2021 4914.00 7808.54 85.27 11.00 258.09 3261.31
   11:53:13.939.27-Aug-2021 4914.00 7808.54 85.27 11.00 258.29 3261.31
   11:53:14.140.27-Aug-2021 4914.00 7807.74 85.27 11.00 258.49 3261.31
   11:53:14.340.27-Aug-2021 4914.00 7809.92 85.27 11.00 258.69 3261.31
   11:53:14.540.27-Aug-2021 4914.00 7808.14 85.27 11.00 258.89 3261.31
   11:53:14.740.27-Aug-2021 4914.00 7807.99 85.27 11.00 259.09 3261.31
   11:53:14.940.27-Aug-2021 4914.00 7807.99 85.27 11.00 259.29 3261.31
   11:53:15.140.27-Aug-2021 4914.00 7811.59 85.27 11.00 259.49 3261.31
   11:53:15.340.27-Aug-2021 4914.00 7807.32 85.27 11.00 259.69 3261.31
   11:53:15.540.27-Aug-2021 4914.00 7808.82 85.27 11.00 259.89 3261.31
   11:53:15.740.27-Aug-2021 4914.00 7808.14 85.27 11.00 260.09 3261.31
   11:53:15.940.27-Aug-2021 4914.00 7808.14 85.27 11.00 260.29 3261.31
   11:53:16.140.27-Aug-2021 4914.00 7809.57 85.27 11.00 260.49 3261.31
   11:53:16.340.27-Aug-2021 4914.00 7809.15 85.27 11.00 260.69 3261.31
   11:53:16.540.27-Aug-2021 4914.00 7807.79 85.27 11.00 260.89 3261.31
   11:53:16.740.27-Aug-2021 4914.00 7807.95 85.27 11.00 261.09 3261.31
   11:53:16.941.27-Aug-2021 4914.00 7807.95 85.27 11.00 261.29 3261.31
   11:53:17.141.27-Aug-2021 4914.00 7807.84 85.27 11.00 261.49 3261.31
   11:53:17.341.27-Aug-2021 4914.00 7809.32 85.27 11.00 261.69 3261.31
   11:53:17.541.27-Aug-2021 4914.00 7808.29 85.27 11.00 261.89 3261.31
   11:53:17.741.27-Aug-2021 4914.00 7808.38 85.27 11.00 262.09 3261.31
   11:53:17.941.27-Aug-2021 4914.00 7808.38 85.27 11.00 262.29 3261.31
   11:53:18.141.27-Aug-2021 4914.00 7808.12 85.27 11.00 262.49 3261.31
   11:53:18.341.27-Aug-2021 4914.00 7808.28 85.27 11.00 262.69 3261.31
   11:53:18.541.27-Aug-2021 4914.00 7807.82 85.27 11.00 262.89 3261.31
   11:53:18.741.27-Aug-2021 4914.00 7807.88 85.27 11.00 263.09 3261.31
   11:53:18.941.27-Aug-2021 4914.00 7807.88 85.27 11.00 263.29 3261.31
   11:53:19.141.27-Aug-2021 4914.00 7807.21 85.27 11.00 263.49 3261.31
   11:53:19.341.27-Aug-2021 4914.00 7807.06 85.27 11.00 263.69 3261.31
   11:53:19.541.27-Aug-2021 4914.00 7806.70 85.27 11.00 263.89 3261.31
   11:53:19.742.27-Aug-2021 4914.00 7806.81 85.27 11.00 264.09 3261.31
   11:53:19.942.27-Aug-2021 4914.00 7806.81 85.27 11.00 264.29 3261.31
   11:53:20.142.27-Aug-2021 4914.00 7806.50 85.27 11.00 264.49 3261.31
   11:53:20.342.27-Aug-2021 4914.00 7809.55 85.27 11.00 264.69 3261.31
   11:53:20.542.27-Aug-2021 4914.00 7807.18 85.27 11.00 264.89 3261.31
   11:53:20.742.27-Aug-2021 4914.00 7807.17 85.27 11.00 265.09 3261.31
   11:53:20.942.27-Aug-2021 4914.00 7807.17 85.27 11.00 265.29 3261.31
   11:53:21.142.27-Aug-2021 4914.00 7805.82 85.27 11.00 265.49 3261.31
   11:53:21.342.27-Aug-2021 4914.00 7805.70 85.27 11.00 265.69 3261.31
   11:53:21.542.27-Aug-2021 4914.00 7806.00 85.27 11.00 265.89 3261.31
   11:53:21.742.27-Aug-2021 4914.00 7805.39 85.27 11.00 266.09 3261.31
   11:53:21.942.27-Aug-2021 4914.00 7805.39 85.27 11.00 266.29 3261.31
   11:53:22.142.27-Aug-2021 4914.00 7806.53 85.27 11.00 266.49 3261.31
   11:53:22.342.27-Aug-2021 4914.00 7806.71 85.27 11.00 266.69 3261.31
   11:53:22.543.27-Aug-2021 4914.00 7807.24 85.27 11.00 266.89 3261.31
   11:53:22.743.27-Aug-2021 4914.00 7807.09 85.27 11.00 267.09 3261.31
   11:53:22.943.27-Aug-2021 4914.00 7807.09 85.27 11.00 267.29 3261.31
   11:53:23.143.27-Aug-2021 4914.00 7807.09 85.27 11.00 267.49 3261.31
   11:53:23.343.27-Aug-2021 4914.00 7806.96 85.27 11.00 267.70 3261.31
   11:53:23.543.27-Aug-2021 4914.00 7806.90 85.27 11.00 267.90 3261.31
   11:53:23.743.27-Aug-2021 4914.00 7809.86 85.27 11.00 268.10 3261.31
   11:53:23.943.27-Aug-2021 4914.00 7809.86 85.27 11.00 268.30 3261.31
   11:53:24.143.27-Aug-2021 4914.00 7807.26 85.27 11.00 268.50 3261.31
   11:53:24.343.27-Aug-2021 4914.00 7806.54 85.27 11.00 268.70 3261.31
   11:53:24.543.27-Aug-2021 4914.00 7806.18 85.27 11.00 268.90 3261.31
   11:53:24.743.27-Aug-2021 4914.00 7812.54 85.27 11.00 269.10 3261.31
   11:53:24.943.27-Aug-2021 4914.00 7812.54 85.27 11.00 269.30 3261.31
   11:53:25.143.27-Aug-2021 4914.00 7807.03 85.27 11.00 269.50 3261.31
   11:53:25.344.27-Aug-2021 4914.00 7806.60 85.27 11.00 269.70 3261.31
   11:53:25.544.27-Aug-2021 4914.00 7809.58 85.27 11.00 269.90 3261.31
   11:53:25.744.27-Aug-2021 4914.00 7807.81 85.27 11.00 270.10 3261.31
   11:53:25.944.27-Aug-2021 4914.00 7807.81 85.27 11.00 270.30 3261.31
   11:53:26.144.27-Aug-2021 4914.00 7806.47 85.27 11.00 270.50 3261.31
   11:53:26.344.27-Aug-2021 4914.00 7806.08 85.27 11.00 270.70 3261.31
   11:53:26.544.27-Aug-2021 4914.00 7805.89 85.27 11.00 270.90 3261.31
   11:53:26.744.27-Aug-2021 4914.00 7810.63 85.27 11.00 271.10 3261.31
