~Version Information
 VERS.                  2.0:   CWLS log ASCII Standard -VERSION 2.0
 WRAP.                   NO:   One line per depth step
~Well Information Block
#MNEM.UNIT     VALUE/NAME     DESCRIPTION
#---------     -----------    ---------------------------
 STRT.S             18:53:24 27-Aug-21: START TIME 18:53:24 27-Aug-21
 STOP.S             19:00:39 27-Aug-21: STOP TIME  19:00:39 27-Aug-21
 STEP.S                   0.00: STEP TIME
 NULL.                 -999.25: NULL VALUE
 DFWT.                        :  DIST FWL TEXT
 DFST.                        :  DIST FSL TEXT
 DMF .             Drill Floor:  DRILL MEAS FROM
 STIM.      20.00.00 17-Aug-21:  START TIME
 DATE.      19.00.00 29-Aug-21:  END TIME
 SPUD.               15-Aug-21:  SPUD DATE
 NREF.                    Grid:  NORTH REFERENCE
 HPTY.       Minimum Curvature:  HOLE POS TYPE
 DMOD.             Drill Model:  DRILL MOD DESC
 SVYD.                  Survey:  SURVEY DESC
 ILTD.               Lithology:  INTERP LTH DESC
 FTOP.          Formation Tops:  FORM TOPS DESC
 RIG .              East Azeri:  RIG NAME
 PDAT.          Mean Sea Level:  PERMANENT DATUM
 FLD .                     ACG:  FIELD NAME
 SON .        AZ-XX-0907180857:  JOB NUMBER
 CTRY.              Azerbaijan:  COUNTRY NAME
 WELL.                    D23x:  WELL NAME
 SRVC.     Turan Drilling and Engineering:  CONTRACTOR
 COMP.     BP Exploration (Caspian Sea) Ltd.:  COMPANY
 UWI .            /AZE00000214:  UNIQUE WELL IDENTIFIER
 API .            /AZE00000214:  API NUMBER
 MDS .        Operator Entered:  MAG DATA SOURCE
 BASE.              Azerbaijan:  LOGGING EQUIPMENT BASE LOCATION
 REGN.                   EESSA:  REGION
 PROV.                    Baku:  PROVINCE
 STAT.                    Baku:  STATE NAME
 MWDS.                    Baku:  MWD SHOP
 DOE .                     N/A:  DOE NUMBER
 DCON.         Sperry Drilling:  DIRECTNL CONTR
 UNIT.                     N/A:  LOGGING EQUIPMENT ID
 WTYP.                Deviated:  WELL TYPE
 CNTY.                        :  COUNTY
 LOC .                        :  LOCATION
 LMF .             Drill Floor:  LOG MEASURED FROM
 TVDS.m                  43.60:  TVDSS CORRECTN
 LATI.deg                40.02:  LATITUDE
 LONG.deg                51.45:  LONGITUDE
 WHNS.m                  -7.04:  WELL HEAD N/S
 WHEW.m                  -0.67:  WELL HEAD E/W
 UTMX.m              538762.90:  UTM X
 UTMY.m             4431871.34:  UTM Y
 DFWL.m                   0.00:  DISTANCE FWL
 DFSL.m                   0.00:  DISTANCE FSL
 SDEP.m                4127.00:  START DEPTH
 TDD .m                5084.50:  TOTAL DEPTH (DRILLER)
 VSDR.deg               140.47:  VERT SEC DIRECT
 GVFD.g                   1.00:  GRAVITY FIELD
 MFLD.nT              50362.00:  MAGNETIC FIELD
 MDIP.deg                59.48:  MAGNETIC DIP
 MDEC.deg                 6.47:  MAGNETIC DECL
 GRDC.deg                 0.31:  GRID CORRECTION
 AZTC.deg                 6.16:  AZM TOTAL CORR
 EPD .m                   0.00:  ELEVATION
 EGL .m                   0.00:  GROUND ELEVATION
 WDMS.m                 151.80:  WD ELEV
 APD .m                  43.60:  DEPTH ABOVE PD
 DEP .m                4092.57:  DEPTH
 AGAP.m                  43.60:  AIR GAP
 VSEW.m                  -0.67:  VERT SEC E/W
 VSNS.m                  -7.04:  VERT SEC N/S
 EKB .m                  43.60:  KB ELEVATION
 EDF .m                  43.60:  DF ELEVATION
 TDL .m                 957.50:  TOTAL DEPTH (LOGGER)
 VSC .                       0:  VS TO CLOSURE
 MAGU.                 1851413:  MAGUTM CHECKSUM
~Parameter Information Block
#MNEM.UNIT       Value        Description
#---------     -----------    ---------------------------
 AV  .mps                 1.50:  Ann Velocity 
 AVMX.mps                 2.00:  Max Ann Veloc 
 AZIF.deg               184.66:  Azm, Final 
 BHAT.        Rotary Steerable:  BHA Type 
 BREV.rev               300.00:  Rev Bit Total 
 BROT.°/30m              -0.50:  Build Rotating 
 BS  .in                  8.50:  Bit Size 
 BSZ .in                  8.50:  Bit Size 
 BTPL.psig              370.00:  Bit Press Loss 
 CABU.                      No:  Customer Abuse 
 CGEO.      Behruz Shahbaliyev:  Customer Geo 
 COMM.                     |?d:  Run Comments 1 
 TCS .hr                140.08:  Time Ciculation Ended 
 CV  .mps                 3.00:  Crit Velocity 
 CVMX.mps                 3.20:  Max Crit Veloc 
 DD1 .            Musa Ahmadov:  Direct Drillr 1 
 DD2 .           Hamid Ahmadov:  Direct Drillr 2 
 DDSV.               Geo-Pilot:  DD Service 
 DEFF.%                  98.40:  % Det Eff 
 DLRX.°/30m               3.40:  Dogleg Rot Max 
 DLSO.°/30m               1.45:  Dogleg Oriented 
 DLSX.°/30m               3.40:  Dogleg Str Max 
 DRET.      18.40.00 29-Aug-21:  Drill End Time 
 DRST.      21.00.00 20-Aug-21:  Drill Start Tim 
 DTIM.hr                 69.47:  Time Drilling 
 EDEP.m                5084.50:  End Depth 
 ENG1.      Artemiy Matviyanov:  Engineer 1 
 ENG2.         Almaz Almadatov:  Engineer 2 
 ETIM.      18.40.00 29-Aug-21:  End Time 
 FLOI.gpm               500.00:  Flow In 
 FLON.gpm               400.00:  Flow In Min 
 FLOS.cptm                0.00:  Fluid Loss 
 FLOX.gpm               500.00:  Flow In Max 
 DFT .        Mineral Oil Base:  Mud Type 
 HFLO.                      No:  High Flow 
 HPRE.                      No:  High Pressure 
 HTEM.                      No:  High Temp 
 HYDO.m                   1.80:  Hydro Offset 
 IFIN.deg                25.62:  Inc, Final 
 IMAX.deg                48.69:  Inc Max 
 IMIN.deg                24.01:  Inc Min 
 IMND.m                4962.57:  Inc Min Depth 
 IMXD.m                4119.01:  Inc Max Depth 
 JARR.                      No:  Jarring 
 LETM.      18.40.00 29-Aug-21:  Log End Time 
 LOST.hr                     0:  Lost Rig Time 
 LSTM.      21.00.00 20-Aug-21:  Log Start Time 
 MDCL.ppm             41500.00:  Mud Chlorides 
 MDES.     Inversion Oil/Synthetic:  Mud Desc 
 DFD .sg                  1.56:  Mud Density 
 MDMN.sg                  1.56:  Dens Mud Min 
 MDMX.sg                  1.56:  Dens Mud Max 
 MOIL.                      70:  Run Mud Oil % 
 MOWR.                   70:30:  Run Mud OWR 
 MSND.                     0.2:  Run Mud Sand % 
 MSOL.                    23.3:  Run Mud Solids% 
 DFV .spqt               78.00:  Mud Viscosity 
 MWOD.in                  6.75:  MWD Tool OD 
 MWSI.                      No:  Serv Intrp, MWD 
 OTIM.hr                218.30:  Time Operating 
 PCON.           Look Like New:  Pad Condition 
 PMAX.psia            11015.30:  Press Op, Max 
 PV  .cP                 38.00:  Mud PV 
 RUN .                     300:  Run Number 
 ROPA.m/hr               15.00:  ROP Avg 
 ROPN.m/hr                9.00:  ROP Min 
 ROPX.m/hr               17.00:  ROP Max 
 RPMA.rpm               120.00:  RPM Surface Avg 
 RPMN.rpm                90.00:  RPM Surface Min 
 RPMX.rpm               140.00:  RPM Surface Max 
 RRUN.                     300:  Rig Run Number 
 RTIM.hr                 31.53:  Time Reaming 
 SAZI.deg               331.64:  Azm, Start 
 SDEP.m                4127.00:  Start Depth 
 SIDD.                      No:  Serv Intrp, DD 
 SINC.deg                48.43:  Inc, Start 
 SPPA.psig             5830.00:  SPP Avg 
 SPPN.psig             5600.00:  SPP Min 
 SPPX.psig             5900.00:  SPP Max 
 STIM.      21.00.00 20-Aug-21:  Start Time 
 SVCS.                 DD, MWD:  Services 
 SVER.                    9.20:  Sperry Version 
 TDAT.m                 957.50:  Tot Depth Attmp 
 TDDF.                      No:  Trip for DD 
 TDLG.m                 957.50:  Tot Depth Loggd 
 TFF .                      No:  Trip for Fail 
 TQAA.f-kp               15.00:  Torque Abs Avg 
 TQAN.f-kp               12.00:  Torque Abs Min 
 TQAX.f-kp               19.00:  Torque Abs Max 
 TRRT.°/30m              -3.40:  Turn Rotating 
 MRT .                  EWR-M5:  Maximum Recorded Temperature 
 TTMX.degC              100.00:  Max Tool Temp 
 VS01.                90639251:  Virtual Str1 SN 
 VS02.                90634715:  Virtual Str2 SN 
 VS03.                90652479:  Virtual Str3 SN 
 VS04.                90642262:  Virtual Str4 SN 
 WBMN.klb                 0.00:  WOB Min 
 WITN.           Murad Guliyev:  Customer Rep 
 WITN.          Yashar Gaziyev:  Customer Rep 2 
 WOBA.klb                 9.00:  WOB Avg 
 WOBX.klb                12.00:  WOB Max 
 YP  .lhf2               30.00:  Yield Point 
~Curve Information Block
#MNEM.UNIT                 API CODE     Curve Description
#---------               -----------    ---------------------------
 TIME.HHMMSS            00 000 000 000:  GT Time & Date
 GTDEPTH.m              00 000 000 000:  GT Depth
 GTPQH.psia             00 000 000 000:  GT HR Quartz Pressure
 GTTQ.degC              00 000 000 000:  GT Quartz Temperature
 GTTN.NONE              00 000 000 000:  GT Test Number
 GTET.sec               00 000 000 000:  GT Elapsed Test Time
 GTTVD.m                00 000 000 000:  GT True Vertical Depth
#Other Information
#
#WARRANTY: Halliburton will use its best efforts to furnish customers with 
#accurate information and interpretations that are part of, and incident to, the services 
#provided.  However, Halliburton cannot and does not warrant the accuracy 
#or correctness of such information and interpretations.  Under no circumstances should any 
#such information or interpretation be relied upon as the sole basis for any drilling, 
#completion, production, or financial decision or any procedure involving any risk to the 
#safety of any drilling venture, drilling rig or its crew or any other third party.  The 
#Customer has full responsibility for all drilling, completion and production operation.  
#Halliburton makes no representations or warranties, either expressed or 
#implied, including, but not limited to, the implied warranties of merchantability or fitness 
#for a particular purpose, with respect to the services rendered.  In no event will 
#Halliburton be liable for failure to obtain any particular results or for 
#any damages, including, but not limited to, indirect, special or consequential damages, 
#resulting from the use of any information or interpretation provided by Halliburton.
#
~A           TIME           GTDEPTH  GTPQH  GTTQ  GTTN   GTET   GTTVD  
# ...
   18:54:09.200.27-Aug-2021 4697.00 7438.34 82.56 19.00  45.20 3064.88
   18:54:09.400.27-Aug-2021 4697.00 7428.64 82.56 19.00  45.40 3064.88
   18:54:09.600.27-Aug-2021 4697.00 7423.55 82.56 19.00  45.60 3064.88
   18:54:09.800.27-Aug-2021 4697.00 7420.24 82.56 19.00  45.80 3064.88
   18:54:10.000.27-Aug-2021 4697.00 7407.09 82.56 19.00  46.00 3064.88
   18:54:10.200.27-Aug-2021 4697.00 7407.09 82.56 19.00  46.20 3064.88
   18:54:10.400.27-Aug-2021 4697.00 7303.82 82.56 19.00  46.40 3064.88
   18:54:10.600.27-Aug-2021 4697.00 7240.54 82.56 19.00  46.60 3064.88
   18:54:10.800.27-Aug-2021 4697.00 7168.97 82.56 19.00  46.80 3064.88
   18:54:11.000.27-Aug-2021 4697.00 7094.30 82.56 19.00  47.00 3064.88
   18:54:11.200.27-Aug-2021 4697.00 7094.30 82.56 19.00  47.20 3064.88
   18:54:11.400.27-Aug-2021 4697.00 6923.32 82.56 19.00  47.40 3064.88
   18:54:11.600.27-Aug-2021 4697.00 6825.62 82.56 19.00  47.60 3064.88
   18:54:11.800.27-Aug-2021 4697.00 6713.57 82.56 19.00  47.80 3064.88
   18:54:12.000.27-Aug-2021 4697.00 6598.10 82.56 19.00  48.00 3064.88
   18:54:12.200.27-Aug-2021 4697.00 6598.10 82.56 19.00  48.20 3064.88
   18:54:12.400.27-Aug-2021 4697.00 6450.31 82.56 19.00  48.40 3064.88
   18:54:12.600.27-Aug-2021 4697.00 6464.58 82.56 19.00  48.60 3064.88
   18:54:12.800.27-Aug-2021 4697.00 6308.21 82.56 19.00  48.80 3064.88
   18:54:13.000.27-Aug-2021 4697.00 6143.12 82.56 19.00  49.00 3064.88
   18:54:13.200.27-Aug-2021 4697.00 6143.12 82.56 19.00  49.20 3064.88
   18:54:13.400.27-Aug-2021 4697.00 5816.20 82.55 19.00  49.40 3064.88
   18:54:13.600.27-Aug-2021 4697.00 5655.49 82.55 19.00  49.60 3064.88
   18:54:13.800.27-Aug-2021 4697.00 5493.10 82.55 19.00  49.80 3064.88
   18:54:14.000.27-Aug-2021 4697.00 5786.24 82.55 19.00  50.00 3064.88
   18:54:14.200.27-Aug-2021 4697.00 5786.24 82.55 19.00  50.20 3064.88
   18:54:14.400.27-Aug-2021 4697.00 5525.66 82.55 19.00  50.40 3064.88
   18:54:14.600.27-Aug-2021 4697.00 5362.76 82.55 19.00  50.60 3064.88
   18:54:14.800.27-Aug-2021 4697.00 5236.84 82.55 19.00  50.80 3064.88
   18:54:15.000.27-Aug-2021 4697.00 5100.76 82.54 19.00  51.00 3064.88
   18:54:15.200.27-Aug-2021 4697.00 5100.76 82.54 19.00  51.20 3064.88
   18:54:15.400.27-Aug-2021 4697.00 4818.84 82.54 19.00  51.40 3064.88
   18:54:15.600.27-Aug-2021 4697.00 4698.18 82.54 19.00  51.60 3064.88
   18:54:15.800.27-Aug-2021 4697.00 4579.79 82.54 19.00  51.80 3064.88
   18:54:16.000.27-Aug-2021 4697.00 4502.01 82.54 19.00  52.00 3064.88
   18:54:16.200.27-Aug-2021 4697.00 4502.01 82.54 19.00  52.20 3064.88
   18:54:16.400.27-Aug-2021 4697.00 4503.35 82.53 19.00  52.40 3064.88
   18:54:16.600.27-Aug-2021 4697.00 4502.02 82.53 19.00  52.60 3064.88
   18:54:16.800.27-Aug-2021 4697.00 4487.24 82.53 19.00  52.80 3064.88
   18:54:17.000.27-Aug-2021 4697.00 4466.58 82.52 19.00  53.00 3064.88
   18:54:17.200.27-Aug-2021 4697.00 4466.58 82.52 19.00  53.20 3064.88
   18:54:17.400.27-Aug-2021 4697.00 4447.57 82.52 19.00  53.40 3064.88
   18:54:17.600.27-Aug-2021 4697.00 4454.38 82.52 19.00  53.60 3064.88
   18:54:17.800.27-Aug-2021 4697.00 4451.01 82.52 19.00  53.80 3064.88
   18:54:18.000.27-Aug-2021 4697.00 4448.61 82.51 19.00  54.00 3064.88
   18:54:18.200.27-Aug-2021 4697.00 4448.61 82.51 19.00  54.20 3064.88
   18:54:18.400.27-Aug-2021 4697.00 4450.40 82.51 19.00  54.40 3064.88
   18:54:18.600.27-Aug-2021 4697.00 4446.86 82.51 19.00  54.60 3064.88
   18:54:18.800.27-Aug-2021 4697.00 4447.99 82.51 19.00  54.80 3064.88
   18:54:19.000.27-Aug-2021 4697.00 4449.23 82.50 19.00  55.00 3064.88
   18:54:19.200.27-Aug-2021 4697.00 4449.23 82.50 19.00  55.20 3064.88
   18:54:19.400.27-Aug-2021 4697.00 4450.72 82.50 19.00  55.40 3064.88
   18:54:19.600.27-Aug-2021 4697.00 4451.39 82.50 19.00  55.60 3064.88
   18:54:19.800.27-Aug-2021 4697.00 4452.18 82.50 19.00  55.80 3064.88
   18:54:20.000.27-Aug-2021 4697.00 4452.95 82.50 19.00  56.00 3064.88
   18:54:20.200.27-Aug-2021 4697.00 4452.95 82.50 19.00  56.20 3064.88
   18:54:20.400.27-Aug-2021 4697.00 4453.70 82.49 19.00  56.40 3064.88
   18:54:20.600.27-Aug-2021 4697.00 4452.37 82.49 19.00  56.60 3064.88
   18:54:20.800.27-Aug-2021 4697.00 4452.77 82.49 19.00  56.80 3064.88
   18:54:21.000.27-Aug-2021 4697.00 4453.53 82.49 19.00  57.00 3064.88
   18:54:21.200.27-Aug-2021 4697.00 4453.53 82.49 19.00  57.20 3064.88
   18:54:21.400.27-Aug-2021 4697.00 4454.53 82.48 19.00  57.40 3064.88
   18:54:21.600.27-Aug-2021 4697.00 4452.24 82.48 19.00  57.60 3064.88
   18:54:21.800.27-Aug-2021 4697.00 4450.16 82.48 19.00  57.80 3064.88
   18:54:22.000.27-Aug-2021 4697.00 4449.86 82.48 19.00  58.00 3064.88
   18:54:22.200.27-Aug-2021 4697.00 4449.86 82.48 19.00  58.20 3064.88
   18:54:22.400.27-Aug-2021 4697.00 4425.07 82.48 19.00  58.40 3064.88
   18:54:22.600.27-Aug-2021 4697.00 4403.94 82.48 19.00  58.60 3064.88
   18:54:22.800.27-Aug-2021 4697.00 4407.89 82.48 19.00  58.80 3064.88
   18:54:23.000.27-Aug-2021 4697.00 4409.95 82.48 19.00  59.00 3064.88
   18:54:23.200.27-Aug-2021 4697.00 4409.95 82.48 19.00  59.20 3064.88
   18:54:23.400.27-Aug-2021 4697.00 4411.52 82.47 19.00  59.40 3064.88
   18:54:23.600.27-Aug-2021 4697.00 4412.01 82.47 19.00  59.60 3064.88
   18:54:23.800.27-Aug-2021 4697.00 4412.06 82.47 19.00  59.80 3064.88
   18:54:24.000.27-Aug-2021 4697.00 4412.35 82.47 19.00  60.00 3064.88
   18:54:24.200.27-Aug-2021 4697.00 4412.35 82.47 19.00  60.20 3064.88
   18:54:24.400.27-Aug-2021 4697.00 4412.78 82.47 19.00  60.40 3064.88
   18:54:24.600.27-Aug-2021 4697.00 4413.19 82.47 19.00  60.60 3064.88
   18:54:24.800.27-Aug-2021 4697.00 4413.19 82.47 19.00  60.80 3064.88
   18:54:25.000.27-Aug-2021 4697.00 4413.26 82.47 19.00  61.00 3064.88
   18:54:25.200.27-Aug-2021 4697.00 4413.26 82.47 19.00  61.20 3064.88
   18:54:25.400.27-Aug-2021 4697.00 4413.60 82.47 19.00  61.40 3064.88
   18:54:25.600.27-Aug-2021 4697.00 4413.66 82.47 19.00  61.60 3064.88
   18:54:25.800.27-Aug-2021 4697.00 4413.69 82.47 19.00  61.80 3064.88
   18:54:26.000.27-Aug-2021 4697.00 4413.81 82.47 19.00  62.00 3064.88
   18:54:26.200.27-Aug-2021 4697.00 4413.81 82.47 19.00  62.20 3064.88
   18:54:26.400.27-Aug-2021 4697.00 4413.80 82.46 19.00  62.40 3064.88
   18:54:26.600.27-Aug-2021 4697.00 4413.83 82.46 19.00  62.60 3064.88
   18:54:26.800.27-Aug-2021 4697.00 4413.87 82.46 19.00  62.80 3064.88
   18:54:27.000.27-Aug-2021 4697.00 4413.93 82.46 19.00  63.00 3064.88
   18:54:27.200.27-Aug-2021 4697.00 4413.93 82.46 19.00  63.20 3064.88
   18:54:27.400.27-Aug-2021 4697.00 4413.97 82.46 19.00  63.40 3064.88
   18:54:27.600.27-Aug-2021 4697.00 4413.78 82.46 19.00  63.60 3064.88
   18:54:27.800.27-Aug-2021 4697.00 4413.87 82.46 19.00  63.80 3064.88
   18:54:28.000.27-Aug-2021 4697.00 4413.99 82.46 19.00  64.00 3064.88
   18:54:28.200.27-Aug-2021 4697.00 4413.99 82.46 19.00  64.20 3064.88
   18:54:28.400.27-Aug-2021 4697.00 4414.07 82.46 19.00  64.40 3064.88
   18:54:28.600.27-Aug-2021 4697.00 4414.08 82.46 19.00  64.60 3064.88
   18:54:28.800.27-Aug-2021 4697.00 4413.95 82.46 19.00  64.80 3064.88
   18:54:29.000.27-Aug-2021 4697.00 4413.99 82.46 19.00  65.00 3064.88
   18:54:29.200.27-Aug-2021 4697.00 4413.99 82.46 19.00  65.20 3064.88
   18:54:29.400.27-Aug-2021 4697.00 4414.08 82.46 19.00  65.40 3064.88
   18:54:29.600.27-Aug-2021 4697.00 4414.16 82.46 19.00  65.60 3064.88
   18:54:29.800.27-Aug-2021 4697.00 4414.09 82.46 19.00  65.80 3064.88
   18:54:30.000.27-Aug-2021 4697.00 4414.20 82.46 19.00  66.00 3064.88
   18:54:30.200.27-Aug-2021 4697.00 4414.20 82.46 19.00  66.20 3064.88
   18:54:30.400.27-Aug-2021 4697.00 4414.19 82.46 19.00  66.40 3064.88
   18:54:30.600.27-Aug-2021 4697.00 4414.18 82.46 19.00  66.60 3064.88
   18:54:30.800.27-Aug-2021 4697.00 4414.16 82.46 19.00  66.80 3064.88
   18:54:31.000.27-Aug-2021 4697.00 4414.22 82.46 19.00  67.00 3064.88
   18:54:31.200.27-Aug-2021 4697.00 4414.22 82.46 19.00  67.20 3064.88
   18:54:31.400.27-Aug-2021 4697.00 4414.35 82.46 19.00  67.40 3064.88
   18:54:31.600.27-Aug-2021 4697.00 4414.39 82.46 19.00  67.60 3064.88
