~Version Information
 VERS.                  2.0:   CWLS log ASCII Standard -VERSION 2.0
 WRAP.                   NO:   One line per depth step
~Well Information Block
#MNEM.UNIT     VALUE/NAME     DESCRIPTION
#---------     -----------    ---------------------------
 STRT.S             13:07:39 27-Aug-21: START TIME 13:07:39 27-Aug-21
 STOP.S             13:14:54 27-Aug-21: STOP TIME  13:14:54 27-Aug-21
 STEP.S                   0.00: STEP TIME
 NULL.                 -999.25: NULL VALUE
 DFWT.                        :  DIST FWL TEXT
 DFST.                        :  DIST FSL TEXT
 DMF .             Drill Floor:  DRILL MEAS FROM
 STIM.      20.00.00 17-Aug-21:  START TIME
 DATE.      19.00.00 29-Aug-21:  END TIME
 SPUD.               15-Aug-21:  SPUD DATE
 NREF.                    Grid:  NORTH REFERENCE
 HPTY.       Minimum Curvature:  HOLE POS TYPE
 DMOD.             Drill Model:  DRILL MOD DESC
 SVYD.                  Survey:  SURVEY DESC
 ILTD.               Lithology:  INTERP LTH DESC
 FTOP.          Formation Tops:  FORM TOPS DESC
 RIG .              East Azeri:  RIG NAME
 PDAT.          Mean Sea Level:  PERMANENT DATUM
 FLD .                     ACG:  FIELD NAME
 SON .        AZ-XX-0907180857:  JOB NUMBER
 CTRY.              Azerbaijan:  COUNTRY NAME
 WELL.                    D23x:  WELL NAME
 SRVC.     Turan Drilling and Engineering:  CONTRACTOR
 COMP.     BP Exploration (Caspian Sea) Ltd.:  COMPANY
 UWI .            /AZE00000214:  UNIQUE WELL IDENTIFIER
 API .            /AZE00000214:  API NUMBER
 MDS .        Operator Entered:  MAG DATA SOURCE
 BASE.              Azerbaijan:  LOGGING EQUIPMENT BASE LOCATION
 REGN.                   EESSA:  REGION
 PROV.                    Baku:  PROVINCE
 STAT.                    Baku:  STATE NAME
 MWDS.                    Baku:  MWD SHOP
 DOE .                     N/A:  DOE NUMBER
 DCON.         Sperry Drilling:  DIRECTNL CONTR
 UNIT.                     N/A:  LOGGING EQUIPMENT ID
 WTYP.                Deviated:  WELL TYPE
 CNTY.                        :  COUNTY
 LOC .                        :  LOCATION
 LMF .             Drill Floor:  LOG MEASURED FROM
 TVDS.m                  43.60:  TVDSS CORRECTN
 LATI.deg                40.02:  LATITUDE
 LONG.deg                51.45:  LONGITUDE
 WHNS.m                  -7.04:  WELL HEAD N/S
 WHEW.m                  -0.67:  WELL HEAD E/W
 UTMX.m              538762.90:  UTM X
 UTMY.m             4431871.34:  UTM Y
 DFWL.m                   0.00:  DISTANCE FWL
 DFSL.m                   0.00:  DISTANCE FSL
 SDEP.m                4127.00:  START DEPTH
 TDD .m                5084.50:  TOTAL DEPTH (DRILLER)
 VSDR.deg               140.47:  VERT SEC DIRECT
 GVFD.g                   1.00:  GRAVITY FIELD
 MFLD.nT              50362.00:  MAGNETIC FIELD
 MDIP.deg                59.48:  MAGNETIC DIP
 MDEC.deg                 6.47:  MAGNETIC DECL
 GRDC.deg                 0.31:  GRID CORRECTION
 AZTC.deg                 6.16:  AZM TOTAL CORR
 EPD .m                   0.00:  ELEVATION
 EGL .m                   0.00:  GROUND ELEVATION
 WDMS.m                 151.80:  WD ELEV
 APD .m                  43.60:  DEPTH ABOVE PD
 DEP .m                4092.57:  DEPTH
 AGAP.m                  43.60:  AIR GAP
 VSEW.m                  -0.67:  VERT SEC E/W
 VSNS.m                  -7.04:  VERT SEC N/S
 EKB .m                  43.60:  KB ELEVATION
 EDF .m                  43.60:  DF ELEVATION
 TDL .m                 957.50:  TOTAL DEPTH (LOGGER)
 VSC .                       0:  VS TO CLOSURE
 MAGU.                 1851413:  MAGUTM CHECKSUM
~Parameter Information Block
#MNEM.UNIT       Value        Description
#---------     -----------    ---------------------------
 AV  .mps                 1.50:  Ann Velocity 
 AVMX.mps                 2.00:  Max Ann Veloc 
 AZIF.deg               184.66:  Azm, Final 
 BHAT.        Rotary Steerable:  BHA Type 
 BREV.rev               300.00:  Rev Bit Total 
 BROT.°/30m              -0.50:  Build Rotating 
 BS  .in                  8.50:  Bit Size 
 BSZ .in                  8.50:  Bit Size 
 BTPL.psig              370.00:  Bit Press Loss 
 CABU.                      No:  Customer Abuse 
 CGEO.      Behruz Shahbaliyev:  Customer Geo 
 COMM.                     ¤R:  Run Comments 1 
 TCS .hr                140.08:  Time Ciculation Ended 
 CV  .mps                 3.00:  Crit Velocity 
 CVMX.mps                 3.20:  Max Crit Veloc 
 DD1 .            Musa Ahmadov:  Direct Drillr 1 
 DD2 .           Hamid Ahmadov:  Direct Drillr 2 
 DDSV.               Geo-Pilot:  DD Service 
 DEFF.%                  98.40:  % Det Eff 
 DLRX.°/30m               3.40:  Dogleg Rot Max 
 DLSO.°/30m               1.45:  Dogleg Oriented 
 DLSX.°/30m               3.40:  Dogleg Str Max 
 DRET.      18.40.00 29-Aug-21:  Drill End Time 
 DRST.      21.00.00 20-Aug-21:  Drill Start Tim 
 DTIM.hr                 69.47:  Time Drilling 
 EDEP.m                5084.50:  End Depth 
 ENG1.      Artemiy Matviyanov:  Engineer 1 
 ENG2.         Almaz Almadatov:  Engineer 2 
 ETIM.      18.40.00 29-Aug-21:  End Time 
 FLOI.gpm               500.00:  Flow In 
 FLON.gpm               400.00:  Flow In Min 
 FLOS.cptm                0.00:  Fluid Loss 
 FLOX.gpm               500.00:  Flow In Max 
 DFT .        Mineral Oil Base:  Mud Type 
 HFLO.                      No:  High Flow 
 HPRE.                      No:  High Pressure 
 HTEM.                      No:  High Temp 
 HYDO.m                   1.80:  Hydro Offset 
 IFIN.deg                25.62:  Inc, Final 
 IMAX.deg                48.69:  Inc Max 
 IMIN.deg                24.01:  Inc Min 
 IMND.m                4962.57:  Inc Min Depth 
 IMXD.m                4119.01:  Inc Max Depth 
 JARR.                      No:  Jarring 
 LETM.      18.40.00 29-Aug-21:  Log End Time 
 LOST.hr                     0:  Lost Rig Time 
 LSTM.      21.00.00 20-Aug-21:  Log Start Time 
 MDCL.ppm             41500.00:  Mud Chlorides 
 MDES.     Inversion Oil/Synthetic:  Mud Desc 
 DFD .sg                  1.56:  Mud Density 
 MDMN.sg                  1.56:  Dens Mud Min 
 MDMX.sg                  1.56:  Dens Mud Max 
 MOIL.                      70:  Run Mud Oil % 
 MOWR.                   70:30:  Run Mud OWR 
 MSND.                     0.2:  Run Mud Sand % 
 MSOL.                    23.3:  Run Mud Solids% 
 DFV .spqt               78.00:  Mud Viscosity 
 MWOD.in                  6.75:  MWD Tool OD 
 MWSI.                      No:  Serv Intrp, MWD 
 OTIM.hr                218.30:  Time Operating 
 PCON.           Look Like New:  Pad Condition 
 PMAX.psia            11015.30:  Press Op, Max 
 PV  .cP                 38.00:  Mud PV 
 RUN .                     300:  Run Number 
 ROPA.m/hr               15.00:  ROP Avg 
 ROPN.m/hr                9.00:  ROP Min 
 ROPX.m/hr               17.00:  ROP Max 
 RPMA.rpm               120.00:  RPM Surface Avg 
 RPMN.rpm                90.00:  RPM Surface Min 
 RPMX.rpm               140.00:  RPM Surface Max 
 RRUN.                     300:  Rig Run Number 
 RTIM.hr                 31.53:  Time Reaming 
 SAZI.deg               331.64:  Azm, Start 
 SDEP.m                4127.00:  Start Depth 
 SIDD.                      No:  Serv Intrp, DD 
 SINC.deg                48.43:  Inc, Start 
 SPPA.psig             5830.00:  SPP Avg 
 SPPN.psig             5600.00:  SPP Min 
 SPPX.psig             5900.00:  SPP Max 
 STIM.      21.00.00 20-Aug-21:  Start Time 
 SVCS.                 DD, MWD:  Services 
 SVER.                    9.20:  Sperry Version 
 TDAT.m                 957.50:  Tot Depth Attmp 
 TDDF.                      No:  Trip for DD 
 TDLG.m                 957.50:  Tot Depth Loggd 
 TFF .                      No:  Trip for Fail 
 TQAA.f-kp               15.00:  Torque Abs Avg 
 TQAN.f-kp               12.00:  Torque Abs Min 
 TQAX.f-kp               19.00:  Torque Abs Max 
 TRRT.°/30m              -3.40:  Turn Rotating 
 MRT .                  EWR-M5:  Maximum Recorded Temperature 
 TTMX.degC              100.00:  Max Tool Temp 
 VS01.                90639251:  Virtual Str1 SN 
 VS02.                90634715:  Virtual Str2 SN 
 VS03.                90652479:  Virtual Str3 SN 
 VS04.                90642262:  Virtual Str4 SN 
 WBMN.klb                 0.00:  WOB Min 
 WITN.           Murad Guliyev:  Customer Rep 
 WITN.          Yashar Gaziyev:  Customer Rep 2 
 WOBA.klb                 9.00:  WOB Avg 
 WOBX.klb                12.00:  WOB Max 
 YP  .lhf2               30.00:  Yield Point 
~Curve Information Block
#MNEM.UNIT                 API CODE     Curve Description
#---------               -----------    ---------------------------
 TIME.HHMMSS            00 000 000 000:  GT Time & Date
 GTDEPTH.m              00 000 000 000:  GT Depth
 GTPQH.psia             00 000 000 000:  GT HR Quartz Pressure
 GTTQ.degC              00 000 000 000:  GT Quartz Temperature
 GTTN.NONE              00 000 000 000:  GT Test Number
 GTET.sec               00 000 000 000:  GT Elapsed Test Time
 GTTVD.m                00 000 000 000:  GT True Vertical Depth
#Other Information
#
#WARRANTY: Halliburton will use its best efforts to furnish customers with 
#accurate information and interpretations that are part of, and incident to, the services 
#provided.  However, Halliburton cannot and does not warrant the accuracy 
#or correctness of such information and interpretations.  Under no circumstances should any 
#such information or interpretation be relied upon as the sole basis for any drilling, 
#completion, production, or financial decision or any procedure involving any risk to the 
#safety of any drilling venture, drilling rig or its crew or any other third party.  The 
#Customer has full responsibility for all drilling, completion and production operation.  
#Halliburton makes no representations or warranties, either expressed or 
#implied, including, but not limited to, the implied warranties of merchantability or fitness 
#for a particular purpose, with respect to the services rendered.  In no event will 
#Halliburton be liable for failure to obtain any particular results or for 
#any damages, including, but not limited to, indirect, special or consequential damages, 
#resulting from the use of any information or interpretation provided by Halliburton.
#
~A           TIME           GTDEPTH  GTPQH  GTTQ  GTTN   GTET   GTTVD  
# ...
   13:08:25.177.27-Aug-2021 4901.50 7577.73 85.05 13.00  45.25 3249.95
   13:08:25.377.27-Aug-2021 4901.50 7561.71 85.05 13.00  45.45 3249.95
   13:08:25.577.27-Aug-2021 4901.50 7555.67 85.05 13.00  45.65 3249.95
   13:08:25.778.27-Aug-2021 4901.50 7572.10 85.05 13.00  45.85 3249.95
   13:08:25.978.27-Aug-2021 4901.50 7511.35 85.05 13.00  46.05 3249.95
   13:08:26.178.27-Aug-2021 4901.50 7511.35 85.05 13.00  46.25 3249.95
   13:08:26.378.27-Aug-2021 4901.50 7443.01 85.05 13.00  46.45 3249.95
   13:08:26.578.27-Aug-2021 4901.50 7301.88 85.05 13.00  46.65 3249.95
   13:08:26.779.27-Aug-2021 4901.50 7227.97 85.05 13.00  46.85 3249.95
   13:08:26.979.27-Aug-2021 4901.50 7156.34 85.05 13.00  47.05 3249.95
   13:08:27.179.27-Aug-2021 4901.50 7156.34 85.05 13.00  47.25 3249.95
   13:08:27.379.27-Aug-2021 4901.50 6998.75 85.05 13.00  47.45 3249.95
   13:08:27.579.27-Aug-2021 4901.50 6906.12 85.05 13.00  47.65 3249.95
   13:08:27.780.27-Aug-2021 4901.50 6810.51 85.05 13.00  47.85 3249.95
   13:08:27.980.27-Aug-2021 4901.50 6712.49 85.05 13.00  48.05 3249.95
   13:08:28.180.27-Aug-2021 4901.50 6712.49 85.05 13.00  48.25 3249.95
   13:08:28.380.27-Aug-2021 4901.50 6478.20 85.05 13.00  48.45 3249.95
   13:08:28.580.27-Aug-2021 4901.50 6357.32 85.05 13.00  48.65 3249.95
   13:08:28.781.27-Aug-2021 4901.50 6238.00 85.04 13.00  48.85 3249.95
   13:08:28.981.27-Aug-2021 4901.50 6130.97 85.04 13.00  49.05 3249.95
   13:08:29.181.27-Aug-2021 4901.50 6130.97 85.04 13.00  49.25 3249.95
   13:08:29.381.27-Aug-2021 4901.50 5944.72 85.04 13.00  49.45 3249.95
   13:08:29.581.27-Aug-2021 4901.50 5889.31 85.04 13.00  49.65 3249.95
   13:08:29.782.27-Aug-2021 4901.50 5808.29 85.04 13.00  49.85 3249.95
   13:08:29.982.27-Aug-2021 4901.50 5732.76 85.04 13.00  50.05 3249.95
   13:08:30.182.27-Aug-2021 4901.50 5732.76 85.04 13.00  50.25 3249.95
   13:08:30.382.27-Aug-2021 4901.50 5513.93 85.04 13.00  50.45 3249.95
   13:08:30.582.27-Aug-2021 4901.50 5404.46 85.03 13.00  50.65 3249.95
   13:08:30.783.27-Aug-2021 4901.50 5296.61 85.03 13.00  50.85 3249.95
   13:08:30.983.27-Aug-2021 4901.50 5201.87 85.03 13.00  51.05 3249.95
   13:08:31.183.27-Aug-2021 4901.50 5201.87 85.03 13.00  51.25 3249.95
   13:08:31.383.27-Aug-2021 4901.50 5070.88 85.03 13.00  51.45 3249.95
   13:08:31.583.27-Aug-2021 4901.50 5055.56 85.03 13.00  51.65 3249.95
   13:08:31.784.27-Aug-2021 4901.50 5049.02 85.02 13.00  51.85 3249.95
   13:08:31.984.27-Aug-2021 4901.50 5047.21 85.02 13.00  52.05 3249.95
   13:08:32.184.27-Aug-2021 4901.50 5047.21 85.02 13.00  52.25 3249.95
   13:08:32.384.27-Aug-2021 4901.50 5048.23 85.02 13.00  52.45 3249.95
   13:08:32.585.27-Aug-2021 4901.50 5049.12 85.02 13.00  52.65 3249.95
   13:08:32.785.27-Aug-2021 4901.50 5042.30 85.02 13.00  52.85 3249.95
   13:08:32.985.27-Aug-2021 4901.50 5045.81 85.01 13.00  53.05 3249.95
   13:08:33.185.27-Aug-2021 4901.50 5045.81 85.01 13.00  53.25 3249.95
   13:08:33.385.27-Aug-2021 4901.50 5050.69 85.01 13.00  53.45 3249.95
   13:08:33.586.27-Aug-2021 4901.50 5051.63 85.01 13.00  53.65 3249.95
   13:08:33.786.27-Aug-2021 4901.50 5052.07 85.01 13.00  53.85 3249.95
   13:08:33.986.27-Aug-2021 4901.50 5052.37 85.00 13.00  54.05 3249.95
   13:08:34.186.27-Aug-2021 4901.50 5052.37 85.00 13.00  54.26 3249.95
   13:08:34.386.27-Aug-2021 4901.50 5052.69 85.00 13.00  54.46 3249.95
   13:08:34.587.27-Aug-2021 4901.50 5052.82 85.00 13.00  54.66 3249.95
   13:08:34.787.27-Aug-2021 4901.50 5052.88 85.00 13.00  54.86 3249.95
   13:08:34.987.27-Aug-2021 4901.50 5052.96 85.00 13.00  55.06 3249.95
   13:08:35.187.27-Aug-2021 4901.50 5052.96 85.00 13.00  55.26 3249.95
   13:08:35.387.27-Aug-2021 4901.50 5053.00 84.99 13.00  55.46 3249.95
   13:08:35.588.27-Aug-2021 4901.50 5053.03 84.99 13.00  55.66 3249.95
   13:08:35.788.27-Aug-2021 4901.50 5053.02 84.99 13.00  55.86 3249.95
   13:08:35.988.27-Aug-2021 4901.50 5052.99 84.99 13.00  56.06 3249.95
   13:08:36.188.27-Aug-2021 4901.50 5052.99 84.99 13.00  56.26 3249.95
   13:08:36.388.27-Aug-2021 4901.50 5051.75 84.99 13.00  56.46 3249.95
   13:08:36.589.27-Aug-2021 4901.50 5052.11 84.99 13.00  56.66 3249.95
   13:08:36.789.27-Aug-2021 4901.50 5046.04 84.99 13.00  56.86 3249.95
   13:08:36.989.27-Aug-2021 4901.50 5000.43 84.98 13.00  57.06 3249.95
   13:08:37.189.27-Aug-2021 4901.50 5000.43 84.98 13.00  57.26 3249.95
   13:08:37.389.27-Aug-2021 4901.50 4951.14 84.98 13.00  57.46 3249.95
   13:08:37.590.27-Aug-2021 4901.50 4953.77 84.98 13.00  57.66 3249.95
   13:08:37.790.27-Aug-2021 4901.50 4956.77 84.98 13.00  57.86 3249.95
   13:08:37.990.27-Aug-2021 4901.50 4960.06 84.98 13.00  58.06 3249.95
   13:08:38.190.27-Aug-2021 4901.50 4960.06 84.98 13.00  58.26 3249.95
   13:08:38.390.27-Aug-2021 4901.50 4960.59 84.98 13.00  58.46 3249.95
   13:08:38.591.27-Aug-2021 4901.50 4960.58 84.98 13.00  58.66 3249.95
   13:08:38.791.27-Aug-2021 4901.50 4960.82 84.98 13.00  58.86 3249.95
   13:08:38.991.27-Aug-2021 4901.50 4961.79 84.98 13.00  59.06 3249.95
   13:08:39.191.27-Aug-2021 4901.50 4961.79 84.98 13.00  59.26 3249.95
   13:08:39.391.27-Aug-2021 4901.50 4961.34 84.97 13.00  59.46 3249.95
   13:08:39.592.27-Aug-2021 4901.50 4962.52 84.97 13.00  59.66 3249.95
   13:08:39.792.27-Aug-2021 4901.50 4961.71 84.97 13.00  59.86 3249.95
   13:08:39.992.27-Aug-2021 4901.50 4961.86 84.97 13.00  60.06 3249.95
   13:08:40.192.27-Aug-2021 4901.50 4961.86 84.97 13.00  60.26 3249.95
   13:08:40.392.27-Aug-2021 4901.50 4962.25 84.97 13.00  60.46 3249.95
   13:08:40.593.27-Aug-2021 4901.50 4961.92 84.97 13.00  60.66 3249.95
   13:08:40.793.27-Aug-2021 4901.50 4962.47 84.97 13.00  60.86 3249.95
   13:08:40.993.27-Aug-2021 4901.50 4963.13 84.97 13.00  61.06 3249.95
   13:08:41.193.27-Aug-2021 4901.50 4963.13 84.97 13.00  61.26 3249.95
   13:08:41.393.27-Aug-2021 4901.50 4962.92 84.97 13.00  61.46 3249.95
   13:08:41.594.27-Aug-2021 4901.50 4963.22 84.97 13.00  61.66 3249.95
   13:08:41.794.27-Aug-2021 4901.50 4962.32 84.97 13.00  61.86 3249.95
   13:08:41.994.27-Aug-2021 4901.50 4963.01 84.97 13.00  62.06 3249.95
   13:08:42.194.27-Aug-2021 4901.50 4963.01 84.97 13.00  62.26 3249.95
   13:08:42.394.27-Aug-2021 4901.50 4961.91 84.97 13.00  62.46 3249.95
   13:08:42.595.27-Aug-2021 4901.50 4963.47 84.97 13.00  62.66 3249.95
   13:08:42.795.27-Aug-2021 4901.50 4963.56 84.97 13.00  62.86 3249.95
   13:08:42.995.27-Aug-2021 4901.50 4963.31 84.97 13.00  63.06 3249.95
   13:08:43.195.27-Aug-2021 4901.50 4963.31 84.97 13.00  63.26 3249.95
   13:08:43.395.27-Aug-2021 4901.50 4962.98 84.97 13.00  63.46 3249.95
   13:08:43.596.27-Aug-2021 4901.50 4963.04 84.97 13.00  63.66 3249.95
   13:08:43.796.27-Aug-2021 4901.50 4964.38 84.97 13.00  63.86 3249.95
   13:08:43.996.27-Aug-2021 4901.50 4965.25 84.97 13.00  64.07 3249.95
   13:08:44.196.27-Aug-2021 4901.50 4965.25 84.97 13.00  64.27 3249.95
   13:08:44.397.27-Aug-2021 4901.50 4964.05 84.97 13.00  64.47 3249.95
   13:08:44.597.27-Aug-2021 4901.50 4963.81 84.97 13.00  64.67 3249.95
   13:08:44.797.27-Aug-2021 4901.50 4964.08 84.97 13.00  64.87 3249.95
   13:08:44.997.27-Aug-2021 4901.50 4963.86 84.97 13.00  65.07 3249.95
   13:08:45.197.27-Aug-2021 4901.50 4963.86 84.97 13.00  65.27 3249.95
   13:08:45.398.27-Aug-2021 4901.50 4964.26 84.97 13.00  65.47 3249.95
   13:08:45.598.27-Aug-2021 4901.50 4963.99 84.97 13.00  65.67 3249.95
   13:08:45.798.27-Aug-2021 4901.50 4964.20 84.97 13.00  65.87 3249.95
   13:08:45.998.27-Aug-2021 4901.50 4964.23 84.97 13.00  66.07 3249.95
   13:08:46.198.27-Aug-2021 4901.50 4964.23 84.97 13.00  66.27 3249.95
   13:08:46.399.27-Aug-2021 4901.50 4964.35 84.97 13.00  66.47 3249.95
   13:08:46.599.27-Aug-2021 4901.50 4964.11 84.97 13.00  66.67 3249.95
   13:08:46.799.27-Aug-2021 4901.50 5022.97 84.97 13.00  66.87 3249.95
   13:08:46.999.27-Aug-2021 4901.50 5049.29 84.97 13.00  67.07 3249.95
   13:08:47.199.27-Aug-2021 4901.50 5049.29 84.97 13.00  67.27 3249.95
   13:08:47.400.27-Aug-2021 4901.50 5050.46 84.97 13.00  67.47 3249.95
   13:08:47.600.27-Aug-2021 4901.50 5050.59 84.97 13.00  67.67 3249.95
