~Version Information
 VERS.                  2.0:   CWLS log ASCII Standard -VERSION 2.0
 WRAP.                   NO:   One line per depth step
~Well Information Block
#MNEM.UNIT     VALUE/NAME     DESCRIPTION
#---------     -----------    ---------------------------
 STRT.S             13:07:39 27-Aug-21: START TIME 13:07:39 27-Aug-21
 STOP.S             13:14:54 27-Aug-21: STOP TIME  13:14:54 27-Aug-21
 STEP.S                   0.00: STEP TIME
 NULL.                 -999.25: NULL VALUE
 DFWT.                        :  DIST FWL TEXT
 DFST.                        :  DIST FSL TEXT
 DMF .             Drill Floor:  DRILL MEAS FROM
 STIM.      20.00.00 17-Aug-21:  START TIME
 DATE.      19.00.00 29-Aug-21:  END TIME
 SPUD.               15-Aug-21:  SPUD DATE
 NREF.                    Grid:  NORTH REFERENCE
 HPTY.       Minimum Curvature:  HOLE POS TYPE
 DMOD.             Drill Model:  DRILL MOD DESC
 SVYD.                  Survey:  SURVEY DESC
 ILTD.               Lithology:  INTERP LTH DESC
 FTOP.          Formation Tops:  FORM TOPS DESC
 RIG .              East Azeri:  RIG NAME
 PDAT.          Mean Sea Level:  PERMANENT DATUM
 FLD .                     ACG:  FIELD NAME
 SON .        AZ-XX-0907180857:  JOB NUMBER
 CTRY.              Azerbaijan:  COUNTRY NAME
 WELL.                    D23x:  WELL NAME
 SRVC.     Turan Drilling and Engineering:  CONTRACTOR
 COMP.     BP Exploration (Caspian Sea) Ltd.:  COMPANY
 UWI .            /AZE00000214:  UNIQUE WELL IDENTIFIER
 API .            /AZE00000214:  API NUMBER
 MDS .        Operator Entered:  MAG DATA SOURCE
 BASE.              Azerbaijan:  LOGGING EQUIPMENT BASE LOCATION
 REGN.                   EESSA:  REGION
 PROV.                    Baku:  PROVINCE
 STAT.                    Baku:  STATE NAME
 MWDS.                    Baku:  MWD SHOP
 DOE .                     N/A:  DOE NUMBER
 DCON.         Sperry Drilling:  DIRECTNL CONTR
 UNIT.                     N/A:  LOGGING EQUIPMENT ID
 WTYP.                Deviated:  WELL TYPE
 CNTY.                        :  COUNTY
 LOC .                        :  LOCATION
 LMF .             Drill Floor:  LOG MEASURED FROM
 TVDS.m                  43.60:  TVDSS CORRECTN
 LATI.deg                40.02:  LATITUDE
 LONG.deg                51.45:  LONGITUDE
 WHNS.m                  -7.04:  WELL HEAD N/S
 WHEW.m                  -0.67:  WELL HEAD E/W
 UTMX.m              538762.90:  UTM X
 UTMY.m             4431871.34:  UTM Y
 DFWL.m                   0.00:  DISTANCE FWL
 DFSL.m                   0.00:  DISTANCE FSL
 SDEP.m                4127.00:  START DEPTH
 TDD .m                5084.50:  TOTAL DEPTH (DRILLER)
 VSDR.deg               140.47:  VERT SEC DIRECT
 GVFD.g                   1.00:  GRAVITY FIELD
 MFLD.nT              50362.00:  MAGNETIC FIELD
 MDIP.deg                59.48:  MAGNETIC DIP
 MDEC.deg                 6.47:  MAGNETIC DECL
 GRDC.deg                 0.31:  GRID CORRECTION
 AZTC.deg                 6.16:  AZM TOTAL CORR
 EPD .m                   0.00:  ELEVATION
 EGL .m                   0.00:  GROUND ELEVATION
 WDMS.m                 151.80:  WD ELEV
 APD .m                  43.60:  DEPTH ABOVE PD
 DEP .m                4092.57:  DEPTH
 AGAP.m                  43.60:  AIR GAP
 VSEW.m                  -0.67:  VERT SEC E/W
 VSNS.m                  -7.04:  VERT SEC N/S
 EKB .m                  43.60:  KB ELEVATION
 EDF .m                  43.60:  DF ELEVATION
 TDL .m                 957.50:  TOTAL DEPTH (LOGGER)
 VSC .                       0:  VS TO CLOSURE
 MAGU.                 1851413:  MAGUTM CHECKSUM
~Parameter Information Block
#MNEM.UNIT       Value        Description
#---------     -----------    ---------------------------
 AV  .mps                 1.50:  Ann Velocity 
 AVMX.mps                 2.00:  Max Ann Veloc 
 AZIF.deg               184.66:  Azm, Final 
 BHAT.        Rotary Steerable:  BHA Type 
 BREV.rev               300.00:  Rev Bit Total 
 BROT.°/30m              -0.50:  Build Rotating 
 BS  .in                  8.50:  Bit Size 
 BSZ .in                  8.50:  Bit Size 
 BTPL.psig              370.00:  Bit Press Loss 
 CABU.                      No:  Customer Abuse 
 CGEO.      Behruz Shahbaliyev:  Customer Geo 
 COMM.                     ¤R:  Run Comments 1 
 TCS .hr                140.08:  Time Ciculation Ended 
 CV  .mps                 3.00:  Crit Velocity 
 CVMX.mps                 3.20:  Max Crit Veloc 
 DD1 .            Musa Ahmadov:  Direct Drillr 1 
 DD2 .           Hamid Ahmadov:  Direct Drillr 2 
 DDSV.               Geo-Pilot:  DD Service 
 DEFF.%                  98.40:  % Det Eff 
 DLRX.°/30m               3.40:  Dogleg Rot Max 
 DLSO.°/30m               1.45:  Dogleg Oriented 
 DLSX.°/30m               3.40:  Dogleg Str Max 
 DRET.      18.40.00 29-Aug-21:  Drill End Time 
 DRST.      21.00.00 20-Aug-21:  Drill Start Tim 
 DTIM.hr                 69.47:  Time Drilling 
 EDEP.m                5084.50:  End Depth 
 ENG1.      Artemiy Matviyanov:  Engineer 1 
 ENG2.         Almaz Almadatov:  Engineer 2 
 ETIM.      18.40.00 29-Aug-21:  End Time 
 FLOI.gpm               500.00:  Flow In 
 FLON.gpm               400.00:  Flow In Min 
 FLOS.cptm                0.00:  Fluid Loss 
 FLOX.gpm               500.00:  Flow In Max 
 DFT .        Mineral Oil Base:  Mud Type 
 HFLO.                      No:  High Flow 
 HPRE.                      No:  High Pressure 
 HTEM.                      No:  High Temp 
 HYDO.m                   1.80:  Hydro Offset 
 IFIN.deg                25.62:  Inc, Final 
 IMAX.deg                48.69:  Inc Max 
 IMIN.deg                24.01:  Inc Min 
 IMND.m                4962.57:  Inc Min Depth 
 IMXD.m                4119.01:  Inc Max Depth 
 JARR.                      No:  Jarring 
 LETM.      18.40.00 29-Aug-21:  Log End Time 
 LOST.hr                     0:  Lost Rig Time 
 LSTM.      21.00.00 20-Aug-21:  Log Start Time 
 MDCL.ppm             41500.00:  Mud Chlorides 
 MDES.     Inversion Oil/Synthetic:  Mud Desc 
 DFD .sg                  1.56:  Mud Density 
 MDMN.sg                  1.56:  Dens Mud Min 
 MDMX.sg                  1.56:  Dens Mud Max 
 MOIL.                      70:  Run Mud Oil % 
 MOWR.                   70:30:  Run Mud OWR 
 MSND.                     0.2:  Run Mud Sand % 
 MSOL.                    23.3:  Run Mud Solids% 
 DFV .spqt               78.00:  Mud Viscosity 
 MWOD.in                  6.75:  MWD Tool OD 
 MWSI.                      No:  Serv Intrp, MWD 
 OTIM.hr                218.30:  Time Operating 
 PCON.           Look Like New:  Pad Condition 
 PMAX.psia            11015.30:  Press Op, Max 
 PV  .cP                 38.00:  Mud PV 
 RUN .                     300:  Run Number 
 ROPA.m/hr               15.00:  ROP Avg 
 ROPN.m/hr                9.00:  ROP Min 
 ROPX.m/hr               17.00:  ROP Max 
 RPMA.rpm               120.00:  RPM Surface Avg 
 RPMN.rpm                90.00:  RPM Surface Min 
 RPMX.rpm               140.00:  RPM Surface Max 
 RRUN.                     300:  Rig Run Number 
 RTIM.hr                 31.53:  Time Reaming 
 SAZI.deg               331.64:  Azm, Start 
 SDEP.m                4127.00:  Start Depth 
 SIDD.                      No:  Serv Intrp, DD 
 SINC.deg                48.43:  Inc, Start 
 SPPA.psig             5830.00:  SPP Avg 
 SPPN.psig             5600.00:  SPP Min 
 SPPX.psig             5900.00:  SPP Max 
 STIM.      21.00.00 20-Aug-21:  Start Time 
 SVCS.                 DD, MWD:  Services 
 SVER.                    9.20:  Sperry Version 
 TDAT.m                 957.50:  Tot Depth Attmp 
 TDDF.                      No:  Trip for DD 
 TDLG.m                 957.50:  Tot Depth Loggd 
 TFF .                      No:  Trip for Fail 
 TQAA.f-kp               15.00:  Torque Abs Avg 
 TQAN.f-kp               12.00:  Torque Abs Min 
 TQAX.f-kp               19.00:  Torque Abs Max 
 TRRT.°/30m              -3.40:  Turn Rotating 
 MRT .                  EWR-M5:  Maximum Recorded Temperature 
 TTMX.degC              100.00:  Max Tool Temp 
 VS01.                90639251:  Virtual Str1 SN 
 VS02.                90634715:  Virtual Str2 SN 
 VS03.                90652479:  Virtual Str3 SN 
 VS04.                90642262:  Virtual Str4 SN 
 WBMN.klb                 0.00:  WOB Min 
 WITN.           Murad Guliyev:  Customer Rep 
 WITN.          Yashar Gaziyev:  Customer Rep 2 
 WOBA.klb                 9.00:  WOB Avg 
 WOBX.klb                12.00:  WOB Max 
 YP  .lhf2               30.00:  Yield Point 
~Curve Information Block
#MNEM.UNIT                 API CODE     Curve Description
#---------               -----------    ---------------------------
 TIME.HHMMSS            00 000 000 000:  GT Time & Date
 GTDEPTH.m              00 000 000 000:  GT Depth
 GTPQH.psia             00 000 000 000:  GT HR Quartz Pressure
 GTTQ.degC              00 000 000 000:  GT Quartz Temperature
 GTTN.NONE              00 000 000 000:  GT Test Number
 GTET.sec               00 000 000 000:  GT Elapsed Test Time
 GTTVD.m                00 000 000 000:  GT True Vertical Depth
#Other Information
#
#WARRANTY: Halliburton will use its best efforts to furnish customers with 
#accurate information and interpretations that are part of, and incident to, the services 
#provided.  However, Halliburton cannot and does not warrant the accuracy 
#or correctness of such information and interpretations.  Under no circumstances should any 
#such information or interpretation be relied upon as the sole basis for any drilling, 
#completion, production, or financial decision or any procedure involving any risk to the 
#safety of any drilling venture, drilling rig or its crew or any other third party.  The 
#Customer has full responsibility for all drilling, completion and production operation.  
#Halliburton makes no representations or warranties, either expressed or 
#implied, including, but not limited to, the implied warranties of merchantability or fitness 
#for a particular purpose, with respect to the services rendered.  In no event will 
#Halliburton be liable for failure to obtain any particular results or for 
#any damages, including, but not limited to, indirect, special or consequential damages, 
#resulting from the use of any information or interpretation provided by Halliburton.
#
~A           TIME           GTDEPTH  GTPQH  GTTQ  GTTN   GTET   GTTVD  
# ...
   13:08:02.554.27-Aug-2021 4901.50 7737.40 85.07 13.00  22.62 3249.95
   13:08:02.754.27-Aug-2021 4901.50 7736.99 85.07 13.00  22.82 3249.95
   13:08:02.954.27-Aug-2021 4901.50 7737.47 85.07 13.00  23.02 3249.95
   13:08:03.155.27-Aug-2021 4901.50 7737.47 85.07 13.00  23.22 3249.95
   13:08:03.355.27-Aug-2021 4901.50 7737.98 85.07 13.00  23.42 3249.95
   13:08:03.555.27-Aug-2021 4901.50 7738.13 85.07 13.00  23.62 3249.95
   13:08:03.755.27-Aug-2021 4901.50 7738.22 85.07 13.00  23.82 3249.95
   13:08:03.955.27-Aug-2021 4901.50 7738.20 85.07 13.00  24.02 3249.95
   13:08:04.156.27-Aug-2021 4901.50 7738.20 85.07 13.00  24.22 3249.95
   13:08:04.356.27-Aug-2021 4901.50 7738.46 85.07 13.00  24.42 3249.95
   13:08:04.556.27-Aug-2021 4901.50 7742.61 85.07 13.00  24.63 3249.95
   13:08:04.756.27-Aug-2021 4901.50 7737.93 85.07 13.00  24.83 3249.95
   13:08:04.956.27-Aug-2021 4901.50 7740.30 85.07 13.00  25.03 3249.95
   13:08:05.157.27-Aug-2021 4901.50 7740.30 85.07 13.00  25.23 3249.95
   13:08:05.357.27-Aug-2021 4901.50 7739.17 85.07 13.00  25.43 3249.95
   13:08:05.557.27-Aug-2021 4901.50 7739.42 85.07 13.00  25.63 3249.95
   13:08:05.757.27-Aug-2021 4901.50 7739.31 85.07 13.00  25.83 3249.95
   13:08:05.957.27-Aug-2021 4901.50 7739.51 85.07 13.00  26.03 3249.95
   13:08:06.158.27-Aug-2021 4901.50 7739.51 85.07 13.00  26.23 3249.95
   13:08:06.358.27-Aug-2021 4901.50 7740.24 85.07 13.00  26.43 3249.95
   13:08:06.558.27-Aug-2021 4901.50 7740.69 85.07 13.00  26.63 3249.95
   13:08:06.758.27-Aug-2021 4901.50 7740.96 85.07 13.00  26.83 3249.95
   13:08:06.958.27-Aug-2021 4901.50 7741.05 85.07 13.00  27.03 3249.95
   13:08:07.159.27-Aug-2021 4901.50 7741.05 85.07 13.00  27.23 3249.95
   13:08:07.359.27-Aug-2021 4901.50 7741.19 85.07 13.00  27.43 3249.95
   13:08:07.559.27-Aug-2021 4901.50 7741.19 85.07 13.00  27.63 3249.95
   13:08:07.759.27-Aug-2021 4901.50 7741.27 85.07 13.00  27.83 3249.95
   13:08:07.959.27-Aug-2021 4901.50 7745.12 85.07 13.00  28.03 3249.95
   13:08:08.160.27-Aug-2021 4901.50 7745.12 85.07 13.00  28.23 3249.95
   13:08:08.360.27-Aug-2021 4901.50 7742.73 85.07 13.00  28.43 3249.95
   13:08:08.560.27-Aug-2021 4901.50 7741.80 85.07 13.00  28.63 3249.95
   13:08:08.760.27-Aug-2021 4901.50 7744.81 85.06 13.00  28.83 3249.95
   13:08:08.960.27-Aug-2021 4901.50 7741.53 85.06 13.00  29.03 3249.95
   13:08:09.161.27-Aug-2021 4901.50 7741.53 85.06 13.00  29.23 3249.95
   13:08:09.361.27-Aug-2021 4901.50 7741.74 85.06 13.00  29.43 3249.95
   13:08:09.561.27-Aug-2021 4901.50 7742.04 85.06 13.00  29.63 3249.95
   13:08:09.761.27-Aug-2021 4901.50 7742.27 85.06 13.00  29.83 3249.95
   13:08:09.961.27-Aug-2021 4901.50 7745.27 85.06 13.00  30.03 3249.95
   13:08:10.162.27-Aug-2021 4901.50 7745.27 85.06 13.00  30.23 3249.95
   13:08:10.362.27-Aug-2021 4901.50 7743.73 85.06 13.00  30.43 3249.95
   13:08:10.562.27-Aug-2021 4901.50 7743.02 85.06 13.00  30.63 3249.95
   13:08:10.762.27-Aug-2021 4901.50 7743.49 85.06 13.00  30.83 3249.95
   13:08:10.963.27-Aug-2021 4901.50 7746.40 85.06 13.00  31.03 3249.95
   13:08:11.163.27-Aug-2021 4901.50 7746.40 85.06 13.00  31.23 3249.95
   13:08:11.363.27-Aug-2021 4901.50 7744.28 85.06 13.00  31.43 3249.95
   13:08:11.563.27-Aug-2021 4901.50 7743.81 85.06 13.00  31.63 3249.95
   13:08:11.763.27-Aug-2021 4901.50 7744.03 85.06 13.00  31.83 3249.95
   13:08:11.964.27-Aug-2021 4901.50 7743.82 85.06 13.00  32.03 3249.95
   13:08:12.164.27-Aug-2021 4901.50 7743.82 85.06 13.00  32.23 3249.95
   13:08:12.364.27-Aug-2021 4901.50 7743.94 85.06 13.00  32.43 3249.95
   13:08:12.564.27-Aug-2021 4901.50 7744.34 85.06 13.00  32.63 3249.95
   13:08:12.764.27-Aug-2021 4901.50 7744.83 85.06 13.00  32.83 3249.95
   13:08:12.965.27-Aug-2021 4901.50 7744.93 85.06 13.00  33.03 3249.95
   13:08:13.165.27-Aug-2021 4901.50 7744.93 85.06 13.00  33.23 3249.95
   13:08:13.365.27-Aug-2021 4901.50 7745.25 85.06 13.00  33.43 3249.95
   13:08:13.565.27-Aug-2021 4901.50 7745.23 85.06 13.00  33.63 3249.95
   13:08:13.765.27-Aug-2021 4901.50 7745.13 85.06 13.00  33.83 3249.95
   13:08:13.966.27-Aug-2021 4901.50 7745.15 85.06 13.00  34.03 3249.95
   13:08:14.166.27-Aug-2021 4901.50 7745.15 85.06 13.00  34.23 3249.95
   13:08:14.366.27-Aug-2021 4901.50 7745.33 85.06 13.00  34.44 3249.95
   13:08:14.566.27-Aug-2021 4901.50 7751.33 85.06 13.00  34.64 3249.95
   13:08:14.766.27-Aug-2021 4901.50 7742.62 85.06 13.00  34.84 3249.95
   13:08:14.967.27-Aug-2021 4901.50 7747.18 85.06 13.00  35.04 3249.95
   13:08:15.167.27-Aug-2021 4901.50 7747.18 85.06 13.00  35.24 3249.95
   13:08:15.367.27-Aug-2021 4901.50 7751.19 85.06 13.00  35.44 3249.95
   13:08:15.567.27-Aug-2021 4901.50 7784.25 85.06 13.00  35.64 3249.95
   13:08:15.767.27-Aug-2021 4901.50 7812.15 85.06 13.00  35.84 3249.95
   13:08:15.968.27-Aug-2021 4901.50 7802.45 85.06 13.00  36.04 3249.95
   13:08:16.168.27-Aug-2021 4901.50 7802.45 85.06 13.00  36.24 3249.95
   13:08:16.368.27-Aug-2021 4901.50 7793.64 85.06 13.00  36.44 3249.95
   13:08:16.568.27-Aug-2021 4901.50 7789.96 85.06 13.00  36.64 3249.95
   13:08:16.768.27-Aug-2021 4901.50 7785.60 85.06 13.00  36.84 3249.95
   13:08:16.969.27-Aug-2021 4901.50 7781.12 85.06 13.00  37.04 3249.95
   13:08:17.169.27-Aug-2021 4901.50 7781.12 85.06 13.00  37.24 3249.95
   13:08:17.369.27-Aug-2021 4901.50 7773.92 85.06 13.00  37.44 3249.95
   13:08:17.569.27-Aug-2021 4901.50 7770.86 85.06 13.00  37.64 3249.95
   13:08:17.769.27-Aug-2021 4901.50 7773.03 85.06 13.00  37.84 3249.95
   13:08:17.970.27-Aug-2021 4901.50 7761.16 85.06 13.00  38.04 3249.95
   13:08:18.170.27-Aug-2021 4901.50 7761.16 85.06 13.00  38.24 3249.95
   13:08:18.370.27-Aug-2021 4901.50 7755.59 85.06 13.00  38.44 3249.95
   13:08:18.570.27-Aug-2021 4901.50 7751.22 85.06 13.00  38.64 3249.95
   13:08:18.770.27-Aug-2021 4901.50 7747.58 85.06 13.00  38.84 3249.95
   13:08:18.971.27-Aug-2021 4901.50 7749.66 85.06 13.00  39.04 3249.95
   13:08:19.171.27-Aug-2021 4901.50 7749.66 85.06 13.00  39.24 3249.95
   13:08:19.371.27-Aug-2021 4901.50 7738.42 85.06 13.00  39.44 3249.95
   13:08:19.571.27-Aug-2021 4901.50 7734.79 85.06 13.00  39.64 3249.95
   13:08:19.771.27-Aug-2021 4901.50 7732.28 85.06 13.00  39.84 3249.95
   13:08:19.972.27-Aug-2021 4901.50 7729.07 85.06 13.00  40.04 3249.95
   13:08:20.172.27-Aug-2021 4901.50 7729.07 85.06 13.00  40.24 3249.95
   13:08:20.372.27-Aug-2021 4901.50 7720.47 85.06 13.00  40.44 3249.95
   13:08:20.572.27-Aug-2021 4901.50 7718.73 85.06 13.00  40.64 3249.95
   13:08:20.772.27-Aug-2021 4901.50 7714.34 85.06 13.00  40.84 3249.95
   13:08:20.973.27-Aug-2021 4901.50 7710.10 85.06 13.00  41.04 3249.95
   13:08:21.173.27-Aug-2021 4901.50 7710.10 85.06 13.00  41.24 3249.95
   13:08:21.373.27-Aug-2021 4901.50 7701.92 85.06 13.00  41.44 3249.95
   13:08:21.573.27-Aug-2021 4901.50 7697.51 85.06 13.00  41.64 3249.95
   13:08:21.774.27-Aug-2021 4901.50 7693.31 85.06 13.00  41.84 3249.95
   13:08:21.974.27-Aug-2021 4901.50 7695.08 85.06 13.00  42.04 3249.95
   13:08:22.174.27-Aug-2021 4901.50 7695.08 85.06 13.00  42.24 3249.95
   13:08:22.374.27-Aug-2021 4901.50 7684.41 85.06 13.00  42.44 3249.95
   13:08:22.574.27-Aug-2021 4901.50 7679.92 85.05 13.00  42.64 3249.95
   13:08:22.775.27-Aug-2021 4901.50 7674.87 85.05 13.00  42.84 3249.95
   13:08:22.975.27-Aug-2021 4901.50 7671.27 85.05 13.00  43.04 3249.95
   13:08:23.175.27-Aug-2021 4901.50 7671.27 85.05 13.00  43.24 3249.95
   13:08:23.375.27-Aug-2021 4901.50 7655.46 85.05 13.00  43.44 3249.95
   13:08:23.575.27-Aug-2021 4901.50 7647.89 85.05 13.00  43.64 3249.95
   13:08:23.776.27-Aug-2021 4901.50 7638.89 85.05 13.00  43.84 3249.95
   13:08:23.976.27-Aug-2021 4901.50 7628.65 85.05 13.00  44.04 3249.95
   13:08:24.176.27-Aug-2021 4901.50 7628.65 85.05 13.00  44.24 3249.95
   13:08:24.376.27-Aug-2021 4901.50 7609.33 85.05 13.00  44.45 3249.95
   13:08:24.576.27-Aug-2021 4901.50 7598.73 85.05 13.00  44.65 3249.95
   13:08:24.777.27-Aug-2021 4901.50 7588.06 85.05 13.00  44.85 3249.95
   13:08:24.977.27-Aug-2021 4901.50 7577.73 85.05 13.00  45.05 3249.95
