~Version Information
 VERS.                  2.0:   CWLS log ASCII Standard -VERSION 2.0
 WRAP.                   NO:   One line per depth step
~Well Information Block
#MNEM.UNIT     VALUE/NAME     DESCRIPTION
#---------     -----------    ---------------------------
 STRT.S             15:52:10 27-Aug-21: START TIME 15:52:10 27-Aug-21
 STOP.S             15:59:26 27-Aug-21: STOP TIME  15:59:26 27-Aug-21
 STEP.S                   0.00: STEP TIME
 NULL.                 -999.25: NULL VALUE
 DFWT.                        :  DIST FWL TEXT
 DFST.                        :  DIST FSL TEXT
 DMF .             Drill Floor:  DRILL MEAS FROM
 STIM.      20.00.00 17-Aug-21:  START TIME
 DATE.      19.00.00 29-Aug-21:  END TIME
 SPUD.               15-Aug-21:  SPUD DATE
 NREF.                    Grid:  NORTH REFERENCE
 HPTY.       Minimum Curvature:  HOLE POS TYPE
 DMOD.             Drill Model:  DRILL MOD DESC
 SVYD.                  Survey:  SURVEY DESC
 ILTD.               Lithology:  INTERP LTH DESC
 FTOP.          Formation Tops:  FORM TOPS DESC
 RIG .              East Azeri:  RIG NAME
 PDAT.          Mean Sea Level:  PERMANENT DATUM
 FLD .                     ACG:  FIELD NAME
 SON .        AZ-XX-0907180857:  JOB NUMBER
 CTRY.              Azerbaijan:  COUNTRY NAME
 WELL.                    D23x:  WELL NAME
 SRVC.     Turan Drilling and Engineering:  CONTRACTOR
 COMP.     BP Exploration (Caspian Sea) Ltd.:  COMPANY
 UWI .            /AZE00000214:  UNIQUE WELL IDENTIFIER
 API .            /AZE00000214:  API NUMBER
 MDS .        Operator Entered:  MAG DATA SOURCE
 BASE.              Azerbaijan:  LOGGING EQUIPMENT BASE LOCATION
 REGN.                   EESSA:  REGION
 PROV.                    Baku:  PROVINCE
 STAT.                    Baku:  STATE NAME
 MWDS.                    Baku:  MWD SHOP
 DOE .                     N/A:  DOE NUMBER
 DCON.         Sperry Drilling:  DIRECTNL CONTR
 UNIT.                     N/A:  LOGGING EQUIPMENT ID
 WTYP.                Deviated:  WELL TYPE
 CNTY.                        :  COUNTY
 LOC .                        :  LOCATION
 LMF .             Drill Floor:  LOG MEASURED FROM
 TVDS.m                  43.60:  TVDSS CORRECTN
 LATI.deg                40.02:  LATITUDE
 LONG.deg                51.45:  LONGITUDE
 WHNS.m                  -7.04:  WELL HEAD N/S
 WHEW.m                  -0.67:  WELL HEAD E/W
 UTMX.m              538762.90:  UTM X
 UTMY.m             4431871.34:  UTM Y
 DFWL.m                   0.00:  DISTANCE FWL
 DFSL.m                   0.00:  DISTANCE FSL
 SDEP.m                4127.00:  START DEPTH
 TDD .m                5084.50:  TOTAL DEPTH (DRILLER)
 VSDR.deg               140.47:  VERT SEC DIRECT
 GVFD.g                   1.00:  GRAVITY FIELD
 MFLD.nT              50362.00:  MAGNETIC FIELD
 MDIP.deg                59.48:  MAGNETIC DIP
 MDEC.deg                 6.47:  MAGNETIC DECL
 GRDC.deg                 0.31:  GRID CORRECTION
 AZTC.deg                 6.16:  AZM TOTAL CORR
 EPD .m                   0.00:  ELEVATION
 EGL .m                   0.00:  GROUND ELEVATION
 WDMS.m                 151.80:  WD ELEV
 APD .m                  43.60:  DEPTH ABOVE PD
 DEP .m                4092.57:  DEPTH
 AGAP.m                  43.60:  AIR GAP
 VSEW.m                  -0.67:  VERT SEC E/W
 VSNS.m                  -7.04:  VERT SEC N/S
 EKB .m                  43.60:  KB ELEVATION
 EDF .m                  43.60:  DF ELEVATION
 TDL .m                 957.50:  TOTAL DEPTH (LOGGER)
 VSC .                       0:  VS TO CLOSURE
 MAGU.                 1851413:  MAGUTM CHECKSUM
~Parameter Information Block
#MNEM.UNIT       Value        Description
#---------     -----------    ---------------------------
 AV  .mps                 1.50:  Ann Velocity 
 AVMX.mps                 2.00:  Max Ann Veloc 
 AZIF.deg               184.66:  Azm, Final 
 BHAT.        Rotary Steerable:  BHA Type 
 BREV.rev               300.00:  Rev Bit Total 
 BROT.°/30m              -0.50:  Build Rotating 
 BS  .in                  8.50:  Bit Size 
 BSZ .in                  8.50:  Bit Size 
 BTPL.psig              370.00:  Bit Press Loss 
 CABU.                      No:  Customer Abuse 
 CGEO.      Behruz Shahbaliyev:  Customer Geo 
 COMM.                     Ìu:  Run Comments 1 
 TCS .hr                140.08:  Time Ciculation Ended 
 CV  .mps                 3.00:  Crit Velocity 
 CVMX.mps                 3.20:  Max Crit Veloc 
 DD1 .            Musa Ahmadov:  Direct Drillr 1 
 DD2 .           Hamid Ahmadov:  Direct Drillr 2 
 DDSV.               Geo-Pilot:  DD Service 
 DEFF.%                  98.40:  % Det Eff 
 DLRX.°/30m               3.40:  Dogleg Rot Max 
 DLSO.°/30m               1.45:  Dogleg Oriented 
 DLSX.°/30m               3.40:  Dogleg Str Max 
 DRET.      18.40.00 29-Aug-21:  Drill End Time 
 DRST.      21.00.00 20-Aug-21:  Drill Start Tim 
 DTIM.hr                 69.47:  Time Drilling 
 EDEP.m                5084.50:  End Depth 
 ENG1.      Artemiy Matviyanov:  Engineer 1 
 ENG2.         Almaz Almadatov:  Engineer 2 
 ETIM.      18.40.00 29-Aug-21:  End Time 
 FLOI.gpm               500.00:  Flow In 
 FLON.gpm               400.00:  Flow In Min 
 FLOS.cptm                0.00:  Fluid Loss 
 FLOX.gpm               500.00:  Flow In Max 
 DFT .        Mineral Oil Base:  Mud Type 
 HFLO.                      No:  High Flow 
 HPRE.                      No:  High Pressure 
 HTEM.                      No:  High Temp 
 HYDO.m                   1.80:  Hydro Offset 
 IFIN.deg                25.62:  Inc, Final 
 IMAX.deg                48.69:  Inc Max 
 IMIN.deg                24.01:  Inc Min 
 IMND.m                4962.57:  Inc Min Depth 
 IMXD.m                4119.01:  Inc Max Depth 
 JARR.                      No:  Jarring 
 LETM.      18.40.00 29-Aug-21:  Log End Time 
 LOST.hr                     0:  Lost Rig Time 
 LSTM.      21.00.00 20-Aug-21:  Log Start Time 
 MDCL.ppm             41500.00:  Mud Chlorides 
 MDES.     Inversion Oil/Synthetic:  Mud Desc 
 DFD .sg                  1.56:  Mud Density 
 MDMN.sg                  1.56:  Dens Mud Min 
 MDMX.sg                  1.56:  Dens Mud Max 
 MOIL.                      70:  Run Mud Oil % 
 MOWR.                   70:30:  Run Mud OWR 
 MSND.                     0.2:  Run Mud Sand % 
 MSOL.                    23.3:  Run Mud Solids% 
 DFV .spqt               78.00:  Mud Viscosity 
 MWOD.in                  6.75:  MWD Tool OD 
 MWSI.                      No:  Serv Intrp, MWD 
 OTIM.hr                218.30:  Time Operating 
 PCON.           Look Like New:  Pad Condition 
 PMAX.psia            11015.30:  Press Op, Max 
 PV  .cP                 38.00:  Mud PV 
 RUN .                     300:  Run Number 
 ROPA.m/hr               15.00:  ROP Avg 
 ROPN.m/hr                9.00:  ROP Min 
 ROPX.m/hr               17.00:  ROP Max 
 RPMA.rpm               120.00:  RPM Surface Avg 
 RPMN.rpm                90.00:  RPM Surface Min 
 RPMX.rpm               140.00:  RPM Surface Max 
 RRUN.                     300:  Rig Run Number 
 RTIM.hr                 31.53:  Time Reaming 
 SAZI.deg               331.64:  Azm, Start 
 SDEP.m                4127.00:  Start Depth 
 SIDD.                      No:  Serv Intrp, DD 
 SINC.deg                48.43:  Inc, Start 
 SPPA.psig             5830.00:  SPP Avg 
 SPPN.psig             5600.00:  SPP Min 
 SPPX.psig             5900.00:  SPP Max 
 STIM.      21.00.00 20-Aug-21:  Start Time 
 SVCS.                 DD, MWD:  Services 
 SVER.                    9.20:  Sperry Version 
 TDAT.m                 957.50:  Tot Depth Attmp 
 TDDF.                      No:  Trip for DD 
 TDLG.m                 957.50:  Tot Depth Loggd 
 TFF .                      No:  Trip for Fail 
 TQAA.f-kp               15.00:  Torque Abs Avg 
 TQAN.f-kp               12.00:  Torque Abs Min 
 TQAX.f-kp               19.00:  Torque Abs Max 
 TRRT.°/30m              -3.40:  Turn Rotating 
 MRT .                  EWR-M5:  Maximum Recorded Temperature 
 TTMX.degC              100.00:  Max Tool Temp 
 VS01.                90639251:  Virtual Str1 SN 
 VS02.                90634715:  Virtual Str2 SN 
 VS03.                90652479:  Virtual Str3 SN 
 VS04.                90642262:  Virtual Str4 SN 
 WBMN.klb                 0.00:  WOB Min 
 WITN.           Murad Guliyev:  Customer Rep 
 WITN.          Yashar Gaziyev:  Customer Rep 2 
 WOBA.klb                 9.00:  WOB Avg 
 WOBX.klb                12.00:  WOB Max 
 YP  .lhf2               30.00:  Yield Point 
~Curve Information Block
#MNEM.UNIT                 API CODE     Curve Description
#---------               -----------    ---------------------------
 TIME.HHMMSS            00 000 000 000:  GT Time & Date
 GTDEPTH.m              00 000 000 000:  GT Depth
 GTPQH.psia             00 000 000 000:  GT HR Quartz Pressure
 GTTQ.degC              00 000 000 000:  GT Quartz Temperature
 GTTN.NONE              00 000 000 000:  GT Test Number
 GTET.sec               00 000 000 000:  GT Elapsed Test Time
 GTTVD.m                00 000 000 000:  GT True Vertical Depth
#Other Information
#
#WARRANTY: Halliburton will use its best efforts to furnish customers with 
#accurate information and interpretations that are part of, and incident to, the services 
#provided.  However, Halliburton cannot and does not warrant the accuracy 
#or correctness of such information and interpretations.  Under no circumstances should any 
#such information or interpretation be relied upon as the sole basis for any drilling, 
#completion, production, or financial decision or any procedure involving any risk to the 
#safety of any drilling venture, drilling rig or its crew or any other third party.  The 
#Customer has full responsibility for all drilling, completion and production operation.  
#Halliburton makes no representations or warranties, either expressed or 
#implied, including, but not limited to, the implied warranties of merchantability or fitness 
#for a particular purpose, with respect to the services rendered.  In no event will 
#Halliburton be liable for failure to obtain any particular results or for 
#any damages, including, but not limited to, indirect, special or consequential damages, 
#resulting from the use of any information or interpretation provided by Halliburton.
#
~A           TIME           GTDEPTH  GTPQH  GTTQ  GTTN   GTET   GTTVD  
# ...
   15:57:27.675.27-Aug-2021 4817.00 5229.60 83.55 16.00 316.90 3173.43
   15:57:27.875.27-Aug-2021 4817.00 5229.61 83.55 16.00 317.10 3173.43
   15:57:28.075.27-Aug-2021 4817.00 5229.60 83.55 16.00 317.30 3173.43
   15:57:28.276.27-Aug-2021 4817.00 5229.56 83.55 16.00 317.50 3173.43
   15:57:28.476.27-Aug-2021 4817.00 5229.56 83.55 16.00 317.70 3173.43
   15:57:28.676.27-Aug-2021 4817.00 5229.72 83.55 16.00 317.91 3173.43
   15:57:28.877.27-Aug-2021 4817.00 5229.62 83.55 16.00 318.11 3173.43
   15:57:29.077.27-Aug-2021 4817.00 5229.60 83.55 16.00 318.31 3173.43
   15:57:29.277.27-Aug-2021 4817.00 5229.60 83.55 16.00 318.51 3173.43
   15:57:29.478.27-Aug-2021 4817.00 5229.60 83.55 16.00 318.71 3173.43
   15:57:29.678.27-Aug-2021 4817.00 5229.61 83.55 16.00 318.91 3173.43
   15:57:29.878.27-Aug-2021 4817.00 5229.61 83.55 16.00 319.11 3173.43
   15:57:30.079.27-Aug-2021 4817.00 5229.61 83.55 16.00 319.31 3173.43
   15:57:30.279.27-Aug-2021 4817.00 5229.60 83.55 16.00 319.51 3173.43
   15:57:30.479.27-Aug-2021 4817.00 5229.60 83.55 16.00 319.71 3173.43
   15:57:30.680.27-Aug-2021 4817.00 5229.61 83.55 16.00 319.91 3173.43
   15:57:30.880.27-Aug-2021 4817.00 5229.59 83.55 16.00 320.11 3173.43
   15:57:31.080.27-Aug-2021 4817.00 5229.59 83.55 16.00 320.31 3173.43
   15:57:31.280.27-Aug-2021 4817.00 5229.60 83.55 16.00 320.51 3173.43
   15:57:31.481.27-Aug-2021 4817.00 5229.60 83.55 16.00 320.71 3173.43
   15:57:31.681.27-Aug-2021 4817.00 5229.54 83.55 16.00 320.91 3173.43
   15:57:31.881.27-Aug-2021 4817.00 5229.50 83.55 16.00 321.11 3173.43
   15:57:32.082.27-Aug-2021 4817.00 5229.75 83.55 16.00 321.31 3173.43
   15:57:32.282.27-Aug-2021 4817.00 5229.62 83.55 16.00 321.51 3173.43
   15:57:32.482.27-Aug-2021 4817.00 5229.62 83.55 16.00 321.71 3173.43
   15:57:32.683.27-Aug-2021 4817.00 5229.57 83.55 16.00 321.91 3173.43
   15:57:32.883.27-Aug-2021 4817.00 5229.58 83.55 16.00 322.11 3173.43
   15:57:33.083.27-Aug-2021 4817.00 5229.71 83.55 16.00 322.31 3173.43
   15:57:33.284.27-Aug-2021 4817.00 5229.63 83.55 16.00 322.51 3173.43
   15:57:33.484.27-Aug-2021 4817.00 5229.63 83.55 16.00 322.71 3173.43
   15:57:33.684.27-Aug-2021 4817.00 5229.60 83.55 16.00 322.91 3173.43
   15:57:33.885.27-Aug-2021 4817.00 5229.62 83.55 16.00 323.11 3173.43
   15:57:34.085.27-Aug-2021 4817.00 5229.70 83.55 16.00 323.31 3173.43
   15:57:34.285.27-Aug-2021 4817.00 5229.58 83.55 16.00 323.51 3173.43
   15:57:34.486.27-Aug-2021 4817.00 5229.58 83.55 16.00 323.71 3173.43
   15:57:34.686.27-Aug-2021 4817.00 5229.60 83.55 16.00 323.91 3173.43
   15:57:34.886.27-Aug-2021 4817.00 5229.72 83.55 16.00 324.12 3173.43
   15:57:35.087.27-Aug-2021 4817.00 5229.50 83.55 16.00 324.32 3173.43
   15:57:35.287.27-Aug-2021 4817.00 5229.55 83.55 16.00 324.52 3173.43
   15:57:35.487.27-Aug-2021 4817.00 5229.55 83.55 16.00 324.72 3173.43
   15:57:35.687.27-Aug-2021 4817.00 5229.60 83.55 16.00 324.92 3173.43
   15:57:35.888.27-Aug-2021 4817.00 5229.62 83.55 16.00 325.12 3173.43
   15:57:36.088.27-Aug-2021 4817.00 5229.61 83.55 16.00 325.32 3173.43
   15:57:36.288.27-Aug-2021 4817.00 5229.62 83.55 16.00 325.52 3173.43
   15:57:36.489.27-Aug-2021 4817.00 5229.62 83.55 16.00 325.72 3173.43
   15:57:36.689.27-Aug-2021 4817.00 5229.62 83.55 16.00 325.92 3173.43
   15:57:36.889.27-Aug-2021 4817.00 5229.62 83.55 16.00 326.12 3173.43
   15:57:37.090.27-Aug-2021 4817.00 5229.62 83.55 16.00 326.32 3173.43
   15:57:37.290.27-Aug-2021 4817.00 5229.61 83.55 16.00 326.52 3173.43
   15:57:37.490.27-Aug-2021 4817.00 5229.61 83.55 16.00 326.72 3173.43
   15:57:37.691.27-Aug-2021 4817.00 5229.60 83.55 16.00 326.92 3173.43
   15:57:37.891.27-Aug-2021 4817.00 5229.60 83.55 16.00 327.12 3173.43
   15:57:38.091.27-Aug-2021 4817.00 5229.65 83.55 16.00 327.32 3173.43
   15:57:38.292.27-Aug-2021 4817.00 5229.59 83.55 16.00 327.52 3173.43
   15:57:38.492.27-Aug-2021 4817.00 5229.59 83.55 16.00 327.72 3173.43
   15:57:38.692.27-Aug-2021 4817.00 5229.62 83.55 16.00 327.92 3173.43
   15:57:38.893.27-Aug-2021 4817.00 5229.60 83.55 16.00 328.12 3173.43
   15:57:39.093.27-Aug-2021 4817.00 5229.63 83.55 16.00 328.32 3173.43
   15:57:39.293.27-Aug-2021 4817.00 5229.59 83.55 16.00 328.52 3173.43
   15:57:39.494.27-Aug-2021 4817.00 5229.59 83.55 16.00 328.72 3173.43
   15:57:39.694.27-Aug-2021 4817.00 5229.63 83.55 16.00 328.92 3173.43
   15:57:39.894.27-Aug-2021 4817.00 5229.61 83.55 16.00 329.12 3173.43
   15:57:40.094.27-Aug-2021 4817.00 5229.62 83.55 16.00 329.32 3173.43
   15:57:40.295.27-Aug-2021 4817.00 5229.61 83.55 16.00 329.52 3173.43
   15:57:40.495.27-Aug-2021 4817.00 5229.61 83.55 16.00 329.72 3173.43
   15:57:40.695.27-Aug-2021 4817.00 5229.60 83.55 16.00 329.92 3173.43
   15:57:40.896.27-Aug-2021 4817.00 5229.60 83.55 16.00 330.12 3173.43
   15:57:41.096.27-Aug-2021 4817.00 5229.60 83.55 16.00 330.33 3173.43
   15:57:41.296.27-Aug-2021 4817.00 5229.60 83.55 16.00 330.53 3173.43
   15:57:41.497.27-Aug-2021 4817.00 5229.60 83.55 16.00 330.73 3173.43
   15:57:41.697.27-Aug-2021 4817.00 5229.58 83.55 16.00 330.93 3173.43
   15:57:41.897.27-Aug-2021 4817.00 5229.62 83.55 16.00 331.13 3173.43
   15:57:42.098.27-Aug-2021 4817.00 5229.62 83.55 16.00 331.33 3173.43
   15:57:42.298.27-Aug-2021 4817.00 5229.61 83.55 16.00 331.53 3173.43
   15:57:42.498.27-Aug-2021 4817.00 5229.61 83.55 16.00 331.73 3173.43
   15:57:42.699.27-Aug-2021 4817.00 5229.59 83.54 16.00 331.93 3173.43
   15:57:42.899.27-Aug-2021 4817.00 5229.63 83.55 16.00 332.13 3173.43
   15:57:43.099.27-Aug-2021 4817.00 5229.65 83.54 16.00 332.33 3173.43
   15:57:43.300.27-Aug-2021 4817.00 5229.60 83.54 16.00 332.53 3173.43
   15:57:43.500.27-Aug-2021 4817.00 5229.60 83.54 16.00 332.73 3173.43
   15:57:43.700.27-Aug-2021 4817.00 5229.84 83.54 16.00 332.93 3173.43
   15:57:43.901.27-Aug-2021 4817.00 5229.42 83.54 16.00 333.13 3173.43
   15:57:44.101.27-Aug-2021 4817.00 5229.66 83.54 16.00 333.33 3173.43
   15:57:44.301.27-Aug-2021 4817.00 5229.63 83.54 16.00 333.53 3173.43
   15:57:44.501.27-Aug-2021 4817.00 5229.63 83.54 16.00 333.73 3173.43
   15:57:44.702.27-Aug-2021 4817.00 5229.57 83.54 16.00 333.93 3173.43
   15:57:44.902.27-Aug-2021 4817.00 5229.74 83.54 16.00 334.13 3173.43
   15:57:45.102.27-Aug-2021 4817.00 5229.64 83.54 16.00 334.33 3173.43
   15:57:45.303.27-Aug-2021 4817.00 5229.64 83.54 16.00 334.53 3173.43
   15:57:45.503.27-Aug-2021 4817.00 5229.64 83.54 16.00 334.73 3173.43
   15:57:45.703.27-Aug-2021 4817.00 5229.62 83.54 16.00 334.93 3173.43
   15:57:45.904.27-Aug-2021 4817.00 5229.62 83.54 16.00 335.13 3173.43
   15:57:46.104.27-Aug-2021 4817.00 5229.63 83.54 16.00 335.33 3173.43
   15:57:46.304.27-Aug-2021 4817.00 5229.63 83.54 16.00 335.53 3173.43
   15:57:46.505.27-Aug-2021 4817.00 5229.63 83.54 16.00 335.73 3173.43
   15:57:46.705.27-Aug-2021 4817.00 5229.62 83.54 16.00 335.93 3173.43
   15:57:46.905.27-Aug-2021 4817.00 5229.62 83.54 16.00 336.13 3173.43
   15:57:47.106.27-Aug-2021 4817.00 5229.61 83.54 16.00 336.33 3173.43
   15:57:47.306.27-Aug-2021 4817.00 5229.60 83.54 16.00 336.53 3173.43
   15:57:47.506.27-Aug-2021 4817.00 5229.60 83.54 16.00 336.74 3173.43
   15:57:47.707.27-Aug-2021 4817.00 5229.84 83.54 16.00 336.94 3173.43
   15:57:47.907.27-Aug-2021 4817.00 5229.35 83.54 16.00 337.14 3173.43
   15:57:48.107.27-Aug-2021 4817.00 5229.64 83.54 16.00 337.34 3173.43
   15:57:48.308.27-Aug-2021 4817.00 5229.65 83.54 16.00 337.54 3173.43
   15:57:48.508.27-Aug-2021 4817.00 5229.65 83.54 16.00 337.74 3173.43
   15:57:48.708.27-Aug-2021 4817.00 5229.61 83.54 16.00 337.94 3173.43
   15:57:48.908.27-Aug-2021 4817.00 5229.60 83.54 16.00 338.14 3173.43
   15:57:49.109.27-Aug-2021 4817.00 5229.62 83.54 16.00 338.34 3173.43
   15:57:49.309.27-Aug-2021 4817.00 5229.62 83.54 16.00 338.54 3173.43
   15:57:49.509.27-Aug-2021 4817.00 5229.62 83.54 16.00 338.74 3173.43
   15:57:49.710.27-Aug-2021 4817.00 5229.62 83.54 16.00 338.94 3173.43
   15:57:49.910.27-Aug-2021 4817.00 5229.61 83.54 16.00 339.14 3173.43
   15:57:50.110.27-Aug-2021 4817.00 5229.60 83.54 16.00 339.34 3173.43
