~Version Information
 VERS.                  2.0:   CWLS log ASCII Standard -VERSION 2.0
 WRAP.                   NO:   One line per depth step
~Well Information Block
#MNEM.UNIT     VALUE/NAME     DESCRIPTION
#---------     -----------    ---------------------------
 STRT.S             12:21:31 27-Aug-21: START TIME 12:21:31 27-Aug-21
 STOP.S             12:28:48 27-Aug-21: STOP TIME  12:28:48 27-Aug-21
 STEP.S                   0.00: STEP TIME
 NULL.                 -999.25: NULL VALUE
 DFWT.                        :  DIST FWL TEXT
 DFST.                        :  DIST FSL TEXT
 DMF .             Drill Floor:  DRILL MEAS FROM
 STIM.      20.00.00 17-Aug-21:  START TIME
 DATE.      19.00.00 29-Aug-21:  END TIME
 SPUD.               15-Aug-21:  SPUD DATE
 NREF.                    Grid:  NORTH REFERENCE
 HPTY.       Minimum Curvature:  HOLE POS TYPE
 DMOD.             Drill Model:  DRILL MOD DESC
 SVYD.                  Survey:  SURVEY DESC
 ILTD.               Lithology:  INTERP LTH DESC
 FTOP.          Formation Tops:  FORM TOPS DESC
 RIG .              East Azeri:  RIG NAME
 PDAT.          Mean Sea Level:  PERMANENT DATUM
 FLD .                     ACG:  FIELD NAME
 SON .        AZ-XX-0907180857:  JOB NUMBER
 CTRY.              Azerbaijan:  COUNTRY NAME
 WELL.                    D23x:  WELL NAME
 SRVC.     Turan Drilling and Engineering:  CONTRACTOR
 COMP.     BP Exploration (Caspian Sea) Ltd.:  COMPANY
 UWI .            /AZE00000214:  UNIQUE WELL IDENTIFIER
 API .            /AZE00000214:  API NUMBER
 MDS .        Operator Entered:  MAG DATA SOURCE
 BASE.              Azerbaijan:  LOGGING EQUIPMENT BASE LOCATION
 REGN.                   EESSA:  REGION
 PROV.                    Baku:  PROVINCE
 STAT.                    Baku:  STATE NAME
 MWDS.                    Baku:  MWD SHOP
 DOE .                     N/A:  DOE NUMBER
 DCON.         Sperry Drilling:  DIRECTNL CONTR
 UNIT.                     N/A:  LOGGING EQUIPMENT ID
 WTYP.                Deviated:  WELL TYPE
 CNTY.                        :  COUNTY
 LOC .                        :  LOCATION
 LMF .             Drill Floor:  LOG MEASURED FROM
 TVDS.m                  43.60:  TVDSS CORRECTN
 LATI.deg                40.02:  LATITUDE
 LONG.deg                51.45:  LONGITUDE
 WHNS.m                  -7.04:  WELL HEAD N/S
 WHEW.m                  -0.67:  WELL HEAD E/W
 UTMX.m              538762.90:  UTM X
 UTMY.m             4431871.34:  UTM Y
 DFWL.m                   0.00:  DISTANCE FWL
 DFSL.m                   0.00:  DISTANCE FSL
 SDEP.m                4127.00:  START DEPTH
 TDD .m                5084.50:  TOTAL DEPTH (DRILLER)
 VSDR.deg               140.47:  VERT SEC DIRECT
 GVFD.g                   1.00:  GRAVITY FIELD
 MFLD.nT              50362.00:  MAGNETIC FIELD
 MDIP.deg                59.48:  MAGNETIC DIP
 MDEC.deg                 6.47:  MAGNETIC DECL
 GRDC.deg                 0.31:  GRID CORRECTION
 AZTC.deg                 6.16:  AZM TOTAL CORR
 EPD .m                   0.00:  ELEVATION
 EGL .m                   0.00:  GROUND ELEVATION
 WDMS.m                 151.80:  WD ELEV
 APD .m                  43.60:  DEPTH ABOVE PD
 DEP .m                4092.57:  DEPTH
 AGAP.m                  43.60:  AIR GAP
 VSEW.m                  -0.67:  VERT SEC E/W
 VSNS.m                  -7.04:  VERT SEC N/S
 EKB .m                  43.60:  KB ELEVATION
 EDF .m                  43.60:  DF ELEVATION
 TDL .m                 957.50:  TOTAL DEPTH (LOGGER)
 VSC .                       0:  VS TO CLOSURE
 MAGU.                 1851413:  MAGUTM CHECKSUM
~Parameter Information Block
#MNEM.UNIT       Value        Description
#---------     -----------    ---------------------------
 AV  .mps                 1.50:  Ann Velocity 
 AVMX.mps                 2.00:  Max Ann Veloc 
 AZIF.deg               184.66:  Azm, Final 
 BHAT.        Rotary Steerable:  BHA Type 
 BREV.rev               300.00:  Rev Bit Total 
 BROT.°/30m              -0.50:  Build Rotating 
 BS  .in                  8.50:  Bit Size 
 BSZ .in                  8.50:  Bit Size 
 BTPL.psig              370.00:  Bit Press Loss 
 CABU.                      No:  Customer Abuse 
 CGEO.      Behruz Shahbaliyev:  Customer Geo 
 TCS .hr                140.08:  Time Ciculation Ended 
 CV  .mps                 3.00:  Crit Velocity 
 CVMX.mps                 3.20:  Max Crit Veloc 
 DD1 .            Musa Ahmadov:  Direct Drillr 1 
 DD2 .           Hamid Ahmadov:  Direct Drillr 2 
 DDSV.               Geo-Pilot:  DD Service 
 DEFF.%                  98.40:  % Det Eff 
 DLRX.°/30m               3.40:  Dogleg Rot Max 
 DLSO.°/30m               1.45:  Dogleg Oriented 
 DLSX.°/30m               3.40:  Dogleg Str Max 
 DRET.      18.40.00 29-Aug-21:  Drill End Time 
 DRST.      21.00.00 20-Aug-21:  Drill Start Tim 
 DTIM.hr                 69.47:  Time Drilling 
 EDEP.m                5084.50:  End Depth 
 ENG1.      Artemiy Matviyanov:  Engineer 1 
 ENG2.         Almaz Almadatov:  Engineer 2 
 ETIM.      18.40.00 29-Aug-21:  End Time 
 FLOI.gpm               500.00:  Flow In 
 FLON.gpm               400.00:  Flow In Min 
 FLOS.cptm                0.00:  Fluid Loss 
 FLOX.gpm               500.00:  Flow In Max 
 DFT .        Mineral Oil Base:  Mud Type 
 HFLO.                      No:  High Flow 
 HPRE.                      No:  High Pressure 
 HTEM.                      No:  High Temp 
 HYDO.m                   1.80:  Hydro Offset 
 IFIN.deg                25.62:  Inc, Final 
 IMAX.deg                48.69:  Inc Max 
 IMIN.deg                24.01:  Inc Min 
 IMND.m                4962.57:  Inc Min Depth 
 IMXD.m                4119.01:  Inc Max Depth 
 JARR.                      No:  Jarring 
 LETM.      18.40.00 29-Aug-21:  Log End Time 
 LOST.hr                     0:  Lost Rig Time 
 LSTM.      21.00.00 20-Aug-21:  Log Start Time 
 MDCL.ppm             41500.00:  Mud Chlorides 
 MDES.     Inversion Oil/Synthetic:  Mud Desc 
 DFD .sg                  1.56:  Mud Density 
 MDMN.sg                  1.56:  Dens Mud Min 
 MDMX.sg                  1.56:  Dens Mud Max 
 MOIL.                      70:  Run Mud Oil % 
 MOWR.                   70:30:  Run Mud OWR 
 MSND.                     0.2:  Run Mud Sand % 
 MSOL.                    23.3:  Run Mud Solids% 
 DFV .spqt               78.00:  Mud Viscosity 
 MWOD.in                  6.75:  MWD Tool OD 
 MWSI.                      No:  Serv Intrp, MWD 
 OTIM.hr                218.30:  Time Operating 
 PCON.           Look Like New:  Pad Condition 
 PMAX.psia            11015.30:  Press Op, Max 
 PV  .cP                 38.00:  Mud PV 
 RUN .                     300:  Run Number 
 ROPA.m/hr               15.00:  ROP Avg 
 ROPN.m/hr                9.00:  ROP Min 
 ROPX.m/hr               17.00:  ROP Max 
 RPMA.rpm               120.00:  RPM Surface Avg 
 RPMN.rpm                90.00:  RPM Surface Min 
 RPMX.rpm               140.00:  RPM Surface Max 
 RRUN.                     300:  Rig Run Number 
 RTIM.hr                 31.53:  Time Reaming 
 SAZI.deg               331.64:  Azm, Start 
 SDEP.m                4127.00:  Start Depth 
 SIDD.                      No:  Serv Intrp, DD 
 SINC.deg                48.43:  Inc, Start 
 SPPA.psig             5830.00:  SPP Avg 
 SPPN.psig             5600.00:  SPP Min 
 SPPX.psig             5900.00:  SPP Max 
 STIM.      21.00.00 20-Aug-21:  Start Time 
 SVCS.                 DD, MWD:  Services 
 SVER.                    9.20:  Sperry Version 
 TDAT.m                 957.50:  Tot Depth Attmp 
 TDDF.                      No:  Trip for DD 
 TDLG.m                 957.50:  Tot Depth Loggd 
 TFF .                      No:  Trip for Fail 
 TQAA.f-kp               15.00:  Torque Abs Avg 
 TQAN.f-kp               12.00:  Torque Abs Min 
 TQAX.f-kp               19.00:  Torque Abs Max 
 TRRT.°/30m              -3.40:  Turn Rotating 
 MRT .                  EWR-M5:  Maximum Recorded Temperature 
 TTMX.degC              100.00:  Max Tool Temp 
 VS01.                90639251:  Virtual Str1 SN 
 VS02.                90634715:  Virtual Str2 SN 
 VS03.                90652479:  Virtual Str3 SN 
 VS04.                90642262:  Virtual Str4 SN 
 WBMN.klb                 0.00:  WOB Min 
 WITN.           Murad Guliyev:  Customer Rep 
 WITN.          Yashar Gaziyev:  Customer Rep 2 
 WOBA.klb                 9.00:  WOB Avg 
 WOBX.klb                12.00:  WOB Max 
 YP  .lhf2               30.00:  Yield Point 
~Curve Information Block
#MNEM.UNIT                 API CODE     Curve Description
#---------               -----------    ---------------------------
 TIME.HHMMSS            00 000 000 000:  GT Time & Date
 GTDEPTH.m              00 000 000 000:  GT Depth
 GTPQH.psia             00 000 000 000:  GT HR Quartz Pressure
 GTTQ.degC              00 000 000 000:  GT Quartz Temperature
 GTTN.NONE              00 000 000 000:  GT Test Number
 GTET.sec               00 000 000 000:  GT Elapsed Test Time
 GTTVD.m                00 000 000 000:  GT True Vertical Depth
#Other Information
#
#WARRANTY: Halliburton will use its best efforts to furnish customers with 
#accurate information and interpretations that are part of, and incident to, the services 
#provided.  However, Halliburton cannot and does not warrant the accuracy 
#or correctness of such information and interpretations.  Under no circumstances should any 
#such information or interpretation be relied upon as the sole basis for any drilling, 
#completion, production, or financial decision or any procedure involving any risk to the 
#safety of any drilling venture, drilling rig or its crew or any other third party.  The 
#Customer has full responsibility for all drilling, completion and production operation.  
#Halliburton makes no representations or warranties, either expressed or 
#implied, including, but not limited to, the implied warranties of merchantability or fitness 
#for a particular purpose, with respect to the services rendered.  In no event will 
#Halliburton be liable for failure to obtain any particular results or for 
#any damages, including, but not limited to, indirect, special or consequential damages, 
#resulting from the use of any information or interpretation provided by Halliburton.
#
~A           TIME           GTDEPTH  GTPQH  GTTQ  GTTN   GTET   GTTVD  
# ...
   12:26:47.854.27-Aug-2021 4914.80 7763.18 85.32 12.00 316.51 3262.04
   12:26:48.054.27-Aug-2021 4914.80 7762.95 85.32 12.00 316.71 3262.04
   12:26:48.254.27-Aug-2021 4914.80 7762.77 85.32 12.00 316.91 3262.04
   12:26:48.454.27-Aug-2021 4914.80 7762.44 85.32 12.00 317.11 3262.04
   12:26:48.655.27-Aug-2021 4914.80 7762.44 85.32 12.00 317.31 3262.04
   12:26:48.855.27-Aug-2021 4914.80 7762.62 85.32 12.00 317.51 3262.04
   12:26:49.055.27-Aug-2021 4914.80 7762.32 85.32 12.00 317.71 3262.04
   12:26:49.255.27-Aug-2021 4914.80 7762.60 85.32 12.00 317.91 3262.04
   12:26:49.455.27-Aug-2021 4914.80 7762.90 85.32 12.00 318.11 3262.04
   12:26:49.655.27-Aug-2021 4914.80 7762.90 85.32 12.00 318.31 3262.04
   12:26:49.855.27-Aug-2021 4914.80 7763.33 85.32 12.00 318.51 3262.04
   12:26:50.055.27-Aug-2021 4914.80 7763.47 85.32 12.00 318.71 3262.04
   12:26:50.255.27-Aug-2021 4914.80 7763.37 85.32 12.00 318.91 3262.04
   12:26:50.455.27-Aug-2021 4914.80 7763.41 85.32 12.00 319.11 3262.04
   12:26:50.655.27-Aug-2021 4914.80 7763.41 85.32 12.00 319.31 3262.04
   12:26:50.855.27-Aug-2021 4914.80 7763.24 85.32 12.00 319.51 3262.04
   12:26:51.055.27-Aug-2021 4914.80 7764.74 85.32 12.00 319.71 3262.04
   12:26:51.255.27-Aug-2021 4914.80 7763.79 85.32 12.00 319.91 3262.04
   12:26:51.456.27-Aug-2021 4914.80 7763.87 85.32 12.00 320.11 3262.04
   12:26:51.656.27-Aug-2021 4914.80 7763.87 85.32 12.00 320.31 3262.04
   12:26:51.856.27-Aug-2021 4914.80 7761.74 85.32 12.00 320.51 3262.04
   12:26:52.056.27-Aug-2021 4914.80 7764.44 85.32 12.00 320.71 3262.04
   12:26:52.256.27-Aug-2021 4914.80 7763.78 85.32 12.00 320.91 3262.04
   12:26:52.456.27-Aug-2021 4914.80 7763.30 85.32 12.00 321.11 3262.04
   12:26:52.656.27-Aug-2021 4914.80 7763.30 85.32 12.00 321.31 3262.04
   12:26:52.856.27-Aug-2021 4914.80 7763.47 85.32 12.00 321.51 3262.04
   12:26:53.056.27-Aug-2021 4914.80 7765.17 85.32 12.00 321.71 3262.04
   12:26:53.256.27-Aug-2021 4914.80 7764.57 85.32 12.00 321.91 3262.04
   12:26:53.456.27-Aug-2021 4914.80 7764.41 85.32 12.00 322.11 3262.04
   12:26:53.656.27-Aug-2021 4914.80 7764.41 85.32 12.00 322.31 3262.04
   12:26:53.856.27-Aug-2021 4914.80 7762.79 85.32 12.00 322.51 3262.04
   12:26:54.056.27-Aug-2021 4914.80 7765.33 85.32 12.00 322.71 3262.04
   12:26:54.257.27-Aug-2021 4914.80 7764.58 85.32 12.00 322.91 3262.04
   12:26:54.457.27-Aug-2021 4914.80 7763.92 85.32 12.00 323.11 3262.04
   12:26:54.657.27-Aug-2021 4914.80 7763.92 85.32 12.00 323.31 3262.04
   12:26:54.857.27-Aug-2021 4914.80 7763.95 85.32 12.00 323.51 3262.04
   12:26:55.057.27-Aug-2021 4914.80 7764.13 85.32 12.00 323.71 3262.04
   12:26:55.257.27-Aug-2021 4914.80 7764.22 85.32 12.00 323.91 3262.04
   12:26:55.457.27-Aug-2021 4914.80 7764.47 85.32 12.00 324.12 3262.04
   12:26:55.657.27-Aug-2021 4914.80 7764.47 85.32 12.00 324.32 3262.04
   12:26:55.857.27-Aug-2021 4914.80 7764.92 85.32 12.00 324.52 3262.04
   12:26:56.057.27-Aug-2021 4914.80 7765.11 85.32 12.00 324.72 3262.04
   12:26:56.257.27-Aug-2021 4914.80 7765.10 85.32 12.00 324.92 3262.04
   12:26:56.457.27-Aug-2021 4914.80 7765.18 85.32 12.00 325.12 3262.04
   12:26:56.657.27-Aug-2021 4914.80 7765.18 85.32 12.00 325.32 3262.04
   12:26:56.857.27-Aug-2021 4914.80 7766.73 85.32 12.00 325.52 3262.04
   12:26:57.058.27-Aug-2021 4914.80 7764.59 85.32 12.00 325.72 3262.04
   12:26:57.258.27-Aug-2021 4914.80 7765.80 85.32 12.00 325.92 3262.04
   12:26:57.458.27-Aug-2021 4914.80 7765.01 85.32 12.00 326.12 3262.04
   12:26:57.658.27-Aug-2021 4914.80 7765.01 85.32 12.00 326.32 3262.04
   12:26:57.858.27-Aug-2021 4914.80 7765.04 85.32 12.00 326.52 3262.04
   12:26:58.058.27-Aug-2021 4914.80 7764.70 85.32 12.00 326.72 3262.04
   12:26:58.258.27-Aug-2021 4914.80 7765.05 85.32 12.00 326.92 3262.04
   12:26:58.458.27-Aug-2021 4914.80 7764.64 85.32 12.00 327.12 3262.04
   12:26:58.658.27-Aug-2021 4914.80 7764.64 85.32 12.00 327.32 3262.04
   12:26:58.858.27-Aug-2021 4914.80 7764.64 85.32 12.00 327.52 3262.04
   12:26:59.058.27-Aug-2021 4914.80 7765.46 85.32 12.00 327.72 3262.04
   12:26:59.258.27-Aug-2021 4914.80 7765.50 85.32 12.00 327.92 3262.04
   12:26:59.458.27-Aug-2021 4914.80 7765.49 85.32 12.00 328.12 3262.04
   12:26:59.658.27-Aug-2021 4914.80 7765.49 85.32 12.00 328.32 3262.04
   12:26:59.859.27-Aug-2021 4914.80 7765.33 85.32 12.00 328.52 3262.04
   12:27:00.059.27-Aug-2021 4914.80 7765.41 85.32 12.00 328.72 3262.04
   12:27:00.259.27-Aug-2021 4914.80 7766.90 85.32 12.00 328.92 3262.04
   12:27:00.459.27-Aug-2021 4914.80 7765.07 85.32 12.00 329.12 3262.04
   12:27:00.659.27-Aug-2021 4914.80 7765.07 85.32 12.00 329.32 3262.04
   12:27:00.859.27-Aug-2021 4914.80 7765.42 85.32 12.00 329.52 3262.04
   12:27:01.059.27-Aug-2021 4914.80 7768.49 85.32 12.00 329.72 3262.04
   12:27:01.259.27-Aug-2021 4914.80 7763.86 85.32 12.00 329.92 3262.04
   12:27:01.459.27-Aug-2021 4914.80 7766.28 85.32 12.00 330.12 3262.04
   12:27:01.659.27-Aug-2021 4914.80 7766.28 85.32 12.00 330.32 3262.04
   12:27:01.859.27-Aug-2021 4914.80 7765.42 85.32 12.00 330.52 3262.04
   12:27:02.059.27-Aug-2021 4914.80 7765.38 85.32 12.00 330.72 3262.04
   12:27:02.259.27-Aug-2021 4914.80 7765.54 85.32 12.00 330.92 3262.04
   12:27:02.459.27-Aug-2021 4914.80 7767.69 85.32 12.00 331.12 3262.04
   12:27:02.660.27-Aug-2021 4914.80 7767.69 85.32 12.00 331.32 3262.04
   12:27:02.860.27-Aug-2021 4914.80 7766.90 85.32 12.00 331.52 3262.04
   12:27:03.060.27-Aug-2021 4914.80 7766.34 85.32 12.00 331.72 3262.04
   12:27:03.260.27-Aug-2021 4914.80 7766.44 85.32 12.00 331.92 3262.04
   12:27:03.460.27-Aug-2021 4914.80 7768.36 85.32 12.00 332.12 3262.04
   12:27:03.660.27-Aug-2021 4914.80 7768.36 85.32 12.00 332.32 3262.04
   12:27:03.860.27-Aug-2021 4914.80 7766.88 85.32 12.00 332.52 3262.04
   12:27:04.060.27-Aug-2021 4914.80 7766.21 85.32 12.00 332.72 3262.04
   12:27:04.260.27-Aug-2021 4914.80 7766.03 85.32 12.00 332.92 3262.04
   12:27:04.460.27-Aug-2021 4914.80 7766.14 85.32 12.00 333.12 3262.04
   12:27:04.660.27-Aug-2021 4914.80 7766.14 85.32 12.00 333.32 3262.04
   12:27:04.860.27-Aug-2021 4914.80 7766.01 85.32 12.00 333.52 3262.04
   12:27:05.060.27-Aug-2021 4914.80 7766.25 85.32 12.00 333.72 3262.04
   12:27:05.260.27-Aug-2021 4914.80 7766.28 85.32 12.00 333.92 3262.04
   12:27:05.461.27-Aug-2021 4914.80 7766.70 85.32 12.00 334.12 3262.04
   12:27:05.661.27-Aug-2021 4914.80 7766.70 85.32 12.00 334.32 3262.04
   12:27:05.861.27-Aug-2021 4914.80 7766.98 85.32 12.00 334.52 3262.04
   12:27:06.061.27-Aug-2021 4914.80 7766.98 85.32 12.00 334.72 3262.04
   12:27:06.261.27-Aug-2021 4914.80 7766.81 85.32 12.00 334.92 3262.04
   12:27:06.461.27-Aug-2021 4914.80 7766.76 85.32 12.00 335.12 3262.04
   12:27:06.661.27-Aug-2021 4914.80 7766.76 85.32 12.00 335.32 3262.04
   12:27:06.861.27-Aug-2021 4914.80 7765.27 85.32 12.00 335.52 3262.04
   12:27:07.061.27-Aug-2021 4914.80 7767.64 85.32 12.00 335.72 3262.04
   12:27:07.261.27-Aug-2021 4914.80 7766.91 85.32 12.00 335.92 3262.04
   12:27:07.461.27-Aug-2021 4914.80 7766.67 85.32 12.00 336.12 3262.04
   12:27:07.661.27-Aug-2021 4914.80 7766.67 85.32 12.00 336.32 3262.04
   12:27:07.861.27-Aug-2021 4914.80 7766.54 85.32 12.00 336.52 3262.04
   12:27:08.061.27-Aug-2021 4914.80 7766.65 85.32 12.00 336.72 3262.04
   12:27:08.262.27-Aug-2021 4914.80 7766.70 85.32 12.00 336.92 3262.04
   12:27:08.462.27-Aug-2021 4914.80 7766.74 85.32 12.00 337.12 3262.04
   12:27:08.662.27-Aug-2021 4914.80 7766.74 85.32 12.00 337.32 3262.04
   12:27:08.862.27-Aug-2021 4914.80 7767.23 85.32 12.00 337.52 3262.04
   12:27:09.062.27-Aug-2021 4914.80 7767.44 85.32 12.00 337.72 3262.04
   12:27:09.262.27-Aug-2021 4914.80 7767.39 85.32 12.00 337.92 3262.04
   12:27:09.462.27-Aug-2021 4914.80 7767.40 85.32 12.00 338.12 3262.04
   12:27:09.662.27-Aug-2021 4914.80 7767.40 85.32 12.00 338.32 3262.04
   12:27:09.862.27-Aug-2021 4914.80 7767.04 85.32 12.00 338.52 3262.04
   12:27:10.062.27-Aug-2021 4914.80 7770.11 85.32 12.00 338.72 3262.04
   12:27:10.262.27-Aug-2021 4914.80 7765.48 85.32 12.00 338.92 3262.04
