~Version Information
 VERS.                  2.0:   CWLS log ASCII Standard -VERSION 2.0
 WRAP.                   NO:   One line per depth step
~Well Information Block
#MNEM.UNIT     VALUE/NAME     DESCRIPTION
#---------     -----------    ---------------------------
 STRT.S             15:52:10 27-Aug-21: START TIME 15:52:10 27-Aug-21
 STOP.S             15:59:26 27-Aug-21: STOP TIME  15:59:26 27-Aug-21
 STEP.S                   0.00: STEP TIME
 NULL.                 -999.25: NULL VALUE
 DFWT.                        :  DIST FWL TEXT
 DFST.                        :  DIST FSL TEXT
 DMF .             Drill Floor:  DRILL MEAS FROM
 STIM.      20.00.00 17-Aug-21:  START TIME
 DATE.      19.00.00 29-Aug-21:  END TIME
 SPUD.               15-Aug-21:  SPUD DATE
 NREF.                    Grid:  NORTH REFERENCE
 HPTY.       Minimum Curvature:  HOLE POS TYPE
 DMOD.             Drill Model:  DRILL MOD DESC
 SVYD.                  Survey:  SURVEY DESC
 ILTD.               Lithology:  INTERP LTH DESC
 FTOP.          Formation Tops:  FORM TOPS DESC
 RIG .              East Azeri:  RIG NAME
 PDAT.          Mean Sea Level:  PERMANENT DATUM
 FLD .                     ACG:  FIELD NAME
 SON .        AZ-XX-0907180857:  JOB NUMBER
 CTRY.              Azerbaijan:  COUNTRY NAME
 WELL.                    D23x:  WELL NAME
 SRVC.     Turan Drilling and Engineering:  CONTRACTOR
 COMP.     BP Exploration (Caspian Sea) Ltd.:  COMPANY
 UWI .            /AZE00000214:  UNIQUE WELL IDENTIFIER
 API .            /AZE00000214:  API NUMBER
 MDS .        Operator Entered:  MAG DATA SOURCE
 BASE.              Azerbaijan:  LOGGING EQUIPMENT BASE LOCATION
 REGN.                   EESSA:  REGION
 PROV.                    Baku:  PROVINCE
 STAT.                    Baku:  STATE NAME
 MWDS.                    Baku:  MWD SHOP
 DOE .                     N/A:  DOE NUMBER
 DCON.         Sperry Drilling:  DIRECTNL CONTR
 UNIT.                     N/A:  LOGGING EQUIPMENT ID
 WTYP.                Deviated:  WELL TYPE
 CNTY.                        :  COUNTY
 LOC .                        :  LOCATION
 LMF .             Drill Floor:  LOG MEASURED FROM
 TVDS.m                  43.60:  TVDSS CORRECTN
 LATI.deg                40.02:  LATITUDE
 LONG.deg                51.45:  LONGITUDE
 WHNS.m                  -7.04:  WELL HEAD N/S
 WHEW.m                  -0.67:  WELL HEAD E/W
 UTMX.m              538762.90:  UTM X
 UTMY.m             4431871.34:  UTM Y
 DFWL.m                   0.00:  DISTANCE FWL
 DFSL.m                   0.00:  DISTANCE FSL
 SDEP.m                4127.00:  START DEPTH
 TDD .m                5084.50:  TOTAL DEPTH (DRILLER)
 VSDR.deg               140.47:  VERT SEC DIRECT
 GVFD.g                   1.00:  GRAVITY FIELD
 MFLD.nT              50362.00:  MAGNETIC FIELD
 MDIP.deg                59.48:  MAGNETIC DIP
 MDEC.deg                 6.47:  MAGNETIC DECL
 GRDC.deg                 0.31:  GRID CORRECTION
 AZTC.deg                 6.16:  AZM TOTAL CORR
 EPD .m                   0.00:  ELEVATION
 EGL .m                   0.00:  GROUND ELEVATION
 WDMS.m                 151.80:  WD ELEV
 APD .m                  43.60:  DEPTH ABOVE PD
 DEP .m                4092.57:  DEPTH
 AGAP.m                  43.60:  AIR GAP
 VSEW.m                  -0.67:  VERT SEC E/W
 VSNS.m                  -7.04:  VERT SEC N/S
 EKB .m                  43.60:  KB ELEVATION
 EDF .m                  43.60:  DF ELEVATION
 TDL .m                 957.50:  TOTAL DEPTH (LOGGER)
 VSC .                       0:  VS TO CLOSURE
 MAGU.                 1851413:  MAGUTM CHECKSUM
~Parameter Information Block
#MNEM.UNIT       Value        Description
#---------     -----------    ---------------------------
 AV  .mps                 1.50:  Ann Velocity 
 AVMX.mps                 2.00:  Max Ann Veloc 
 AZIF.deg               184.66:  Azm, Final 
 BHAT.        Rotary Steerable:  BHA Type 
 BREV.rev               300.00:  Rev Bit Total 
 BROT.°/30m              -0.50:  Build Rotating 
 BS  .in                  8.50:  Bit Size 
 BSZ .in                  8.50:  Bit Size 
 BTPL.psig              370.00:  Bit Press Loss 
 CABU.                      No:  Customer Abuse 
 CGEO.      Behruz Shahbaliyev:  Customer Geo 
 COMM.                     Ìu:  Run Comments 1 
 TCS .hr                140.08:  Time Ciculation Ended 
 CV  .mps                 3.00:  Crit Velocity 
 CVMX.mps                 3.20:  Max Crit Veloc 
 DD1 .            Musa Ahmadov:  Direct Drillr 1 
 DD2 .           Hamid Ahmadov:  Direct Drillr 2 
 DDSV.               Geo-Pilot:  DD Service 
 DEFF.%                  98.40:  % Det Eff 
 DLRX.°/30m               3.40:  Dogleg Rot Max 
 DLSO.°/30m               1.45:  Dogleg Oriented 
 DLSX.°/30m               3.40:  Dogleg Str Max 
 DRET.      18.40.00 29-Aug-21:  Drill End Time 
 DRST.      21.00.00 20-Aug-21:  Drill Start Tim 
 DTIM.hr                 69.47:  Time Drilling 
 EDEP.m                5084.50:  End Depth 
 ENG1.      Artemiy Matviyanov:  Engineer 1 
 ENG2.         Almaz Almadatov:  Engineer 2 
 ETIM.      18.40.00 29-Aug-21:  End Time 
 FLOI.gpm               500.00:  Flow In 
 FLON.gpm               400.00:  Flow In Min 
 FLOS.cptm                0.00:  Fluid Loss 
 FLOX.gpm               500.00:  Flow In Max 
 DFT .        Mineral Oil Base:  Mud Type 
 HFLO.                      No:  High Flow 
 HPRE.                      No:  High Pressure 
 HTEM.                      No:  High Temp 
 HYDO.m                   1.80:  Hydro Offset 
 IFIN.deg                25.62:  Inc, Final 
 IMAX.deg                48.69:  Inc Max 
 IMIN.deg                24.01:  Inc Min 
 IMND.m                4962.57:  Inc Min Depth 
 IMXD.m                4119.01:  Inc Max Depth 
 JARR.                      No:  Jarring 
 LETM.      18.40.00 29-Aug-21:  Log End Time 
 LOST.hr                     0:  Lost Rig Time 
 LSTM.      21.00.00 20-Aug-21:  Log Start Time 
 MDCL.ppm             41500.00:  Mud Chlorides 
 MDES.     Inversion Oil/Synthetic:  Mud Desc 
 DFD .sg                  1.56:  Mud Density 
 MDMN.sg                  1.56:  Dens Mud Min 
 MDMX.sg                  1.56:  Dens Mud Max 
 MOIL.                      70:  Run Mud Oil % 
 MOWR.                   70:30:  Run Mud OWR 
 MSND.                     0.2:  Run Mud Sand % 
 MSOL.                    23.3:  Run Mud Solids% 
 DFV .spqt               78.00:  Mud Viscosity 
 MWOD.in                  6.75:  MWD Tool OD 
 MWSI.                      No:  Serv Intrp, MWD 
 OTIM.hr                218.30:  Time Operating 
 PCON.           Look Like New:  Pad Condition 
 PMAX.psia            11015.30:  Press Op, Max 
 PV  .cP                 38.00:  Mud PV 
 RUN .                     300:  Run Number 
 ROPA.m/hr               15.00:  ROP Avg 
 ROPN.m/hr                9.00:  ROP Min 
 ROPX.m/hr               17.00:  ROP Max 
 RPMA.rpm               120.00:  RPM Surface Avg 
 RPMN.rpm                90.00:  RPM Surface Min 
 RPMX.rpm               140.00:  RPM Surface Max 
 RRUN.                     300:  Rig Run Number 
 RTIM.hr                 31.53:  Time Reaming 
 SAZI.deg               331.64:  Azm, Start 
 SDEP.m                4127.00:  Start Depth 
 SIDD.                      No:  Serv Intrp, DD 
 SINC.deg                48.43:  Inc, Start 
 SPPA.psig             5830.00:  SPP Avg 
 SPPN.psig             5600.00:  SPP Min 
 SPPX.psig             5900.00:  SPP Max 
 STIM.      21.00.00 20-Aug-21:  Start Time 
 SVCS.                 DD, MWD:  Services 
 SVER.                    9.20:  Sperry Version 
 TDAT.m                 957.50:  Tot Depth Attmp 
 TDDF.                      No:  Trip for DD 
 TDLG.m                 957.50:  Tot Depth Loggd 
 TFF .                      No:  Trip for Fail 
 TQAA.f-kp               15.00:  Torque Abs Avg 
 TQAN.f-kp               12.00:  Torque Abs Min 
 TQAX.f-kp               19.00:  Torque Abs Max 
 TRRT.°/30m              -3.40:  Turn Rotating 
 MRT .                  EWR-M5:  Maximum Recorded Temperature 
 TTMX.degC              100.00:  Max Tool Temp 
 VS01.                90639251:  Virtual Str1 SN 
 VS02.                90634715:  Virtual Str2 SN 
 VS03.                90652479:  Virtual Str3 SN 
 VS04.                90642262:  Virtual Str4 SN 
 WBMN.klb                 0.00:  WOB Min 
 WITN.           Murad Guliyev:  Customer Rep 
 WITN.          Yashar Gaziyev:  Customer Rep 2 
 WOBA.klb                 9.00:  WOB Avg 
 WOBX.klb                12.00:  WOB Max 
 YP  .lhf2               30.00:  Yield Point 
~Curve Information Block
#MNEM.UNIT                 API CODE     Curve Description
#---------               -----------    ---------------------------
 TIME.HHMMSS            00 000 000 000:  GT Time & Date
 GTDEPTH.m              00 000 000 000:  GT Depth
 GTPQH.psia             00 000 000 000:  GT HR Quartz Pressure
 GTTQ.degC              00 000 000 000:  GT Quartz Temperature
 GTTN.NONE              00 000 000 000:  GT Test Number
 GTET.sec               00 000 000 000:  GT Elapsed Test Time
 GTTVD.m                00 000 000 000:  GT True Vertical Depth
#Other Information
#
#WARRANTY: Halliburton will use its best efforts to furnish customers with 
#accurate information and interpretations that are part of, and incident to, the services 
#provided.  However, Halliburton cannot and does not warrant the accuracy 
#or correctness of such information and interpretations.  Under no circumstances should any 
#such information or interpretation be relied upon as the sole basis for any drilling, 
#completion, production, or financial decision or any procedure involving any risk to the 
#safety of any drilling venture, drilling rig or its crew or any other third party.  The 
#Customer has full responsibility for all drilling, completion and production operation.  
#Halliburton makes no representations or warranties, either expressed or 
#implied, including, but not limited to, the implied warranties of merchantability or fitness 
#for a particular purpose, with respect to the services rendered.  In no event will 
#Halliburton be liable for failure to obtain any particular results or for 
#any damages, including, but not limited to, indirect, special or consequential damages, 
#resulting from the use of any information or interpretation provided by Halliburton.
#
~A           TIME           GTDEPTH  GTPQH  GTTQ  GTTN   GTET   GTTVD  
# ...
   15:54:26.587.27-Aug-2021 4817.00 5229.80 83.62 16.00 135.82 3173.43
   15:54:26.787.27-Aug-2021 4817.00 5229.80 83.62 16.00 136.02 3173.43
   15:54:26.988.27-Aug-2021 4817.00 5229.81 83.62 16.00 136.22 3173.43
   15:54:27.188.27-Aug-2021 4817.00 5229.81 83.62 16.00 136.42 3173.43
   15:54:27.388.27-Aug-2021 4817.00 5229.81 83.62 16.00 136.62 3173.43
   15:54:27.589.27-Aug-2021 4817.00 5229.81 83.62 16.00 136.82 3173.43
   15:54:27.789.27-Aug-2021 4817.00 5229.82 83.62 16.00 137.02 3173.43
   15:54:27.989.27-Aug-2021 4817.00 5229.82 83.62 16.00 137.22 3173.43
   15:54:28.189.27-Aug-2021 4817.00 5229.82 83.62 16.00 137.42 3173.43
   15:54:28.390.27-Aug-2021 4817.00 5229.83 83.62 16.00 137.62 3173.43
   15:54:28.590.27-Aug-2021 4817.00 5229.84 83.62 16.00 137.82 3173.43
   15:54:28.790.27-Aug-2021 4817.00 5229.81 83.62 16.00 138.02 3173.43
   15:54:28.991.27-Aug-2021 4817.00 5229.82 83.62 16.00 138.22 3173.43
   15:54:29.191.27-Aug-2021 4817.00 5229.82 83.62 16.00 138.42 3173.43
   15:54:29.391.27-Aug-2021 4817.00 5229.76 83.62 16.00 138.62 3173.43
   15:54:29.592.27-Aug-2021 4817.00 5229.84 83.62 16.00 138.82 3173.43
   15:54:29.792.27-Aug-2021 4817.00 5229.79 83.62 16.00 139.02 3173.43
   15:54:29.992.27-Aug-2021 4817.00 5229.81 83.62 16.00 139.22 3173.43
   15:54:30.193.27-Aug-2021 4817.00 5229.81 83.62 16.00 139.42 3173.43
   15:54:30.393.27-Aug-2021 4817.00 5229.74 83.62 16.00 139.62 3173.43
   15:54:30.593.27-Aug-2021 4817.00 5229.77 83.62 16.00 139.82 3173.43
   15:54:30.794.27-Aug-2021 4817.00 5229.78 83.62 16.00 140.02 3173.43
   15:54:30.994.27-Aug-2021 4817.00 5229.71 83.62 16.00 140.22 3173.43
   15:54:31.194.27-Aug-2021 4817.00 5229.71 83.62 16.00 140.42 3173.43
   15:54:31.395.27-Aug-2021 4817.00 5229.82 83.62 16.00 140.62 3173.43
   15:54:31.595.27-Aug-2021 4817.00 5229.78 83.62 16.00 140.82 3173.43
   15:54:31.795.27-Aug-2021 4817.00 5230.00 83.62 16.00 141.02 3173.43
   15:54:31.996.27-Aug-2021 4817.00 5229.65 83.62 16.00 141.22 3173.43
   15:54:32.196.27-Aug-2021 4817.00 5229.65 83.62 16.00 141.42 3173.43
   15:54:32.396.27-Aug-2021 4817.00 5229.88 83.62 16.00 141.63 3173.43
   15:54:32.596.27-Aug-2021 4817.00 5229.79 83.62 16.00 141.83 3173.43
   15:54:32.797.27-Aug-2021 4817.00 5229.76 83.62 16.00 142.03 3173.43
   15:54:32.997.27-Aug-2021 4817.00 5229.78 83.62 16.00 142.23 3173.43
   15:54:33.197.27-Aug-2021 4817.00 5229.78 83.62 16.00 142.43 3173.43
   15:54:33.398.27-Aug-2021 4817.00 5229.79 83.62 16.00 142.63 3173.43
   15:54:33.598.27-Aug-2021 4817.00 5229.78 83.61 16.00 142.83 3173.43
   15:54:33.798.27-Aug-2021 4817.00 5229.78 83.61 16.00 143.03 3173.43
   15:54:33.999.27-Aug-2021 4817.00 5229.80 83.62 16.00 143.23 3173.43
   15:54:34.199.27-Aug-2021 4817.00 5229.80 83.62 16.00 143.43 3173.43
   15:54:34.399.27-Aug-2021 4817.00 5229.80 83.61 16.00 143.63 3173.43
   15:54:34.600.27-Aug-2021 4817.00 5229.80 83.61 16.00 143.83 3173.43
   15:54:34.800.27-Aug-2021 4817.00 5229.79 83.61 16.00 144.03 3173.43
   15:54:35.000.27-Aug-2021 4817.00 5229.71 83.61 16.00 144.23 3173.43
   15:54:35.201.27-Aug-2021 4817.00 5229.71 83.61 16.00 144.43 3173.43
   15:54:35.401.27-Aug-2021 4817.00 5229.78 83.61 16.00 144.63 3173.43
   15:54:35.601.27-Aug-2021 4817.00 5229.78 83.61 16.00 144.83 3173.43
   15:54:35.802.27-Aug-2021 4817.00 5229.75 83.61 16.00 145.03 3173.43
   15:54:36.002.27-Aug-2021 4817.00 5229.80 83.61 16.00 145.23 3173.43
   15:54:36.202.27-Aug-2021 4817.00 5229.80 83.61 16.00 145.43 3173.43
   15:54:36.403.27-Aug-2021 4817.00 5229.79 83.61 16.00 145.63 3173.43
   15:54:36.603.27-Aug-2021 4817.00 5229.80 83.61 16.00 145.83 3173.43
   15:54:36.803.27-Aug-2021 4817.00 5229.78 83.61 16.00 146.03 3173.43
   15:54:37.003.27-Aug-2021 4817.00 5229.79 83.61 16.00 146.23 3173.43
   15:54:37.204.27-Aug-2021 4817.00 5229.79 83.61 16.00 146.43 3173.43
   15:54:37.404.27-Aug-2021 4817.00 5229.78 83.61 16.00 146.63 3173.43
   15:54:37.604.27-Aug-2021 4817.00 5229.80 83.61 16.00 146.83 3173.43
   15:54:37.805.27-Aug-2021 4817.00 5229.80 83.61 16.00 147.03 3173.43
   15:54:38.005.27-Aug-2021 4817.00 5229.79 83.61 16.00 147.23 3173.43
   15:54:38.205.27-Aug-2021 4817.00 5229.79 83.61 16.00 147.43 3173.43
   15:54:38.406.27-Aug-2021 4817.00 5229.71 83.61 16.00 147.63 3173.43
   15:54:38.606.27-Aug-2021 4817.00 5229.99 83.61 16.00 147.83 3173.43
   15:54:38.806.27-Aug-2021 4817.00 5229.79 83.61 16.00 148.04 3173.43
   15:54:39.007.27-Aug-2021 4817.00 5229.78 83.61 16.00 148.24 3173.43
   15:54:39.207.27-Aug-2021 4817.00 5229.78 83.61 16.00 148.44 3173.43
   15:54:39.407.27-Aug-2021 4817.00 5229.75 83.61 16.00 148.64 3173.43
   15:54:39.608.27-Aug-2021 4817.00 5229.93 83.61 16.00 148.84 3173.43
   15:54:39.808.27-Aug-2021 4817.00 5229.82 83.61 16.00 149.04 3173.43
   15:54:40.008.27-Aug-2021 4817.00 5229.79 83.61 16.00 149.24 3173.43
   15:54:40.209.27-Aug-2021 4817.00 5229.79 83.61 16.00 149.44 3173.43
   15:54:40.409.27-Aug-2021 4817.00 5229.80 83.61 16.00 149.64 3173.43
   15:54:40.609.27-Aug-2021 4817.00 5229.93 83.61 16.00 149.84 3173.43
   15:54:40.810.27-Aug-2021 4817.00 5229.74 83.61 16.00 150.04 3173.43
   15:54:41.010.27-Aug-2021 4817.00 5229.81 83.61 16.00 150.24 3173.43
   15:54:41.210.27-Aug-2021 4817.00 5229.81 83.61 16.00 150.44 3173.43
   15:54:41.410.27-Aug-2021 4817.00 5229.81 83.61 16.00 150.64 3173.43
   15:54:41.611.27-Aug-2021 4817.00 5229.81 83.61 16.00 150.84 3173.43
   15:54:41.811.27-Aug-2021 4817.00 5229.78 83.61 16.00 151.04 3173.43
   15:54:42.011.27-Aug-2021 4817.00 5229.95 83.61 16.00 151.24 3173.43
   15:54:42.212.27-Aug-2021 4817.00 5229.95 83.61 16.00 151.44 3173.43
   15:54:42.412.27-Aug-2021 4817.00 5229.77 83.61 16.00 151.64 3173.43
   15:54:42.612.27-Aug-2021 4817.00 5229.78 83.61 16.00 151.84 3173.43
   15:54:42.813.27-Aug-2021 4817.00 5229.79 83.61 16.00 152.04 3173.43
   15:54:43.013.27-Aug-2021 4817.00 5229.79 83.61 16.00 152.24 3173.43
   15:54:43.213.27-Aug-2021 4817.00 5229.79 83.61 16.00 152.44 3173.43
   15:54:43.414.27-Aug-2021 4817.00 5229.79 83.61 16.00 152.64 3173.43
   15:54:43.614.27-Aug-2021 4817.00 5229.80 83.61 16.00 152.84 3173.43
   15:54:43.814.27-Aug-2021 4817.00 5229.78 83.61 16.00 153.04 3173.43
   15:54:44.015.27-Aug-2021 4817.00 5229.79 83.61 16.00 153.24 3173.43
   15:54:44.215.27-Aug-2021 4817.00 5229.79 83.61 16.00 153.44 3173.43
   15:54:44.415.27-Aug-2021 4817.00 5229.80 83.61 16.00 153.64 3173.43
   15:54:44.616.27-Aug-2021 4817.00 5229.93 83.61 16.00 153.84 3173.43
   15:54:44.816.27-Aug-2021 4817.00 5229.73 83.61 16.00 154.04 3173.43
   15:54:45.016.27-Aug-2021 4817.00 5229.78 83.61 16.00 154.25 3173.43
   15:54:45.217.27-Aug-2021 4817.00 5229.78 83.61 16.00 154.45 3173.43
   15:54:45.417.27-Aug-2021 4817.00 5229.77 83.61 16.00 154.65 3173.43
   15:54:45.617.27-Aug-2021 4817.00 5229.80 83.61 16.00 154.85 3173.43
   15:54:45.817.27-Aug-2021 4817.00 5229.76 83.61 16.00 155.05 3173.43
   15:54:46.018.27-Aug-2021 4817.00 5229.80 83.61 16.00 155.25 3173.43
   15:54:46.218.27-Aug-2021 4817.00 5229.80 83.61 16.00 155.45 3173.43
   15:54:46.418.27-Aug-2021 4817.00 5229.79 83.61 16.00 155.65 3173.43
   15:54:46.619.27-Aug-2021 4817.00 5229.78 83.61 16.00 155.85 3173.43
   15:54:46.819.27-Aug-2021 4817.00 5229.80 83.61 16.00 156.05 3173.43
   15:54:47.019.27-Aug-2021 4817.00 5229.78 83.61 16.00 156.25 3173.43
   15:54:47.220.27-Aug-2021 4817.00 5229.78 83.61 16.00 156.45 3173.43
   15:54:47.420.27-Aug-2021 4817.00 5229.79 83.61 16.00 156.65 3173.43
   15:54:47.620.27-Aug-2021 4817.00 5229.79 83.61 16.00 156.85 3173.43
   15:54:47.821.27-Aug-2021 4817.00 5229.78 83.61 16.00 157.05 3173.43
   15:54:48.021.27-Aug-2021 4817.00 5229.93 83.61 16.00 157.25 3173.43
   15:54:48.221.27-Aug-2021 4817.00 5229.93 83.61 16.00 157.45 3173.43
   15:54:48.422.27-Aug-2021 4817.00 5229.76 83.61 16.00 157.65 3173.43
   15:54:48.622.27-Aug-2021 4817.00 5229.76 83.61 16.00 157.85 3173.43
   15:54:48.822.27-Aug-2021 4817.00 5229.77 83.61 16.00 158.05 3173.43
   15:54:49.023.27-Aug-2021 4817.00 5229.90 83.61 16.00 158.25 3173.43
