~Version Information
 VERS.                  2.0:   CWLS log ASCII Standard -VERSION 2.0
 WRAP.                   NO:   One line per depth step
~Well Information Block
#MNEM.UNIT     VALUE/NAME     DESCRIPTION
#---------     -----------    ---------------------------
 STRT.S             22:57:07 27-Aug-21: START TIME 22:57:07 27-Aug-21
 STOP.S             23:04:14 27-Aug-21: STOP TIME  23:04:14 27-Aug-21
 STEP.S                   0.00: STEP TIME
 NULL.                 -999.25: NULL VALUE
 DFWT.                        :  DIST FWL TEXT
 DFST.                        :  DIST FSL TEXT
 DMF .             Drill Floor:  DRILL MEAS FROM
 STIM.      20.00.00 17-Aug-21:  START TIME
 DATE.      19.00.00 29-Aug-21:  END TIME
 SPUD.               15-Aug-21:  SPUD DATE
 NREF.                    Grid:  NORTH REFERENCE
 HPTY.       Minimum Curvature:  HOLE POS TYPE
 DMOD.             Drill Model:  DRILL MOD DESC
 SVYD.                  Survey:  SURVEY DESC
 ILTD.               Lithology:  INTERP LTH DESC
 FTOP.          Formation Tops:  FORM TOPS DESC
 RIG .              East Azeri:  RIG NAME
 PDAT.          Mean Sea Level:  PERMANENT DATUM
 FLD .                     ACG:  FIELD NAME
 SON .        AZ-XX-0907180857:  JOB NUMBER
 CTRY.              Azerbaijan:  COUNTRY NAME
 WELL.                    D23x:  WELL NAME
 SRVC.     Turan Drilling and Engineering:  CONTRACTOR
 COMP.     BP Exploration (Caspian Sea) Ltd.:  COMPANY
 UWI .            /AZE00000214:  UNIQUE WELL IDENTIFIER
 API .            /AZE00000214:  API NUMBER
 MDS .        Operator Entered:  MAG DATA SOURCE
 BASE.              Azerbaijan:  LOGGING EQUIPMENT BASE LOCATION
 REGN.                   EESSA:  REGION
 PROV.                    Baku:  PROVINCE
 STAT.                    Baku:  STATE NAME
 MWDS.                    Baku:  MWD SHOP
 DOE .                     N/A:  DOE NUMBER
 DCON.         Sperry Drilling:  DIRECTNL CONTR
 UNIT.                     N/A:  LOGGING EQUIPMENT ID
 WTYP.                Deviated:  WELL TYPE
 CNTY.                        :  COUNTY
 LOC .                        :  LOCATION
 LMF .             Drill Floor:  LOG MEASURED FROM
 TVDS.m                  43.60:  TVDSS CORRECTN
 LATI.deg                40.02:  LATITUDE
 LONG.deg                51.45:  LONGITUDE
 WHNS.m                  -7.04:  WELL HEAD N/S
 WHEW.m                  -0.67:  WELL HEAD E/W
 UTMX.m              538762.90:  UTM X
 UTMY.m             4431871.34:  UTM Y
 DFWL.m                   0.00:  DISTANCE FWL
 DFSL.m                   0.00:  DISTANCE FSL
 SDEP.m                4127.00:  START DEPTH
 TDD .m                5084.50:  TOTAL DEPTH (DRILLER)
 VSDR.deg               140.47:  VERT SEC DIRECT
 GVFD.g                   1.00:  GRAVITY FIELD
 MFLD.nT              50362.00:  MAGNETIC FIELD
 MDIP.deg                59.48:  MAGNETIC DIP
 MDEC.deg                 6.47:  MAGNETIC DECL
 GRDC.deg                 0.31:  GRID CORRECTION
 AZTC.deg                 6.16:  AZM TOTAL CORR
 EPD .m                   0.00:  ELEVATION
 EGL .m                   0.00:  GROUND ELEVATION
 WDMS.m                 151.80:  WD ELEV
 APD .m                  43.60:  DEPTH ABOVE PD
 DEP .m                4092.57:  DEPTH
 AGAP.m                  43.60:  AIR GAP
 VSEW.m                  -0.67:  VERT SEC E/W
 VSNS.m                  -7.04:  VERT SEC N/S
 EKB .m                  43.60:  KB ELEVATION
 EDF .m                  43.60:  DF ELEVATION
 TDL .m                 957.50:  TOTAL DEPTH (LOGGER)
 VSC .                       0:  VS TO CLOSURE
 MAGU.                 1851413:  MAGUTM CHECKSUM
~Parameter Information Block
#MNEM.UNIT       Value        Description
#---------     -----------    ---------------------------
 AV  .mps                 1.50:  Ann Velocity 
 AVMX.mps                 2.00:  Max Ann Veloc 
 AZIF.deg               184.66:  Azm, Final 
 BHAT.        Rotary Steerable:  BHA Type 
 BREV.rev               300.00:  Rev Bit Total 
 BROT.°/30m              -0.50:  Build Rotating 
 BS  .in                  8.50:  Bit Size 
 BSZ .in                  8.50:  Bit Size 
 BTPL.psig              370.00:  Bit Press Loss 
 CABU.                      No:  Customer Abuse 
 CGEO.      Behruz Shahbaliyev:  Customer Geo 
 TCS .hr                140.08:  Time Ciculation Ended 
 CV  .mps                 3.00:  Crit Velocity 
 CVMX.mps                 3.20:  Max Crit Veloc 
 DD1 .            Musa Ahmadov:  Direct Drillr 1 
 DD2 .           Hamid Ahmadov:  Direct Drillr 2 
 DDSV.               Geo-Pilot:  DD Service 
 DEFF.%                  98.40:  % Det Eff 
 DLRX.°/30m               3.40:  Dogleg Rot Max 
 DLSO.°/30m               1.45:  Dogleg Oriented 
 DLSX.°/30m               3.40:  Dogleg Str Max 
 DRET.      18.40.00 29-Aug-21:  Drill End Time 
 DRST.      21.00.00 20-Aug-21:  Drill Start Tim 
 DTIM.hr                 69.47:  Time Drilling 
 EDEP.m                5084.50:  End Depth 
 ENG1.      Artemiy Matviyanov:  Engineer 1 
 ENG2.         Almaz Almadatov:  Engineer 2 
 ETIM.      18.40.00 29-Aug-21:  End Time 
 FLOI.gpm               500.00:  Flow In 
 FLON.gpm               400.00:  Flow In Min 
 FLOS.cptm                0.00:  Fluid Loss 
 FLOX.gpm               500.00:  Flow In Max 
 DFT .        Mineral Oil Base:  Mud Type 
 HFLO.                      No:  High Flow 
 HPRE.                      No:  High Pressure 
 HTEM.                      No:  High Temp 
 HYDO.m                   1.80:  Hydro Offset 
 IFIN.deg                25.62:  Inc, Final 
 IMAX.deg                48.69:  Inc Max 
 IMIN.deg                24.01:  Inc Min 
 IMND.m                4962.57:  Inc Min Depth 
 IMXD.m                4119.01:  Inc Max Depth 
 JARR.                      No:  Jarring 
 LETM.      18.40.00 29-Aug-21:  Log End Time 
 LOST.hr                     0:  Lost Rig Time 
 LSTM.      21.00.00 20-Aug-21:  Log Start Time 
 MDCL.ppm             41500.00:  Mud Chlorides 
 MDES.     Inversion Oil/Synthetic:  Mud Desc 
 DFD .sg                  1.56:  Mud Density 
 MDMN.sg                  1.56:  Dens Mud Min 
 MDMX.sg                  1.56:  Dens Mud Max 
 MOIL.                      70:  Run Mud Oil % 
 MOWR.                   70:30:  Run Mud OWR 
 MSND.                     0.2:  Run Mud Sand % 
 MSOL.                    23.3:  Run Mud Solids% 
 DFV .spqt               78.00:  Mud Viscosity 
 MWOD.in                  6.75:  MWD Tool OD 
 MWSI.                      No:  Serv Intrp, MWD 
 OTIM.hr                218.30:  Time Operating 
 PCON.           Look Like New:  Pad Condition 
 PMAX.psia            11015.30:  Press Op, Max 
 PV  .cP                 38.00:  Mud PV 
 RUN .                     300:  Run Number 
 ROPA.m/hr               15.00:  ROP Avg 
 ROPN.m/hr                9.00:  ROP Min 
 ROPX.m/hr               17.00:  ROP Max 
 RPMA.rpm               120.00:  RPM Surface Avg 
 RPMN.rpm                90.00:  RPM Surface Min 
 RPMX.rpm               140.00:  RPM Surface Max 
 RRUN.                     300:  Rig Run Number 
 RTIM.hr                 31.53:  Time Reaming 
 SAZI.deg               331.64:  Azm, Start 
 SDEP.m                4127.00:  Start Depth 
 SIDD.                      No:  Serv Intrp, DD 
 SINC.deg                48.43:  Inc, Start 
 SPPA.psig             5830.00:  SPP Avg 
 SPPN.psig             5600.00:  SPP Min 
 SPPX.psig             5900.00:  SPP Max 
 STIM.      21.00.00 20-Aug-21:  Start Time 
 SVCS.                 DD, MWD:  Services 
 SVER.                    9.20:  Sperry Version 
 TDAT.m                 957.50:  Tot Depth Attmp 
 TDDF.                      No:  Trip for DD 
 TDLG.m                 957.50:  Tot Depth Loggd 
 TFF .                      No:  Trip for Fail 
 TQAA.f-kp               15.00:  Torque Abs Avg 
 TQAN.f-kp               12.00:  Torque Abs Min 
 TQAX.f-kp               19.00:  Torque Abs Max 
 TRRT.°/30m              -3.40:  Turn Rotating 
 MRT .                  EWR-M5:  Maximum Recorded Temperature 
 TTMX.degC              100.00:  Max Tool Temp 
 VS01.                90639251:  Virtual Str1 SN 
 VS02.                90634715:  Virtual Str2 SN 
 VS03.                90652479:  Virtual Str3 SN 
 VS04.                90642262:  Virtual Str4 SN 
 WBMN.klb                 0.00:  WOB Min 
 WITN.           Murad Guliyev:  Customer Rep 
 WITN.          Yashar Gaziyev:  Customer Rep 2 
 WOBA.klb                 9.00:  WOB Avg 
 WOBX.klb                12.00:  WOB Max 
 YP  .lhf2               30.00:  Yield Point 
~Curve Information Block
#MNEM.UNIT                 API CODE     Curve Description
#---------               -----------    ---------------------------
 TIME.HHMMSS            00 000 000 000:  GT Time & Date
 GTDEPTH.m              00 000 000 000:  GT Depth
 GTPQH.psia             00 000 000 000:  GT HR Quartz Pressure
 GTTQ.degC              00 000 000 000:  GT Quartz Temperature
 GTTN.NONE              00 000 000 000:  GT Test Number
 GTET.sec               00 000 000 000:  GT Elapsed Test Time
 GTTVD.m                00 000 000 000:  GT True Vertical Depth
#Other Information
#
#WARRANTY: Halliburton will use its best efforts to furnish customers with 
#accurate information and interpretations that are part of, and incident to, the services 
#provided.  However, Halliburton cannot and does not warrant the accuracy 
#or correctness of such information and interpretations.  Under no circumstances should any 
#such information or interpretation be relied upon as the sole basis for any drilling, 
#completion, production, or financial decision or any procedure involving any risk to the 
#safety of any drilling venture, drilling rig or its crew or any other third party.  The 
#Customer has full responsibility for all drilling, completion and production operation.  
#Halliburton makes no representations or warranties, either expressed or 
#implied, including, but not limited to, the implied warranties of merchantability or fitness 
#for a particular purpose, with respect to the services rendered.  In no event will 
#Halliburton be liable for failure to obtain any particular results or for 
#any damages, including, but not limited to, indirect, special or consequential damages, 
#resulting from the use of any information or interpretation provided by Halliburton.
#
~A           TIME           GTDEPTH  GTPQH  GTTQ  GTTN   GTET   GTTVD  
   22:57:07.823.27-Aug-2021 4636.60 7156.63 82.35 25.00   0.00 3010.11
   22:57:08.023.27-Aug-2021 4636.60 7156.63 82.35 25.00   0.20 3010.11
   22:57:08.223.27-Aug-2021 4636.60 7158.60 82.35 25.00   0.40 3010.11
   22:57:08.423.27-Aug-2021 4636.60 7159.39 82.35 25.00   0.60 3010.11
   22:57:08.623.27-Aug-2021 4636.60 7159.30 82.35 25.00   0.80 3010.11
   22:57:08.823.27-Aug-2021 4636.60 7159.07 82.35 25.00   1.00 3010.11
   22:57:09.023.27-Aug-2021 4636.60 7159.07 82.35 25.00   1.20 3010.11
   22:57:09.223.27-Aug-2021 4636.60 7159.12 82.35 25.00   1.40 3010.11
   22:57:09.423.27-Aug-2021 4636.60 7159.15 82.35 25.00   1.60 3010.11
   22:57:09.623.27-Aug-2021 4636.60 7159.17 82.35 25.00   1.80 3010.11
   22:57:09.823.27-Aug-2021 4636.60 7159.06 82.35 25.00   2.00 3010.11
   22:57:10.023.27-Aug-2021 4636.60 7159.06 82.35 25.00   2.20 3010.11
   22:57:10.223.27-Aug-2021 4636.60 7159.06 82.35 25.00   2.40 3010.11
   22:57:10.423.27-Aug-2021 4636.60 7159.13 82.35 25.00   2.60 3010.11
   22:57:10.623.27-Aug-2021 4636.60 7159.33 82.35 25.00   2.80 3010.11
   22:57:10.823.27-Aug-2021 4636.60 7159.56 82.35 25.00   3.00 3010.11
   22:57:11.023.27-Aug-2021 4636.60 7159.56 82.35 25.00   3.20 3010.11
   22:57:11.223.27-Aug-2021 4636.60 7158.13 82.35 25.00   3.40 3010.11
   22:57:11.423.27-Aug-2021 4636.60 7159.99 82.35 25.00   3.60 3010.11
   22:57:11.623.27-Aug-2021 4636.60 7160.02 82.35 25.00   3.80 3010.11
   22:57:11.823.27-Aug-2021 4636.60 7160.30 82.35 25.00   4.00 3010.11
   22:57:12.023.27-Aug-2021 4636.60 7160.30 82.35 25.00   4.20 3010.11
   22:57:12.223.27-Aug-2021 4636.60 7159.06 82.35 25.00   4.40 3010.11
   22:57:12.423.27-Aug-2021 4636.60 7161.38 82.35 25.00   4.60 3010.11
   22:57:12.623.27-Aug-2021 4636.60 7161.51 82.35 25.00   4.80 3010.11
   22:57:12.823.27-Aug-2021 4636.60 7162.03 82.35 25.00   5.00 3010.11
   22:57:13.023.27-Aug-2021 4636.60 7162.03 82.35 25.00   5.20 3010.11
   22:57:13.223.27-Aug-2021 4636.60 7164.34 82.35 25.00   5.40 3010.11
   22:57:13.423.27-Aug-2021 4636.60 7164.11 82.35 25.00   5.60 3010.11
   22:57:13.623.27-Aug-2021 4636.60 7163.01 82.35 25.00   5.80 3010.11
   22:57:13.823.27-Aug-2021 4636.60 7163.08 82.35 25.00   6.00 3010.11
   22:57:14.023.27-Aug-2021 4636.60 7163.08 82.35 25.00   6.20 3010.11
   22:57:14.223.27-Aug-2021 4636.60 7163.08 82.35 25.00   6.40 3010.11
   22:57:14.423.27-Aug-2021 4636.60 7164.17 82.35 25.00   6.60 3010.11
   22:57:14.623.27-Aug-2021 4636.60 7169.42 82.35 25.00   6.80 3010.11
   22:57:14.823.27-Aug-2021 4636.60 7162.80 82.35 25.00   7.00 3010.11
   22:57:15.023.27-Aug-2021 4636.60 7162.80 82.35 25.00   7.20 3010.11
   22:57:15.223.27-Aug-2021 4636.60 7164.89 82.35 25.00   7.40 3010.11
   22:57:15.424.27-Aug-2021 4636.60 7164.89 82.35 25.00   7.60 3010.11
   22:57:15.624.27-Aug-2021 4636.60 7169.87 82.35 25.00   7.80 3010.11
   22:57:15.824.27-Aug-2021 4636.60 7164.97 82.35 25.00   8.00 3010.11
   22:57:16.024.27-Aug-2021 4636.60 7164.97 82.35 25.00   8.20 3010.11
   22:57:16.224.27-Aug-2021 4636.60 7166.60 82.35 25.00   8.40 3010.11
   22:57:16.424.27-Aug-2021 4636.60 7166.77 82.35 25.00   8.60 3010.11
   22:57:16.624.27-Aug-2021 4636.60 7167.95 82.35 25.00   8.80 3010.11
   22:57:16.824.27-Aug-2021 4636.60 7170.33 82.35 25.00   9.00 3010.11
   22:57:17.024.27-Aug-2021 4636.60 7170.33 82.35 25.00   9.20 3010.11
   22:57:17.224.27-Aug-2021 4636.60 7167.54 82.35 25.00   9.40 3010.11
   22:57:17.424.27-Aug-2021 4636.60 7167.82 82.35 25.00   9.60 3010.11
   22:57:17.624.27-Aug-2021 4636.60 7167.26 82.35 25.00   9.80 3010.11
   22:57:17.824.27-Aug-2021 4636.60 7173.03 82.35 25.00  10.00 3010.11
   22:57:18.024.27-Aug-2021 4636.60 7173.03 82.35 25.00  10.20 3010.11
   22:57:18.224.27-Aug-2021 4636.60 7168.05 82.35 25.00  10.40 3010.11
   22:57:18.424.27-Aug-2021 4636.60 7167.80 82.35 25.00  10.60 3010.11
   22:57:18.624.27-Aug-2021 4636.60 7168.52 82.35 25.00  10.80 3010.11
   22:57:18.824.27-Aug-2021 4636.60 7168.46 82.35 25.00  11.00 3010.11
   22:57:19.024.27-Aug-2021 4636.60 7168.46 82.35 25.00  11.20 3010.11
   22:57:19.224.27-Aug-2021 4636.60 7169.06 82.35 25.00  11.40 3010.11
   22:57:19.424.27-Aug-2021 4636.60 7169.10 82.35 25.00  11.60 3010.11
   22:57:19.624.27-Aug-2021 4636.60 7169.32 82.35 25.00  11.80 3010.11
   22:57:19.824.27-Aug-2021 4636.60 7169.50 82.35 25.00  12.00 3010.11
   22:57:20.024.27-Aug-2021 4636.60 7169.50 82.35 25.00  12.20 3010.11
   22:57:20.224.27-Aug-2021 4636.60 7169.80 82.35 25.00  12.40 3010.11
   22:57:20.424.27-Aug-2021 4636.60 7170.01 82.35 25.00  12.60 3010.11
   22:57:20.624.27-Aug-2021 4636.60 7170.22 82.35 25.00  12.80 3010.11
   22:57:20.824.27-Aug-2021 4636.60 7170.35 82.35 25.00  13.00 3010.11
   22:57:21.024.27-Aug-2021 4636.60 7170.35 82.35 25.00  13.20 3010.11
   22:57:21.224.27-Aug-2021 4636.60 7170.71 82.35 25.00  13.40 3010.11
   22:57:21.424.27-Aug-2021 4636.60 7171.11 82.35 25.00  13.60 3010.11
   22:57:21.624.27-Aug-2021 4636.60 7174.50 82.35 25.00  13.80 3010.11
   22:57:21.824.27-Aug-2021 4636.60 7171.48 82.35 25.00  14.00 3010.11
   22:57:22.024.27-Aug-2021 4636.60 7171.48 82.35 25.00  14.20 3010.11
   22:57:22.224.27-Aug-2021 4636.60 7172.22 82.34 25.00  14.40 3010.11
   22:57:22.424.27-Aug-2021 4636.60 7171.93 82.34 25.00  14.60 3010.11
   22:57:22.624.27-Aug-2021 4636.60 7173.40 82.34 25.00  14.80 3010.11
   22:57:22.824.27-Aug-2021 4636.60 7173.46 82.34 25.00  15.00 3010.11
   22:57:23.024.27-Aug-2021 4636.60 7173.46 82.34 25.00  15.20 3010.11
   22:57:23.224.27-Aug-2021 4636.60 7173.70 82.34 25.00  15.40 3010.11
   22:57:23.424.27-Aug-2021 4636.60 7173.89 82.34 25.00  15.60 3010.11
   22:57:23.624.27-Aug-2021 4636.60 7174.00 82.34 25.00  15.80 3010.11
   22:57:23.824.27-Aug-2021 4636.60 7174.10 82.34 25.00  16.00 3010.11
   22:57:24.024.27-Aug-2021 4636.60 7174.10 82.34 25.00  16.20 3010.11
   22:57:24.224.27-Aug-2021 4636.60 7174.46 82.34 25.00  16.40 3010.11
   22:57:24.424.27-Aug-2021 4636.60 7174.64 82.34 25.00  16.60 3010.11
   22:57:24.624.27-Aug-2021 4636.60 7174.81 82.34 25.00  16.80 3010.11
   22:57:24.824.27-Aug-2021 4636.60 7178.10 82.34 25.00  17.00 3010.11
   22:57:25.024.27-Aug-2021 4636.60 7178.10 82.34 25.00  17.20 3010.11
   22:57:25.225.27-Aug-2021 4636.60 7175.34 82.34 25.00  17.40 3010.11
   22:57:25.425.27-Aug-2021 4636.60 7175.56 82.34 25.00  17.60 3010.11
   22:57:25.625.27-Aug-2021 4636.60 7174.98 82.34 25.00  17.80 3010.11
   22:57:25.825.27-Aug-2021 4636.60 7176.30 82.34 25.00  18.00 3010.11
   22:57:26.025.27-Aug-2021 4636.60 7176.30 82.34 25.00  18.20 3010.11
   22:57:26.225.27-Aug-2021 4636.60 7176.05 82.34 25.00  18.40 3010.11
   22:57:26.425.27-Aug-2021 4636.60 7176.37 82.34 25.00  18.60 3010.11
   22:57:26.625.27-Aug-2021 4636.60 7176.63 82.34 25.00  18.80 3010.11
   22:57:26.825.27-Aug-2021 4636.60 7176.08 82.34 25.00  19.00 3010.11
   22:57:27.025.27-Aug-2021 4636.60 7176.08 82.34 25.00  19.20 3010.11
   22:57:27.225.27-Aug-2021 4636.60 7178.52 82.34 25.00  19.40 3010.11
   22:57:27.425.27-Aug-2021 4636.60 7177.22 82.34 25.00  19.60 3010.11
   22:57:27.625.27-Aug-2021 4636.60 7177.22 82.34 25.00  19.80 3010.11
   22:57:27.825.27-Aug-2021 4636.60 7177.78 82.34 25.00  20.00 3010.11
   22:57:28.025.27-Aug-2021 4636.60 7177.78 82.34 25.00  20.20 3010.11
   22:57:28.225.27-Aug-2021 4636.60 7182.69 82.34 25.00  20.40 3010.11
   22:57:28.425.27-Aug-2021 4636.60 7176.70 82.34 25.00  20.60 3010.11
   22:57:28.625.27-Aug-2021 4636.60 7178.40 82.34 25.00  20.80 3010.11
   22:57:28.825.27-Aug-2021 4636.60 7178.56 82.34 25.00  21.00 3010.11
   22:57:29.025.27-Aug-2021 4636.60 7178.56 82.34 25.00  21.20 3010.11
   22:57:29.225.27-Aug-2021 4636.60 7179.51 82.34 25.00  21.40 3010.11
   22:57:29.425.27-Aug-2021 4636.60 7179.25 82.34 25.00  21.60 3010.11
   22:57:29.625.27-Aug-2021 4636.60 7179.83 82.34 25.00  21.80 3010.11
   22:57:29.825.27-Aug-2021 4636.60 7179.16 82.34 25.00  22.00 3010.11
   22:57:30.025.27-Aug-2021 4636.60 7179.16 82.34 25.00  22.20 3010.11
   22:57:30.225.27-Aug-2021 4636.60 7178.52 82.34 25.00  22.40 3010.11
