~Version Information
 VERS.                  2.0:   CWLS log ASCII Standard -VERSION 2.0
 WRAP.                   NO:   One line per depth step
~Well Information Block
#MNEM.UNIT     VALUE/NAME     DESCRIPTION
#---------     -----------    ---------------------------
 STRT.S             16:56:36 27-Aug-21: START TIME 16:56:36 27-Aug-21
 STOP.S             17:03:52 27-Aug-21: STOP TIME  17:03:52 27-Aug-21
 STEP.S                   0.00: STEP TIME
 NULL.                 -999.25: NULL VALUE
 DFWT.                        :  DIST FWL TEXT
 DFST.                        :  DIST FSL TEXT
 DMF .             Drill Floor:  DRILL MEAS FROM
 STIM.      20.00.00 17-Aug-21:  START TIME
 DATE.      19.00.00 29-Aug-21:  END TIME
 SPUD.               15-Aug-21:  SPUD DATE
 NREF.                    Grid:  NORTH REFERENCE
 HPTY.       Minimum Curvature:  HOLE POS TYPE
 DMOD.             Drill Model:  DRILL MOD DESC
 SVYD.                  Survey:  SURVEY DESC
 ILTD.               Lithology:  INTERP LTH DESC
 FTOP.          Formation Tops:  FORM TOPS DESC
 RIG .              East Azeri:  RIG NAME
 PDAT.          Mean Sea Level:  PERMANENT DATUM
 FLD .                     ACG:  FIELD NAME
 SON .        AZ-XX-0907180857:  JOB NUMBER
 CTRY.              Azerbaijan:  COUNTRY NAME
 WELL.                    D23x:  WELL NAME
 SRVC.     Turan Drilling and Engineering:  CONTRACTOR
 COMP.     BP Exploration (Caspian Sea) Ltd.:  COMPANY
 UWI .            /AZE00000214:  UNIQUE WELL IDENTIFIER
 API .            /AZE00000214:  API NUMBER
 MDS .        Operator Entered:  MAG DATA SOURCE
 BASE.              Azerbaijan:  LOGGING EQUIPMENT BASE LOCATION
 REGN.                   EESSA:  REGION
 PROV.                    Baku:  PROVINCE
 STAT.                    Baku:  STATE NAME
 MWDS.                    Baku:  MWD SHOP
 DOE .                     N/A:  DOE NUMBER
 DCON.         Sperry Drilling:  DIRECTNL CONTR
 UNIT.                     N/A:  LOGGING EQUIPMENT ID
 WTYP.                Deviated:  WELL TYPE
 CNTY.                        :  COUNTY
 LOC .                        :  LOCATION
 LMF .             Drill Floor:  LOG MEASURED FROM
 TVDS.m                  43.60:  TVDSS CORRECTN
 LATI.deg                40.02:  LATITUDE
 LONG.deg                51.45:  LONGITUDE
 WHNS.m                  -7.04:  WELL HEAD N/S
 WHEW.m                  -0.67:  WELL HEAD E/W
 UTMX.m              538762.90:  UTM X
 UTMY.m             4431871.34:  UTM Y
 DFWL.m                   0.00:  DISTANCE FWL
 DFSL.m                   0.00:  DISTANCE FSL
 SDEP.m                4127.00:  START DEPTH
 TDD .m                5084.50:  TOTAL DEPTH (DRILLER)
 VSDR.deg               140.47:  VERT SEC DIRECT
 GVFD.g                   1.00:  GRAVITY FIELD
 MFLD.nT              50362.00:  MAGNETIC FIELD
 MDIP.deg                59.48:  MAGNETIC DIP
 MDEC.deg                 6.47:  MAGNETIC DECL
 GRDC.deg                 0.31:  GRID CORRECTION
 AZTC.deg                 6.16:  AZM TOTAL CORR
 EPD .m                   0.00:  ELEVATION
 EGL .m                   0.00:  GROUND ELEVATION
 WDMS.m                 151.80:  WD ELEV
 APD .m                  43.60:  DEPTH ABOVE PD
 DEP .m                4092.57:  DEPTH
 AGAP.m                  43.60:  AIR GAP
 VSEW.m                  -0.67:  VERT SEC E/W
 VSNS.m                  -7.04:  VERT SEC N/S
 EKB .m                  43.60:  KB ELEVATION
 EDF .m                  43.60:  DF ELEVATION
 TDL .m                 957.50:  TOTAL DEPTH (LOGGER)
 VSC .                       0:  VS TO CLOSURE
 MAGU.                 1851413:  MAGUTM CHECKSUM
~Parameter Information Block
#MNEM.UNIT       Value        Description
#---------     -----------    ---------------------------
 AV  .mps                 1.50:  Ann Velocity 
 AVMX.mps                 2.00:  Max Ann Veloc 
 AZIF.deg               184.66:  Azm, Final 
 BHAT.        Rotary Steerable:  BHA Type 
 BREV.rev               300.00:  Rev Bit Total 
 BROT.°/30m              -0.50:  Build Rotating 
 BS  .in                  8.50:  Bit Size 
 BSZ .in                  8.50:  Bit Size 
 BTPL.psig              370.00:  Bit Press Loss 
 CABU.                      No:  Customer Abuse 
 CGEO.      Behruz Shahbaliyev:  Customer Geo 
 COMM.                     T
k:  Run Comments 1 
 TCS .hr                140.08:  Time Ciculation Ended 
 CV  .mps                 3.00:  Crit Velocity 
 CVMX.mps                 3.20:  Max Crit Veloc 
 DD1 .            Musa Ahmadov:  Direct Drillr 1 
 DD2 .           Hamid Ahmadov:  Direct Drillr 2 
 DDSV.               Geo-Pilot:  DD Service 
 DEFF.%                  98.40:  % Det Eff 
 DLRX.°/30m               3.40:  Dogleg Rot Max 
 DLSO.°/30m               1.45:  Dogleg Oriented 
 DLSX.°/30m               3.40:  Dogleg Str Max 
 DRET.      18.40.00 29-Aug-21:  Drill End Time 
 DRST.      21.00.00 20-Aug-21:  Drill Start Tim 
 DTIM.hr                 69.47:  Time Drilling 
 EDEP.m                5084.50:  End Depth 
 ENG1.      Artemiy Matviyanov:  Engineer 1 
 ENG2.         Almaz Almadatov:  Engineer 2 
 ETIM.      18.40.00 29-Aug-21:  End Time 
 FLOI.gpm               500.00:  Flow In 
 FLON.gpm               400.00:  Flow In Min 
 FLOS.cptm                0.00:  Fluid Loss 
 FLOX.gpm               500.00:  Flow In Max 
 DFT .        Mineral Oil Base:  Mud Type 
 HFLO.                      No:  High Flow 
 HPRE.                      No:  High Pressure 
 HTEM.                      No:  High Temp 
 HYDO.m                   1.80:  Hydro Offset 
 IFIN.deg                25.62:  Inc, Final 
 IMAX.deg                48.69:  Inc Max 
 IMIN.deg                24.01:  Inc Min 
 IMND.m                4962.57:  Inc Min Depth 
 IMXD.m                4119.01:  Inc Max Depth 
 JARR.                      No:  Jarring 
 LETM.      18.40.00 29-Aug-21:  Log End Time 
 LOST.hr                     0:  Lost Rig Time 
 LSTM.      21.00.00 20-Aug-21:  Log Start Time 
 MDCL.ppm             41500.00:  Mud Chlorides 
 MDES.     Inversion Oil/Synthetic:  Mud Desc 
 DFD .sg                  1.56:  Mud Density 
 MDMN.sg                  1.56:  Dens Mud Min 
 MDMX.sg                  1.56:  Dens Mud Max 
 MOIL.                      70:  Run Mud Oil % 
 MOWR.                   70:30:  Run Mud OWR 
 MSND.                     0.2:  Run Mud Sand % 
 MSOL.                    23.3:  Run Mud Solids% 
 DFV .spqt               78.00:  Mud Viscosity 
 MWOD.in                  6.75:  MWD Tool OD 
 MWSI.                      No:  Serv Intrp, MWD 
 OTIM.hr                218.30:  Time Operating 
 PCON.           Look Like New:  Pad Condition 
 PMAX.psia            11015.30:  Press Op, Max 
 PV  .cP                 38.00:  Mud PV 
 RUN .                     300:  Run Number 
 ROPA.m/hr               15.00:  ROP Avg 
 ROPN.m/hr                9.00:  ROP Min 
 ROPX.m/hr               17.00:  ROP Max 
 RPMA.rpm               120.00:  RPM Surface Avg 
 RPMN.rpm                90.00:  RPM Surface Min 
 RPMX.rpm               140.00:  RPM Surface Max 
 RRUN.                     300:  Rig Run Number 
 RTIM.hr                 31.53:  Time Reaming 
 SAZI.deg               331.64:  Azm, Start 
 SDEP.m                4127.00:  Start Depth 
 SIDD.                      No:  Serv Intrp, DD 
 SINC.deg                48.43:  Inc, Start 
 SPPA.psig             5830.00:  SPP Avg 
 SPPN.psig             5600.00:  SPP Min 
 SPPX.psig             5900.00:  SPP Max 
 STIM.      21.00.00 20-Aug-21:  Start Time 
 SVCS.                 DD, MWD:  Services 
 SVER.                    9.20:  Sperry Version 
 TDAT.m                 957.50:  Tot Depth Attmp 
 TDDF.                      No:  Trip for DD 
 TDLG.m                 957.50:  Tot Depth Loggd 
 TFF .                      No:  Trip for Fail 
 TQAA.f-kp               15.00:  Torque Abs Avg 
 TQAN.f-kp               12.00:  Torque Abs Min 
 TQAX.f-kp               19.00:  Torque Abs Max 
 TRRT.°/30m              -3.40:  Turn Rotating 
 MRT .                  EWR-M5:  Maximum Recorded Temperature 
 TTMX.degC              100.00:  Max Tool Temp 
 VS01.                90639251:  Virtual Str1 SN 
 VS02.                90634715:  Virtual Str2 SN 
 VS03.                90652479:  Virtual Str3 SN 
 VS04.                90642262:  Virtual Str4 SN 
 WBMN.klb                 0.00:  WOB Min 
 WITN.           Murad Guliyev:  Customer Rep 
 WITN.          Yashar Gaziyev:  Customer Rep 2 
 WOBA.klb                 9.00:  WOB Avg 
 WOBX.klb                12.00:  WOB Max 
 YP  .lhf2               30.00:  Yield Point 
~Curve Information Block
#MNEM.UNIT                 API CODE     Curve Description
#---------               -----------    ---------------------------
 TIME.HHMMSS            00 000 000 000:  GT Time & Date
 GTDEPTH.m              00 000 000 000:  GT Depth
 GTPQH.psia             00 000 000 000:  GT HR Quartz Pressure
 GTTQ.degC              00 000 000 000:  GT Quartz Temperature
 GTTN.NONE              00 000 000 000:  GT Test Number
 GTET.sec               00 000 000 000:  GT Elapsed Test Time
 GTTVD.m                00 000 000 000:  GT True Vertical Depth
#Other Information
#
#WARRANTY: Halliburton will use its best efforts to furnish customers with 
#accurate information and interpretations that are part of, and incident to, the services 
#provided.  However, Halliburton cannot and does not warrant the accuracy 
#or correctness of such information and interpretations.  Under no circumstances should any 
#such information or interpretation be relied upon as the sole basis for any drilling, 
#completion, production, or financial decision or any procedure involving any risk to the 
#safety of any drilling venture, drilling rig or its crew or any other third party.  The 
#Customer has full responsibility for all drilling, completion and production operation.  
#Halliburton makes no representations or warranties, either expressed or 
#implied, including, but not limited to, the implied warranties of merchantability or fitness 
#for a particular purpose, with respect to the services rendered.  In no event will 
#Halliburton be liable for failure to obtain any particular results or for 
#any damages, including, but not limited to, indirect, special or consequential damages, 
#resulting from the use of any information or interpretation provided by Halliburton.
#
~A           TIME           GTDEPTH  GTPQH  GTTQ  GTTN   GTET   GTTVD  
# ...
   17:01:52.253.27-Aug-2021 4788.50 7534.47 83.15 18.00 316.08 3147.67
   17:01:52.453.27-Aug-2021 4788.50 7534.49 83.15 18.00 316.28 3147.67
   17:01:52.653.27-Aug-2021 4788.50 7534.74 83.15 18.00 316.48 3147.67
   17:01:52.852.27-Aug-2021 4788.50 7534.77 83.15 18.00 316.68 3147.67
   17:01:53.052.27-Aug-2021 4788.50 7534.77 83.15 18.00 316.88 3147.67
   17:01:53.252.27-Aug-2021 4788.50 7534.75 83.15 18.00 317.08 3147.67
   17:01:53.452.27-Aug-2021 4788.50 7534.68 83.15 18.00 317.28 3147.67
   17:01:53.652.27-Aug-2021 4788.50 7534.55 83.15 18.00 317.48 3147.67
   17:01:53.851.27-Aug-2021 4788.50 7535.00 83.15 18.00 317.68 3147.67
   17:01:54.051.27-Aug-2021 4788.50 7535.00 83.15 18.00 317.88 3147.67
   17:01:54.251.27-Aug-2021 4788.50 7536.98 83.15 18.00 318.08 3147.67
   17:01:54.451.27-Aug-2021 4788.50 7534.42 83.15 18.00 318.28 3147.67
   17:01:54.651.27-Aug-2021 4788.50 7535.03 83.15 18.00 318.48 3147.67
   17:01:54.850.27-Aug-2021 4788.50 7533.70 83.15 18.00 318.68 3147.67
   17:01:55.050.27-Aug-2021 4788.50 7533.70 83.15 18.00 318.88 3147.67
   17:01:55.250.27-Aug-2021 4788.50 7532.80 83.15 18.00 319.08 3147.67
   17:01:55.450.27-Aug-2021 4788.50 7534.25 83.15 18.00 319.28 3147.67
   17:01:55.650.27-Aug-2021 4788.50 7535.60 83.15 18.00 319.48 3147.67
   17:01:55.849.27-Aug-2021 4788.50 7533.90 83.15 18.00 319.68 3147.67
   17:01:56.049.27-Aug-2021 4788.50 7533.90 83.15 18.00 319.88 3147.67
   17:01:56.249.27-Aug-2021 4788.50 7538.08 83.15 18.00 320.08 3147.67
   17:01:56.449.27-Aug-2021 4788.50 7533.40 83.15 18.00 320.28 3147.67
   17:01:56.649.27-Aug-2021 4788.50 7535.07 83.15 18.00 320.48 3147.67
   17:01:56.848.27-Aug-2021 4788.50 7535.40 83.15 18.00 320.68 3147.67
   17:01:57.048.27-Aug-2021 4788.50 7535.40 83.15 18.00 320.88 3147.67
   17:01:57.248.27-Aug-2021 4788.50 7538.76 83.15 18.00 321.08 3147.67
   17:01:57.448.27-Aug-2021 4788.50 7532.96 83.15 18.00 321.28 3147.67
   17:01:57.648.27-Aug-2021 4788.50 7534.09 83.15 18.00 321.48 3147.67
   17:01:57.847.27-Aug-2021 4788.50 7535.59 83.15 18.00 321.68 3147.67
   17:01:58.047.27-Aug-2021 4788.50 7535.59 83.15 18.00 321.88 3147.67
   17:01:58.247.27-Aug-2021 4788.50 7534.04 83.15 18.00 322.08 3147.67
   17:01:58.447.27-Aug-2021 4788.50 7534.22 83.15 18.00 322.28 3147.67
   17:01:58.647.27-Aug-2021 4788.50 7534.04 83.15 18.00 322.48 3147.67
   17:01:58.846.27-Aug-2021 4788.50 7534.45 83.15 18.00 322.68 3147.67
   17:01:59.046.27-Aug-2021 4788.50 7534.45 83.15 18.00 322.88 3147.67
   17:01:59.246.27-Aug-2021 4788.50 7534.51 83.15 18.00 323.08 3147.67
   17:01:59.446.27-Aug-2021 4788.50 7534.76 83.15 18.00 323.28 3147.67
   17:01:59.646.27-Aug-2021 4788.50 7534.71 83.15 18.00 323.48 3147.67
   17:01:59.845.27-Aug-2021 4788.50 7534.56 83.15 18.00 323.68 3147.67
   17:02:00.045.27-Aug-2021 4788.50 7534.56 83.15 18.00 323.88 3147.67
   17:02:00.245.27-Aug-2021 4788.50 7534.52 83.15 18.00 324.08 3147.67
   17:02:00.445.27-Aug-2021 4788.50 7538.45 83.15 18.00 324.28 3147.67
   17:02:00.645.27-Aug-2021 4788.50 7533.67 83.15 18.00 324.48 3147.67
   17:02:00.844.27-Aug-2021 4788.50 7534.23 83.15 18.00 324.68 3147.67
   17:02:01.044.27-Aug-2021 4788.50 7534.23 83.15 18.00 324.88 3147.67
   17:02:01.244.27-Aug-2021 4788.50 7534.49 83.15 18.00 325.08 3147.67
   17:02:01.444.27-Aug-2021 4788.50 7533.89 83.15 18.00 325.28 3147.67
   17:02:01.644.27-Aug-2021 4788.50 7533.96 83.15 18.00 325.48 3147.67
   17:02:01.843.27-Aug-2021 4788.50 7533.85 83.15 18.00 325.67 3147.67
   17:02:02.043.27-Aug-2021 4788.50 7533.85 83.15 18.00 325.87 3147.67
   17:02:02.243.27-Aug-2021 4788.50 7534.21 83.15 18.00 326.07 3147.67
   17:02:02.443.27-Aug-2021 4788.50 7534.48 83.15 18.00 326.27 3147.67
   17:02:02.643.27-Aug-2021 4788.50 7534.78 83.15 18.00 326.47 3147.67
   17:02:02.842.27-Aug-2021 4788.50 7534.88 83.15 18.00 326.67 3147.67
   17:02:03.042.27-Aug-2021 4788.50 7534.88 83.15 18.00 326.87 3147.67
   17:02:03.242.27-Aug-2021 4788.50 7534.78 83.15 18.00 327.07 3147.67
   17:02:03.442.27-Aug-2021 4788.50 7534.68 83.15 18.00 327.27 3147.67
   17:02:03.642.27-Aug-2021 4788.50 7534.57 83.15 18.00 327.47 3147.67
   17:02:03.841.27-Aug-2021 4788.50 7534.97 83.15 18.00 327.67 3147.67
   17:02:04.041.27-Aug-2021 4788.50 7534.97 83.15 18.00 327.87 3147.67
   17:02:04.241.27-Aug-2021 4788.50 7534.18 83.15 18.00 328.07 3147.67
   17:02:04.441.27-Aug-2021 4788.50 7534.64 83.15 18.00 328.27 3147.67
   17:02:04.641.27-Aug-2021 4788.50 7535.25 83.15 18.00 328.47 3147.67
   17:02:04.840.27-Aug-2021 4788.50 7533.88 83.15 18.00 328.67 3147.67
   17:02:05.040.27-Aug-2021 4788.50 7533.88 83.15 18.00 328.87 3147.67
   17:02:05.240.27-Aug-2021 4788.50 7532.96 83.15 18.00 329.07 3147.67
   17:02:05.440.27-Aug-2021 4788.50 7534.45 83.15 18.00 329.27 3147.67
   17:02:05.640.27-Aug-2021 4788.50 7535.73 83.15 18.00 329.47 3147.67
   17:02:05.839.27-Aug-2021 4788.50 7534.01 83.15 18.00 329.67 3147.67
   17:02:06.039.27-Aug-2021 4788.50 7534.01 83.15 18.00 329.87 3147.67
   17:02:06.239.27-Aug-2021 4788.50 7535.00 83.15 18.00 330.07 3147.67
   17:02:06.439.27-Aug-2021 4788.50 7533.54 83.15 18.00 330.27 3147.67
   17:02:06.639.27-Aug-2021 4788.50 7535.27 83.15 18.00 330.47 3147.67
   17:02:06.838.27-Aug-2021 4788.50 7535.54 83.15 18.00 330.67 3147.67
   17:02:07.038.27-Aug-2021 4788.50 7535.54 83.15 18.00 330.87 3147.67
   17:02:07.238.27-Aug-2021 4788.50 7538.71 83.15 18.00 331.07 3147.67
   17:02:07.438.27-Aug-2021 4788.50 7533.05 83.15 18.00 331.27 3147.67
   17:02:07.638.27-Aug-2021 4788.50 7534.03 83.15 18.00 331.47 3147.67
   17:02:07.837.27-Aug-2021 4788.50 7535.48 83.15 18.00 331.67 3147.67
   17:02:08.037.27-Aug-2021 4788.50 7535.48 83.15 18.00 331.87 3147.67
   17:02:08.237.27-Aug-2021 4788.50 7534.03 83.15 18.00 332.07 3147.67
   17:02:08.437.27-Aug-2021 4788.50 7534.28 83.15 18.00 332.27 3147.67
   17:02:08.637.27-Aug-2021 4788.50 7534.12 83.15 18.00 332.47 3147.67
   17:02:08.836.27-Aug-2021 4788.50 7534.60 83.15 18.00 332.67 3147.67
   17:02:09.036.27-Aug-2021 4788.50 7534.60 83.15 18.00 332.87 3147.67
   17:02:09.236.27-Aug-2021 4788.50 7534.51 83.15 18.00 333.07 3147.67
   17:02:09.436.27-Aug-2021 4788.50 7534.75 83.15 18.00 333.27 3147.67
   17:02:09.636.27-Aug-2021 4788.50 7534.72 83.15 18.00 333.47 3147.67
   17:02:09.835.27-Aug-2021 4788.50 7534.67 83.15 18.00 333.67 3147.67
   17:02:10.035.27-Aug-2021 4788.50 7534.67 83.15 18.00 333.87 3147.67
   17:02:10.235.27-Aug-2021 4788.50 7534.69 83.15 18.00 334.07 3147.67
   17:02:10.435.27-Aug-2021 4788.50 7538.38 83.15 18.00 334.27 3147.67
   17:02:10.635.27-Aug-2021 4788.50 7533.81 83.15 18.00 334.47 3147.67
   17:02:10.834.27-Aug-2021 4788.50 7534.32 83.15 18.00 334.67 3147.67
   17:02:11.034.27-Aug-2021 4788.50 7534.32 83.15 18.00 334.87 3147.67
   17:02:11.234.27-Aug-2021 4788.50 7534.72 83.15 18.00 335.07 3147.67
   17:02:11.434.27-Aug-2021 4788.50 7534.13 83.15 18.00 335.27 3147.67
   17:02:11.634.27-Aug-2021 4788.50 7534.30 83.15 18.00 335.47 3147.67
   17:02:11.833.27-Aug-2021 4788.50 7534.21 83.15 18.00 335.66 3147.67
   17:02:12.033.27-Aug-2021 4788.50 7534.21 83.15 18.00 335.86 3147.67
   17:02:12.233.27-Aug-2021 4788.50 7534.73 83.15 18.00 336.06 3147.67
   17:02:12.433.27-Aug-2021 4788.50 7534.76 83.15 18.00 336.26 3147.67
   17:02:12.633.27-Aug-2021 4788.50 7534.97 83.15 18.00 336.46 3147.67
   17:02:12.832.27-Aug-2021 4788.50 7535.02 83.15 18.00 336.66 3147.67
   17:02:13.032.27-Aug-2021 4788.50 7535.02 83.15 18.00 336.86 3147.67
   17:02:13.232.27-Aug-2021 4788.50 7535.02 83.15 18.00 337.06 3147.67
   17:02:13.432.27-Aug-2021 4788.50 7535.02 83.15 18.00 337.26 3147.67
   17:02:13.632.27-Aug-2021 4788.50 7534.74 83.15 18.00 337.46 3147.67
   17:02:13.831.27-Aug-2021 4788.50 7535.01 83.15 18.00 337.66 3147.67
   17:02:14.031.27-Aug-2021 4788.50 7535.01 83.15 18.00 337.86 3147.67
   17:02:14.231.27-Aug-2021 4788.50 7534.35 83.15 18.00 338.06 3147.67
   17:02:14.431.27-Aug-2021 4788.50 7534.81 83.15 18.00 338.26 3147.67
   17:02:14.631.27-Aug-2021 4788.50 7535.35 83.15 18.00 338.46 3147.67
