~Version Information
 VERS.                  2.0:   CWLS log ASCII Standard -VERSION 2.0
 WRAP.                   NO:   One line per depth step
~Well Information Block
#MNEM.UNIT     VALUE/NAME     DESCRIPTION
#---------     -----------    ---------------------------
 STRT.S             09:25:17 27-Aug-21: START TIME 09:25:17 27-Aug-21
 STOP.S             09:32:27 27-Aug-21: STOP TIME  09:32:27 27-Aug-21
 STEP.S                   0.00: STEP TIME
 NULL.                 -999.25: NULL VALUE
 DFWT.                        :  DIST FWL TEXT
 DFST.                        :  DIST FSL TEXT
 DMF .             Drill Floor:  DRILL MEAS FROM
 STIM.      20.00.00 17-Aug-21:  START TIME
 DATE.      19.00.00 29-Aug-21:  END TIME
 SPUD.               15-Aug-21:  SPUD DATE
 NREF.                    Grid:  NORTH REFERENCE
 HPTY.       Minimum Curvature:  HOLE POS TYPE
 DMOD.             Drill Model:  DRILL MOD DESC
 SVYD.                  Survey:  SURVEY DESC
 ILTD.               Lithology:  INTERP LTH DESC
 FTOP.          Formation Tops:  FORM TOPS DESC
 RIG .              East Azeri:  RIG NAME
 PDAT.          Mean Sea Level:  PERMANENT DATUM
 FLD .                     ACG:  FIELD NAME
 SON .        AZ-XX-0907180857:  JOB NUMBER
 CTRY.              Azerbaijan:  COUNTRY NAME
 WELL.                    D23x:  WELL NAME
 SRVC.     Turan Drilling and Engineering:  CONTRACTOR
 COMP.     BP Exploration (Caspian Sea) Ltd.:  COMPANY
 UWI .            /AZE00000214:  UNIQUE WELL IDENTIFIER
 API .            /AZE00000214:  API NUMBER
 MDS .        Operator Entered:  MAG DATA SOURCE
 BASE.              Azerbaijan:  LOGGING EQUIPMENT BASE LOCATION
 REGN.                   EESSA:  REGION
 PROV.                    Baku:  PROVINCE
 STAT.                    Baku:  STATE NAME
 MWDS.                    Baku:  MWD SHOP
 DOE .                     N/A:  DOE NUMBER
 DCON.         Sperry Drilling:  DIRECTNL CONTR
 UNIT.                     N/A:  LOGGING EQUIPMENT ID
 WTYP.                Deviated:  WELL TYPE
 CNTY.                        :  COUNTY
 LOC .                        :  LOCATION
 LMF .             Drill Floor:  LOG MEASURED FROM
 TVDS.m                  43.60:  TVDSS CORRECTN
 LATI.deg                40.02:  LATITUDE
 LONG.deg                51.45:  LONGITUDE
 WHNS.m                  -7.04:  WELL HEAD N/S
 WHEW.m                  -0.67:  WELL HEAD E/W
 UTMX.m              538762.90:  UTM X
 UTMY.m             4431871.34:  UTM Y
 DFWL.m                   0.00:  DISTANCE FWL
 DFSL.m                   0.00:  DISTANCE FSL
 SDEP.m                4127.00:  START DEPTH
 TDD .m                5084.50:  TOTAL DEPTH (DRILLER)
 VSDR.deg               140.47:  VERT SEC DIRECT
 GVFD.g                   1.00:  GRAVITY FIELD
 MFLD.nT              50362.00:  MAGNETIC FIELD
 MDIP.deg                59.48:  MAGNETIC DIP
 MDEC.deg                 6.47:  MAGNETIC DECL
 GRDC.deg                 0.31:  GRID CORRECTION
 AZTC.deg                 6.16:  AZM TOTAL CORR
 EPD .m                   0.00:  ELEVATION
 EGL .m                   0.00:  GROUND ELEVATION
 WDMS.m                 151.80:  WD ELEV
 APD .m                  43.60:  DEPTH ABOVE PD
 DEP .m                4092.57:  DEPTH
 AGAP.m                  43.60:  AIR GAP
 VSEW.m                  -0.67:  VERT SEC E/W
 VSNS.m                  -7.04:  VERT SEC N/S
 EKB .m                  43.60:  KB ELEVATION
 EDF .m                  43.60:  DF ELEVATION
 TDL .m                 957.50:  TOTAL DEPTH (LOGGER)
 VSC .                       0:  VS TO CLOSURE
 MAGU.                 1851413:  MAGUTM CHECKSUM
~Parameter Information Block
#MNEM.UNIT       Value        Description
#---------     -----------    ---------------------------
 AV  .mps                 1.50:  Ann Velocity 
 AVMX.mps                 2.00:  Max Ann Veloc 
 AZIF.deg               184.66:  Azm, Final 
 BHAT.        Rotary Steerable:  BHA Type 
 BREV.rev               300.00:  Rev Bit Total 
 BROT.°/30m              -0.50:  Build Rotating 
 BS  .in                  8.50:  Bit Size 
 BSZ .in                  8.50:  Bit Size 
 BTPL.psig              370.00:  Bit Press Loss 
 CABU.                      No:  Customer Abuse 
 CGEO.      Behruz Shahbaliyev:  Customer Geo 
 COMM.                     TD\:  Run Comments 1 
 TCS .hr                140.08:  Time Ciculation Ended 
 CV  .mps                 3.00:  Crit Velocity 
 CVMX.mps                 3.20:  Max Crit Veloc 
 DD1 .            Musa Ahmadov:  Direct Drillr 1 
 DD2 .           Hamid Ahmadov:  Direct Drillr 2 
 DDSV.               Geo-Pilot:  DD Service 
 DEFF.%                  98.40:  % Det Eff 
 DLRX.°/30m               3.40:  Dogleg Rot Max 
 DLSO.°/30m               1.45:  Dogleg Oriented 
 DLSX.°/30m               3.40:  Dogleg Str Max 
 DRET.      18.40.00 29-Aug-21:  Drill End Time 
 DRST.      21.00.00 20-Aug-21:  Drill Start Tim 
 DTIM.hr                 69.47:  Time Drilling 
 EDEP.m                5084.50:  End Depth 
 ENG1.      Artemiy Matviyanov:  Engineer 1 
 ENG2.         Almaz Almadatov:  Engineer 2 
 ETIM.      18.40.00 29-Aug-21:  End Time 
 FLOI.gpm               500.00:  Flow In 
 FLON.gpm               400.00:  Flow In Min 
 FLOS.cptm                0.00:  Fluid Loss 
 FLOX.gpm               500.00:  Flow In Max 
 DFT .        Mineral Oil Base:  Mud Type 
 HFLO.                      No:  High Flow 
 HPRE.                      No:  High Pressure 
 HTEM.                      No:  High Temp 
 HYDO.m                   1.80:  Hydro Offset 
 IFIN.deg                25.62:  Inc, Final 
 IMAX.deg                48.69:  Inc Max 
 IMIN.deg                24.01:  Inc Min 
 IMND.m                4962.57:  Inc Min Depth 
 IMXD.m                4119.01:  Inc Max Depth 
 JARR.                      No:  Jarring 
 LETM.      18.40.00 29-Aug-21:  Log End Time 
 LOST.hr                     0:  Lost Rig Time 
 LSTM.      21.00.00 20-Aug-21:  Log Start Time 
 MDCL.ppm             41500.00:  Mud Chlorides 
 MDES.     Inversion Oil/Synthetic:  Mud Desc 
 DFD .sg                  1.56:  Mud Density 
 MDMN.sg                  1.56:  Dens Mud Min 
 MDMX.sg                  1.56:  Dens Mud Max 
 MOIL.                      70:  Run Mud Oil % 
 MOWR.                   70:30:  Run Mud OWR 
 MSND.                     0.2:  Run Mud Sand % 
 MSOL.                    23.3:  Run Mud Solids% 
 DFV .spqt               78.00:  Mud Viscosity 
 MWOD.in                  6.75:  MWD Tool OD 
 MWSI.                      No:  Serv Intrp, MWD 
 OTIM.hr                218.30:  Time Operating 
 PCON.           Look Like New:  Pad Condition 
 PMAX.psia            11015.30:  Press Op, Max 
 PV  .cP                 38.00:  Mud PV 
 RUN .                     300:  Run Number 
 ROPA.m/hr               15.00:  ROP Avg 
 ROPN.m/hr                9.00:  ROP Min 
 ROPX.m/hr               17.00:  ROP Max 
 RPMA.rpm               120.00:  RPM Surface Avg 
 RPMN.rpm                90.00:  RPM Surface Min 
 RPMX.rpm               140.00:  RPM Surface Max 
 RRUN.                     300:  Rig Run Number 
 RTIM.hr                 31.53:  Time Reaming 
 SAZI.deg               331.64:  Azm, Start 
 SDEP.m                4127.00:  Start Depth 
 SIDD.                      No:  Serv Intrp, DD 
 SINC.deg                48.43:  Inc, Start 
 SPPA.psig             5830.00:  SPP Avg 
 SPPN.psig             5600.00:  SPP Min 
 SPPX.psig             5900.00:  SPP Max 
 STIM.      21.00.00 20-Aug-21:  Start Time 
 SVCS.                 DD, MWD:  Services 
 SVER.                    9.20:  Sperry Version 
 TDAT.m                 957.50:  Tot Depth Attmp 
 TDDF.                      No:  Trip for DD 
 TDLG.m                 957.50:  Tot Depth Loggd 
 TFF .                      No:  Trip for Fail 
 TQAA.f-kp               15.00:  Torque Abs Avg 
 TQAN.f-kp               12.00:  Torque Abs Min 
 TQAX.f-kp               19.00:  Torque Abs Max 
 TRRT.°/30m              -3.40:  Turn Rotating 
 MRT .                  EWR-M5:  Maximum Recorded Temperature 
 TTMX.degC              100.00:  Max Tool Temp 
 VS01.                90639251:  Virtual Str1 SN 
 VS02.                90634715:  Virtual Str2 SN 
 VS03.                90652479:  Virtual Str3 SN 
 VS04.                90642262:  Virtual Str4 SN 
 WBMN.klb                 0.00:  WOB Min 
 WITN.           Murad Guliyev:  Customer Rep 
 WITN.          Yashar Gaziyev:  Customer Rep 2 
 WOBA.klb                 9.00:  WOB Avg 
 WOBX.klb                12.00:  WOB Max 
 YP  .lhf2               30.00:  Yield Point 
~Curve Information Block
#MNEM.UNIT                 API CODE     Curve Description
#---------               -----------    ---------------------------
 TIME.HHMMSS            00 000 000 000:  GT Time & Date
 GTDEPTH.m              00 000 000 000:  GT Depth
 GTPQH.psia             00 000 000 000:  GT HR Quartz Pressure
 GTTQ.degC              00 000 000 000:  GT Quartz Temperature
 GTTN.NONE              00 000 000 000:  GT Test Number
 GTET.sec               00 000 000 000:  GT Elapsed Test Time
 GTTVD.m                00 000 000 000:  GT True Vertical Depth
#Other Information
#
#WARRANTY: Halliburton will use its best efforts to furnish customers with 
#accurate information and interpretations that are part of, and incident to, the services 
#provided.  However, Halliburton cannot and does not warrant the accuracy 
#or correctness of such information and interpretations.  Under no circumstances should any 
#such information or interpretation be relied upon as the sole basis for any drilling, 
#completion, production, or financial decision or any procedure involving any risk to the 
#safety of any drilling venture, drilling rig or its crew or any other third party.  The 
#Customer has full responsibility for all drilling, completion and production operation.  
#Halliburton makes no representations or warranties, either expressed or 
#implied, including, but not limited to, the implied warranties of merchantability or fitness 
#for a particular purpose, with respect to the services rendered.  In no event will 
#Halliburton be liable for failure to obtain any particular results or for 
#any damages, including, but not limited to, indirect, special or consequential damages, 
#resulting from the use of any information or interpretation provided by Halliburton.
#
~A           TIME           GTDEPTH  GTPQH  GTTQ  GTTN  GTET   GTTVD  
# ...
   09:25:40.275.27-Aug-2021 4964.50 7876.79 86.42 7.00  23.01 3307.39
   09:25:40.475.27-Aug-2021 4964.50 7876.79 86.42 7.00  23.21 3307.39
   09:25:40.675.27-Aug-2021 4964.50 7877.70 86.42 7.00  23.41 3307.39
   09:25:40.875.27-Aug-2021 4964.50 7877.97 86.42 7.00  23.61 3307.39
   09:25:41.076.27-Aug-2021 4964.50 7878.26 86.42 7.00  23.81 3307.39
   09:25:41.276.27-Aug-2021 4964.50 7878.11 86.42 7.00  24.01 3307.39
   09:25:41.476.27-Aug-2021 4964.50 7878.11 86.42 7.00  24.21 3307.39
   09:25:41.676.27-Aug-2021 4964.50 7878.16 86.42 7.00  24.41 3307.39
   09:25:41.876.27-Aug-2021 4964.50 7883.98 86.42 7.00  24.61 3307.39
   09:25:42.076.27-Aug-2021 4964.50 7877.16 86.42 7.00  24.81 3307.39
   09:25:42.276.27-Aug-2021 4964.50 7880.35 86.42 7.00  25.01 3307.39
   09:25:42.476.27-Aug-2021 4964.50 7880.35 86.42 7.00  25.21 3307.39
   09:25:42.676.27-Aug-2021 4964.50 7879.17 86.42 7.00  25.41 3307.39
   09:25:42.876.27-Aug-2021 4964.50 7879.46 86.42 7.00  25.61 3307.39
   09:25:43.076.27-Aug-2021 4964.50 7879.69 86.42 7.00  25.81 3307.39
   09:25:43.276.27-Aug-2021 4964.50 7879.74 86.42 7.00  26.01 3307.39
   09:25:43.477.27-Aug-2021 4964.50 7879.74 86.42 7.00  26.21 3307.39
   09:25:43.677.27-Aug-2021 4964.50 7880.07 86.42 7.00  26.41 3307.39
   09:25:43.877.27-Aug-2021 4964.50 7880.69 86.42 7.00  26.61 3307.39
   09:25:44.077.27-Aug-2021 4964.50 7881.20 86.42 7.00  26.81 3307.39
   09:25:44.277.27-Aug-2021 4964.50 7881.51 86.42 7.00  27.01 3307.39
   09:25:44.477.27-Aug-2021 4964.50 7881.51 86.42 7.00  27.21 3307.39
   09:25:44.677.27-Aug-2021 4964.50 7881.46 86.42 7.00  27.41 3307.39
   09:25:44.877.27-Aug-2021 4964.50 7881.27 86.42 7.00  27.61 3307.39
   09:25:45.077.27-Aug-2021 4964.50 7881.44 86.42 7.00  27.81 3307.39
   09:25:45.277.27-Aug-2021 4964.50 7886.88 86.42 7.00  28.01 3307.39
   09:25:45.477.27-Aug-2021 4964.50 7886.88 86.42 7.00  28.21 3307.39
   09:25:45.677.27-Aug-2021 4964.50 7883.07 86.42 7.00  28.41 3307.39
   09:25:45.878.27-Aug-2021 4964.50 7881.75 86.42 7.00  28.61 3307.39
   09:25:46.078.27-Aug-2021 4964.50 7881.78 86.42 7.00  28.81 3307.39
   09:25:46.278.27-Aug-2021 4964.50 7881.93 86.42 7.00  29.01 3307.39
   09:25:46.478.27-Aug-2021 4964.50 7881.93 86.42 7.00  29.21 3307.39
   09:25:46.678.27-Aug-2021 4964.50 7881.88 86.42 7.00  29.41 3307.39
   09:25:46.878.27-Aug-2021 4964.50 7882.25 86.42 7.00  29.61 3307.39
   09:25:47.078.27-Aug-2021 4964.50 7882.44 86.42 7.00  29.81 3307.39
   09:25:47.278.27-Aug-2021 4964.50 7882.99 86.42 7.00  30.01 3307.39
   09:25:47.478.27-Aug-2021 4964.50 7882.99 86.42 7.00  30.21 3307.39
   09:25:47.678.27-Aug-2021 4964.50 7884.83 86.42 7.00  30.41 3307.39
   09:25:47.878.27-Aug-2021 4964.50 7884.86 86.42 7.00  30.61 3307.39
   09:25:48.078.27-Aug-2021 4964.50 7883.39 86.42 7.00  30.81 3307.39
   09:25:48.279.27-Aug-2021 4964.50 7883.21 86.42 7.00  31.01 3307.39
   09:25:48.479.27-Aug-2021 4964.50 7883.21 86.42 7.00  31.21 3307.39
   09:25:48.679.27-Aug-2021 4964.50 7884.35 86.42 7.00  31.41 3307.39
   09:25:48.879.27-Aug-2021 4964.50 7886.29 86.42 7.00  31.61 3307.39
   09:25:49.079.27-Aug-2021 4964.50 7884.69 86.42 7.00  31.81 3307.39
   09:25:49.279.27-Aug-2021 4964.50 7885.25 86.42 7.00  32.01 3307.39
   09:25:49.479.27-Aug-2021 4964.50 7885.25 86.42 7.00  32.21 3307.39
   09:25:49.679.27-Aug-2021 4964.50 7884.61 86.42 7.00  32.41 3307.39
   09:25:49.879.27-Aug-2021 4964.50 7884.96 86.42 7.00  32.61 3307.39
   09:25:50.079.27-Aug-2021 4964.50 7884.99 86.42 7.00  32.81 3307.39
   09:25:50.279.27-Aug-2021 4964.50 7884.82 86.42 7.00  33.01 3307.39
   09:25:50.479.27-Aug-2021 4964.50 7884.82 86.42 7.00  33.21 3307.39
   09:25:50.680.27-Aug-2021 4964.50 7884.66 86.42 7.00  33.41 3307.39
   09:25:50.880.27-Aug-2021 4964.50 7885.27 86.42 7.00  33.61 3307.39
   09:25:51.080.27-Aug-2021 4964.50 7886.14 86.42 7.00  33.81 3307.39
   09:25:51.280.27-Aug-2021 4964.50 7886.63 86.42 7.00  34.01 3307.39
   09:25:51.480.27-Aug-2021 4964.50 7886.63 86.42 7.00  34.21 3307.39
   09:25:51.680.27-Aug-2021 4964.50 7886.51 86.42 7.00  34.41 3307.39
   09:25:51.880.27-Aug-2021 4964.50 7886.51 86.42 7.00  34.61 3307.39
   09:25:52.080.27-Aug-2021 4964.50 7886.56 86.42 7.00  34.81 3307.39
   09:25:52.280.27-Aug-2021 4964.50 7886.69 86.41 7.00  35.01 3307.39
   09:25:52.480.27-Aug-2021 4964.50 7886.69 86.41 7.00  35.21 3307.39
   09:25:52.680.27-Aug-2021 4964.50 7891.39 86.41 7.00  35.41 3307.39
   09:25:52.880.27-Aug-2021 4964.50 7886.27 86.41 7.00  35.61 3307.39
   09:25:53.081.27-Aug-2021 4964.50 7886.90 86.41 7.00  35.81 3307.39
   09:25:53.281.27-Aug-2021 4964.50 7886.69 86.41 7.00  36.01 3307.39
   09:25:53.481.27-Aug-2021 4964.50 7886.69 86.41 7.00  36.22 3307.39
   09:25:53.681.27-Aug-2021 4964.50 7886.91 86.41 7.00  36.42 3307.39
   09:25:53.881.27-Aug-2021 4964.50 7886.96 86.41 7.00  36.62 3307.39
   09:25:54.081.27-Aug-2021 4964.50 7886.94 86.41 7.00  36.82 3307.39
   09:25:54.281.27-Aug-2021 4964.50 7887.02 86.41 7.00  37.02 3307.39
   09:25:54.481.27-Aug-2021 4964.50 7887.02 86.41 7.00  37.22 3307.39
   09:25:54.681.27-Aug-2021 4964.50 7888.34 86.41 7.00  37.42 3307.39
   09:25:54.881.27-Aug-2021 4964.50 7888.66 86.41 7.00  37.62 3307.39
   09:25:55.081.27-Aug-2021 4964.50 7889.10 86.41 7.00  37.82 3307.39
   09:25:55.281.27-Aug-2021 4964.50 7889.03 86.41 7.00  38.02 3307.39
   09:25:55.482.27-Aug-2021 4964.50 7889.03 86.41 7.00  38.22 3307.39
   09:25:55.682.27-Aug-2021 4964.50 7888.95 86.41 7.00  38.42 3307.39
   09:25:55.882.27-Aug-2021 4964.50 7893.64 86.41 7.00  38.62 3307.39
   09:25:56.082.27-Aug-2021 4964.50 7888.61 86.41 7.00  38.82 3307.39
   09:25:56.282.27-Aug-2021 4964.50 7889.07 86.41 7.00  39.02 3307.39
   09:25:56.482.27-Aug-2021 4964.50 7889.07 86.41 7.00  39.22 3307.39
   09:25:56.682.27-Aug-2021 4964.50 7888.47 86.41 7.00  39.42 3307.39
   09:25:56.882.27-Aug-2021 4964.50 7888.73 86.41 7.00  39.62 3307.39
   09:25:57.082.27-Aug-2021 4964.50 7893.60 86.41 7.00  39.82 3307.39
   09:25:57.282.27-Aug-2021 4964.50 7888.36 86.41 7.00  40.02 3307.39
   09:25:57.482.27-Aug-2021 4964.50 7888.36 86.41 7.00  40.22 3307.39
   09:25:57.682.27-Aug-2021 4964.50 7888.92 86.41 7.00  40.42 3307.39
   09:25:57.883.27-Aug-2021 4964.50 7889.83 86.41 7.00  40.62 3307.39
   09:25:58.083.27-Aug-2021 4964.50 7890.50 86.41 7.00  40.82 3307.39
   09:25:58.283.27-Aug-2021 4964.50 7893.88 86.41 7.00  41.02 3307.39
   09:25:58.483.27-Aug-2021 4964.50 7893.88 86.41 7.00  41.22 3307.39
   09:25:58.683.27-Aug-2021 4964.50 7889.35 86.41 7.00  41.42 3307.39
   09:25:58.883.27-Aug-2021 4964.50 7888.91 86.41 7.00  41.62 3307.39
   09:25:59.083.27-Aug-2021 4964.50 7889.31 86.41 7.00  41.82 3307.39
   09:25:59.283.27-Aug-2021 4964.50 7895.37 86.41 7.00  42.02 3307.39
   09:25:59.483.27-Aug-2021 4964.50 7895.37 86.41 7.00  42.22 3307.39
   09:25:59.683.27-Aug-2021 4964.50 7888.36 86.41 7.00  42.42 3307.39
   09:25:59.883.27-Aug-2021 4964.50 7887.51 86.41 7.00  42.62 3307.39
   09:26:00.083.27-Aug-2021 4964.50 7889.54 86.41 7.00  42.82 3307.39
   09:26:00.284.27-Aug-2021 4964.50 7865.34 86.41 7.00  43.02 3307.39
   09:26:00.484.27-Aug-2021 4964.50 7865.34 86.41 7.00  43.22 3307.39
   09:26:00.684.27-Aug-2021 4964.50 7838.82 86.41 7.00  43.42 3307.39
   09:26:00.884.27-Aug-2021 4964.50 7825.56 86.41 7.00  43.62 3307.39
   09:26:01.084.27-Aug-2021 4964.50 7824.49 86.41 7.00  43.82 3307.39
   09:26:01.284.27-Aug-2021 4964.50 7818.53 86.41 7.00  44.02 3307.39
   09:26:01.484.27-Aug-2021 4964.50 7818.53 86.41 7.00  44.22 3307.39
   09:26:01.684.27-Aug-2021 4964.50 7838.29 86.41 7.00  44.42 3307.39
   09:26:01.884.27-Aug-2021 4964.50 7869.64 86.41 7.00  44.62 3307.39
   09:26:02.084.27-Aug-2021 4964.50 7901.96 86.41 7.00  44.82 3307.39
   09:26:02.284.27-Aug-2021 4964.50 7895.24 86.41 7.00  45.02 3307.39
   09:26:02.484.27-Aug-2021 4964.50 7895.24 86.41 7.00  45.22 3307.39
   09:26:02.685.27-Aug-2021 4964.50 7886.23 86.41 7.00  45.42 3307.39
   09:26:02.885.27-Aug-2021 4964.50 7880.69 86.41 7.00  45.62 3307.39
   09:26:03.085.27-Aug-2021 4964.50 7874.95 86.41 7.00  45.82 3307.39
