~Version Information
 VERS.                  2.0:   CWLS log ASCII Standard -VERSION 2.0
 WRAP.                   NO:   One line per depth step
~Well Information Block
#MNEM.UNIT     VALUE/NAME     DESCRIPTION
#---------     -----------    ---------------------------
 STRT.S             22:11:58 27-Aug-21: START TIME 22:11:58 27-Aug-21
 STOP.S             22:18:52 27-Aug-21: STOP TIME  22:18:52 27-Aug-21
 STEP.S                   0.00: STEP TIME
 NULL.                 -999.25: NULL VALUE
 DFWT.                        :  DIST FWL TEXT
 DFST.                        :  DIST FSL TEXT
 DMF .             Drill Floor:  DRILL MEAS FROM
 STIM.      20.00.00 17-Aug-21:  START TIME
 DATE.      19.00.00 29-Aug-21:  END TIME
 SPUD.               15-Aug-21:  SPUD DATE
 NREF.                    Grid:  NORTH REFERENCE
 HPTY.       Minimum Curvature:  HOLE POS TYPE
 DMOD.             Drill Model:  DRILL MOD DESC
 SVYD.                  Survey:  SURVEY DESC
 ILTD.               Lithology:  INTERP LTH DESC
 FTOP.          Formation Tops:  FORM TOPS DESC
 RIG .              East Azeri:  RIG NAME
 PDAT.          Mean Sea Level:  PERMANENT DATUM
 FLD .                     ACG:  FIELD NAME
 SON .        AZ-XX-0907180857:  JOB NUMBER
 CTRY.              Azerbaijan:  COUNTRY NAME
 WELL.                    D23x:  WELL NAME
 SRVC.     Turan Drilling and Engineering:  CONTRACTOR
 COMP.     BP Exploration (Caspian Sea) Ltd.:  COMPANY
 UWI .            /AZE00000214:  UNIQUE WELL IDENTIFIER
 API .            /AZE00000214:  API NUMBER
 MDS .        Operator Entered:  MAG DATA SOURCE
 BASE.              Azerbaijan:  LOGGING EQUIPMENT BASE LOCATION
 REGN.                   EESSA:  REGION
 PROV.                    Baku:  PROVINCE
 STAT.                    Baku:  STATE NAME
 MWDS.                    Baku:  MWD SHOP
 DOE .                     N/A:  DOE NUMBER
 DCON.         Sperry Drilling:  DIRECTNL CONTR
 UNIT.                     N/A:  LOGGING EQUIPMENT ID
 WTYP.                Deviated:  WELL TYPE
 CNTY.                        :  COUNTY
 LOC .                        :  LOCATION
 LMF .             Drill Floor:  LOG MEASURED FROM
 TVDS.m                  43.60:  TVDSS CORRECTN
 LATI.deg                40.02:  LATITUDE
 LONG.deg                51.45:  LONGITUDE
 WHNS.m                  -7.04:  WELL HEAD N/S
 WHEW.m                  -0.67:  WELL HEAD E/W
 UTMX.m              538762.90:  UTM X
 UTMY.m             4431871.34:  UTM Y
 DFWL.m                   0.00:  DISTANCE FWL
 DFSL.m                   0.00:  DISTANCE FSL
 SDEP.m                4127.00:  START DEPTH
 TDD .m                5084.50:  TOTAL DEPTH (DRILLER)
 VSDR.deg               140.47:  VERT SEC DIRECT
 GVFD.g                   1.00:  GRAVITY FIELD
 MFLD.nT              50362.00:  MAGNETIC FIELD
 MDIP.deg                59.48:  MAGNETIC DIP
 MDEC.deg                 6.47:  MAGNETIC DECL
 GRDC.deg                 0.31:  GRID CORRECTION
 AZTC.deg                 6.16:  AZM TOTAL CORR
 EPD .m                   0.00:  ELEVATION
 EGL .m                   0.00:  GROUND ELEVATION
 WDMS.m                 151.80:  WD ELEV
 APD .m                  43.60:  DEPTH ABOVE PD
 DEP .m                4092.57:  DEPTH
 AGAP.m                  43.60:  AIR GAP
 VSEW.m                  -0.67:  VERT SEC E/W
 VSNS.m                  -7.04:  VERT SEC N/S
 EKB .m                  43.60:  KB ELEVATION
 EDF .m                  43.60:  DF ELEVATION
 TDL .m                 957.50:  TOTAL DEPTH (LOGGER)
 VSC .                       0:  VS TO CLOSURE
 MAGU.                 1851413:  MAGUTM CHECKSUM
~Parameter Information Block
#MNEM.UNIT       Value        Description
#---------     -----------    ---------------------------
 AV  .mps                 1.50:  Ann Velocity 
 AVMX.mps                 2.00:  Max Ann Veloc 
 AZIF.deg               184.66:  Azm, Final 
 BHAT.        Rotary Steerable:  BHA Type 
 BREV.rev               300.00:  Rev Bit Total 
 BROT.°/30m              -0.50:  Build Rotating 
 BS  .in                  8.50:  Bit Size 
 BSZ .in                  8.50:  Bit Size 
 BTPL.psig              370.00:  Bit Press Loss 
 CABU.                      No:  Customer Abuse 
 CGEO.      Behruz Shahbaliyev:  Customer Geo 
 COMM.                     Tªl:  Run Comments 1 
 TCS .hr                140.08:  Time Ciculation Ended 
 CV  .mps                 3.00:  Crit Velocity 
 CVMX.mps                 3.20:  Max Crit Veloc 
 DD1 .            Musa Ahmadov:  Direct Drillr 1 
 DD2 .           Hamid Ahmadov:  Direct Drillr 2 
 DDSV.               Geo-Pilot:  DD Service 
 DEFF.%                  98.40:  % Det Eff 
 DLRX.°/30m               3.40:  Dogleg Rot Max 
 DLSO.°/30m               1.45:  Dogleg Oriented 
 DLSX.°/30m               3.40:  Dogleg Str Max 
 DRET.      18.40.00 29-Aug-21:  Drill End Time 
 DRST.      21.00.00 20-Aug-21:  Drill Start Tim 
 DTIM.hr                 69.47:  Time Drilling 
 EDEP.m                5084.50:  End Depth 
 ENG1.      Artemiy Matviyanov:  Engineer 1 
 ENG2.         Almaz Almadatov:  Engineer 2 
 ETIM.      18.40.00 29-Aug-21:  End Time 
 FLOI.gpm               500.00:  Flow In 
 FLON.gpm               400.00:  Flow In Min 
 FLOS.cptm                0.00:  Fluid Loss 
 FLOX.gpm               500.00:  Flow In Max 
 DFT .        Mineral Oil Base:  Mud Type 
 HFLO.                      No:  High Flow 
 HPRE.                      No:  High Pressure 
 HTEM.                      No:  High Temp 
 HYDO.m                   1.80:  Hydro Offset 
 IFIN.deg                25.62:  Inc, Final 
 IMAX.deg                48.69:  Inc Max 
 IMIN.deg                24.01:  Inc Min 
 IMND.m                4962.57:  Inc Min Depth 
 IMXD.m                4119.01:  Inc Max Depth 
 JARR.                      No:  Jarring 
 LETM.      18.40.00 29-Aug-21:  Log End Time 
 LOST.hr                     0:  Lost Rig Time 
 LSTM.      21.00.00 20-Aug-21:  Log Start Time 
 MDCL.ppm             41500.00:  Mud Chlorides 
 MDES.     Inversion Oil/Synthetic:  Mud Desc 
 DFD .sg                  1.56:  Mud Density 
 MDMN.sg                  1.56:  Dens Mud Min 
 MDMX.sg                  1.56:  Dens Mud Max 
 MOIL.                      70:  Run Mud Oil % 
 MOWR.                   70:30:  Run Mud OWR 
 MSND.                     0.2:  Run Mud Sand % 
 MSOL.                    23.3:  Run Mud Solids% 
 DFV .spqt               78.00:  Mud Viscosity 
 MWOD.in                  6.75:  MWD Tool OD 
 MWSI.                      No:  Serv Intrp, MWD 
 OTIM.hr                218.30:  Time Operating 
 PCON.           Look Like New:  Pad Condition 
 PMAX.psia            11015.30:  Press Op, Max 
 PV  .cP                 38.00:  Mud PV 
 RUN .                     300:  Run Number 
 ROPA.m/hr               15.00:  ROP Avg 
 ROPN.m/hr                9.00:  ROP Min 
 ROPX.m/hr               17.00:  ROP Max 
 RPMA.rpm               120.00:  RPM Surface Avg 
 RPMN.rpm                90.00:  RPM Surface Min 
 RPMX.rpm               140.00:  RPM Surface Max 
 RRUN.                     300:  Rig Run Number 
 RTIM.hr                 31.53:  Time Reaming 
 SAZI.deg               331.64:  Azm, Start 
 SDEP.m                4127.00:  Start Depth 
 SIDD.                      No:  Serv Intrp, DD 
 SINC.deg                48.43:  Inc, Start 
 SPPA.psig             5830.00:  SPP Avg 
 SPPN.psig             5600.00:  SPP Min 
 SPPX.psig             5900.00:  SPP Max 
 STIM.      21.00.00 20-Aug-21:  Start Time 
 SVCS.                 DD, MWD:  Services 
 SVER.                    9.20:  Sperry Version 
 TDAT.m                 957.50:  Tot Depth Attmp 
 TDDF.                      No:  Trip for DD 
 TDLG.m                 957.50:  Tot Depth Loggd 
 TFF .                      No:  Trip for Fail 
 TQAA.f-kp               15.00:  Torque Abs Avg 
 TQAN.f-kp               12.00:  Torque Abs Min 
 TQAX.f-kp               19.00:  Torque Abs Max 
 TRRT.°/30m              -3.40:  Turn Rotating 
 MRT .                  EWR-M5:  Maximum Recorded Temperature 
 TTMX.degC              100.00:  Max Tool Temp 
 VS01.                90639251:  Virtual Str1 SN 
 VS02.                90634715:  Virtual Str2 SN 
 VS03.                90652479:  Virtual Str3 SN 
 VS04.                90642262:  Virtual Str4 SN 
 WBMN.klb                 0.00:  WOB Min 
 WITN.           Murad Guliyev:  Customer Rep 
 WITN.          Yashar Gaziyev:  Customer Rep 2 
 WOBA.klb                 9.00:  WOB Avg 
 WOBX.klb                12.00:  WOB Max 
 YP  .lhf2               30.00:  Yield Point 
~Curve Information Block
#MNEM.UNIT                 API CODE     Curve Description
#---------               -----------    ---------------------------
 TIME.HHMMSS            00 000 000 000:  GT Time & Date
 GTDEPTH.m              00 000 000 000:  GT Depth
 GTPQH.psia             00 000 000 000:  GT HR Quartz Pressure
 GTTQ.degC              00 000 000 000:  GT Quartz Temperature
 GTTN.NONE              00 000 000 000:  GT Test Number
 GTET.sec               00 000 000 000:  GT Elapsed Test Time
 GTTVD.m                00 000 000 000:  GT True Vertical Depth
#Other Information
#
#WARRANTY: Halliburton will use its best efforts to furnish customers with 
#accurate information and interpretations that are part of, and incident to, the services 
#provided.  However, Halliburton cannot and does not warrant the accuracy 
#or correctness of such information and interpretations.  Under no circumstances should any 
#such information or interpretation be relied upon as the sole basis for any drilling, 
#completion, production, or financial decision or any procedure involving any risk to the 
#safety of any drilling venture, drilling rig or its crew or any other third party.  The 
#Customer has full responsibility for all drilling, completion and production operation.  
#Halliburton makes no representations or warranties, either expressed or 
#implied, including, but not limited to, the implied warranties of merchantability or fitness 
#for a particular purpose, with respect to the services rendered.  In no event will 
#Halliburton be liable for failure to obtain any particular results or for 
#any damages, including, but not limited to, indirect, special or consequential damages, 
#resulting from the use of any information or interpretation provided by Halliburton.
#
~A           TIME           GTDEPTH  GTPQH  GTTQ  GTTN   GTET   GTTVD  
# ...
   22:14:59.364.27-Aug-2021 4635.80 1834.48 82.34 24.00 180.82 3009.39
   22:14:59.564.27-Aug-2021 4635.80 1851.15 82.34 24.00 181.02 3009.39
   22:14:59.764.27-Aug-2021 4635.80 1851.15 82.34 24.00 181.22 3009.39
   22:14:59.964.27-Aug-2021 4635.80 1883.50 82.34 24.00 181.42 3009.39
   22:15:00.164.27-Aug-2021 4635.80 1899.51 82.34 24.00 181.62 3009.39
   22:15:00.364.27-Aug-2021 4635.80 1915.64 82.34 24.00 181.82 3009.39
   22:15:00.564.27-Aug-2021 4635.80 1931.74 82.34 24.00 182.02 3009.39
   22:15:00.764.27-Aug-2021 4635.80 1931.74 82.34 24.00 182.22 3009.39
   22:15:00.964.27-Aug-2021 4635.80 1963.45 82.34 24.00 182.42 3009.39
   22:15:01.164.27-Aug-2021 4635.80 1979.22 82.34 24.00 182.62 3009.39
   22:15:01.364.27-Aug-2021 4635.80 1994.80 82.34 24.00 182.82 3009.39
   22:15:01.564.27-Aug-2021 4635.80 2010.30 82.34 24.00 183.02 3009.39
   22:15:01.764.27-Aug-2021 4635.80 2010.30 82.34 24.00 183.22 3009.39
   22:15:01.965.27-Aug-2021 4635.80 2040.93 82.34 24.00 183.42 3009.39
   22:15:02.165.27-Aug-2021 4635.80 2056.19 82.34 24.00 183.62 3009.39
   22:15:02.365.27-Aug-2021 4635.80 2071.26 82.35 24.00 183.82 3009.39
   22:15:02.565.27-Aug-2021 4635.80 2086.33 82.35 24.00 184.02 3009.39
   22:15:02.765.27-Aug-2021 4635.80 2086.33 82.35 24.00 184.22 3009.39
   22:15:02.965.27-Aug-2021 4635.80 2115.11 82.35 24.00 184.42 3009.39
   22:15:03.165.27-Aug-2021 4635.80 2129.82 82.35 24.00 184.62 3009.39
   22:15:03.365.27-Aug-2021 4635.80 2144.47 82.35 24.00 184.82 3009.39
   22:15:03.565.27-Aug-2021 4635.80 2158.90 82.35 24.00 185.02 3009.39
   22:15:03.765.27-Aug-2021 4635.80 2158.90 82.35 24.00 185.22 3009.39
   22:15:03.965.27-Aug-2021 4635.80 2187.75 82.35 24.00 185.42 3009.39
   22:15:04.165.27-Aug-2021 4635.80 2201.96 82.35 24.00 185.62 3009.39
   22:15:04.365.27-Aug-2021 4635.80 2216.13 82.35 24.00 185.82 3009.39
   22:15:04.565.27-Aug-2021 4635.80 2230.20 82.35 24.00 186.02 3009.39
   22:15:04.765.27-Aug-2021 4635.80 2230.20 82.35 24.00 186.22 3009.39
   22:15:04.965.27-Aug-2021 4635.80 2258.01 82.35 24.00 186.42 3009.39
   22:15:05.165.27-Aug-2021 4635.80 2271.75 82.35 24.00 186.62 3009.39
   22:15:05.365.27-Aug-2021 4635.80 2285.43 82.35 24.00 186.82 3009.39
   22:15:05.565.27-Aug-2021 4635.80 2299.02 82.36 24.00 187.02 3009.39
   22:15:05.765.27-Aug-2021 4635.80 2299.02 82.36 24.00 187.22 3009.39
   22:15:05.965.27-Aug-2021 4635.80 2299.02 82.36 24.00 187.42 3009.39
   22:15:06.165.27-Aug-2021 4635.80 2337.98 82.36 24.00 187.62 3009.39
   22:15:06.365.27-Aug-2021 4635.80 2351.00 82.36 24.00 187.82 3009.39
   22:15:06.565.27-Aug-2021 4635.80 2364.19 82.36 24.00 188.02 3009.39
   22:15:06.765.27-Aug-2021 4635.80 2364.19 82.36 24.00 188.22 3009.39
   22:15:06.965.27-Aug-2021 4635.80 2390.35 82.36 24.00 188.42 3009.39
   22:15:07.165.27-Aug-2021 4635.80 2401.91 82.36 24.00 188.62 3009.39
   22:15:07.365.27-Aug-2021 4635.80 2414.68 82.36 24.00 188.82 3009.39
   22:15:07.565.27-Aug-2021 4635.80 2427.55 82.36 24.00 189.02 3009.39
   22:15:07.765.27-Aug-2021 4635.80 2427.55 82.36 24.00 189.22 3009.39
   22:15:07.965.27-Aug-2021 4635.80 2452.97 82.36 24.00 189.42 3009.39
   22:15:08.165.27-Aug-2021 4635.80 2463.92 82.36 24.00 189.62 3009.39
   22:15:08.365.27-Aug-2021 4635.80 2476.22 82.36 24.00 189.82 3009.39
   22:15:08.565.27-Aug-2021 4635.80 2488.68 82.36 24.00 190.02 3009.39
   22:15:08.765.27-Aug-2021 4635.80 2488.68 82.36 24.00 190.22 3009.39
   22:15:08.965.27-Aug-2021 4635.80 2512.00 82.36 24.00 190.42 3009.39
   22:15:09.165.27-Aug-2021 4635.80 2523.83 82.37 24.00 190.62 3009.39
   22:15:09.365.27-Aug-2021 4635.80 2535.95 82.37 24.00 190.82 3009.39
   22:15:09.565.27-Aug-2021 4635.80 2548.14 82.37 24.00 191.02 3009.39
   22:15:09.765.27-Aug-2021 4635.80 2548.14 82.37 24.00 191.22 3009.39
   22:15:09.965.27-Aug-2021 4635.80 2571.99 82.37 24.00 191.42 3009.39
   22:15:10.165.27-Aug-2021 4635.80 2583.80 82.37 24.00 191.62 3009.39
   22:15:10.365.27-Aug-2021 4635.80 2595.39 82.37 24.00 191.82 3009.39
   22:15:10.565.27-Aug-2021 4635.80 2607.16 82.37 24.00 192.02 3009.39
   22:15:10.765.27-Aug-2021 4635.80 2607.16 82.37 24.00 192.22 3009.39
   22:15:10.965.27-Aug-2021 4635.80 2618.58 82.37 24.00 192.42 3009.39
   22:15:11.165.27-Aug-2021 4635.80 2641.44 82.37 24.00 192.62 3009.39
   22:15:11.365.27-Aug-2021 4635.80 2652.75 82.37 24.00 192.82 3009.39
   22:15:11.565.27-Aug-2021 4635.80 2664.04 82.37 24.00 193.02 3009.39
   22:15:11.766.27-Aug-2021 4635.80 2664.04 82.37 24.00 193.22 3009.39
   22:15:11.966.27-Aug-2021 4635.80 2685.01 82.37 24.00 193.42 3009.39
   22:15:12.166.27-Aug-2021 4635.80 2695.59 82.37 24.00 193.62 3009.39
   22:15:12.366.27-Aug-2021 4635.80 2706.10 82.37 24.00 193.82 3009.39
   22:15:12.566.27-Aug-2021 4635.80 2717.36 82.37 24.00 194.02 3009.39
   22:15:12.766.27-Aug-2021 4635.80 2717.36 82.37 24.00 194.22 3009.39
   22:15:12.966.27-Aug-2021 4635.80 2739.27 82.38 24.00 194.42 3009.39
   22:15:13.166.27-Aug-2021 4635.80 2750.02 82.38 24.00 194.62 3009.39
   22:15:13.366.27-Aug-2021 4635.80 2760.85 82.38 24.00 194.82 3009.39
   22:15:13.566.27-Aug-2021 4635.80 2771.50 82.38 24.00 195.02 3009.39
   22:15:13.766.27-Aug-2021 4635.80 2771.50 82.38 24.00 195.22 3009.39
   22:15:13.966.27-Aug-2021 4635.80 2792.50 82.38 24.00 195.42 3009.39
   22:15:14.166.27-Aug-2021 4635.80 2802.92 82.38 24.00 195.62 3009.39
   22:15:14.366.27-Aug-2021 4635.80 2813.02 82.38 24.00 195.82 3009.39
   22:15:14.566.27-Aug-2021 4635.80 2823.32 82.38 24.00 196.02 3009.39
   22:15:14.766.27-Aug-2021 4635.80 2823.32 82.38 24.00 196.22 3009.39
   22:15:14.966.27-Aug-2021 4635.80 2833.66 82.38 24.00 196.42 3009.39
   22:15:15.166.27-Aug-2021 4635.80 2851.77 82.38 24.00 196.62 3009.39
   22:15:15.366.27-Aug-2021 4635.80 2861.77 82.38 24.00 196.82 3009.39
   22:15:15.566.27-Aug-2021 4635.80 2871.80 82.38 24.00 197.02 3009.39
   22:15:15.766.27-Aug-2021 4635.80 2871.80 82.38 24.00 197.22 3009.39
   22:15:15.966.27-Aug-2021 4635.80 2891.93 82.38 24.00 197.42 3009.39
   22:15:16.166.27-Aug-2021 4635.80 2901.74 82.38 24.00 197.62 3009.39
   22:15:16.366.27-Aug-2021 4635.80 2911.63 82.38 24.00 197.82 3009.39
   22:15:16.566.27-Aug-2021 4635.80 2919.71 82.38 24.00 198.02 3009.39
   22:15:16.766.27-Aug-2021 4635.80 2919.71 82.38 24.00 198.22 3009.39
   22:15:16.966.27-Aug-2021 4635.80 2938.71 82.38 24.00 198.42 3009.39
   22:15:17.166.27-Aug-2021 4635.80 2948.33 82.39 24.00 198.62 3009.39
   22:15:17.366.27-Aug-2021 4635.80 2957.87 82.39 24.00 198.82 3009.39
   22:15:17.566.27-Aug-2021 4635.80 2967.64 82.39 24.00 199.02 3009.39
   22:15:17.766.27-Aug-2021 4635.80 2967.64 82.39 24.00 199.22 3009.39
   22:15:17.966.27-Aug-2021 4635.80 2984.40 82.39 24.00 199.42 3009.39
   22:15:18.166.27-Aug-2021 4635.80 2993.78 82.39 24.00 199.62 3009.39
   22:15:18.366.27-Aug-2021 4635.80 3002.99 82.39 24.00 199.82 3009.39
   22:15:18.566.27-Aug-2021 4635.80 3012.37 82.39 24.00 200.02 3009.39
   22:15:18.766.27-Aug-2021 4635.80 3012.37 82.39 24.00 200.22 3009.39
   22:15:18.966.27-Aug-2021 4635.80 3021.54 82.39 24.00 200.42 3009.39
   22:15:19.166.27-Aug-2021 4635.80 3039.73 82.39 24.00 200.62 3009.39
   22:15:19.366.27-Aug-2021 4635.80 3047.39 82.39 24.00 200.82 3009.39
   22:15:19.566.27-Aug-2021 4635.80 3055.97 82.39 24.00 201.02 3009.39
   22:15:19.766.27-Aug-2021 4635.80 3055.97 82.39 24.00 201.22 3009.39
   22:15:19.966.27-Aug-2021 4635.80 3073.56 82.39 24.00 201.42 3009.39
   22:15:20.166.27-Aug-2021 4635.80 3082.51 82.39 24.00 201.62 3009.39
   22:15:20.366.27-Aug-2021 4635.80 3091.33 82.39 24.00 201.82 3009.39
   22:15:20.566.27-Aug-2021 4635.80 3099.98 82.39 24.00 202.02 3009.39
   22:15:20.766.27-Aug-2021 4635.80 3099.98 82.39 24.00 202.22 3009.39
   22:15:20.966.27-Aug-2021 4635.80 3117.23 82.39 24.00 202.42 3009.39
   22:15:21.166.27-Aug-2021 4635.80 3125.83 82.39 24.00 202.62 3009.39
   22:15:21.366.27-Aug-2021 4635.80 3134.32 82.39 24.00 202.82 3009.39
   22:15:21.567.27-Aug-2021 4635.80 3142.32 82.39 24.00 203.02 3009.39
   22:15:21.767.27-Aug-2021 4635.80 3142.32 82.39 24.00 203.22 3009.39
