~Version Information
 VERS.                  2.0:   CWLS log ASCII Standard -VERSION 2.0
 WRAP.                   NO:   One line per depth step
~Well Information Block
#MNEM.UNIT     VALUE/NAME     DESCRIPTION
#---------     -----------    ---------------------------
 STRT.S             16:35:30 27-Aug-21: START TIME 16:35:30 27-Aug-21
 STOP.S             16:42:43 27-Aug-21: STOP TIME  16:42:43 27-Aug-21
 STEP.S                   0.00: STEP TIME
 NULL.                 -999.25: NULL VALUE
 DFWT.                        :  DIST FWL TEXT
 DFST.                        :  DIST FSL TEXT
 DMF .             Drill Floor:  DRILL MEAS FROM
 STIM.      20.00.00 17-Aug-21:  START TIME
 DATE.      19.00.00 29-Aug-21:  END TIME
 SPUD.               15-Aug-21:  SPUD DATE
 NREF.                    Grid:  NORTH REFERENCE
 HPTY.       Minimum Curvature:  HOLE POS TYPE
 DMOD.             Drill Model:  DRILL MOD DESC
 SVYD.                  Survey:  SURVEY DESC
 ILTD.               Lithology:  INTERP LTH DESC
 FTOP.          Formation Tops:  FORM TOPS DESC
 RIG .              East Azeri:  RIG NAME
 PDAT.          Mean Sea Level:  PERMANENT DATUM
 FLD .                     ACG:  FIELD NAME
 SON .        AZ-XX-0907180857:  JOB NUMBER
 CTRY.              Azerbaijan:  COUNTRY NAME
 WELL.                    D23x:  WELL NAME
 SRVC.     Turan Drilling and Engineering:  CONTRACTOR
 COMP.     BP Exploration (Caspian Sea) Ltd.:  COMPANY
 UWI .            /AZE00000214:  UNIQUE WELL IDENTIFIER
 API .            /AZE00000214:  API NUMBER
 MDS .        Operator Entered:  MAG DATA SOURCE
 BASE.              Azerbaijan:  LOGGING EQUIPMENT BASE LOCATION
 REGN.                   EESSA:  REGION
 PROV.                    Baku:  PROVINCE
 STAT.                    Baku:  STATE NAME
 MWDS.                    Baku:  MWD SHOP
 DOE .                     N/A:  DOE NUMBER
 DCON.         Sperry Drilling:  DIRECTNL CONTR
 UNIT.                     N/A:  LOGGING EQUIPMENT ID
 WTYP.                Deviated:  WELL TYPE
 CNTY.                        :  COUNTY
 LOC .                        :  LOCATION
 LMF .             Drill Floor:  LOG MEASURED FROM
 TVDS.m                  43.60:  TVDSS CORRECTN
 LATI.deg                40.02:  LATITUDE
 LONG.deg                51.45:  LONGITUDE
 WHNS.m                  -7.04:  WELL HEAD N/S
 WHEW.m                  -0.67:  WELL HEAD E/W
 UTMX.m              538762.90:  UTM X
 UTMY.m             4431871.34:  UTM Y
 DFWL.m                   0.00:  DISTANCE FWL
 DFSL.m                   0.00:  DISTANCE FSL
 SDEP.m                4127.00:  START DEPTH
 TDD .m                5084.50:  TOTAL DEPTH (DRILLER)
 VSDR.deg               140.47:  VERT SEC DIRECT
 GVFD.g                   1.00:  GRAVITY FIELD
 MFLD.nT              50362.00:  MAGNETIC FIELD
 MDIP.deg                59.48:  MAGNETIC DIP
 MDEC.deg                 6.47:  MAGNETIC DECL
 GRDC.deg                 0.31:  GRID CORRECTION
 AZTC.deg                 6.16:  AZM TOTAL CORR
 EPD .m                   0.00:  ELEVATION
 EGL .m                   0.00:  GROUND ELEVATION
 WDMS.m                 151.80:  WD ELEV
 APD .m                  43.60:  DEPTH ABOVE PD
 DEP .m                4092.57:  DEPTH
 AGAP.m                  43.60:  AIR GAP
 VSEW.m                  -0.67:  VERT SEC E/W
 VSNS.m                  -7.04:  VERT SEC N/S
 EKB .m                  43.60:  KB ELEVATION
 EDF .m                  43.60:  DF ELEVATION
 TDL .m                 957.50:  TOTAL DEPTH (LOGGER)
 VSC .                       0:  VS TO CLOSURE
 MAGU.                 1851413:  MAGUTM CHECKSUM
~Parameter Information Block
#MNEM.UNIT       Value        Description
#---------     -----------    ---------------------------
 AV  .mps                 1.50:  Ann Velocity 
 AVMX.mps                 2.00:  Max Ann Veloc 
 AZIF.deg               184.66:  Azm, Final 
 BHAT.        Rotary Steerable:  BHA Type 
 BREV.rev               300.00:  Rev Bit Total 
 BROT.°/30m              -0.50:  Build Rotating 
 BS  .in                  8.50:  Bit Size 
 BSZ .in                  8.50:  Bit Size 
 BTPL.psig              370.00:  Bit Press Loss 
 CABU.                      No:  Customer Abuse 
 CGEO.      Behruz Shahbaliyev:  Customer Geo 
 COMM.                     äU:  Run Comments 1 
 TCS .hr                140.08:  Time Ciculation Ended 
 CV  .mps                 3.00:  Crit Velocity 
 CVMX.mps                 3.20:  Max Crit Veloc 
 DD1 .            Musa Ahmadov:  Direct Drillr 1 
 DD2 .           Hamid Ahmadov:  Direct Drillr 2 
 DDSV.               Geo-Pilot:  DD Service 
 DEFF.%                  98.40:  % Det Eff 
 DLRX.°/30m               3.40:  Dogleg Rot Max 
 DLSO.°/30m               1.45:  Dogleg Oriented 
 DLSX.°/30m               3.40:  Dogleg Str Max 
 DRET.      18.40.00 29-Aug-21:  Drill End Time 
 DRST.      21.00.00 20-Aug-21:  Drill Start Tim 
 DTIM.hr                 69.47:  Time Drilling 
 EDEP.m                5084.50:  End Depth 
 ENG1.      Artemiy Matviyanov:  Engineer 1 
 ENG2.         Almaz Almadatov:  Engineer 2 
 ETIM.      18.40.00 29-Aug-21:  End Time 
 FLOI.gpm               500.00:  Flow In 
 FLON.gpm               400.00:  Flow In Min 
 FLOS.cptm                0.00:  Fluid Loss 
 FLOX.gpm               500.00:  Flow In Max 
 DFT .        Mineral Oil Base:  Mud Type 
 HFLO.                      No:  High Flow 
 HPRE.                      No:  High Pressure 
 HTEM.                      No:  High Temp 
 HYDO.m                   1.80:  Hydro Offset 
 IFIN.deg                25.62:  Inc, Final 
 IMAX.deg                48.69:  Inc Max 
 IMIN.deg                24.01:  Inc Min 
 IMND.m                4962.57:  Inc Min Depth 
 IMXD.m                4119.01:  Inc Max Depth 
 JARR.                      No:  Jarring 
 LETM.      18.40.00 29-Aug-21:  Log End Time 
 LOST.hr                     0:  Lost Rig Time 
 LSTM.      21.00.00 20-Aug-21:  Log Start Time 
 MDCL.ppm             41500.00:  Mud Chlorides 
 MDES.     Inversion Oil/Synthetic:  Mud Desc 
 DFD .sg                  1.56:  Mud Density 
 MDMN.sg                  1.56:  Dens Mud Min 
 MDMX.sg                  1.56:  Dens Mud Max 
 MOIL.                      70:  Run Mud Oil % 
 MOWR.                   70:30:  Run Mud OWR 
 MSND.                     0.2:  Run Mud Sand % 
 MSOL.                    23.3:  Run Mud Solids% 
 DFV .spqt               78.00:  Mud Viscosity 
 MWOD.in                  6.75:  MWD Tool OD 
 MWSI.                      No:  Serv Intrp, MWD 
 OTIM.hr                218.30:  Time Operating 
 PCON.           Look Like New:  Pad Condition 
 PMAX.psia            11015.30:  Press Op, Max 
 PV  .cP                 38.00:  Mud PV 
 RUN .                     300:  Run Number 
 ROPA.m/hr               15.00:  ROP Avg 
 ROPN.m/hr                9.00:  ROP Min 
 ROPX.m/hr               17.00:  ROP Max 
 RPMA.rpm               120.00:  RPM Surface Avg 
 RPMN.rpm                90.00:  RPM Surface Min 
 RPMX.rpm               140.00:  RPM Surface Max 
 RRUN.                     300:  Rig Run Number 
 RTIM.hr                 31.53:  Time Reaming 
 SAZI.deg               331.64:  Azm, Start 
 SDEP.m                4127.00:  Start Depth 
 SIDD.                      No:  Serv Intrp, DD 
 SINC.deg                48.43:  Inc, Start 
 SPPA.psig             5830.00:  SPP Avg 
 SPPN.psig             5600.00:  SPP Min 
 SPPX.psig             5900.00:  SPP Max 
 STIM.      21.00.00 20-Aug-21:  Start Time 
 SVCS.                 DD, MWD:  Services 
 SVER.                    9.20:  Sperry Version 
 TDAT.m                 957.50:  Tot Depth Attmp 
 TDDF.                      No:  Trip for DD 
 TDLG.m                 957.50:  Tot Depth Loggd 
 TFF .                      No:  Trip for Fail 
 TQAA.f-kp               15.00:  Torque Abs Avg 
 TQAN.f-kp               12.00:  Torque Abs Min 
 TQAX.f-kp               19.00:  Torque Abs Max 
 TRRT.°/30m              -3.40:  Turn Rotating 
 MRT .                  EWR-M5:  Maximum Recorded Temperature 
 TTMX.degC              100.00:  Max Tool Temp 
 VS01.                90639251:  Virtual Str1 SN 
 VS02.                90634715:  Virtual Str2 SN 
 VS03.                90652479:  Virtual Str3 SN 
 VS04.                90642262:  Virtual Str4 SN 
 WBMN.klb                 0.00:  WOB Min 
 WITN.           Murad Guliyev:  Customer Rep 
 WITN.          Yashar Gaziyev:  Customer Rep 2 
 WOBA.klb                 9.00:  WOB Avg 
 WOBX.klb                12.00:  WOB Max 
 YP  .lhf2               30.00:  Yield Point 
~Curve Information Block
#MNEM.UNIT                 API CODE     Curve Description
#---------               -----------    ---------------------------
 TIME.HHMMSS            00 000 000 000:  GT Time & Date
 GTDEPTH.m              00 000 000 000:  GT Depth
 GTPQH.psia             00 000 000 000:  GT HR Quartz Pressure
 GTTQ.degC              00 000 000 000:  GT Quartz Temperature
 GTTN.NONE              00 000 000 000:  GT Test Number
 GTET.sec               00 000 000 000:  GT Elapsed Test Time
 GTTVD.m                00 000 000 000:  GT True Vertical Depth
#Other Information
#
#WARRANTY: Halliburton will use its best efforts to furnish customers with 
#accurate information and interpretations that are part of, and incident to, the services 
#provided.  However, Halliburton cannot and does not warrant the accuracy 
#or correctness of such information and interpretations.  Under no circumstances should any 
#such information or interpretation be relied upon as the sole basis for any drilling, 
#completion, production, or financial decision or any procedure involving any risk to the 
#safety of any drilling venture, drilling rig or its crew or any other third party.  The 
#Customer has full responsibility for all drilling, completion and production operation.  
#Halliburton makes no representations or warranties, either expressed or 
#implied, including, but not limited to, the implied warranties of merchantability or fitness 
#for a particular purpose, with respect to the services rendered.  In no event will 
#Halliburton be liable for failure to obtain any particular results or for 
#any damages, including, but not limited to, indirect, special or consequential damages, 
#resulting from the use of any information or interpretation provided by Halliburton.
#
~A           TIME           GTDEPTH  GTPQH  GTTQ  GTTN   GTET   GTTVD  
# ...
   16:38:08.474.27-Aug-2021 4788.00 7526.47 83.20 17.00 158.04 3147.22
   16:38:08.674.27-Aug-2021 4788.00 7525.02 83.20 17.00 158.24 3147.22
   16:38:08.874.27-Aug-2021 4788.00 7525.32 83.20 17.00 158.44 3147.22
   16:38:09.074.27-Aug-2021 4788.00 7524.01 83.20 17.00 158.64 3147.22
   16:38:09.273.27-Aug-2021 4788.00 7524.62 83.20 17.00 158.84 3147.22
   16:38:09.473.27-Aug-2021 4788.00 7524.62 83.20 17.00 159.04 3147.22
   16:38:09.673.27-Aug-2021 4788.00 7524.64 83.20 17.00 159.24 3147.22
   16:38:09.873.27-Aug-2021 4788.00 7525.07 83.20 17.00 159.44 3147.22
   16:38:10.073.27-Aug-2021 4788.00 7524.82 83.20 17.00 159.64 3147.22
   16:38:10.272.27-Aug-2021 4788.00 7525.20 83.20 17.00 159.84 3147.22
   16:38:10.472.27-Aug-2021 4788.00 7525.20 83.20 17.00 160.04 3147.22
   16:38:10.672.27-Aug-2021 4788.00 7525.08 83.20 17.00 160.24 3147.22
   16:38:10.872.27-Aug-2021 4788.00 7525.14 83.20 17.00 160.44 3147.22
   16:38:11.072.27-Aug-2021 4788.00 7524.99 83.20 17.00 160.64 3147.22
   16:38:11.272.27-Aug-2021 4788.00 7524.88 83.20 17.00 160.84 3147.22
   16:38:11.471.27-Aug-2021 4788.00 7524.88 83.20 17.00 161.04 3147.22
   16:38:11.671.27-Aug-2021 4788.00 7528.30 83.20 17.00 161.24 3147.22
   16:38:11.871.27-Aug-2021 4788.00 7524.22 83.20 17.00 161.44 3147.22
   16:38:12.071.27-Aug-2021 4788.00 7521.22 83.20 17.00 161.64 3147.22
   16:38:12.271.27-Aug-2021 4788.00 7520.35 83.20 17.00 161.84 3147.22
   16:38:12.470.27-Aug-2021 4788.00 7520.35 83.20 17.00 162.04 3147.22
   16:38:12.670.27-Aug-2021 4788.00 7518.45 83.20 17.00 162.24 3147.22
   16:38:12.870.27-Aug-2021 4788.00 7519.30 83.20 17.00 162.44 3147.22
   16:38:13.070.27-Aug-2021 4788.00 7520.56 83.20 17.00 162.64 3147.22
   16:38:13.270.27-Aug-2021 4788.00 7520.20 83.20 17.00 162.84 3147.22
   16:38:13.469.27-Aug-2021 4788.00 7520.20 83.20 17.00 163.04 3147.22
   16:38:13.669.27-Aug-2021 4788.00 7515.68 83.20 17.00 163.24 3147.22
   16:38:13.869.27-Aug-2021 4788.00 7519.29 83.20 17.00 163.44 3147.22
   16:38:14.069.27-Aug-2021 4788.00 7521.32 83.20 17.00 163.64 3147.22
   16:38:14.269.27-Aug-2021 4788.00 7522.07 83.20 17.00 163.84 3147.22
   16:38:14.468.27-Aug-2021 4788.00 7522.07 83.20 17.00 164.04 3147.22
   16:38:14.668.27-Aug-2021 4788.00 7524.71 83.20 17.00 164.24 3147.22
   16:38:14.868.27-Aug-2021 4788.00 7518.33 83.20 17.00 164.44 3147.22
   16:38:15.068.27-Aug-2021 4788.00 7521.23 83.20 17.00 164.64 3147.22
   16:38:15.268.27-Aug-2021 4788.00 7522.45 83.20 17.00 164.84 3147.22
   16:38:15.467.27-Aug-2021 4788.00 7522.45 83.20 17.00 165.04 3147.22
   16:38:15.667.27-Aug-2021 4788.00 7521.10 83.20 17.00 165.24 3147.22
   16:38:15.867.27-Aug-2021 4788.00 7520.48 83.20 17.00 165.43 3147.22
   16:38:16.067.27-Aug-2021 4788.00 7520.56 83.20 17.00 165.63 3147.22
   16:38:16.267.27-Aug-2021 4788.00 7517.85 83.20 17.00 165.83 3147.22
   16:38:16.466.27-Aug-2021 4788.00 7517.85 83.20 17.00 166.03 3147.22
   16:38:16.666.27-Aug-2021 4788.00 7522.39 83.20 17.00 166.23 3147.22
   16:38:16.866.27-Aug-2021 4788.00 7522.51 83.20 17.00 166.43 3147.22
   16:38:17.066.27-Aug-2021 4788.00 7522.15 83.20 17.00 166.63 3147.22
   16:38:17.266.27-Aug-2021 4788.00 7522.27 83.20 17.00 166.83 3147.22
   16:38:17.465.27-Aug-2021 4788.00 7522.27 83.20 17.00 167.03 3147.22
   16:38:17.665.27-Aug-2021 4788.00 7522.22 83.20 17.00 167.23 3147.22
   16:38:17.865.27-Aug-2021 4788.00 7525.77 83.20 17.00 167.43 3147.22
   16:38:18.065.27-Aug-2021 4788.00 7521.83 83.20 17.00 167.63 3147.22
   16:38:18.265.27-Aug-2021 4788.00 7522.42 83.20 17.00 167.83 3147.22
   16:38:18.464.27-Aug-2021 4788.00 7522.42 83.20 17.00 168.03 3147.22
   16:38:18.664.27-Aug-2021 4788.00 7521.56 83.20 17.00 168.23 3147.22
   16:38:18.864.27-Aug-2021 4788.00 7522.21 83.20 17.00 168.43 3147.22
   16:38:19.064.27-Aug-2021 4788.00 7521.41 83.20 17.00 168.63 3147.22
   16:38:19.264.27-Aug-2021 4788.00 7521.75 83.20 17.00 168.83 3147.22
   16:38:19.463.27-Aug-2021 4788.00 7521.75 83.20 17.00 169.03 3147.22
   16:38:19.663.27-Aug-2021 4788.00 7522.09 83.20 17.00 169.23 3147.22
   16:38:19.863.27-Aug-2021 4788.00 7522.48 83.20 17.00 169.43 3147.22
   16:38:20.063.27-Aug-2021 4788.00 7522.57 83.20 17.00 169.63 3147.22
   16:38:20.263.27-Aug-2021 4788.00 7521.95 83.20 17.00 169.83 3147.22
   16:38:20.462.27-Aug-2021 4788.00 7521.95 83.20 17.00 170.03 3147.22
   16:38:20.662.27-Aug-2021 4788.00 7522.38 83.20 17.00 170.23 3147.22
   16:38:20.862.27-Aug-2021 4788.00 7521.65 83.20 17.00 170.43 3147.22
   16:38:21.062.27-Aug-2021 4788.00 7521.82 83.20 17.00 170.63 3147.22
   16:38:21.262.27-Aug-2021 4788.00 7527.63 83.20 17.00 170.83 3147.22
   16:38:21.461.27-Aug-2021 4788.00 7527.63 83.20 17.00 171.03 3147.22
   16:38:21.661.27-Aug-2021 4788.00 7522.02 83.20 17.00 171.23 3147.22
   16:38:21.861.27-Aug-2021 4788.00 7523.17 83.20 17.00 171.43 3147.22
   16:38:22.061.27-Aug-2021 4788.00 7523.64 83.20 17.00 171.63 3147.22
   16:38:22.261.27-Aug-2021 4788.00 7526.73 83.20 17.00 171.83 3147.22
   16:38:22.460.27-Aug-2021 4788.00 7526.73 83.20 17.00 172.03 3147.22
   16:38:22.660.27-Aug-2021 4788.00 7524.89 83.20 17.00 172.23 3147.22
   16:38:22.860.27-Aug-2021 4788.00 7525.91 83.20 17.00 172.43 3147.22
   16:38:23.060.27-Aug-2021 4788.00 7523.96 83.20 17.00 172.63 3147.22
   16:38:23.260.27-Aug-2021 4788.00 7525.97 83.20 17.00 172.83 3147.22
   16:38:23.459.27-Aug-2021 4788.00 7525.97 83.20 17.00 173.03 3147.22
   16:38:23.659.27-Aug-2021 4788.00 7524.54 83.20 17.00 173.23 3147.22
   16:38:23.859.27-Aug-2021 4788.00 7525.27 83.20 17.00 173.43 3147.22
   16:38:24.059.27-Aug-2021 4788.00 7525.26 83.20 17.00 173.63 3147.22
   16:38:24.259.27-Aug-2021 4788.00 7529.65 83.20 17.00 173.83 3147.22
   16:38:24.458.27-Aug-2021 4788.00 7529.65 83.20 17.00 174.03 3147.22
   16:38:24.658.27-Aug-2021 4788.00 7524.25 83.20 17.00 174.23 3147.22
   16:38:24.858.27-Aug-2021 4788.00 7525.65 83.20 17.00 174.43 3147.22
   16:38:25.058.27-Aug-2021 4788.00 7524.60 83.20 17.00 174.63 3147.22
   16:38:25.258.27-Aug-2021 4788.00 7524.29 83.20 17.00 174.83 3147.22
   16:38:25.457.27-Aug-2021 4788.00 7524.29 83.20 17.00 175.03 3147.22
   16:38:25.657.27-Aug-2021 4788.00 7524.47 83.20 17.00 175.23 3147.22
   16:38:25.857.27-Aug-2021 4788.00 7525.11 83.20 17.00 175.42 3147.22
   16:38:26.057.27-Aug-2021 4788.00 7524.76 83.20 17.00 175.62 3147.22
   16:38:26.257.27-Aug-2021 4788.00 7525.07 83.20 17.00 175.82 3147.22
   16:38:26.456.27-Aug-2021 4788.00 7525.07 83.20 17.00 176.02 3147.22
   16:38:26.656.27-Aug-2021 4788.00 7525.25 83.20 17.00 176.22 3147.22
   16:38:26.856.27-Aug-2021 4788.00 7525.15 83.20 17.00 176.42 3147.22
   16:38:27.056.27-Aug-2021 4788.00 7525.17 83.20 17.00 176.62 3147.22
   16:38:27.256.27-Aug-2021 4788.00 7525.05 83.20 17.00 176.82 3147.22
   16:38:27.455.27-Aug-2021 4788.00 7525.05 83.20 17.00 177.02 3147.22
   16:38:27.655.27-Aug-2021 4788.00 7522.54 83.20 17.00 177.22 3147.22
   16:38:27.855.27-Aug-2021 4788.00 7524.80 83.20 17.00 177.42 3147.22
   16:38:28.055.27-Aug-2021 4788.00 7525.79 83.20 17.00 177.62 3147.22
   16:38:28.255.27-Aug-2021 4788.00 7524.44 83.20 17.00 177.82 3147.22
   16:38:28.454.27-Aug-2021 4788.00 7524.44 83.20 17.00 178.02 3147.22
   16:38:28.654.27-Aug-2021 4788.00 7523.92 83.20 17.00 178.22 3147.22
   16:38:28.854.27-Aug-2021 4788.00 7524.47 83.20 17.00 178.42 3147.22
   16:38:29.054.27-Aug-2021 4788.00 7525.08 83.20 17.00 178.62 3147.22
   16:38:29.254.27-Aug-2021 4788.00 7524.63 83.20 17.00 178.82 3147.22
   16:38:29.453.27-Aug-2021 4788.00 7524.63 83.20 17.00 179.02 3147.22
   16:38:29.653.27-Aug-2021 4788.00 7525.19 83.20 17.00 179.22 3147.22
   16:38:29.853.27-Aug-2021 4788.00 7525.07 83.20 17.00 179.42 3147.22
   16:38:30.053.27-Aug-2021 4788.00 7524.98 83.20 17.00 179.62 3147.22
   16:38:30.253.27-Aug-2021 4788.00 7524.99 83.20 17.00 179.82 3147.22
   16:38:30.452.27-Aug-2021 4788.00 7524.99 83.20 17.00 180.02 3147.22
   16:38:30.652.27-Aug-2021 4788.00 7524.68 83.20 17.00 180.22 3147.22
   16:38:30.852.27-Aug-2021 4788.00 7529.22 83.20 17.00 180.42 3147.22
