~Version Information
 VERS.                  2.0:   CWLS log ASCII Standard -VERSION 2.0
 WRAP.                   NO:   One line per depth step
~Well Information Block
#MNEM.UNIT     VALUE/NAME     DESCRIPTION
#---------     -----------    ---------------------------
 STRT.S             14:18:21 27-Aug-21: START TIME 14:18:21 27-Aug-21
 STOP.S             14:25:11 27-Aug-21: STOP TIME  14:25:11 27-Aug-21
 STEP.S                   0.00: STEP TIME
 NULL.                 -999.25: NULL VALUE
 DFWT.                        :  DIST FWL TEXT
 DFST.                        :  DIST FSL TEXT
 DMF .             Drill Floor:  DRILL MEAS FROM
 STIM.      20.00.00 17-Aug-21:  START TIME
 DATE.      19.00.00 29-Aug-21:  END TIME
 SPUD.               15-Aug-21:  SPUD DATE
 NREF.                    Grid:  NORTH REFERENCE
 HPTY.       Minimum Curvature:  HOLE POS TYPE
 DMOD.             Drill Model:  DRILL MOD DESC
 SVYD.                  Survey:  SURVEY DESC
 ILTD.               Lithology:  INTERP LTH DESC
 FTOP.          Formation Tops:  FORM TOPS DESC
 RIG .              East Azeri:  RIG NAME
 PDAT.          Mean Sea Level:  PERMANENT DATUM
 FLD .                     ACG:  FIELD NAME
 SON .        AZ-XX-0907180857:  JOB NUMBER
 CTRY.              Azerbaijan:  COUNTRY NAME
 WELL.                    D23x:  WELL NAME
 SRVC.     Turan Drilling and Engineering:  CONTRACTOR
 COMP.     BP Exploration (Caspian Sea) Ltd.:  COMPANY
 UWI .            /AZE00000214:  UNIQUE WELL IDENTIFIER
 API .            /AZE00000214:  API NUMBER
 MDS .        Operator Entered:  MAG DATA SOURCE
 BASE.              Azerbaijan:  LOGGING EQUIPMENT BASE LOCATION
 REGN.                   EESSA:  REGION
 PROV.                    Baku:  PROVINCE
 STAT.                    Baku:  STATE NAME
 MWDS.                    Baku:  MWD SHOP
 DOE .                     N/A:  DOE NUMBER
 DCON.         Sperry Drilling:  DIRECTNL CONTR
 UNIT.                     N/A:  LOGGING EQUIPMENT ID
 WTYP.                Deviated:  WELL TYPE
 CNTY.                        :  COUNTY
 LOC .                        :  LOCATION
 LMF .             Drill Floor:  LOG MEASURED FROM
 TVDS.m                  43.60:  TVDSS CORRECTN
 LATI.deg                40.02:  LATITUDE
 LONG.deg                51.45:  LONGITUDE
 WHNS.m                  -7.04:  WELL HEAD N/S
 WHEW.m                  -0.67:  WELL HEAD E/W
 UTMX.m              538762.90:  UTM X
 UTMY.m             4431871.34:  UTM Y
 DFWL.m                   0.00:  DISTANCE FWL
 DFSL.m                   0.00:  DISTANCE FSL
 SDEP.m                4127.00:  START DEPTH
 TDD .m                5084.50:  TOTAL DEPTH (DRILLER)
 VSDR.deg               140.47:  VERT SEC DIRECT
 GVFD.g                   1.00:  GRAVITY FIELD
 MFLD.nT              50362.00:  MAGNETIC FIELD
 MDIP.deg                59.48:  MAGNETIC DIP
 MDEC.deg                 6.47:  MAGNETIC DECL
 GRDC.deg                 0.31:  GRID CORRECTION
 AZTC.deg                 6.16:  AZM TOTAL CORR
 EPD .m                   0.00:  ELEVATION
 EGL .m                   0.00:  GROUND ELEVATION
 WDMS.m                 151.80:  WD ELEV
 APD .m                  43.60:  DEPTH ABOVE PD
 DEP .m                4092.57:  DEPTH
 AGAP.m                  43.60:  AIR GAP
 VSEW.m                  -0.67:  VERT SEC E/W
 VSNS.m                  -7.04:  VERT SEC N/S
 EKB .m                  43.60:  KB ELEVATION
 EDF .m                  43.60:  DF ELEVATION
 TDL .m                 957.50:  TOTAL DEPTH (LOGGER)
 VSC .                       0:  VS TO CLOSURE
 MAGU.                 1851413:  MAGUTM CHECKSUM
~Parameter Information Block
#MNEM.UNIT       Value        Description
#---------     -----------    ---------------------------
 AV  .mps                 1.50:  Ann Velocity 
 AVMX.mps                 2.00:  Max Ann Veloc 
 AZIF.deg               184.66:  Azm, Final 
 BHAT.        Rotary Steerable:  BHA Type 
 BREV.rev               300.00:  Rev Bit Total 
 BROT.°/30m              -0.50:  Build Rotating 
 BS  .in                  8.50:  Bit Size 
 BSZ .in                  8.50:  Bit Size 
 BTPL.psig              370.00:  Bit Press Loss 
 CABU.                      No:  Customer Abuse 
 CGEO.      Behruz Shahbaliyev:  Customer Geo 
 COMM.                     LAp:  Run Comments 1 
 TCS .hr                140.08:  Time Ciculation Ended 
 CV  .mps                 3.00:  Crit Velocity 
 CVMX.mps                 3.20:  Max Crit Veloc 
 DD1 .            Musa Ahmadov:  Direct Drillr 1 
 DD2 .           Hamid Ahmadov:  Direct Drillr 2 
 DDSV.               Geo-Pilot:  DD Service 
 DEFF.%                  98.40:  % Det Eff 
 DLRX.°/30m               3.40:  Dogleg Rot Max 
 DLSO.°/30m               1.45:  Dogleg Oriented 
 DLSX.°/30m               3.40:  Dogleg Str Max 
 DRET.      18.40.00 29-Aug-21:  Drill End Time 
 DRST.      21.00.00 20-Aug-21:  Drill Start Tim 
 DTIM.hr                 69.47:  Time Drilling 
 EDEP.m                5084.50:  End Depth 
 ENG1.      Artemiy Matviyanov:  Engineer 1 
 ENG2.         Almaz Almadatov:  Engineer 2 
 ETIM.      18.40.00 29-Aug-21:  End Time 
 FLOI.gpm               500.00:  Flow In 
 FLON.gpm               400.00:  Flow In Min 
 FLOS.cptm                0.00:  Fluid Loss 
 FLOX.gpm               500.00:  Flow In Max 
 DFT .        Mineral Oil Base:  Mud Type 
 HFLO.                      No:  High Flow 
 HPRE.                      No:  High Pressure 
 HTEM.                      No:  High Temp 
 HYDO.m                   1.80:  Hydro Offset 
 IFIN.deg                25.62:  Inc, Final 
 IMAX.deg                48.69:  Inc Max 
 IMIN.deg                24.01:  Inc Min 
 IMND.m                4962.57:  Inc Min Depth 
 IMXD.m                4119.01:  Inc Max Depth 
 JARR.                      No:  Jarring 
 LETM.      18.40.00 29-Aug-21:  Log End Time 
 LOST.hr                     0:  Lost Rig Time 
 LSTM.      21.00.00 20-Aug-21:  Log Start Time 
 MDCL.ppm             41500.00:  Mud Chlorides 
 MDES.     Inversion Oil/Synthetic:  Mud Desc 
 DFD .sg                  1.56:  Mud Density 
 MDMN.sg                  1.56:  Dens Mud Min 
 MDMX.sg                  1.56:  Dens Mud Max 
 MOIL.                      70:  Run Mud Oil % 
 MOWR.                   70:30:  Run Mud OWR 
 MSND.                     0.2:  Run Mud Sand % 
 MSOL.                    23.3:  Run Mud Solids% 
 DFV .spqt               78.00:  Mud Viscosity 
 MWOD.in                  6.75:  MWD Tool OD 
 MWSI.                      No:  Serv Intrp, MWD 
 OTIM.hr                218.30:  Time Operating 
 PCON.           Look Like New:  Pad Condition 
 PMAX.psia            11015.30:  Press Op, Max 
 PV  .cP                 38.00:  Mud PV 
 RUN .                     300:  Run Number 
 ROPA.m/hr               15.00:  ROP Avg 
 ROPN.m/hr                9.00:  ROP Min 
 ROPX.m/hr               17.00:  ROP Max 
 RPMA.rpm               120.00:  RPM Surface Avg 
 RPMN.rpm                90.00:  RPM Surface Min 
 RPMX.rpm               140.00:  RPM Surface Max 
 RRUN.                     300:  Rig Run Number 
 RTIM.hr                 31.53:  Time Reaming 
 SAZI.deg               331.64:  Azm, Start 
 SDEP.m                4127.00:  Start Depth 
 SIDD.                      No:  Serv Intrp, DD 
 SINC.deg                48.43:  Inc, Start 
 SPPA.psig             5830.00:  SPP Avg 
 SPPN.psig             5600.00:  SPP Min 
 SPPX.psig             5900.00:  SPP Max 
 STIM.      21.00.00 20-Aug-21:  Start Time 
 SVCS.                 DD, MWD:  Services 
 SVER.                    9.20:  Sperry Version 
 TDAT.m                 957.50:  Tot Depth Attmp 
 TDDF.                      No:  Trip for DD 
 TDLG.m                 957.50:  Tot Depth Loggd 
 TFF .                      No:  Trip for Fail 
 TQAA.f-kp               15.00:  Torque Abs Avg 
 TQAN.f-kp               12.00:  Torque Abs Min 
 TQAX.f-kp               19.00:  Torque Abs Max 
 TRRT.°/30m              -3.40:  Turn Rotating 
 MRT .                  EWR-M5:  Maximum Recorded Temperature 
 TTMX.degC              100.00:  Max Tool Temp 
 VS01.                90639251:  Virtual Str1 SN 
 VS02.                90634715:  Virtual Str2 SN 
 VS03.                90652479:  Virtual Str3 SN 
 VS04.                90642262:  Virtual Str4 SN 
 WBMN.klb                 0.00:  WOB Min 
 WITN.           Murad Guliyev:  Customer Rep 
 WITN.          Yashar Gaziyev:  Customer Rep 2 
 WOBA.klb                 9.00:  WOB Avg 
 WOBX.klb                12.00:  WOB Max 
 YP  .lhf2               30.00:  Yield Point 
~Curve Information Block
#MNEM.UNIT                 API CODE     Curve Description
#---------               -----------    ---------------------------
 TIME.HHMMSS            00 000 000 000:  GT Time & Date
 GTDEPTH.m              00 000 000 000:  GT Depth
 GTPQH.psia             00 000 000 000:  GT HR Quartz Pressure
 GTTQ.degC              00 000 000 000:  GT Quartz Temperature
 GTTN.NONE              00 000 000 000:  GT Test Number
 GTET.sec               00 000 000 000:  GT Elapsed Test Time
 GTTVD.m                00 000 000 000:  GT True Vertical Depth
#Other Information
#
#WARRANTY: Halliburton will use its best efforts to furnish customers with 
#accurate information and interpretations that are part of, and incident to, the services 
#provided.  However, Halliburton cannot and does not warrant the accuracy 
#or correctness of such information and interpretations.  Under no circumstances should any 
#such information or interpretation be relied upon as the sole basis for any drilling, 
#completion, production, or financial decision or any procedure involving any risk to the 
#safety of any drilling venture, drilling rig or its crew or any other third party.  The 
#Customer has full responsibility for all drilling, completion and production operation.  
#Halliburton makes no representations or warranties, either expressed or 
#implied, including, but not limited to, the implied warranties of merchantability or fitness 
#for a particular purpose, with respect to the services rendered.  In no event will 
#Halliburton be liable for failure to obtain any particular results or for 
#any damages, including, but not limited to, indirect, special or consequential damages, 
#resulting from the use of any information or interpretation provided by Halliburton.
#
~A           TIME           GTDEPTH  GTPQH  GTTQ  GTTN   GTET   GTTVD  
# ...
   14:24:45.200.27-Aug-2021 4859.50 7694.85 84.50 15.00 384.20 3211.87
   14:24:45.400.27-Aug-2021 4859.50 7694.75 84.50 15.00 384.40 3211.87
   14:24:45.600.27-Aug-2021 4859.50 7694.70 84.50 15.00 384.60 3211.87
   14:24:45.800.27-Aug-2021 4859.50 7694.99 84.50 15.00 384.80 3211.87
   14:24:46.000.27-Aug-2021 4859.50 7694.94 84.50 15.00 385.00 3211.87
   14:24:46.200.27-Aug-2021 4859.50 7694.94 84.50 15.00 385.20 3211.87
   14:24:46.400.27-Aug-2021 4859.50 7695.00 84.51 15.00 385.40 3211.87
   14:24:46.600.27-Aug-2021 4859.50 7695.09 84.51 15.00 385.60 3211.87
   14:24:46.800.27-Aug-2021 4859.50 7694.90 84.51 15.00 385.80 3211.87
   14:24:47.000.27-Aug-2021 4859.50 7694.97 84.51 15.00 386.00 3211.87
   14:24:47.200.27-Aug-2021 4859.50 7694.97 84.51 15.00 386.20 3211.87
   14:24:47.400.27-Aug-2021 4859.50 7695.39 84.51 15.00 386.40 3211.87
   14:24:47.600.27-Aug-2021 4859.50 7696.31 84.51 15.00 386.60 3211.87
   14:24:47.800.27-Aug-2021 4859.50 7695.22 84.51 15.00 386.80 3211.87
   14:24:48.000.27-Aug-2021 4859.50 7694.85 84.51 15.00 387.00 3211.87
   14:24:48.200.27-Aug-2021 4859.50 7694.85 84.51 15.00 387.20 3211.87
   14:24:48.400.27-Aug-2021 4859.50 7694.51 84.52 15.00 387.40 3211.87
   14:24:48.600.27-Aug-2021 4859.50 7694.79 84.52 15.00 387.60 3211.87
   14:24:48.800.27-Aug-2021 4859.50 7694.86 84.52 15.00 387.80 3211.87
   14:24:49.000.27-Aug-2021 4859.50 7695.26 84.52 15.00 388.00 3211.87
   14:24:49.200.27-Aug-2021 4859.50 7695.26 84.52 15.00 388.20 3211.87
   14:24:49.400.27-Aug-2021 4859.50 7695.71 84.52 15.00 388.40 3211.87
   14:24:49.600.27-Aug-2021 4859.50 7695.42 84.52 15.00 388.60 3211.87
   14:24:49.800.27-Aug-2021 4859.50 7695.46 84.52 15.00 388.80 3211.87
   14:24:50.000.27-Aug-2021 4859.50 7695.25 84.52 15.00 389.00 3211.87
   14:24:50.200.27-Aug-2021 4859.50 7695.25 84.52 15.00 389.20 3211.87
   14:24:50.400.27-Aug-2021 4859.50 7695.00 84.52 15.00 389.40 3211.87
   14:24:50.600.27-Aug-2021 4859.50 7698.00 84.52 15.00 389.60 3211.87
   14:24:50.800.27-Aug-2021 4859.50 7695.62 84.52 15.00 389.80 3211.87
   14:24:51.000.27-Aug-2021 4859.50 7696.13 84.52 15.00 390.00 3211.87
   14:24:51.200.27-Aug-2021 4859.50 7696.13 84.52 15.00 390.20 3211.87
   14:24:51.400.27-Aug-2021 4859.50 7699.00 84.52 15.00 390.40 3211.87
   14:24:51.600.27-Aug-2021 4859.50 7694.35 84.52 15.00 390.60 3211.87
   14:24:51.800.27-Aug-2021 4859.50 7696.13 84.52 15.00 390.80 3211.87
   14:24:52.000.27-Aug-2021 4859.50 7695.51 84.52 15.00 391.00 3211.87
   14:24:52.200.27-Aug-2021 4859.50 7695.51 84.52 15.00 391.20 3211.87
   14:24:52.400.27-Aug-2021 4859.50 7695.47 84.52 15.00 391.40 3211.87
   14:24:52.600.27-Aug-2021 4859.50 7696.64 84.52 15.00 391.60 3211.87
   14:24:52.800.27-Aug-2021 4859.50 7695.95 84.52 15.00 391.80 3211.87
   14:24:53.000.27-Aug-2021 4859.50 7695.45 84.52 15.00 392.00 3211.87
   14:24:53.200.27-Aug-2021 4859.50 7695.45 84.52 15.00 392.20 3211.87
   14:24:53.400.27-Aug-2021 4859.50 7694.09 84.52 15.00 392.40 3211.87
   14:24:53.600.27-Aug-2021 4859.50 7696.99 84.52 15.00 392.60 3211.87
   14:24:53.800.27-Aug-2021 4859.50 7695.52 84.52 15.00 392.80 3211.87
   14:24:54.000.27-Aug-2021 4859.50 7695.72 84.52 15.00 393.00 3211.87
   14:24:54.200.27-Aug-2021 4859.50 7695.72 84.52 15.00 393.20 3211.87
   14:24:54.400.27-Aug-2021 4859.50 7695.52 84.52 15.00 393.40 3211.87
   14:24:54.600.27-Aug-2021 4859.50 7695.07 84.52 15.00 393.60 3211.87
   14:24:54.800.27-Aug-2021 4859.50 7695.22 84.52 15.00 393.80 3211.87
   14:24:55.000.27-Aug-2021 4859.50 7695.32 84.52 15.00 394.00 3211.87
   14:24:55.200.27-Aug-2021 4859.50 7695.32 84.52 15.00 394.20 3211.87
   14:24:55.400.27-Aug-2021 4859.50 7695.48 84.52 15.00 394.40 3211.87
   14:24:55.600.27-Aug-2021 4859.50 7695.37 84.52 15.00 394.60 3211.87
   14:24:55.800.27-Aug-2021 4859.50 7695.42 84.52 15.00 394.80 3211.87
   14:24:56.000.27-Aug-2021 4859.50 7695.26 84.52 15.00 395.00 3211.87
   14:24:56.200.27-Aug-2021 4859.50 7695.26 84.52 15.00 395.20 3211.87
   14:24:56.400.27-Aug-2021 4859.50 7701.55 84.52 15.00 395.40 3211.87
   14:24:56.600.27-Aug-2021 4859.50 7692.29 84.52 15.00 395.60 3211.87
   14:24:56.800.27-Aug-2021 4859.50 7696.40 84.52 15.00 395.80 3211.87
   14:24:57.000.27-Aug-2021 4859.50 7696.09 84.52 15.00 396.00 3211.87
   14:24:57.200.27-Aug-2021 4859.50 7696.09 84.52 15.00 396.20 3211.87
   14:24:57.400.27-Aug-2021 4859.50 7695.08 84.52 15.00 396.40 3211.87
   14:24:57.600.27-Aug-2021 4859.50 7695.32 84.52 15.00 396.60 3211.87
   14:24:57.800.27-Aug-2021 4859.50 7694.77 84.52 15.00 396.80 3211.87
   14:24:58.000.27-Aug-2021 4859.50 7695.13 84.52 15.00 397.00 3211.87
   14:24:58.200.27-Aug-2021 4859.50 7695.13 84.52 15.00 397.20 3211.87
   14:24:58.400.27-Aug-2021 4859.50 7695.36 84.52 15.00 397.40 3211.87
   14:24:58.600.27-Aug-2021 4859.50 7695.64 84.51 15.00 397.60 3211.87
   14:24:58.800.27-Aug-2021 4859.50 7695.72 84.51 15.00 397.80 3211.87
   14:24:59.000.27-Aug-2021 4859.50 7695.73 84.51 15.00 398.00 3211.87
   14:24:59.200.27-Aug-2021 4859.50 7695.73 84.51 15.00 398.20 3211.87
   14:24:59.400.27-Aug-2021 4859.50 7695.60 84.51 15.00 398.40 3211.87
   14:24:59.600.27-Aug-2021 4859.50 7695.30 84.51 15.00 398.60 3211.87
   14:24:59.800.27-Aug-2021 4859.50 7701.67 84.51 15.00 398.80 3211.87
   14:25:00.000.27-Aug-2021 4859.50 7692.40 84.51 15.00 399.00 3211.87
   14:25:00.200.27-Aug-2021 4859.50 7692.40 84.51 15.00 399.20 3211.87
   14:25:00.400.27-Aug-2021 4859.50 7696.15 84.51 15.00 399.40 3211.87
   14:25:00.600.27-Aug-2021 4859.50 7699.38 84.51 15.00 399.60 3211.87
   14:25:00.800.27-Aug-2021 4859.50 7694.52 84.51 15.00 399.80 3211.87
   14:25:01.000.27-Aug-2021 4859.50 7695.69 84.51 15.00 400.00 3211.87
   14:25:01.200.27-Aug-2021 4859.50 7695.69 84.51 15.00 400.20 3211.87
   14:25:01.400.27-Aug-2021 4859.50 7695.71 84.51 15.00 400.40 3211.87
   14:25:01.600.27-Aug-2021 4859.50 7698.35 84.51 15.00 400.60 3211.87
   14:25:01.800.27-Aug-2021 4859.50 7695.94 84.51 15.00 400.80 3211.87
   14:25:02.000.27-Aug-2021 4859.50 7696.37 84.51 15.00 401.00 3211.87
   14:25:02.200.27-Aug-2021 4859.50 7696.37 84.51 15.00 401.20 3211.87
   14:25:02.400.27-Aug-2021 4859.50 7699.56 84.51 15.00 401.40 3211.87
   14:25:02.600.27-Aug-2021 4859.50 7694.81 84.51 15.00 401.60 3211.87
   14:25:02.800.27-Aug-2021 4859.50 7696.50 84.51 15.00 401.80 3211.87
   14:25:03.000.27-Aug-2021 4859.50 7695.94 84.51 15.00 402.00 3211.87
   14:25:03.200.27-Aug-2021 4859.50 7695.94 84.51 15.00 402.20 3211.87
   14:25:03.400.27-Aug-2021 4859.50 7695.33 84.51 15.00 402.40 3211.87
   14:25:03.600.27-Aug-2021 4859.50 7695.43 84.51 15.00 402.60 3211.87
   14:25:03.800.27-Aug-2021 4859.50 7695.39 84.51 15.00 402.80 3211.87
   14:25:04.000.27-Aug-2021 4859.50 7695.40 84.51 15.00 403.00 3211.87
   14:25:04.200.27-Aug-2021 4859.50 7695.40 84.51 15.00 403.20 3211.87
   14:25:04.400.27-Aug-2021 4859.50 7695.56 84.51 15.00 403.40 3211.87
   14:25:04.600.27-Aug-2021 4859.50 7695.69 84.51 15.00 403.60 3211.87
   14:25:04.800.27-Aug-2021 4859.50 7695.76 84.50 15.00 403.80 3211.87
   14:25:05.000.27-Aug-2021 4859.50 7695.64 84.50 15.00 404.00 3211.87
   14:25:05.200.27-Aug-2021 4859.50 7695.64 84.50 15.00 404.20 3211.87
   14:25:05.400.27-Aug-2021 4859.50 7695.67 84.50 15.00 404.40 3211.87
   14:25:05.600.27-Aug-2021 4859.50 7701.83 84.50 15.00 404.60 3211.87
   14:25:05.800.27-Aug-2021 4859.50 7692.59 84.50 15.00 404.80 3211.87
   14:25:06.000.27-Aug-2021 4859.50 7696.53 84.50 15.00 405.00 3211.87
   14:25:06.200.27-Aug-2021 4859.50 7696.53 84.50 15.00 405.20 3211.87
   14:25:06.400.27-Aug-2021 4859.50 7695.92 84.50 15.00 405.40 3211.87
   14:25:06.600.27-Aug-2021 4859.50 7695.42 84.50 15.00 405.60 3211.87
   14:25:06.800.27-Aug-2021 4859.50 7695.45 84.50 15.00 405.80 3211.87
   14:25:07.000.27-Aug-2021 4859.50 7695.03 84.50 15.00 406.00 3211.87
   14:25:07.200.27-Aug-2021 4859.50 7695.03 84.50 15.00 406.20 3211.87
   14:25:07.400.27-Aug-2021 4859.50 7695.44 84.50 15.00 406.40 3211.87
   14:25:07.600.27-Aug-2021 4859.50 7695.66 84.50 15.00 406.60 3211.87
