~Version Information
 VERS.                  2.0:   CWLS log ASCII Standard -VERSION 2.0
 WRAP.                   NO:   One line per depth step
~Well Information Block
#MNEM.UNIT     VALUE/NAME     DESCRIPTION
#---------     -----------    ---------------------------
 STRT.S             15:52:10 27-Aug-21: START TIME 15:52:10 27-Aug-21
 STOP.S             15:59:26 27-Aug-21: STOP TIME  15:59:26 27-Aug-21
 STEP.S                   0.00: STEP TIME
 NULL.                 -999.25: NULL VALUE
 DFWT.                        :  DIST FWL TEXT
 DFST.                        :  DIST FSL TEXT
 DMF .             Drill Floor:  DRILL MEAS FROM
 STIM.      20.00.00 17-Aug-21:  START TIME
 DATE.      19.00.00 29-Aug-21:  END TIME
 SPUD.               15-Aug-21:  SPUD DATE
 NREF.                    Grid:  NORTH REFERENCE
 HPTY.       Minimum Curvature:  HOLE POS TYPE
 DMOD.             Drill Model:  DRILL MOD DESC
 SVYD.                  Survey:  SURVEY DESC
 ILTD.               Lithology:  INTERP LTH DESC
 FTOP.          Formation Tops:  FORM TOPS DESC
 RIG .              East Azeri:  RIG NAME
 PDAT.          Mean Sea Level:  PERMANENT DATUM
 FLD .                     ACG:  FIELD NAME
 SON .        AZ-XX-0907180857:  JOB NUMBER
 CTRY.              Azerbaijan:  COUNTRY NAME
 WELL.                    D23x:  WELL NAME
 SRVC.     Turan Drilling and Engineering:  CONTRACTOR
 COMP.     BP Exploration (Caspian Sea) Ltd.:  COMPANY
 UWI .            /AZE00000214:  UNIQUE WELL IDENTIFIER
 API .            /AZE00000214:  API NUMBER
 MDS .        Operator Entered:  MAG DATA SOURCE
 BASE.              Azerbaijan:  LOGGING EQUIPMENT BASE LOCATION
 REGN.                   EESSA:  REGION
 PROV.                    Baku:  PROVINCE
 STAT.                    Baku:  STATE NAME
 MWDS.                    Baku:  MWD SHOP
 DOE .                     N/A:  DOE NUMBER
 DCON.         Sperry Drilling:  DIRECTNL CONTR
 UNIT.                     N/A:  LOGGING EQUIPMENT ID
 WTYP.                Deviated:  WELL TYPE
 CNTY.                        :  COUNTY
 LOC .                        :  LOCATION
 LMF .             Drill Floor:  LOG MEASURED FROM
 TVDS.m                  43.60:  TVDSS CORRECTN
 LATI.deg                40.02:  LATITUDE
 LONG.deg                51.45:  LONGITUDE
 WHNS.m                  -7.04:  WELL HEAD N/S
 WHEW.m                  -0.67:  WELL HEAD E/W
 UTMX.m              538762.90:  UTM X
 UTMY.m             4431871.34:  UTM Y
 DFWL.m                   0.00:  DISTANCE FWL
 DFSL.m                   0.00:  DISTANCE FSL
 SDEP.m                4127.00:  START DEPTH
 TDD .m                5084.50:  TOTAL DEPTH (DRILLER)
 VSDR.deg               140.47:  VERT SEC DIRECT
 GVFD.g                   1.00:  GRAVITY FIELD
 MFLD.nT              50362.00:  MAGNETIC FIELD
 MDIP.deg                59.48:  MAGNETIC DIP
 MDEC.deg                 6.47:  MAGNETIC DECL
 GRDC.deg                 0.31:  GRID CORRECTION
 AZTC.deg                 6.16:  AZM TOTAL CORR
 EPD .m                   0.00:  ELEVATION
 EGL .m                   0.00:  GROUND ELEVATION
 WDMS.m                 151.80:  WD ELEV
 APD .m                  43.60:  DEPTH ABOVE PD
 DEP .m                4092.57:  DEPTH
 AGAP.m                  43.60:  AIR GAP
 VSEW.m                  -0.67:  VERT SEC E/W
 VSNS.m                  -7.04:  VERT SEC N/S
 EKB .m                  43.60:  KB ELEVATION
 EDF .m                  43.60:  DF ELEVATION
 TDL .m                 957.50:  TOTAL DEPTH (LOGGER)
 VSC .                       0:  VS TO CLOSURE
 MAGU.                 1851413:  MAGUTM CHECKSUM
~Parameter Information Block
#MNEM.UNIT       Value        Description
#---------     -----------    ---------------------------
 AV  .mps                 1.50:  Ann Velocity 
 AVMX.mps                 2.00:  Max Ann Veloc 
 AZIF.deg               184.66:  Azm, Final 
 BHAT.        Rotary Steerable:  BHA Type 
 BREV.rev               300.00:  Rev Bit Total 
 BROT.°/30m              -0.50:  Build Rotating 
 BS  .in                  8.50:  Bit Size 
 BSZ .in                  8.50:  Bit Size 
 BTPL.psig              370.00:  Bit Press Loss 
 CABU.                      No:  Customer Abuse 
 CGEO.      Behruz Shahbaliyev:  Customer Geo 
 COMM.                     Ìu:  Run Comments 1 
 TCS .hr                140.08:  Time Ciculation Ended 
 CV  .mps                 3.00:  Crit Velocity 
 CVMX.mps                 3.20:  Max Crit Veloc 
 DD1 .            Musa Ahmadov:  Direct Drillr 1 
 DD2 .           Hamid Ahmadov:  Direct Drillr 2 
 DDSV.               Geo-Pilot:  DD Service 
 DEFF.%                  98.40:  % Det Eff 
 DLRX.°/30m               3.40:  Dogleg Rot Max 
 DLSO.°/30m               1.45:  Dogleg Oriented 
 DLSX.°/30m               3.40:  Dogleg Str Max 
 DRET.      18.40.00 29-Aug-21:  Drill End Time 
 DRST.      21.00.00 20-Aug-21:  Drill Start Tim 
 DTIM.hr                 69.47:  Time Drilling 
 EDEP.m                5084.50:  End Depth 
 ENG1.      Artemiy Matviyanov:  Engineer 1 
 ENG2.         Almaz Almadatov:  Engineer 2 
 ETIM.      18.40.00 29-Aug-21:  End Time 
 FLOI.gpm               500.00:  Flow In 
 FLON.gpm               400.00:  Flow In Min 
 FLOS.cptm                0.00:  Fluid Loss 
 FLOX.gpm               500.00:  Flow In Max 
 DFT .        Mineral Oil Base:  Mud Type 
 HFLO.                      No:  High Flow 
 HPRE.                      No:  High Pressure 
 HTEM.                      No:  High Temp 
 HYDO.m                   1.80:  Hydro Offset 
 IFIN.deg                25.62:  Inc, Final 
 IMAX.deg                48.69:  Inc Max 
 IMIN.deg                24.01:  Inc Min 
 IMND.m                4962.57:  Inc Min Depth 
 IMXD.m                4119.01:  Inc Max Depth 
 JARR.                      No:  Jarring 
 LETM.      18.40.00 29-Aug-21:  Log End Time 
 LOST.hr                     0:  Lost Rig Time 
 LSTM.      21.00.00 20-Aug-21:  Log Start Time 
 MDCL.ppm             41500.00:  Mud Chlorides 
 MDES.     Inversion Oil/Synthetic:  Mud Desc 
 DFD .sg                  1.56:  Mud Density 
 MDMN.sg                  1.56:  Dens Mud Min 
 MDMX.sg                  1.56:  Dens Mud Max 
 MOIL.                      70:  Run Mud Oil % 
 MOWR.                   70:30:  Run Mud OWR 
 MSND.                     0.2:  Run Mud Sand % 
 MSOL.                    23.3:  Run Mud Solids% 
 DFV .spqt               78.00:  Mud Viscosity 
 MWOD.in                  6.75:  MWD Tool OD 
 MWSI.                      No:  Serv Intrp, MWD 
 OTIM.hr                218.30:  Time Operating 
 PCON.           Look Like New:  Pad Condition 
 PMAX.psia            11015.30:  Press Op, Max 
 PV  .cP                 38.00:  Mud PV 
 RUN .                     300:  Run Number 
 ROPA.m/hr               15.00:  ROP Avg 
 ROPN.m/hr                9.00:  ROP Min 
 ROPX.m/hr               17.00:  ROP Max 
 RPMA.rpm               120.00:  RPM Surface Avg 
 RPMN.rpm                90.00:  RPM Surface Min 
 RPMX.rpm               140.00:  RPM Surface Max 
 RRUN.                     300:  Rig Run Number 
 RTIM.hr                 31.53:  Time Reaming 
 SAZI.deg               331.64:  Azm, Start 
 SDEP.m                4127.00:  Start Depth 
 SIDD.                      No:  Serv Intrp, DD 
 SINC.deg                48.43:  Inc, Start 
 SPPA.psig             5830.00:  SPP Avg 
 SPPN.psig             5600.00:  SPP Min 
 SPPX.psig             5900.00:  SPP Max 
 STIM.      21.00.00 20-Aug-21:  Start Time 
 SVCS.                 DD, MWD:  Services 
 SVER.                    9.20:  Sperry Version 
 TDAT.m                 957.50:  Tot Depth Attmp 
 TDDF.                      No:  Trip for DD 
 TDLG.m                 957.50:  Tot Depth Loggd 
 TFF .                      No:  Trip for Fail 
 TQAA.f-kp               15.00:  Torque Abs Avg 
 TQAN.f-kp               12.00:  Torque Abs Min 
 TQAX.f-kp               19.00:  Torque Abs Max 
 TRRT.°/30m              -3.40:  Turn Rotating 
 MRT .                  EWR-M5:  Maximum Recorded Temperature 
 TTMX.degC              100.00:  Max Tool Temp 
 VS01.                90639251:  Virtual Str1 SN 
 VS02.                90634715:  Virtual Str2 SN 
 VS03.                90652479:  Virtual Str3 SN 
 VS04.                90642262:  Virtual Str4 SN 
 WBMN.klb                 0.00:  WOB Min 
 WITN.           Murad Guliyev:  Customer Rep 
 WITN.          Yashar Gaziyev:  Customer Rep 2 
 WOBA.klb                 9.00:  WOB Avg 
 WOBX.klb                12.00:  WOB Max 
 YP  .lhf2               30.00:  Yield Point 
~Curve Information Block
#MNEM.UNIT                 API CODE     Curve Description
#---------               -----------    ---------------------------
 TIME.HHMMSS            00 000 000 000:  GT Time & Date
 GTDEPTH.m              00 000 000 000:  GT Depth
 GTPQH.psia             00 000 000 000:  GT HR Quartz Pressure
 GTTQ.degC              00 000 000 000:  GT Quartz Temperature
 GTTN.NONE              00 000 000 000:  GT Test Number
 GTET.sec               00 000 000 000:  GT Elapsed Test Time
 GTTVD.m                00 000 000 000:  GT True Vertical Depth
#Other Information
#
#WARRANTY: Halliburton will use its best efforts to furnish customers with 
#accurate information and interpretations that are part of, and incident to, the services 
#provided.  However, Halliburton cannot and does not warrant the accuracy 
#or correctness of such information and interpretations.  Under no circumstances should any 
#such information or interpretation be relied upon as the sole basis for any drilling, 
#completion, production, or financial decision or any procedure involving any risk to the 
#safety of any drilling venture, drilling rig or its crew or any other third party.  The 
#Customer has full responsibility for all drilling, completion and production operation.  
#Halliburton makes no representations or warranties, either expressed or 
#implied, including, but not limited to, the implied warranties of merchantability or fitness 
#for a particular purpose, with respect to the services rendered.  In no event will 
#Halliburton be liable for failure to obtain any particular results or for 
#any damages, including, but not limited to, indirect, special or consequential damages, 
#resulting from the use of any information or interpretation provided by Halliburton.
#
~A           TIME           GTDEPTH  GTPQH  GTTQ  GTTN   GTET   GTTVD  
# ...
   15:52:56.043.27-Aug-2021 4817.00 7783.90 83.72 16.00  45.27 3173.43
   15:52:56.243.27-Aug-2021 4817.00 7785.36 83.72 16.00  45.47 3173.43
   15:52:56.444.27-Aug-2021 4817.00 7790.10 83.72 16.00  45.67 3173.43
   15:52:56.644.27-Aug-2021 4817.00 7795.03 83.72 16.00  45.87 3173.43
   15:52:56.844.27-Aug-2021 4817.00 7785.63 83.72 16.00  46.07 3173.43
   15:52:57.045.27-Aug-2021 4817.00 7785.63 83.72 16.00  46.27 3173.43
   15:52:57.245.27-Aug-2021 4817.00 7771.42 83.72 16.00  46.47 3173.43
   15:52:57.445.27-Aug-2021 4817.00 7753.76 83.72 16.00  46.67 3173.43
   15:52:57.646.27-Aug-2021 4817.00 7747.05 83.72 16.00  46.87 3173.43
   15:52:57.846.27-Aug-2021 4817.00 7738.89 83.72 16.00  47.07 3173.43
   15:52:58.046.27-Aug-2021 4817.00 7738.89 83.72 16.00  47.28 3173.43
   15:52:58.247.27-Aug-2021 4817.00 7719.64 83.72 16.00  47.48 3173.43
   15:52:58.447.27-Aug-2021 4817.00 7713.05 83.72 16.00  47.68 3173.43
   15:52:58.647.27-Aug-2021 4817.00 7709.18 83.72 16.00  47.88 3173.43
   15:52:58.847.27-Aug-2021 4817.00 7700.24 83.72 16.00  48.08 3173.43
   15:52:59.048.27-Aug-2021 4817.00 7700.24 83.72 16.00  48.28 3173.43
   15:52:59.248.27-Aug-2021 4817.00 7666.31 83.72 16.00  48.48 3173.43
   15:52:59.448.27-Aug-2021 4817.00 7647.31 83.72 16.00  48.68 3173.43
   15:52:59.649.27-Aug-2021 4817.00 7624.61 83.72 16.00  48.88 3173.43
   15:52:59.849.27-Aug-2021 4817.00 7597.54 83.72 16.00  49.08 3173.43
   15:53:00.049.27-Aug-2021 4817.00 7597.54 83.72 16.00  49.28 3173.43
   15:53:00.250.27-Aug-2021 4817.00 7529.90 83.72 16.00  49.48 3173.43
   15:53:00.450.27-Aug-2021 4817.00 7488.08 83.72 16.00  49.68 3173.43
   15:53:00.650.27-Aug-2021 4817.00 7445.44 83.72 16.00  49.88 3173.43
   15:53:00.851.27-Aug-2021 4817.00 7383.95 83.71 16.00  50.08 3173.43
   15:53:01.051.27-Aug-2021 4817.00 7383.95 83.71 16.00  50.28 3173.43
   15:53:01.251.27-Aug-2021 4817.00 7264.48 83.71 16.00  50.48 3173.43
   15:53:01.452.27-Aug-2021 4817.00 7196.63 83.71 16.00  50.68 3173.43
   15:53:01.652.27-Aug-2021 4817.00 7129.26 83.71 16.00  50.88 3173.43
   15:53:01.852.27-Aug-2021 4817.00 7044.83 83.71 16.00  51.08 3173.43
   15:53:02.053.27-Aug-2021 4817.00 7044.83 83.71 16.00  51.28 3173.43
   15:53:02.253.27-Aug-2021 4817.00 6886.82 83.71 16.00  51.48 3173.43
   15:53:02.453.27-Aug-2021 4817.00 6838.00 83.71 16.00  51.68 3173.43
   15:53:02.654.27-Aug-2021 4817.00 6767.96 83.71 16.00  51.88 3173.43
   15:53:02.854.27-Aug-2021 4817.00 6697.23 83.71 16.00  52.08 3173.43
   15:53:03.054.27-Aug-2021 4817.00 6697.23 83.71 16.00  52.28 3173.43
   15:53:03.254.27-Aug-2021 4817.00 6430.42 83.71 16.00  52.48 3173.43
   15:53:03.455.27-Aug-2021 4817.00 6274.90 83.71 16.00  52.68 3173.43
   15:53:03.655.27-Aug-2021 4817.00 6133.32 83.71 16.00  52.88 3173.43
   15:53:03.855.27-Aug-2021 4817.00 5994.50 83.71 16.00  53.08 3173.43
   15:53:04.056.27-Aug-2021 4817.00 5994.50 83.71 16.00  53.28 3173.43
   15:53:04.256.27-Aug-2021 4817.00 5545.21 83.70 16.00  53.49 3173.43
   15:53:04.456.27-Aug-2021 4817.00 5368.58 83.70 16.00  53.69 3173.43
   15:53:04.657.27-Aug-2021 4817.00 5240.15 83.70 16.00  53.89 3173.43
   15:53:04.857.27-Aug-2021 4817.00 5207.22 83.70 16.00  54.09 3173.43
   15:53:05.057.27-Aug-2021 4817.00 5207.22 83.70 16.00  54.29 3173.43
   15:53:05.258.27-Aug-2021 4817.00 5208.15 83.70 16.00  54.49 3173.43
   15:53:05.458.27-Aug-2021 4817.00 5218.24 83.69 16.00  54.69 3173.43
   15:53:05.658.27-Aug-2021 4817.00 5226.65 83.69 16.00  54.89 3173.43
   15:53:05.859.27-Aug-2021 4817.00 5229.60 83.69 16.00  55.09 3173.43
   15:53:06.059.27-Aug-2021 4817.00 5229.60 83.69 16.00  55.29 3173.43
   15:53:06.259.27-Aug-2021 4817.00 5232.04 83.69 16.00  55.49 3173.43
   15:53:06.460.27-Aug-2021 4817.00 5231.99 83.68 16.00  55.69 3173.43
   15:53:06.660.27-Aug-2021 4817.00 5231.89 83.68 16.00  55.89 3173.43
   15:53:06.860.27-Aug-2021 4817.00 5231.77 83.68 16.00  56.09 3173.43
   15:53:07.061.27-Aug-2021 4817.00 5231.77 83.68 16.00  56.29 3173.43
   15:53:07.261.27-Aug-2021 4817.00 5230.94 83.68 16.00  56.49 3173.43
   15:53:07.461.27-Aug-2021 4817.00 5230.61 83.68 16.00  56.69 3173.43
   15:53:07.661.27-Aug-2021 4817.00 5230.96 83.67 16.00  56.89 3173.43
   15:53:07.862.27-Aug-2021 4817.00 5231.12 83.67 16.00  57.09 3173.43
   15:53:08.062.27-Aug-2021 4817.00 5231.12 83.67 16.00  57.29 3173.43
   15:53:08.262.27-Aug-2021 4817.00 5229.64 83.67 16.00  57.49 3173.43
   15:53:08.463.27-Aug-2021 4817.00 5216.16 83.67 16.00  57.69 3173.43
   15:53:08.663.27-Aug-2021 4817.00 5051.27 83.67 16.00  57.89 3173.43
   15:53:08.863.27-Aug-2021 4817.00 5020.43 83.66 16.00  58.09 3173.43
   15:53:09.064.27-Aug-2021 4817.00 5020.43 83.66 16.00  58.29 3173.43
   15:53:09.264.27-Aug-2021 4817.00 5034.50 83.66 16.00  58.49 3173.43
   15:53:09.464.27-Aug-2021 4817.00 5042.26 83.66 16.00  58.69 3173.43
   15:53:09.665.27-Aug-2021 4817.00 5050.72 83.66 16.00  58.89 3173.43
   15:53:09.865.27-Aug-2021 4817.00 5053.39 83.66 16.00  59.09 3173.43
   15:53:10.065.27-Aug-2021 4817.00 5053.39 83.66 16.00  59.29 3173.43
   15:53:10.266.27-Aug-2021 4817.00 5062.52 83.65 16.00  59.49 3173.43
   15:53:10.466.27-Aug-2021 4817.00 5071.59 83.65 16.00  59.69 3173.43
   15:53:10.666.27-Aug-2021 4817.00 5079.89 83.65 16.00  59.90 3173.43
   15:53:10.867.27-Aug-2021 4817.00 5104.35 83.65 16.00  60.10 3173.43
   15:53:11.067.27-Aug-2021 4817.00 5104.35 83.65 16.00  60.30 3173.43
   15:53:11.267.27-Aug-2021 4817.00 5119.34 83.65 16.00  60.50 3173.43
   15:53:11.468.27-Aug-2021 4817.00 5117.81 83.65 16.00  60.70 3173.43
   15:53:11.668.27-Aug-2021 4817.00 5117.71 83.65 16.00  60.90 3173.43
   15:53:11.868.27-Aug-2021 4817.00 5117.15 83.64 16.00  61.10 3173.43
   15:53:12.068.27-Aug-2021 4817.00 5117.15 83.64 16.00  61.30 3173.43
   15:53:12.269.27-Aug-2021 4817.00 5120.13 83.64 16.00  61.50 3173.43
   15:53:12.469.27-Aug-2021 4817.00 5119.58 83.64 16.00  61.70 3173.43
   15:53:12.669.27-Aug-2021 4817.00 5119.26 83.64 16.00  61.90 3173.43
   15:53:12.870.27-Aug-2021 4817.00 5119.96 83.64 16.00  62.10 3173.43
   15:53:13.070.27-Aug-2021 4817.00 5119.96 83.64 16.00  62.30 3173.43
   15:53:13.270.27-Aug-2021 4817.00 5120.62 83.64 16.00  62.50 3173.43
   15:53:13.471.27-Aug-2021 4817.00 5120.70 83.64 16.00  62.70 3173.43
   15:53:13.671.27-Aug-2021 4817.00 5121.26 83.64 16.00  62.90 3173.43
   15:53:13.871.27-Aug-2021 4817.00 5120.74 83.64 16.00  63.10 3173.43
   15:53:14.072.27-Aug-2021 4817.00 5120.74 83.64 16.00  63.30 3173.43
   15:53:14.272.27-Aug-2021 4817.00 5121.39 83.64 16.00  63.50 3173.43
   15:53:14.472.27-Aug-2021 4817.00 5121.15 83.64 16.00  63.70 3173.43
   15:53:14.673.27-Aug-2021 4817.00 5120.75 83.63 16.00  63.90 3173.43
   15:53:14.873.27-Aug-2021 4817.00 5121.72 83.63 16.00  64.10 3173.43
   15:53:15.073.27-Aug-2021 4817.00 5121.72 83.63 16.00  64.30 3173.43
   15:53:15.274.27-Aug-2021 4817.00 5121.09 83.63 16.00  64.50 3173.43
   15:53:15.474.27-Aug-2021 4817.00 5122.27 83.63 16.00  64.70 3173.43
   15:53:15.674.27-Aug-2021 4817.00 5122.22 83.63 16.00  64.90 3173.43
   15:53:15.875.27-Aug-2021 4817.00 5122.59 83.63 16.00  65.10 3173.43
   15:53:16.075.27-Aug-2021 4817.00 5122.59 83.63 16.00  65.30 3173.43
   15:53:16.275.27-Aug-2021 4817.00 5120.18 83.63 16.00  65.50 3173.43
   15:53:16.475.27-Aug-2021 4817.00 5121.87 83.63 16.00  65.70 3173.43
   15:53:16.676.27-Aug-2021 4817.00 5121.42 83.63 16.00  65.90 3173.43
   15:53:16.876.27-Aug-2021 4817.00 5122.98 83.63 16.00  66.11 3173.43
   15:53:17.076.27-Aug-2021 4817.00 5122.98 83.63 16.00  66.31 3173.43
   15:53:17.277.27-Aug-2021 4817.00 5122.52 83.63 16.00  66.51 3173.43
   15:53:17.477.27-Aug-2021 4817.00 5123.13 83.63 16.00  66.71 3173.43
   15:53:17.677.27-Aug-2021 4817.00 5122.98 83.63 16.00  66.91 3173.43
   15:53:17.878.27-Aug-2021 4817.00 5121.78 83.63 16.00  67.11 3173.43
   15:53:18.078.27-Aug-2021 4817.00 5121.78 83.63 16.00  67.31 3173.43
   15:53:18.278.27-Aug-2021 4817.00 5140.76 83.63 16.00  67.51 3173.43
   15:53:18.479.27-Aug-2021 4817.00 5221.11 83.63 16.00  67.71 3173.43
