~Version Information
 VERS.                  2.0:   CWLS log ASCII Standard -VERSION 2.0
 WRAP.                   NO:   One line per depth step
~Well Information Block
#MNEM.UNIT     VALUE/NAME     DESCRIPTION
#---------     -----------    ---------------------------
 STRT.S             21:24:04 27-Aug-21: START TIME 21:24:04 27-Aug-21
 STOP.S             21:30:54 27-Aug-21: STOP TIME  21:30:54 27-Aug-21
 STEP.S                   0.00: STEP TIME
 NULL.                 -999.25: NULL VALUE
 DFWT.                        :  DIST FWL TEXT
 DFST.                        :  DIST FSL TEXT
 DMF .             Drill Floor:  DRILL MEAS FROM
 STIM.      20.00.00 17-Aug-21:  START TIME
 DATE.      19.00.00 29-Aug-21:  END TIME
 SPUD.               15-Aug-21:  SPUD DATE
 NREF.                    Grid:  NORTH REFERENCE
 HPTY.       Minimum Curvature:  HOLE POS TYPE
 DMOD.             Drill Model:  DRILL MOD DESC
 SVYD.                  Survey:  SURVEY DESC
 ILTD.               Lithology:  INTERP LTH DESC
 FTOP.          Formation Tops:  FORM TOPS DESC
 RIG .              East Azeri:  RIG NAME
 PDAT.          Mean Sea Level:  PERMANENT DATUM
 FLD .                     ACG:  FIELD NAME
 SON .        AZ-XX-0907180857:  JOB NUMBER
 CTRY.              Azerbaijan:  COUNTRY NAME
 WELL.                    D23x:  WELL NAME
 SRVC.     Turan Drilling and Engineering:  CONTRACTOR
 COMP.     BP Exploration (Caspian Sea) Ltd.:  COMPANY
 UWI .            /AZE00000214:  UNIQUE WELL IDENTIFIER
 API .            /AZE00000214:  API NUMBER
 MDS .        Operator Entered:  MAG DATA SOURCE
 BASE.              Azerbaijan:  LOGGING EQUIPMENT BASE LOCATION
 REGN.                   EESSA:  REGION
 PROV.                    Baku:  PROVINCE
 STAT.                    Baku:  STATE NAME
 MWDS.                    Baku:  MWD SHOP
 DOE .                     N/A:  DOE NUMBER
 DCON.         Sperry Drilling:  DIRECTNL CONTR
 UNIT.                     N/A:  LOGGING EQUIPMENT ID
 WTYP.                Deviated:  WELL TYPE
 CNTY.                        :  COUNTY
 LOC .                        :  LOCATION
 LMF .             Drill Floor:  LOG MEASURED FROM
 TVDS.m                  43.60:  TVDSS CORRECTN
 LATI.deg                40.02:  LATITUDE
 LONG.deg                51.45:  LONGITUDE
 WHNS.m                  -7.04:  WELL HEAD N/S
 WHEW.m                  -0.67:  WELL HEAD E/W
 UTMX.m              538762.90:  UTM X
 UTMY.m             4431871.34:  UTM Y
 DFWL.m                   0.00:  DISTANCE FWL
 DFSL.m                   0.00:  DISTANCE FSL
 SDEP.m                4127.00:  START DEPTH
 TDD .m                5084.50:  TOTAL DEPTH (DRILLER)
 VSDR.deg               140.47:  VERT SEC DIRECT
 GVFD.g                   1.00:  GRAVITY FIELD
 MFLD.nT              50362.00:  MAGNETIC FIELD
 MDIP.deg                59.48:  MAGNETIC DIP
 MDEC.deg                 6.47:  MAGNETIC DECL
 GRDC.deg                 0.31:  GRID CORRECTION
 AZTC.deg                 6.16:  AZM TOTAL CORR
 EPD .m                   0.00:  ELEVATION
 EGL .m                   0.00:  GROUND ELEVATION
 WDMS.m                 151.80:  WD ELEV
 APD .m                  43.60:  DEPTH ABOVE PD
 DEP .m                4092.57:  DEPTH
 AGAP.m                  43.60:  AIR GAP
 VSEW.m                  -0.67:  VERT SEC E/W
 VSNS.m                  -7.04:  VERT SEC N/S
 EKB .m                  43.60:  KB ELEVATION
 EDF .m                  43.60:  DF ELEVATION
 TDL .m                 957.50:  TOTAL DEPTH (LOGGER)
 VSC .                       0:  VS TO CLOSURE
 MAGU.                 1851413:  MAGUTM CHECKSUM
~Parameter Information Block
#MNEM.UNIT       Value        Description
#---------     -----------    ---------------------------
 AV  .mps                 1.50:  Ann Velocity 
 AVMX.mps                 2.00:  Max Ann Veloc 
 AZIF.deg               184.66:  Azm, Final 
 BHAT.        Rotary Steerable:  BHA Type 
 BREV.rev               300.00:  Rev Bit Total 
 BROT.°/30m              -0.50:  Build Rotating 
 BS  .in                  8.50:  Bit Size 
 BSZ .in                  8.50:  Bit Size 
 BTPL.psig              370.00:  Bit Press Loss 
 CABU.                      No:  Customer Abuse 
 CGEO.      Behruz Shahbaliyev:  Customer Geo 
 COMM.                     tºv:  Run Comments 1 
 TCS .hr                140.08:  Time Ciculation Ended 
 CV  .mps                 3.00:  Crit Velocity 
 CVMX.mps                 3.20:  Max Crit Veloc 
 DD1 .            Musa Ahmadov:  Direct Drillr 1 
 DD2 .           Hamid Ahmadov:  Direct Drillr 2 
 DDSV.               Geo-Pilot:  DD Service 
 DEFF.%                  98.40:  % Det Eff 
 DLRX.°/30m               3.40:  Dogleg Rot Max 
 DLSO.°/30m               1.45:  Dogleg Oriented 
 DLSX.°/30m               3.40:  Dogleg Str Max 
 DRET.      18.40.00 29-Aug-21:  Drill End Time 
 DRST.      21.00.00 20-Aug-21:  Drill Start Tim 
 DTIM.hr                 69.47:  Time Drilling 
 EDEP.m                5084.50:  End Depth 
 ENG1.      Artemiy Matviyanov:  Engineer 1 
 ENG2.         Almaz Almadatov:  Engineer 2 
 ETIM.      18.40.00 29-Aug-21:  End Time 
 FLOI.gpm               500.00:  Flow In 
 FLON.gpm               400.00:  Flow In Min 
 FLOS.cptm                0.00:  Fluid Loss 
 FLOX.gpm               500.00:  Flow In Max 
 DFT .        Mineral Oil Base:  Mud Type 
 HFLO.                      No:  High Flow 
 HPRE.                      No:  High Pressure 
 HTEM.                      No:  High Temp 
 HYDO.m                   1.80:  Hydro Offset 
 IFIN.deg                25.62:  Inc, Final 
 IMAX.deg                48.69:  Inc Max 
 IMIN.deg                24.01:  Inc Min 
 IMND.m                4962.57:  Inc Min Depth 
 IMXD.m                4119.01:  Inc Max Depth 
 JARR.                      No:  Jarring 
 LETM.      18.40.00 29-Aug-21:  Log End Time 
 LOST.hr                     0:  Lost Rig Time 
 LSTM.      21.00.00 20-Aug-21:  Log Start Time 
 MDCL.ppm             41500.00:  Mud Chlorides 
 MDES.     Inversion Oil/Synthetic:  Mud Desc 
 DFD .sg                  1.56:  Mud Density 
 MDMN.sg                  1.56:  Dens Mud Min 
 MDMX.sg                  1.56:  Dens Mud Max 
 MOIL.                      70:  Run Mud Oil % 
 MOWR.                   70:30:  Run Mud OWR 
 MSND.                     0.2:  Run Mud Sand % 
 MSOL.                    23.3:  Run Mud Solids% 
 DFV .spqt               78.00:  Mud Viscosity 
 MWOD.in                  6.75:  MWD Tool OD 
 MWSI.                      No:  Serv Intrp, MWD 
 OTIM.hr                218.30:  Time Operating 
 PCON.           Look Like New:  Pad Condition 
 PMAX.psia            11015.30:  Press Op, Max 
 PV  .cP                 38.00:  Mud PV 
 RUN .                     300:  Run Number 
 ROPA.m/hr               15.00:  ROP Avg 
 ROPN.m/hr                9.00:  ROP Min 
 ROPX.m/hr               17.00:  ROP Max 
 RPMA.rpm               120.00:  RPM Surface Avg 
 RPMN.rpm                90.00:  RPM Surface Min 
 RPMX.rpm               140.00:  RPM Surface Max 
 RRUN.                     300:  Rig Run Number 
 RTIM.hr                 31.53:  Time Reaming 
 SAZI.deg               331.64:  Azm, Start 
 SDEP.m                4127.00:  Start Depth 
 SIDD.                      No:  Serv Intrp, DD 
 SINC.deg                48.43:  Inc, Start 
 SPPA.psig             5830.00:  SPP Avg 
 SPPN.psig             5600.00:  SPP Min 
 SPPX.psig             5900.00:  SPP Max 
 STIM.      21.00.00 20-Aug-21:  Start Time 
 SVCS.                 DD, MWD:  Services 
 SVER.                    9.20:  Sperry Version 
 TDAT.m                 957.50:  Tot Depth Attmp 
 TDDF.                      No:  Trip for DD 
 TDLG.m                 957.50:  Tot Depth Loggd 
 TFF .                      No:  Trip for Fail 
 TQAA.f-kp               15.00:  Torque Abs Avg 
 TQAN.f-kp               12.00:  Torque Abs Min 
 TQAX.f-kp               19.00:  Torque Abs Max 
 TRRT.°/30m              -3.40:  Turn Rotating 
 MRT .                  EWR-M5:  Maximum Recorded Temperature 
 TTMX.degC              100.00:  Max Tool Temp 
 VS01.                90639251:  Virtual Str1 SN 
 VS02.                90634715:  Virtual Str2 SN 
 VS03.                90652479:  Virtual Str3 SN 
 VS04.                90642262:  Virtual Str4 SN 
 WBMN.klb                 0.00:  WOB Min 
 WITN.           Murad Guliyev:  Customer Rep 
 WITN.          Yashar Gaziyev:  Customer Rep 2 
 WOBA.klb                 9.00:  WOB Avg 
 WOBX.klb                12.00:  WOB Max 
 YP  .lhf2               30.00:  Yield Point 
~Curve Information Block
#MNEM.UNIT                 API CODE     Curve Description
#---------               -----------    ---------------------------
 TIME.HHMMSS            00 000 000 000:  GT Time & Date
 GTDEPTH.m              00 000 000 000:  GT Depth
 GTPQH.psia             00 000 000 000:  GT HR Quartz Pressure
 GTTQ.degC              00 000 000 000:  GT Quartz Temperature
 GTTN.NONE              00 000 000 000:  GT Test Number
 GTET.sec               00 000 000 000:  GT Elapsed Test Time
 GTTVD.m                00 000 000 000:  GT True Vertical Depth
#Other Information
#
#WARRANTY: Halliburton will use its best efforts to furnish customers with 
#accurate information and interpretations that are part of, and incident to, the services 
#provided.  However, Halliburton cannot and does not warrant the accuracy 
#or correctness of such information and interpretations.  Under no circumstances should any 
#such information or interpretation be relied upon as the sole basis for any drilling, 
#completion, production, or financial decision or any procedure involving any risk to the 
#safety of any drilling venture, drilling rig or its crew or any other third party.  The 
#Customer has full responsibility for all drilling, completion and production operation.  
#Halliburton makes no representations or warranties, either expressed or 
#implied, including, but not limited to, the implied warranties of merchantability or fitness 
#for a particular purpose, with respect to the services rendered.  In no event will 
#Halliburton be liable for failure to obtain any particular results or for 
#any damages, including, but not limited to, indirect, special or consequential damages, 
#resulting from the use of any information or interpretation provided by Halliburton.
#
~A           TIME           GTDEPTH  GTPQH  GTTQ  GTTN   GTET   GTTVD  
# ...
   21:30:28.491.27-Aug-2021 4641.00 7241.66 82.61 23.00 384.24 3014.10
   21:30:28.691.27-Aug-2021 4641.00 7241.27 82.61 23.00 384.44 3014.10
   21:30:28.891.27-Aug-2021 4641.00 7241.52 82.61 23.00 384.64 3014.10
   21:30:29.091.27-Aug-2021 4641.00 7241.45 82.61 23.00 384.84 3014.10
   21:30:29.291.27-Aug-2021 4641.00 7241.33 82.61 23.00 385.04 3014.10
   21:30:29.491.27-Aug-2021 4641.00 7241.33 82.61 23.00 385.24 3014.10
   21:30:29.691.27-Aug-2021 4641.00 7241.28 82.62 23.00 385.44 3014.10
   21:30:29.891.27-Aug-2021 4641.00 7241.11 82.62 23.00 385.64 3014.10
   21:30:30.091.27-Aug-2021 4641.00 7241.14 82.62 23.00 385.84 3014.10
   21:30:30.291.27-Aug-2021 4641.00 7241.16 82.62 23.00 386.04 3014.10
   21:30:30.491.27-Aug-2021 4641.00 7241.16 82.62 23.00 386.24 3014.10
   21:30:30.691.27-Aug-2021 4641.00 7242.06 82.62 23.00 386.44 3014.10
   21:30:30.891.27-Aug-2021 4641.00 7241.83 82.62 23.00 386.64 3014.10
   21:30:31.091.27-Aug-2021 4641.00 7242.11 82.62 23.00 386.84 3014.10
   21:30:31.291.27-Aug-2021 4641.00 7244.88 82.63 23.00 387.04 3014.10
   21:30:31.492.27-Aug-2021 4641.00 7244.88 82.63 23.00 387.24 3014.10
   21:30:31.692.27-Aug-2021 4641.00 7242.28 82.63 23.00 387.44 3014.10
   21:30:31.892.27-Aug-2021 4641.00 7241.65 82.63 23.00 387.64 3014.10
   21:30:32.092.27-Aug-2021 4641.00 7242.61 82.63 23.00 387.84 3014.10
   21:30:32.292.27-Aug-2021 4641.00 7242.42 82.63 23.00 388.04 3014.10
   21:30:32.492.27-Aug-2021 4641.00 7242.42 82.63 23.00 388.24 3014.10
   21:30:32.692.27-Aug-2021 4641.00 7242.80 82.63 23.00 388.44 3014.10
   21:30:32.892.27-Aug-2021 4641.00 7241.78 82.63 23.00 388.64 3014.10
   21:30:33.092.27-Aug-2021 4641.00 7242.19 82.63 23.00 388.84 3014.10
   21:30:33.292.27-Aug-2021 4641.00 7247.15 82.63 23.00 389.04 3014.10
   21:30:33.492.27-Aug-2021 4641.00 7247.15 82.63 23.00 389.24 3014.10
   21:30:33.692.27-Aug-2021 4641.00 7242.55 82.63 23.00 389.44 3014.10
   21:30:33.892.27-Aug-2021 4641.00 7241.87 82.63 23.00 389.64 3014.10
   21:30:34.092.27-Aug-2021 4641.00 7242.32 82.63 23.00 389.84 3014.10
   21:30:34.292.27-Aug-2021 4641.00 7243.26 82.63 23.00 390.04 3014.10
   21:30:34.492.27-Aug-2021 4641.00 7243.26 82.63 23.00 390.24 3014.10
   21:30:34.692.27-Aug-2021 4641.00 7242.27 82.63 23.00 390.44 3014.10
   21:30:34.892.27-Aug-2021 4641.00 7241.90 82.63 23.00 390.64 3014.10
   21:30:35.092.27-Aug-2021 4641.00 7242.18 82.63 23.00 390.84 3014.10
   21:30:35.292.27-Aug-2021 4641.00 7242.19 82.63 23.00 391.04 3014.10
   21:30:35.492.27-Aug-2021 4641.00 7242.19 82.63 23.00 391.24 3014.10
   21:30:35.692.27-Aug-2021 4641.00 7241.92 82.63 23.00 391.44 3014.10
   21:30:35.892.27-Aug-2021 4641.00 7241.90 82.63 23.00 391.64 3014.10
   21:30:36.092.27-Aug-2021 4641.00 7241.76 82.63 23.00 391.84 3014.10
   21:30:36.292.27-Aug-2021 4641.00 7241.62 82.63 23.00 392.04 3014.10
   21:30:36.492.27-Aug-2021 4641.00 7241.62 82.63 23.00 392.24 3014.10
   21:30:36.692.27-Aug-2021 4641.00 7240.67 82.63 23.00 392.44 3014.10
   21:30:36.892.27-Aug-2021 4641.00 7242.17 82.63 23.00 392.64 3014.10
   21:30:37.092.27-Aug-2021 4641.00 7242.03 82.63 23.00 392.84 3014.10
   21:30:37.292.27-Aug-2021 4641.00 7242.27 82.63 23.00 393.04 3014.10
   21:30:37.492.27-Aug-2021 4641.00 7242.27 82.63 23.00 393.24 3014.10
   21:30:37.692.27-Aug-2021 4641.00 7241.90 82.63 23.00 393.44 3014.10
   21:30:37.892.27-Aug-2021 4641.00 7242.11 82.63 23.00 393.64 3014.10
   21:30:38.092.27-Aug-2021 4641.00 7241.90 82.63 23.00 393.84 3014.10
   21:30:38.292.27-Aug-2021 4641.00 7241.98 82.63 23.00 394.04 3014.10
   21:30:38.492.27-Aug-2021 4641.00 7241.98 82.63 23.00 394.24 3014.10
   21:30:38.692.27-Aug-2021 4641.00 7241.94 82.63 23.00 394.44 3014.10
   21:30:38.892.27-Aug-2021 4641.00 7241.76 82.63 23.00 394.64 3014.10
   21:30:39.092.27-Aug-2021 4641.00 7241.78 82.63 23.00 394.84 3014.10
   21:30:39.292.27-Aug-2021 4641.00 7241.59 82.63 23.00 395.04 3014.10
   21:30:39.492.27-Aug-2021 4641.00 7241.59 82.63 23.00 395.24 3014.10
   21:30:39.692.27-Aug-2021 4641.00 7241.57 82.63 23.00 395.44 3014.10
   21:30:39.892.27-Aug-2021 4641.00 7246.60 82.63 23.00 395.64 3014.10
   21:30:40.092.27-Aug-2021 4641.00 7240.55 82.63 23.00 395.84 3014.10
   21:30:40.292.27-Aug-2021 4641.00 7241.91 82.63 23.00 396.04 3014.10
   21:30:40.492.27-Aug-2021 4641.00 7241.91 82.63 23.00 396.24 3014.10
   21:30:40.692.27-Aug-2021 4641.00 7246.81 82.62 23.00 396.44 3014.10
   21:30:40.892.27-Aug-2021 4641.00 7241.34 82.62 23.00 396.64 3014.10
   21:30:41.092.27-Aug-2021 4641.00 7241.94 82.62 23.00 396.84 3014.10
   21:30:41.293.27-Aug-2021 4641.00 7242.02 82.62 23.00 397.04 3014.10
   21:30:41.493.27-Aug-2021 4641.00 7242.02 82.62 23.00 397.24 3014.10
   21:30:41.693.27-Aug-2021 4641.00 7242.94 82.62 23.00 397.44 3014.10
   21:30:41.893.27-Aug-2021 4641.00 7245.42 82.62 23.00 397.64 3014.10
   21:30:42.093.27-Aug-2021 4641.00 7242.44 82.62 23.00 397.84 3014.10
   21:30:42.293.27-Aug-2021 4641.00 7241.90 82.62 23.00 398.04 3014.10
   21:30:42.493.27-Aug-2021 4641.00 7241.90 82.62 23.00 398.24 3014.10
   21:30:42.693.27-Aug-2021 4641.00 7246.90 82.62 23.00 398.44 3014.10
   21:30:42.893.27-Aug-2021 4641.00 7241.39 82.62 23.00 398.64 3014.10
   21:30:43.093.27-Aug-2021 4641.00 7242.40 82.62 23.00 398.84 3014.10
   21:30:43.293.27-Aug-2021 4641.00 7241.91 82.62 23.00 399.04 3014.10
   21:30:43.493.27-Aug-2021 4641.00 7241.91 82.62 23.00 399.24 3014.10
   21:30:43.693.27-Aug-2021 4641.00 7243.21 82.62 23.00 399.44 3014.10
   21:30:43.893.27-Aug-2021 4641.00 7242.24 82.62 23.00 399.64 3014.10
   21:30:44.093.27-Aug-2021 4641.00 7242.31 82.62 23.00 399.84 3014.10
   21:30:44.293.27-Aug-2021 4641.00 7242.05 82.62 23.00 400.04 3014.10
   21:30:44.493.27-Aug-2021 4641.00 7242.05 82.62 23.00 400.24 3014.10
   21:30:44.693.27-Aug-2021 4641.00 7242.28 82.62 23.00 400.44 3014.10
   21:30:44.893.27-Aug-2021 4641.00 7242.13 82.62 23.00 400.64 3014.10
   21:30:45.093.27-Aug-2021 4641.00 7241.85 82.62 23.00 400.84 3014.10
   21:30:45.293.27-Aug-2021 4641.00 7241.88 82.62 23.00 401.04 3014.10
   21:30:45.493.27-Aug-2021 4641.00 7241.88 82.62 23.00 401.24 3014.10
   21:30:45.693.27-Aug-2021 4641.00 7241.76 82.62 23.00 401.44 3014.10
   21:30:45.893.27-Aug-2021 4641.00 7246.61 82.61 23.00 401.64 3014.10
   21:30:46.093.27-Aug-2021 4641.00 7240.50 82.61 23.00 401.84 3014.10
   21:30:46.293.27-Aug-2021 4641.00 7242.06 82.61 23.00 402.04 3014.10
   21:30:46.493.27-Aug-2021 4641.00 7242.06 82.61 23.00 402.24 3014.10
   21:30:46.693.27-Aug-2021 4641.00 7242.32 82.61 23.00 402.44 3014.10
   21:30:46.893.27-Aug-2021 4641.00 7242.87 82.61 23.00 402.64 3014.10
   21:30:47.093.27-Aug-2021 4641.00 7241.92 82.61 23.00 402.84 3014.10
   21:30:47.293.27-Aug-2021 4641.00 7242.21 82.61 23.00 403.04 3014.10
   21:30:47.493.27-Aug-2021 4641.00 7242.21 82.61 23.00 403.24 3014.10
   21:30:47.693.27-Aug-2021 4641.00 7242.07 82.61 23.00 403.44 3014.10
   21:30:47.893.27-Aug-2021 4641.00 7242.16 82.61 23.00 403.64 3014.10
   21:30:48.093.27-Aug-2021 4641.00 7242.04 82.61 23.00 403.84 3014.10
   21:30:48.293.27-Aug-2021 4641.00 7241.87 82.61 23.00 404.04 3014.10
   21:30:48.493.27-Aug-2021 4641.00 7241.87 82.61 23.00 404.24 3014.10
   21:30:48.693.27-Aug-2021 4641.00 7241.63 82.61 23.00 404.44 3014.10
   21:30:48.893.27-Aug-2021 4641.00 7241.58 82.61 23.00 404.64 3014.10
   21:30:49.093.27-Aug-2021 4641.00 7241.60 82.61 23.00 404.84 3014.10
   21:30:49.293.27-Aug-2021 4641.00 7246.69 82.61 23.00 405.04 3014.10
   21:30:49.493.27-Aug-2021 4641.00 7246.69 82.61 23.00 405.24 3014.10
   21:30:49.693.27-Aug-2021 4641.00 7242.09 82.61 23.00 405.44 3014.10
   21:30:49.893.27-Aug-2021 4641.00 7242.01 82.61 23.00 405.64 3014.10
   21:30:50.093.27-Aug-2021 4641.00 7247.02 82.61 23.00 405.84 3014.10
   21:30:50.293.27-Aug-2021 4641.00 7241.54 82.61 23.00 406.04 3014.10
   21:30:50.493.27-Aug-2021 4641.00 7241.54 82.61 23.00 406.24 3014.10
   21:30:50.693.27-Aug-2021 4641.00 7242.73 82.61 23.00 406.44 3014.10
   21:30:50.893.27-Aug-2021 4641.00 7242.33 82.61 23.00 406.64 3014.10
