~Version Information
 VERS.                  2.0:   CWLS log ASCII Standard -VERSION 2.0
 WRAP.                   NO:   One line per depth step
~Well Information Block
#MNEM.UNIT     VALUE/NAME     DESCRIPTION
#---------     -----------    ---------------------------
 STRT.S             13:07:39 27-Aug-21: START TIME 13:07:39 27-Aug-21
 STOP.S             13:14:54 27-Aug-21: STOP TIME  13:14:54 27-Aug-21
 STEP.S                   0.00: STEP TIME
 NULL.                 -999.25: NULL VALUE
 DFWT.                        :  DIST FWL TEXT
 DFST.                        :  DIST FSL TEXT
 DMF .             Drill Floor:  DRILL MEAS FROM
 STIM.      20.00.00 17-Aug-21:  START TIME
 DATE.      19.00.00 29-Aug-21:  END TIME
 SPUD.               15-Aug-21:  SPUD DATE
 NREF.                    Grid:  NORTH REFERENCE
 HPTY.       Minimum Curvature:  HOLE POS TYPE
 DMOD.             Drill Model:  DRILL MOD DESC
 SVYD.                  Survey:  SURVEY DESC
 ILTD.               Lithology:  INTERP LTH DESC
 FTOP.          Formation Tops:  FORM TOPS DESC
 RIG .              East Azeri:  RIG NAME
 PDAT.          Mean Sea Level:  PERMANENT DATUM
 FLD .                     ACG:  FIELD NAME
 SON .        AZ-XX-0907180857:  JOB NUMBER
 CTRY.              Azerbaijan:  COUNTRY NAME
 WELL.                    D23x:  WELL NAME
 SRVC.     Turan Drilling and Engineering:  CONTRACTOR
 COMP.     BP Exploration (Caspian Sea) Ltd.:  COMPANY
 UWI .            /AZE00000214:  UNIQUE WELL IDENTIFIER
 API .            /AZE00000214:  API NUMBER
 MDS .        Operator Entered:  MAG DATA SOURCE
 BASE.              Azerbaijan:  LOGGING EQUIPMENT BASE LOCATION
 REGN.                   EESSA:  REGION
 PROV.                    Baku:  PROVINCE
 STAT.                    Baku:  STATE NAME
 MWDS.                    Baku:  MWD SHOP
 DOE .                     N/A:  DOE NUMBER
 DCON.         Sperry Drilling:  DIRECTNL CONTR
 UNIT.                     N/A:  LOGGING EQUIPMENT ID
 WTYP.                Deviated:  WELL TYPE
 CNTY.                        :  COUNTY
 LOC .                        :  LOCATION
 LMF .             Drill Floor:  LOG MEASURED FROM
 TVDS.m                  43.60:  TVDSS CORRECTN
 LATI.deg                40.02:  LATITUDE
 LONG.deg                51.45:  LONGITUDE
 WHNS.m                  -7.04:  WELL HEAD N/S
 WHEW.m                  -0.67:  WELL HEAD E/W
 UTMX.m              538762.90:  UTM X
 UTMY.m             4431871.34:  UTM Y
 DFWL.m                   0.00:  DISTANCE FWL
 DFSL.m                   0.00:  DISTANCE FSL
 SDEP.m                4127.00:  START DEPTH
 TDD .m                5084.50:  TOTAL DEPTH (DRILLER)
 VSDR.deg               140.47:  VERT SEC DIRECT
 GVFD.g                   1.00:  GRAVITY FIELD
 MFLD.nT              50362.00:  MAGNETIC FIELD
 MDIP.deg                59.48:  MAGNETIC DIP
 MDEC.deg                 6.47:  MAGNETIC DECL
 GRDC.deg                 0.31:  GRID CORRECTION
 AZTC.deg                 6.16:  AZM TOTAL CORR
 EPD .m                   0.00:  ELEVATION
 EGL .m                   0.00:  GROUND ELEVATION
 WDMS.m                 151.80:  WD ELEV
 APD .m                  43.60:  DEPTH ABOVE PD
 DEP .m                4092.57:  DEPTH
 AGAP.m                  43.60:  AIR GAP
 VSEW.m                  -0.67:  VERT SEC E/W
 VSNS.m                  -7.04:  VERT SEC N/S
 EKB .m                  43.60:  KB ELEVATION
 EDF .m                  43.60:  DF ELEVATION
 TDL .m                 957.50:  TOTAL DEPTH (LOGGER)
 VSC .                       0:  VS TO CLOSURE
 MAGU.                 1851413:  MAGUTM CHECKSUM
~Parameter Information Block
#MNEM.UNIT       Value        Description
#---------     -----------    ---------------------------
 AV  .mps                 1.50:  Ann Velocity 
 AVMX.mps                 2.00:  Max Ann Veloc 
 AZIF.deg               184.66:  Azm, Final 
 BHAT.        Rotary Steerable:  BHA Type 
 BREV.rev               300.00:  Rev Bit Total 
 BROT.°/30m              -0.50:  Build Rotating 
 BS  .in                  8.50:  Bit Size 
 BSZ .in                  8.50:  Bit Size 
 BTPL.psig              370.00:  Bit Press Loss 
 CABU.                      No:  Customer Abuse 
 CGEO.      Behruz Shahbaliyev:  Customer Geo 
 COMM.                     ¤R:  Run Comments 1 
 TCS .hr                140.08:  Time Ciculation Ended 
 CV  .mps                 3.00:  Crit Velocity 
 CVMX.mps                 3.20:  Max Crit Veloc 
 DD1 .            Musa Ahmadov:  Direct Drillr 1 
 DD2 .           Hamid Ahmadov:  Direct Drillr 2 
 DDSV.               Geo-Pilot:  DD Service 
 DEFF.%                  98.40:  % Det Eff 
 DLRX.°/30m               3.40:  Dogleg Rot Max 
 DLSO.°/30m               1.45:  Dogleg Oriented 
 DLSX.°/30m               3.40:  Dogleg Str Max 
 DRET.      18.40.00 29-Aug-21:  Drill End Time 
 DRST.      21.00.00 20-Aug-21:  Drill Start Tim 
 DTIM.hr                 69.47:  Time Drilling 
 EDEP.m                5084.50:  End Depth 
 ENG1.      Artemiy Matviyanov:  Engineer 1 
 ENG2.         Almaz Almadatov:  Engineer 2 
 ETIM.      18.40.00 29-Aug-21:  End Time 
 FLOI.gpm               500.00:  Flow In 
 FLON.gpm               400.00:  Flow In Min 
 FLOS.cptm                0.00:  Fluid Loss 
 FLOX.gpm               500.00:  Flow In Max 
 DFT .        Mineral Oil Base:  Mud Type 
 HFLO.                      No:  High Flow 
 HPRE.                      No:  High Pressure 
 HTEM.                      No:  High Temp 
 HYDO.m                   1.80:  Hydro Offset 
 IFIN.deg                25.62:  Inc, Final 
 IMAX.deg                48.69:  Inc Max 
 IMIN.deg                24.01:  Inc Min 
 IMND.m                4962.57:  Inc Min Depth 
 IMXD.m                4119.01:  Inc Max Depth 
 JARR.                      No:  Jarring 
 LETM.      18.40.00 29-Aug-21:  Log End Time 
 LOST.hr                     0:  Lost Rig Time 
 LSTM.      21.00.00 20-Aug-21:  Log Start Time 
 MDCL.ppm             41500.00:  Mud Chlorides 
 MDES.     Inversion Oil/Synthetic:  Mud Desc 
 DFD .sg                  1.56:  Mud Density 
 MDMN.sg                  1.56:  Dens Mud Min 
 MDMX.sg                  1.56:  Dens Mud Max 
 MOIL.                      70:  Run Mud Oil % 
 MOWR.                   70:30:  Run Mud OWR 
 MSND.                     0.2:  Run Mud Sand % 
 MSOL.                    23.3:  Run Mud Solids% 
 DFV .spqt               78.00:  Mud Viscosity 
 MWOD.in                  6.75:  MWD Tool OD 
 MWSI.                      No:  Serv Intrp, MWD 
 OTIM.hr                218.30:  Time Operating 
 PCON.           Look Like New:  Pad Condition 
 PMAX.psia            11015.30:  Press Op, Max 
 PV  .cP                 38.00:  Mud PV 
 RUN .                     300:  Run Number 
 ROPA.m/hr               15.00:  ROP Avg 
 ROPN.m/hr                9.00:  ROP Min 
 ROPX.m/hr               17.00:  ROP Max 
 RPMA.rpm               120.00:  RPM Surface Avg 
 RPMN.rpm                90.00:  RPM Surface Min 
 RPMX.rpm               140.00:  RPM Surface Max 
 RRUN.                     300:  Rig Run Number 
 RTIM.hr                 31.53:  Time Reaming 
 SAZI.deg               331.64:  Azm, Start 
 SDEP.m                4127.00:  Start Depth 
 SIDD.                      No:  Serv Intrp, DD 
 SINC.deg                48.43:  Inc, Start 
 SPPA.psig             5830.00:  SPP Avg 
 SPPN.psig             5600.00:  SPP Min 
 SPPX.psig             5900.00:  SPP Max 
 STIM.      21.00.00 20-Aug-21:  Start Time 
 SVCS.                 DD, MWD:  Services 
 SVER.                    9.20:  Sperry Version 
 TDAT.m                 957.50:  Tot Depth Attmp 
 TDDF.                      No:  Trip for DD 
 TDLG.m                 957.50:  Tot Depth Loggd 
 TFF .                      No:  Trip for Fail 
 TQAA.f-kp               15.00:  Torque Abs Avg 
 TQAN.f-kp               12.00:  Torque Abs Min 
 TQAX.f-kp               19.00:  Torque Abs Max 
 TRRT.°/30m              -3.40:  Turn Rotating 
 MRT .                  EWR-M5:  Maximum Recorded Temperature 
 TTMX.degC              100.00:  Max Tool Temp 
 VS01.                90639251:  Virtual Str1 SN 
 VS02.                90634715:  Virtual Str2 SN 
 VS03.                90652479:  Virtual Str3 SN 
 VS04.                90642262:  Virtual Str4 SN 
 WBMN.klb                 0.00:  WOB Min 
 WITN.           Murad Guliyev:  Customer Rep 
 WITN.          Yashar Gaziyev:  Customer Rep 2 
 WOBA.klb                 9.00:  WOB Avg 
 WOBX.klb                12.00:  WOB Max 
 YP  .lhf2               30.00:  Yield Point 
~Curve Information Block
#MNEM.UNIT                 API CODE     Curve Description
#---------               -----------    ---------------------------
 TIME.HHMMSS            00 000 000 000:  GT Time & Date
 GTDEPTH.m              00 000 000 000:  GT Depth
 GTPQH.psia             00 000 000 000:  GT HR Quartz Pressure
 GTTQ.degC              00 000 000 000:  GT Quartz Temperature
 GTTN.NONE              00 000 000 000:  GT Test Number
 GTET.sec               00 000 000 000:  GT Elapsed Test Time
 GTTVD.m                00 000 000 000:  GT True Vertical Depth
#Other Information
#
#WARRANTY: Halliburton will use its best efforts to furnish customers with 
#accurate information and interpretations that are part of, and incident to, the services 
#provided.  However, Halliburton cannot and does not warrant the accuracy 
#or correctness of such information and interpretations.  Under no circumstances should any 
#such information or interpretation be relied upon as the sole basis for any drilling, 
#completion, production, or financial decision or any procedure involving any risk to the 
#safety of any drilling venture, drilling rig or its crew or any other third party.  The 
#Customer has full responsibility for all drilling, completion and production operation.  
#Halliburton makes no representations or warranties, either expressed or 
#implied, including, but not limited to, the implied warranties of merchantability or fitness 
#for a particular purpose, with respect to the services rendered.  In no event will 
#Halliburton be liable for failure to obtain any particular results or for 
#any damages, including, but not limited to, indirect, special or consequential damages, 
#resulting from the use of any information or interpretation provided by Halliburton.
#
~A           TIME           GTDEPTH  GTPQH  GTTQ  GTTN   GTET   GTTVD  
# ...
   13:10:40.915.27-Aug-2021 4901.50 5051.35 84.96 13.00 180.98 3249.95
   13:10:41.115.27-Aug-2021 4901.50 5051.26 84.96 13.00 181.18 3249.95
   13:10:41.315.27-Aug-2021 4901.50 5051.26 84.96 13.00 181.38 3249.95
   13:10:41.516.27-Aug-2021 4901.50 5051.42 84.96 13.00 181.58 3249.95
   13:10:41.716.27-Aug-2021 4901.50 5051.38 84.96 13.00 181.78 3249.95
   13:10:41.916.27-Aug-2021 4901.50 5051.38 84.96 13.00 181.99 3249.95
   13:10:42.116.27-Aug-2021 4901.50 5051.41 84.96 13.00 182.19 3249.95
   13:10:42.316.27-Aug-2021 4901.50 5051.41 84.96 13.00 182.39 3249.95
   13:10:42.517.27-Aug-2021 4901.50 5051.43 84.96 13.00 182.59 3249.95
   13:10:42.717.27-Aug-2021 4901.50 5051.41 84.96 13.00 182.79 3249.95
   13:10:42.917.27-Aug-2021 4901.50 5051.40 84.96 13.00 182.99 3249.95
   13:10:43.117.27-Aug-2021 4901.50 5051.41 84.96 13.00 183.19 3249.95
   13:10:43.317.27-Aug-2021 4901.50 5051.41 84.96 13.00 183.39 3249.95
   13:10:43.518.27-Aug-2021 4901.50 5051.40 84.96 13.00 183.59 3249.95
   13:10:43.718.27-Aug-2021 4901.50 5051.40 84.96 13.00 183.79 3249.95
   13:10:43.918.27-Aug-2021 4901.50 5051.40 84.96 13.00 183.99 3249.95
   13:10:44.118.27-Aug-2021 4901.50 5051.38 84.96 13.00 184.19 3249.95
   13:10:44.318.27-Aug-2021 4901.50 5051.38 84.96 13.00 184.39 3249.95
   13:10:44.519.27-Aug-2021 4901.50 5051.38 84.96 13.00 184.59 3249.95
   13:10:44.719.27-Aug-2021 4901.50 5051.37 84.96 13.00 184.79 3249.95
   13:10:44.919.27-Aug-2021 4901.50 5051.38 84.96 13.00 184.99 3249.95
   13:10:45.119.27-Aug-2021 4901.50 5051.37 84.96 13.00 185.19 3249.95
   13:10:45.319.27-Aug-2021 4901.50 5051.37 84.96 13.00 185.39 3249.95
   13:10:45.520.27-Aug-2021 4901.50 5051.46 84.96 13.00 185.59 3249.95
   13:10:45.720.27-Aug-2021 4901.50 5051.42 84.96 13.00 185.79 3249.95
   13:10:45.920.27-Aug-2021 4901.50 5051.44 84.96 13.00 185.99 3249.95
   13:10:46.120.27-Aug-2021 4901.50 5051.42 84.96 13.00 186.19 3249.95
   13:10:46.321.27-Aug-2021 4901.50 5051.42 84.96 13.00 186.39 3249.95
   13:10:46.521.27-Aug-2021 4901.50 5051.42 84.96 13.00 186.59 3249.95
   13:10:46.721.27-Aug-2021 4901.50 5051.41 84.96 13.00 186.79 3249.95
   13:10:46.921.27-Aug-2021 4901.50 5051.42 84.96 13.00 186.99 3249.95
   13:10:47.121.27-Aug-2021 4901.50 5051.42 84.96 13.00 187.19 3249.95
   13:10:47.322.27-Aug-2021 4901.50 5051.42 84.96 13.00 187.39 3249.95
   13:10:47.522.27-Aug-2021 4901.50 5051.40 84.96 13.00 187.59 3249.95
   13:10:47.722.27-Aug-2021 4901.50 5051.41 84.96 13.00 187.79 3249.95
   13:10:47.922.27-Aug-2021 4901.50 5051.39 84.96 13.00 187.99 3249.95
   13:10:48.122.27-Aug-2021 4901.50 5051.40 84.96 13.00 188.19 3249.95
   13:10:48.323.27-Aug-2021 4901.50 5051.40 84.96 13.00 188.39 3249.95
   13:10:48.523.27-Aug-2021 4901.50 5051.32 84.96 13.00 188.59 3249.95
   13:10:48.723.27-Aug-2021 4901.50 5051.50 84.96 13.00 188.79 3249.95
   13:10:48.923.27-Aug-2021 4901.50 5051.46 84.96 13.00 188.99 3249.95
   13:10:49.123.27-Aug-2021 4901.50 5051.44 84.96 13.00 189.19 3249.95
   13:10:49.324.27-Aug-2021 4901.50 5051.44 84.96 13.00 189.39 3249.95
   13:10:49.524.27-Aug-2021 4901.50 5051.44 84.96 13.00 189.59 3249.95
   13:10:49.724.27-Aug-2021 4901.50 5051.42 84.96 13.00 189.79 3249.95
   13:10:49.924.27-Aug-2021 4901.50 5051.44 84.96 13.00 189.99 3249.95
   13:10:50.124.27-Aug-2021 4901.50 5051.42 84.96 13.00 190.19 3249.95
   13:10:50.325.27-Aug-2021 4901.50 5051.42 84.96 13.00 190.39 3249.95
   13:10:50.525.27-Aug-2021 4901.50 5051.45 84.96 13.00 190.59 3249.95
   13:10:50.725.27-Aug-2021 4901.50 5051.46 84.95 13.00 190.79 3249.95
   13:10:50.925.27-Aug-2021 4901.50 5051.37 84.96 13.00 190.99 3249.95
   13:10:51.125.27-Aug-2021 4901.50 5051.53 84.95 13.00 191.19 3249.95
   13:10:51.326.27-Aug-2021 4901.50 5051.53 84.95 13.00 191.39 3249.95
   13:10:51.526.27-Aug-2021 4901.50 5051.43 84.95 13.00 191.59 3249.95
   13:10:51.726.27-Aug-2021 4901.50 5051.45 84.95 13.00 191.80 3249.95
   13:10:51.926.27-Aug-2021 4901.50 5051.46 84.95 13.00 192.00 3249.95
   13:10:52.126.27-Aug-2021 4901.50 5051.42 84.95 13.00 192.20 3249.95
   13:10:52.327.27-Aug-2021 4901.50 5051.42 84.95 13.00 192.40 3249.95
   13:10:52.527.27-Aug-2021 4901.50 5051.46 84.95 13.00 192.60 3249.95
   13:10:52.727.27-Aug-2021 4901.50 5051.46 84.95 13.00 192.80 3249.95
   13:10:52.927.27-Aug-2021 4901.50 5051.46 84.95 13.00 193.00 3249.95
   13:10:53.127.27-Aug-2021 4901.50 5051.46 84.95 13.00 193.20 3249.95
   13:10:53.328.27-Aug-2021 4901.50 5051.46 84.95 13.00 193.40 3249.95
   13:10:53.528.27-Aug-2021 4901.50 5051.44 84.95 13.00 193.60 3249.95
   13:10:53.728.27-Aug-2021 4901.50 5051.44 84.95 13.00 193.80 3249.95
   13:10:53.928.27-Aug-2021 4901.50 5051.46 84.95 13.00 194.00 3249.95
   13:10:54.128.27-Aug-2021 4901.50 5051.43 84.95 13.00 194.20 3249.95
   13:10:54.329.27-Aug-2021 4901.50 5051.43 84.95 13.00 194.40 3249.95
   13:10:54.529.27-Aug-2021 4901.50 5051.45 84.95 13.00 194.60 3249.95
   13:10:54.729.27-Aug-2021 4901.50 5051.44 84.95 13.00 194.80 3249.95
   13:10:54.929.27-Aug-2021 4901.50 5051.45 84.95 13.00 195.00 3249.95
   13:10:55.129.27-Aug-2021 4901.50 5051.37 84.95 13.00 195.20 3249.95
   13:10:55.330.27-Aug-2021 4901.50 5051.37 84.95 13.00 195.40 3249.95
   13:10:55.530.27-Aug-2021 4901.50 5051.47 84.95 13.00 195.60 3249.95
   13:10:55.730.27-Aug-2021 4901.50 5051.46 84.95 13.00 195.80 3249.95
   13:10:55.930.27-Aug-2021 4901.50 5051.46 84.95 13.00 196.00 3249.95
   13:10:56.130.27-Aug-2021 4901.50 5051.47 84.95 13.00 196.20 3249.95
   13:10:56.331.27-Aug-2021 4901.50 5051.47 84.95 13.00 196.40 3249.95
   13:10:56.531.27-Aug-2021 4901.50 5051.47 84.95 13.00 196.60 3249.95
   13:10:56.731.27-Aug-2021 4901.50 5051.46 84.95 13.00 196.80 3249.95
   13:10:56.931.27-Aug-2021 4901.50 5051.46 84.95 13.00 197.00 3249.95
   13:10:57.131.27-Aug-2021 4901.50 5051.46 84.95 13.00 197.20 3249.95
   13:10:57.332.27-Aug-2021 4901.50 5051.46 84.95 13.00 197.40 3249.95
   13:10:57.532.27-Aug-2021 4901.50 5051.44 84.95 13.00 197.60 3249.95
   13:10:57.732.27-Aug-2021 4901.50 5051.46 84.95 13.00 197.80 3249.95
   13:10:57.932.27-Aug-2021 4901.50 5051.44 84.95 13.00 198.00 3249.95
   13:10:58.133.27-Aug-2021 4901.50 5051.46 84.95 13.00 198.20 3249.95
   13:10:58.333.27-Aug-2021 4901.50 5051.46 84.95 13.00 198.40 3249.95
   13:10:58.533.27-Aug-2021 4901.50 5051.38 84.95 13.00 198.60 3249.95
   13:10:58.733.27-Aug-2021 4901.50 5051.54 84.95 13.00 198.80 3249.95
   13:10:58.933.27-Aug-2021 4901.50 5051.46 84.95 13.00 199.00 3249.95
   13:10:59.134.27-Aug-2021 4901.50 5051.47 84.95 13.00 199.20 3249.95
   13:10:59.334.27-Aug-2021 4901.50 5051.47 84.95 13.00 199.40 3249.95
   13:10:59.534.27-Aug-2021 4901.50 5051.47 84.95 13.00 199.60 3249.95
   13:10:59.734.27-Aug-2021 4901.50 5051.46 84.95 13.00 199.80 3249.95
   13:10:59.934.27-Aug-2021 4901.50 5051.38 84.95 13.00 200.00 3249.95
   13:11:00.135.27-Aug-2021 4901.50 5051.54 84.95 13.00 200.20 3249.95
   13:11:00.335.27-Aug-2021 4901.50 5051.54 84.95 13.00 200.40 3249.95
   13:11:00.535.27-Aug-2021 4901.50 5051.47 84.95 13.00 200.60 3249.95
   13:11:00.735.27-Aug-2021 4901.50 5051.46 84.95 13.00 200.80 3249.95
   13:11:00.935.27-Aug-2021 4901.50 5051.42 84.95 13.00 201.00 3249.95
   13:11:01.136.27-Aug-2021 4901.50 5051.53 84.95 13.00 201.20 3249.95
   13:11:01.336.27-Aug-2021 4901.50 5051.53 84.95 13.00 201.40 3249.95
   13:11:01.536.27-Aug-2021 4901.50 5051.46 84.95 13.00 201.61 3249.95
   13:11:01.736.27-Aug-2021 4901.50 5051.46 84.95 13.00 201.81 3249.95
   13:11:01.936.27-Aug-2021 4901.50 5051.41 84.95 13.00 202.01 3249.95
   13:11:02.137.27-Aug-2021 4901.50 5051.52 84.95 13.00 202.21 3249.95
   13:11:02.337.27-Aug-2021 4901.50 5051.52 84.95 13.00 202.41 3249.95
   13:11:02.537.27-Aug-2021 4901.50 5051.46 84.95 13.00 202.61 3249.95
   13:11:02.737.27-Aug-2021 4901.50 5051.46 84.95 13.00 202.81 3249.95
   13:11:02.937.27-Aug-2021 4901.50 5051.47 84.95 13.00 203.01 3249.95
   13:11:03.138.27-Aug-2021 4901.50 5051.47 84.95 13.00 203.21 3249.95
   13:11:03.338.27-Aug-2021 4901.50 5051.47 84.95 13.00 203.41 3249.95
