~Version Information
 VERS.                  2.0:   CWLS log ASCII Standard -VERSION 2.0
 WRAP.                   NO:   One line per depth step
~Well Information Block
#MNEM.UNIT     VALUE/NAME     DESCRIPTION
#---------     -----------    ---------------------------
 STRT.S             07:19:48 27-Aug-21: START TIME 07:19:48 27-Aug-21
 STOP.S             07:26:57 27-Aug-21: STOP TIME  07:26:57 27-Aug-21
 STEP.S                   0.00: STEP TIME
 NULL.                 -999.25: NULL VALUE
 DFWT.                        :  DIST FWL TEXT
 DFST.                        :  DIST FSL TEXT
 DMF .             Drill Floor:  DRILL MEAS FROM
 STIM.      20.00.00 17-Aug-21:  START TIME
 DATE.      19.00.00 29-Aug-21:  END TIME
 SPUD.               15-Aug-21:  SPUD DATE
 NREF.                    Grid:  NORTH REFERENCE
 HPTY.       Minimum Curvature:  HOLE POS TYPE
 DMOD.             Drill Model:  DRILL MOD DESC
 SVYD.                  Survey:  SURVEY DESC
 ILTD.               Lithology:  INTERP LTH DESC
 FTOP.          Formation Tops:  FORM TOPS DESC
 RIG .              East Azeri:  RIG NAME
 PDAT.          Mean Sea Level:  PERMANENT DATUM
 FLD .                     ACG:  FIELD NAME
 SON .        AZ-XX-0907180857:  JOB NUMBER
 CTRY.              Azerbaijan:  COUNTRY NAME
 WELL.                    D23x:  WELL NAME
 SRVC.     Turan Drilling and Engineering:  CONTRACTOR
 COMP.     BP Exploration (Caspian Sea) Ltd.:  COMPANY
 UWI .            /AZE00000214:  UNIQUE WELL IDENTIFIER
 API .            /AZE00000214:  API NUMBER
 MDS .        Operator Entered:  MAG DATA SOURCE
 BASE.              Azerbaijan:  LOGGING EQUIPMENT BASE LOCATION
 REGN.                   EESSA:  REGION
 PROV.                    Baku:  PROVINCE
 STAT.                    Baku:  STATE NAME
 MWDS.                    Baku:  MWD SHOP
 DOE .                     N/A:  DOE NUMBER
 DCON.         Sperry Drilling:  DIRECTNL CONTR
 UNIT.                     N/A:  LOGGING EQUIPMENT ID
 WTYP.                Deviated:  WELL TYPE
 CNTY.                        :  COUNTY
 LOC .                        :  LOCATION
 LMF .             Drill Floor:  LOG MEASURED FROM
 TVDS.m                  43.60:  TVDSS CORRECTN
 LATI.deg                40.02:  LATITUDE
 LONG.deg                51.45:  LONGITUDE
 WHNS.m                  -7.04:  WELL HEAD N/S
 WHEW.m                  -0.67:  WELL HEAD E/W
 UTMX.m              538762.90:  UTM X
 UTMY.m             4431871.34:  UTM Y
 DFWL.m                   0.00:  DISTANCE FWL
 DFSL.m                   0.00:  DISTANCE FSL
 SDEP.m                4127.00:  START DEPTH
 TDD .m                5084.50:  TOTAL DEPTH (DRILLER)
 VSDR.deg               140.47:  VERT SEC DIRECT
 GVFD.g                   1.00:  GRAVITY FIELD
 MFLD.nT              50362.00:  MAGNETIC FIELD
 MDIP.deg                59.48:  MAGNETIC DIP
 MDEC.deg                 6.47:  MAGNETIC DECL
 GRDC.deg                 0.31:  GRID CORRECTION
 AZTC.deg                 6.16:  AZM TOTAL CORR
 EPD .m                   0.00:  ELEVATION
 EGL .m                   0.00:  GROUND ELEVATION
 WDMS.m                 151.80:  WD ELEV
 APD .m                  43.60:  DEPTH ABOVE PD
 DEP .m                4092.57:  DEPTH
 AGAP.m                  43.60:  AIR GAP
 VSEW.m                  -0.67:  VERT SEC E/W
 VSNS.m                  -7.04:  VERT SEC N/S
 EKB .m                  43.60:  KB ELEVATION
 EDF .m                  43.60:  DF ELEVATION
 TDL .m                 957.50:  TOTAL DEPTH (LOGGER)
 VSC .                       0:  VS TO CLOSURE
 MAGU.                 1851413:  MAGUTM CHECKSUM
~Parameter Information Block
#MNEM.UNIT       Value        Description
#---------     -----------    ---------------------------
 AV  .mps                 1.50:  Ann Velocity 
 AVMX.mps                 2.00:  Max Ann Veloc 
 AZIF.deg               184.66:  Azm, Final 
 BHAT.        Rotary Steerable:  BHA Type 
 BREV.rev               300.00:  Rev Bit Total 
 BROT.°/30m              -0.50:  Build Rotating 
 BS  .in                  8.50:  Bit Size 
 BSZ .in                  8.50:  Bit Size 
 BTPL.psig              370.00:  Bit Press Loss 
 CABU.                      No:  Customer Abuse 
 CGEO.      Behruz Shahbaliyev:  Customer Geo 
 COMM.                     Ô‘[:  Run Comments 1 
 TCS .hr                140.08:  Time Ciculation Ended 
 CV  .mps                 3.00:  Crit Velocity 
 CVMX.mps                 3.20:  Max Crit Veloc 
 DD1 .            Musa Ahmadov:  Direct Drillr 1 
 DD2 .           Hamid Ahmadov:  Direct Drillr 2 
 DDSV.               Geo-Pilot:  DD Service 
 DEFF.%                  98.40:  % Det Eff 
 DLRX.°/30m               3.40:  Dogleg Rot Max 
 DLSO.°/30m               1.45:  Dogleg Oriented 
 DLSX.°/30m               3.40:  Dogleg Str Max 
 DRET.      18.40.00 29-Aug-21:  Drill End Time 
 DRST.      21.00.00 20-Aug-21:  Drill Start Tim 
 DTIM.hr                 69.47:  Time Drilling 
 EDEP.m                5084.50:  End Depth 
 ENG1.      Artemiy Matviyanov:  Engineer 1 
 ENG2.         Almaz Almadatov:  Engineer 2 
 ETIM.      18.40.00 29-Aug-21:  End Time 
 FLOI.gpm               500.00:  Flow In 
 FLON.gpm               400.00:  Flow In Min 
 FLOS.cptm                0.00:  Fluid Loss 
 FLOX.gpm               500.00:  Flow In Max 
 DFT .        Mineral Oil Base:  Mud Type 
 HFLO.                      No:  High Flow 
 HPRE.                      No:  High Pressure 
 HTEM.                      No:  High Temp 
 HYDO.m                   1.80:  Hydro Offset 
 IFIN.deg                25.62:  Inc, Final 
 IMAX.deg                48.69:  Inc Max 
 IMIN.deg                24.01:  Inc Min 
 IMND.m                4962.57:  Inc Min Depth 
 IMXD.m                4119.01:  Inc Max Depth 
 JARR.                      No:  Jarring 
 LETM.      18.40.00 29-Aug-21:  Log End Time 
 LOST.hr                     0:  Lost Rig Time 
 LSTM.      21.00.00 20-Aug-21:  Log Start Time 
 MDCL.ppm             41500.00:  Mud Chlorides 
 MDES.     Inversion Oil/Synthetic:  Mud Desc 
 DFD .sg                  1.56:  Mud Density 
 MDMN.sg                  1.56:  Dens Mud Min 
 MDMX.sg                  1.56:  Dens Mud Max 
 MOIL.                      70:  Run Mud Oil % 
 MOWR.                   70:30:  Run Mud OWR 
 MSND.                     0.2:  Run Mud Sand % 
 MSOL.                    23.3:  Run Mud Solids% 
 DFV .spqt               78.00:  Mud Viscosity 
 MWOD.in                  6.75:  MWD Tool OD 
 MWSI.                      No:  Serv Intrp, MWD 
 OTIM.hr                218.30:  Time Operating 
 PCON.           Look Like New:  Pad Condition 
 PMAX.psia            11015.30:  Press Op, Max 
 PV  .cP                 38.00:  Mud PV 
 RUN .                     300:  Run Number 
 ROPA.m/hr               15.00:  ROP Avg 
 ROPN.m/hr                9.00:  ROP Min 
 ROPX.m/hr               17.00:  ROP Max 
 RPMA.rpm               120.00:  RPM Surface Avg 
 RPMN.rpm                90.00:  RPM Surface Min 
 RPMX.rpm               140.00:  RPM Surface Max 
 RRUN.                     300:  Rig Run Number 
 RTIM.hr                 31.53:  Time Reaming 
 SAZI.deg               331.64:  Azm, Start 
 SDEP.m                4127.00:  Start Depth 
 SIDD.                      No:  Serv Intrp, DD 
 SINC.deg                48.43:  Inc, Start 
 SPPA.psig             5830.00:  SPP Avg 
 SPPN.psig             5600.00:  SPP Min 
 SPPX.psig             5900.00:  SPP Max 
 STIM.      21.00.00 20-Aug-21:  Start Time 
 SVCS.                 DD, MWD:  Services 
 SVER.                    9.20:  Sperry Version 
 TDAT.m                 957.50:  Tot Depth Attmp 
 TDDF.                      No:  Trip for DD 
 TDLG.m                 957.50:  Tot Depth Loggd 
 TFF .                      No:  Trip for Fail 
 TQAA.f-kp               15.00:  Torque Abs Avg 
 TQAN.f-kp               12.00:  Torque Abs Min 
 TQAX.f-kp               19.00:  Torque Abs Max 
 TRRT.°/30m              -3.40:  Turn Rotating 
 MRT .                  EWR-M5:  Maximum Recorded Temperature 
 TTMX.degC              100.00:  Max Tool Temp 
 VS01.                90639251:  Virtual Str1 SN 
 VS02.                90634715:  Virtual Str2 SN 
 VS03.                90652479:  Virtual Str3 SN 
 VS04.                90642262:  Virtual Str4 SN 
 WBMN.klb                 0.00:  WOB Min 
 WITN.           Murad Guliyev:  Customer Rep 
 WITN.          Yashar Gaziyev:  Customer Rep 2 
 WOBA.klb                 9.00:  WOB Avg 
 WOBX.klb                12.00:  WOB Max 
 YP  .lhf2               30.00:  Yield Point 
~Curve Information Block
#MNEM.UNIT                 API CODE     Curve Description
#---------               -----------    ---------------------------
 TIME.HHMMSS            00 000 000 000:  GT Time & Date
 GTDEPTH.m              00 000 000 000:  GT Depth
 GTPQH.psia             00 000 000 000:  GT HR Quartz Pressure
 GTTQ.degC              00 000 000 000:  GT Quartz Temperature
 GTTN.NONE              00 000 000 000:  GT Test Number
 GTET.sec               00 000 000 000:  GT Elapsed Test Time
 GTTVD.m                00 000 000 000:  GT True Vertical Depth
#Other Information
#
#WARRANTY: Halliburton will use its best efforts to furnish customers with 
#accurate information and interpretations that are part of, and incident to, the services 
#provided.  However, Halliburton cannot and does not warrant the accuracy 
#or correctness of such information and interpretations.  Under no circumstances should any 
#such information or interpretation be relied upon as the sole basis for any drilling, 
#completion, production, or financial decision or any procedure involving any risk to the 
#safety of any drilling venture, drilling rig or its crew or any other third party.  The 
#Customer has full responsibility for all drilling, completion and production operation.  
#Halliburton makes no representations or warranties, either expressed or 
#implied, including, but not limited to, the implied warranties of merchantability or fitness 
#for a particular purpose, with respect to the services rendered.  In no event will 
#Halliburton be liable for failure to obtain any particular results or for 
#any damages, including, but not limited to, indirect, special or consequential damages, 
#resulting from the use of any information or interpretation provided by Halliburton.
#
~A           TIME           GTDEPTH  GTPQH  GTTQ  GTTN  GTET   GTTVD  
# ...
   07:20:11.267.27-Aug-2021 5010.50 7998.56 87.77 3.00  23.00 3349.10
   07:20:11.467.27-Aug-2021 5010.50 7998.56 87.77 3.00  23.20 3349.10
   07:20:11.667.27-Aug-2021 5010.50 7999.17 87.77 3.00  23.40 3349.10
   07:20:11.868.27-Aug-2021 5010.50 7999.66 87.77 3.00  23.60 3349.10
   07:20:12.068.27-Aug-2021 5010.50 7999.58 87.77 3.00  23.80 3349.10
   07:20:12.268.27-Aug-2021 5010.50 7999.35 87.77 3.00  24.00 3349.10
   07:20:12.468.27-Aug-2021 5010.50 7999.35 87.77 3.00  24.20 3349.10
   07:20:12.668.27-Aug-2021 5010.50 7999.88 87.77 3.00  24.40 3349.10
   07:20:12.868.27-Aug-2021 5010.50 8001.18 87.77 3.00  24.60 3349.10
   07:20:13.068.27-Aug-2021 5010.50 8001.71 87.77 3.00  24.80 3349.10
   07:20:13.268.27-Aug-2021 5010.50 8001.39 87.77 3.00  25.00 3349.10
   07:20:13.468.27-Aug-2021 5010.50 8001.39 87.77 3.00  25.20 3349.10
   07:20:13.668.27-Aug-2021 5010.50 8001.06 87.76 3.00  25.40 3349.10
   07:20:13.868.27-Aug-2021 5010.50 8001.40 87.76 3.00  25.60 3349.10
   07:20:14.068.27-Aug-2021 5010.50 8001.33 87.76 3.00  25.80 3349.10
   07:20:14.268.27-Aug-2021 5010.50 8007.88 87.76 3.00  26.00 3349.10
   07:20:14.468.27-Aug-2021 5010.50 8007.88 87.76 3.00  26.20 3349.10
   07:20:14.668.27-Aug-2021 5010.50 8001.07 87.76 3.00  26.40 3349.10
   07:20:14.868.27-Aug-2021 5010.50 8001.60 87.76 3.00  26.60 3349.10
   07:20:15.068.27-Aug-2021 5010.50 8001.91 87.76 3.00  26.80 3349.10
   07:20:15.268.27-Aug-2021 5010.50 8006.48 87.76 3.00  27.00 3349.10
   07:20:15.468.27-Aug-2021 5010.50 8006.48 87.76 3.00  27.20 3349.10
   07:20:15.668.27-Aug-2021 5010.50 8001.65 87.76 3.00  27.40 3349.10
   07:20:15.868.27-Aug-2021 5010.50 8001.91 87.76 3.00  27.60 3349.10
   07:20:16.068.27-Aug-2021 5010.50 8002.39 87.76 3.00  27.80 3349.10
   07:20:16.268.27-Aug-2021 5010.50 8007.67 87.76 3.00  28.00 3349.10
   07:20:16.468.27-Aug-2021 5010.50 8007.67 87.76 3.00  28.20 3349.10
   07:20:16.668.27-Aug-2021 5010.50 8003.21 87.76 3.00  28.40 3349.10
   07:20:16.868.27-Aug-2021 5010.50 8002.91 87.76 3.00  28.60 3349.10
   07:20:17.068.27-Aug-2021 5010.50 8003.45 87.76 3.00  28.80 3349.10
   07:20:17.268.27-Aug-2021 5010.50 8009.93 87.76 3.00  29.00 3349.10
   07:20:17.468.27-Aug-2021 5010.50 8009.93 87.76 3.00  29.20 3349.10
   07:20:17.668.27-Aug-2021 5010.50 8003.71 87.76 3.00  29.40 3349.10
   07:20:17.868.27-Aug-2021 5010.50 8003.36 87.76 3.00  29.60 3349.10
   07:20:18.069.27-Aug-2021 5010.50 8003.98 87.76 3.00  29.80 3349.10
   07:20:18.269.27-Aug-2021 5010.50 8004.93 87.76 3.00  30.00 3349.10
   07:20:18.469.27-Aug-2021 5010.50 8004.93 87.76 3.00  30.20 3349.10
   07:20:18.669.27-Aug-2021 5010.50 8004.55 87.76 3.00  30.40 3349.10
   07:20:18.869.27-Aug-2021 5010.50 8004.97 87.76 3.00  30.61 3349.10
   07:20:19.069.27-Aug-2021 5010.50 8004.67 87.76 3.00  30.81 3349.10
   07:20:19.269.27-Aug-2021 5010.50 8005.80 87.76 3.00  31.01 3349.10
   07:20:19.469.27-Aug-2021 5010.50 8005.80 87.76 3.00  31.21 3349.10
   07:20:19.669.27-Aug-2021 5010.50 8007.11 87.76 3.00  31.41 3349.10
   07:20:19.869.27-Aug-2021 5010.50 8006.63 87.76 3.00  31.61 3349.10
   07:20:20.069.27-Aug-2021 5010.50 8006.27 87.76 3.00  31.81 3349.10
   07:20:20.269.27-Aug-2021 5010.50 8006.60 87.76 3.00  32.01 3349.10
   07:20:20.469.27-Aug-2021 5010.50 8006.60 87.76 3.00  32.21 3349.10
   07:20:20.669.27-Aug-2021 5010.50 8007.07 87.76 3.00  32.41 3349.10
   07:20:20.869.27-Aug-2021 5010.50 8006.96 87.76 3.00  32.61 3349.10
   07:20:21.069.27-Aug-2021 5010.50 8010.86 87.76 3.00  32.81 3349.10
   07:20:21.269.27-Aug-2021 5010.50 8007.68 87.75 3.00  33.01 3349.10
   07:20:21.469.27-Aug-2021 5010.50 8007.68 87.75 3.00  33.21 3349.10
   07:20:21.669.27-Aug-2021 5010.50 8007.25 87.75 3.00  33.41 3349.10
   07:20:21.869.27-Aug-2021 5010.50 8007.11 87.75 3.00  33.61 3349.10
   07:20:22.069.27-Aug-2021 5010.50 8007.81 87.75 3.00  33.81 3349.10
   07:20:22.269.27-Aug-2021 5010.50 8007.04 87.75 3.00  34.01 3349.10
   07:20:22.469.27-Aug-2021 5010.50 8007.04 87.75 3.00  34.21 3349.10
   07:20:22.669.27-Aug-2021 5010.50 8007.01 87.75 3.00  34.41 3349.10
   07:20:22.869.27-Aug-2021 5010.50 8007.77 87.75 3.00  34.61 3349.10
   07:20:23.069.27-Aug-2021 5010.50 8008.92 87.75 3.00  34.81 3349.10
   07:20:23.269.27-Aug-2021 5010.50 8009.59 87.75 3.00  35.01 3349.10
   07:20:23.469.27-Aug-2021 5010.50 8009.59 87.75 3.00  35.21 3349.10
   07:20:23.669.27-Aug-2021 5010.50 8008.78 87.75 3.00  35.41 3349.10
   07:20:23.869.27-Aug-2021 5010.50 8008.93 87.75 3.00  35.61 3349.10
   07:20:24.070.27-Aug-2021 5010.50 8008.81 87.75 3.00  35.81 3349.10
   07:20:24.270.27-Aug-2021 5010.50 8013.15 87.75 3.00  36.01 3349.10
   07:20:24.470.27-Aug-2021 5010.50 8013.15 87.75 3.00  36.21 3349.10
   07:20:24.670.27-Aug-2021 5010.50 8008.52 87.75 3.00  36.41 3349.10
   07:20:24.870.27-Aug-2021 5010.50 8008.72 87.75 3.00  36.61 3349.10
   07:20:25.070.27-Aug-2021 5010.50 8008.50 87.75 3.00  36.81 3349.10
   07:20:25.270.27-Aug-2021 5010.50 8009.23 87.75 3.00  37.01 3349.10
   07:20:25.470.27-Aug-2021 5010.50 8009.23 87.75 3.00  37.21 3349.10
   07:20:25.670.27-Aug-2021 5010.50 8009.98 87.75 3.00  37.41 3349.10
   07:20:25.870.27-Aug-2021 5010.50 8008.38 87.75 3.00  37.61 3349.10
   07:20:26.070.27-Aug-2021 5010.50 8009.45 87.75 3.00  37.81 3349.10
   07:20:26.270.27-Aug-2021 5010.50 8010.25 87.75 3.00  38.01 3349.10
   07:20:26.470.27-Aug-2021 5010.50 8010.25 87.75 3.00  38.21 3349.10
   07:20:26.670.27-Aug-2021 5010.50 8012.82 87.75 3.00  38.41 3349.10
   07:20:26.870.27-Aug-2021 5010.50 8011.00 87.75 3.00  38.61 3349.10
   07:20:27.070.27-Aug-2021 5010.50 8009.25 87.75 3.00  38.81 3349.10
   07:20:27.270.27-Aug-2021 5010.50 8009.74 87.75 3.00  39.01 3349.10
   07:20:27.470.27-Aug-2021 5010.50 8009.74 87.75 3.00  39.21 3349.10
   07:20:27.670.27-Aug-2021 5010.50 8018.15 87.75 3.00  39.41 3349.10
   07:20:27.870.27-Aug-2021 5010.50 8008.94 87.75 3.00  39.61 3349.10
   07:20:28.070.27-Aug-2021 5010.50 8009.57 87.75 3.00  39.81 3349.10
   07:20:28.270.27-Aug-2021 5010.50 8009.79 87.75 3.00  40.01 3349.10
   07:20:28.470.27-Aug-2021 5010.50 8009.79 87.75 3.00  40.21 3349.10
   07:20:28.670.27-Aug-2021 5010.50 8012.72 87.75 3.00  40.41 3349.10
   07:20:28.870.27-Aug-2021 5010.50 8012.04 87.75 3.00  40.61 3349.10
   07:20:29.070.27-Aug-2021 5010.50 8011.32 87.75 3.00  40.81 3349.10
   07:20:29.270.27-Aug-2021 5010.50 8011.23 87.74 3.00  41.01 3349.10
   07:20:29.470.27-Aug-2021 5010.50 8011.23 87.74 3.00  41.21 3349.10
   07:20:29.670.27-Aug-2021 5010.50 8012.35 87.74 3.00  41.41 3349.10
   07:20:29.870.27-Aug-2021 5010.50 8017.62 87.74 3.00  41.61 3349.10
   07:20:30.070.27-Aug-2021 5010.50 8027.89 87.74 3.00  41.81 3349.10
   07:20:30.271.27-Aug-2021 5010.50 8051.41 87.74 3.00  42.01 3349.10
   07:20:30.471.27-Aug-2021 5010.50 8051.41 87.74 3.00  42.21 3349.10
   07:20:30.671.27-Aug-2021 5010.50 8088.70 87.74 3.00  42.41 3349.10
   07:20:30.871.27-Aug-2021 5010.50 8078.49 87.74 3.00  42.61 3349.10
   07:20:31.071.27-Aug-2021 5010.50 8073.12 87.74 3.00  42.81 3349.10
   07:20:31.271.27-Aug-2021 5010.50 8070.08 87.74 3.00  43.01 3349.10
   07:20:31.471.27-Aug-2021 5010.50 8070.08 87.74 3.00  43.21 3349.10
   07:20:31.671.27-Aug-2021 5010.50 8076.31 87.74 3.00  43.41 3349.10
   07:20:31.871.27-Aug-2021 5010.50 8101.40 87.74 3.00  43.61 3349.10
   07:20:32.071.27-Aug-2021 5010.50 8134.60 87.74 3.00  43.81 3349.10
   07:20:32.271.27-Aug-2021 5010.50 8153.58 87.74 3.00  44.01 3349.10
   07:20:32.471.27-Aug-2021 5010.50 8153.58 87.74 3.00  44.21 3349.10
   07:20:32.671.27-Aug-2021 5010.50 8147.12 87.74 3.00  44.41 3349.10
   07:20:32.871.27-Aug-2021 5010.50 8139.35 87.74 3.00  44.61 3349.10
   07:20:33.071.27-Aug-2021 5010.50 8137.16 87.74 3.00  44.81 3349.10
   07:20:33.271.27-Aug-2021 5010.50 8135.67 87.74 3.00  45.01 3349.10
   07:20:33.471.27-Aug-2021 5010.50 8135.67 87.74 3.00  45.21 3349.10
   07:20:33.671.27-Aug-2021 5010.50 8135.89 87.74 3.00  45.41 3349.10
   07:20:33.871.27-Aug-2021 5010.50 8136.88 87.74 3.00  45.61 3349.10
   07:20:34.071.27-Aug-2021 5010.50 8136.96 87.74 3.00  45.81 3349.10
