~Version Information
 VERS.                  2.0:   CWLS log ASCII Standard -VERSION 2.0
 WRAP.                   NO:   One line per depth step
~Well Information Block
#MNEM.UNIT     VALUE/NAME     DESCRIPTION
#---------     -----------    ---------------------------
 STRT.S             13:52:51 27-Aug-21: START TIME 13:52:51 27-Aug-21
 STOP.S             13:59:42 27-Aug-21: STOP TIME  13:59:42 27-Aug-21
 STEP.S                   0.00: STEP TIME
 NULL.                 -999.25: NULL VALUE
 DFWT.                        :  DIST FWL TEXT
 DFST.                        :  DIST FSL TEXT
 DMF .             Drill Floor:  DRILL MEAS FROM
 STIM.      20.00.00 17-Aug-21:  START TIME
 DATE.      19.00.00 29-Aug-21:  END TIME
 SPUD.               15-Aug-21:  SPUD DATE
 NREF.                    Grid:  NORTH REFERENCE
 HPTY.       Minimum Curvature:  HOLE POS TYPE
 DMOD.             Drill Model:  DRILL MOD DESC
 SVYD.                  Survey:  SURVEY DESC
 ILTD.               Lithology:  INTERP LTH DESC
 FTOP.          Formation Tops:  FORM TOPS DESC
 RIG .              East Azeri:  RIG NAME
 PDAT.          Mean Sea Level:  PERMANENT DATUM
 FLD .                     ACG:  FIELD NAME
 SON .        AZ-XX-0907180857:  JOB NUMBER
 CTRY.              Azerbaijan:  COUNTRY NAME
 WELL.                    D23x:  WELL NAME
 SRVC.     Turan Drilling and Engineering:  CONTRACTOR
 COMP.     BP Exploration (Caspian Sea) Ltd.:  COMPANY
 UWI .            /AZE00000214:  UNIQUE WELL IDENTIFIER
 API .            /AZE00000214:  API NUMBER
 MDS .        Operator Entered:  MAG DATA SOURCE
 BASE.              Azerbaijan:  LOGGING EQUIPMENT BASE LOCATION
 REGN.                   EESSA:  REGION
 PROV.                    Baku:  PROVINCE
 STAT.                    Baku:  STATE NAME
 MWDS.                    Baku:  MWD SHOP
 DOE .                     N/A:  DOE NUMBER
 DCON.         Sperry Drilling:  DIRECTNL CONTR
 UNIT.                     N/A:  LOGGING EQUIPMENT ID
 WTYP.                Deviated:  WELL TYPE
 CNTY.                        :  COUNTY
 LOC .                        :  LOCATION
 LMF .             Drill Floor:  LOG MEASURED FROM
 TVDS.m                  43.60:  TVDSS CORRECTN
 LATI.deg                40.02:  LATITUDE
 LONG.deg                51.45:  LONGITUDE
 WHNS.m                  -7.04:  WELL HEAD N/S
 WHEW.m                  -0.67:  WELL HEAD E/W
 UTMX.m              538762.90:  UTM X
 UTMY.m             4431871.34:  UTM Y
 DFWL.m                   0.00:  DISTANCE FWL
 DFSL.m                   0.00:  DISTANCE FSL
 SDEP.m                4127.00:  START DEPTH
 TDD .m                5084.50:  TOTAL DEPTH (DRILLER)
 VSDR.deg               140.47:  VERT SEC DIRECT
 GVFD.g                   1.00:  GRAVITY FIELD
 MFLD.nT              50362.00:  MAGNETIC FIELD
 MDIP.deg                59.48:  MAGNETIC DIP
 MDEC.deg                 6.47:  MAGNETIC DECL
 GRDC.deg                 0.31:  GRID CORRECTION
 AZTC.deg                 6.16:  AZM TOTAL CORR
 EPD .m                   0.00:  ELEVATION
 EGL .m                   0.00:  GROUND ELEVATION
 WDMS.m                 151.80:  WD ELEV
 APD .m                  43.60:  DEPTH ABOVE PD
 DEP .m                4092.57:  DEPTH
 AGAP.m                  43.60:  AIR GAP
 VSEW.m                  -0.67:  VERT SEC E/W
 VSNS.m                  -7.04:  VERT SEC N/S
 EKB .m                  43.60:  KB ELEVATION
 EDF .m                  43.60:  DF ELEVATION
 TDL .m                 957.50:  TOTAL DEPTH (LOGGER)
 VSC .                       0:  VS TO CLOSURE
 MAGU.                 1851413:  MAGUTM CHECKSUM
~Parameter Information Block
#MNEM.UNIT       Value        Description
#---------     -----------    ---------------------------
 AV  .mps                 1.50:  Ann Velocity 
 AVMX.mps                 2.00:  Max Ann Veloc 
 AZIF.deg               184.66:  Azm, Final 
 BHAT.        Rotary Steerable:  BHA Type 
 BREV.rev               300.00:  Rev Bit Total 
 BROT.°/30m              -0.50:  Build Rotating 
 BS  .in                  8.50:  Bit Size 
 BSZ .in                  8.50:  Bit Size 
 BTPL.psig              370.00:  Bit Press Loss 
 CABU.                      No:  Customer Abuse 
 CGEO.      Behruz Shahbaliyev:  Customer Geo 
 COMM.                     ÄÆy:  Run Comments 1 
 TCS .hr                140.08:  Time Ciculation Ended 
 CV  .mps                 3.00:  Crit Velocity 
 CVMX.mps                 3.20:  Max Crit Veloc 
 DD1 .            Musa Ahmadov:  Direct Drillr 1 
 DD2 .           Hamid Ahmadov:  Direct Drillr 2 
 DDSV.               Geo-Pilot:  DD Service 
 DEFF.%                  98.40:  % Det Eff 
 DLRX.°/30m               3.40:  Dogleg Rot Max 
 DLSO.°/30m               1.45:  Dogleg Oriented 
 DLSX.°/30m               3.40:  Dogleg Str Max 
 DRET.      18.40.00 29-Aug-21:  Drill End Time 
 DRST.      21.00.00 20-Aug-21:  Drill Start Tim 
 DTIM.hr                 69.47:  Time Drilling 
 EDEP.m                5084.50:  End Depth 
 ENG1.      Artemiy Matviyanov:  Engineer 1 
 ENG2.         Almaz Almadatov:  Engineer 2 
 ETIM.      18.40.00 29-Aug-21:  End Time 
 FLOI.gpm               500.00:  Flow In 
 FLON.gpm               400.00:  Flow In Min 
 FLOS.cptm                0.00:  Fluid Loss 
 FLOX.gpm               500.00:  Flow In Max 
 DFT .        Mineral Oil Base:  Mud Type 
 HFLO.                      No:  High Flow 
 HPRE.                      No:  High Pressure 
 HTEM.                      No:  High Temp 
 HYDO.m                   1.80:  Hydro Offset 
 IFIN.deg                25.62:  Inc, Final 
 IMAX.deg                48.69:  Inc Max 
 IMIN.deg                24.01:  Inc Min 
 IMND.m                4962.57:  Inc Min Depth 
 IMXD.m                4119.01:  Inc Max Depth 
 JARR.                      No:  Jarring 
 LETM.      18.40.00 29-Aug-21:  Log End Time 
 LOST.hr                     0:  Lost Rig Time 
 LSTM.      21.00.00 20-Aug-21:  Log Start Time 
 MDCL.ppm             41500.00:  Mud Chlorides 
 MDES.     Inversion Oil/Synthetic:  Mud Desc 
 DFD .sg                  1.56:  Mud Density 
 MDMN.sg                  1.56:  Dens Mud Min 
 MDMX.sg                  1.56:  Dens Mud Max 
 MOIL.                      70:  Run Mud Oil % 
 MOWR.                   70:30:  Run Mud OWR 
 MSND.                     0.2:  Run Mud Sand % 
 MSOL.                    23.3:  Run Mud Solids% 
 DFV .spqt               78.00:  Mud Viscosity 
 MWOD.in                  6.75:  MWD Tool OD 
 MWSI.                      No:  Serv Intrp, MWD 
 OTIM.hr                218.30:  Time Operating 
 PCON.           Look Like New:  Pad Condition 
 PMAX.psia            11015.30:  Press Op, Max 
 PV  .cP                 38.00:  Mud PV 
 RUN .                     300:  Run Number 
 ROPA.m/hr               15.00:  ROP Avg 
 ROPN.m/hr                9.00:  ROP Min 
 ROPX.m/hr               17.00:  ROP Max 
 RPMA.rpm               120.00:  RPM Surface Avg 
 RPMN.rpm                90.00:  RPM Surface Min 
 RPMX.rpm               140.00:  RPM Surface Max 
 RRUN.                     300:  Rig Run Number 
 RTIM.hr                 31.53:  Time Reaming 
 SAZI.deg               331.64:  Azm, Start 
 SDEP.m                4127.00:  Start Depth 
 SIDD.                      No:  Serv Intrp, DD 
 SINC.deg                48.43:  Inc, Start 
 SPPA.psig             5830.00:  SPP Avg 
 SPPN.psig             5600.00:  SPP Min 
 SPPX.psig             5900.00:  SPP Max 
 STIM.      21.00.00 20-Aug-21:  Start Time 
 SVCS.                 DD, MWD:  Services 
 SVER.                    9.20:  Sperry Version 
 TDAT.m                 957.50:  Tot Depth Attmp 
 TDDF.                      No:  Trip for DD 
 TDLG.m                 957.50:  Tot Depth Loggd 
 TFF .                      No:  Trip for Fail 
 TQAA.f-kp               15.00:  Torque Abs Avg 
 TQAN.f-kp               12.00:  Torque Abs Min 
 TQAX.f-kp               19.00:  Torque Abs Max 
 TRRT.°/30m              -3.40:  Turn Rotating 
 MRT .                  EWR-M5:  Maximum Recorded Temperature 
 TTMX.degC              100.00:  Max Tool Temp 
 VS01.                90639251:  Virtual Str1 SN 
 VS02.                90634715:  Virtual Str2 SN 
 VS03.                90652479:  Virtual Str3 SN 
 VS04.                90642262:  Virtual Str4 SN 
 WBMN.klb                 0.00:  WOB Min 
 WITN.           Murad Guliyev:  Customer Rep 
 WITN.          Yashar Gaziyev:  Customer Rep 2 
 WOBA.klb                 9.00:  WOB Avg 
 WOBX.klb                12.00:  WOB Max 
 YP  .lhf2               30.00:  Yield Point 
~Curve Information Block
#MNEM.UNIT                 API CODE     Curve Description
#---------               -----------    ---------------------------
 TIME.HHMMSS            00 000 000 000:  GT Time & Date
 GTDEPTH.m              00 000 000 000:  GT Depth
 GTPQH.psia             00 000 000 000:  GT HR Quartz Pressure
 GTTQ.degC              00 000 000 000:  GT Quartz Temperature
 GTTN.NONE              00 000 000 000:  GT Test Number
 GTET.sec               00 000 000 000:  GT Elapsed Test Time
 GTTVD.m                00 000 000 000:  GT True Vertical Depth
#Other Information
#
#WARRANTY: Halliburton will use its best efforts to furnish customers with 
#accurate information and interpretations that are part of, and incident to, the services 
#provided.  However, Halliburton cannot and does not warrant the accuracy 
#or correctness of such information and interpretations.  Under no circumstances should any 
#such information or interpretation be relied upon as the sole basis for any drilling, 
#completion, production, or financial decision or any procedure involving any risk to the 
#safety of any drilling venture, drilling rig or its crew or any other third party.  The 
#Customer has full responsibility for all drilling, completion and production operation.  
#Halliburton makes no representations or warranties, either expressed or 
#implied, including, but not limited to, the implied warranties of merchantability or fitness 
#for a particular purpose, with respect to the services rendered.  In no event will 
#Halliburton be liable for failure to obtain any particular results or for 
#any damages, including, but not limited to, indirect, special or consequential damages, 
#resulting from the use of any information or interpretation provided by Halliburton.
#
~A           TIME           GTDEPTH  GTPQH  GTTQ  GTTN   GTET   GTTVD  
# ...
   13:56:14.400.27-Aug-2021 4859.00 4346.30 84.52 14.00 203.40 3211.42
   13:56:14.600.27-Aug-2021 4859.00 4354.29 84.53 14.00 203.60 3211.42
   13:56:14.800.27-Aug-2021 4859.00 4361.18 84.53 14.00 203.80 3211.42
   13:56:15.000.27-Aug-2021 4859.00 4368.32 84.53 14.00 204.00 3211.42
   13:56:15.200.27-Aug-2021 4859.00 4368.32 84.53 14.00 204.20 3211.42
   13:56:15.400.27-Aug-2021 4859.00 4382.82 84.53 14.00 204.40 3211.42
   13:56:15.600.27-Aug-2021 4859.00 4391.24 84.53 14.00 204.60 3211.42
   13:56:15.800.27-Aug-2021 4859.00 4398.47 84.53 14.00 204.80 3211.42
   13:56:16.000.27-Aug-2021 4859.00 4406.31 84.53 14.00 205.00 3211.42
   13:56:16.200.27-Aug-2021 4859.00 4406.31 84.53 14.00 205.20 3211.42
   13:56:16.400.27-Aug-2021 4859.00 4421.59 84.53 14.00 205.40 3211.42
   13:56:16.600.27-Aug-2021 4859.00 4429.18 84.53 14.00 205.60 3211.42
   13:56:16.800.27-Aug-2021 4859.00 4436.36 84.53 14.00 205.80 3211.42
   13:56:17.000.27-Aug-2021 4859.00 4443.83 84.53 14.00 206.00 3211.42
   13:56:17.200.27-Aug-2021 4859.00 4443.83 84.53 14.00 206.20 3211.42
   13:56:17.400.27-Aug-2021 4859.00 4458.42 84.53 14.00 206.40 3211.42
   13:56:17.600.27-Aug-2021 4859.00 4465.44 84.53 14.00 206.60 3211.42
   13:56:17.800.27-Aug-2021 4859.00 4472.29 84.53 14.00 206.80 3211.42
   13:56:18.000.27-Aug-2021 4859.00 4478.71 84.53 14.00 207.00 3211.42
   13:56:18.200.27-Aug-2021 4859.00 4478.71 84.53 14.00 207.20 3211.42
   13:56:18.400.27-Aug-2021 4859.00 4491.12 84.53 14.00 207.40 3211.42
   13:56:18.600.27-Aug-2021 4859.00 4498.00 84.53 14.00 207.60 3211.42
   13:56:18.800.27-Aug-2021 4859.00 4505.12 84.53 14.00 207.80 3211.42
   13:56:19.000.27-Aug-2021 4859.00 4511.34 84.53 14.00 208.00 3211.42
   13:56:19.200.27-Aug-2021 4859.00 4511.34 84.53 14.00 208.20 3211.42
   13:56:19.400.27-Aug-2021 4859.00 4524.52 84.53 14.00 208.40 3211.42
   13:56:19.600.27-Aug-2021 4859.00 4529.79 84.53 14.00 208.60 3211.42
   13:56:19.800.27-Aug-2021 4859.00 4536.81 84.53 14.00 208.80 3211.42
   13:56:20.000.27-Aug-2021 4859.00 4542.19 84.53 14.00 209.00 3211.42
   13:56:20.200.27-Aug-2021 4859.00 4542.19 84.53 14.00 209.20 3211.42
   13:56:20.400.27-Aug-2021 4859.00 4555.25 84.53 14.00 209.40 3211.42
   13:56:20.600.27-Aug-2021 4859.00 4561.56 84.53 14.00 209.60 3211.42
   13:56:20.800.27-Aug-2021 4859.00 4566.79 84.53 14.00 209.80 3211.42
   13:56:21.000.27-Aug-2021 4859.00 4572.66 84.53 14.00 210.00 3211.42
   13:56:21.200.27-Aug-2021 4859.00 4572.66 84.53 14.00 210.20 3211.42
   13:56:21.400.27-Aug-2021 4859.00 4584.63 84.53 14.00 210.40 3211.42
   13:56:21.600.27-Aug-2021 4859.00 4591.03 84.53 14.00 210.60 3211.42
   13:56:21.800.27-Aug-2021 4859.00 4596.29 84.53 14.00 210.80 3211.42
   13:56:22.000.27-Aug-2021 4859.00 4603.27 84.53 14.00 211.00 3211.42
   13:56:22.200.27-Aug-2021 4859.00 4603.27 84.53 14.00 211.20 3211.42
   13:56:22.400.27-Aug-2021 4859.00 4609.01 84.53 14.00 211.40 3211.42
   13:56:22.600.27-Aug-2021 4859.00 4620.92 84.54 14.00 211.60 3211.42
   13:56:22.800.27-Aug-2021 4859.00 4626.59 84.54 14.00 211.80 3211.42
   13:56:23.000.27-Aug-2021 4859.00 4632.78 84.54 14.00 212.00 3211.42
   13:56:23.200.27-Aug-2021 4859.00 4632.78 84.54 14.00 212.20 3211.42
   13:56:23.400.27-Aug-2021 4859.00 4644.46 84.54 14.00 212.40 3211.42
   13:56:23.600.27-Aug-2021 4859.00 4650.09 84.54 14.00 212.60 3211.42
   13:56:23.800.27-Aug-2021 4859.00 4655.48 84.54 14.00 212.80 3211.42
   13:56:24.000.27-Aug-2021 4859.00 4661.04 84.54 14.00 213.00 3211.42
   13:56:24.200.27-Aug-2021 4859.00 4661.04 84.54 14.00 213.20 3211.42
   13:56:24.400.27-Aug-2021 4859.00 4671.18 84.54 14.00 213.40 3211.42
   13:56:24.600.27-Aug-2021 4859.00 4675.89 84.54 14.00 213.60 3211.42
   13:56:24.800.27-Aug-2021 4859.00 4682.15 84.54 14.00 213.80 3211.42
   13:56:25.000.27-Aug-2021 4859.00 4687.18 84.54 14.00 214.00 3211.42
   13:56:25.200.27-Aug-2021 4859.00 4687.18 84.54 14.00 214.20 3211.42
   13:56:25.400.27-Aug-2021 4859.00 4697.92 84.54 14.00 214.40 3211.42
   13:56:25.600.27-Aug-2021 4859.00 4702.88 84.54 14.00 214.60 3211.42
   13:56:25.800.27-Aug-2021 4859.00 4708.50 84.54 14.00 214.80 3211.42
   13:56:26.000.27-Aug-2021 4859.00 4713.77 84.54 14.00 215.00 3211.42
   13:56:26.200.27-Aug-2021 4859.00 4713.77 84.54 14.00 215.20 3211.42
   13:56:26.400.27-Aug-2021 4859.00 4724.15 84.54 14.00 215.40 3211.42
   13:56:26.600.27-Aug-2021 4859.00 4728.96 84.54 14.00 215.60 3211.42
   13:56:26.800.27-Aug-2021 4859.00 4733.96 84.54 14.00 215.80 3211.42
   13:56:27.000.27-Aug-2021 4859.00 4739.05 84.54 14.00 216.00 3211.42
   13:56:27.200.27-Aug-2021 4859.00 4739.05 84.54 14.00 216.20 3211.42
   13:56:27.400.27-Aug-2021 4859.00 4749.06 84.54 14.00 216.40 3211.42
   13:56:27.600.27-Aug-2021 4859.00 4753.45 84.54 14.00 216.60 3211.42
   13:56:27.800.27-Aug-2021 4859.00 4758.02 84.54 14.00 216.80 3211.42
   13:56:28.000.27-Aug-2021 4859.00 4762.00 84.54 14.00 217.00 3211.42
   13:56:28.200.27-Aug-2021 4859.00 4762.00 84.54 14.00 217.20 3211.42
   13:56:28.400.27-Aug-2021 4859.00 4771.41 84.54 14.00 217.40 3211.42
   13:56:28.600.27-Aug-2021 4859.00 4773.85 84.54 14.00 217.60 3211.42
   13:56:28.800.27-Aug-2021 4859.00 4778.53 84.54 14.00 217.80 3211.42
   13:56:29.000.27-Aug-2021 4859.00 4782.28 84.54 14.00 218.00 3211.42
   13:56:29.200.27-Aug-2021 4859.00 4782.28 84.54 14.00 218.20 3211.42
   13:56:29.400.27-Aug-2021 4859.00 4792.40 84.54 14.00 218.40 3211.42
   13:56:29.600.27-Aug-2021 4859.00 4796.67 84.54 14.00 218.60 3211.42
   13:56:29.800.27-Aug-2021 4859.00 4801.37 84.54 14.00 218.80 3211.42
   13:56:30.000.27-Aug-2021 4859.00 4804.60 84.54 14.00 219.00 3211.42
   13:56:30.200.27-Aug-2021 4859.00 4804.60 84.54 14.00 219.20 3211.42
   13:56:30.400.27-Aug-2021 4859.00 4813.50 84.54 14.00 219.40 3211.42
   13:56:30.600.27-Aug-2021 4859.00 4818.42 84.54 14.00 219.60 3211.42
   13:56:30.800.27-Aug-2021 4859.00 4823.05 84.54 14.00 219.80 3211.42
   13:56:31.000.27-Aug-2021 4859.00 4827.21 84.54 14.00 220.00 3211.42
   13:56:31.200.27-Aug-2021 4859.00 4827.21 84.54 14.00 220.20 3211.42
   13:56:31.400.27-Aug-2021 4859.00 4827.21 84.54 14.00 220.40 3211.42
   13:56:31.600.27-Aug-2021 4859.00 4827.21 84.54 14.00 220.60 3211.42
   13:56:31.800.27-Aug-2021 4859.00 4843.58 84.54 14.00 220.80 3211.42
   13:56:32.000.27-Aug-2021 4859.00 4847.93 84.54 14.00 221.00 3211.42
   13:56:32.200.27-Aug-2021 4859.00 4847.93 84.54 14.00 221.20 3211.42
   13:56:32.400.27-Aug-2021 4859.00 4856.17 84.54 14.00 221.40 3211.42
   13:56:32.600.27-Aug-2021 4859.00 4860.64 84.54 14.00 221.60 3211.42
   13:56:32.800.27-Aug-2021 4859.00 4864.61 84.54 14.00 221.80 3211.42
   13:56:33.000.27-Aug-2021 4859.00 4868.87 84.54 14.00 222.00 3211.42
   13:56:33.200.27-Aug-2021 4859.00 4868.87 84.54 14.00 222.20 3211.42
   13:56:33.400.27-Aug-2021 4859.00 4876.83 84.54 14.00 222.40 3211.42
   13:56:33.600.27-Aug-2021 4859.00 4880.52 84.54 14.00 222.60 3211.42
   13:56:33.800.27-Aug-2021 4859.00 4884.35 84.54 14.00 222.80 3211.42
   13:56:34.000.27-Aug-2021 4859.00 4888.23 84.54 14.00 223.00 3211.42
   13:56:34.200.27-Aug-2021 4859.00 4888.23 84.54 14.00 223.20 3211.42
   13:56:34.400.27-Aug-2021 4859.00 4895.32 84.54 14.00 223.40 3211.42
   13:56:34.600.27-Aug-2021 4859.00 4898.50 84.54 14.00 223.60 3211.42
   13:56:34.800.27-Aug-2021 4859.00 4903.08 84.54 14.00 223.80 3211.42
   13:56:35.000.27-Aug-2021 4859.00 4906.60 84.54 14.00 224.00 3211.42
   13:56:35.200.27-Aug-2021 4859.00 4906.60 84.54 14.00 224.20 3211.42
   13:56:35.400.27-Aug-2021 4859.00 4914.28 84.54 14.00 224.40 3211.42
   13:56:35.600.27-Aug-2021 4859.00 4917.28 84.54 14.00 224.60 3211.42
   13:56:35.800.27-Aug-2021 4859.00 4921.07 84.54 14.00 224.80 3211.42
   13:56:36.000.27-Aug-2021 4859.00 4924.64 84.54 14.00 225.00 3211.42
   13:56:36.200.27-Aug-2021 4859.00 4924.64 84.54 14.00 225.20 3211.42
   13:56:36.400.27-Aug-2021 4859.00 4932.05 84.54 14.00 225.40 3211.42
   13:56:36.600.27-Aug-2021 4859.00 4935.71 84.54 14.00 225.60 3211.42
   13:56:36.800.27-Aug-2021 4859.00 4939.33 84.54 14.00 225.80 3211.42
