~Version Information
 VERS.                  2.0:   CWLS log ASCII Standard -VERSION 2.0
 WRAP.                   NO:   One line per depth step
~Well Information Block
#MNEM.UNIT     VALUE/NAME     DESCRIPTION
#---------     -----------    ---------------------------
 STRT.S             21:24:04 27-Aug-21: START TIME 21:24:04 27-Aug-21
 STOP.S             21:30:54 27-Aug-21: STOP TIME  21:30:54 27-Aug-21
 STEP.S                   0.00: STEP TIME
 NULL.                 -999.25: NULL VALUE
 DFWT.                        :  DIST FWL TEXT
 DFST.                        :  DIST FSL TEXT
 DMF .             Drill Floor:  DRILL MEAS FROM
 STIM.      20.00.00 17-Aug-21:  START TIME
 DATE.      19.00.00 29-Aug-21:  END TIME
 SPUD.               15-Aug-21:  SPUD DATE
 NREF.                    Grid:  NORTH REFERENCE
 HPTY.       Minimum Curvature:  HOLE POS TYPE
 DMOD.             Drill Model:  DRILL MOD DESC
 SVYD.                  Survey:  SURVEY DESC
 ILTD.               Lithology:  INTERP LTH DESC
 FTOP.          Formation Tops:  FORM TOPS DESC
 RIG .              East Azeri:  RIG NAME
 PDAT.          Mean Sea Level:  PERMANENT DATUM
 FLD .                     ACG:  FIELD NAME
 SON .        AZ-XX-0907180857:  JOB NUMBER
 CTRY.              Azerbaijan:  COUNTRY NAME
 WELL.                    D23x:  WELL NAME
 SRVC.     Turan Drilling and Engineering:  CONTRACTOR
 COMP.     BP Exploration (Caspian Sea) Ltd.:  COMPANY
 UWI .            /AZE00000214:  UNIQUE WELL IDENTIFIER
 API .            /AZE00000214:  API NUMBER
 MDS .        Operator Entered:  MAG DATA SOURCE
 BASE.              Azerbaijan:  LOGGING EQUIPMENT BASE LOCATION
 REGN.                   EESSA:  REGION
 PROV.                    Baku:  PROVINCE
 STAT.                    Baku:  STATE NAME
 MWDS.                    Baku:  MWD SHOP
 DOE .                     N/A:  DOE NUMBER
 DCON.         Sperry Drilling:  DIRECTNL CONTR
 UNIT.                     N/A:  LOGGING EQUIPMENT ID
 WTYP.                Deviated:  WELL TYPE
 CNTY.                        :  COUNTY
 LOC .                        :  LOCATION
 LMF .             Drill Floor:  LOG MEASURED FROM
 TVDS.m                  43.60:  TVDSS CORRECTN
 LATI.deg                40.02:  LATITUDE
 LONG.deg                51.45:  LONGITUDE
 WHNS.m                  -7.04:  WELL HEAD N/S
 WHEW.m                  -0.67:  WELL HEAD E/W
 UTMX.m              538762.90:  UTM X
 UTMY.m             4431871.34:  UTM Y
 DFWL.m                   0.00:  DISTANCE FWL
 DFSL.m                   0.00:  DISTANCE FSL
 SDEP.m                4127.00:  START DEPTH
 TDD .m                5084.50:  TOTAL DEPTH (DRILLER)
 VSDR.deg               140.47:  VERT SEC DIRECT
 GVFD.g                   1.00:  GRAVITY FIELD
 MFLD.nT              50362.00:  MAGNETIC FIELD
 MDIP.deg                59.48:  MAGNETIC DIP
 MDEC.deg                 6.47:  MAGNETIC DECL
 GRDC.deg                 0.31:  GRID CORRECTION
 AZTC.deg                 6.16:  AZM TOTAL CORR
 EPD .m                   0.00:  ELEVATION
 EGL .m                   0.00:  GROUND ELEVATION
 WDMS.m                 151.80:  WD ELEV
 APD .m                  43.60:  DEPTH ABOVE PD
 DEP .m                4092.57:  DEPTH
 AGAP.m                  43.60:  AIR GAP
 VSEW.m                  -0.67:  VERT SEC E/W
 VSNS.m                  -7.04:  VERT SEC N/S
 EKB .m                  43.60:  KB ELEVATION
 EDF .m                  43.60:  DF ELEVATION
 TDL .m                 957.50:  TOTAL DEPTH (LOGGER)
 VSC .                       0:  VS TO CLOSURE
 MAGU.                 1851413:  MAGUTM CHECKSUM
~Parameter Information Block
#MNEM.UNIT       Value        Description
#---------     -----------    ---------------------------
 AV  .mps                 1.50:  Ann Velocity 
 AVMX.mps                 2.00:  Max Ann Veloc 
 AZIF.deg               184.66:  Azm, Final 
 BHAT.        Rotary Steerable:  BHA Type 
 BREV.rev               300.00:  Rev Bit Total 
 BROT.°/30m              -0.50:  Build Rotating 
 BS  .in                  8.50:  Bit Size 
 BSZ .in                  8.50:  Bit Size 
 BTPL.psig              370.00:  Bit Press Loss 
 CABU.                      No:  Customer Abuse 
 CGEO.      Behruz Shahbaliyev:  Customer Geo 
 COMM.                     tºv:  Run Comments 1 
 TCS .hr                140.08:  Time Ciculation Ended 
 CV  .mps                 3.00:  Crit Velocity 
 CVMX.mps                 3.20:  Max Crit Veloc 
 DD1 .            Musa Ahmadov:  Direct Drillr 1 
 DD2 .           Hamid Ahmadov:  Direct Drillr 2 
 DDSV.               Geo-Pilot:  DD Service 
 DEFF.%                  98.40:  % Det Eff 
 DLRX.°/30m               3.40:  Dogleg Rot Max 
 DLSO.°/30m               1.45:  Dogleg Oriented 
 DLSX.°/30m               3.40:  Dogleg Str Max 
 DRET.      18.40.00 29-Aug-21:  Drill End Time 
 DRST.      21.00.00 20-Aug-21:  Drill Start Tim 
 DTIM.hr                 69.47:  Time Drilling 
 EDEP.m                5084.50:  End Depth 
 ENG1.      Artemiy Matviyanov:  Engineer 1 
 ENG2.         Almaz Almadatov:  Engineer 2 
 ETIM.      18.40.00 29-Aug-21:  End Time 
 FLOI.gpm               500.00:  Flow In 
 FLON.gpm               400.00:  Flow In Min 
 FLOS.cptm                0.00:  Fluid Loss 
 FLOX.gpm               500.00:  Flow In Max 
 DFT .        Mineral Oil Base:  Mud Type 
 HFLO.                      No:  High Flow 
 HPRE.                      No:  High Pressure 
 HTEM.                      No:  High Temp 
 HYDO.m                   1.80:  Hydro Offset 
 IFIN.deg                25.62:  Inc, Final 
 IMAX.deg                48.69:  Inc Max 
 IMIN.deg                24.01:  Inc Min 
 IMND.m                4962.57:  Inc Min Depth 
 IMXD.m                4119.01:  Inc Max Depth 
 JARR.                      No:  Jarring 
 LETM.      18.40.00 29-Aug-21:  Log End Time 
 LOST.hr                     0:  Lost Rig Time 
 LSTM.      21.00.00 20-Aug-21:  Log Start Time 
 MDCL.ppm             41500.00:  Mud Chlorides 
 MDES.     Inversion Oil/Synthetic:  Mud Desc 
 DFD .sg                  1.56:  Mud Density 
 MDMN.sg                  1.56:  Dens Mud Min 
 MDMX.sg                  1.56:  Dens Mud Max 
 MOIL.                      70:  Run Mud Oil % 
 MOWR.                   70:30:  Run Mud OWR 
 MSND.                     0.2:  Run Mud Sand % 
 MSOL.                    23.3:  Run Mud Solids% 
 DFV .spqt               78.00:  Mud Viscosity 
 MWOD.in                  6.75:  MWD Tool OD 
 MWSI.                      No:  Serv Intrp, MWD 
 OTIM.hr                218.30:  Time Operating 
 PCON.           Look Like New:  Pad Condition 
 PMAX.psia            11015.30:  Press Op, Max 
 PV  .cP                 38.00:  Mud PV 
 RUN .                     300:  Run Number 
 ROPA.m/hr               15.00:  ROP Avg 
 ROPN.m/hr                9.00:  ROP Min 
 ROPX.m/hr               17.00:  ROP Max 
 RPMA.rpm               120.00:  RPM Surface Avg 
 RPMN.rpm                90.00:  RPM Surface Min 
 RPMX.rpm               140.00:  RPM Surface Max 
 RRUN.                     300:  Rig Run Number 
 RTIM.hr                 31.53:  Time Reaming 
 SAZI.deg               331.64:  Azm, Start 
 SDEP.m                4127.00:  Start Depth 
 SIDD.                      No:  Serv Intrp, DD 
 SINC.deg                48.43:  Inc, Start 
 SPPA.psig             5830.00:  SPP Avg 
 SPPN.psig             5600.00:  SPP Min 
 SPPX.psig             5900.00:  SPP Max 
 STIM.      21.00.00 20-Aug-21:  Start Time 
 SVCS.                 DD, MWD:  Services 
 SVER.                    9.20:  Sperry Version 
 TDAT.m                 957.50:  Tot Depth Attmp 
 TDDF.                      No:  Trip for DD 
 TDLG.m                 957.50:  Tot Depth Loggd 
 TFF .                      No:  Trip for Fail 
 TQAA.f-kp               15.00:  Torque Abs Avg 
 TQAN.f-kp               12.00:  Torque Abs Min 
 TQAX.f-kp               19.00:  Torque Abs Max 
 TRRT.°/30m              -3.40:  Turn Rotating 
 MRT .                  EWR-M5:  Maximum Recorded Temperature 
 TTMX.degC              100.00:  Max Tool Temp 
 VS01.                90639251:  Virtual Str1 SN 
 VS02.                90634715:  Virtual Str2 SN 
 VS03.                90652479:  Virtual Str3 SN 
 VS04.                90642262:  Virtual Str4 SN 
 WBMN.klb                 0.00:  WOB Min 
 WITN.           Murad Guliyev:  Customer Rep 
 WITN.          Yashar Gaziyev:  Customer Rep 2 
 WOBA.klb                 9.00:  WOB Avg 
 WOBX.klb                12.00:  WOB Max 
 YP  .lhf2               30.00:  Yield Point 
~Curve Information Block
#MNEM.UNIT                 API CODE     Curve Description
#---------               -----------    ---------------------------
 TIME.HHMMSS            00 000 000 000:  GT Time & Date
 GTDEPTH.m              00 000 000 000:  GT Depth
 GTPQH.psia             00 000 000 000:  GT HR Quartz Pressure
 GTTQ.degC              00 000 000 000:  GT Quartz Temperature
 GTTN.NONE              00 000 000 000:  GT Test Number
 GTET.sec               00 000 000 000:  GT Elapsed Test Time
 GTTVD.m                00 000 000 000:  GT True Vertical Depth
#Other Information
#
#WARRANTY: Halliburton will use its best efforts to furnish customers with 
#accurate information and interpretations that are part of, and incident to, the services 
#provided.  However, Halliburton cannot and does not warrant the accuracy 
#or correctness of such information and interpretations.  Under no circumstances should any 
#such information or interpretation be relied upon as the sole basis for any drilling, 
#completion, production, or financial decision or any procedure involving any risk to the 
#safety of any drilling venture, drilling rig or its crew or any other third party.  The 
#Customer has full responsibility for all drilling, completion and production operation.  
#Halliburton makes no representations or warranties, either expressed or 
#implied, including, but not limited to, the implied warranties of merchantability or fitness 
#for a particular purpose, with respect to the services rendered.  In no event will 
#Halliburton be liable for failure to obtain any particular results or for 
#any damages, including, but not limited to, indirect, special or consequential damages, 
#resulting from the use of any information or interpretation provided by Halliburton.
#
~A           TIME           GTDEPTH  GTPQH  GTTQ  GTTN   GTET   GTTVD  
# ...
   21:30:05.889.27-Aug-2021 4641.00 1240.15 82.45 23.00 361.64 3014.10
   21:30:06.089.27-Aug-2021 4641.00 1240.22 82.45 23.00 361.84 3014.10
   21:30:06.289.27-Aug-2021 4641.00 1240.30 82.45 23.00 362.04 3014.10
   21:30:06.489.27-Aug-2021 4641.00 1240.30 82.45 23.00 362.24 3014.10
   21:30:06.689.27-Aug-2021 4641.00 1240.44 82.45 23.00 362.44 3014.10
   21:30:06.889.27-Aug-2021 4641.00 1240.50 82.45 23.00 362.64 3014.10
   21:30:07.089.27-Aug-2021 4641.00 1240.50 82.45 23.00 362.84 3014.10
   21:30:07.289.27-Aug-2021 4641.00 1240.18 82.45 23.00 363.04 3014.10
   21:30:07.489.27-Aug-2021 4641.00 1240.18 82.45 23.00 363.24 3014.10
   21:30:07.689.27-Aug-2021 4641.00 1240.99 82.45 23.00 363.44 3014.10
   21:30:07.889.27-Aug-2021 4641.00 1241.03 82.45 23.00 363.64 3014.10
   21:30:08.089.27-Aug-2021 4641.00 1241.10 82.45 23.00 363.84 3014.10
   21:30:08.289.27-Aug-2021 4641.00 1241.22 82.45 23.00 364.04 3014.10
   21:30:08.489.27-Aug-2021 4641.00 1241.22 82.45 23.00 364.24 3014.10
   21:30:08.689.27-Aug-2021 4641.00 1241.32 82.45 23.00 364.44 3014.10
   21:30:08.889.27-Aug-2021 4641.00 1241.36 82.45 23.00 364.64 3014.10
   21:30:09.089.27-Aug-2021 4641.00 1241.45 82.45 23.00 364.84 3014.10
   21:30:09.289.27-Aug-2021 4641.00 1241.52 82.45 23.00 365.04 3014.10
   21:30:09.489.27-Aug-2021 4641.00 1241.52 82.45 23.00 365.24 3014.10
   21:30:09.689.27-Aug-2021 4641.00 1241.66 82.45 23.00 365.44 3014.10
   21:30:09.889.27-Aug-2021 4641.00 1241.75 82.45 23.00 365.64 3014.10
   21:30:10.089.27-Aug-2021 4641.00 1241.80 82.45 23.00 365.84 3014.10
   21:30:10.289.27-Aug-2021 4641.00 1241.86 82.45 23.00 366.04 3014.10
   21:30:10.489.27-Aug-2021 4641.00 1241.86 82.45 23.00 366.24 3014.10
   21:30:10.689.27-Aug-2021 4641.00 1242.29 82.45 23.00 366.44 3014.10
   21:30:10.889.27-Aug-2021 4641.00 1242.34 82.45 23.00 366.64 3014.10
   21:30:11.089.27-Aug-2021 4641.00 1242.40 82.45 23.00 366.84 3014.10
   21:30:11.289.27-Aug-2021 4641.00 1242.43 82.45 23.00 367.04 3014.10
   21:30:11.489.27-Aug-2021 4641.00 1242.43 82.45 23.00 367.24 3014.10
   21:30:11.689.27-Aug-2021 4641.00 1242.37 82.45 23.00 367.44 3014.10
   21:30:11.890.27-Aug-2021 4641.00 1242.74 82.45 23.00 367.64 3014.10
   21:30:12.090.27-Aug-2021 4641.00 1242.77 82.45 23.00 367.84 3014.10
   21:30:12.290.27-Aug-2021 4641.00 1242.81 82.45 23.00 368.04 3014.10
   21:30:12.490.27-Aug-2021 4641.00 1242.81 82.45 23.00 368.24 3014.10
   21:30:12.690.27-Aug-2021 4641.00 1242.97 82.45 23.00 368.44 3014.10
   21:30:12.890.27-Aug-2021 4641.00 1242.65 82.45 23.00 368.64 3014.10
   21:30:13.090.27-Aug-2021 4641.00 1242.88 82.45 23.00 368.84 3014.10
   21:30:13.290.27-Aug-2021 4641.00 1243.28 82.45 23.00 369.04 3014.10
   21:30:13.490.27-Aug-2021 4641.00 1243.28 82.45 23.00 369.24 3014.10
   21:30:13.690.27-Aug-2021 4641.00 1243.99 82.45 23.00 369.44 3014.10
   21:30:13.890.27-Aug-2021 4641.00 1243.15 82.45 23.00 369.64 3014.10
   21:30:14.090.27-Aug-2021 4641.00 1243.65 82.45 23.00 369.84 3014.10
   21:30:14.290.27-Aug-2021 4641.00 1243.72 82.45 23.00 370.04 3014.10
   21:30:14.490.27-Aug-2021 4641.00 1243.72 82.45 23.00 370.24 3014.10
   21:30:14.690.27-Aug-2021 4641.00 1243.82 82.45 23.00 370.44 3014.10
   21:30:14.890.27-Aug-2021 4641.00 1243.94 82.45 23.00 370.64 3014.10
   21:30:15.090.27-Aug-2021 4641.00 1244.00 82.45 23.00 370.84 3014.10
   21:30:15.290.27-Aug-2021 4641.00 1244.06 82.45 23.00 371.04 3014.10
   21:30:15.490.27-Aug-2021 4641.00 1244.06 82.45 23.00 371.24 3014.10
   21:30:15.690.27-Aug-2021 4641.00 1244.18 82.45 23.00 371.44 3014.10
   21:30:15.890.27-Aug-2021 4641.00 1244.28 82.46 23.00 371.64 3014.10
   21:30:16.090.27-Aug-2021 4641.00 1244.34 82.46 23.00 371.84 3014.10
   21:30:16.290.27-Aug-2021 4641.00 1244.41 82.45 23.00 372.04 3014.10
   21:30:16.490.27-Aug-2021 4641.00 1244.41 82.45 23.00 372.24 3014.10
   21:30:16.690.27-Aug-2021 4641.00 1244.54 82.46 23.00 372.44 3014.10
   21:30:16.890.27-Aug-2021 4641.00 1243.93 82.46 23.00 372.64 3014.10
   21:30:17.090.27-Aug-2021 4641.00 1244.99 82.46 23.00 372.84 3014.10
   21:30:17.290.27-Aug-2021 4641.00 1244.99 82.46 23.00 373.04 3014.10
   21:30:17.490.27-Aug-2021 4641.00 1244.99 82.46 23.00 373.24 3014.10
   21:30:17.690.27-Aug-2021 4641.00 1245.10 82.46 23.00 373.44 3014.10
   21:30:17.890.27-Aug-2021 4641.00 1245.18 82.46 23.00 373.64 3014.10
   21:30:18.090.27-Aug-2021 4641.00 1245.22 82.46 23.00 373.84 3014.10
   21:30:18.290.27-Aug-2021 4641.00 1245.29 82.46 23.00 374.04 3014.10
   21:30:18.490.27-Aug-2021 4641.00 1245.29 82.46 23.00 374.24 3014.10
   21:30:18.690.27-Aug-2021 4641.00 1245.41 82.46 23.00 374.44 3014.10
   21:30:18.890.27-Aug-2021 4641.00 1245.49 82.46 23.00 374.64 3014.10
   21:30:19.090.27-Aug-2021 4641.00 1364.87 82.46 23.00 374.84 3014.10
   21:30:19.290.27-Aug-2021 4641.00 1614.13 82.46 23.00 375.04 3014.10
   21:30:19.490.27-Aug-2021 4641.00 1614.13 82.46 23.00 375.24 3014.10
   21:30:19.690.27-Aug-2021 4641.00 6640.66 82.46 23.00 375.44 3014.10
   21:30:19.890.27-Aug-2021 4641.00 7228.22 82.46 23.00 375.64 3014.10
   21:30:20.090.27-Aug-2021 4641.00 7233.06 82.46 23.00 375.84 3014.10
   21:30:20.290.27-Aug-2021 4641.00 7223.50 82.46 23.00 376.04 3014.10
   21:30:20.490.27-Aug-2021 4641.00 7223.50 82.46 23.00 376.24 3014.10
   21:30:20.690.27-Aug-2021 4641.00 7226.21 82.46 23.00 376.44 3014.10
   21:30:20.890.27-Aug-2021 4641.00 7228.13 82.47 23.00 376.64 3014.10
   21:30:21.090.27-Aug-2021 4641.00 7229.02 82.47 23.00 376.84 3014.10
   21:30:21.290.27-Aug-2021 4641.00 7236.44 82.47 23.00 377.04 3014.10
   21:30:21.490.27-Aug-2021 4641.00 7236.44 82.47 23.00 377.24 3014.10
   21:30:21.691.27-Aug-2021 4641.00 7232.60 82.48 23.00 377.44 3014.10
   21:30:21.891.27-Aug-2021 4641.00 7232.95 82.49 23.00 377.64 3014.10
   21:30:22.091.27-Aug-2021 4641.00 7235.05 82.49 23.00 377.84 3014.10
   21:30:22.291.27-Aug-2021 4641.00 7235.47 82.50 23.00 378.04 3014.10
   21:30:22.491.27-Aug-2021 4641.00 7235.47 82.50 23.00 378.24 3014.10
   21:30:22.691.27-Aug-2021 4641.00 7241.75 82.51 23.00 378.44 3014.10
   21:30:22.891.27-Aug-2021 4641.00 7236.19 82.51 23.00 378.64 3014.10
   21:30:23.091.27-Aug-2021 4641.00 7237.80 82.52 23.00 378.84 3014.10
   21:30:23.291.27-Aug-2021 4641.00 7238.17 82.52 23.00 379.04 3014.10
   21:30:23.491.27-Aug-2021 4641.00 7238.17 82.52 23.00 379.24 3014.10
   21:30:23.691.27-Aug-2021 4641.00 7239.18 82.53 23.00 379.44 3014.10
   21:30:23.891.27-Aug-2021 4641.00 7242.40 82.53 23.00 379.64 3014.10
   21:30:24.091.27-Aug-2021 4641.00 7239.59 82.54 23.00 379.84 3014.10
   21:30:24.291.27-Aug-2021 4641.00 7239.42 82.54 23.00 380.04 3014.10
   21:30:24.491.27-Aug-2021 4641.00 7239.42 82.54 23.00 380.24 3014.10
   21:30:24.691.27-Aug-2021 4641.00 7239.78 82.55 23.00 380.44 3014.10
   21:30:24.891.27-Aug-2021 4641.00 7240.59 82.56 23.00 380.64 3014.10
   21:30:25.091.27-Aug-2021 4641.00 7240.19 82.56 23.00 380.84 3014.10
   21:30:25.291.27-Aug-2021 4641.00 7239.97 82.56 23.00 381.04 3014.10
   21:30:25.491.27-Aug-2021 4641.00 7239.97 82.56 23.00 381.24 3014.10
   21:30:25.691.27-Aug-2021 4641.00 7240.38 82.57 23.00 381.44 3014.10
   21:30:25.891.27-Aug-2021 4641.00 7240.39 82.57 23.00 381.64 3014.10
   21:30:26.091.27-Aug-2021 4641.00 7240.34 82.58 23.00 381.84 3014.10
   21:30:26.291.27-Aug-2021 4641.00 7240.33 82.58 23.00 382.04 3014.10
   21:30:26.491.27-Aug-2021 4641.00 7240.33 82.58 23.00 382.24 3014.10
   21:30:26.691.27-Aug-2021 4641.00 7240.46 82.59 23.00 382.44 3014.10
   21:30:26.891.27-Aug-2021 4641.00 7240.41 82.59 23.00 382.64 3014.10
   21:30:27.091.27-Aug-2021 4641.00 7244.48 82.59 23.00 382.84 3014.10
   21:30:27.291.27-Aug-2021 4641.00 7241.64 82.59 23.00 383.04 3014.10
   21:30:27.491.27-Aug-2021 4641.00 7241.64 82.59 23.00 383.24 3014.10
   21:30:27.691.27-Aug-2021 4641.00 7241.59 82.60 23.00 383.44 3014.10
   21:30:27.891.27-Aug-2021 4641.00 7241.35 82.60 23.00 383.64 3014.10
   21:30:28.091.27-Aug-2021 4641.00 7241.98 82.60 23.00 383.84 3014.10
   21:30:28.291.27-Aug-2021 4641.00 7241.66 82.61 23.00 384.04 3014.10
