~Version Information
 VERS.                  2.0:   CWLS log ASCII Standard -VERSION 2.0
 WRAP.                   NO:   One line per depth step
~Well Information Block
#MNEM.UNIT     VALUE/NAME     DESCRIPTION
#---------     -----------    ---------------------------
 STRT.S             14:18:21 27-Aug-21: START TIME 14:18:21 27-Aug-21
 STOP.S             14:25:11 27-Aug-21: STOP TIME  14:25:11 27-Aug-21
 STEP.S                   0.00: STEP TIME
 NULL.                 -999.25: NULL VALUE
 DFWT.                        :  DIST FWL TEXT
 DFST.                        :  DIST FSL TEXT
 DMF .             Drill Floor:  DRILL MEAS FROM
 STIM.      20.00.00 17-Aug-21:  START TIME
 DATE.      19.00.00 29-Aug-21:  END TIME
 SPUD.               15-Aug-21:  SPUD DATE
 NREF.                    Grid:  NORTH REFERENCE
 HPTY.       Minimum Curvature:  HOLE POS TYPE
 DMOD.             Drill Model:  DRILL MOD DESC
 SVYD.                  Survey:  SURVEY DESC
 ILTD.               Lithology:  INTERP LTH DESC
 FTOP.          Formation Tops:  FORM TOPS DESC
 RIG .              East Azeri:  RIG NAME
 PDAT.          Mean Sea Level:  PERMANENT DATUM
 FLD .                     ACG:  FIELD NAME
 SON .        AZ-XX-0907180857:  JOB NUMBER
 CTRY.              Azerbaijan:  COUNTRY NAME
 WELL.                    D23x:  WELL NAME
 SRVC.     Turan Drilling and Engineering:  CONTRACTOR
 COMP.     BP Exploration (Caspian Sea) Ltd.:  COMPANY
 UWI .            /AZE00000214:  UNIQUE WELL IDENTIFIER
 API .            /AZE00000214:  API NUMBER
 MDS .        Operator Entered:  MAG DATA SOURCE
 BASE.              Azerbaijan:  LOGGING EQUIPMENT BASE LOCATION
 REGN.                   EESSA:  REGION
 PROV.                    Baku:  PROVINCE
 STAT.                    Baku:  STATE NAME
 MWDS.                    Baku:  MWD SHOP
 DOE .                     N/A:  DOE NUMBER
 DCON.         Sperry Drilling:  DIRECTNL CONTR
 UNIT.                     N/A:  LOGGING EQUIPMENT ID
 WTYP.                Deviated:  WELL TYPE
 CNTY.                        :  COUNTY
 LOC .                        :  LOCATION
 LMF .             Drill Floor:  LOG MEASURED FROM
 TVDS.m                  43.60:  TVDSS CORRECTN
 LATI.deg                40.02:  LATITUDE
 LONG.deg                51.45:  LONGITUDE
 WHNS.m                  -7.04:  WELL HEAD N/S
 WHEW.m                  -0.67:  WELL HEAD E/W
 UTMX.m              538762.90:  UTM X
 UTMY.m             4431871.34:  UTM Y
 DFWL.m                   0.00:  DISTANCE FWL
 DFSL.m                   0.00:  DISTANCE FSL
 SDEP.m                4127.00:  START DEPTH
 TDD .m                5084.50:  TOTAL DEPTH (DRILLER)
 VSDR.deg               140.47:  VERT SEC DIRECT
 GVFD.g                   1.00:  GRAVITY FIELD
 MFLD.nT              50362.00:  MAGNETIC FIELD
 MDIP.deg                59.48:  MAGNETIC DIP
 MDEC.deg                 6.47:  MAGNETIC DECL
 GRDC.deg                 0.31:  GRID CORRECTION
 AZTC.deg                 6.16:  AZM TOTAL CORR
 EPD .m                   0.00:  ELEVATION
 EGL .m                   0.00:  GROUND ELEVATION
 WDMS.m                 151.80:  WD ELEV
 APD .m                  43.60:  DEPTH ABOVE PD
 DEP .m                4092.57:  DEPTH
 AGAP.m                  43.60:  AIR GAP
 VSEW.m                  -0.67:  VERT SEC E/W
 VSNS.m                  -7.04:  VERT SEC N/S
 EKB .m                  43.60:  KB ELEVATION
 EDF .m                  43.60:  DF ELEVATION
 TDL .m                 957.50:  TOTAL DEPTH (LOGGER)
 VSC .                       0:  VS TO CLOSURE
 MAGU.                 1851413:  MAGUTM CHECKSUM
~Parameter Information Block
#MNEM.UNIT       Value        Description
#---------     -----------    ---------------------------
 AV  .mps                 1.50:  Ann Velocity 
 AVMX.mps                 2.00:  Max Ann Veloc 
 AZIF.deg               184.66:  Azm, Final 
 BHAT.        Rotary Steerable:  BHA Type 
 BREV.rev               300.00:  Rev Bit Total 
 BROT.°/30m              -0.50:  Build Rotating 
 BS  .in                  8.50:  Bit Size 
 BSZ .in                  8.50:  Bit Size 
 BTPL.psig              370.00:  Bit Press Loss 
 CABU.                      No:  Customer Abuse 
 CGEO.      Behruz Shahbaliyev:  Customer Geo 
 COMM.                     LAp:  Run Comments 1 
 TCS .hr                140.08:  Time Ciculation Ended 
 CV  .mps                 3.00:  Crit Velocity 
 CVMX.mps                 3.20:  Max Crit Veloc 
 DD1 .            Musa Ahmadov:  Direct Drillr 1 
 DD2 .           Hamid Ahmadov:  Direct Drillr 2 
 DDSV.               Geo-Pilot:  DD Service 
 DEFF.%                  98.40:  % Det Eff 
 DLRX.°/30m               3.40:  Dogleg Rot Max 
 DLSO.°/30m               1.45:  Dogleg Oriented 
 DLSX.°/30m               3.40:  Dogleg Str Max 
 DRET.      18.40.00 29-Aug-21:  Drill End Time 
 DRST.      21.00.00 20-Aug-21:  Drill Start Tim 
 DTIM.hr                 69.47:  Time Drilling 
 EDEP.m                5084.50:  End Depth 
 ENG1.      Artemiy Matviyanov:  Engineer 1 
 ENG2.         Almaz Almadatov:  Engineer 2 
 ETIM.      18.40.00 29-Aug-21:  End Time 
 FLOI.gpm               500.00:  Flow In 
 FLON.gpm               400.00:  Flow In Min 
 FLOS.cptm                0.00:  Fluid Loss 
 FLOX.gpm               500.00:  Flow In Max 
 DFT .        Mineral Oil Base:  Mud Type 
 HFLO.                      No:  High Flow 
 HPRE.                      No:  High Pressure 
 HTEM.                      No:  High Temp 
 HYDO.m                   1.80:  Hydro Offset 
 IFIN.deg                25.62:  Inc, Final 
 IMAX.deg                48.69:  Inc Max 
 IMIN.deg                24.01:  Inc Min 
 IMND.m                4962.57:  Inc Min Depth 
 IMXD.m                4119.01:  Inc Max Depth 
 JARR.                      No:  Jarring 
 LETM.      18.40.00 29-Aug-21:  Log End Time 
 LOST.hr                     0:  Lost Rig Time 
 LSTM.      21.00.00 20-Aug-21:  Log Start Time 
 MDCL.ppm             41500.00:  Mud Chlorides 
 MDES.     Inversion Oil/Synthetic:  Mud Desc 
 DFD .sg                  1.56:  Mud Density 
 MDMN.sg                  1.56:  Dens Mud Min 
 MDMX.sg                  1.56:  Dens Mud Max 
 MOIL.                      70:  Run Mud Oil % 
 MOWR.                   70:30:  Run Mud OWR 
 MSND.                     0.2:  Run Mud Sand % 
 MSOL.                    23.3:  Run Mud Solids% 
 DFV .spqt               78.00:  Mud Viscosity 
 MWOD.in                  6.75:  MWD Tool OD 
 MWSI.                      No:  Serv Intrp, MWD 
 OTIM.hr                218.30:  Time Operating 
 PCON.           Look Like New:  Pad Condition 
 PMAX.psia            11015.30:  Press Op, Max 
 PV  .cP                 38.00:  Mud PV 
 RUN .                     300:  Run Number 
 ROPA.m/hr               15.00:  ROP Avg 
 ROPN.m/hr                9.00:  ROP Min 
 ROPX.m/hr               17.00:  ROP Max 
 RPMA.rpm               120.00:  RPM Surface Avg 
 RPMN.rpm                90.00:  RPM Surface Min 
 RPMX.rpm               140.00:  RPM Surface Max 
 RRUN.                     300:  Rig Run Number 
 RTIM.hr                 31.53:  Time Reaming 
 SAZI.deg               331.64:  Azm, Start 
 SDEP.m                4127.00:  Start Depth 
 SIDD.                      No:  Serv Intrp, DD 
 SINC.deg                48.43:  Inc, Start 
 SPPA.psig             5830.00:  SPP Avg 
 SPPN.psig             5600.00:  SPP Min 
 SPPX.psig             5900.00:  SPP Max 
 STIM.      21.00.00 20-Aug-21:  Start Time 
 SVCS.                 DD, MWD:  Services 
 SVER.                    9.20:  Sperry Version 
 TDAT.m                 957.50:  Tot Depth Attmp 
 TDDF.                      No:  Trip for DD 
 TDLG.m                 957.50:  Tot Depth Loggd 
 TFF .                      No:  Trip for Fail 
 TQAA.f-kp               15.00:  Torque Abs Avg 
 TQAN.f-kp               12.00:  Torque Abs Min 
 TQAX.f-kp               19.00:  Torque Abs Max 
 TRRT.°/30m              -3.40:  Turn Rotating 
 MRT .                  EWR-M5:  Maximum Recorded Temperature 
 TTMX.degC              100.00:  Max Tool Temp 
 VS01.                90639251:  Virtual Str1 SN 
 VS02.                90634715:  Virtual Str2 SN 
 VS03.                90652479:  Virtual Str3 SN 
 VS04.                90642262:  Virtual Str4 SN 
 WBMN.klb                 0.00:  WOB Min 
 WITN.           Murad Guliyev:  Customer Rep 
 WITN.          Yashar Gaziyev:  Customer Rep 2 
 WOBA.klb                 9.00:  WOB Avg 
 WOBX.klb                12.00:  WOB Max 
 YP  .lhf2               30.00:  Yield Point 
~Curve Information Block
#MNEM.UNIT                 API CODE     Curve Description
#---------               -----------    ---------------------------
 TIME.HHMMSS            00 000 000 000:  GT Time & Date
 GTDEPTH.m              00 000 000 000:  GT Depth
 GTPQH.psia             00 000 000 000:  GT HR Quartz Pressure
 GTTQ.degC              00 000 000 000:  GT Quartz Temperature
 GTTN.NONE              00 000 000 000:  GT Test Number
 GTET.sec               00 000 000 000:  GT Elapsed Test Time
 GTTVD.m                00 000 000 000:  GT True Vertical Depth
#Other Information
#
#WARRANTY: Halliburton will use its best efforts to furnish customers with 
#accurate information and interpretations that are part of, and incident to, the services 
#provided.  However, Halliburton cannot and does not warrant the accuracy 
#or correctness of such information and interpretations.  Under no circumstances should any 
#such information or interpretation be relied upon as the sole basis for any drilling, 
#completion, production, or financial decision or any procedure involving any risk to the 
#safety of any drilling venture, drilling rig or its crew or any other third party.  The 
#Customer has full responsibility for all drilling, completion and production operation.  
#Halliburton makes no representations or warranties, either expressed or 
#implied, including, but not limited to, the implied warranties of merchantability or fitness 
#for a particular purpose, with respect to the services rendered.  In no event will 
#Halliburton be liable for failure to obtain any particular results or for 
#any damages, including, but not limited to, indirect, special or consequential damages, 
#resulting from the use of any information or interpretation provided by Halliburton.
#
~A           TIME           GTDEPTH  GTPQH  GTTQ  GTTN   GTET   GTTVD  
# ...
   14:22:52.200.27-Aug-2021 4859.50 1614.85 84.40 15.00 271.20 3211.87
   14:22:52.400.27-Aug-2021 4859.50 1609.51 84.40 15.00 271.40 3211.87
   14:22:52.600.27-Aug-2021 4859.50 1608.47 84.40 15.00 271.60 3211.87
   14:22:52.800.27-Aug-2021 4859.50 1609.18 84.40 15.00 271.80 3211.87
   14:22:53.000.27-Aug-2021 4859.50 1609.06 84.40 15.00 272.00 3211.87
   14:22:53.200.27-Aug-2021 4859.50 1609.06 84.40 15.00 272.20 3211.87
   14:22:53.400.27-Aug-2021 4859.50 1606.96 84.39 15.00 272.40 3211.87
   14:22:53.600.27-Aug-2021 4859.50 1606.38 84.39 15.00 272.60 3211.87
   14:22:53.800.27-Aug-2021 4859.50 1606.37 84.39 15.00 272.80 3211.87
   14:22:54.000.27-Aug-2021 4859.50 1605.50 84.39 15.00 273.00 3211.87
   14:22:54.200.27-Aug-2021 4859.50 1605.50 84.39 15.00 273.20 3211.87
   14:22:54.400.27-Aug-2021 4859.50 1602.42 84.38 15.00 273.40 3211.87
   14:22:54.600.27-Aug-2021 4859.50 1598.82 84.38 15.00 273.60 3211.87
   14:22:54.800.27-Aug-2021 4859.50 1598.91 84.38 15.00 273.80 3211.87
   14:22:55.000.27-Aug-2021 4859.50 1598.48 84.38 15.00 274.00 3211.87
   14:22:55.200.27-Aug-2021 4859.50 1598.48 84.38 15.00 274.20 3211.87
   14:22:55.400.27-Aug-2021 4859.50 1605.74 84.38 15.00 274.40 3211.87
   14:22:55.600.27-Aug-2021 4859.50 1607.81 84.37 15.00 274.60 3211.87
   14:22:55.800.27-Aug-2021 4859.50 1609.56 84.37 15.00 274.80 3211.87
   14:22:56.000.27-Aug-2021 4859.50 1611.22 84.37 15.00 275.00 3211.87
   14:22:56.200.27-Aug-2021 4859.50 1611.22 84.37 15.00 275.20 3211.87
   14:22:56.400.27-Aug-2021 4859.50 1610.94 84.37 15.00 275.40 3211.87
   14:22:56.600.27-Aug-2021 4859.50 1610.01 84.37 15.00 275.60 3211.87
   14:22:56.800.27-Aug-2021 4859.50 1609.78 84.37 15.00 275.80 3211.87
   14:22:57.000.27-Aug-2021 4859.50 1610.11 84.36 15.00 276.00 3211.87
   14:22:57.200.27-Aug-2021 4859.50 1610.11 84.36 15.00 276.20 3211.87
   14:22:57.400.27-Aug-2021 4859.50 1613.98 84.36 15.00 276.40 3211.87
   14:22:57.600.27-Aug-2021 4859.50 1614.19 84.36 15.00 276.60 3211.87
   14:22:57.800.27-Aug-2021 4859.50 1613.83 84.36 15.00 276.80 3211.87
   14:22:58.000.27-Aug-2021 4859.50 1609.86 84.36 15.00 277.00 3211.87
   14:22:58.200.27-Aug-2021 4859.50 1609.86 84.36 15.00 277.20 3211.87
   14:22:58.400.27-Aug-2021 4859.50 1605.23 84.36 15.00 277.40 3211.87
   14:22:58.600.27-Aug-2021 4859.50 1608.28 84.36 15.00 277.60 3211.87
   14:22:58.800.27-Aug-2021 4859.50 1607.73 84.36 15.00 277.80 3211.87
   14:22:59.000.27-Aug-2021 4859.50 1604.76 84.35 15.00 278.00 3211.87
   14:22:59.200.27-Aug-2021 4859.50 1604.76 84.35 15.00 278.20 3211.87
   14:22:59.400.27-Aug-2021 4859.50 1604.11 84.35 15.00 278.40 3211.87
   14:22:59.600.27-Aug-2021 4859.50 1603.95 84.35 15.00 278.60 3211.87
   14:22:59.800.27-Aug-2021 4859.50 1604.30 84.35 15.00 278.80 3211.87
   14:23:00.000.27-Aug-2021 4859.50 1604.34 84.35 15.00 279.00 3211.87
   14:23:00.200.27-Aug-2021 4859.50 1604.34 84.35 15.00 279.20 3211.87
   14:23:00.400.27-Aug-2021 4859.50 1608.64 84.35 15.00 279.40 3211.87
   14:23:00.600.27-Aug-2021 4859.50 1611.53 84.35 15.00 279.60 3211.87
   14:23:00.800.27-Aug-2021 4859.50 1620.11 84.35 15.00 279.80 3211.87
   14:23:01.000.27-Aug-2021 4859.50 1633.35 84.35 15.00 280.00 3211.87
   14:23:01.200.27-Aug-2021 4859.50 1633.35 84.35 15.00 280.20 3211.87
   14:23:01.400.27-Aug-2021 4859.50 1648.68 84.35 15.00 280.40 3211.87
   14:23:01.600.27-Aug-2021 4859.50 1656.20 84.35 15.00 280.60 3211.87
   14:23:01.800.27-Aug-2021 4859.50 1663.75 84.35 15.00 280.80 3211.87
   14:23:02.000.27-Aug-2021 4859.50 1671.17 84.35 15.00 281.00 3211.87
   14:23:02.200.27-Aug-2021 4859.50 1671.17 84.35 15.00 281.20 3211.87
   14:23:02.400.27-Aug-2021 4859.50 1685.92 84.35 15.00 281.40 3211.87
   14:23:02.600.27-Aug-2021 4859.50 1693.25 84.35 15.00 281.60 3211.87
   14:23:02.800.27-Aug-2021 4859.50 1700.48 84.35 15.00 281.80 3211.87
   14:23:03.000.27-Aug-2021 4859.50 1707.64 84.35 15.00 282.00 3211.87
   14:23:03.200.27-Aug-2021 4859.50 1707.64 84.35 15.00 282.20 3211.87
   14:23:03.400.27-Aug-2021 4859.50 1722.11 84.34 15.00 282.40 3211.87
   14:23:03.600.27-Aug-2021 4859.50 1729.29 84.34 15.00 282.60 3211.87
   14:23:03.800.27-Aug-2021 4859.50 1736.19 84.34 15.00 282.80 3211.87
   14:23:04.000.27-Aug-2021 4859.50 1743.24 84.34 15.00 283.00 3211.87
   14:23:04.200.27-Aug-2021 4859.50 1743.24 84.34 15.00 283.20 3211.87
   14:23:04.400.27-Aug-2021 4859.50 1757.39 84.34 15.00 283.40 3211.87
   14:23:04.600.27-Aug-2021 4859.50 1764.29 84.34 15.00 283.60 3211.87
   14:23:04.800.27-Aug-2021 4859.50 1771.16 84.34 15.00 283.80 3211.87
   14:23:05.000.27-Aug-2021 4859.50 1777.75 84.34 15.00 284.00 3211.87
   14:23:05.200.27-Aug-2021 4859.50 1777.75 84.34 15.00 284.20 3211.87
   14:23:05.400.27-Aug-2021 4859.50 1791.74 84.34 15.00 284.40 3211.87
   14:23:05.600.27-Aug-2021 4859.50 1798.47 84.34 15.00 284.60 3211.87
   14:23:05.800.27-Aug-2021 4859.50 1804.74 84.34 15.00 284.80 3211.87
   14:23:06.000.27-Aug-2021 4859.50 1811.70 84.34 15.00 285.00 3211.87
   14:23:06.200.27-Aug-2021 4859.50 1811.70 84.34 15.00 285.20 3211.87
   14:23:06.400.27-Aug-2021 4859.50 1824.21 84.34 15.00 285.40 3211.87
   14:23:06.600.27-Aug-2021 4859.50 1830.73 84.34 15.00 285.60 3211.87
   14:23:06.800.27-Aug-2021 4859.50 1837.34 84.35 15.00 285.80 3211.87
   14:23:07.000.27-Aug-2021 4859.50 1843.75 84.35 15.00 286.00 3211.87
   14:23:07.200.27-Aug-2021 4859.50 1843.75 84.35 15.00 286.20 3211.87
   14:23:07.400.27-Aug-2021 4859.50 1856.18 84.35 15.00 286.40 3211.87
   14:23:07.600.27-Aug-2021 4859.50 1862.59 84.35 15.00 286.60 3211.87
   14:23:07.800.27-Aug-2021 4859.50 1868.86 84.35 15.00 286.80 3211.87
   14:23:08.000.27-Aug-2021 4859.50 1875.18 84.35 15.00 287.00 3211.87
   14:23:08.200.27-Aug-2021 4859.50 1875.18 84.35 15.00 287.20 3211.87
   14:23:08.400.27-Aug-2021 4859.50 1887.66 84.35 15.00 287.40 3211.87
   14:23:08.600.27-Aug-2021 4859.50 1893.47 84.35 15.00 287.60 3211.87
   14:23:08.800.27-Aug-2021 4859.50 1899.68 84.35 15.00 287.80 3211.87
   14:23:09.000.27-Aug-2021 4859.50 1905.65 84.35 15.00 288.00 3211.87
   14:23:09.200.27-Aug-2021 4859.50 1905.65 84.35 15.00 288.20 3211.87
   14:23:09.400.27-Aug-2021 4859.50 1918.38 84.35 15.00 288.40 3211.87
   14:23:09.600.27-Aug-2021 4859.50 1924.23 84.35 15.00 288.60 3211.87
   14:23:09.800.27-Aug-2021 4859.50 1930.18 84.35 15.00 288.80 3211.87
   14:23:10.000.27-Aug-2021 4859.50 1936.15 84.35 15.00 289.00 3211.87
   14:23:10.200.27-Aug-2021 4859.50 1936.15 84.35 15.00 289.20 3211.87
   14:23:10.400.27-Aug-2021 4859.50 1948.44 84.35 15.00 289.40 3211.87
   14:23:10.600.27-Aug-2021 4859.50 1954.56 84.35 15.00 289.60 3211.87
   14:23:10.800.27-Aug-2021 4859.50 1960.67 84.35 15.00 289.80 3211.87
   14:23:11.000.27-Aug-2021 4859.50 1965.99 84.35 15.00 290.00 3211.87
   14:23:11.200.27-Aug-2021 4859.50 1965.99 84.35 15.00 290.20 3211.87
   14:23:11.400.27-Aug-2021 4859.50 1977.61 84.35 15.00 290.40 3211.87
   14:23:11.600.27-Aug-2021 4859.50 1983.65 84.35 15.00 290.60 3211.87
   14:23:11.800.27-Aug-2021 4859.50 1989.72 84.35 15.00 290.80 3211.87
   14:23:12.000.27-Aug-2021 4859.50 1995.69 84.35 15.00 291.00 3211.87
   14:23:12.200.27-Aug-2021 4859.50 1995.69 84.35 15.00 291.20 3211.87
   14:23:12.400.27-Aug-2021 4859.50 2007.21 84.35 15.00 291.40 3211.87
   14:23:12.600.27-Aug-2021 4859.50 2012.42 84.35 15.00 291.60 3211.87
   14:23:12.800.27-Aug-2021 4859.50 2018.10 84.35 15.00 291.80 3211.87
   14:23:13.000.27-Aug-2021 4859.50 2024.04 84.35 15.00 292.00 3211.87
   14:23:13.200.27-Aug-2021 4859.50 2024.04 84.35 15.00 292.20 3211.87
   14:23:13.400.27-Aug-2021 4859.50 2035.60 84.35 15.00 292.40 3211.87
   14:23:13.600.27-Aug-2021 4859.50 2041.69 84.35 15.00 292.60 3211.87
   14:23:13.800.27-Aug-2021 4859.50 2047.33 84.35 15.00 292.80 3211.87
   14:23:14.000.27-Aug-2021 4859.50 2052.48 84.35 15.00 293.00 3211.87
   14:23:14.200.27-Aug-2021 4859.50 2052.48 84.35 15.00 293.20 3211.87
   14:23:14.400.27-Aug-2021 4859.50 2063.97 84.35 15.00 293.40 3211.87
   14:23:14.600.27-Aug-2021 4859.50 2069.59 84.35 15.00 293.60 3211.87
