~Version Information
 VERS.                  2.0:   CWLS log ASCII Standard -VERSION 2.0
 WRAP.                   NO:   One line per depth step
~Well Information Block
#MNEM.UNIT     VALUE/NAME     DESCRIPTION
#---------     -----------    ---------------------------
 STRT.S             13:07:39 27-Aug-21: START TIME 13:07:39 27-Aug-21
 STOP.S             13:14:54 27-Aug-21: STOP TIME  13:14:54 27-Aug-21
 STEP.S                   0.00: STEP TIME
 NULL.                 -999.25: NULL VALUE
 DFWT.                        :  DIST FWL TEXT
 DFST.                        :  DIST FSL TEXT
 DMF .             Drill Floor:  DRILL MEAS FROM
 STIM.      20.00.00 17-Aug-21:  START TIME
 DATE.      19.00.00 29-Aug-21:  END TIME
 SPUD.               15-Aug-21:  SPUD DATE
 NREF.                    Grid:  NORTH REFERENCE
 HPTY.       Minimum Curvature:  HOLE POS TYPE
 DMOD.             Drill Model:  DRILL MOD DESC
 SVYD.                  Survey:  SURVEY DESC
 ILTD.               Lithology:  INTERP LTH DESC
 FTOP.          Formation Tops:  FORM TOPS DESC
 RIG .              East Azeri:  RIG NAME
 PDAT.          Mean Sea Level:  PERMANENT DATUM
 FLD .                     ACG:  FIELD NAME
 SON .        AZ-XX-0907180857:  JOB NUMBER
 CTRY.              Azerbaijan:  COUNTRY NAME
 WELL.                    D23x:  WELL NAME
 SRVC.     Turan Drilling and Engineering:  CONTRACTOR
 COMP.     BP Exploration (Caspian Sea) Ltd.:  COMPANY
 UWI .            /AZE00000214:  UNIQUE WELL IDENTIFIER
 API .            /AZE00000214:  API NUMBER
 MDS .        Operator Entered:  MAG DATA SOURCE
 BASE.              Azerbaijan:  LOGGING EQUIPMENT BASE LOCATION
 REGN.                   EESSA:  REGION
 PROV.                    Baku:  PROVINCE
 STAT.                    Baku:  STATE NAME
 MWDS.                    Baku:  MWD SHOP
 DOE .                     N/A:  DOE NUMBER
 DCON.         Sperry Drilling:  DIRECTNL CONTR
 UNIT.                     N/A:  LOGGING EQUIPMENT ID
 WTYP.                Deviated:  WELL TYPE
 CNTY.                        :  COUNTY
 LOC .                        :  LOCATION
 LMF .             Drill Floor:  LOG MEASURED FROM
 TVDS.m                  43.60:  TVDSS CORRECTN
 LATI.deg                40.02:  LATITUDE
 LONG.deg                51.45:  LONGITUDE
 WHNS.m                  -7.04:  WELL HEAD N/S
 WHEW.m                  -0.67:  WELL HEAD E/W
 UTMX.m              538762.90:  UTM X
 UTMY.m             4431871.34:  UTM Y
 DFWL.m                   0.00:  DISTANCE FWL
 DFSL.m                   0.00:  DISTANCE FSL
 SDEP.m                4127.00:  START DEPTH
 TDD .m                5084.50:  TOTAL DEPTH (DRILLER)
 VSDR.deg               140.47:  VERT SEC DIRECT
 GVFD.g                   1.00:  GRAVITY FIELD
 MFLD.nT              50362.00:  MAGNETIC FIELD
 MDIP.deg                59.48:  MAGNETIC DIP
 MDEC.deg                 6.47:  MAGNETIC DECL
 GRDC.deg                 0.31:  GRID CORRECTION
 AZTC.deg                 6.16:  AZM TOTAL CORR
 EPD .m                   0.00:  ELEVATION
 EGL .m                   0.00:  GROUND ELEVATION
 WDMS.m                 151.80:  WD ELEV
 APD .m                  43.60:  DEPTH ABOVE PD
 DEP .m                4092.57:  DEPTH
 AGAP.m                  43.60:  AIR GAP
 VSEW.m                  -0.67:  VERT SEC E/W
 VSNS.m                  -7.04:  VERT SEC N/S
 EKB .m                  43.60:  KB ELEVATION
 EDF .m                  43.60:  DF ELEVATION
 TDL .m                 957.50:  TOTAL DEPTH (LOGGER)
 VSC .                       0:  VS TO CLOSURE
 MAGU.                 1851413:  MAGUTM CHECKSUM
~Parameter Information Block
#MNEM.UNIT       Value        Description
#---------     -----------    ---------------------------
 AV  .mps                 1.50:  Ann Velocity 
 AVMX.mps                 2.00:  Max Ann Veloc 
 AZIF.deg               184.66:  Azm, Final 
 BHAT.        Rotary Steerable:  BHA Type 
 BREV.rev               300.00:  Rev Bit Total 
 BROT.°/30m              -0.50:  Build Rotating 
 BS  .in                  8.50:  Bit Size 
 BSZ .in                  8.50:  Bit Size 
 BTPL.psig              370.00:  Bit Press Loss 
 CABU.                      No:  Customer Abuse 
 CGEO.      Behruz Shahbaliyev:  Customer Geo 
 COMM.                     ¤R:  Run Comments 1 
 TCS .hr                140.08:  Time Ciculation Ended 
 CV  .mps                 3.00:  Crit Velocity 
 CVMX.mps                 3.20:  Max Crit Veloc 
 DD1 .            Musa Ahmadov:  Direct Drillr 1 
 DD2 .           Hamid Ahmadov:  Direct Drillr 2 
 DDSV.               Geo-Pilot:  DD Service 
 DEFF.%                  98.40:  % Det Eff 
 DLRX.°/30m               3.40:  Dogleg Rot Max 
 DLSO.°/30m               1.45:  Dogleg Oriented 
 DLSX.°/30m               3.40:  Dogleg Str Max 
 DRET.      18.40.00 29-Aug-21:  Drill End Time 
 DRST.      21.00.00 20-Aug-21:  Drill Start Tim 
 DTIM.hr                 69.47:  Time Drilling 
 EDEP.m                5084.50:  End Depth 
 ENG1.      Artemiy Matviyanov:  Engineer 1 
 ENG2.         Almaz Almadatov:  Engineer 2 
 ETIM.      18.40.00 29-Aug-21:  End Time 
 FLOI.gpm               500.00:  Flow In 
 FLON.gpm               400.00:  Flow In Min 
 FLOS.cptm                0.00:  Fluid Loss 
 FLOX.gpm               500.00:  Flow In Max 
 DFT .        Mineral Oil Base:  Mud Type 
 HFLO.                      No:  High Flow 
 HPRE.                      No:  High Pressure 
 HTEM.                      No:  High Temp 
 HYDO.m                   1.80:  Hydro Offset 
 IFIN.deg                25.62:  Inc, Final 
 IMAX.deg                48.69:  Inc Max 
 IMIN.deg                24.01:  Inc Min 
 IMND.m                4962.57:  Inc Min Depth 
 IMXD.m                4119.01:  Inc Max Depth 
 JARR.                      No:  Jarring 
 LETM.      18.40.00 29-Aug-21:  Log End Time 
 LOST.hr                     0:  Lost Rig Time 
 LSTM.      21.00.00 20-Aug-21:  Log Start Time 
 MDCL.ppm             41500.00:  Mud Chlorides 
 MDES.     Inversion Oil/Synthetic:  Mud Desc 
 DFD .sg                  1.56:  Mud Density 
 MDMN.sg                  1.56:  Dens Mud Min 
 MDMX.sg                  1.56:  Dens Mud Max 
 MOIL.                      70:  Run Mud Oil % 
 MOWR.                   70:30:  Run Mud OWR 
 MSND.                     0.2:  Run Mud Sand % 
 MSOL.                    23.3:  Run Mud Solids% 
 DFV .spqt               78.00:  Mud Viscosity 
 MWOD.in                  6.75:  MWD Tool OD 
 MWSI.                      No:  Serv Intrp, MWD 
 OTIM.hr                218.30:  Time Operating 
 PCON.           Look Like New:  Pad Condition 
 PMAX.psia            11015.30:  Press Op, Max 
 PV  .cP                 38.00:  Mud PV 
 RUN .                     300:  Run Number 
 ROPA.m/hr               15.00:  ROP Avg 
 ROPN.m/hr                9.00:  ROP Min 
 ROPX.m/hr               17.00:  ROP Max 
 RPMA.rpm               120.00:  RPM Surface Avg 
 RPMN.rpm                90.00:  RPM Surface Min 
 RPMX.rpm               140.00:  RPM Surface Max 
 RRUN.                     300:  Rig Run Number 
 RTIM.hr                 31.53:  Time Reaming 
 SAZI.deg               331.64:  Azm, Start 
 SDEP.m                4127.00:  Start Depth 
 SIDD.                      No:  Serv Intrp, DD 
 SINC.deg                48.43:  Inc, Start 
 SPPA.psig             5830.00:  SPP Avg 
 SPPN.psig             5600.00:  SPP Min 
 SPPX.psig             5900.00:  SPP Max 
 STIM.      21.00.00 20-Aug-21:  Start Time 
 SVCS.                 DD, MWD:  Services 
 SVER.                    9.20:  Sperry Version 
 TDAT.m                 957.50:  Tot Depth Attmp 
 TDDF.                      No:  Trip for DD 
 TDLG.m                 957.50:  Tot Depth Loggd 
 TFF .                      No:  Trip for Fail 
 TQAA.f-kp               15.00:  Torque Abs Avg 
 TQAN.f-kp               12.00:  Torque Abs Min 
 TQAX.f-kp               19.00:  Torque Abs Max 
 TRRT.°/30m              -3.40:  Turn Rotating 
 MRT .                  EWR-M5:  Maximum Recorded Temperature 
 TTMX.degC              100.00:  Max Tool Temp 
 VS01.                90639251:  Virtual Str1 SN 
 VS02.                90634715:  Virtual Str2 SN 
 VS03.                90652479:  Virtual Str3 SN 
 VS04.                90642262:  Virtual Str4 SN 
 WBMN.klb                 0.00:  WOB Min 
 WITN.           Murad Guliyev:  Customer Rep 
 WITN.          Yashar Gaziyev:  Customer Rep 2 
 WOBA.klb                 9.00:  WOB Avg 
 WOBX.klb                12.00:  WOB Max 
 YP  .lhf2               30.00:  Yield Point 
~Curve Information Block
#MNEM.UNIT                 API CODE     Curve Description
#---------               -----------    ---------------------------
 TIME.HHMMSS            00 000 000 000:  GT Time & Date
 GTDEPTH.m              00 000 000 000:  GT Depth
 GTPQH.psia             00 000 000 000:  GT HR Quartz Pressure
 GTTQ.degC              00 000 000 000:  GT Quartz Temperature
 GTTN.NONE              00 000 000 000:  GT Test Number
 GTET.sec               00 000 000 000:  GT Elapsed Test Time
 GTTVD.m                00 000 000 000:  GT True Vertical Depth
#Other Information
#
#WARRANTY: Halliburton will use its best efforts to furnish customers with 
#accurate information and interpretations that are part of, and incident to, the services 
#provided.  However, Halliburton cannot and does not warrant the accuracy 
#or correctness of such information and interpretations.  Under no circumstances should any 
#such information or interpretation be relied upon as the sole basis for any drilling, 
#completion, production, or financial decision or any procedure involving any risk to the 
#safety of any drilling venture, drilling rig or its crew or any other third party.  The 
#Customer has full responsibility for all drilling, completion and production operation.  
#Halliburton makes no representations or warranties, either expressed or 
#implied, including, but not limited to, the implied warranties of merchantability or fitness 
#for a particular purpose, with respect to the services rendered.  In no event will 
#Halliburton be liable for failure to obtain any particular results or for 
#any damages, including, but not limited to, indirect, special or consequential damages, 
#resulting from the use of any information or interpretation provided by Halliburton.
#
~A           TIME           GTDEPTH  GTPQH  GTTQ  GTTN   GTET   GTTVD  
# ...
   13:12:11.407.27-Aug-2021 4901.50 4966.50 84.93 13.00 271.48 3249.95
   13:12:11.607.27-Aug-2021 4901.50 4968.44 84.93 13.00 271.68 3249.95
   13:12:11.807.27-Aug-2021 4901.50 4967.94 84.93 13.00 271.88 3249.95
   13:12:12.008.27-Aug-2021 4901.50 4968.28 84.93 13.00 272.08 3249.95
   13:12:12.208.27-Aug-2021 4901.50 4968.30 84.93 13.00 272.28 3249.95
   13:12:12.408.27-Aug-2021 4901.50 4968.30 84.93 13.00 272.48 3249.95
   13:12:12.608.27-Aug-2021 4901.50 4967.70 84.93 13.00 272.68 3249.95
   13:12:12.808.27-Aug-2021 4901.50 4968.18 84.93 13.00 272.88 3249.95
   13:12:13.009.27-Aug-2021 4901.50 4967.49 84.93 13.00 273.08 3249.95
   13:12:13.209.27-Aug-2021 4901.50 4968.16 84.93 13.00 273.28 3249.95
   13:12:13.409.27-Aug-2021 4901.50 4968.16 84.93 13.00 273.48 3249.95
   13:12:13.609.27-Aug-2021 4901.50 4968.13 84.93 13.00 273.68 3249.95
   13:12:13.809.27-Aug-2021 4901.50 4967.62 84.93 13.00 273.88 3249.95
   13:12:14.010.27-Aug-2021 4901.50 4967.86 84.93 13.00 274.08 3249.95
   13:12:14.210.27-Aug-2021 4901.50 4967.84 84.93 13.00 274.28 3249.95
   13:12:14.410.27-Aug-2021 4901.50 4967.84 84.93 13.00 274.48 3249.95
   13:12:14.610.27-Aug-2021 4901.50 4967.94 84.93 13.00 274.68 3249.95
   13:12:14.810.27-Aug-2021 4901.50 4967.93 84.93 13.00 274.88 3249.95
   13:12:15.011.27-Aug-2021 4901.50 4967.07 84.93 13.00 275.08 3249.95
   13:12:15.211.27-Aug-2021 4901.50 4968.60 84.93 13.00 275.28 3249.95
   13:12:15.411.27-Aug-2021 4901.50 4968.60 84.93 13.00 275.48 3249.95
   13:12:15.611.27-Aug-2021 4901.50 4967.87 84.93 13.00 275.68 3249.95
   13:12:15.812.27-Aug-2021 4901.50 4967.81 84.93 13.00 275.88 3249.95
   13:12:16.012.27-Aug-2021 4901.50 4968.07 84.93 13.00 276.08 3249.95
   13:12:16.212.27-Aug-2021 4901.50 4968.04 84.93 13.00 276.28 3249.95
   13:12:16.412.27-Aug-2021 4901.50 4968.04 84.93 13.00 276.48 3249.95
   13:12:16.612.27-Aug-2021 4901.50 4968.13 84.93 13.00 276.68 3249.95
   13:12:16.813.27-Aug-2021 4901.50 4968.86 84.93 13.00 276.88 3249.95
   13:12:17.013.27-Aug-2021 4901.50 4968.40 84.93 13.00 277.08 3249.95
   13:12:17.213.27-Aug-2021 4901.50 4967.68 84.93 13.00 277.28 3249.95
   13:12:17.413.27-Aug-2021 4901.50 4967.68 84.93 13.00 277.48 3249.95
   13:12:17.613.27-Aug-2021 4901.50 4968.29 84.93 13.00 277.68 3249.95
   13:12:17.814.27-Aug-2021 4901.50 4967.90 84.93 13.00 277.88 3249.95
   13:12:18.014.27-Aug-2021 4901.50 4968.22 84.93 13.00 278.08 3249.95
   13:12:18.214.27-Aug-2021 4901.50 4967.96 84.93 13.00 278.28 3249.95
   13:12:18.414.27-Aug-2021 4901.50 4967.96 84.93 13.00 278.48 3249.95
   13:12:18.614.27-Aug-2021 4901.50 4968.42 84.93 13.00 278.68 3249.95
   13:12:18.815.27-Aug-2021 4901.50 4967.70 84.93 13.00 278.88 3249.95
   13:12:19.015.27-Aug-2021 4901.50 4968.00 84.93 13.00 279.08 3249.95
   13:12:19.215.27-Aug-2021 4901.50 4968.59 84.93 13.00 279.28 3249.95
   13:12:19.415.27-Aug-2021 4901.50 4968.59 84.93 13.00 279.48 3249.95
   13:12:19.615.27-Aug-2021 4901.50 4967.75 84.93 13.00 279.68 3249.95
   13:12:19.816.27-Aug-2021 4901.50 4967.38 84.93 13.00 279.88 3249.95
   13:12:20.016.27-Aug-2021 4901.50 4968.29 84.93 13.00 280.08 3249.95
   13:12:20.216.27-Aug-2021 4901.50 4968.70 84.93 13.00 280.29 3249.95
   13:12:20.416.27-Aug-2021 4901.50 4968.70 84.93 13.00 280.49 3249.95
   13:12:20.616.27-Aug-2021 4901.50 4968.32 84.93 13.00 280.69 3249.95
   13:12:20.817.27-Aug-2021 4901.50 4970.88 84.93 13.00 280.89 3249.95
   13:12:21.017.27-Aug-2021 4901.50 5040.78 84.93 13.00 281.09 3249.95
   13:12:21.217.27-Aug-2021 4901.50 5049.60 84.93 13.00 281.29 3249.95
   13:12:21.417.27-Aug-2021 4901.50 5049.60 84.93 13.00 281.49 3249.95
   13:12:21.617.27-Aug-2021 4901.50 5050.08 84.93 13.00 281.69 3249.95
   13:12:21.818.27-Aug-2021 4901.50 5050.47 84.93 13.00 281.89 3249.95
   13:12:22.018.27-Aug-2021 4901.50 5050.68 84.93 13.00 282.09 3249.95
   13:12:22.218.27-Aug-2021 4901.50 5050.64 84.93 13.00 282.29 3249.95
   13:12:22.418.27-Aug-2021 4901.50 5050.64 84.93 13.00 282.49 3249.95
   13:12:22.618.27-Aug-2021 4901.50 5050.67 84.93 13.00 282.69 3249.95
   13:12:22.819.27-Aug-2021 4901.50 5050.67 84.93 13.00 282.89 3249.95
   13:12:23.019.27-Aug-2021 4901.50 5050.69 84.93 13.00 283.09 3249.95
   13:12:23.219.27-Aug-2021 4901.50 5050.69 84.93 13.00 283.29 3249.95
   13:12:23.419.27-Aug-2021 4901.50 5050.69 84.93 13.00 283.49 3249.95
   13:12:23.619.27-Aug-2021 4901.50 5050.73 84.93 13.00 283.69 3249.95
   13:12:23.820.27-Aug-2021 4901.50 5050.74 84.93 13.00 283.89 3249.95
   13:12:24.020.27-Aug-2021 4901.50 5050.76 84.93 13.00 284.09 3249.95
   13:12:24.220.27-Aug-2021 4901.50 5050.77 84.93 13.00 284.29 3249.95
   13:12:24.420.27-Aug-2021 4901.50 5050.77 84.93 13.00 284.49 3249.95
   13:12:24.620.27-Aug-2021 4901.50 5050.79 84.93 13.00 284.69 3249.95
   13:12:24.821.27-Aug-2021 4901.50 5050.73 84.93 13.00 284.89 3249.95
   13:12:25.021.27-Aug-2021 4901.50 5051.18 84.93 13.00 285.09 3249.95
   13:12:25.221.27-Aug-2021 4901.50 5051.16 84.93 13.00 285.29 3249.95
   13:12:25.421.27-Aug-2021 4901.50 5051.16 84.93 13.00 285.49 3249.95
   13:12:25.621.27-Aug-2021 4901.50 5051.13 84.93 13.00 285.69 3249.95
   13:12:25.822.27-Aug-2021 4901.50 5051.13 84.93 13.00 285.89 3249.95
   13:12:26.022.27-Aug-2021 4901.50 5051.11 84.93 13.00 286.09 3249.95
   13:12:26.222.27-Aug-2021 4901.50 5051.11 84.93 13.00 286.29 3249.95
   13:12:26.422.27-Aug-2021 4901.50 5051.11 84.93 13.00 286.49 3249.95
   13:12:26.623.27-Aug-2021 4901.50 5051.09 84.93 13.00 286.69 3249.95
   13:12:26.823.27-Aug-2021 4901.50 5051.09 84.93 13.00 286.89 3249.95
   13:12:27.023.27-Aug-2021 4901.50 5051.07 84.93 13.00 287.09 3249.95
   13:12:27.223.27-Aug-2021 4901.50 5051.07 84.93 13.00 287.29 3249.95
   13:12:27.423.27-Aug-2021 4901.50 5051.07 84.93 13.00 287.49 3249.95
   13:12:27.624.27-Aug-2021 4901.50 5051.07 84.93 13.00 287.69 3249.95
   13:12:27.824.27-Aug-2021 4901.50 5051.05 84.93 13.00 287.89 3249.95
   13:12:28.024.27-Aug-2021 4901.50 5051.06 84.93 13.00 288.09 3249.95
   13:12:28.224.27-Aug-2021 4901.50 5051.08 84.93 13.00 288.29 3249.95
   13:12:28.424.27-Aug-2021 4901.50 5051.08 84.93 13.00 288.49 3249.95
   13:12:28.625.27-Aug-2021 4901.50 5051.27 84.93 13.00 288.69 3249.95
   13:12:28.825.27-Aug-2021 4901.50 5051.24 84.93 13.00 288.89 3249.95
   13:12:29.025.27-Aug-2021 4901.50 5051.24 84.92 13.00 289.09 3249.95
   13:12:29.225.27-Aug-2021 4901.50 5051.25 84.92 13.00 289.29 3249.95
   13:12:29.425.27-Aug-2021 4901.50 5051.25 84.92 13.00 289.49 3249.95
   13:12:29.626.27-Aug-2021 4901.50 5051.30 84.93 13.00 289.69 3249.95
   13:12:29.826.27-Aug-2021 4901.50 5051.29 84.92 13.00 289.89 3249.95
   13:12:30.026.27-Aug-2021 4901.50 5051.28 84.93 13.00 290.10 3249.95
   13:12:30.226.27-Aug-2021 4901.50 5051.28 84.92 13.00 290.30 3249.95
   13:12:30.426.27-Aug-2021 4901.50 5051.28 84.92 13.00 290.50 3249.95
   13:12:30.627.27-Aug-2021 4901.50 5051.30 84.92 13.00 290.70 3249.95
   13:12:30.827.27-Aug-2021 4901.50 5051.35 84.92 13.00 290.90 3249.95
   13:12:31.027.27-Aug-2021 4901.50 5051.27 84.92 13.00 291.10 3249.95
   13:12:31.227.27-Aug-2021 4901.50 5051.35 84.92 13.00 291.30 3249.95
   13:12:31.427.27-Aug-2021 4901.50 5051.35 84.92 13.00 291.50 3249.95
   13:12:31.628.27-Aug-2021 4901.50 5051.34 84.92 13.00 291.70 3249.95
   13:12:31.828.27-Aug-2021 4901.50 5051.33 84.92 13.00 291.90 3249.95
   13:12:32.028.27-Aug-2021 4901.50 5051.33 84.92 13.00 292.10 3249.95
   13:12:32.228.27-Aug-2021 4901.50 5051.32 84.92 13.00 292.30 3249.95
   13:12:32.428.27-Aug-2021 4901.50 5051.32 84.92 13.00 292.50 3249.95
   13:12:32.629.27-Aug-2021 4901.50 5051.31 84.92 13.00 292.70 3249.95
   13:12:32.829.27-Aug-2021 4901.50 5051.31 84.92 13.00 292.90 3249.95
   13:12:33.029.27-Aug-2021 4901.50 5051.30 84.92 13.00 293.10 3249.95
   13:12:33.229.27-Aug-2021 4901.50 5051.30 84.92 13.00 293.30 3249.95
   13:12:33.429.27-Aug-2021 4901.50 5051.30 84.92 13.00 293.50 3249.95
   13:12:33.630.27-Aug-2021 4901.50 5051.29 84.92 13.00 293.70 3249.95
   13:12:33.830.27-Aug-2021 4901.50 5051.28 84.92 13.00 293.90 3249.95
