~Version Information
 VERS.                  2.0:   CWLS log ASCII Standard -VERSION 2.0
 WRAP.                   NO:   One line per depth step
~Well Information Block
#MNEM.UNIT     VALUE/NAME     DESCRIPTION
#---------     -----------    ---------------------------
 STRT.S             10:43:45 27-Aug-21: START TIME 10:43:45 27-Aug-21
 STOP.S             10:50:54 27-Aug-21: STOP TIME  10:50:54 27-Aug-21
 STEP.S                   0.00: STEP TIME
 NULL.                 -999.25: NULL VALUE
 DFWT.                        :  DIST FWL TEXT
 DFST.                        :  DIST FSL TEXT
 DMF .             Drill Floor:  DRILL MEAS FROM
 STIM.      20.00.00 17-Aug-21:  START TIME
 DATE.      19.00.00 29-Aug-21:  END TIME
 SPUD.               15-Aug-21:  SPUD DATE
 NREF.                    Grid:  NORTH REFERENCE
 HPTY.       Minimum Curvature:  HOLE POS TYPE
 DMOD.             Drill Model:  DRILL MOD DESC
 SVYD.                  Survey:  SURVEY DESC
 ILTD.               Lithology:  INTERP LTH DESC
 FTOP.          Formation Tops:  FORM TOPS DESC
 RIG .              East Azeri:  RIG NAME
 PDAT.          Mean Sea Level:  PERMANENT DATUM
 FLD .                     ACG:  FIELD NAME
 SON .        AZ-XX-0907180857:  JOB NUMBER
 CTRY.              Azerbaijan:  COUNTRY NAME
 WELL.                    D23x:  WELL NAME
 SRVC.     Turan Drilling and Engineering:  CONTRACTOR
 COMP.     BP Exploration (Caspian Sea) Ltd.:  COMPANY
 UWI .            /AZE00000214:  UNIQUE WELL IDENTIFIER
 API .            /AZE00000214:  API NUMBER
 MDS .        Operator Entered:  MAG DATA SOURCE
 BASE.              Azerbaijan:  LOGGING EQUIPMENT BASE LOCATION
 REGN.                   EESSA:  REGION
 PROV.                    Baku:  PROVINCE
 STAT.                    Baku:  STATE NAME
 MWDS.                    Baku:  MWD SHOP
 DOE .                     N/A:  DOE NUMBER
 DCON.         Sperry Drilling:  DIRECTNL CONTR
 UNIT.                     N/A:  LOGGING EQUIPMENT ID
 WTYP.                Deviated:  WELL TYPE
 CNTY.                        :  COUNTY
 LOC .                        :  LOCATION
 LMF .             Drill Floor:  LOG MEASURED FROM
 TVDS.m                  43.60:  TVDSS CORRECTN
 LATI.deg                40.02:  LATITUDE
 LONG.deg                51.45:  LONGITUDE
 WHNS.m                  -7.04:  WELL HEAD N/S
 WHEW.m                  -0.67:  WELL HEAD E/W
 UTMX.m              538762.90:  UTM X
 UTMY.m             4431871.34:  UTM Y
 DFWL.m                   0.00:  DISTANCE FWL
 DFSL.m                   0.00:  DISTANCE FSL
 SDEP.m                4127.00:  START DEPTH
 TDD .m                5084.50:  TOTAL DEPTH (DRILLER)
 VSDR.deg               140.47:  VERT SEC DIRECT
 GVFD.g                   1.00:  GRAVITY FIELD
 MFLD.nT              50362.00:  MAGNETIC FIELD
 MDIP.deg                59.48:  MAGNETIC DIP
 MDEC.deg                 6.47:  MAGNETIC DECL
 GRDC.deg                 0.31:  GRID CORRECTION
 AZTC.deg                 6.16:  AZM TOTAL CORR
 EPD .m                   0.00:  ELEVATION
 EGL .m                   0.00:  GROUND ELEVATION
 WDMS.m                 151.80:  WD ELEV
 APD .m                  43.60:  DEPTH ABOVE PD
 DEP .m                4092.57:  DEPTH
 AGAP.m                  43.60:  AIR GAP
 VSEW.m                  -0.67:  VERT SEC E/W
 VSNS.m                  -7.04:  VERT SEC N/S
 EKB .m                  43.60:  KB ELEVATION
 EDF .m                  43.60:  DF ELEVATION
 TDL .m                 957.50:  TOTAL DEPTH (LOGGER)
 VSC .                       0:  VS TO CLOSURE
 MAGU.                 1851413:  MAGUTM CHECKSUM
~Parameter Information Block
#MNEM.UNIT       Value        Description
#---------     -----------    ---------------------------
 AV  .mps                 1.50:  Ann Velocity 
 AVMX.mps                 2.00:  Max Ann Veloc 
 AZIF.deg               184.66:  Azm, Final 
 BHAT.        Rotary Steerable:  BHA Type 
 BREV.rev               300.00:  Rev Bit Total 
 BROT.°/30m              -0.50:  Build Rotating 
 BS  .in                  8.50:  Bit Size 
 BSZ .in                  8.50:  Bit Size 
 BTPL.psig              370.00:  Bit Press Loss 
 CABU.                      No:  Customer Abuse 
 CGEO.      Behruz Shahbaliyev:  Customer Geo 
 COMM.                     $K:  Run Comments 1 
 TCS .hr                140.08:  Time Ciculation Ended 
 CV  .mps                 3.00:  Crit Velocity 
 CVMX.mps                 3.20:  Max Crit Veloc 
 DD1 .            Musa Ahmadov:  Direct Drillr 1 
 DD2 .           Hamid Ahmadov:  Direct Drillr 2 
 DDSV.               Geo-Pilot:  DD Service 
 DEFF.%                  98.40:  % Det Eff 
 DLRX.°/30m               3.40:  Dogleg Rot Max 
 DLSO.°/30m               1.45:  Dogleg Oriented 
 DLSX.°/30m               3.40:  Dogleg Str Max 
 DRET.      18.40.00 29-Aug-21:  Drill End Time 
 DRST.      21.00.00 20-Aug-21:  Drill Start Tim 
 DTIM.hr                 69.47:  Time Drilling 
 EDEP.m                5084.50:  End Depth 
 ENG1.      Artemiy Matviyanov:  Engineer 1 
 ENG2.         Almaz Almadatov:  Engineer 2 
 ETIM.      18.40.00 29-Aug-21:  End Time 
 FLOI.gpm               500.00:  Flow In 
 FLON.gpm               400.00:  Flow In Min 
 FLOS.cptm                0.00:  Fluid Loss 
 FLOX.gpm               500.00:  Flow In Max 
 DFT .        Mineral Oil Base:  Mud Type 
 HFLO.                      No:  High Flow 
 HPRE.                      No:  High Pressure 
 HTEM.                      No:  High Temp 
 HYDO.m                   1.80:  Hydro Offset 
 IFIN.deg                25.62:  Inc, Final 
 IMAX.deg                48.69:  Inc Max 
 IMIN.deg                24.01:  Inc Min 
 IMND.m                4962.57:  Inc Min Depth 
 IMXD.m                4119.01:  Inc Max Depth 
 JARR.                      No:  Jarring 
 LETM.      18.40.00 29-Aug-21:  Log End Time 
 LOST.hr                     0:  Lost Rig Time 
 LSTM.      21.00.00 20-Aug-21:  Log Start Time 
 MDCL.ppm             41500.00:  Mud Chlorides 
 MDES.     Inversion Oil/Synthetic:  Mud Desc 
 DFD .sg                  1.56:  Mud Density 
 MDMN.sg                  1.56:  Dens Mud Min 
 MDMX.sg                  1.56:  Dens Mud Max 
 MOIL.                      70:  Run Mud Oil % 
 MOWR.                   70:30:  Run Mud OWR 
 MSND.                     0.2:  Run Mud Sand % 
 MSOL.                    23.3:  Run Mud Solids% 
 DFV .spqt               78.00:  Mud Viscosity 
 MWOD.in                  6.75:  MWD Tool OD 
 MWSI.                      No:  Serv Intrp, MWD 
 OTIM.hr                218.30:  Time Operating 
 PCON.           Look Like New:  Pad Condition 
 PMAX.psia            11015.30:  Press Op, Max 
 PV  .cP                 38.00:  Mud PV 
 RUN .                     300:  Run Number 
 ROPA.m/hr               15.00:  ROP Avg 
 ROPN.m/hr                9.00:  ROP Min 
 ROPX.m/hr               17.00:  ROP Max 
 RPMA.rpm               120.00:  RPM Surface Avg 
 RPMN.rpm                90.00:  RPM Surface Min 
 RPMX.rpm               140.00:  RPM Surface Max 
 RRUN.                     300:  Rig Run Number 
 RTIM.hr                 31.53:  Time Reaming 
 SAZI.deg               331.64:  Azm, Start 
 SDEP.m                4127.00:  Start Depth 
 SIDD.                      No:  Serv Intrp, DD 
 SINC.deg                48.43:  Inc, Start 
 SPPA.psig             5830.00:  SPP Avg 
 SPPN.psig             5600.00:  SPP Min 
 SPPX.psig             5900.00:  SPP Max 
 STIM.      21.00.00 20-Aug-21:  Start Time 
 SVCS.                 DD, MWD:  Services 
 SVER.                    9.20:  Sperry Version 
 TDAT.m                 957.50:  Tot Depth Attmp 
 TDDF.                      No:  Trip for DD 
 TDLG.m                 957.50:  Tot Depth Loggd 
 TFF .                      No:  Trip for Fail 
 TQAA.f-kp               15.00:  Torque Abs Avg 
 TQAN.f-kp               12.00:  Torque Abs Min 
 TQAX.f-kp               19.00:  Torque Abs Max 
 TRRT.°/30m              -3.40:  Turn Rotating 
 MRT .                  EWR-M5:  Maximum Recorded Temperature 
 TTMX.degC              100.00:  Max Tool Temp 
 VS01.                90639251:  Virtual Str1 SN 
 VS02.                90634715:  Virtual Str2 SN 
 VS03.                90652479:  Virtual Str3 SN 
 VS04.                90642262:  Virtual Str4 SN 
 WBMN.klb                 0.00:  WOB Min 
 WITN.           Murad Guliyev:  Customer Rep 
 WITN.          Yashar Gaziyev:  Customer Rep 2 
 WOBA.klb                 9.00:  WOB Avg 
 WOBX.klb                12.00:  WOB Max 
 YP  .lhf2               30.00:  Yield Point 
~Curve Information Block
#MNEM.UNIT                 API CODE     Curve Description
#---------               -----------    ---------------------------
 TIME.HHMMSS            00 000 000 000:  GT Time & Date
 GTDEPTH.m              00 000 000 000:  GT Depth
 GTPQH.psia             00 000 000 000:  GT HR Quartz Pressure
 GTTQ.degC              00 000 000 000:  GT Quartz Temperature
 GTTN.NONE              00 000 000 000:  GT Test Number
 GTET.sec               00 000 000 000:  GT Elapsed Test Time
 GTTVD.m                00 000 000 000:  GT True Vertical Depth
#Other Information
#
#WARRANTY: Halliburton will use its best efforts to furnish customers with 
#accurate information and interpretations that are part of, and incident to, the services 
#provided.  However, Halliburton cannot and does not warrant the accuracy 
#or correctness of such information and interpretations.  Under no circumstances should any 
#such information or interpretation be relied upon as the sole basis for any drilling, 
#completion, production, or financial decision or any procedure involving any risk to the 
#safety of any drilling venture, drilling rig or its crew or any other third party.  The 
#Customer has full responsibility for all drilling, completion and production operation.  
#Halliburton makes no representations or warranties, either expressed or 
#implied, including, but not limited to, the implied warranties of merchantability or fitness 
#for a particular purpose, with respect to the services rendered.  In no event will 
#Halliburton be liable for failure to obtain any particular results or for 
#any damages, including, but not limited to, indirect, special or consequential damages, 
#resulting from the use of any information or interpretation provided by Halliburton.
#
~A           TIME           GTDEPTH  GTPQH  GTTQ  GTTN  GTET   GTTVD  
# ...
   10:50:16.021.27-Aug-2021 4957.82 7896.60 85.97 9.00 390.53 3301.29
   10:50:16.221.27-Aug-2021 4957.82 7896.60 85.97 9.00 390.73 3301.29
   10:50:16.420.27-Aug-2021 4957.82 7897.23 85.97 9.00 390.93 3301.29
   10:50:16.620.27-Aug-2021 4957.82 7896.95 85.97 9.00 391.13 3301.29
   10:50:16.820.27-Aug-2021 4957.82 7899.43 85.97 9.00 391.33 3301.29
   10:50:17.020.27-Aug-2021 4957.82 7897.68 85.97 9.00 391.53 3301.29
   10:50:17.220.27-Aug-2021 4957.82 7897.68 85.97 9.00 391.73 3301.29
   10:50:17.419.27-Aug-2021 4957.82 7903.43 85.97 9.00 391.93 3301.29
   10:50:17.619.27-Aug-2021 4957.82 7894.83 85.97 9.00 392.13 3301.29
   10:50:17.819.27-Aug-2021 4957.82 7897.84 85.97 9.00 392.33 3301.29
   10:50:18.019.27-Aug-2021 4957.82 7896.27 85.97 9.00 392.53 3301.29
   10:50:18.218.27-Aug-2021 4957.82 7896.27 85.97 9.00 392.73 3301.29
   10:50:18.418.27-Aug-2021 4957.82 7896.05 85.97 9.00 392.93 3301.29
   10:50:18.618.27-Aug-2021 4957.82 7896.35 85.97 9.00 393.13 3301.29
   10:50:18.818.27-Aug-2021 4957.82 7896.79 85.97 9.00 393.33 3301.29
   10:50:19.017.27-Aug-2021 4957.82 7896.71 85.97 9.00 393.53 3301.29
   10:50:19.217.27-Aug-2021 4957.82 7896.71 85.97 9.00 393.73 3301.29
   10:50:19.417.27-Aug-2021 4957.82 7897.54 85.97 9.00 393.93 3301.29
   10:50:19.617.27-Aug-2021 4957.82 7897.72 85.97 9.00 394.13 3301.29
   10:50:19.816.27-Aug-2021 4957.82 7897.87 85.97 9.00 394.33 3301.29
   10:50:20.016.27-Aug-2021 4957.82 7897.51 85.97 9.00 394.53 3301.29
   10:50:20.216.27-Aug-2021 4957.82 7897.51 85.97 9.00 394.73 3301.29
   10:50:20.416.27-Aug-2021 4957.82 7896.89 85.97 9.00 394.93 3301.29
   10:50:20.615.27-Aug-2021 4957.82 7900.27 85.97 9.00 395.13 3301.29
   10:50:20.815.27-Aug-2021 4957.82 7896.30 85.97 9.00 395.33 3301.29
   10:50:21.015.27-Aug-2021 4957.82 7898.05 85.97 9.00 395.53 3301.29
   10:50:21.215.27-Aug-2021 4957.82 7898.05 85.97 9.00 395.73 3301.29
   10:50:21.415.27-Aug-2021 4957.82 7896.36 85.97 9.00 395.93 3301.29
   10:50:21.614.27-Aug-2021 4957.82 7896.25 85.97 9.00 396.13 3301.29
   10:50:21.814.27-Aug-2021 4957.82 7896.34 85.97 9.00 396.33 3301.29
   10:50:22.014.27-Aug-2021 4957.82 7896.50 85.97 9.00 396.53 3301.29
   10:50:22.214.27-Aug-2021 4957.82 7896.50 85.97 9.00 396.73 3301.29
   10:50:22.413.27-Aug-2021 4957.82 7896.57 85.97 9.00 396.93 3301.29
   10:50:22.613.27-Aug-2021 4957.82 7897.28 85.97 9.00 397.13 3301.29
   10:50:22.813.27-Aug-2021 4957.82 7897.69 85.97 9.00 397.33 3301.29
   10:50:23.013.27-Aug-2021 4957.82 7897.91 85.97 9.00 397.53 3301.29
   10:50:23.212.27-Aug-2021 4957.82 7897.91 85.97 9.00 397.73 3301.29
   10:50:23.412.27-Aug-2021 4957.82 7897.39 85.97 9.00 397.92 3301.29
   10:50:23.612.27-Aug-2021 4957.82 7897.11 85.97 9.00 398.12 3301.29
   10:50:23.812.27-Aug-2021 4957.82 7896.89 85.97 9.00 398.32 3301.29
   10:50:24.011.27-Aug-2021 4957.82 7900.59 85.97 9.00 398.52 3301.29
   10:50:24.211.27-Aug-2021 4957.82 7900.59 85.97 9.00 398.72 3301.29
   10:50:24.411.27-Aug-2021 4957.82 7898.38 85.97 9.00 398.92 3301.29
   10:50:24.611.27-Aug-2021 4957.82 7896.96 85.97 9.00 399.12 3301.29
   10:50:24.810.27-Aug-2021 4957.82 7896.67 85.96 9.00 399.32 3301.29
   10:50:25.010.27-Aug-2021 4957.82 7896.55 85.96 9.00 399.52 3301.29
   10:50:25.210.27-Aug-2021 4957.82 7896.55 85.96 9.00 399.72 3301.29
   10:50:25.410.27-Aug-2021 4957.82 7896.33 85.96 9.00 399.92 3301.29
   10:50:25.610.27-Aug-2021 4957.82 7897.70 85.96 9.00 400.12 3301.29
   10:50:25.809.27-Aug-2021 4957.82 7896.97 85.96 9.00 400.32 3301.29
   10:50:26.009.27-Aug-2021 4957.82 7897.21 85.96 9.00 400.52 3301.29
   10:50:26.209.27-Aug-2021 4957.82 7897.21 85.96 9.00 400.72 3301.29
   10:50:26.409.27-Aug-2021 4957.82 7897.54 85.96 9.00 400.92 3301.29
   10:50:26.608.27-Aug-2021 4957.82 7901.46 85.96 9.00 401.12 3301.29
   10:50:26.808.27-Aug-2021 4957.82 7897.02 85.96 9.00 401.32 3301.29
   10:50:27.008.27-Aug-2021 4957.82 7897.08 85.96 9.00 401.52 3301.29
   10:50:27.208.27-Aug-2021 4957.82 7897.08 85.96 9.00 401.72 3301.29
   10:50:27.407.27-Aug-2021 4957.82 7897.40 85.96 9.00 401.92 3301.29
   10:50:27.607.27-Aug-2021 4957.82 7897.54 85.96 9.00 402.12 3301.29
   10:50:27.807.27-Aug-2021 4957.82 7901.01 85.96 9.00 402.32 3301.29
   10:50:28.007.27-Aug-2021 4957.82 7897.00 85.96 9.00 402.52 3301.29
   10:50:28.206.27-Aug-2021 4957.82 7897.00 85.96 9.00 402.72 3301.29
   10:50:28.406.27-Aug-2021 4957.82 7896.10 85.96 9.00 402.92 3301.29
   10:50:28.606.27-Aug-2021 4957.82 7897.15 85.96 9.00 403.12 3301.29
   10:50:28.806.27-Aug-2021 4957.82 7897.52 85.96 9.00 403.32 3301.29
   10:50:29.005.27-Aug-2021 4957.82 7897.17 85.96 9.00 403.52 3301.29
   10:50:29.205.27-Aug-2021 4957.82 7897.17 85.96 9.00 403.72 3301.29
   10:50:29.405.27-Aug-2021 4957.82 7896.78 85.96 9.00 403.92 3301.29
   10:50:29.605.27-Aug-2021 4957.82 7896.99 85.96 9.00 404.12 3301.29
   10:50:29.805.27-Aug-2021 4957.82 7897.95 85.96 9.00 404.32 3301.29
   10:50:30.004.27-Aug-2021 4957.82 7898.35 85.96 9.00 404.52 3301.29
   10:50:30.204.27-Aug-2021 4957.82 7898.35 85.96 9.00 404.72 3301.29
   10:50:30.404.27-Aug-2021 4957.82 7897.49 85.96 9.00 404.92 3301.29
   10:50:30.604.27-Aug-2021 4957.82 7897.19 85.96 9.00 405.12 3301.29
   10:50:30.803.27-Aug-2021 4957.82 7897.19 85.96 9.00 405.32 3301.29
   10:50:31.003.27-Aug-2021 4957.82 7903.57 85.96 9.00 405.52 3301.29
   10:50:31.203.27-Aug-2021 4957.82 7903.57 85.96 9.00 405.72 3301.29
   10:50:31.403.27-Aug-2021 4957.82 7897.98 85.96 9.00 405.92 3301.29
   10:50:31.602.27-Aug-2021 4957.82 7896.82 85.96 9.00 406.12 3301.29
   10:50:31.802.27-Aug-2021 4957.82 7896.64 85.96 9.00 406.31 3301.29
   10:50:32.002.27-Aug-2021 4957.82 7896.88 85.96 9.00 406.51 3301.29
   10:50:32.202.27-Aug-2021 4957.82 7896.88 85.96 9.00 406.71 3301.29
   10:50:32.401.27-Aug-2021 4957.82 7896.86 85.96 9.00 406.91 3301.29
   10:50:32.601.27-Aug-2021 4957.82 7896.60 85.96 9.00 407.11 3301.29
   10:50:32.801.27-Aug-2021 4957.82 7897.05 85.96 9.00 407.31 3301.29
   10:50:33.001.27-Aug-2021 4957.82 7897.91 85.96 9.00 407.51 3301.29
   10:50:33.200.27-Aug-2021 4957.82 7897.91 85.96 9.00 407.71 3301.29
   10:50:33.400.27-Aug-2021 4957.82 7898.21 85.96 9.00 407.91 3301.29
   10:50:33.600.27-Aug-2021 4957.82 7897.87 85.96 9.00 408.11 3301.29
   10:50:33.800.27-Aug-2021 4957.82 7897.46 85.96 9.00 408.31 3301.29
   10:50:34.000.27-Aug-2021 4957.82 7897.48 85.96 9.00 408.51 3301.29
   10:50:34.199.27-Aug-2021 4957.82 7897.48 85.96 9.00 408.71 3301.29
   10:50:34.399.27-Aug-2021 4957.82 7903.36 85.96 9.00 408.91 3301.29
   10:50:34.599.27-Aug-2021 4957.82 7894.55 85.96 9.00 409.11 3301.29
   10:50:34.799.27-Aug-2021 4957.82 7897.94 85.95 9.00 409.31 3301.29
   10:50:34.998.27-Aug-2021 4957.82 7896.70 85.95 9.00 409.51 3301.29
   10:50:35.198.27-Aug-2021 4957.82 7896.70 85.95 9.00 409.71 3301.29
   10:50:35.398.27-Aug-2021 4957.82 7896.98 85.95 9.00 409.91 3301.29
   10:50:35.598.27-Aug-2021 4957.82 7903.10 85.95 9.00 410.11 3301.29
   10:50:35.797.27-Aug-2021 4957.82 7894.33 85.95 9.00 410.31 3301.29
   10:50:35.997.27-Aug-2021 4957.82 7897.31 85.95 9.00 410.51 3301.29
   10:50:36.197.27-Aug-2021 4957.82 7897.31 85.95 9.00 410.71 3301.29
   10:50:36.397.27-Aug-2021 4957.82 7897.33 85.95 9.00 410.91 3301.29
   10:50:36.596.27-Aug-2021 4957.82 7897.90 85.95 9.00 411.11 3301.29
   10:50:36.796.27-Aug-2021 4957.82 7897.71 85.95 9.00 411.31 3301.29
   10:50:36.996.27-Aug-2021 4957.82 7900.49 85.95 9.00 411.51 3301.29
   10:50:37.196.27-Aug-2021 4957.82 7900.49 85.95 9.00 411.71 3301.29
   10:50:37.395.27-Aug-2021 4957.82 7896.87 85.95 9.00 411.91 3301.29
   10:50:37.595.27-Aug-2021 4957.82 7897.46 85.95 9.00 412.11 3301.29
   10:50:37.795.27-Aug-2021 4957.82 7897.49 85.95 9.00 412.31 3301.29
   10:50:37.995.27-Aug-2021 4957.82 7897.56 85.95 9.00 412.51 3301.29
   10:50:38.194.27-Aug-2021 4957.82 7897.56 85.95 9.00 412.71 3301.29
   10:50:38.394.27-Aug-2021 4957.82 7897.54 85.95 9.00 412.91 3301.29
   10:50:38.594.27-Aug-2021 4957.82 7896.83 85.95 9.00 413.11 3301.29
   10:50:38.794.27-Aug-2021 4957.82 7896.88 85.95 9.00 413.31 3301.29
