~Version Information
 VERS.                  2.0:   CWLS log ASCII Standard -VERSION 2.0
 WRAP.                   NO:   One line per depth step
~Well Information Block
#MNEM.UNIT     VALUE/NAME     DESCRIPTION
#---------     -----------    ---------------------------
 STRT.S             07:19:48 27-Aug-21: START TIME 07:19:48 27-Aug-21
 STOP.S             07:26:57 27-Aug-21: STOP TIME  07:26:57 27-Aug-21
 STEP.S                   0.00: STEP TIME
 NULL.                 -999.25: NULL VALUE
 DFWT.                        :  DIST FWL TEXT
 DFST.                        :  DIST FSL TEXT
 DMF .             Drill Floor:  DRILL MEAS FROM
 STIM.      20.00.00 17-Aug-21:  START TIME
 DATE.      19.00.00 29-Aug-21:  END TIME
 SPUD.               15-Aug-21:  SPUD DATE
 NREF.                    Grid:  NORTH REFERENCE
 HPTY.       Minimum Curvature:  HOLE POS TYPE
 DMOD.             Drill Model:  DRILL MOD DESC
 SVYD.                  Survey:  SURVEY DESC
 ILTD.               Lithology:  INTERP LTH DESC
 FTOP.          Formation Tops:  FORM TOPS DESC
 RIG .              East Azeri:  RIG NAME
 PDAT.          Mean Sea Level:  PERMANENT DATUM
 FLD .                     ACG:  FIELD NAME
 SON .        AZ-XX-0907180857:  JOB NUMBER
 CTRY.              Azerbaijan:  COUNTRY NAME
 WELL.                    D23x:  WELL NAME
 SRVC.     Turan Drilling and Engineering:  CONTRACTOR
 COMP.     BP Exploration (Caspian Sea) Ltd.:  COMPANY
 UWI .            /AZE00000214:  UNIQUE WELL IDENTIFIER
 API .            /AZE00000214:  API NUMBER
 MDS .        Operator Entered:  MAG DATA SOURCE
 BASE.              Azerbaijan:  LOGGING EQUIPMENT BASE LOCATION
 REGN.                   EESSA:  REGION
 PROV.                    Baku:  PROVINCE
 STAT.                    Baku:  STATE NAME
 MWDS.                    Baku:  MWD SHOP
 DOE .                     N/A:  DOE NUMBER
 DCON.         Sperry Drilling:  DIRECTNL CONTR
 UNIT.                     N/A:  LOGGING EQUIPMENT ID
 WTYP.                Deviated:  WELL TYPE
 CNTY.                        :  COUNTY
 LOC .                        :  LOCATION
 LMF .             Drill Floor:  LOG MEASURED FROM
 TVDS.m                  43.60:  TVDSS CORRECTN
 LATI.deg                40.02:  LATITUDE
 LONG.deg                51.45:  LONGITUDE
 WHNS.m                  -7.04:  WELL HEAD N/S
 WHEW.m                  -0.67:  WELL HEAD E/W
 UTMX.m              538762.90:  UTM X
 UTMY.m             4431871.34:  UTM Y
 DFWL.m                   0.00:  DISTANCE FWL
 DFSL.m                   0.00:  DISTANCE FSL
 SDEP.m                4127.00:  START DEPTH
 TDD .m                5084.50:  TOTAL DEPTH (DRILLER)
 VSDR.deg               140.47:  VERT SEC DIRECT
 GVFD.g                   1.00:  GRAVITY FIELD
 MFLD.nT              50362.00:  MAGNETIC FIELD
 MDIP.deg                59.48:  MAGNETIC DIP
 MDEC.deg                 6.47:  MAGNETIC DECL
 GRDC.deg                 0.31:  GRID CORRECTION
 AZTC.deg                 6.16:  AZM TOTAL CORR
 EPD .m                   0.00:  ELEVATION
 EGL .m                   0.00:  GROUND ELEVATION
 WDMS.m                 151.80:  WD ELEV
 APD .m                  43.60:  DEPTH ABOVE PD
 DEP .m                4092.57:  DEPTH
 AGAP.m                  43.60:  AIR GAP
 VSEW.m                  -0.67:  VERT SEC E/W
 VSNS.m                  -7.04:  VERT SEC N/S
 EKB .m                  43.60:  KB ELEVATION
 EDF .m                  43.60:  DF ELEVATION
 TDL .m                 957.50:  TOTAL DEPTH (LOGGER)
 VSC .                       0:  VS TO CLOSURE
 MAGU.                 1851413:  MAGUTM CHECKSUM
~Parameter Information Block
#MNEM.UNIT       Value        Description
#---------     -----------    ---------------------------
 AV  .mps                 1.50:  Ann Velocity 
 AVMX.mps                 2.00:  Max Ann Veloc 
 AZIF.deg               184.66:  Azm, Final 
 BHAT.        Rotary Steerable:  BHA Type 
 BREV.rev               300.00:  Rev Bit Total 
 BROT.°/30m              -0.50:  Build Rotating 
 BS  .in                  8.50:  Bit Size 
 BSZ .in                  8.50:  Bit Size 
 BTPL.psig              370.00:  Bit Press Loss 
 CABU.                      No:  Customer Abuse 
 CGEO.      Behruz Shahbaliyev:  Customer Geo 
 COMM.                     Ô‘[:  Run Comments 1 
 TCS .hr                140.08:  Time Ciculation Ended 
 CV  .mps                 3.00:  Crit Velocity 
 CVMX.mps                 3.20:  Max Crit Veloc 
 DD1 .            Musa Ahmadov:  Direct Drillr 1 
 DD2 .           Hamid Ahmadov:  Direct Drillr 2 
 DDSV.               Geo-Pilot:  DD Service 
 DEFF.%                  98.40:  % Det Eff 
 DLRX.°/30m               3.40:  Dogleg Rot Max 
 DLSO.°/30m               1.45:  Dogleg Oriented 
 DLSX.°/30m               3.40:  Dogleg Str Max 
 DRET.      18.40.00 29-Aug-21:  Drill End Time 
 DRST.      21.00.00 20-Aug-21:  Drill Start Tim 
 DTIM.hr                 69.47:  Time Drilling 
 EDEP.m                5084.50:  End Depth 
 ENG1.      Artemiy Matviyanov:  Engineer 1 
 ENG2.         Almaz Almadatov:  Engineer 2 
 ETIM.      18.40.00 29-Aug-21:  End Time 
 FLOI.gpm               500.00:  Flow In 
 FLON.gpm               400.00:  Flow In Min 
 FLOS.cptm                0.00:  Fluid Loss 
 FLOX.gpm               500.00:  Flow In Max 
 DFT .        Mineral Oil Base:  Mud Type 
 HFLO.                      No:  High Flow 
 HPRE.                      No:  High Pressure 
 HTEM.                      No:  High Temp 
 HYDO.m                   1.80:  Hydro Offset 
 IFIN.deg                25.62:  Inc, Final 
 IMAX.deg                48.69:  Inc Max 
 IMIN.deg                24.01:  Inc Min 
 IMND.m                4962.57:  Inc Min Depth 
 IMXD.m                4119.01:  Inc Max Depth 
 JARR.                      No:  Jarring 
 LETM.      18.40.00 29-Aug-21:  Log End Time 
 LOST.hr                     0:  Lost Rig Time 
 LSTM.      21.00.00 20-Aug-21:  Log Start Time 
 MDCL.ppm             41500.00:  Mud Chlorides 
 MDES.     Inversion Oil/Synthetic:  Mud Desc 
 DFD .sg                  1.56:  Mud Density 
 MDMN.sg                  1.56:  Dens Mud Min 
 MDMX.sg                  1.56:  Dens Mud Max 
 MOIL.                      70:  Run Mud Oil % 
 MOWR.                   70:30:  Run Mud OWR 
 MSND.                     0.2:  Run Mud Sand % 
 MSOL.                    23.3:  Run Mud Solids% 
 DFV .spqt               78.00:  Mud Viscosity 
 MWOD.in                  6.75:  MWD Tool OD 
 MWSI.                      No:  Serv Intrp, MWD 
 OTIM.hr                218.30:  Time Operating 
 PCON.           Look Like New:  Pad Condition 
 PMAX.psia            11015.30:  Press Op, Max 
 PV  .cP                 38.00:  Mud PV 
 RUN .                     300:  Run Number 
 ROPA.m/hr               15.00:  ROP Avg 
 ROPN.m/hr                9.00:  ROP Min 
 ROPX.m/hr               17.00:  ROP Max 
 RPMA.rpm               120.00:  RPM Surface Avg 
 RPMN.rpm                90.00:  RPM Surface Min 
 RPMX.rpm               140.00:  RPM Surface Max 
 RRUN.                     300:  Rig Run Number 
 RTIM.hr                 31.53:  Time Reaming 
 SAZI.deg               331.64:  Azm, Start 
 SDEP.m                4127.00:  Start Depth 
 SIDD.                      No:  Serv Intrp, DD 
 SINC.deg                48.43:  Inc, Start 
 SPPA.psig             5830.00:  SPP Avg 
 SPPN.psig             5600.00:  SPP Min 
 SPPX.psig             5900.00:  SPP Max 
 STIM.      21.00.00 20-Aug-21:  Start Time 
 SVCS.                 DD, MWD:  Services 
 SVER.                    9.20:  Sperry Version 
 TDAT.m                 957.50:  Tot Depth Attmp 
 TDDF.                      No:  Trip for DD 
 TDLG.m                 957.50:  Tot Depth Loggd 
 TFF .                      No:  Trip for Fail 
 TQAA.f-kp               15.00:  Torque Abs Avg 
 TQAN.f-kp               12.00:  Torque Abs Min 
 TQAX.f-kp               19.00:  Torque Abs Max 
 TRRT.°/30m              -3.40:  Turn Rotating 
 MRT .                  EWR-M5:  Maximum Recorded Temperature 
 TTMX.degC              100.00:  Max Tool Temp 
 VS01.                90639251:  Virtual Str1 SN 
 VS02.                90634715:  Virtual Str2 SN 
 VS03.                90652479:  Virtual Str3 SN 
 VS04.                90642262:  Virtual Str4 SN 
 WBMN.klb                 0.00:  WOB Min 
 WITN.           Murad Guliyev:  Customer Rep 
 WITN.          Yashar Gaziyev:  Customer Rep 2 
 WOBA.klb                 9.00:  WOB Avg 
 WOBX.klb                12.00:  WOB Max 
 YP  .lhf2               30.00:  Yield Point 
~Curve Information Block
#MNEM.UNIT                 API CODE     Curve Description
#---------               -----------    ---------------------------
 TIME.HHMMSS            00 000 000 000:  GT Time & Date
 GTDEPTH.m              00 000 000 000:  GT Depth
 GTPQH.psia             00 000 000 000:  GT HR Quartz Pressure
 GTTQ.degC              00 000 000 000:  GT Quartz Temperature
 GTTN.NONE              00 000 000 000:  GT Test Number
 GTET.sec               00 000 000 000:  GT Elapsed Test Time
 GTTVD.m                00 000 000 000:  GT True Vertical Depth
#Other Information
#
#WARRANTY: Halliburton will use its best efforts to furnish customers with 
#accurate information and interpretations that are part of, and incident to, the services 
#provided.  However, Halliburton cannot and does not warrant the accuracy 
#or correctness of such information and interpretations.  Under no circumstances should any 
#such information or interpretation be relied upon as the sole basis for any drilling, 
#completion, production, or financial decision or any procedure involving any risk to the 
#safety of any drilling venture, drilling rig or its crew or any other third party.  The 
#Customer has full responsibility for all drilling, completion and production operation.  
#Halliburton makes no representations or warranties, either expressed or 
#implied, including, but not limited to, the implied warranties of merchantability or fitness 
#for a particular purpose, with respect to the services rendered.  In no event will 
#Halliburton be liable for failure to obtain any particular results or for 
#any damages, including, but not limited to, indirect, special or consequential damages, 
#resulting from the use of any information or interpretation provided by Halliburton.
#
~A           TIME           GTDEPTH  GTPQH  GTTQ  GTTN  GTET   GTTVD  
# ...
   07:26:19.328.27-Aug-2021 5010.50 8040.27 87.55 3.00 391.06 3349.10
   07:26:19.528.27-Aug-2021 5010.50 8040.27 87.55 3.00 391.26 3349.10
   07:26:19.728.27-Aug-2021 5010.50 8042.20 87.55 3.00 391.46 3349.10
   07:26:19.928.27-Aug-2021 5010.50 8042.60 87.54 3.00 391.66 3349.10
   07:26:20.128.27-Aug-2021 5010.50 8041.53 87.54 3.00 391.86 3349.10
   07:26:20.328.27-Aug-2021 5010.50 8041.02 87.54 3.00 392.06 3349.10
   07:26:20.528.27-Aug-2021 5010.50 8041.02 87.54 3.00 392.26 3349.10
   07:26:20.728.27-Aug-2021 5010.50 8041.30 87.54 3.00 392.46 3349.10
   07:26:20.928.27-Aug-2021 5010.50 8042.18 87.54 3.00 392.66 3349.10
   07:26:21.128.27-Aug-2021 5010.50 8042.93 87.54 3.00 392.86 3349.10
   07:26:21.328.27-Aug-2021 5010.50 8042.26 87.54 3.00 393.06 3349.10
   07:26:21.528.27-Aug-2021 5010.50 8042.26 87.54 3.00 393.26 3349.10
   07:26:21.728.27-Aug-2021 5010.50 8041.39 87.54 3.00 393.46 3349.10
   07:26:21.928.27-Aug-2021 5010.50 8041.37 87.54 3.00 393.66 3349.10
   07:26:22.128.27-Aug-2021 5010.50 8048.75 87.54 3.00 393.86 3349.10
   07:26:22.328.27-Aug-2021 5010.50 8040.56 87.54 3.00 394.06 3349.10
   07:26:22.528.27-Aug-2021 5010.50 8040.56 87.54 3.00 394.26 3349.10
   07:26:22.728.27-Aug-2021 5010.50 8041.11 87.54 3.00 394.46 3349.10
   07:26:22.928.27-Aug-2021 5010.50 8041.13 87.54 3.00 394.66 3349.10
   07:26:23.128.27-Aug-2021 5010.50 8041.23 87.54 3.00 394.86 3349.10
   07:26:23.329.27-Aug-2021 5010.50 8041.66 87.54 3.00 395.06 3349.10
   07:26:23.529.27-Aug-2021 5010.50 8041.66 87.54 3.00 395.26 3349.10
   07:26:23.729.27-Aug-2021 5010.50 8041.22 87.54 3.00 395.46 3349.10
   07:26:23.929.27-Aug-2021 5010.50 8041.46 87.54 3.00 395.66 3349.10
   07:26:24.129.27-Aug-2021 5010.50 8042.07 87.54 3.00 395.87 3349.10
   07:26:24.329.27-Aug-2021 5010.50 8043.27 87.54 3.00 396.07 3349.10
   07:26:24.529.27-Aug-2021 5010.50 8043.27 87.54 3.00 396.27 3349.10
   07:26:24.729.27-Aug-2021 5010.50 8042.41 87.54 3.00 396.47 3349.10
   07:26:24.929.27-Aug-2021 5010.50 8041.93 87.54 3.00 396.67 3349.10
   07:26:25.129.27-Aug-2021 5010.50 8041.62 87.54 3.00 396.87 3349.10
   07:26:25.329.27-Aug-2021 5010.50 8041.50 87.54 3.00 397.07 3349.10
   07:26:25.529.27-Aug-2021 5010.50 8041.50 87.54 3.00 397.27 3349.10
   07:26:25.729.27-Aug-2021 5010.50 8041.78 87.53 3.00 397.47 3349.10
   07:26:25.929.27-Aug-2021 5010.50 8041.19 87.53 3.00 397.67 3349.10
   07:26:26.129.27-Aug-2021 5010.50 8041.05 87.53 3.00 397.87 3349.10
   07:26:26.329.27-Aug-2021 5010.50 8041.12 87.53 3.00 398.07 3349.10
   07:26:26.529.27-Aug-2021 5010.50 8041.12 87.53 3.00 398.27 3349.10
   07:26:26.729.27-Aug-2021 5010.50 8041.95 87.53 3.00 398.47 3349.10
   07:26:26.929.27-Aug-2021 5010.50 8040.86 87.53 3.00 398.67 3349.10
   07:26:27.129.27-Aug-2021 5010.50 8040.85 87.53 3.00 398.87 3349.10
   07:26:27.329.27-Aug-2021 5010.50 8040.66 87.53 3.00 399.07 3349.10
   07:26:27.529.27-Aug-2021 5010.50 8040.66 87.53 3.00 399.27 3349.10
   07:26:27.729.27-Aug-2021 5010.50 8049.47 87.53 3.00 399.47 3349.10
   07:26:27.929.27-Aug-2021 5010.50 8040.58 87.53 3.00 399.67 3349.10
   07:26:28.129.27-Aug-2021 5010.50 8040.88 87.53 3.00 399.87 3349.10
   07:26:28.329.27-Aug-2021 5010.50 8040.93 87.53 3.00 400.07 3349.10
   07:26:28.529.27-Aug-2021 5010.50 8040.93 87.53 3.00 400.27 3349.10
   07:26:28.729.27-Aug-2021 5010.50 8042.22 87.53 3.00 400.47 3349.10
   07:26:28.929.27-Aug-2021 5010.50 8047.56 87.53 3.00 400.67 3349.10
   07:26:29.129.27-Aug-2021 5010.50 8041.44 87.53 3.00 400.87 3349.10
   07:26:29.329.27-Aug-2021 5010.50 8041.11 87.53 3.00 401.07 3349.10
   07:26:29.530.27-Aug-2021 5010.50 8041.11 87.53 3.00 401.27 3349.10
   07:26:29.730.27-Aug-2021 5010.50 8041.90 87.53 3.00 401.47 3349.10
   07:26:29.930.27-Aug-2021 5010.50 8042.39 87.53 3.00 401.67 3349.10
   07:26:30.130.27-Aug-2021 5010.50 8042.59 87.53 3.00 401.87 3349.10
   07:26:30.330.27-Aug-2021 5010.50 8041.16 87.53 3.00 402.07 3349.10
   07:26:30.530.27-Aug-2021 5010.50 8041.16 87.53 3.00 402.27 3349.10
   07:26:30.730.27-Aug-2021 5010.50 8040.96 87.53 3.00 402.47 3349.10
   07:26:30.930.27-Aug-2021 5010.50 8041.87 87.52 3.00 402.67 3349.10
   07:26:31.130.27-Aug-2021 5010.50 8043.16 87.52 3.00 402.87 3349.10
   07:26:31.330.27-Aug-2021 5010.50 8042.92 87.52 3.00 403.07 3349.10
   07:26:31.530.27-Aug-2021 5010.50 8042.92 87.52 3.00 403.27 3349.10
   07:26:31.730.27-Aug-2021 5010.50 8042.37 87.52 3.00 403.47 3349.10
   07:26:31.930.27-Aug-2021 5010.50 8041.70 87.52 3.00 403.67 3349.10
   07:26:32.130.27-Aug-2021 5010.50 8043.03 87.52 3.00 403.87 3349.10
   07:26:32.330.27-Aug-2021 5010.50 8044.60 87.52 3.00 404.07 3349.10
   07:26:32.530.27-Aug-2021 5010.50 8044.60 87.52 3.00 404.27 3349.10
   07:26:32.730.27-Aug-2021 5010.50 8041.82 87.52 3.00 404.47 3349.10
   07:26:32.930.27-Aug-2021 5010.50 8041.97 87.52 3.00 404.67 3349.10
   07:26:33.130.27-Aug-2021 5010.50 8041.37 87.52 3.00 404.87 3349.10
   07:26:33.330.27-Aug-2021 5010.50 8042.20 87.52 3.00 405.07 3349.10
   07:26:33.530.27-Aug-2021 5010.50 8042.20 87.52 3.00 405.27 3349.10
   07:26:33.730.27-Aug-2021 5010.50 8041.47 87.52 3.00 405.47 3349.10
   07:26:33.930.27-Aug-2021 5010.50 8041.53 87.52 3.00 405.67 3349.10
   07:26:34.130.27-Aug-2021 5010.50 8041.84 87.52 3.00 405.87 3349.10
   07:26:34.330.27-Aug-2021 5010.50 8043.28 87.52 3.00 406.07 3349.10
   07:26:34.530.27-Aug-2021 5010.50 8043.28 87.52 3.00 406.27 3349.10
   07:26:34.730.27-Aug-2021 5010.50 8043.08 87.52 3.00 406.47 3349.10
   07:26:34.930.27-Aug-2021 5010.50 8042.58 87.52 3.00 406.67 3349.10
   07:26:35.130.27-Aug-2021 5010.50 8042.27 87.52 3.00 406.87 3349.10
   07:26:35.330.27-Aug-2021 5010.50 8042.34 87.52 3.00 407.07 3349.10
   07:26:35.531.27-Aug-2021 5010.50 8042.34 87.52 3.00 407.27 3349.10
   07:26:35.731.27-Aug-2021 5010.50 8042.01 87.52 3.00 407.47 3349.10
   07:26:35.931.27-Aug-2021 5010.50 8042.51 87.52 3.00 407.67 3349.10
   07:26:36.131.27-Aug-2021 5010.50 8041.43 87.52 3.00 407.87 3349.10
   07:26:36.331.27-Aug-2021 5010.50 8041.46 87.52 3.00 408.07 3349.10
   07:26:36.531.27-Aug-2021 5010.50 8041.46 87.52 3.00 408.27 3349.10
   07:26:36.731.27-Aug-2021 5010.50 8046.62 87.51 3.00 408.47 3349.10
   07:26:36.931.27-Aug-2021 5010.50 8042.15 87.51 3.00 408.67 3349.10
   07:26:37.131.27-Aug-2021 5010.50 8040.90 87.51 3.00 408.87 3349.10
   07:26:37.331.27-Aug-2021 5010.50 8040.95 87.51 3.00 409.07 3349.10
   07:26:37.531.27-Aug-2021 5010.50 8040.95 87.51 3.00 409.27 3349.10
   07:26:37.731.27-Aug-2021 5010.50 8043.64 87.51 3.00 409.47 3349.10
   07:26:37.931.27-Aug-2021 5010.50 8045.45 87.51 3.00 409.67 3349.10
   07:26:38.131.27-Aug-2021 5010.50 8043.24 87.51 3.00 409.87 3349.10
   07:26:38.331.27-Aug-2021 5010.50 8040.94 87.51 3.00 410.07 3349.10
   07:26:38.531.27-Aug-2021 5010.50 8040.94 87.51 3.00 410.27 3349.10
   07:26:38.731.27-Aug-2021 5010.50 8042.02 87.51 3.00 410.47 3349.10
   07:26:38.931.27-Aug-2021 5010.50 8043.11 87.51 3.00 410.67 3349.10
   07:26:39.131.27-Aug-2021 5010.50 8045.92 87.51 3.00 410.87 3349.10
   07:26:39.331.27-Aug-2021 5010.50 8042.05 87.51 3.00 411.07 3349.10
   07:26:39.531.27-Aug-2021 5010.50 8042.05 87.51 3.00 411.27 3349.10
   07:26:39.731.27-Aug-2021 5010.50 8040.38 87.51 3.00 411.47 3349.10
   07:26:39.931.27-Aug-2021 5010.50 8042.07 87.51 3.00 411.67 3349.10
   07:26:40.131.27-Aug-2021 5010.50 8042.53 87.51 3.00 411.87 3349.10
   07:26:40.331.27-Aug-2021 5010.50 8041.64 87.51 3.00 412.07 3349.10
   07:26:40.531.27-Aug-2021 5010.50 8041.64 87.51 3.00 412.27 3349.10
   07:26:40.731.27-Aug-2021 5010.50 8040.95 87.51 3.00 412.47 3349.10
   07:26:40.931.27-Aug-2021 5010.50 8041.37 87.51 3.00 412.67 3349.10
   07:26:41.131.27-Aug-2021 5010.50 8042.72 87.51 3.00 412.87 3349.10
   07:26:41.331.27-Aug-2021 5010.50 8043.16 87.51 3.00 413.07 3349.10
   07:26:41.531.27-Aug-2021 5010.50 8043.16 87.51 3.00 413.27 3349.10
   07:26:41.732.27-Aug-2021 5010.50 8042.09 87.51 3.00 413.47 3349.10
   07:26:41.932.27-Aug-2021 5010.50 8041.83 87.51 3.00 413.67 3349.10
   07:26:42.132.27-Aug-2021 5010.50 8042.22 87.51 3.00 413.87 3349.10
