~Version Information
 VERS.                  2.0:   CWLS log ASCII Standard -VERSION 2.0
 WRAP.                   NO:   One line per depth step
~Well Information Block
#MNEM.UNIT     VALUE/NAME     DESCRIPTION
#---------     -----------    ---------------------------
 STRT.S             01:57:49 28-Aug-21: START TIME 01:57:49 28-Aug-21
 STOP.S             02:04:41 28-Aug-21: STOP TIME  02:04:41 28-Aug-21
 STEP.S                   0.00: STEP TIME
 NULL.                 -999.25: NULL VALUE
 DFWT.                        :  DIST FWL TEXT
 DFST.                        :  DIST FSL TEXT
 DMF .             Drill Floor:  DRILL MEAS FROM
 STIM.      20.00.00 17-Aug-21:  START TIME
 DATE.      19.00.00 29-Aug-21:  END TIME
 SPUD.               15-Aug-21:  SPUD DATE
 NREF.                    Grid:  NORTH REFERENCE
 HPTY.       Minimum Curvature:  HOLE POS TYPE
 DMOD.             Drill Model:  DRILL MOD DESC
 SVYD.                  Survey:  SURVEY DESC
 ILTD.               Lithology:  INTERP LTH DESC
 FTOP.          Formation Tops:  FORM TOPS DESC
 RIG .              East Azeri:  RIG NAME
 PDAT.          Mean Sea Level:  PERMANENT DATUM
 FLD .                     ACG:  FIELD NAME
 SON .        AZ-XX-0907180857:  JOB NUMBER
 CTRY.              Azerbaijan:  COUNTRY NAME
 WELL.                    D23x:  WELL NAME
 SRVC.     Turan Drilling and Engineering:  CONTRACTOR
 COMP.     BP Exploration (Caspian Sea) Ltd.:  COMPANY
 UWI .            /AZE00000214:  UNIQUE WELL IDENTIFIER
 API .            /AZE00000214:  API NUMBER
 MDS .        Operator Entered:  MAG DATA SOURCE
 BASE.              Azerbaijan:  LOGGING EQUIPMENT BASE LOCATION
 REGN.                   EESSA:  REGION
 PROV.                    Baku:  PROVINCE
 STAT.                    Baku:  STATE NAME
 MWDS.                    Baku:  MWD SHOP
 DOE .                     N/A:  DOE NUMBER
 DCON.         Sperry Drilling:  DIRECTNL CONTR
 UNIT.                     N/A:  LOGGING EQUIPMENT ID
 WTYP.                Deviated:  WELL TYPE
 CNTY.                        :  COUNTY
 LOC .                        :  LOCATION
 LMF .             Drill Floor:  LOG MEASURED FROM
 TVDS.m                  43.60:  TVDSS CORRECTN
 LATI.deg                40.02:  LATITUDE
 LONG.deg                51.45:  LONGITUDE
 WHNS.m                  -7.04:  WELL HEAD N/S
 WHEW.m                  -0.67:  WELL HEAD E/W
 UTMX.m              538762.90:  UTM X
 UTMY.m             4431871.34:  UTM Y
 DFWL.m                   0.00:  DISTANCE FWL
 DFSL.m                   0.00:  DISTANCE FSL
 SDEP.m                4127.00:  START DEPTH
 TDD .m                5084.50:  TOTAL DEPTH (DRILLER)
 VSDR.deg               140.47:  VERT SEC DIRECT
 GVFD.g                   1.00:  GRAVITY FIELD
 MFLD.nT              50362.00:  MAGNETIC FIELD
 MDIP.deg                59.48:  MAGNETIC DIP
 MDEC.deg                 6.47:  MAGNETIC DECL
 GRDC.deg                 0.31:  GRID CORRECTION
 AZTC.deg                 6.16:  AZM TOTAL CORR
 EPD .m                   0.00:  ELEVATION
 EGL .m                   0.00:  GROUND ELEVATION
 WDMS.m                 151.80:  WD ELEV
 APD .m                  43.60:  DEPTH ABOVE PD
 DEP .m                4092.57:  DEPTH
 AGAP.m                  43.60:  AIR GAP
 VSEW.m                  -0.67:  VERT SEC E/W
 VSNS.m                  -7.04:  VERT SEC N/S
 EKB .m                  43.60:  KB ELEVATION
 EDF .m                  43.60:  DF ELEVATION
 TDL .m                 957.50:  TOTAL DEPTH (LOGGER)
 VSC .                       0:  VS TO CLOSURE
 MAGU.                 1851413:  MAGUTM CHECKSUM
~Parameter Information Block
#MNEM.UNIT       Value        Description
#---------     -----------    ---------------------------
 AV  .mps                 1.50:  Ann Velocity 
 AVMX.mps                 2.00:  Max Ann Veloc 
 AZIF.deg               184.66:  Azm, Final 
 BHAT.        Rotary Steerable:  BHA Type 
 BREV.rev               300.00:  Rev Bit Total 
 BROT.°/30m              -0.50:  Build Rotating 
 BS  .in                  8.50:  Bit Size 
 BSZ .in                  8.50:  Bit Size 
 BTPL.psig              370.00:  Bit Press Loss 
 CABU.                      No:  Customer Abuse 
 CGEO.      Behruz Shahbaliyev:  Customer Geo 
 COMM.                     Äi}:  Run Comments 1 
 TCS .hr                140.08:  Time Ciculation Ended 
 CV  .mps                 3.00:  Crit Velocity 
 CVMX.mps                 3.20:  Max Crit Veloc 
 DD1 .            Musa Ahmadov:  Direct Drillr 1 
 DD2 .           Hamid Ahmadov:  Direct Drillr 2 
 DDSV.               Geo-Pilot:  DD Service 
 DEFF.%                  98.40:  % Det Eff 
 DLRX.°/30m               3.40:  Dogleg Rot Max 
 DLSO.°/30m               1.45:  Dogleg Oriented 
 DLSX.°/30m               3.40:  Dogleg Str Max 
 DRET.      18.40.00 29-Aug-21:  Drill End Time 
 DRST.      21.00.00 20-Aug-21:  Drill Start Tim 
 DTIM.hr                 69.47:  Time Drilling 
 EDEP.m                5084.50:  End Depth 
 ENG1.      Artemiy Matviyanov:  Engineer 1 
 ENG2.         Almaz Almadatov:  Engineer 2 
 ETIM.      18.40.00 29-Aug-21:  End Time 
 FLOI.gpm               500.00:  Flow In 
 FLON.gpm               400.00:  Flow In Min 
 FLOS.cptm                0.00:  Fluid Loss 
 FLOX.gpm               500.00:  Flow In Max 
 DFT .        Mineral Oil Base:  Mud Type 
 HFLO.                      No:  High Flow 
 HPRE.                      No:  High Pressure 
 HTEM.                      No:  High Temp 
 HYDO.m                   1.80:  Hydro Offset 
 IFIN.deg                25.62:  Inc, Final 
 IMAX.deg                48.69:  Inc Max 
 IMIN.deg                24.01:  Inc Min 
 IMND.m                4962.57:  Inc Min Depth 
 IMXD.m                4119.01:  Inc Max Depth 
 JARR.                      No:  Jarring 
 LETM.      18.40.00 29-Aug-21:  Log End Time 
 LOST.hr                     0:  Lost Rig Time 
 LSTM.      21.00.00 20-Aug-21:  Log Start Time 
 MDCL.ppm             41500.00:  Mud Chlorides 
 MDES.     Inversion Oil/Synthetic:  Mud Desc 
 DFD .sg                  1.56:  Mud Density 
 MDMN.sg                  1.56:  Dens Mud Min 
 MDMX.sg                  1.56:  Dens Mud Max 
 MOIL.                      70:  Run Mud Oil % 
 MOWR.                   70:30:  Run Mud OWR 
 MSND.                     0.2:  Run Mud Sand % 
 MSOL.                    23.3:  Run Mud Solids% 
 DFV .spqt               78.00:  Mud Viscosity 
 MWOD.in                  6.75:  MWD Tool OD 
 MWSI.                      No:  Serv Intrp, MWD 
 OTIM.hr                218.30:  Time Operating 
 PCON.           Look Like New:  Pad Condition 
 PMAX.psia            11015.30:  Press Op, Max 
 PV  .cP                 38.00:  Mud PV 
 RUN .                     300:  Run Number 
 ROPA.m/hr               15.00:  ROP Avg 
 ROPN.m/hr                9.00:  ROP Min 
 ROPX.m/hr               17.00:  ROP Max 
 RPMA.rpm               120.00:  RPM Surface Avg 
 RPMN.rpm                90.00:  RPM Surface Min 
 RPMX.rpm               140.00:  RPM Surface Max 
 RRUN.                     300:  Rig Run Number 
 RTIM.hr                 31.53:  Time Reaming 
 SAZI.deg               331.64:  Azm, Start 
 SDEP.m                4127.00:  Start Depth 
 SIDD.                      No:  Serv Intrp, DD 
 SINC.deg                48.43:  Inc, Start 
 SPPA.psig             5830.00:  SPP Avg 
 SPPN.psig             5600.00:  SPP Min 
 SPPX.psig             5900.00:  SPP Max 
 STIM.      21.00.00 20-Aug-21:  Start Time 
 SVCS.                 DD, MWD:  Services 
 SVER.                    9.20:  Sperry Version 
 TDAT.m                 957.50:  Tot Depth Attmp 
 TDDF.                      No:  Trip for DD 
 TDLG.m                 957.50:  Tot Depth Loggd 
 TFF .                      No:  Trip for Fail 
 TQAA.f-kp               15.00:  Torque Abs Avg 
 TQAN.f-kp               12.00:  Torque Abs Min 
 TQAX.f-kp               19.00:  Torque Abs Max 
 TRRT.°/30m              -3.40:  Turn Rotating 
 MRT .                  EWR-M5:  Maximum Recorded Temperature 
 TTMX.degC              100.00:  Max Tool Temp 
 VS01.                90639251:  Virtual Str1 SN 
 VS02.                90634715:  Virtual Str2 SN 
 VS03.                90652479:  Virtual Str3 SN 
 VS04.                90642262:  Virtual Str4 SN 
 WBMN.klb                 0.00:  WOB Min 
 WITN.           Murad Guliyev:  Customer Rep 
 WITN.          Yashar Gaziyev:  Customer Rep 2 
 WOBA.klb                 9.00:  WOB Avg 
 WOBX.klb                12.00:  WOB Max 
 YP  .lhf2               30.00:  Yield Point 
~Curve Information Block
#MNEM.UNIT                 API CODE     Curve Description
#---------               -----------    ---------------------------
 TIME.HHMMSS            00 000 000 000:  GT Time & Date
 GTDEPTH.m              00 000 000 000:  GT Depth
 GTPQH.psia             00 000 000 000:  GT HR Quartz Pressure
 GTTQ.degC              00 000 000 000:  GT Quartz Temperature
 GTTN.NONE              00 000 000 000:  GT Test Number
 GTET.sec               00 000 000 000:  GT Elapsed Test Time
 GTTVD.m                00 000 000 000:  GT True Vertical Depth
#Other Information
#
#WARRANTY: Halliburton will use its best efforts to furnish customers with 
#accurate information and interpretations that are part of, and incident to, the services 
#provided.  However, Halliburton cannot and does not warrant the accuracy 
#or correctness of such information and interpretations.  Under no circumstances should any 
#such information or interpretation be relied upon as the sole basis for any drilling, 
#completion, production, or financial decision or any procedure involving any risk to the 
#safety of any drilling venture, drilling rig or its crew or any other third party.  The 
#Customer has full responsibility for all drilling, completion and production operation.  
#Halliburton makes no representations or warranties, either expressed or 
#implied, including, but not limited to, the implied warranties of merchantability or fitness 
#for a particular purpose, with respect to the services rendered.  In no event will 
#Halliburton be liable for failure to obtain any particular results or for 
#any damages, including, but not limited to, indirect, special or consequential damages, 
#resulting from the use of any information or interpretation provided by Halliburton.
#
~A           TIME           GTDEPTH  GTPQH  GTTQ  GTTN   GTET   GTTVD  
# ...
   02:01:35.423.28-Aug-2021 4879.00 7756.81 81.17 27.00 226.07 3229.53
   02:01:35.623.28-Aug-2021 4879.00 7756.81 81.17 27.00 226.27 3229.53
   02:01:35.823.28-Aug-2021 4879.00 7753.70 81.17 27.00 226.47 3229.53
   02:01:36.023.28-Aug-2021 4879.00 7757.75 81.17 27.00 226.67 3229.53
   02:01:36.223.28-Aug-2021 4879.00 7756.49 81.17 27.00 226.87 3229.53
   02:01:36.423.28-Aug-2021 4879.00 7756.62 81.17 27.00 227.07 3229.53
   02:01:36.623.28-Aug-2021 4879.00 7756.62 81.17 27.00 227.27 3229.53
   02:01:36.823.28-Aug-2021 4879.00 7762.18 81.17 27.00 227.47 3229.53
   02:01:37.023.28-Aug-2021 4879.00 7753.57 81.17 27.00 227.67 3229.53
   02:01:37.223.28-Aug-2021 4879.00 7758.16 81.17 27.00 227.87 3229.53
   02:01:37.423.28-Aug-2021 4879.00 7757.11 81.17 27.00 228.07 3229.53
   02:01:37.623.28-Aug-2021 4879.00 7757.11 81.17 27.00 228.27 3229.53
   02:01:37.823.28-Aug-2021 4879.00 7760.18 81.17 27.00 228.47 3229.53
   02:01:38.024.28-Aug-2021 4879.00 7756.63 81.17 27.00 228.67 3229.53
   02:01:38.224.28-Aug-2021 4879.00 7757.33 81.17 27.00 228.87 3229.53
   02:01:38.424.28-Aug-2021 4879.00 7756.59 81.17 27.00 229.07 3229.53
   02:01:38.624.28-Aug-2021 4879.00 7756.59 81.17 27.00 229.27 3229.53
   02:01:38.824.28-Aug-2021 4879.00 7755.99 81.17 27.00 229.47 3229.53
   02:01:39.024.28-Aug-2021 4879.00 7756.41 81.17 27.00 229.67 3229.53
   02:01:39.224.28-Aug-2021 4879.00 7756.17 81.17 27.00 229.87 3229.53
   02:01:39.424.28-Aug-2021 4879.00 7756.40 81.17 27.00 230.07 3229.53
   02:01:39.624.28-Aug-2021 4879.00 7756.40 81.17 27.00 230.27 3229.53
   02:01:39.824.28-Aug-2021 4879.00 7756.81 81.17 27.00 230.47 3229.53
   02:01:40.024.28-Aug-2021 4879.00 7757.03 81.17 27.00 230.67 3229.53
   02:01:40.224.28-Aug-2021 4879.00 7756.94 81.17 27.00 230.87 3229.53
   02:01:40.424.28-Aug-2021 4879.00 7756.94 81.17 27.00 231.07 3229.53
   02:01:40.624.28-Aug-2021 4879.00 7756.94 81.17 27.00 231.27 3229.53
   02:01:40.824.28-Aug-2021 4879.00 7756.70 81.17 27.00 231.47 3229.53
   02:01:41.025.28-Aug-2021 4879.00 7760.62 81.17 27.00 231.67 3229.53
   02:01:41.225.28-Aug-2021 4879.00 7755.49 81.17 27.00 231.87 3229.53
   02:01:41.425.28-Aug-2021 4879.00 7757.70 81.17 27.00 232.07 3229.53
   02:01:41.625.28-Aug-2021 4879.00 7757.70 81.17 27.00 232.27 3229.53
   02:01:41.825.28-Aug-2021 4879.00 7756.42 81.17 27.00 232.47 3229.53
   02:01:42.025.28-Aug-2021 4879.00 7756.38 81.17 27.00 232.67 3229.53
   02:01:42.225.28-Aug-2021 4879.00 7756.21 81.17 27.00 232.87 3229.53
   02:01:42.425.28-Aug-2021 4879.00 7756.22 81.17 27.00 233.07 3229.53
   02:01:42.625.28-Aug-2021 4879.00 7756.22 81.17 27.00 233.27 3229.53
   02:01:42.825.28-Aug-2021 4879.00 7756.91 81.17 27.00 233.47 3229.53
   02:01:43.025.28-Aug-2021 4879.00 7756.96 81.17 27.00 233.67 3229.53
   02:01:43.225.28-Aug-2021 4879.00 7757.32 81.17 27.00 233.87 3229.53
   02:01:43.425.28-Aug-2021 4879.00 7757.24 81.17 27.00 234.07 3229.53
   02:01:43.625.28-Aug-2021 4879.00 7757.24 81.17 27.00 234.27 3229.53
   02:01:43.825.28-Aug-2021 4879.00 7757.09 81.17 27.00 234.47 3229.53
   02:01:44.025.28-Aug-2021 4879.00 7756.89 81.17 27.00 234.67 3229.53
   02:01:44.226.28-Aug-2021 4879.00 7756.89 81.17 27.00 234.87 3229.53
   02:01:44.426.28-Aug-2021 4879.00 7760.76 81.17 27.00 235.07 3229.53
   02:01:44.626.28-Aug-2021 4879.00 7760.76 81.17 27.00 235.27 3229.53
   02:01:44.826.28-Aug-2021 4879.00 7757.75 81.17 27.00 235.47 3229.53
   02:01:45.026.28-Aug-2021 4879.00 7756.65 81.17 27.00 235.67 3229.53
   02:01:45.226.28-Aug-2021 4879.00 7760.45 81.17 27.00 235.87 3229.53
   02:01:45.426.28-Aug-2021 4879.00 7755.10 81.17 27.00 236.07 3229.53
   02:01:45.626.28-Aug-2021 4879.00 7755.10 81.17 27.00 236.27 3229.53
   02:01:45.826.28-Aug-2021 4879.00 7756.02 81.16 27.00 236.47 3229.53
   02:01:46.026.28-Aug-2021 4879.00 7756.14 81.16 27.00 236.67 3229.53
   02:01:46.226.28-Aug-2021 4879.00 7756.19 81.16 27.00 236.87 3229.53
   02:01:46.426.28-Aug-2021 4879.00 7760.34 81.16 27.00 237.07 3229.53
   02:01:46.626.28-Aug-2021 4879.00 7760.34 81.16 27.00 237.27 3229.53
   02:01:46.826.28-Aug-2021 4879.00 7757.98 81.16 27.00 237.47 3229.53
   02:01:47.026.28-Aug-2021 4879.00 7757.14 81.16 27.00 237.67 3229.53
   02:01:47.226.28-Aug-2021 4879.00 7759.93 81.16 27.00 237.87 3229.53
   02:01:47.427.28-Aug-2021 4879.00 7756.93 81.16 27.00 238.07 3229.53
   02:01:47.627.28-Aug-2021 4879.00 7756.93 81.16 27.00 238.28 3229.53
   02:01:47.827.28-Aug-2021 4879.00 7757.26 81.16 27.00 238.48 3229.53
   02:01:48.027.28-Aug-2021 4879.00 7756.72 81.16 27.00 238.68 3229.53
   02:01:48.227.28-Aug-2021 4879.00 7756.69 81.16 27.00 238.88 3229.53
   02:01:48.427.28-Aug-2021 4879.00 7756.23 81.16 27.00 239.08 3229.53
   02:01:48.627.28-Aug-2021 4879.00 7756.23 81.16 27.00 239.28 3229.53
   02:01:48.827.28-Aug-2021 4879.00 7756.53 81.16 27.00 239.48 3229.53
   02:01:49.027.28-Aug-2021 4879.00 7756.86 81.16 27.00 239.68 3229.53
   02:01:49.227.28-Aug-2021 4879.00 7757.09 81.16 27.00 239.88 3229.53
   02:01:49.427.28-Aug-2021 4879.00 7757.32 81.16 27.00 240.08 3229.53
   02:01:49.627.28-Aug-2021 4879.00 7757.32 81.16 27.00 240.28 3229.53
   02:01:49.827.28-Aug-2021 4879.00 7757.33 81.16 27.00 240.48 3229.53
   02:01:50.027.28-Aug-2021 4879.00 7757.26 81.16 27.00 240.68 3229.53
   02:01:50.227.28-Aug-2021 4879.00 7757.22 81.16 27.00 240.88 3229.53
   02:01:50.427.28-Aug-2021 4879.00 7757.07 81.16 27.00 241.08 3229.53
   02:01:50.628.28-Aug-2021 4879.00 7757.07 81.16 27.00 241.28 3229.53
   02:01:50.828.28-Aug-2021 4879.00 7757.10 81.16 27.00 241.48 3229.53
   02:01:51.028.28-Aug-2021 4879.00 7757.90 81.16 27.00 241.68 3229.53
   02:01:51.228.28-Aug-2021 4879.00 7757.11 81.16 27.00 241.88 3229.53
   02:01:51.428.28-Aug-2021 4879.00 7756.49 81.16 27.00 242.08 3229.53
   02:01:51.628.28-Aug-2021 4879.00 7756.49 81.16 27.00 242.28 3229.53
   02:01:51.828.28-Aug-2021 4879.00 7756.35 81.16 27.00 242.48 3229.53
   02:01:52.028.28-Aug-2021 4879.00 7756.31 81.16 27.00 242.68 3229.53
   02:01:52.228.28-Aug-2021 4879.00 7756.44 81.16 27.00 242.88 3229.53
   02:01:52.428.28-Aug-2021 4879.00 7757.07 81.16 27.00 243.08 3229.53
   02:01:52.628.28-Aug-2021 4879.00 7757.07 81.16 27.00 243.28 3229.53
   02:01:52.828.28-Aug-2021 4879.00 7757.36 81.16 27.00 243.48 3229.53
   02:01:53.028.28-Aug-2021 4879.00 7757.28 81.16 27.00 243.68 3229.53
   02:01:53.228.28-Aug-2021 4879.00 7757.19 81.16 27.00 243.88 3229.53
   02:01:53.428.28-Aug-2021 4879.00 7757.23 81.16 27.00 244.08 3229.53
   02:01:53.628.28-Aug-2021 4879.00 7757.23 81.16 27.00 244.28 3229.53
   02:01:53.829.28-Aug-2021 4879.00 7757.01 81.16 27.00 244.48 3229.53
   02:01:54.029.28-Aug-2021 4879.00 7759.83 81.16 27.00 244.68 3229.53
   02:01:54.229.28-Aug-2021 4879.00 7757.06 81.16 27.00 244.88 3229.53
   02:01:54.429.28-Aug-2021 4879.00 7757.80 81.16 27.00 245.08 3229.53
   02:01:54.629.28-Aug-2021 4879.00 7757.80 81.16 27.00 245.28 3229.53
   02:01:54.829.28-Aug-2021 4879.00 7753.60 81.16 27.00 245.48 3229.53
   02:01:55.029.28-Aug-2021 4879.00 7757.75 81.16 27.00 245.68 3229.53
   02:01:55.229.28-Aug-2021 4879.00 7756.70 81.16 27.00 245.88 3229.53
   02:01:55.429.28-Aug-2021 4879.00 7756.59 81.16 27.00 246.08 3229.53
   02:01:55.629.28-Aug-2021 4879.00 7756.59 81.16 27.00 246.28 3229.53
   02:01:55.829.28-Aug-2021 4879.00 7756.67 81.16 27.00 246.48 3229.53
   02:01:56.029.28-Aug-2021 4879.00 7759.48 81.16 27.00 246.68 3229.53
   02:01:56.229.28-Aug-2021 4879.00 7757.23 81.16 27.00 246.88 3229.53
   02:01:56.429.28-Aug-2021 4879.00 7758.38 81.16 27.00 247.08 3229.53
   02:01:56.629.28-Aug-2021 4879.00 7758.38 81.16 27.00 247.28 3229.53
   02:01:56.829.28-Aug-2021 4879.00 7754.65 81.16 27.00 247.48 3229.53
   02:01:57.030.28-Aug-2021 4879.00 7758.28 81.16 27.00 247.68 3229.53
   02:01:57.230.28-Aug-2021 4879.00 7757.32 81.16 27.00 247.88 3229.53
   02:01:57.430.28-Aug-2021 4879.00 7755.65 81.16 27.00 248.08 3229.53
   02:01:57.630.28-Aug-2021 4879.00 7755.65 81.16 27.00 248.28 3229.53
   02:01:57.830.28-Aug-2021 4879.00 7755.16 81.16 27.00 248.48 3229.53
