~Version Information
 VERS.                  2.0:   CWLS log ASCII Standard -VERSION 2.0
 WRAP.                   NO:   One line per depth step
~Well Information Block
#MNEM.UNIT     VALUE/NAME     DESCRIPTION
#---------     -----------    ---------------------------
 STRT.S             15:52:10 27-Aug-21: START TIME 15:52:10 27-Aug-21
 STOP.S             15:59:26 27-Aug-21: STOP TIME  15:59:26 27-Aug-21
 STEP.S                   0.00: STEP TIME
 NULL.                 -999.25: NULL VALUE
 DFWT.                        :  DIST FWL TEXT
 DFST.                        :  DIST FSL TEXT
 DMF .             Drill Floor:  DRILL MEAS FROM
 STIM.      20.00.00 17-Aug-21:  START TIME
 DATE.      19.00.00 29-Aug-21:  END TIME
 SPUD.               15-Aug-21:  SPUD DATE
 NREF.                    Grid:  NORTH REFERENCE
 HPTY.       Minimum Curvature:  HOLE POS TYPE
 DMOD.             Drill Model:  DRILL MOD DESC
 SVYD.                  Survey:  SURVEY DESC
 ILTD.               Lithology:  INTERP LTH DESC
 FTOP.          Formation Tops:  FORM TOPS DESC
 RIG .              East Azeri:  RIG NAME
 PDAT.          Mean Sea Level:  PERMANENT DATUM
 FLD .                     ACG:  FIELD NAME
 SON .        AZ-XX-0907180857:  JOB NUMBER
 CTRY.              Azerbaijan:  COUNTRY NAME
 WELL.                    D23x:  WELL NAME
 SRVC.     Turan Drilling and Engineering:  CONTRACTOR
 COMP.     BP Exploration (Caspian Sea) Ltd.:  COMPANY
 UWI .            /AZE00000214:  UNIQUE WELL IDENTIFIER
 API .            /AZE00000214:  API NUMBER
 MDS .        Operator Entered:  MAG DATA SOURCE
 BASE.              Azerbaijan:  LOGGING EQUIPMENT BASE LOCATION
 REGN.                   EESSA:  REGION
 PROV.                    Baku:  PROVINCE
 STAT.                    Baku:  STATE NAME
 MWDS.                    Baku:  MWD SHOP
 DOE .                     N/A:  DOE NUMBER
 DCON.         Sperry Drilling:  DIRECTNL CONTR
 UNIT.                     N/A:  LOGGING EQUIPMENT ID
 WTYP.                Deviated:  WELL TYPE
 CNTY.                        :  COUNTY
 LOC .                        :  LOCATION
 LMF .             Drill Floor:  LOG MEASURED FROM
 TVDS.m                  43.60:  TVDSS CORRECTN
 LATI.deg                40.02:  LATITUDE
 LONG.deg                51.45:  LONGITUDE
 WHNS.m                  -7.04:  WELL HEAD N/S
 WHEW.m                  -0.67:  WELL HEAD E/W
 UTMX.m              538762.90:  UTM X
 UTMY.m             4431871.34:  UTM Y
 DFWL.m                   0.00:  DISTANCE FWL
 DFSL.m                   0.00:  DISTANCE FSL
 SDEP.m                4127.00:  START DEPTH
 TDD .m                5084.50:  TOTAL DEPTH (DRILLER)
 VSDR.deg               140.47:  VERT SEC DIRECT
 GVFD.g                   1.00:  GRAVITY FIELD
 MFLD.nT              50362.00:  MAGNETIC FIELD
 MDIP.deg                59.48:  MAGNETIC DIP
 MDEC.deg                 6.47:  MAGNETIC DECL
 GRDC.deg                 0.31:  GRID CORRECTION
 AZTC.deg                 6.16:  AZM TOTAL CORR
 EPD .m                   0.00:  ELEVATION
 EGL .m                   0.00:  GROUND ELEVATION
 WDMS.m                 151.80:  WD ELEV
 APD .m                  43.60:  DEPTH ABOVE PD
 DEP .m                4092.57:  DEPTH
 AGAP.m                  43.60:  AIR GAP
 VSEW.m                  -0.67:  VERT SEC E/W
 VSNS.m                  -7.04:  VERT SEC N/S
 EKB .m                  43.60:  KB ELEVATION
 EDF .m                  43.60:  DF ELEVATION
 TDL .m                 957.50:  TOTAL DEPTH (LOGGER)
 VSC .                       0:  VS TO CLOSURE
 MAGU.                 1851413:  MAGUTM CHECKSUM
~Parameter Information Block
#MNEM.UNIT       Value        Description
#---------     -----------    ---------------------------
 AV  .mps                 1.50:  Ann Velocity 
 AVMX.mps                 2.00:  Max Ann Veloc 
 AZIF.deg               184.66:  Azm, Final 
 BHAT.        Rotary Steerable:  BHA Type 
 BREV.rev               300.00:  Rev Bit Total 
 BROT.°/30m              -0.50:  Build Rotating 
 BS  .in                  8.50:  Bit Size 
 BSZ .in                  8.50:  Bit Size 
 BTPL.psig              370.00:  Bit Press Loss 
 CABU.                      No:  Customer Abuse 
 CGEO.      Behruz Shahbaliyev:  Customer Geo 
 COMM.                     Ìu:  Run Comments 1 
 TCS .hr                140.08:  Time Ciculation Ended 
 CV  .mps                 3.00:  Crit Velocity 
 CVMX.mps                 3.20:  Max Crit Veloc 
 DD1 .            Musa Ahmadov:  Direct Drillr 1 
 DD2 .           Hamid Ahmadov:  Direct Drillr 2 
 DDSV.               Geo-Pilot:  DD Service 
 DEFF.%                  98.40:  % Det Eff 
 DLRX.°/30m               3.40:  Dogleg Rot Max 
 DLSO.°/30m               1.45:  Dogleg Oriented 
 DLSX.°/30m               3.40:  Dogleg Str Max 
 DRET.      18.40.00 29-Aug-21:  Drill End Time 
 DRST.      21.00.00 20-Aug-21:  Drill Start Tim 
 DTIM.hr                 69.47:  Time Drilling 
 EDEP.m                5084.50:  End Depth 
 ENG1.      Artemiy Matviyanov:  Engineer 1 
 ENG2.         Almaz Almadatov:  Engineer 2 
 ETIM.      18.40.00 29-Aug-21:  End Time 
 FLOI.gpm               500.00:  Flow In 
 FLON.gpm               400.00:  Flow In Min 
 FLOS.cptm                0.00:  Fluid Loss 
 FLOX.gpm               500.00:  Flow In Max 
 DFT .        Mineral Oil Base:  Mud Type 
 HFLO.                      No:  High Flow 
 HPRE.                      No:  High Pressure 
 HTEM.                      No:  High Temp 
 HYDO.m                   1.80:  Hydro Offset 
 IFIN.deg                25.62:  Inc, Final 
 IMAX.deg                48.69:  Inc Max 
 IMIN.deg                24.01:  Inc Min 
 IMND.m                4962.57:  Inc Min Depth 
 IMXD.m                4119.01:  Inc Max Depth 
 JARR.                      No:  Jarring 
 LETM.      18.40.00 29-Aug-21:  Log End Time 
 LOST.hr                     0:  Lost Rig Time 
 LSTM.      21.00.00 20-Aug-21:  Log Start Time 
 MDCL.ppm             41500.00:  Mud Chlorides 
 MDES.     Inversion Oil/Synthetic:  Mud Desc 
 DFD .sg                  1.56:  Mud Density 
 MDMN.sg                  1.56:  Dens Mud Min 
 MDMX.sg                  1.56:  Dens Mud Max 
 MOIL.                      70:  Run Mud Oil % 
 MOWR.                   70:30:  Run Mud OWR 
 MSND.                     0.2:  Run Mud Sand % 
 MSOL.                    23.3:  Run Mud Solids% 
 DFV .spqt               78.00:  Mud Viscosity 
 MWOD.in                  6.75:  MWD Tool OD 
 MWSI.                      No:  Serv Intrp, MWD 
 OTIM.hr                218.30:  Time Operating 
 PCON.           Look Like New:  Pad Condition 
 PMAX.psia            11015.30:  Press Op, Max 
 PV  .cP                 38.00:  Mud PV 
 RUN .                     300:  Run Number 
 ROPA.m/hr               15.00:  ROP Avg 
 ROPN.m/hr                9.00:  ROP Min 
 ROPX.m/hr               17.00:  ROP Max 
 RPMA.rpm               120.00:  RPM Surface Avg 
 RPMN.rpm                90.00:  RPM Surface Min 
 RPMX.rpm               140.00:  RPM Surface Max 
 RRUN.                     300:  Rig Run Number 
 RTIM.hr                 31.53:  Time Reaming 
 SAZI.deg               331.64:  Azm, Start 
 SDEP.m                4127.00:  Start Depth 
 SIDD.                      No:  Serv Intrp, DD 
 SINC.deg                48.43:  Inc, Start 
 SPPA.psig             5830.00:  SPP Avg 
 SPPN.psig             5600.00:  SPP Min 
 SPPX.psig             5900.00:  SPP Max 
 STIM.      21.00.00 20-Aug-21:  Start Time 
 SVCS.                 DD, MWD:  Services 
 SVER.                    9.20:  Sperry Version 
 TDAT.m                 957.50:  Tot Depth Attmp 
 TDDF.                      No:  Trip for DD 
 TDLG.m                 957.50:  Tot Depth Loggd 
 TFF .                      No:  Trip for Fail 
 TQAA.f-kp               15.00:  Torque Abs Avg 
 TQAN.f-kp               12.00:  Torque Abs Min 
 TQAX.f-kp               19.00:  Torque Abs Max 
 TRRT.°/30m              -3.40:  Turn Rotating 
 MRT .                  EWR-M5:  Maximum Recorded Temperature 
 TTMX.degC              100.00:  Max Tool Temp 
 VS01.                90639251:  Virtual Str1 SN 
 VS02.                90634715:  Virtual Str2 SN 
 VS03.                90652479:  Virtual Str3 SN 
 VS04.                90642262:  Virtual Str4 SN 
 WBMN.klb                 0.00:  WOB Min 
 WITN.           Murad Guliyev:  Customer Rep 
 WITN.          Yashar Gaziyev:  Customer Rep 2 
 WOBA.klb                 9.00:  WOB Avg 
 WOBX.klb                12.00:  WOB Max 
 YP  .lhf2               30.00:  Yield Point 
~Curve Information Block
#MNEM.UNIT                 API CODE     Curve Description
#---------               -----------    ---------------------------
 TIME.HHMMSS            00 000 000 000:  GT Time & Date
 GTDEPTH.m              00 000 000 000:  GT Depth
 GTPQH.psia             00 000 000 000:  GT HR Quartz Pressure
 GTTQ.degC              00 000 000 000:  GT Quartz Temperature
 GTTN.NONE              00 000 000 000:  GT Test Number
 GTET.sec               00 000 000 000:  GT Elapsed Test Time
 GTTVD.m                00 000 000 000:  GT True Vertical Depth
#Other Information
#
#WARRANTY: Halliburton will use its best efforts to furnish customers with 
#accurate information and interpretations that are part of, and incident to, the services 
#provided.  However, Halliburton cannot and does not warrant the accuracy 
#or correctness of such information and interpretations.  Under no circumstances should any 
#such information or interpretation be relied upon as the sole basis for any drilling, 
#completion, production, or financial decision or any procedure involving any risk to the 
#safety of any drilling venture, drilling rig or its crew or any other third party.  The 
#Customer has full responsibility for all drilling, completion and production operation.  
#Halliburton makes no representations or warranties, either expressed or 
#implied, including, but not limited to, the implied warranties of merchantability or fitness 
#for a particular purpose, with respect to the services rendered.  In no event will 
#Halliburton be liable for failure to obtain any particular results or for 
#any damages, including, but not limited to, indirect, special or consequential damages, 
#resulting from the use of any information or interpretation provided by Halliburton.
#
~A           TIME           GTDEPTH  GTPQH  GTTQ  GTTN   GTET   GTTVD  
# ...
   15:56:19.767.27-Aug-2021 4817.00 5229.72 83.57 16.00 249.00 3173.43
   15:56:19.967.27-Aug-2021 4817.00 5229.72 83.57 16.00 249.20 3173.43
   15:56:20.167.27-Aug-2021 4817.00 5229.73 83.57 16.00 249.40 3173.43
   15:56:20.368.27-Aug-2021 4817.00 5229.73 83.57 16.00 249.60 3173.43
   15:56:20.568.27-Aug-2021 4817.00 5229.72 83.57 16.00 249.80 3173.43
   15:56:20.768.27-Aug-2021 4817.00 5229.73 83.57 16.00 250.00 3173.43
   15:56:20.969.27-Aug-2021 4817.00 5229.69 83.57 16.00 250.20 3173.43
   15:56:21.169.27-Aug-2021 4817.00 5229.69 83.57 16.00 250.40 3173.43
   15:56:21.369.27-Aug-2021 4817.00 5229.69 83.57 16.00 250.60 3173.43
   15:56:21.570.27-Aug-2021 4817.00 5229.80 83.57 16.00 250.80 3173.43
   15:56:21.770.27-Aug-2021 4817.00 5229.69 83.57 16.00 251.00 3173.43
   15:56:21.970.27-Aug-2021 4817.00 5229.72 83.57 16.00 251.20 3173.43
   15:56:22.171.27-Aug-2021 4817.00 5229.71 83.57 16.00 251.40 3173.43
   15:56:22.371.27-Aug-2021 4817.00 5229.71 83.57 16.00 251.60 3173.43
   15:56:22.571.27-Aug-2021 4817.00 5229.72 83.57 16.00 251.80 3173.43
   15:56:22.772.27-Aug-2021 4817.00 5229.73 83.57 16.00 252.00 3173.43
   15:56:22.972.27-Aug-2021 4817.00 5229.73 83.57 16.00 252.20 3173.43
   15:56:23.172.27-Aug-2021 4817.00 5229.72 83.57 16.00 252.40 3173.43
   15:56:23.373.27-Aug-2021 4817.00 5229.72 83.57 16.00 252.60 3173.43
   15:56:23.573.27-Aug-2021 4817.00 5229.71 83.57 16.00 252.80 3173.43
   15:56:23.773.27-Aug-2021 4817.00 5229.72 83.57 16.00 253.00 3173.43
   15:56:23.973.27-Aug-2021 4817.00 5229.72 83.57 16.00 253.20 3173.43
   15:56:24.174.27-Aug-2021 4817.00 5229.71 83.57 16.00 253.40 3173.43
   15:56:24.374.27-Aug-2021 4817.00 5229.71 83.57 16.00 253.60 3173.43
   15:56:24.574.27-Aug-2021 4817.00 5229.69 83.57 16.00 253.80 3173.43
   15:56:24.775.27-Aug-2021 4817.00 5229.81 83.57 16.00 254.00 3173.43
   15:56:24.975.27-Aug-2021 4817.00 5229.77 83.57 16.00 254.20 3173.43
   15:56:25.175.27-Aug-2021 4817.00 5229.69 83.57 16.00 254.40 3173.43
   15:56:25.376.27-Aug-2021 4817.00 5229.69 83.57 16.00 254.60 3173.43
   15:56:25.576.27-Aug-2021 4817.00 5229.70 83.57 16.00 254.80 3173.43
   15:56:25.776.27-Aug-2021 4817.00 5229.79 83.57 16.00 255.01 3173.43
   15:56:25.977.27-Aug-2021 4817.00 5229.77 83.57 16.00 255.21 3173.43
   15:56:26.177.27-Aug-2021 4817.00 5229.71 83.57 16.00 255.41 3173.43
   15:56:26.377.27-Aug-2021 4817.00 5229.71 83.57 16.00 255.61 3173.43
   15:56:26.578.27-Aug-2021 4817.00 5229.72 83.57 16.00 255.81 3173.43
   15:56:26.778.27-Aug-2021 4817.00 5229.68 83.57 16.00 256.01 3173.43
   15:56:26.978.27-Aug-2021 4817.00 5229.82 83.57 16.00 256.21 3173.43
   15:56:27.179.27-Aug-2021 4817.00 5229.72 83.57 16.00 256.41 3173.43
   15:56:27.379.27-Aug-2021 4817.00 5229.72 83.57 16.00 256.61 3173.43
   15:56:27.579.27-Aug-2021 4817.00 5229.88 83.57 16.00 256.81 3173.43
   15:56:27.780.27-Aug-2021 4817.00 5229.58 83.57 16.00 257.01 3173.43
   15:56:27.980.27-Aug-2021 4817.00 5229.66 83.57 16.00 257.21 3173.43
   15:56:28.180.27-Aug-2021 4817.00 5229.82 83.57 16.00 257.41 3173.43
   15:56:28.381.27-Aug-2021 4817.00 5229.82 83.57 16.00 257.61 3173.43
   15:56:28.581.27-Aug-2021 4817.00 5229.71 83.57 16.00 257.81 3173.43
   15:56:28.781.27-Aug-2021 4817.00 5229.72 83.57 16.00 258.01 3173.43
   15:56:28.981.27-Aug-2021 4817.00 5229.73 83.57 16.00 258.21 3173.43
   15:56:29.182.27-Aug-2021 4817.00 5229.74 83.57 16.00 258.41 3173.43
   15:56:29.382.27-Aug-2021 4817.00 5229.74 83.57 16.00 258.61 3173.43
   15:56:29.582.27-Aug-2021 4817.00 5229.73 83.57 16.00 258.81 3173.43
   15:56:29.783.27-Aug-2021 4817.00 5229.73 83.57 16.00 259.01 3173.43
   15:56:29.983.27-Aug-2021 4817.00 5229.72 83.57 16.00 259.21 3173.43
   15:56:30.183.27-Aug-2021 4817.00 5229.72 83.57 16.00 259.41 3173.43
   15:56:30.384.27-Aug-2021 4817.00 5229.72 83.57 16.00 259.61 3173.43
   15:56:30.584.27-Aug-2021 4817.00 5229.71 83.57 16.00 259.81 3173.43
   15:56:30.784.27-Aug-2021 4817.00 5229.66 83.57 16.00 260.01 3173.43
   15:56:30.985.27-Aug-2021 4817.00 5229.83 83.57 16.00 260.21 3173.43
   15:56:31.185.27-Aug-2021 4817.00 5229.71 83.57 16.00 260.41 3173.43
   15:56:31.385.27-Aug-2021 4817.00 5229.71 83.57 16.00 260.61 3173.43
   15:56:31.586.27-Aug-2021 4817.00 5229.69 83.57 16.00 260.81 3173.43
   15:56:31.786.27-Aug-2021 4817.00 5229.73 83.57 16.00 261.01 3173.43
   15:56:31.986.27-Aug-2021 4817.00 5229.69 83.57 16.00 261.22 3173.43
   15:56:32.187.27-Aug-2021 4817.00 5229.72 83.57 16.00 261.42 3173.43
   15:56:32.387.27-Aug-2021 4817.00 5229.72 83.57 16.00 261.62 3173.43
   15:56:32.587.27-Aug-2021 4817.00 5229.72 83.57 16.00 261.82 3173.43
   15:56:32.788.27-Aug-2021 4817.00 5229.72 83.57 16.00 262.02 3173.43
   15:56:32.988.27-Aug-2021 4817.00 5229.72 83.57 16.00 262.22 3173.43
   15:56:33.188.27-Aug-2021 4817.00 5229.70 83.57 16.00 262.42 3173.43
   15:56:33.388.27-Aug-2021 4817.00 5229.70 83.57 16.00 262.62 3173.43
   15:56:33.589.27-Aug-2021 4817.00 5229.70 83.57 16.00 262.82 3173.43
   15:56:33.789.27-Aug-2021 4817.00 5229.70 83.57 16.00 263.02 3173.43
   15:56:33.989.27-Aug-2021 4817.00 5229.70 83.57 16.00 263.22 3173.43
   15:56:34.190.27-Aug-2021 4817.00 5229.69 83.57 16.00 263.42 3173.43
   15:56:34.390.27-Aug-2021 4817.00 5229.69 83.57 16.00 263.62 3173.43
   15:56:34.590.27-Aug-2021 4817.00 5229.69 83.57 16.00 263.82 3173.43
   15:56:34.791.27-Aug-2021 4817.00 5229.72 83.57 16.00 264.02 3173.43
   15:56:34.991.27-Aug-2021 4817.00 5229.68 83.57 16.00 264.22 3173.43
   15:56:35.191.27-Aug-2021 4817.00 5229.65 83.57 16.00 264.42 3173.43
   15:56:35.392.27-Aug-2021 4817.00 5229.65 83.57 16.00 264.62 3173.43
   15:56:35.592.27-Aug-2021 4817.00 5229.72 83.57 16.00 264.82 3173.43
   15:56:35.792.27-Aug-2021 4817.00 5229.74 83.57 16.00 265.02 3173.43
   15:56:35.993.27-Aug-2021 4817.00 5229.69 83.57 16.00 265.22 3173.43
   15:56:36.193.27-Aug-2021 4817.00 5229.73 83.57 16.00 265.42 3173.43
   15:56:36.393.27-Aug-2021 4817.00 5229.73 83.57 16.00 265.62 3173.43
   15:56:36.594.27-Aug-2021 4817.00 5229.52 83.57 16.00 265.82 3173.43
   15:56:36.794.27-Aug-2021 4817.00 5229.76 83.57 16.00 266.02 3173.43
   15:56:36.994.27-Aug-2021 4817.00 5229.71 83.57 16.00 266.22 3173.43
   15:56:37.195.27-Aug-2021 4817.00 5229.69 83.57 16.00 266.42 3173.43
   15:56:37.395.27-Aug-2021 4817.00 5229.69 83.57 16.00 266.62 3173.43
   15:56:37.595.27-Aug-2021 4817.00 5229.73 83.57 16.00 266.82 3173.43
   15:56:37.795.27-Aug-2021 4817.00 5229.78 83.57 16.00 267.02 3173.43
   15:56:37.996.27-Aug-2021 4817.00 5229.72 83.57 16.00 267.22 3173.43
   15:56:38.196.27-Aug-2021 4817.00 5229.71 83.57 16.00 267.43 3173.43
   15:56:38.396.27-Aug-2021 4817.00 5229.71 83.57 16.00 267.63 3173.43
   15:56:38.597.27-Aug-2021 4817.00 5229.72 83.57 16.00 267.83 3173.43
   15:56:38.797.27-Aug-2021 4817.00 5229.72 83.57 16.00 268.03 3173.43
   15:56:38.997.27-Aug-2021 4817.00 5229.71 83.57 16.00 268.23 3173.43
   15:56:39.198.27-Aug-2021 4817.00 5229.72 83.57 16.00 268.43 3173.43
   15:56:39.398.27-Aug-2021 4817.00 5229.72 83.57 16.00 268.63 3173.43
   15:56:39.598.27-Aug-2021 4817.00 5229.71 83.57 16.00 268.83 3173.43
   15:56:39.799.27-Aug-2021 4817.00 5229.71 83.57 16.00 269.03 3173.43
   15:56:39.999.27-Aug-2021 4817.00 5229.70 83.57 16.00 269.23 3173.43
   15:56:40.199.27-Aug-2021 4817.00 5229.71 83.57 16.00 269.43 3173.43
   15:56:40.400.27-Aug-2021 4817.00 5229.71 83.57 16.00 269.63 3173.43
   15:56:40.600.27-Aug-2021 4817.00 5229.48 83.57 16.00 269.83 3173.43
   15:56:40.800.27-Aug-2021 4817.00 5229.74 83.57 16.00 270.03 3173.43
   15:56:41.001.27-Aug-2021 4817.00 5229.69 83.57 16.00 270.23 3173.43
   15:56:41.201.27-Aug-2021 4817.00 5229.72 83.57 16.00 270.43 3173.43
   15:56:41.401.27-Aug-2021 4817.00 5229.72 83.57 16.00 270.63 3173.43
   15:56:41.602.27-Aug-2021 4817.00 5229.71 83.57 16.00 270.83 3173.43
   15:56:41.802.27-Aug-2021 4817.00 5229.72 83.57 16.00 271.03 3173.43
   15:56:42.002.27-Aug-2021 4817.00 5229.73 83.57 16.00 271.23 3173.43
   15:56:42.202.27-Aug-2021 4817.00 5229.71 83.57 16.00 271.43 3173.43
