~Version Information
 VERS.                  2.0:   CWLS log ASCII Standard -VERSION 2.0
 WRAP.                   NO:   One line per depth step
~Well Information Block
#MNEM.UNIT     VALUE/NAME     DESCRIPTION
#---------     -----------    ---------------------------
 STRT.S             13:52:51 27-Aug-21: START TIME 13:52:51 27-Aug-21
 STOP.S             13:59:42 27-Aug-21: STOP TIME  13:59:42 27-Aug-21
 STEP.S                   0.00: STEP TIME
 NULL.                 -999.25: NULL VALUE
 DFWT.                        :  DIST FWL TEXT
 DFST.                        :  DIST FSL TEXT
 DMF .             Drill Floor:  DRILL MEAS FROM
 STIM.      20.00.00 17-Aug-21:  START TIME
 DATE.      19.00.00 29-Aug-21:  END TIME
 SPUD.               15-Aug-21:  SPUD DATE
 NREF.                    Grid:  NORTH REFERENCE
 HPTY.       Minimum Curvature:  HOLE POS TYPE
 DMOD.             Drill Model:  DRILL MOD DESC
 SVYD.                  Survey:  SURVEY DESC
 ILTD.               Lithology:  INTERP LTH DESC
 FTOP.          Formation Tops:  FORM TOPS DESC
 RIG .              East Azeri:  RIG NAME
 PDAT.          Mean Sea Level:  PERMANENT DATUM
 FLD .                     ACG:  FIELD NAME
 SON .        AZ-XX-0907180857:  JOB NUMBER
 CTRY.              Azerbaijan:  COUNTRY NAME
 WELL.                    D23x:  WELL NAME
 SRVC.     Turan Drilling and Engineering:  CONTRACTOR
 COMP.     BP Exploration (Caspian Sea) Ltd.:  COMPANY
 UWI .            /AZE00000214:  UNIQUE WELL IDENTIFIER
 API .            /AZE00000214:  API NUMBER
 MDS .        Operator Entered:  MAG DATA SOURCE
 BASE.              Azerbaijan:  LOGGING EQUIPMENT BASE LOCATION
 REGN.                   EESSA:  REGION
 PROV.                    Baku:  PROVINCE
 STAT.                    Baku:  STATE NAME
 MWDS.                    Baku:  MWD SHOP
 DOE .                     N/A:  DOE NUMBER
 DCON.         Sperry Drilling:  DIRECTNL CONTR
 UNIT.                     N/A:  LOGGING EQUIPMENT ID
 WTYP.                Deviated:  WELL TYPE
 CNTY.                        :  COUNTY
 LOC .                        :  LOCATION
 LMF .             Drill Floor:  LOG MEASURED FROM
 TVDS.m                  43.60:  TVDSS CORRECTN
 LATI.deg                40.02:  LATITUDE
 LONG.deg                51.45:  LONGITUDE
 WHNS.m                  -7.04:  WELL HEAD N/S
 WHEW.m                  -0.67:  WELL HEAD E/W
 UTMX.m              538762.90:  UTM X
 UTMY.m             4431871.34:  UTM Y
 DFWL.m                   0.00:  DISTANCE FWL
 DFSL.m                   0.00:  DISTANCE FSL
 SDEP.m                4127.00:  START DEPTH
 TDD .m                5084.50:  TOTAL DEPTH (DRILLER)
 VSDR.deg               140.47:  VERT SEC DIRECT
 GVFD.g                   1.00:  GRAVITY FIELD
 MFLD.nT              50362.00:  MAGNETIC FIELD
 MDIP.deg                59.48:  MAGNETIC DIP
 MDEC.deg                 6.47:  MAGNETIC DECL
 GRDC.deg                 0.31:  GRID CORRECTION
 AZTC.deg                 6.16:  AZM TOTAL CORR
 EPD .m                   0.00:  ELEVATION
 EGL .m                   0.00:  GROUND ELEVATION
 WDMS.m                 151.80:  WD ELEV
 APD .m                  43.60:  DEPTH ABOVE PD
 DEP .m                4092.57:  DEPTH
 AGAP.m                  43.60:  AIR GAP
 VSEW.m                  -0.67:  VERT SEC E/W
 VSNS.m                  -7.04:  VERT SEC N/S
 EKB .m                  43.60:  KB ELEVATION
 EDF .m                  43.60:  DF ELEVATION
 TDL .m                 957.50:  TOTAL DEPTH (LOGGER)
 VSC .                       0:  VS TO CLOSURE
 MAGU.                 1851413:  MAGUTM CHECKSUM
~Parameter Information Block
#MNEM.UNIT       Value        Description
#---------     -----------    ---------------------------
 AV  .mps                 1.50:  Ann Velocity 
 AVMX.mps                 2.00:  Max Ann Veloc 
 AZIF.deg               184.66:  Azm, Final 
 BHAT.        Rotary Steerable:  BHA Type 
 BREV.rev               300.00:  Rev Bit Total 
 BROT.°/30m              -0.50:  Build Rotating 
 BS  .in                  8.50:  Bit Size 
 BSZ .in                  8.50:  Bit Size 
 BTPL.psig              370.00:  Bit Press Loss 
 CABU.                      No:  Customer Abuse 
 CGEO.      Behruz Shahbaliyev:  Customer Geo 
 COMM.                     ÄÆy:  Run Comments 1 
 TCS .hr                140.08:  Time Ciculation Ended 
 CV  .mps                 3.00:  Crit Velocity 
 CVMX.mps                 3.20:  Max Crit Veloc 
 DD1 .            Musa Ahmadov:  Direct Drillr 1 
 DD2 .           Hamid Ahmadov:  Direct Drillr 2 
 DDSV.               Geo-Pilot:  DD Service 
 DEFF.%                  98.40:  % Det Eff 
 DLRX.°/30m               3.40:  Dogleg Rot Max 
 DLSO.°/30m               1.45:  Dogleg Oriented 
 DLSX.°/30m               3.40:  Dogleg Str Max 
 DRET.      18.40.00 29-Aug-21:  Drill End Time 
 DRST.      21.00.00 20-Aug-21:  Drill Start Tim 
 DTIM.hr                 69.47:  Time Drilling 
 EDEP.m                5084.50:  End Depth 
 ENG1.      Artemiy Matviyanov:  Engineer 1 
 ENG2.         Almaz Almadatov:  Engineer 2 
 ETIM.      18.40.00 29-Aug-21:  End Time 
 FLOI.gpm               500.00:  Flow In 
 FLON.gpm               400.00:  Flow In Min 
 FLOS.cptm                0.00:  Fluid Loss 
 FLOX.gpm               500.00:  Flow In Max 
 DFT .        Mineral Oil Base:  Mud Type 
 HFLO.                      No:  High Flow 
 HPRE.                      No:  High Pressure 
 HTEM.                      No:  High Temp 
 HYDO.m                   1.80:  Hydro Offset 
 IFIN.deg                25.62:  Inc, Final 
 IMAX.deg                48.69:  Inc Max 
 IMIN.deg                24.01:  Inc Min 
 IMND.m                4962.57:  Inc Min Depth 
 IMXD.m                4119.01:  Inc Max Depth 
 JARR.                      No:  Jarring 
 LETM.      18.40.00 29-Aug-21:  Log End Time 
 LOST.hr                     0:  Lost Rig Time 
 LSTM.      21.00.00 20-Aug-21:  Log Start Time 
 MDCL.ppm             41500.00:  Mud Chlorides 
 MDES.     Inversion Oil/Synthetic:  Mud Desc 
 DFD .sg                  1.56:  Mud Density 
 MDMN.sg                  1.56:  Dens Mud Min 
 MDMX.sg                  1.56:  Dens Mud Max 
 MOIL.                      70:  Run Mud Oil % 
 MOWR.                   70:30:  Run Mud OWR 
 MSND.                     0.2:  Run Mud Sand % 
 MSOL.                    23.3:  Run Mud Solids% 
 DFV .spqt               78.00:  Mud Viscosity 
 MWOD.in                  6.75:  MWD Tool OD 
 MWSI.                      No:  Serv Intrp, MWD 
 OTIM.hr                218.30:  Time Operating 
 PCON.           Look Like New:  Pad Condition 
 PMAX.psia            11015.30:  Press Op, Max 
 PV  .cP                 38.00:  Mud PV 
 RUN .                     300:  Run Number 
 ROPA.m/hr               15.00:  ROP Avg 
 ROPN.m/hr                9.00:  ROP Min 
 ROPX.m/hr               17.00:  ROP Max 
 RPMA.rpm               120.00:  RPM Surface Avg 
 RPMN.rpm                90.00:  RPM Surface Min 
 RPMX.rpm               140.00:  RPM Surface Max 
 RRUN.                     300:  Rig Run Number 
 RTIM.hr                 31.53:  Time Reaming 
 SAZI.deg               331.64:  Azm, Start 
 SDEP.m                4127.00:  Start Depth 
 SIDD.                      No:  Serv Intrp, DD 
 SINC.deg                48.43:  Inc, Start 
 SPPA.psig             5830.00:  SPP Avg 
 SPPN.psig             5600.00:  SPP Min 
 SPPX.psig             5900.00:  SPP Max 
 STIM.      21.00.00 20-Aug-21:  Start Time 
 SVCS.                 DD, MWD:  Services 
 SVER.                    9.20:  Sperry Version 
 TDAT.m                 957.50:  Tot Depth Attmp 
 TDDF.                      No:  Trip for DD 
 TDLG.m                 957.50:  Tot Depth Loggd 
 TFF .                      No:  Trip for Fail 
 TQAA.f-kp               15.00:  Torque Abs Avg 
 TQAN.f-kp               12.00:  Torque Abs Min 
 TQAX.f-kp               19.00:  Torque Abs Max 
 TRRT.°/30m              -3.40:  Turn Rotating 
 MRT .                  EWR-M5:  Maximum Recorded Temperature 
 TTMX.degC              100.00:  Max Tool Temp 
 VS01.                90639251:  Virtual Str1 SN 
 VS02.                90634715:  Virtual Str2 SN 
 VS03.                90652479:  Virtual Str3 SN 
 VS04.                90642262:  Virtual Str4 SN 
 WBMN.klb                 0.00:  WOB Min 
 WITN.           Murad Guliyev:  Customer Rep 
 WITN.          Yashar Gaziyev:  Customer Rep 2 
 WOBA.klb                 9.00:  WOB Avg 
 WOBX.klb                12.00:  WOB Max 
 YP  .lhf2               30.00:  Yield Point 
~Curve Information Block
#MNEM.UNIT                 API CODE     Curve Description
#---------               -----------    ---------------------------
 TIME.HHMMSS            00 000 000 000:  GT Time & Date
 GTDEPTH.m              00 000 000 000:  GT Depth
 GTPQH.psia             00 000 000 000:  GT HR Quartz Pressure
 GTTQ.degC              00 000 000 000:  GT Quartz Temperature
 GTTN.NONE              00 000 000 000:  GT Test Number
 GTET.sec               00 000 000 000:  GT Elapsed Test Time
 GTTVD.m                00 000 000 000:  GT True Vertical Depth
#Other Information
#
#WARRANTY: Halliburton will use its best efforts to furnish customers with 
#accurate information and interpretations that are part of, and incident to, the services 
#provided.  However, Halliburton cannot and does not warrant the accuracy 
#or correctness of such information and interpretations.  Under no circumstances should any 
#such information or interpretation be relied upon as the sole basis for any drilling, 
#completion, production, or financial decision or any procedure involving any risk to the 
#safety of any drilling venture, drilling rig or its crew or any other third party.  The 
#Customer has full responsibility for all drilling, completion and production operation.  
#Halliburton makes no representations or warranties, either expressed or 
#implied, including, but not limited to, the implied warranties of merchantability or fitness 
#for a particular purpose, with respect to the services rendered.  In no event will 
#Halliburton be liable for failure to obtain any particular results or for 
#any damages, including, but not limited to, indirect, special or consequential damages, 
#resulting from the use of any information or interpretation provided by Halliburton.
#
~A           TIME           GTDEPTH  GTPQH  GTTQ  GTTN   GTET   GTTVD  
# ...
   13:58:30.000.27-Aug-2021 4859.00 5025.48 84.54 14.00 339.00 3211.42
   13:58:30.200.27-Aug-2021 4859.00 5025.48 84.54 14.00 339.20 3211.42
   13:58:30.400.27-Aug-2021 4859.00 5031.30 84.54 14.00 339.40 3211.42
   13:58:30.600.27-Aug-2021 4859.00 5033.58 84.54 14.00 339.60 3211.42
   13:58:30.800.27-Aug-2021 4859.00 5036.89 84.54 14.00 339.80 3211.42
   13:58:31.000.27-Aug-2021 4859.00 5038.80 84.54 14.00 340.00 3211.42
   13:58:31.200.27-Aug-2021 4859.00 5038.80 84.54 14.00 340.20 3211.42
   13:58:31.400.27-Aug-2021 4859.00 5044.60 84.54 14.00 340.40 3211.42
   13:58:31.600.27-Aug-2021 4859.00 5046.77 84.54 14.00 340.60 3211.42
   13:58:31.800.27-Aug-2021 4859.00 5049.47 84.54 14.00 340.80 3211.42
   13:58:32.000.27-Aug-2021 4859.00 5052.06 84.54 14.00 341.00 3211.42
   13:58:32.200.27-Aug-2021 4859.00 5052.06 84.54 14.00 341.20 3211.42
   13:58:32.400.27-Aug-2021 4859.00 5057.58 84.54 14.00 341.40 3211.42
   13:58:32.600.27-Aug-2021 4859.00 5060.16 84.54 14.00 341.60 3211.42
   13:58:32.800.27-Aug-2021 4859.00 5062.96 84.54 14.00 341.80 3211.42
   13:58:33.000.27-Aug-2021 4859.00 5065.69 84.54 14.00 342.00 3211.42
   13:58:33.200.27-Aug-2021 4859.00 5065.69 84.54 14.00 342.20 3211.42
   13:58:33.400.27-Aug-2021 4859.00 5070.97 84.54 14.00 342.40 3211.42
   13:58:33.600.27-Aug-2021 4859.00 5073.56 84.54 14.00 342.60 3211.42
   13:58:33.800.27-Aug-2021 4859.00 5076.15 84.54 14.00 342.80 3211.42
   13:58:34.000.27-Aug-2021 4859.00 5078.20 84.54 14.00 343.00 3211.42
   13:58:34.200.27-Aug-2021 4859.00 5078.20 84.54 14.00 343.20 3211.42
   13:58:34.400.27-Aug-2021 4859.00 5083.15 84.54 14.00 343.40 3211.42
   13:58:34.600.27-Aug-2021 4859.00 5084.62 84.54 14.00 343.60 3211.42
   13:58:34.800.27-Aug-2021 4859.00 5088.41 84.54 14.00 343.80 3211.42
   13:58:35.000.27-Aug-2021 4859.00 5088.05 84.54 14.00 344.00 3211.42
   13:58:35.200.27-Aug-2021 4859.00 5088.05 84.54 14.00 344.20 3211.42
   13:58:35.400.27-Aug-2021 4859.00 5093.91 84.54 14.00 344.40 3211.42
   13:58:35.600.27-Aug-2021 4859.00 5095.81 84.54 14.00 344.60 3211.42
   13:58:35.800.27-Aug-2021 4859.00 5098.88 84.54 14.00 344.80 3211.42
   13:58:36.000.27-Aug-2021 4859.00 5101.16 84.54 14.00 345.00 3211.42
   13:58:36.200.27-Aug-2021 4859.00 5101.16 84.54 14.00 345.20 3211.42
   13:58:36.400.27-Aug-2021 4859.00 5106.08 84.54 14.00 345.40 3211.42
   13:58:36.600.27-Aug-2021 4859.00 5107.90 84.54 14.00 345.60 3211.42
   13:58:36.800.27-Aug-2021 4859.00 5110.09 84.54 14.00 345.80 3211.42
   13:58:37.000.27-Aug-2021 4859.00 5113.71 84.54 14.00 346.00 3211.42
   13:58:37.200.27-Aug-2021 4859.00 5113.71 84.54 14.00 346.20 3211.42
   13:58:37.400.27-Aug-2021 4859.00 5117.62 84.54 14.00 346.40 3211.42
   13:58:37.600.27-Aug-2021 4859.00 5119.70 84.54 14.00 346.60 3211.42
   13:58:37.800.27-Aug-2021 4859.00 5121.59 84.54 14.00 346.80 3211.42
   13:58:38.000.27-Aug-2021 4859.00 5124.23 84.54 14.00 347.00 3211.42
   13:58:38.200.27-Aug-2021 4859.00 5124.23 84.54 14.00 347.20 3211.42
   13:58:38.400.27-Aug-2021 4859.00 5128.11 84.54 14.00 347.40 3211.42
   13:58:38.600.27-Aug-2021 4859.00 5130.35 84.54 14.00 347.60 3211.42
   13:58:38.800.27-Aug-2021 4859.00 5132.48 84.54 14.00 347.80 3211.42
   13:58:39.000.27-Aug-2021 4859.00 5134.80 84.54 14.00 348.00 3211.42
   13:58:39.200.27-Aug-2021 4859.00 5134.80 84.54 14.00 348.20 3211.42
   13:58:39.400.27-Aug-2021 4859.00 5139.18 84.54 14.00 348.40 3211.42
   13:58:39.600.27-Aug-2021 4859.00 5141.41 84.54 14.00 348.60 3211.42
   13:58:39.800.27-Aug-2021 4859.00 5143.57 84.54 14.00 348.80 3211.42
   13:58:40.000.27-Aug-2021 4859.00 5145.16 84.54 14.00 349.00 3211.42
   13:58:40.200.27-Aug-2021 4859.00 5145.16 84.54 14.00 349.20 3211.42
   13:58:40.400.27-Aug-2021 4859.00 5148.95 84.54 14.00 349.40 3211.42
   13:58:40.600.27-Aug-2021 4859.00 5150.77 84.54 14.00 349.60 3211.42
   13:58:40.800.27-Aug-2021 4859.00 5153.38 84.54 14.00 349.80 3211.42
   13:58:41.000.27-Aug-2021 4859.00 5155.05 84.54 14.00 350.00 3211.42
   13:58:41.200.27-Aug-2021 4859.00 5155.05 84.54 14.00 350.20 3211.42
   13:58:41.400.27-Aug-2021 4859.00 5159.27 84.54 14.00 350.40 3211.42
   13:58:41.600.27-Aug-2021 4859.00 5160.89 84.54 14.00 350.60 3211.42
   13:58:41.800.27-Aug-2021 4859.00 5162.83 84.54 14.00 350.80 3211.42
   13:58:42.000.27-Aug-2021 4859.00 5164.68 84.54 14.00 351.00 3211.42
   13:58:42.200.27-Aug-2021 4859.00 5164.68 84.54 14.00 351.20 3211.42
   13:58:42.400.27-Aug-2021 4859.00 5168.74 84.54 14.00 351.40 3211.42
   13:58:42.600.27-Aug-2021 4859.00 5170.63 84.54 14.00 351.60 3211.42
   13:58:42.800.27-Aug-2021 4859.00 5172.65 84.54 14.00 351.80 3211.42
   13:58:43.000.27-Aug-2021 4859.00 5174.58 84.54 14.00 352.00 3211.42
   13:58:43.200.27-Aug-2021 4859.00 5174.58 84.54 14.00 352.20 3211.42
   13:58:43.400.27-Aug-2021 4859.00 5178.15 84.54 14.00 352.40 3211.42
   13:58:43.600.27-Aug-2021 4859.00 5180.01 84.54 14.00 352.60 3211.42
   13:58:43.800.27-Aug-2021 4859.00 5182.24 84.54 14.00 352.80 3211.42
   13:58:44.000.27-Aug-2021 4859.00 5183.36 84.54 14.00 353.00 3211.42
   13:58:44.200.27-Aug-2021 4859.00 5183.36 84.54 14.00 353.20 3211.42
   13:58:44.400.27-Aug-2021 4859.00 5187.35 84.54 14.00 353.40 3211.42
   13:58:44.600.27-Aug-2021 4859.00 5189.37 84.54 14.00 353.60 3211.42
   13:58:44.800.27-Aug-2021 4859.00 5190.70 84.54 14.00 353.80 3211.42
   13:58:45.000.27-Aug-2021 4859.00 5193.29 84.54 14.00 354.00 3211.42
   13:58:45.200.27-Aug-2021 4859.00 5193.29 84.54 14.00 354.20 3211.42
   13:58:45.400.27-Aug-2021 4859.00 5196.44 84.54 14.00 354.40 3211.42
   13:58:45.600.27-Aug-2021 4859.00 5198.44 84.54 14.00 354.60 3211.42
   13:58:45.800.27-Aug-2021 4859.00 5199.60 84.54 14.00 354.80 3211.42
   13:58:46.000.27-Aug-2021 4859.00 5201.63 84.54 14.00 355.00 3211.42
   13:58:46.200.27-Aug-2021 4859.00 5201.63 84.54 14.00 355.20 3211.42
   13:58:46.400.27-Aug-2021 4859.00 5204.91 84.54 14.00 355.40 3211.42
   13:58:46.600.27-Aug-2021 4859.00 5206.08 84.54 14.00 355.60 3211.42
   13:58:46.800.27-Aug-2021 4859.00 5207.87 84.54 14.00 355.80 3211.42
   13:58:47.000.27-Aug-2021 4859.00 5209.62 84.54 14.00 356.00 3211.42
   13:58:47.200.27-Aug-2021 4859.00 5209.62 84.54 14.00 356.20 3211.42
   13:58:47.400.27-Aug-2021 4859.00 5213.04 84.54 14.00 356.40 3211.42
   13:58:47.600.27-Aug-2021 4859.00 5214.97 84.54 14.00 356.60 3211.42
   13:58:47.800.27-Aug-2021 4859.00 5216.73 84.54 14.00 356.80 3211.42
   13:58:48.000.27-Aug-2021 4859.00 5218.12 84.54 14.00 357.00 3211.42
   13:58:48.200.27-Aug-2021 4859.00 5218.12 84.54 14.00 357.20 3211.42
   13:58:48.400.27-Aug-2021 4859.00 5221.65 84.54 14.00 357.40 3211.42
   13:58:48.600.27-Aug-2021 4859.00 5223.38 84.54 14.00 357.60 3211.42
   13:58:48.800.27-Aug-2021 4859.00 5225.04 84.54 14.00 357.80 3211.42
   13:58:49.000.27-Aug-2021 4859.00 5226.61 84.54 14.00 358.00 3211.42
   13:58:49.200.27-Aug-2021 4859.00 5226.61 84.54 14.00 358.20 3211.42
   13:58:49.400.27-Aug-2021 4859.00 5229.88 84.54 14.00 358.40 3211.42
   13:58:49.600.27-Aug-2021 4859.00 5231.46 84.54 14.00 358.60 3211.42
   13:58:49.800.27-Aug-2021 4859.00 5233.08 84.54 14.00 358.80 3211.42
   13:58:50.000.27-Aug-2021 4859.00 5234.59 84.54 14.00 359.00 3211.42
   13:58:50.200.27-Aug-2021 4859.00 5234.59 84.54 14.00 359.20 3211.42
   13:58:50.400.27-Aug-2021 4859.00 5236.78 84.54 14.00 359.40 3211.42
   13:58:50.600.27-Aug-2021 4859.00 5238.78 84.53 14.00 359.60 3211.42
   13:58:50.800.27-Aug-2021 4859.00 5239.69 84.53 14.00 359.80 3211.42
   13:58:51.000.27-Aug-2021 4859.00 5241.34 84.53 14.00 360.00 3211.42
   13:58:51.200.27-Aug-2021 4859.00 5241.34 84.53 14.00 360.20 3211.42
   13:58:51.400.27-Aug-2021 4859.00 5244.37 84.53 14.00 360.40 3211.42
   13:58:51.600.27-Aug-2021 4859.00 5245.86 84.53 14.00 360.60 3211.42
   13:58:51.800.27-Aug-2021 4859.00 5247.33 84.53 14.00 360.80 3211.42
   13:58:52.000.27-Aug-2021 4859.00 5248.87 84.53 14.00 361.00 3211.42
   13:58:52.200.27-Aug-2021 4859.00 5248.87 84.53 14.00 361.20 3211.42
   13:58:52.400.27-Aug-2021 4859.00 5251.98 84.53 14.00 361.40 3211.42
