~Version Information
 VERS.                  2.0:   CWLS log ASCII Standard -VERSION 2.0
 WRAP.                   NO:   One line per depth step
~Well Information Block
#MNEM.UNIT     VALUE/NAME     DESCRIPTION
#---------     -----------    ---------------------------
 STRT.S             10:06:49 27-Aug-21: START TIME 10:06:49 27-Aug-21
 STOP.S             10:13:57 27-Aug-21: STOP TIME  10:13:57 27-Aug-21
 STEP.S                   0.00: STEP TIME
 NULL.                 -999.25: NULL VALUE
 DFWT.                        :  DIST FWL TEXT
 DFST.                        :  DIST FSL TEXT
 DMF .             Drill Floor:  DRILL MEAS FROM
 STIM.      20.00.00 17-Aug-21:  START TIME
 DATE.      19.00.00 29-Aug-21:  END TIME
 SPUD.               15-Aug-21:  SPUD DATE
 NREF.                    Grid:  NORTH REFERENCE
 HPTY.       Minimum Curvature:  HOLE POS TYPE
 DMOD.             Drill Model:  DRILL MOD DESC
 SVYD.                  Survey:  SURVEY DESC
 ILTD.               Lithology:  INTERP LTH DESC
 FTOP.          Formation Tops:  FORM TOPS DESC
 RIG .              East Azeri:  RIG NAME
 PDAT.          Mean Sea Level:  PERMANENT DATUM
 FLD .                     ACG:  FIELD NAME
 SON .        AZ-XX-0907180857:  JOB NUMBER
 CTRY.              Azerbaijan:  COUNTRY NAME
 WELL.                    D23x:  WELL NAME
 SRVC.     Turan Drilling and Engineering:  CONTRACTOR
 COMP.     BP Exploration (Caspian Sea) Ltd.:  COMPANY
 UWI .            /AZE00000214:  UNIQUE WELL IDENTIFIER
 API .            /AZE00000214:  API NUMBER
 MDS .        Operator Entered:  MAG DATA SOURCE
 BASE.              Azerbaijan:  LOGGING EQUIPMENT BASE LOCATION
 REGN.                   EESSA:  REGION
 PROV.                    Baku:  PROVINCE
 STAT.                    Baku:  STATE NAME
 MWDS.                    Baku:  MWD SHOP
 DOE .                     N/A:  DOE NUMBER
 DCON.         Sperry Drilling:  DIRECTNL CONTR
 UNIT.                     N/A:  LOGGING EQUIPMENT ID
 WTYP.                Deviated:  WELL TYPE
 CNTY.                        :  COUNTY
 LOC .                        :  LOCATION
 LMF .             Drill Floor:  LOG MEASURED FROM
 TVDS.m                  43.60:  TVDSS CORRECTN
 LATI.deg                40.02:  LATITUDE
 LONG.deg                51.45:  LONGITUDE
 WHNS.m                  -7.04:  WELL HEAD N/S
 WHEW.m                  -0.67:  WELL HEAD E/W
 UTMX.m              538762.90:  UTM X
 UTMY.m             4431871.34:  UTM Y
 DFWL.m                   0.00:  DISTANCE FWL
 DFSL.m                   0.00:  DISTANCE FSL
 SDEP.m                4127.00:  START DEPTH
 TDD .m                5084.50:  TOTAL DEPTH (DRILLER)
 VSDR.deg               140.47:  VERT SEC DIRECT
 GVFD.g                   1.00:  GRAVITY FIELD
 MFLD.nT              50362.00:  MAGNETIC FIELD
 MDIP.deg                59.48:  MAGNETIC DIP
 MDEC.deg                 6.47:  MAGNETIC DECL
 GRDC.deg                 0.31:  GRID CORRECTION
 AZTC.deg                 6.16:  AZM TOTAL CORR
 EPD .m                   0.00:  ELEVATION
 EGL .m                   0.00:  GROUND ELEVATION
 WDMS.m                 151.80:  WD ELEV
 APD .m                  43.60:  DEPTH ABOVE PD
 DEP .m                4092.57:  DEPTH
 AGAP.m                  43.60:  AIR GAP
 VSEW.m                  -0.67:  VERT SEC E/W
 VSNS.m                  -7.04:  VERT SEC N/S
 EKB .m                  43.60:  KB ELEVATION
 EDF .m                  43.60:  DF ELEVATION
 TDL .m                 957.50:  TOTAL DEPTH (LOGGER)
 VSC .                       0:  VS TO CLOSURE
 MAGU.                 1851413:  MAGUTM CHECKSUM
~Parameter Information Block
#MNEM.UNIT       Value        Description
#---------     -----------    ---------------------------
 AV  .mps                 1.50:  Ann Velocity 
 AVMX.mps                 2.00:  Max Ann Veloc 
 AZIF.deg               184.66:  Azm, Final 
 BHAT.        Rotary Steerable:  BHA Type 
 BREV.rev               300.00:  Rev Bit Total 
 BROT.°/30m              -0.50:  Build Rotating 
 BS  .in                  8.50:  Bit Size 
 BSZ .in                  8.50:  Bit Size 
 BTPL.psig              370.00:  Bit Press Loss 
 CABU.                      No:  Customer Abuse 
 CGEO.      Behruz Shahbaliyev:  Customer Geo 
 COMM.                     Ììg:  Run Comments 1 
 TCS .hr                140.08:  Time Ciculation Ended 
 CV  .mps                 3.00:  Crit Velocity 
 CVMX.mps                 3.20:  Max Crit Veloc 
 DD1 .            Musa Ahmadov:  Direct Drillr 1 
 DD2 .           Hamid Ahmadov:  Direct Drillr 2 
 DDSV.               Geo-Pilot:  DD Service 
 DEFF.%                  98.40:  % Det Eff 
 DLRX.°/30m               3.40:  Dogleg Rot Max 
 DLSO.°/30m               1.45:  Dogleg Oriented 
 DLSX.°/30m               3.40:  Dogleg Str Max 
 DRET.      18.40.00 29-Aug-21:  Drill End Time 
 DRST.      21.00.00 20-Aug-21:  Drill Start Tim 
 DTIM.hr                 69.47:  Time Drilling 
 EDEP.m                5084.50:  End Depth 
 ENG1.      Artemiy Matviyanov:  Engineer 1 
 ENG2.         Almaz Almadatov:  Engineer 2 
 ETIM.      18.40.00 29-Aug-21:  End Time 
 FLOI.gpm               500.00:  Flow In 
 FLON.gpm               400.00:  Flow In Min 
 FLOS.cptm                0.00:  Fluid Loss 
 FLOX.gpm               500.00:  Flow In Max 
 DFT .        Mineral Oil Base:  Mud Type 
 HFLO.                      No:  High Flow 
 HPRE.                      No:  High Pressure 
 HTEM.                      No:  High Temp 
 HYDO.m                   1.80:  Hydro Offset 
 IFIN.deg                25.62:  Inc, Final 
 IMAX.deg                48.69:  Inc Max 
 IMIN.deg                24.01:  Inc Min 
 IMND.m                4962.57:  Inc Min Depth 
 IMXD.m                4119.01:  Inc Max Depth 
 JARR.                      No:  Jarring 
 LETM.      18.40.00 29-Aug-21:  Log End Time 
 LOST.hr                     0:  Lost Rig Time 
 LSTM.      21.00.00 20-Aug-21:  Log Start Time 
 MDCL.ppm             41500.00:  Mud Chlorides 
 MDES.     Inversion Oil/Synthetic:  Mud Desc 
 DFD .sg                  1.56:  Mud Density 
 MDMN.sg                  1.56:  Dens Mud Min 
 MDMX.sg                  1.56:  Dens Mud Max 
 MOIL.                      70:  Run Mud Oil % 
 MOWR.                   70:30:  Run Mud OWR 
 MSND.                     0.2:  Run Mud Sand % 
 MSOL.                    23.3:  Run Mud Solids% 
 DFV .spqt               78.00:  Mud Viscosity 
 MWOD.in                  6.75:  MWD Tool OD 
 MWSI.                      No:  Serv Intrp, MWD 
 OTIM.hr                218.30:  Time Operating 
 PCON.           Look Like New:  Pad Condition 
 PMAX.psia            11015.30:  Press Op, Max 
 PV  .cP                 38.00:  Mud PV 
 RUN .                     300:  Run Number 
 ROPA.m/hr               15.00:  ROP Avg 
 ROPN.m/hr                9.00:  ROP Min 
 ROPX.m/hr               17.00:  ROP Max 
 RPMA.rpm               120.00:  RPM Surface Avg 
 RPMN.rpm                90.00:  RPM Surface Min 
 RPMX.rpm               140.00:  RPM Surface Max 
 RRUN.                     300:  Rig Run Number 
 RTIM.hr                 31.53:  Time Reaming 
 SAZI.deg               331.64:  Azm, Start 
 SDEP.m                4127.00:  Start Depth 
 SIDD.                      No:  Serv Intrp, DD 
 SINC.deg                48.43:  Inc, Start 
 SPPA.psig             5830.00:  SPP Avg 
 SPPN.psig             5600.00:  SPP Min 
 SPPX.psig             5900.00:  SPP Max 
 STIM.      21.00.00 20-Aug-21:  Start Time 
 SVCS.                 DD, MWD:  Services 
 SVER.                    9.20:  Sperry Version 
 TDAT.m                 957.50:  Tot Depth Attmp 
 TDDF.                      No:  Trip for DD 
 TDLG.m                 957.50:  Tot Depth Loggd 
 TFF .                      No:  Trip for Fail 
 TQAA.f-kp               15.00:  Torque Abs Avg 
 TQAN.f-kp               12.00:  Torque Abs Min 
 TQAX.f-kp               19.00:  Torque Abs Max 
 TRRT.°/30m              -3.40:  Turn Rotating 
 MRT .                  EWR-M5:  Maximum Recorded Temperature 
 TTMX.degC              100.00:  Max Tool Temp 
 VS01.                90639251:  Virtual Str1 SN 
 VS02.                90634715:  Virtual Str2 SN 
 VS03.                90652479:  Virtual Str3 SN 
 VS04.                90642262:  Virtual Str4 SN 
 WBMN.klb                 0.00:  WOB Min 
 WITN.           Murad Guliyev:  Customer Rep 
 WITN.          Yashar Gaziyev:  Customer Rep 2 
 WOBA.klb                 9.00:  WOB Avg 
 WOBX.klb                12.00:  WOB Max 
 YP  .lhf2               30.00:  Yield Point 
~Curve Information Block
#MNEM.UNIT                 API CODE     Curve Description
#---------               -----------    ---------------------------
 TIME.HHMMSS            00 000 000 000:  GT Time & Date
 GTDEPTH.m              00 000 000 000:  GT Depth
 GTPQH.psia             00 000 000 000:  GT HR Quartz Pressure
 GTTQ.degC              00 000 000 000:  GT Quartz Temperature
 GTTN.NONE              00 000 000 000:  GT Test Number
 GTET.sec               00 000 000 000:  GT Elapsed Test Time
 GTTVD.m                00 000 000 000:  GT True Vertical Depth
#Other Information
#
#WARRANTY: Halliburton will use its best efforts to furnish customers with 
#accurate information and interpretations that are part of, and incident to, the services 
#provided.  However, Halliburton cannot and does not warrant the accuracy 
#or correctness of such information and interpretations.  Under no circumstances should any 
#such information or interpretation be relied upon as the sole basis for any drilling, 
#completion, production, or financial decision or any procedure involving any risk to the 
#safety of any drilling venture, drilling rig or its crew or any other third party.  The 
#Customer has full responsibility for all drilling, completion and production operation.  
#Halliburton makes no representations or warranties, either expressed or 
#implied, including, but not limited to, the implied warranties of merchantability or fitness 
#for a particular purpose, with respect to the services rendered.  In no event will 
#Halliburton be liable for failure to obtain any particular results or for 
#any damages, including, but not limited to, indirect, special or consequential damages, 
#resulting from the use of any information or interpretation provided by Halliburton.
#
~A           TIME           GTDEPTH  GTPQH  GTTQ  GTTN  GTET   GTTVD  
# ...
   10:11:24.805.27-Aug-2021 4958.50 7896.20 86.04 8.00 275.67 3301.91
   10:11:25.004.27-Aug-2021 4958.50 7896.20 86.04 8.00 275.87 3301.91
   10:11:25.204.27-Aug-2021 4958.50 7890.37 86.04 8.00 276.07 3301.91
   10:11:25.404.27-Aug-2021 4958.50 7888.54 86.04 8.00 276.27 3301.91
   10:11:25.604.27-Aug-2021 4958.50 7888.46 86.04 8.00 276.47 3301.91
   10:11:25.803.27-Aug-2021 4958.50 7889.32 86.04 8.00 276.67 3301.91
   10:11:26.003.27-Aug-2021 4958.50 7889.32 86.04 8.00 276.87 3301.91
   10:11:26.203.27-Aug-2021 4958.50 7889.56 86.04 8.00 277.07 3301.91
   10:11:26.403.27-Aug-2021 4958.50 7888.92 86.04 8.00 277.27 3301.91
   10:11:26.602.27-Aug-2021 4958.50 7889.30 86.04 8.00 277.47 3301.91
   10:11:26.802.27-Aug-2021 4958.50 7890.02 86.04 8.00 277.67 3301.91
   10:11:27.002.27-Aug-2021 4958.50 7890.02 86.04 8.00 277.87 3301.91
   10:11:27.202.27-Aug-2021 4958.50 7890.68 86.04 8.00 278.07 3301.91
   10:11:27.401.27-Aug-2021 4958.50 7890.40 86.04 8.00 278.27 3301.91
   10:11:27.601.27-Aug-2021 4958.50 7889.92 86.04 8.00 278.47 3301.91
   10:11:27.801.27-Aug-2021 4958.50 7889.59 86.04 8.00 278.67 3301.91
   10:11:28.001.27-Aug-2021 4958.50 7889.59 86.04 8.00 278.87 3301.91
   10:11:28.200.27-Aug-2021 4958.50 7889.65 86.04 8.00 279.07 3301.91
   10:11:28.400.27-Aug-2021 4958.50 7890.86 86.04 8.00 279.27 3301.91
   10:11:28.600.27-Aug-2021 4958.50 7889.64 86.04 8.00 279.47 3301.91
   10:11:28.800.27-Aug-2021 4958.50 7888.98 86.04 8.00 279.67 3301.91
   10:11:29.000.27-Aug-2021 4958.50 7888.98 86.04 8.00 279.87 3301.91
   10:11:29.199.27-Aug-2021 4958.50 7888.93 86.04 8.00 280.07 3301.91
   10:11:29.399.27-Aug-2021 4958.50 7888.99 86.04 8.00 280.27 3301.91
   10:11:29.599.27-Aug-2021 4958.50 7888.72 86.04 8.00 280.47 3301.91
   10:11:29.799.27-Aug-2021 4958.50 7889.12 86.04 8.00 280.66 3301.91
   10:11:29.998.27-Aug-2021 4958.50 7889.12 86.04 8.00 280.86 3301.91
   10:11:30.198.27-Aug-2021 4958.50 7890.24 86.04 8.00 281.06 3301.91
   10:11:30.398.27-Aug-2021 4958.50 7890.35 86.04 8.00 281.26 3301.91
   10:11:30.598.27-Aug-2021 4958.50 7890.32 86.04 8.00 281.46 3301.91
   10:11:30.797.27-Aug-2021 4958.50 7890.14 86.04 8.00 281.66 3301.91
   10:11:30.997.27-Aug-2021 4958.50 7890.14 86.04 8.00 281.86 3301.91
   10:11:31.197.27-Aug-2021 4958.50 7889.51 86.04 8.00 282.06 3301.91
   10:11:31.397.27-Aug-2021 4958.50 7892.75 86.04 8.00 282.26 3301.91
   10:11:31.596.27-Aug-2021 4958.50 7889.46 86.04 8.00 282.46 3301.91
   10:11:31.796.27-Aug-2021 4958.50 7890.76 86.04 8.00 282.66 3301.91
   10:11:31.996.27-Aug-2021 4958.50 7890.76 86.04 8.00 282.86 3301.91
   10:11:32.196.27-Aug-2021 4958.50 7889.05 86.04 8.00 283.06 3301.91
   10:11:32.395.27-Aug-2021 4958.50 7888.98 86.04 8.00 283.26 3301.91
   10:11:32.595.27-Aug-2021 4958.50 7893.65 86.04 8.00 283.46 3301.91
   10:11:32.795.27-Aug-2021 4958.50 7889.83 86.04 8.00 283.66 3301.91
   10:11:32.995.27-Aug-2021 4958.50 7889.83 86.04 8.00 283.86 3301.91
   10:11:33.194.27-Aug-2021 4958.50 7889.18 86.04 8.00 284.06 3301.91
   10:11:33.394.27-Aug-2021 4958.50 7889.40 86.04 8.00 284.26 3301.91
   10:11:33.594.27-Aug-2021 4958.50 7889.87 86.04 8.00 284.46 3301.91
   10:11:33.794.27-Aug-2021 4958.50 7893.07 86.04 8.00 284.66 3301.91
   10:11:33.994.27-Aug-2021 4958.50 7893.07 86.04 8.00 284.86 3301.91
   10:11:34.193.27-Aug-2021 4958.50 7890.87 86.04 8.00 285.06 3301.91
   10:11:34.393.27-Aug-2021 4958.50 7889.40 86.04 8.00 285.26 3301.91
   10:11:34.593.27-Aug-2021 4958.50 7892.84 86.04 8.00 285.46 3301.91
   10:11:34.793.27-Aug-2021 4958.50 7889.72 86.04 8.00 285.66 3301.91
   10:11:34.992.27-Aug-2021 4958.50 7889.72 86.04 8.00 285.86 3301.91
   10:11:35.192.27-Aug-2021 4958.50 7889.66 86.04 8.00 286.06 3301.91
   10:11:35.392.27-Aug-2021 4958.50 7888.31 86.04 8.00 286.26 3301.91
   10:11:35.592.27-Aug-2021 4958.50 7888.68 86.04 8.00 286.46 3301.91
   10:11:35.791.27-Aug-2021 4958.50 7888.96 86.04 8.00 286.66 3301.91
   10:11:35.991.27-Aug-2021 4958.50 7888.96 86.04 8.00 286.86 3301.91
   10:11:36.191.27-Aug-2021 4958.50 7889.25 86.04 8.00 287.06 3301.91
   10:11:36.391.27-Aug-2021 4958.50 7889.61 86.04 8.00 287.26 3301.91
   10:11:36.590.27-Aug-2021 4958.50 7889.73 86.04 8.00 287.46 3301.91
   10:11:36.790.27-Aug-2021 4958.50 7890.24 86.04 8.00 287.66 3301.91
   10:11:36.990.27-Aug-2021 4958.50 7890.24 86.04 8.00 287.86 3301.91
   10:11:37.190.27-Aug-2021 4958.50 7890.41 86.04 8.00 288.06 3301.91
   10:11:37.389.27-Aug-2021 4958.50 7890.25 86.04 8.00 288.26 3301.91
   10:11:37.589.27-Aug-2021 4958.50 7889.83 86.04 8.00 288.46 3301.91
   10:11:37.789.27-Aug-2021 4958.50 7889.56 86.04 8.00 288.66 3301.91
   10:11:37.989.27-Aug-2021 4958.50 7889.56 86.04 8.00 288.86 3301.91
   10:11:38.189.27-Aug-2021 4958.50 7890.77 86.04 8.00 289.05 3301.91
   10:11:38.388.27-Aug-2021 4958.50 7889.70 86.04 8.00 289.25 3301.91
   10:11:38.588.27-Aug-2021 4958.50 7889.04 86.04 8.00 289.45 3301.91
   10:11:38.788.27-Aug-2021 4958.50 7888.80 86.04 8.00 289.65 3301.91
   10:11:38.988.27-Aug-2021 4958.50 7888.80 86.04 8.00 289.85 3301.91
   10:11:39.187.27-Aug-2021 4958.50 7888.86 86.04 8.00 290.05 3301.91
   10:11:39.387.27-Aug-2021 4958.50 7888.85 86.04 8.00 290.25 3301.91
   10:11:39.587.27-Aug-2021 4958.50 7889.16 86.04 8.00 290.45 3301.91
   10:11:39.787.27-Aug-2021 4958.50 7889.17 86.04 8.00 290.65 3301.91
   10:11:39.986.27-Aug-2021 4958.50 7889.17 86.04 8.00 290.85 3301.91
   10:11:40.186.27-Aug-2021 4958.50 7890.33 86.04 8.00 291.05 3301.91
   10:11:40.386.27-Aug-2021 4958.50 7890.25 86.04 8.00 291.25 3301.91
   10:11:40.586.27-Aug-2021 4958.50 7890.11 86.04 8.00 291.45 3301.91
   10:11:40.785.27-Aug-2021 4958.50 7889.83 86.04 8.00 291.65 3301.91
   10:11:40.985.27-Aug-2021 4958.50 7889.83 86.04 8.00 291.85 3301.91
   10:11:41.185.27-Aug-2021 4958.50 7889.31 86.04 8.00 292.05 3301.91
   10:11:41.385.27-Aug-2021 4958.50 7892.76 86.04 8.00 292.25 3301.91
   10:11:41.584.27-Aug-2021 4958.50 7890.51 86.04 8.00 292.45 3301.91
   10:11:41.784.27-Aug-2021 4958.50 7889.29 86.04 8.00 292.65 3301.91
   10:11:41.984.27-Aug-2021 4958.50 7889.29 86.04 8.00 292.85 3301.91
   10:11:42.184.27-Aug-2021 4958.50 7888.49 86.04 8.00 293.05 3301.91
   10:11:42.384.27-Aug-2021 4958.50 7891.86 86.04 8.00 293.25 3301.91
   10:11:42.583.27-Aug-2021 4958.50 7888.87 86.04 8.00 293.45 3301.91
   10:11:42.783.27-Aug-2021 4958.50 7889.87 86.04 8.00 293.65 3301.91
   10:11:42.983.27-Aug-2021 4958.50 7889.87 86.04 8.00 293.85 3301.91
   10:11:43.183.27-Aug-2021 4958.50 7888.75 86.04 8.00 294.05 3301.91
   10:11:43.382.27-Aug-2021 4958.50 7889.21 86.04 8.00 294.25 3301.91
   10:11:43.582.27-Aug-2021 4958.50 7889.41 86.04 8.00 294.45 3301.91
   10:11:43.782.27-Aug-2021 4958.50 7893.75 86.04 8.00 294.65 3301.91
   10:11:43.982.27-Aug-2021 4958.50 7893.75 86.04 8.00 294.85 3301.91
   10:11:44.181.27-Aug-2021 4958.50 7889.32 86.04 8.00 295.05 3301.91
   10:11:44.381.27-Aug-2021 4958.50 7889.15 86.04 8.00 295.25 3301.91
   10:11:44.581.27-Aug-2021 4958.50 7889.14 86.04 8.00 295.45 3301.91
   10:11:44.781.27-Aug-2021 4958.50 7893.94 86.04 8.00 295.65 3301.91
   10:11:44.980.27-Aug-2021 4958.50 7893.94 86.04 8.00 295.85 3301.91
   10:11:45.180.27-Aug-2021 4958.50 7888.68 86.04 8.00 296.05 3301.91
   10:11:45.380.27-Aug-2021 4958.50 7887.83 86.04 8.00 296.25 3301.91
   10:11:45.580.27-Aug-2021 4958.50 7887.89 86.04 8.00 296.45 3301.91
   10:11:45.779.27-Aug-2021 4958.50 7888.87 86.04 8.00 296.65 3301.91
   10:11:45.979.27-Aug-2021 4958.50 7888.87 86.04 8.00 296.85 3301.91
   10:11:46.179.27-Aug-2021 4958.50 7889.16 86.04 8.00 297.05 3301.91
   10:11:46.379.27-Aug-2021 4958.50 7888.91 86.04 8.00 297.25 3301.91
   10:11:46.579.27-Aug-2021 4958.50 7889.00 86.04 8.00 297.44 3301.91
   10:11:46.778.27-Aug-2021 4958.50 7889.85 86.04 8.00 297.64 3301.91
   10:11:46.978.27-Aug-2021 4958.50 7889.85 86.04 8.00 297.84 3301.91
   10:11:47.178.27-Aug-2021 4958.50 7890.21 86.04 8.00 298.04 3301.91
   10:11:47.378.27-Aug-2021 4958.50 7889.98 86.04 8.00 298.24 3301.91
   10:11:47.577.27-Aug-2021 4958.50 7889.41 86.04 8.00 298.44 3301.91
