~Version Information
 VERS.                  2.0:   CWLS log ASCII Standard -VERSION 2.0
 WRAP.                   NO:   One line per depth step
~Well Information Block
#MNEM.UNIT     VALUE/NAME     DESCRIPTION
#---------     -----------    ---------------------------
 STRT.S             11:29:40 27-Aug-21: START TIME 11:29:40 27-Aug-21
 STOP.S             11:36:51 27-Aug-21: STOP TIME  11:36:51 27-Aug-21
 STEP.S                   0.00: STEP TIME
 NULL.                 -999.25: NULL VALUE
 DFWT.                        :  DIST FWL TEXT
 DFST.                        :  DIST FSL TEXT
 DMF .             Drill Floor:  DRILL MEAS FROM
 STIM.      20.00.00 17-Aug-21:  START TIME
 DATE.      19.00.00 29-Aug-21:  END TIME
 SPUD.               15-Aug-21:  SPUD DATE
 NREF.                    Grid:  NORTH REFERENCE
 HPTY.       Minimum Curvature:  HOLE POS TYPE
 DMOD.             Drill Model:  DRILL MOD DESC
 SVYD.                  Survey:  SURVEY DESC
 ILTD.               Lithology:  INTERP LTH DESC
 FTOP.          Formation Tops:  FORM TOPS DESC
 RIG .              East Azeri:  RIG NAME
 PDAT.          Mean Sea Level:  PERMANENT DATUM
 FLD .                     ACG:  FIELD NAME
 SON .        AZ-XX-0907180857:  JOB NUMBER
 CTRY.              Azerbaijan:  COUNTRY NAME
 WELL.                    D23x:  WELL NAME
 SRVC.     Turan Drilling and Engineering:  CONTRACTOR
 COMP.     BP Exploration (Caspian Sea) Ltd.:  COMPANY
 UWI .            /AZE00000214:  UNIQUE WELL IDENTIFIER
 API .            /AZE00000214:  API NUMBER
 MDS .        Operator Entered:  MAG DATA SOURCE
 BASE.              Azerbaijan:  LOGGING EQUIPMENT BASE LOCATION
 REGN.                   EESSA:  REGION
 PROV.                    Baku:  PROVINCE
 STAT.                    Baku:  STATE NAME
 MWDS.                    Baku:  MWD SHOP
 DOE .                     N/A:  DOE NUMBER
 DCON.         Sperry Drilling:  DIRECTNL CONTR
 UNIT.                     N/A:  LOGGING EQUIPMENT ID
 WTYP.                Deviated:  WELL TYPE
 CNTY.                        :  COUNTY
 LOC .                        :  LOCATION
 LMF .             Drill Floor:  LOG MEASURED FROM
 TVDS.m                  43.60:  TVDSS CORRECTN
 LATI.deg                40.02:  LATITUDE
 LONG.deg                51.45:  LONGITUDE
 WHNS.m                  -7.04:  WELL HEAD N/S
 WHEW.m                  -0.67:  WELL HEAD E/W
 UTMX.m              538762.90:  UTM X
 UTMY.m             4431871.34:  UTM Y
 DFWL.m                   0.00:  DISTANCE FWL
 DFSL.m                   0.00:  DISTANCE FSL
 SDEP.m                4127.00:  START DEPTH
 TDD .m                5084.50:  TOTAL DEPTH (DRILLER)
 VSDR.deg               140.47:  VERT SEC DIRECT
 GVFD.g                   1.00:  GRAVITY FIELD
 MFLD.nT              50362.00:  MAGNETIC FIELD
 MDIP.deg                59.48:  MAGNETIC DIP
 MDEC.deg                 6.47:  MAGNETIC DECL
 GRDC.deg                 0.31:  GRID CORRECTION
 AZTC.deg                 6.16:  AZM TOTAL CORR
 EPD .m                   0.00:  ELEVATION
 EGL .m                   0.00:  GROUND ELEVATION
 WDMS.m                 151.80:  WD ELEV
 APD .m                  43.60:  DEPTH ABOVE PD
 DEP .m                4092.57:  DEPTH
 AGAP.m                  43.60:  AIR GAP
 VSEW.m                  -0.67:  VERT SEC E/W
 VSNS.m                  -7.04:  VERT SEC N/S
 EKB .m                  43.60:  KB ELEVATION
 EDF .m                  43.60:  DF ELEVATION
 TDL .m                 957.50:  TOTAL DEPTH (LOGGER)
 VSC .                       0:  VS TO CLOSURE
 MAGU.                 1851413:  MAGUTM CHECKSUM
~Parameter Information Block
#MNEM.UNIT       Value        Description
#---------     -----------    ---------------------------
 AV  .mps                 1.50:  Ann Velocity 
 AVMX.mps                 2.00:  Max Ann Veloc 
 AZIF.deg               184.66:  Azm, Final 
 BHAT.        Rotary Steerable:  BHA Type 
 BREV.rev               300.00:  Rev Bit Total 
 BROT.°/30m              -0.50:  Build Rotating 
 BS  .in                  8.50:  Bit Size 
 BSZ .in                  8.50:  Bit Size 
 BTPL.psig              370.00:  Bit Press Loss 
 CABU.                      No:  Customer Abuse 
 CGEO.      Behruz Shahbaliyev:  Customer Geo 
 COMM.                     ,A[:  Run Comments 1 
 TCS .hr                140.08:  Time Ciculation Ended 
 CV  .mps                 3.00:  Crit Velocity 
 CVMX.mps                 3.20:  Max Crit Veloc 
 DD1 .            Musa Ahmadov:  Direct Drillr 1 
 DD2 .           Hamid Ahmadov:  Direct Drillr 2 
 DDSV.               Geo-Pilot:  DD Service 
 DEFF.%                  98.40:  % Det Eff 
 DLRX.°/30m               3.40:  Dogleg Rot Max 
 DLSO.°/30m               1.45:  Dogleg Oriented 
 DLSX.°/30m               3.40:  Dogleg Str Max 
 DRET.      18.40.00 29-Aug-21:  Drill End Time 
 DRST.      21.00.00 20-Aug-21:  Drill Start Tim 
 DTIM.hr                 69.47:  Time Drilling 
 EDEP.m                5084.50:  End Depth 
 ENG1.      Artemiy Matviyanov:  Engineer 1 
 ENG2.         Almaz Almadatov:  Engineer 2 
 ETIM.      18.40.00 29-Aug-21:  End Time 
 FLOI.gpm               500.00:  Flow In 
 FLON.gpm               400.00:  Flow In Min 
 FLOS.cptm                0.00:  Fluid Loss 
 FLOX.gpm               500.00:  Flow In Max 
 DFT .        Mineral Oil Base:  Mud Type 
 HFLO.                      No:  High Flow 
 HPRE.                      No:  High Pressure 
 HTEM.                      No:  High Temp 
 HYDO.m                   1.80:  Hydro Offset 
 IFIN.deg                25.62:  Inc, Final 
 IMAX.deg                48.69:  Inc Max 
 IMIN.deg                24.01:  Inc Min 
 IMND.m                4962.57:  Inc Min Depth 
 IMXD.m                4119.01:  Inc Max Depth 
 JARR.                      No:  Jarring 
 LETM.      18.40.00 29-Aug-21:  Log End Time 
 LOST.hr                     0:  Lost Rig Time 
 LSTM.      21.00.00 20-Aug-21:  Log Start Time 
 MDCL.ppm             41500.00:  Mud Chlorides 
 MDES.     Inversion Oil/Synthetic:  Mud Desc 
 DFD .sg                  1.56:  Mud Density 
 MDMN.sg                  1.56:  Dens Mud Min 
 MDMX.sg                  1.56:  Dens Mud Max 
 MOIL.                      70:  Run Mud Oil % 
 MOWR.                   70:30:  Run Mud OWR 
 MSND.                     0.2:  Run Mud Sand % 
 MSOL.                    23.3:  Run Mud Solids% 
 DFV .spqt               78.00:  Mud Viscosity 
 MWOD.in                  6.75:  MWD Tool OD 
 MWSI.                      No:  Serv Intrp, MWD 
 OTIM.hr                218.30:  Time Operating 
 PCON.           Look Like New:  Pad Condition 
 PMAX.psia            11015.30:  Press Op, Max 
 PV  .cP                 38.00:  Mud PV 
 RUN .                     300:  Run Number 
 ROPA.m/hr               15.00:  ROP Avg 
 ROPN.m/hr                9.00:  ROP Min 
 ROPX.m/hr               17.00:  ROP Max 
 RPMA.rpm               120.00:  RPM Surface Avg 
 RPMN.rpm                90.00:  RPM Surface Min 
 RPMX.rpm               140.00:  RPM Surface Max 
 RRUN.                     300:  Rig Run Number 
 RTIM.hr                 31.53:  Time Reaming 
 SAZI.deg               331.64:  Azm, Start 
 SDEP.m                4127.00:  Start Depth 
 SIDD.                      No:  Serv Intrp, DD 
 SINC.deg                48.43:  Inc, Start 
 SPPA.psig             5830.00:  SPP Avg 
 SPPN.psig             5600.00:  SPP Min 
 SPPX.psig             5900.00:  SPP Max 
 STIM.      21.00.00 20-Aug-21:  Start Time 
 SVCS.                 DD, MWD:  Services 
 SVER.                    9.20:  Sperry Version 
 TDAT.m                 957.50:  Tot Depth Attmp 
 TDDF.                      No:  Trip for DD 
 TDLG.m                 957.50:  Tot Depth Loggd 
 TFF .                      No:  Trip for Fail 
 TQAA.f-kp               15.00:  Torque Abs Avg 
 TQAN.f-kp               12.00:  Torque Abs Min 
 TQAX.f-kp               19.00:  Torque Abs Max 
 TRRT.°/30m              -3.40:  Turn Rotating 
 MRT .                  EWR-M5:  Maximum Recorded Temperature 
 TTMX.degC              100.00:  Max Tool Temp 
 VS01.                90639251:  Virtual Str1 SN 
 VS02.                90634715:  Virtual Str2 SN 
 VS03.                90652479:  Virtual Str3 SN 
 VS04.                90642262:  Virtual Str4 SN 
 WBMN.klb                 0.00:  WOB Min 
 WITN.           Murad Guliyev:  Customer Rep 
 WITN.          Yashar Gaziyev:  Customer Rep 2 
 WOBA.klb                 9.00:  WOB Avg 
 WOBX.klb                12.00:  WOB Max 
 YP  .lhf2               30.00:  Yield Point 
~Curve Information Block
#MNEM.UNIT                 API CODE     Curve Description
#---------               -----------    ---------------------------
 TIME.HHMMSS            00 000 000 000:  GT Time & Date
 GTDEPTH.m              00 000 000 000:  GT Depth
 GTPQH.psia             00 000 000 000:  GT HR Quartz Pressure
 GTTQ.degC              00 000 000 000:  GT Quartz Temperature
 GTTN.NONE              00 000 000 000:  GT Test Number
 GTET.sec               00 000 000 000:  GT Elapsed Test Time
 GTTVD.m                00 000 000 000:  GT True Vertical Depth
#Other Information
#
#WARRANTY: Halliburton will use its best efforts to furnish customers with 
#accurate information and interpretations that are part of, and incident to, the services 
#provided.  However, Halliburton cannot and does not warrant the accuracy 
#or correctness of such information and interpretations.  Under no circumstances should any 
#such information or interpretation be relied upon as the sole basis for any drilling, 
#completion, production, or financial decision or any procedure involving any risk to the 
#safety of any drilling venture, drilling rig or its crew or any other third party.  The 
#Customer has full responsibility for all drilling, completion and production operation.  
#Halliburton makes no representations or warranties, either expressed or 
#implied, including, but not limited to, the implied warranties of merchantability or fitness 
#for a particular purpose, with respect to the services rendered.  In no event will 
#Halliburton be liable for failure to obtain any particular results or for 
#any damages, including, but not limited to, indirect, special or consequential damages, 
#resulting from the use of any information or interpretation provided by Halliburton.
#
~A           TIME           GTDEPTH  GTPQH  GTTQ  GTTN   GTET   GTTVD  
# ...
   11:32:18.494.27-Aug-2021 4925.00 4811.70 85.55 10.00 158.26 3271.33
   11:32:18.694.27-Aug-2021 4925.00 4811.72 85.55 10.00 158.46 3271.33
   11:32:18.894.27-Aug-2021 4925.00 4811.73 85.55 10.00 158.66 3271.33
   11:32:19.094.27-Aug-2021 4925.00 4811.67 85.55 10.00 158.86 3271.33
   11:32:19.294.27-Aug-2021 4925.00 4811.66 85.55 10.00 159.06 3271.33
   11:32:19.494.27-Aug-2021 4925.00 4811.66 85.55 10.00 159.26 3271.33
   11:32:19.694.27-Aug-2021 4925.00 4811.65 85.55 10.00 159.46 3271.33
   11:32:19.894.27-Aug-2021 4925.00 4811.66 85.55 10.00 159.66 3271.33
   11:32:20.094.27-Aug-2021 4925.00 4811.65 85.55 10.00 159.86 3271.33
   11:32:20.295.27-Aug-2021 4925.00 4811.74 85.55 10.00 160.06 3271.33
   11:32:20.495.27-Aug-2021 4925.00 4811.74 85.55 10.00 160.26 3271.33
   11:32:20.695.27-Aug-2021 4925.00 4811.62 85.55 10.00 160.46 3271.33
   11:32:20.895.27-Aug-2021 4925.00 4785.09 85.55 10.00 160.66 3271.33
   11:32:21.095.27-Aug-2021 4925.00 4723.52 85.55 10.00 160.86 3271.33
   11:32:21.295.27-Aug-2021 4925.00 4715.77 85.55 10.00 161.06 3271.33
   11:32:21.495.27-Aug-2021 4925.00 4715.77 85.55 10.00 161.26 3271.33
   11:32:21.695.27-Aug-2021 4925.00 4715.79 85.55 10.00 161.46 3271.33
   11:32:21.895.27-Aug-2021 4925.00 4716.89 85.55 10.00 161.66 3271.33
   11:32:22.095.27-Aug-2021 4925.00 4715.81 85.55 10.00 161.86 3271.33
   11:32:22.295.27-Aug-2021 4925.00 4715.85 85.55 10.00 162.06 3271.33
   11:32:22.495.27-Aug-2021 4925.00 4715.85 85.55 10.00 162.26 3271.33
   11:32:22.695.27-Aug-2021 4925.00 4715.32 85.55 10.00 162.46 3271.33
   11:32:22.895.27-Aug-2021 4925.00 4715.82 85.55 10.00 162.66 3271.33
   11:32:23.096.27-Aug-2021 4925.00 4715.33 85.55 10.00 162.86 3271.33
   11:32:23.296.27-Aug-2021 4925.00 4715.32 85.55 10.00 163.06 3271.33
   11:32:23.496.27-Aug-2021 4925.00 4715.32 85.55 10.00 163.26 3271.33
   11:32:23.696.27-Aug-2021 4925.00 4715.53 85.55 10.00 163.46 3271.33
   11:32:23.896.27-Aug-2021 4925.00 4715.70 85.55 10.00 163.66 3271.33
   11:32:24.096.27-Aug-2021 4925.00 4715.39 85.55 10.00 163.86 3271.33
   11:32:24.296.27-Aug-2021 4925.00 4715.27 85.55 10.00 164.06 3271.33
   11:32:24.496.27-Aug-2021 4925.00 4715.27 85.55 10.00 164.26 3271.33
   11:32:24.696.27-Aug-2021 4925.00 4715.80 85.55 10.00 164.46 3271.33
   11:32:24.896.27-Aug-2021 4925.00 4715.60 85.55 10.00 164.66 3271.33
   11:32:25.096.27-Aug-2021 4925.00 4715.59 85.55 10.00 164.86 3271.33
   11:32:25.296.27-Aug-2021 4925.00 4715.14 85.55 10.00 165.06 3271.33
   11:32:25.496.27-Aug-2021 4925.00 4715.14 85.55 10.00 165.26 3271.33
   11:32:25.696.27-Aug-2021 4925.00 4715.04 85.55 10.00 165.46 3271.33
   11:32:25.897.27-Aug-2021 4925.00 4716.08 85.55 10.00 165.66 3271.33
   11:32:26.097.27-Aug-2021 4925.00 4715.49 85.55 10.00 165.86 3271.33
   11:32:26.297.27-Aug-2021 4925.00 4715.80 85.55 10.00 166.06 3271.33
   11:32:26.497.27-Aug-2021 4925.00 4715.80 85.55 10.00 166.26 3271.33
   11:32:26.697.27-Aug-2021 4925.00 4716.12 85.55 10.00 166.46 3271.33
   11:32:26.897.27-Aug-2021 4925.00 4715.67 85.55 10.00 166.66 3271.33
   11:32:27.097.27-Aug-2021 4925.00 4715.41 85.55 10.00 166.86 3271.33
   11:32:27.297.27-Aug-2021 4925.00 4716.30 85.55 10.00 167.06 3271.33
   11:32:27.497.27-Aug-2021 4925.00 4716.30 85.55 10.00 167.26 3271.33
   11:32:27.697.27-Aug-2021 4925.00 4716.30 85.55 10.00 167.46 3271.33
   11:32:27.897.27-Aug-2021 4925.00 4715.14 85.55 10.00 167.66 3271.33
   11:32:28.097.27-Aug-2021 4925.00 4715.98 85.55 10.00 167.86 3271.33
   11:32:28.297.27-Aug-2021 4925.00 4715.95 85.55 10.00 168.06 3271.33
   11:32:28.497.27-Aug-2021 4925.00 4715.95 85.55 10.00 168.26 3271.33
   11:32:28.698.27-Aug-2021 4925.00 4714.93 85.55 10.00 168.46 3271.33
   11:32:28.898.27-Aug-2021 4925.00 4715.56 85.55 10.00 168.66 3271.33
   11:32:29.098.27-Aug-2021 4925.00 4716.13 85.55 10.00 168.86 3271.33
   11:32:29.298.27-Aug-2021 4925.00 4715.65 85.55 10.00 169.06 3271.33
   11:32:29.498.27-Aug-2021 4925.00 4715.65 85.55 10.00 169.26 3271.33
   11:32:29.698.27-Aug-2021 4925.00 4716.88 85.55 10.00 169.46 3271.33
   11:32:29.898.27-Aug-2021 4925.00 4715.75 85.55 10.00 169.66 3271.33
   11:32:30.098.27-Aug-2021 4925.00 4715.34 85.55 10.00 169.86 3271.33
   11:32:30.298.27-Aug-2021 4925.00 4717.27 85.55 10.00 170.06 3271.33
   11:32:30.498.27-Aug-2021 4925.00 4717.27 85.55 10.00 170.26 3271.33
   11:32:30.698.27-Aug-2021 4925.00 4716.51 85.55 10.00 170.46 3271.33
   11:32:30.898.27-Aug-2021 4925.00 4716.69 85.55 10.00 170.66 3271.33
   11:32:31.098.27-Aug-2021 4925.00 4780.35 85.55 10.00 170.86 3271.33
   11:32:31.298.27-Aug-2021 4925.00 4808.75 85.55 10.00 171.06 3271.33
   11:32:31.499.27-Aug-2021 4925.00 4808.75 85.55 10.00 171.26 3271.33
   11:32:31.699.27-Aug-2021 4925.00 4810.12 85.55 10.00 171.46 3271.33
   11:32:31.899.27-Aug-2021 4925.00 4810.12 85.55 10.00 171.66 3271.33
   11:32:32.099.27-Aug-2021 4925.00 4810.16 85.55 10.00 171.86 3271.33
   11:32:32.299.27-Aug-2021 4925.00 4810.35 85.55 10.00 172.06 3271.33
   11:32:32.499.27-Aug-2021 4925.00 4810.35 85.55 10.00 172.26 3271.33
   11:32:32.699.27-Aug-2021 4925.00 4810.61 85.55 10.00 172.46 3271.33
   11:32:32.899.27-Aug-2021 4925.00 4810.60 85.55 10.00 172.66 3271.33
   11:32:33.099.27-Aug-2021 4925.00 4810.63 85.55 10.00 172.86 3271.33
   11:32:33.299.27-Aug-2021 4925.00 4810.63 85.55 10.00 173.06 3271.33
   11:32:33.499.27-Aug-2021 4925.00 4810.63 85.55 10.00 173.26 3271.33
   11:32:33.699.27-Aug-2021 4925.00 4810.65 85.55 10.00 173.46 3271.33
   11:32:33.899.27-Aug-2021 4925.00 4810.66 85.55 10.00 173.66 3271.33
   11:32:34.099.27-Aug-2021 4925.00 4810.67 85.55 10.00 173.86 3271.33
   11:32:34.300.27-Aug-2021 4925.00 4810.69 85.55 10.00 174.06 3271.33
   11:32:34.500.27-Aug-2021 4925.00 4810.69 85.55 10.00 174.26 3271.33
   11:32:34.700.27-Aug-2021 4925.00 4810.70 85.55 10.00 174.46 3271.33
   11:32:34.900.27-Aug-2021 4925.00 4810.70 85.55 10.00 174.66 3271.33
   11:32:35.100.27-Aug-2021 4925.00 4810.72 85.55 10.00 174.86 3271.33
   11:32:35.300.27-Aug-2021 4925.00 4810.65 85.55 10.00 175.06 3271.33
   11:32:35.500.27-Aug-2021 4925.00 4810.65 85.55 10.00 175.26 3271.33
   11:32:35.700.27-Aug-2021 4925.00 4811.05 85.55 10.00 175.46 3271.33
   11:32:35.900.27-Aug-2021 4925.00 4811.01 85.55 10.00 175.66 3271.33
   11:32:36.100.27-Aug-2021 4925.00 4811.01 85.55 10.00 175.86 3271.33
   11:32:36.300.27-Aug-2021 4925.00 4811.02 85.55 10.00 176.06 3271.33
   11:32:36.500.27-Aug-2021 4925.00 4811.02 85.55 10.00 176.26 3271.33
   11:32:36.700.27-Aug-2021 4925.00 4811.01 85.55 10.00 176.46 3271.33
   11:32:36.900.27-Aug-2021 4925.00 4811.01 85.55 10.00 176.66 3271.33
   11:32:37.101.27-Aug-2021 4925.00 4811.01 85.55 10.00 176.86 3271.33
   11:32:37.301.27-Aug-2021 4925.00 4811.02 85.55 10.00 177.06 3271.33
   11:32:37.501.27-Aug-2021 4925.00 4811.02 85.55 10.00 177.26 3271.33
   11:32:37.701.27-Aug-2021 4925.00 4811.01 85.55 10.00 177.46 3271.33
   11:32:37.901.27-Aug-2021 4925.00 4811.01 85.55 10.00 177.66 3271.33
   11:32:38.101.27-Aug-2021 4925.00 4811.00 85.55 10.00 177.86 3271.33
   11:32:38.301.27-Aug-2021 4925.00 4811.00 85.55 10.00 178.06 3271.33
   11:32:38.501.27-Aug-2021 4925.00 4811.00 85.55 10.00 178.26 3271.33
   11:32:38.701.27-Aug-2021 4925.00 4811.05 85.55 10.00 178.46 3271.33
   11:32:38.901.27-Aug-2021 4925.00 4811.12 85.55 10.00 178.66 3271.33
   11:32:39.101.27-Aug-2021 4925.00 4811.17 85.55 10.00 178.86 3271.33
   11:32:39.301.27-Aug-2021 4925.00 4811.15 85.55 10.00 179.06 3271.33
   11:32:39.501.27-Aug-2021 4925.00 4811.15 85.55 10.00 179.26 3271.33
   11:32:39.701.27-Aug-2021 4925.00 4811.10 85.55 10.00 179.46 3271.33
   11:32:39.902.27-Aug-2021 4925.00 4811.26 85.55 10.00 179.66 3271.33
   11:32:40.102.27-Aug-2021 4925.00 4811.17 85.55 10.00 179.86 3271.33
   11:32:40.302.27-Aug-2021 4925.00 4811.20 85.55 10.00 180.06 3271.33
   11:32:40.502.27-Aug-2021 4925.00 4811.20 85.55 10.00 180.26 3271.33
   11:32:40.702.27-Aug-2021 4925.00 4811.20 85.55 10.00 180.46 3271.33
   11:32:40.902.27-Aug-2021 4925.00 4811.24 85.55 10.00 180.66 3271.33
