~Version Information
 VERS.                  2.0:   CWLS log ASCII Standard -VERSION 2.0
 WRAP.                   NO:   One line per depth step
~Well Information Block
#MNEM.UNIT     VALUE/NAME     DESCRIPTION
#---------     -----------    ---------------------------
 STRT.S             08:06:40 27-Aug-21: START TIME 08:06:40 27-Aug-21
 STOP.S             08:13:50 27-Aug-21: STOP TIME  08:13:50 27-Aug-21
 STEP.S                   0.00: STEP TIME
 NULL.                 -999.25: NULL VALUE
 DFWT.                        :  DIST FWL TEXT
 DFST.                        :  DIST FSL TEXT
 DMF .             Drill Floor:  DRILL MEAS FROM
 STIM.      20.00.00 17-Aug-21:  START TIME
 DATE.      19.00.00 29-Aug-21:  END TIME
 SPUD.               15-Aug-21:  SPUD DATE
 NREF.                    Grid:  NORTH REFERENCE
 HPTY.       Minimum Curvature:  HOLE POS TYPE
 DMOD.             Drill Model:  DRILL MOD DESC
 SVYD.                  Survey:  SURVEY DESC
 ILTD.               Lithology:  INTERP LTH DESC
 FTOP.          Formation Tops:  FORM TOPS DESC
 RIG .              East Azeri:  RIG NAME
 PDAT.          Mean Sea Level:  PERMANENT DATUM
 FLD .                     ACG:  FIELD NAME
 SON .        AZ-XX-0907180857:  JOB NUMBER
 CTRY.              Azerbaijan:  COUNTRY NAME
 WELL.                    D23x:  WELL NAME
 SRVC.     Turan Drilling and Engineering:  CONTRACTOR
 COMP.     BP Exploration (Caspian Sea) Ltd.:  COMPANY
 UWI .            /AZE00000214:  UNIQUE WELL IDENTIFIER
 API .            /AZE00000214:  API NUMBER
 MDS .        Operator Entered:  MAG DATA SOURCE
 BASE.              Azerbaijan:  LOGGING EQUIPMENT BASE LOCATION
 REGN.                   EESSA:  REGION
 PROV.                    Baku:  PROVINCE
 STAT.                    Baku:  STATE NAME
 MWDS.                    Baku:  MWD SHOP
 DOE .                     N/A:  DOE NUMBER
 DCON.         Sperry Drilling:  DIRECTNL CONTR
 UNIT.                     N/A:  LOGGING EQUIPMENT ID
 WTYP.                Deviated:  WELL TYPE
 CNTY.                        :  COUNTY
 LOC .                        :  LOCATION
 LMF .             Drill Floor:  LOG MEASURED FROM
 TVDS.m                  43.60:  TVDSS CORRECTN
 LATI.deg                40.02:  LATITUDE
 LONG.deg                51.45:  LONGITUDE
 WHNS.m                  -7.04:  WELL HEAD N/S
 WHEW.m                  -0.67:  WELL HEAD E/W
 UTMX.m              538762.90:  UTM X
 UTMY.m             4431871.34:  UTM Y
 DFWL.m                   0.00:  DISTANCE FWL
 DFSL.m                   0.00:  DISTANCE FSL
 SDEP.m                4127.00:  START DEPTH
 TDD .m                5084.50:  TOTAL DEPTH (DRILLER)
 VSDR.deg               140.47:  VERT SEC DIRECT
 GVFD.g                   1.00:  GRAVITY FIELD
 MFLD.nT              50362.00:  MAGNETIC FIELD
 MDIP.deg                59.48:  MAGNETIC DIP
 MDEC.deg                 6.47:  MAGNETIC DECL
 GRDC.deg                 0.31:  GRID CORRECTION
 AZTC.deg                 6.16:  AZM TOTAL CORR
 EPD .m                   0.00:  ELEVATION
 EGL .m                   0.00:  GROUND ELEVATION
 WDMS.m                 151.80:  WD ELEV
 APD .m                  43.60:  DEPTH ABOVE PD
 DEP .m                4092.57:  DEPTH
 AGAP.m                  43.60:  AIR GAP
 VSEW.m                  -0.67:  VERT SEC E/W
 VSNS.m                  -7.04:  VERT SEC N/S
 EKB .m                  43.60:  KB ELEVATION
 EDF .m                  43.60:  DF ELEVATION
 TDL .m                 957.50:  TOTAL DEPTH (LOGGER)
 VSC .                       0:  VS TO CLOSURE
 MAGU.                 1851413:  MAGUTM CHECKSUM
~Parameter Information Block
#MNEM.UNIT       Value        Description
#---------     -----------    ---------------------------
 AV  .mps                 1.50:  Ann Velocity 
 AVMX.mps                 2.00:  Max Ann Veloc 
 AZIF.deg               184.66:  Azm, Final 
 BHAT.        Rotary Steerable:  BHA Type 
 BREV.rev               300.00:  Rev Bit Total 
 BROT.°/30m              -0.50:  Build Rotating 
 BS  .in                  8.50:  Bit Size 
 BSZ .in                  8.50:  Bit Size 
 BTPL.psig              370.00:  Bit Press Loss 
 CABU.                      No:  Customer Abuse 
 CGEO.      Behruz Shahbaliyev:  Customer Geo 
 COMM.                     ü;x:  Run Comments 1 
 TCS .hr                140.08:  Time Ciculation Ended 
 CV  .mps                 3.00:  Crit Velocity 
 CVMX.mps                 3.20:  Max Crit Veloc 
 DD1 .            Musa Ahmadov:  Direct Drillr 1 
 DD2 .           Hamid Ahmadov:  Direct Drillr 2 
 DDSV.               Geo-Pilot:  DD Service 
 DEFF.%                  98.40:  % Det Eff 
 DLRX.°/30m               3.40:  Dogleg Rot Max 
 DLSO.°/30m               1.45:  Dogleg Oriented 
 DLSX.°/30m               3.40:  Dogleg Str Max 
 DRET.      18.40.00 29-Aug-21:  Drill End Time 
 DRST.      21.00.00 20-Aug-21:  Drill Start Tim 
 DTIM.hr                 69.47:  Time Drilling 
 EDEP.m                5084.50:  End Depth 
 ENG1.      Artemiy Matviyanov:  Engineer 1 
 ENG2.         Almaz Almadatov:  Engineer 2 
 ETIM.      18.40.00 29-Aug-21:  End Time 
 FLOI.gpm               500.00:  Flow In 
 FLON.gpm               400.00:  Flow In Min 
 FLOS.cptm                0.00:  Fluid Loss 
 FLOX.gpm               500.00:  Flow In Max 
 DFT .        Mineral Oil Base:  Mud Type 
 HFLO.                      No:  High Flow 
 HPRE.                      No:  High Pressure 
 HTEM.                      No:  High Temp 
 HYDO.m                   1.80:  Hydro Offset 
 IFIN.deg                25.62:  Inc, Final 
 IMAX.deg                48.69:  Inc Max 
 IMIN.deg                24.01:  Inc Min 
 IMND.m                4962.57:  Inc Min Depth 
 IMXD.m                4119.01:  Inc Max Depth 
 JARR.                      No:  Jarring 
 LETM.      18.40.00 29-Aug-21:  Log End Time 
 LOST.hr                     0:  Lost Rig Time 
 LSTM.      21.00.00 20-Aug-21:  Log Start Time 
 MDCL.ppm             41500.00:  Mud Chlorides 
 MDES.     Inversion Oil/Synthetic:  Mud Desc 
 DFD .sg                  1.56:  Mud Density 
 MDMN.sg                  1.56:  Dens Mud Min 
 MDMX.sg                  1.56:  Dens Mud Max 
 MOIL.                      70:  Run Mud Oil % 
 MOWR.                   70:30:  Run Mud OWR 
 MSND.                     0.2:  Run Mud Sand % 
 MSOL.                    23.3:  Run Mud Solids% 
 DFV .spqt               78.00:  Mud Viscosity 
 MWOD.in                  6.75:  MWD Tool OD 
 MWSI.                      No:  Serv Intrp, MWD 
 OTIM.hr                218.30:  Time Operating 
 PCON.           Look Like New:  Pad Condition 
 PMAX.psia            11015.30:  Press Op, Max 
 PV  .cP                 38.00:  Mud PV 
 RUN .                     300:  Run Number 
 ROPA.m/hr               15.00:  ROP Avg 
 ROPN.m/hr                9.00:  ROP Min 
 ROPX.m/hr               17.00:  ROP Max 
 RPMA.rpm               120.00:  RPM Surface Avg 
 RPMN.rpm                90.00:  RPM Surface Min 
 RPMX.rpm               140.00:  RPM Surface Max 
 RRUN.                     300:  Rig Run Number 
 RTIM.hr                 31.53:  Time Reaming 
 SAZI.deg               331.64:  Azm, Start 
 SDEP.m                4127.00:  Start Depth 
 SIDD.                      No:  Serv Intrp, DD 
 SINC.deg                48.43:  Inc, Start 
 SPPA.psig             5830.00:  SPP Avg 
 SPPN.psig             5600.00:  SPP Min 
 SPPX.psig             5900.00:  SPP Max 
 STIM.      21.00.00 20-Aug-21:  Start Time 
 SVCS.                 DD, MWD:  Services 
 SVER.                    9.20:  Sperry Version 
 TDAT.m                 957.50:  Tot Depth Attmp 
 TDDF.                      No:  Trip for DD 
 TDLG.m                 957.50:  Tot Depth Loggd 
 TFF .                      No:  Trip for Fail 
 TQAA.f-kp               15.00:  Torque Abs Avg 
 TQAN.f-kp               12.00:  Torque Abs Min 
 TQAX.f-kp               19.00:  Torque Abs Max 
 TRRT.°/30m              -3.40:  Turn Rotating 
 MRT .                  EWR-M5:  Maximum Recorded Temperature 
 TTMX.degC              100.00:  Max Tool Temp 
 VS01.                90639251:  Virtual Str1 SN 
 VS02.                90634715:  Virtual Str2 SN 
 VS03.                90652479:  Virtual Str3 SN 
 VS04.                90642262:  Virtual Str4 SN 
 WBMN.klb                 0.00:  WOB Min 
 WITN.           Murad Guliyev:  Customer Rep 
 WITN.          Yashar Gaziyev:  Customer Rep 2 
 WOBA.klb                 9.00:  WOB Avg 
 WOBX.klb                12.00:  WOB Max 
 YP  .lhf2               30.00:  Yield Point 
~Curve Information Block
#MNEM.UNIT                 API CODE     Curve Description
#---------               -----------    ---------------------------
 TIME.HHMMSS            00 000 000 000:  GT Time & Date
 GTDEPTH.m              00 000 000 000:  GT Depth
 GTPQH.psia             00 000 000 000:  GT HR Quartz Pressure
 GTTQ.degC              00 000 000 000:  GT Quartz Temperature
 GTTN.NONE              00 000 000 000:  GT Test Number
 GTET.sec               00 000 000 000:  GT Elapsed Test Time
 GTTVD.m                00 000 000 000:  GT True Vertical Depth
#Other Information
#
#WARRANTY: Halliburton will use its best efforts to furnish customers with 
#accurate information and interpretations that are part of, and incident to, the services 
#provided.  However, Halliburton cannot and does not warrant the accuracy 
#or correctness of such information and interpretations.  Under no circumstances should any 
#such information or interpretation be relied upon as the sole basis for any drilling, 
#completion, production, or financial decision or any procedure involving any risk to the 
#safety of any drilling venture, drilling rig or its crew or any other third party.  The 
#Customer has full responsibility for all drilling, completion and production operation.  
#Halliburton makes no representations or warranties, either expressed or 
#implied, including, but not limited to, the implied warranties of merchantability or fitness 
#for a particular purpose, with respect to the services rendered.  In no event will 
#Halliburton be liable for failure to obtain any particular results or for 
#any damages, including, but not limited to, indirect, special or consequential damages, 
#resulting from the use of any information or interpretation provided by Halliburton.
#
~A           TIME           GTDEPTH  GTPQH  GTTQ  GTTN  GTET   GTTVD  
# ...
   08:11:39.775.27-Aug-2021 4992.50 4260.04 86.94 5.00 299.05 3332.84
   08:11:39.975.27-Aug-2021 4992.50 4260.04 86.94 5.00 299.25 3332.84
   08:11:40.175.27-Aug-2021 4992.50 4260.06 86.94 5.00 299.45 3332.84
   08:11:40.375.27-Aug-2021 4992.50 4260.05 86.94 5.00 299.65 3332.84
   08:11:40.575.27-Aug-2021 4992.50 4260.09 86.94 5.00 299.85 3332.84
   08:11:40.775.27-Aug-2021 4992.50 4259.99 86.94 5.00 300.05 3332.84
   08:11:40.975.27-Aug-2021 4992.50 4259.99 86.94 5.00 300.25 3332.84
   08:11:41.175.27-Aug-2021 4992.50 4260.02 86.94 5.00 300.45 3332.84
   08:11:41.375.27-Aug-2021 4992.50 4260.04 86.94 5.00 300.65 3332.84
   08:11:41.575.27-Aug-2021 4992.50 4260.03 86.94 5.00 300.85 3332.84
   08:11:41.775.27-Aug-2021 4992.50 4260.04 86.94 5.00 301.05 3332.84
   08:11:41.975.27-Aug-2021 4992.50 4260.04 86.94 5.00 301.25 3332.84
   08:11:42.175.27-Aug-2021 4992.50 4260.04 86.94 5.00 301.45 3332.84
   08:11:42.375.27-Aug-2021 4992.50 4260.04 86.94 5.00 301.65 3332.84
   08:11:42.575.27-Aug-2021 4992.50 4260.05 86.94 5.00 301.85 3332.84
   08:11:42.775.27-Aug-2021 4992.50 4260.06 86.94 5.00 302.05 3332.84
   08:11:42.975.27-Aug-2021 4992.50 4260.06 86.94 5.00 302.25 3332.84
   08:11:43.175.27-Aug-2021 4992.50 4260.05 86.94 5.00 302.45 3332.84
   08:11:43.375.27-Aug-2021 4992.50 4260.06 86.94 5.00 302.65 3332.84
   08:11:43.575.27-Aug-2021 4992.50 4260.05 86.94 5.00 302.85 3332.84
   08:11:43.775.27-Aug-2021 4992.50 4260.06 86.94 5.00 303.05 3332.84
   08:11:43.975.27-Aug-2021 4992.50 4260.06 86.94 5.00 303.25 3332.84
   08:11:44.175.27-Aug-2021 4992.50 4260.04 86.94 5.00 303.45 3332.84
   08:11:44.375.27-Aug-2021 4992.50 4260.04 86.94 5.00 303.65 3332.84
   08:11:44.575.27-Aug-2021 4992.50 4260.03 86.94 5.00 303.85 3332.84
   08:11:44.775.27-Aug-2021 4992.50 4260.04 86.94 5.00 304.05 3332.84
   08:11:44.975.27-Aug-2021 4992.50 4260.04 86.94 5.00 304.25 3332.84
   08:11:45.176.27-Aug-2021 4992.50 4260.09 86.94 5.00 304.45 3332.84
   08:11:45.376.27-Aug-2021 4992.50 4259.99 86.94 5.00 304.65 3332.84
   08:11:45.576.27-Aug-2021 4992.50 4260.04 86.94 5.00 304.85 3332.84
   08:11:45.776.27-Aug-2021 4992.50 4260.04 86.94 5.00 305.05 3332.84
   08:11:45.976.27-Aug-2021 4992.50 4260.04 86.94 5.00 305.25 3332.84
   08:11:46.176.27-Aug-2021 4992.50 4260.01 86.94 5.00 305.45 3332.84
   08:11:46.376.27-Aug-2021 4992.50 4260.04 86.95 5.00 305.65 3332.84
   08:11:46.576.27-Aug-2021 4992.50 4260.03 86.94 5.00 305.85 3332.84
   08:11:46.776.27-Aug-2021 4992.50 4260.04 86.94 5.00 306.05 3332.84
   08:11:46.976.27-Aug-2021 4992.50 4260.04 86.94 5.00 306.25 3332.84
   08:11:47.176.27-Aug-2021 4992.50 4260.05 86.94 5.00 306.45 3332.84
   08:11:47.376.27-Aug-2021 4992.50 4260.05 86.95 5.00 306.65 3332.84
   08:11:47.576.27-Aug-2021 4992.50 4260.04 86.95 5.00 306.85 3332.84
   08:11:47.776.27-Aug-2021 4992.50 4260.05 86.94 5.00 307.05 3332.84
   08:11:47.976.27-Aug-2021 4992.50 4260.05 86.94 5.00 307.25 3332.84
   08:11:48.176.27-Aug-2021 4992.50 4260.06 86.95 5.00 307.45 3332.84
   08:11:48.376.27-Aug-2021 4992.50 4260.06 86.95 5.00 307.65 3332.84
   08:11:48.576.27-Aug-2021 4992.50 4260.05 86.95 5.00 307.85 3332.84
   08:11:48.776.27-Aug-2021 4992.50 4260.05 86.94 5.00 308.05 3332.84
   08:11:48.976.27-Aug-2021 4992.50 4260.05 86.94 5.00 308.25 3332.84
   08:11:49.176.27-Aug-2021 4992.50 4260.06 86.94 5.00 308.45 3332.84
   08:11:49.376.27-Aug-2021 4992.50 4260.06 86.95 5.00 308.65 3332.84
   08:11:49.576.27-Aug-2021 4992.50 4260.07 86.95 5.00 308.85 3332.84
   08:11:49.776.27-Aug-2021 4992.50 4260.06 86.94 5.00 309.05 3332.84
   08:11:49.976.27-Aug-2021 4992.50 4260.06 86.94 5.00 309.25 3332.84
   08:11:50.176.27-Aug-2021 4992.50 4260.06 86.95 5.00 309.45 3332.84
   08:11:50.376.27-Aug-2021 4992.50 4260.12 86.95 5.00 309.65 3332.84
   08:11:50.576.27-Aug-2021 4992.50 4260.01 86.95 5.00 309.85 3332.84
   08:11:50.776.27-Aug-2021 4992.50 4260.06 86.95 5.00 310.05 3332.84
   08:11:50.976.27-Aug-2021 4992.50 4260.06 86.95 5.00 310.25 3332.84
   08:11:51.177.27-Aug-2021 4992.50 4260.06 86.95 5.00 310.45 3332.84
   08:11:51.377.27-Aug-2021 4992.50 4260.06 86.95 5.00 310.65 3332.84
   08:11:51.577.27-Aug-2021 4992.50 4260.05 86.95 5.00 310.85 3332.84
   08:11:51.777.27-Aug-2021 4992.50 4260.07 86.95 5.00 311.05 3332.84
   08:11:51.977.27-Aug-2021 4992.50 4260.07 86.95 5.00 311.25 3332.84
   08:11:52.177.27-Aug-2021 4992.50 4260.06 86.95 5.00 311.45 3332.84
   08:11:52.377.27-Aug-2021 4992.50 4260.08 86.95 5.00 311.65 3332.84
   08:11:52.577.27-Aug-2021 4992.50 4260.07 86.95 5.00 311.85 3332.84
   08:11:52.777.27-Aug-2021 4992.50 4260.08 86.95 5.00 312.05 3332.84
   08:11:52.977.27-Aug-2021 4992.50 4260.08 86.95 5.00 312.25 3332.84
   08:11:53.177.27-Aug-2021 4992.50 4260.07 86.95 5.00 312.45 3332.84
   08:11:53.377.27-Aug-2021 4992.50 4260.08 86.95 5.00 312.65 3332.84
   08:11:53.577.27-Aug-2021 4992.50 4260.08 86.95 5.00 312.85 3332.84
   08:11:53.777.27-Aug-2021 4992.50 4260.08 86.95 5.00 313.05 3332.84
   08:11:53.977.27-Aug-2021 4992.50 4260.08 86.95 5.00 313.25 3332.84
   08:11:54.177.27-Aug-2021 4992.50 4260.07 86.95 5.00 313.45 3332.84
   08:11:54.377.27-Aug-2021 4992.50 4260.05 86.95 5.00 313.65 3332.84
   08:11:54.577.27-Aug-2021 4992.50 4260.06 86.95 5.00 313.85 3332.84
   08:11:54.777.27-Aug-2021 4992.50 4260.06 86.95 5.00 314.05 3332.84
   08:11:54.977.27-Aug-2021 4992.50 4260.06 86.95 5.00 314.25 3332.84
   08:11:55.177.27-Aug-2021 4992.50 4260.03 86.95 5.00 314.45 3332.84
   08:11:55.377.27-Aug-2021 4992.50 4260.06 86.95 5.00 314.65 3332.84
   08:11:55.577.27-Aug-2021 4992.50 4260.06 86.95 5.00 314.85 3332.84
   08:11:55.777.27-Aug-2021 4992.50 4260.10 86.95 5.00 315.05 3332.84
   08:11:55.977.27-Aug-2021 4992.50 4260.10 86.95 5.00 315.25 3332.84
   08:11:56.177.27-Aug-2021 4992.50 4260.06 86.95 5.00 315.45 3332.84
   08:11:56.377.27-Aug-2021 4992.50 4260.05 86.95 5.00 315.65 3332.84
   08:11:56.577.27-Aug-2021 4992.50 4260.06 86.95 5.00 315.85 3332.84
   08:11:56.777.27-Aug-2021 4992.50 4260.06 86.95 5.00 316.05 3332.84
   08:11:56.977.27-Aug-2021 4992.50 4260.06 86.95 5.00 316.25 3332.84
   08:11:57.177.27-Aug-2021 4992.50 4260.07 86.95 5.00 316.45 3332.84
   08:11:57.378.27-Aug-2021 4992.50 4260.06 86.95 5.00 316.65 3332.84
   08:11:57.578.27-Aug-2021 4992.50 4260.06 86.95 5.00 316.85 3332.84
   08:11:57.778.27-Aug-2021 4992.50 4260.06 86.95 5.00 317.05 3332.84
   08:11:57.978.27-Aug-2021 4992.50 4260.06 86.95 5.00 317.25 3332.84
   08:11:58.178.27-Aug-2021 4992.50 4260.07 86.95 5.00 317.45 3332.84
   08:11:58.378.27-Aug-2021 4992.50 4260.06 86.95 5.00 317.65 3332.84
   08:11:58.578.27-Aug-2021 4992.50 4260.07 86.95 5.00 317.85 3332.84
   08:11:58.778.27-Aug-2021 4992.50 4260.07 86.95 5.00 318.05 3332.84
   08:11:58.978.27-Aug-2021 4992.50 4260.07 86.95 5.00 318.25 3332.84
   08:11:59.178.27-Aug-2021 4992.50 4260.08 86.95 5.00 318.45 3332.84
   08:11:59.378.27-Aug-2021 4992.50 4260.08 86.95 5.00 318.65 3332.84
   08:11:59.578.27-Aug-2021 4992.50 4260.08 86.95 5.00 318.85 3332.84
   08:11:59.778.27-Aug-2021 4992.50 4260.09 86.95 5.00 319.05 3332.84
   08:11:59.978.27-Aug-2021 4992.50 4260.09 86.95 5.00 319.25 3332.84
   08:12:00.178.27-Aug-2021 4992.50 4260.13 86.95 5.00 319.45 3332.84
   08:12:00.378.27-Aug-2021 4992.50 4260.03 86.95 5.00 319.65 3332.84
   08:12:00.578.27-Aug-2021 4992.50 4260.08 86.95 5.00 319.85 3332.84
   08:12:00.778.27-Aug-2021 4992.50 4260.06 86.95 5.00 320.05 3332.84
   08:12:00.978.27-Aug-2021 4992.50 4260.06 86.95 5.00 320.25 3332.84
   08:12:01.178.27-Aug-2021 4992.50 4260.07 86.95 5.00 320.45 3332.84
   08:12:01.378.27-Aug-2021 4992.50 4260.08 86.95 5.00 320.65 3332.84
   08:12:01.578.27-Aug-2021 4992.50 4260.08 86.95 5.00 320.85 3332.84
   08:12:01.778.27-Aug-2021 4992.50 4260.08 86.95 5.00 321.05 3332.84
   08:12:01.978.27-Aug-2021 4992.50 4260.08 86.95 5.00 321.25 3332.84
   08:12:02.178.27-Aug-2021 4992.50 4260.09 86.95 5.00 321.45 3332.84
   08:12:02.378.27-Aug-2021 4992.50 4260.10 86.95 5.00 321.65 3332.84
   08:12:02.578.27-Aug-2021 4992.50 4260.09 86.95 5.00 321.85 3332.84
