~Version Information
 VERS.                  2.0:   CWLS log ASCII Standard -VERSION 2.0
 WRAP.                   NO:   One line per depth step
~Well Information Block
#MNEM.UNIT     VALUE/NAME     DESCRIPTION
#---------     -----------    ---------------------------
 STRT.S             16:56:36 27-Aug-21: START TIME 16:56:36 27-Aug-21
 STOP.S             17:03:52 27-Aug-21: STOP TIME  17:03:52 27-Aug-21
 STEP.S                   0.00: STEP TIME
 NULL.                 -999.25: NULL VALUE
 DFWT.                        :  DIST FWL TEXT
 DFST.                        :  DIST FSL TEXT
 DMF .             Drill Floor:  DRILL MEAS FROM
 STIM.      20.00.00 17-Aug-21:  START TIME
 DATE.      19.00.00 29-Aug-21:  END TIME
 SPUD.               15-Aug-21:  SPUD DATE
 NREF.                    Grid:  NORTH REFERENCE
 HPTY.       Minimum Curvature:  HOLE POS TYPE
 DMOD.             Drill Model:  DRILL MOD DESC
 SVYD.                  Survey:  SURVEY DESC
 ILTD.               Lithology:  INTERP LTH DESC
 FTOP.          Formation Tops:  FORM TOPS DESC
 RIG .              East Azeri:  RIG NAME
 PDAT.          Mean Sea Level:  PERMANENT DATUM
 FLD .                     ACG:  FIELD NAME
 SON .        AZ-XX-0907180857:  JOB NUMBER
 CTRY.              Azerbaijan:  COUNTRY NAME
 WELL.                    D23x:  WELL NAME
 SRVC.     Turan Drilling and Engineering:  CONTRACTOR
 COMP.     BP Exploration (Caspian Sea) Ltd.:  COMPANY
 UWI .            /AZE00000214:  UNIQUE WELL IDENTIFIER
 API .            /AZE00000214:  API NUMBER
 MDS .        Operator Entered:  MAG DATA SOURCE
 BASE.              Azerbaijan:  LOGGING EQUIPMENT BASE LOCATION
 REGN.                   EESSA:  REGION
 PROV.                    Baku:  PROVINCE
 STAT.                    Baku:  STATE NAME
 MWDS.                    Baku:  MWD SHOP
 DOE .                     N/A:  DOE NUMBER
 DCON.         Sperry Drilling:  DIRECTNL CONTR
 UNIT.                     N/A:  LOGGING EQUIPMENT ID
 WTYP.                Deviated:  WELL TYPE
 CNTY.                        :  COUNTY
 LOC .                        :  LOCATION
 LMF .             Drill Floor:  LOG MEASURED FROM
 TVDS.m                  43.60:  TVDSS CORRECTN
 LATI.deg                40.02:  LATITUDE
 LONG.deg                51.45:  LONGITUDE
 WHNS.m                  -7.04:  WELL HEAD N/S
 WHEW.m                  -0.67:  WELL HEAD E/W
 UTMX.m              538762.90:  UTM X
 UTMY.m             4431871.34:  UTM Y
 DFWL.m                   0.00:  DISTANCE FWL
 DFSL.m                   0.00:  DISTANCE FSL
 SDEP.m                4127.00:  START DEPTH
 TDD .m                5084.50:  TOTAL DEPTH (DRILLER)
 VSDR.deg               140.47:  VERT SEC DIRECT
 GVFD.g                   1.00:  GRAVITY FIELD
 MFLD.nT              50362.00:  MAGNETIC FIELD
 MDIP.deg                59.48:  MAGNETIC DIP
 MDEC.deg                 6.47:  MAGNETIC DECL
 GRDC.deg                 0.31:  GRID CORRECTION
 AZTC.deg                 6.16:  AZM TOTAL CORR
 EPD .m                   0.00:  ELEVATION
 EGL .m                   0.00:  GROUND ELEVATION
 WDMS.m                 151.80:  WD ELEV
 APD .m                  43.60:  DEPTH ABOVE PD
 DEP .m                4092.57:  DEPTH
 AGAP.m                  43.60:  AIR GAP
 VSEW.m                  -0.67:  VERT SEC E/W
 VSNS.m                  -7.04:  VERT SEC N/S
 EKB .m                  43.60:  KB ELEVATION
 EDF .m                  43.60:  DF ELEVATION
 TDL .m                 957.50:  TOTAL DEPTH (LOGGER)
 VSC .                       0:  VS TO CLOSURE
 MAGU.                 1851413:  MAGUTM CHECKSUM
~Parameter Information Block
#MNEM.UNIT       Value        Description
#---------     -----------    ---------------------------
 AV  .mps                 1.50:  Ann Velocity 
 AVMX.mps                 2.00:  Max Ann Veloc 
 AZIF.deg               184.66:  Azm, Final 
 BHAT.        Rotary Steerable:  BHA Type 
 BREV.rev               300.00:  Rev Bit Total 
 BROT.°/30m              -0.50:  Build Rotating 
 BS  .in                  8.50:  Bit Size 
 BSZ .in                  8.50:  Bit Size 
 BTPL.psig              370.00:  Bit Press Loss 
 CABU.                      No:  Customer Abuse 
 CGEO.      Behruz Shahbaliyev:  Customer Geo 
 COMM.                     T
k:  Run Comments 1 
 TCS .hr                140.08:  Time Ciculation Ended 
 CV  .mps                 3.00:  Crit Velocity 
 CVMX.mps                 3.20:  Max Crit Veloc 
 DD1 .            Musa Ahmadov:  Direct Drillr 1 
 DD2 .           Hamid Ahmadov:  Direct Drillr 2 
 DDSV.               Geo-Pilot:  DD Service 
 DEFF.%                  98.40:  % Det Eff 
 DLRX.°/30m               3.40:  Dogleg Rot Max 
 DLSO.°/30m               1.45:  Dogleg Oriented 
 DLSX.°/30m               3.40:  Dogleg Str Max 
 DRET.      18.40.00 29-Aug-21:  Drill End Time 
 DRST.      21.00.00 20-Aug-21:  Drill Start Tim 
 DTIM.hr                 69.47:  Time Drilling 
 EDEP.m                5084.50:  End Depth 
 ENG1.      Artemiy Matviyanov:  Engineer 1 
 ENG2.         Almaz Almadatov:  Engineer 2 
 ETIM.      18.40.00 29-Aug-21:  End Time 
 FLOI.gpm               500.00:  Flow In 
 FLON.gpm               400.00:  Flow In Min 
 FLOS.cptm                0.00:  Fluid Loss 
 FLOX.gpm               500.00:  Flow In Max 
 DFT .        Mineral Oil Base:  Mud Type 
 HFLO.                      No:  High Flow 
 HPRE.                      No:  High Pressure 
 HTEM.                      No:  High Temp 
 HYDO.m                   1.80:  Hydro Offset 
 IFIN.deg                25.62:  Inc, Final 
 IMAX.deg                48.69:  Inc Max 
 IMIN.deg                24.01:  Inc Min 
 IMND.m                4962.57:  Inc Min Depth 
 IMXD.m                4119.01:  Inc Max Depth 
 JARR.                      No:  Jarring 
 LETM.      18.40.00 29-Aug-21:  Log End Time 
 LOST.hr                     0:  Lost Rig Time 
 LSTM.      21.00.00 20-Aug-21:  Log Start Time 
 MDCL.ppm             41500.00:  Mud Chlorides 
 MDES.     Inversion Oil/Synthetic:  Mud Desc 
 DFD .sg                  1.56:  Mud Density 
 MDMN.sg                  1.56:  Dens Mud Min 
 MDMX.sg                  1.56:  Dens Mud Max 
 MOIL.                      70:  Run Mud Oil % 
 MOWR.                   70:30:  Run Mud OWR 
 MSND.                     0.2:  Run Mud Sand % 
 MSOL.                    23.3:  Run Mud Solids% 
 DFV .spqt               78.00:  Mud Viscosity 
 MWOD.in                  6.75:  MWD Tool OD 
 MWSI.                      No:  Serv Intrp, MWD 
 OTIM.hr                218.30:  Time Operating 
 PCON.           Look Like New:  Pad Condition 
 PMAX.psia            11015.30:  Press Op, Max 
 PV  .cP                 38.00:  Mud PV 
 RUN .                     300:  Run Number 
 ROPA.m/hr               15.00:  ROP Avg 
 ROPN.m/hr                9.00:  ROP Min 
 ROPX.m/hr               17.00:  ROP Max 
 RPMA.rpm               120.00:  RPM Surface Avg 
 RPMN.rpm                90.00:  RPM Surface Min 
 RPMX.rpm               140.00:  RPM Surface Max 
 RRUN.                     300:  Rig Run Number 
 RTIM.hr                 31.53:  Time Reaming 
 SAZI.deg               331.64:  Azm, Start 
 SDEP.m                4127.00:  Start Depth 
 SIDD.                      No:  Serv Intrp, DD 
 SINC.deg                48.43:  Inc, Start 
 SPPA.psig             5830.00:  SPP Avg 
 SPPN.psig             5600.00:  SPP Min 
 SPPX.psig             5900.00:  SPP Max 
 STIM.      21.00.00 20-Aug-21:  Start Time 
 SVCS.                 DD, MWD:  Services 
 SVER.                    9.20:  Sperry Version 
 TDAT.m                 957.50:  Tot Depth Attmp 
 TDDF.                      No:  Trip for DD 
 TDLG.m                 957.50:  Tot Depth Loggd 
 TFF .                      No:  Trip for Fail 
 TQAA.f-kp               15.00:  Torque Abs Avg 
 TQAN.f-kp               12.00:  Torque Abs Min 
 TQAX.f-kp               19.00:  Torque Abs Max 
 TRRT.°/30m              -3.40:  Turn Rotating 
 MRT .                  EWR-M5:  Maximum Recorded Temperature 
 TTMX.degC              100.00:  Max Tool Temp 
 VS01.                90639251:  Virtual Str1 SN 
 VS02.                90634715:  Virtual Str2 SN 
 VS03.                90652479:  Virtual Str3 SN 
 VS04.                90642262:  Virtual Str4 SN 
 WBMN.klb                 0.00:  WOB Min 
 WITN.           Murad Guliyev:  Customer Rep 
 WITN.          Yashar Gaziyev:  Customer Rep 2 
 WOBA.klb                 9.00:  WOB Avg 
 WOBX.klb                12.00:  WOB Max 
 YP  .lhf2               30.00:  Yield Point 
~Curve Information Block
#MNEM.UNIT                 API CODE     Curve Description
#---------               -----------    ---------------------------
 TIME.HHMMSS            00 000 000 000:  GT Time & Date
 GTDEPTH.m              00 000 000 000:  GT Depth
 GTPQH.psia             00 000 000 000:  GT HR Quartz Pressure
 GTTQ.degC              00 000 000 000:  GT Quartz Temperature
 GTTN.NONE              00 000 000 000:  GT Test Number
 GTET.sec               00 000 000 000:  GT Elapsed Test Time
 GTTVD.m                00 000 000 000:  GT True Vertical Depth
#Other Information
#
#WARRANTY: Halliburton will use its best efforts to furnish customers with 
#accurate information and interpretations that are part of, and incident to, the services 
#provided.  However, Halliburton cannot and does not warrant the accuracy 
#or correctness of such information and interpretations.  Under no circumstances should any 
#such information or interpretation be relied upon as the sole basis for any drilling, 
#completion, production, or financial decision or any procedure involving any risk to the 
#safety of any drilling venture, drilling rig or its crew or any other third party.  The 
#Customer has full responsibility for all drilling, completion and production operation.  
#Halliburton makes no representations or warranties, either expressed or 
#implied, including, but not limited to, the implied warranties of merchantability or fitness 
#for a particular purpose, with respect to the services rendered.  In no event will 
#Halliburton be liable for failure to obtain any particular results or for 
#any damages, including, but not limited to, indirect, special or consequential damages, 
#resulting from the use of any information or interpretation provided by Halliburton.
#
~A           TIME           GTDEPTH  GTPQH  GTTQ  GTTN   GTET   GTTVD  
# ...
   17:00:44.521.27-Aug-2021 4788.50 7535.73 83.15 18.00 248.35 3147.67
   17:00:44.720.27-Aug-2021 4788.50 7534.63 83.15 18.00 248.55 3147.67
   17:00:44.920.27-Aug-2021 4788.50 7538.65 83.15 18.00 248.75 3147.67
   17:00:45.120.27-Aug-2021 4788.50 7538.65 83.15 18.00 248.95 3147.67
   17:00:45.320.27-Aug-2021 4788.50 7535.12 83.15 18.00 249.15 3147.67
   17:00:45.520.27-Aug-2021 4788.50 7536.36 83.15 18.00 249.35 3147.67
   17:00:45.719.27-Aug-2021 4788.50 7534.74 83.15 18.00 249.55 3147.67
   17:00:45.919.27-Aug-2021 4788.50 7535.60 83.15 18.00 249.75 3147.67
   17:00:46.119.27-Aug-2021 4788.50 7535.60 83.15 18.00 249.95 3147.67
   17:00:46.319.27-Aug-2021 4788.50 7538.49 83.15 18.00 250.15 3147.67
   17:00:46.519.27-Aug-2021 4788.50 7535.76 83.15 18.00 250.35 3147.67
   17:00:46.718.27-Aug-2021 4788.50 7535.99 83.15 18.00 250.55 3147.67
   17:00:46.918.27-Aug-2021 4788.50 7534.74 83.15 18.00 250.75 3147.67
   17:00:47.118.27-Aug-2021 4788.50 7534.74 83.15 18.00 250.95 3147.67
   17:00:47.318.27-Aug-2021 4788.50 7532.82 83.15 18.00 251.15 3147.67
   17:00:47.518.27-Aug-2021 4788.50 7534.85 83.15 18.00 251.35 3147.67
   17:00:47.717.27-Aug-2021 4788.50 7536.25 83.15 18.00 251.55 3147.67
   17:00:47.917.27-Aug-2021 4788.50 7534.80 83.15 18.00 251.75 3147.67
   17:00:48.117.27-Aug-2021 4788.50 7534.80 83.15 18.00 251.95 3147.67
   17:00:48.317.27-Aug-2021 4788.50 7534.89 83.15 18.00 252.15 3147.67
   17:00:48.517.27-Aug-2021 4788.50 7534.83 83.15 18.00 252.35 3147.67
   17:00:48.716.27-Aug-2021 4788.50 7535.34 83.15 18.00 252.55 3147.67
   17:00:48.916.27-Aug-2021 4788.50 7535.16 83.15 18.00 252.75 3147.67
   17:00:49.116.27-Aug-2021 4788.50 7535.16 83.15 18.00 252.95 3147.67
   17:00:49.316.27-Aug-2021 4788.50 7535.42 83.15 18.00 253.15 3147.67
   17:00:49.516.27-Aug-2021 4788.50 7535.35 83.15 18.00 253.35 3147.67
   17:00:49.715.27-Aug-2021 4788.50 7535.25 83.15 18.00 253.55 3147.67
   17:00:49.915.27-Aug-2021 4788.50 7535.27 83.15 18.00 253.75 3147.67
   17:00:50.115.27-Aug-2021 4788.50 7535.27 83.15 18.00 253.95 3147.67
   17:00:50.315.27-Aug-2021 4788.50 7535.12 83.15 18.00 254.15 3147.67
   17:00:50.515.27-Aug-2021 4788.50 7533.45 83.15 18.00 254.35 3147.67
   17:00:50.714.27-Aug-2021 4788.50 7534.95 83.15 18.00 254.55 3147.67
   17:00:50.914.27-Aug-2021 4788.50 7535.94 83.15 18.00 254.75 3147.67
   17:00:51.114.27-Aug-2021 4788.50 7535.94 83.15 18.00 254.95 3147.67
   17:00:51.314.27-Aug-2021 4788.50 7534.66 83.15 18.00 255.15 3147.67
   17:00:51.514.27-Aug-2021 4788.50 7534.73 83.15 18.00 255.35 3147.67
   17:00:51.713.27-Aug-2021 4788.50 7534.74 83.15 18.00 255.54 3147.67
   17:00:51.913.27-Aug-2021 4788.50 7535.20 83.15 18.00 255.74 3147.67
   17:00:52.113.27-Aug-2021 4788.50 7535.20 83.15 18.00 255.94 3147.67
   17:00:52.313.27-Aug-2021 4788.50 7535.40 83.15 18.00 256.14 3147.67
   17:00:52.513.27-Aug-2021 4788.50 7535.63 83.15 18.00 256.34 3147.67
   17:00:52.712.27-Aug-2021 4788.50 7535.62 83.15 18.00 256.54 3147.67
   17:00:52.912.27-Aug-2021 4788.50 7535.53 83.15 18.00 256.74 3147.67
   17:00:53.112.27-Aug-2021 4788.50 7535.53 83.15 18.00 256.94 3147.67
   17:00:53.312.27-Aug-2021 4788.50 7535.49 83.15 18.00 257.14 3147.67
   17:00:53.512.27-Aug-2021 4788.50 7535.35 83.15 18.00 257.34 3147.67
   17:00:53.711.27-Aug-2021 4788.50 7536.51 83.15 18.00 257.54 3147.67
   17:00:53.911.27-Aug-2021 4788.50 7537.30 83.15 18.00 257.74 3147.67
   17:00:54.111.27-Aug-2021 4788.50 7537.30 83.15 18.00 257.94 3147.67
   17:00:54.311.27-Aug-2021 4788.50 7535.02 83.15 18.00 258.14 3147.67
   17:00:54.511.27-Aug-2021 4788.50 7535.73 83.15 18.00 258.34 3147.67
   17:00:54.710.27-Aug-2021 4788.50 7539.95 83.15 18.00 258.54 3147.67
   17:00:54.910.27-Aug-2021 4788.50 7532.77 83.15 18.00 258.74 3147.67
   17:00:55.110.27-Aug-2021 4788.50 7532.77 83.15 18.00 258.94 3147.67
   17:00:55.310.27-Aug-2021 4788.50 7535.99 83.15 18.00 259.14 3147.67
   17:00:55.510.27-Aug-2021 4788.50 7534.95 83.15 18.00 259.34 3147.67
   17:00:55.709.27-Aug-2021 4788.50 7534.94 83.15 18.00 259.54 3147.67
   17:00:55.909.27-Aug-2021 4788.50 7535.75 83.15 18.00 259.74 3147.67
   17:00:56.109.27-Aug-2021 4788.50 7535.75 83.15 18.00 259.94 3147.67
   17:00:56.309.27-Aug-2021 4788.50 7535.20 83.15 18.00 260.14 3147.67
   17:00:56.509.27-Aug-2021 4788.50 7535.39 83.15 18.00 260.34 3147.67
   17:00:56.708.27-Aug-2021 4788.50 7535.97 83.15 18.00 260.54 3147.67
   17:00:56.908.27-Aug-2021 4788.50 7534.86 83.15 18.00 260.74 3147.67
   17:00:57.108.27-Aug-2021 4788.50 7534.86 83.15 18.00 260.94 3147.67
   17:00:57.308.27-Aug-2021 4788.50 7532.48 83.15 18.00 261.14 3147.67
   17:00:57.508.27-Aug-2021 4788.50 7535.26 83.15 18.00 261.34 3147.67
   17:00:57.707.27-Aug-2021 4788.50 7536.24 83.15 18.00 261.54 3147.67
   17:00:57.907.27-Aug-2021 4788.50 7534.70 83.15 18.00 261.74 3147.67
   17:00:58.107.27-Aug-2021 4788.50 7534.70 83.15 18.00 261.94 3147.67
   17:00:58.307.27-Aug-2021 4788.50 7534.57 83.15 18.00 262.14 3147.67
   17:00:58.507.27-Aug-2021 4788.50 7534.84 83.15 18.00 262.34 3147.67
   17:00:58.706.27-Aug-2021 4788.50 7535.45 83.15 18.00 262.54 3147.67
   17:00:58.906.27-Aug-2021 4788.50 7535.03 83.15 18.00 262.74 3147.67
   17:00:59.106.27-Aug-2021 4788.50 7535.03 83.15 18.00 262.94 3147.67
   17:00:59.306.27-Aug-2021 4788.50 7535.38 83.15 18.00 263.14 3147.67
   17:00:59.506.27-Aug-2021 4788.50 7535.25 83.15 18.00 263.34 3147.67
   17:00:59.705.27-Aug-2021 4788.50 7535.24 83.15 18.00 263.54 3147.67
   17:00:59.905.27-Aug-2021 4788.50 7535.16 83.15 18.00 263.74 3147.67
   17:01:00.105.27-Aug-2021 4788.50 7535.16 83.15 18.00 263.94 3147.67
   17:01:00.305.27-Aug-2021 4788.50 7540.38 83.15 18.00 264.14 3147.67
   17:01:00.505.27-Aug-2021 4788.50 7532.54 83.15 18.00 264.34 3147.67
   17:01:00.704.27-Aug-2021 4788.50 7534.83 83.15 18.00 264.54 3147.67
   17:01:00.904.27-Aug-2021 4788.50 7535.88 83.15 18.00 264.74 3147.67
   17:01:01.104.27-Aug-2021 4788.50 7535.88 83.15 18.00 264.94 3147.67
   17:01:01.304.27-Aug-2021 4788.50 7534.72 83.15 18.00 265.14 3147.67
   17:01:01.504.27-Aug-2021 4788.50 7534.17 83.15 18.00 265.34 3147.67
   17:01:01.703.27-Aug-2021 4788.50 7534.66 83.15 18.00 265.53 3147.67
   17:01:01.903.27-Aug-2021 4788.50 7535.31 83.15 18.00 265.73 3147.67
   17:01:02.103.27-Aug-2021 4788.50 7535.31 83.15 18.00 265.93 3147.67
   17:01:02.303.27-Aug-2021 4788.50 7535.00 83.15 18.00 266.13 3147.67
   17:01:02.503.27-Aug-2021 4788.50 7535.46 83.15 18.00 266.33 3147.67
   17:01:02.702.27-Aug-2021 4788.50 7535.40 83.15 18.00 266.53 3147.67
   17:01:02.902.27-Aug-2021 4788.50 7535.34 83.15 18.00 266.73 3147.67
   17:01:03.102.27-Aug-2021 4788.50 7535.34 83.15 18.00 266.93 3147.67
   17:01:03.302.27-Aug-2021 4788.50 7535.20 83.15 18.00 267.13 3147.67
   17:01:03.502.27-Aug-2021 4788.50 7535.00 83.15 18.00 267.33 3147.67
   17:01:03.701.27-Aug-2021 4788.50 7539.44 83.15 18.00 267.53 3147.67
   17:01:03.901.27-Aug-2021 4788.50 7533.52 83.15 18.00 267.73 3147.67
   17:01:04.101.27-Aug-2021 4788.50 7533.52 83.15 18.00 267.93 3147.67
   17:01:04.301.27-Aug-2021 4788.50 7535.74 83.15 18.00 268.13 3147.67
   17:01:04.501.27-Aug-2021 4788.50 7535.01 83.15 18.00 268.33 3147.67
   17:01:04.700.27-Aug-2021 4788.50 7538.31 83.15 18.00 268.53 3147.67
   17:01:04.900.27-Aug-2021 4788.50 7533.72 83.15 18.00 268.73 3147.67
   17:01:05.100.27-Aug-2021 4788.50 7533.72 83.15 18.00 268.93 3147.67
   17:01:05.300.27-Aug-2021 4788.50 7535.86 83.15 18.00 269.13 3147.67
   17:01:05.500.27-Aug-2021 4788.50 7534.23 83.15 18.00 269.33 3147.67
   17:01:05.699.27-Aug-2021 4788.50 7534.83 83.15 18.00 269.53 3147.67
   17:01:05.899.27-Aug-2021 4788.50 7538.94 83.15 18.00 269.73 3147.67
   17:01:06.099.27-Aug-2021 4788.50 7538.94 83.15 18.00 269.93 3147.67
   17:01:06.299.27-Aug-2021 4788.50 7533.44 83.15 18.00 270.13 3147.67
   17:01:06.499.27-Aug-2021 4788.50 7535.67 83.15 18.00 270.33 3147.67
   17:01:06.698.27-Aug-2021 4788.50 7535.20 83.15 18.00 270.53 3147.67
   17:01:06.898.27-Aug-2021 4788.50 7534.89 83.15 18.00 270.73 3147.67
