~Version Information
 VERS.                  2.0:   CWLS log ASCII Standard -VERSION 2.0
 WRAP.                   NO:   One line per depth step
~Well Information Block
#MNEM.UNIT     VALUE/NAME     DESCRIPTION
#---------     -----------    ---------------------------
 STRT.S             11:29:40 27-Aug-21: START TIME 11:29:40 27-Aug-21
 STOP.S             11:36:51 27-Aug-21: STOP TIME  11:36:51 27-Aug-21
 STEP.S                   0.00: STEP TIME
 NULL.                 -999.25: NULL VALUE
 DFWT.                        :  DIST FWL TEXT
 DFST.                        :  DIST FSL TEXT
 DMF .             Drill Floor:  DRILL MEAS FROM
 STIM.      20.00.00 17-Aug-21:  START TIME
 DATE.      19.00.00 29-Aug-21:  END TIME
 SPUD.               15-Aug-21:  SPUD DATE
 NREF.                    Grid:  NORTH REFERENCE
 HPTY.       Minimum Curvature:  HOLE POS TYPE
 DMOD.             Drill Model:  DRILL MOD DESC
 SVYD.                  Survey:  SURVEY DESC
 ILTD.               Lithology:  INTERP LTH DESC
 FTOP.          Formation Tops:  FORM TOPS DESC
 RIG .              East Azeri:  RIG NAME
 PDAT.          Mean Sea Level:  PERMANENT DATUM
 FLD .                     ACG:  FIELD NAME
 SON .        AZ-XX-0907180857:  JOB NUMBER
 CTRY.              Azerbaijan:  COUNTRY NAME
 WELL.                    D23x:  WELL NAME
 SRVC.     Turan Drilling and Engineering:  CONTRACTOR
 COMP.     BP Exploration (Caspian Sea) Ltd.:  COMPANY
 UWI .            /AZE00000214:  UNIQUE WELL IDENTIFIER
 API .            /AZE00000214:  API NUMBER
 MDS .        Operator Entered:  MAG DATA SOURCE
 BASE.              Azerbaijan:  LOGGING EQUIPMENT BASE LOCATION
 REGN.                   EESSA:  REGION
 PROV.                    Baku:  PROVINCE
 STAT.                    Baku:  STATE NAME
 MWDS.                    Baku:  MWD SHOP
 DOE .                     N/A:  DOE NUMBER
 DCON.         Sperry Drilling:  DIRECTNL CONTR
 UNIT.                     N/A:  LOGGING EQUIPMENT ID
 WTYP.                Deviated:  WELL TYPE
 CNTY.                        :  COUNTY
 LOC .                        :  LOCATION
 LMF .             Drill Floor:  LOG MEASURED FROM
 TVDS.m                  43.60:  TVDSS CORRECTN
 LATI.deg                40.02:  LATITUDE
 LONG.deg                51.45:  LONGITUDE
 WHNS.m                  -7.04:  WELL HEAD N/S
 WHEW.m                  -0.67:  WELL HEAD E/W
 UTMX.m              538762.90:  UTM X
 UTMY.m             4431871.34:  UTM Y
 DFWL.m                   0.00:  DISTANCE FWL
 DFSL.m                   0.00:  DISTANCE FSL
 SDEP.m                4127.00:  START DEPTH
 TDD .m                5084.50:  TOTAL DEPTH (DRILLER)
 VSDR.deg               140.47:  VERT SEC DIRECT
 GVFD.g                   1.00:  GRAVITY FIELD
 MFLD.nT              50362.00:  MAGNETIC FIELD
 MDIP.deg                59.48:  MAGNETIC DIP
 MDEC.deg                 6.47:  MAGNETIC DECL
 GRDC.deg                 0.31:  GRID CORRECTION
 AZTC.deg                 6.16:  AZM TOTAL CORR
 EPD .m                   0.00:  ELEVATION
 EGL .m                   0.00:  GROUND ELEVATION
 WDMS.m                 151.80:  WD ELEV
 APD .m                  43.60:  DEPTH ABOVE PD
 DEP .m                4092.57:  DEPTH
 AGAP.m                  43.60:  AIR GAP
 VSEW.m                  -0.67:  VERT SEC E/W
 VSNS.m                  -7.04:  VERT SEC N/S
 EKB .m                  43.60:  KB ELEVATION
 EDF .m                  43.60:  DF ELEVATION
 TDL .m                 957.50:  TOTAL DEPTH (LOGGER)
 VSC .                       0:  VS TO CLOSURE
 MAGU.                 1851413:  MAGUTM CHECKSUM
~Parameter Information Block
#MNEM.UNIT       Value        Description
#---------     -----------    ---------------------------
 AV  .mps                 1.50:  Ann Velocity 
 AVMX.mps                 2.00:  Max Ann Veloc 
 AZIF.deg               184.66:  Azm, Final 
 BHAT.        Rotary Steerable:  BHA Type 
 BREV.rev               300.00:  Rev Bit Total 
 BROT.°/30m              -0.50:  Build Rotating 
 BS  .in                  8.50:  Bit Size 
 BSZ .in                  8.50:  Bit Size 
 BTPL.psig              370.00:  Bit Press Loss 
 CABU.                      No:  Customer Abuse 
 CGEO.      Behruz Shahbaliyev:  Customer Geo 
 COMM.                     ,A[:  Run Comments 1 
 TCS .hr                140.08:  Time Ciculation Ended 
 CV  .mps                 3.00:  Crit Velocity 
 CVMX.mps                 3.20:  Max Crit Veloc 
 DD1 .            Musa Ahmadov:  Direct Drillr 1 
 DD2 .           Hamid Ahmadov:  Direct Drillr 2 
 DDSV.               Geo-Pilot:  DD Service 
 DEFF.%                  98.40:  % Det Eff 
 DLRX.°/30m               3.40:  Dogleg Rot Max 
 DLSO.°/30m               1.45:  Dogleg Oriented 
 DLSX.°/30m               3.40:  Dogleg Str Max 
 DRET.      18.40.00 29-Aug-21:  Drill End Time 
 DRST.      21.00.00 20-Aug-21:  Drill Start Tim 
 DTIM.hr                 69.47:  Time Drilling 
 EDEP.m                5084.50:  End Depth 
 ENG1.      Artemiy Matviyanov:  Engineer 1 
 ENG2.         Almaz Almadatov:  Engineer 2 
 ETIM.      18.40.00 29-Aug-21:  End Time 
 FLOI.gpm               500.00:  Flow In 
 FLON.gpm               400.00:  Flow In Min 
 FLOS.cptm                0.00:  Fluid Loss 
 FLOX.gpm               500.00:  Flow In Max 
 DFT .        Mineral Oil Base:  Mud Type 
 HFLO.                      No:  High Flow 
 HPRE.                      No:  High Pressure 
 HTEM.                      No:  High Temp 
 HYDO.m                   1.80:  Hydro Offset 
 IFIN.deg                25.62:  Inc, Final 
 IMAX.deg                48.69:  Inc Max 
 IMIN.deg                24.01:  Inc Min 
 IMND.m                4962.57:  Inc Min Depth 
 IMXD.m                4119.01:  Inc Max Depth 
 JARR.                      No:  Jarring 
 LETM.      18.40.00 29-Aug-21:  Log End Time 
 LOST.hr                     0:  Lost Rig Time 
 LSTM.      21.00.00 20-Aug-21:  Log Start Time 
 MDCL.ppm             41500.00:  Mud Chlorides 
 MDES.     Inversion Oil/Synthetic:  Mud Desc 
 DFD .sg                  1.56:  Mud Density 
 MDMN.sg                  1.56:  Dens Mud Min 
 MDMX.sg                  1.56:  Dens Mud Max 
 MOIL.                      70:  Run Mud Oil % 
 MOWR.                   70:30:  Run Mud OWR 
 MSND.                     0.2:  Run Mud Sand % 
 MSOL.                    23.3:  Run Mud Solids% 
 DFV .spqt               78.00:  Mud Viscosity 
 MWOD.in                  6.75:  MWD Tool OD 
 MWSI.                      No:  Serv Intrp, MWD 
 OTIM.hr                218.30:  Time Operating 
 PCON.           Look Like New:  Pad Condition 
 PMAX.psia            11015.30:  Press Op, Max 
 PV  .cP                 38.00:  Mud PV 
 RUN .                     300:  Run Number 
 ROPA.m/hr               15.00:  ROP Avg 
 ROPN.m/hr                9.00:  ROP Min 
 ROPX.m/hr               17.00:  ROP Max 
 RPMA.rpm               120.00:  RPM Surface Avg 
 RPMN.rpm                90.00:  RPM Surface Min 
 RPMX.rpm               140.00:  RPM Surface Max 
 RRUN.                     300:  Rig Run Number 
 RTIM.hr                 31.53:  Time Reaming 
 SAZI.deg               331.64:  Azm, Start 
 SDEP.m                4127.00:  Start Depth 
 SIDD.                      No:  Serv Intrp, DD 
 SINC.deg                48.43:  Inc, Start 
 SPPA.psig             5830.00:  SPP Avg 
 SPPN.psig             5600.00:  SPP Min 
 SPPX.psig             5900.00:  SPP Max 
 STIM.      21.00.00 20-Aug-21:  Start Time 
 SVCS.                 DD, MWD:  Services 
 SVER.                    9.20:  Sperry Version 
 TDAT.m                 957.50:  Tot Depth Attmp 
 TDDF.                      No:  Trip for DD 
 TDLG.m                 957.50:  Tot Depth Loggd 
 TFF .                      No:  Trip for Fail 
 TQAA.f-kp               15.00:  Torque Abs Avg 
 TQAN.f-kp               12.00:  Torque Abs Min 
 TQAX.f-kp               19.00:  Torque Abs Max 
 TRRT.°/30m              -3.40:  Turn Rotating 
 MRT .                  EWR-M5:  Maximum Recorded Temperature 
 TTMX.degC              100.00:  Max Tool Temp 
 VS01.                90639251:  Virtual Str1 SN 
 VS02.                90634715:  Virtual Str2 SN 
 VS03.                90652479:  Virtual Str3 SN 
 VS04.                90642262:  Virtual Str4 SN 
 WBMN.klb                 0.00:  WOB Min 
 WITN.           Murad Guliyev:  Customer Rep 
 WITN.          Yashar Gaziyev:  Customer Rep 2 
 WOBA.klb                 9.00:  WOB Avg 
 WOBX.klb                12.00:  WOB Max 
 YP  .lhf2               30.00:  Yield Point 
~Curve Information Block
#MNEM.UNIT                 API CODE     Curve Description
#---------               -----------    ---------------------------
 TIME.HHMMSS            00 000 000 000:  GT Time & Date
 GTDEPTH.m              00 000 000 000:  GT Depth
 GTPQH.psia             00 000 000 000:  GT HR Quartz Pressure
 GTTQ.degC              00 000 000 000:  GT Quartz Temperature
 GTTN.NONE              00 000 000 000:  GT Test Number
 GTET.sec               00 000 000 000:  GT Elapsed Test Time
 GTTVD.m                00 000 000 000:  GT True Vertical Depth
#Other Information
#
#WARRANTY: Halliburton will use its best efforts to furnish customers with 
#accurate information and interpretations that are part of, and incident to, the services 
#provided.  However, Halliburton cannot and does not warrant the accuracy 
#or correctness of such information and interpretations.  Under no circumstances should any 
#such information or interpretation be relied upon as the sole basis for any drilling, 
#completion, production, or financial decision or any procedure involving any risk to the 
#safety of any drilling venture, drilling rig or its crew or any other third party.  The 
#Customer has full responsibility for all drilling, completion and production operation.  
#Halliburton makes no representations or warranties, either expressed or 
#implied, including, but not limited to, the implied warranties of merchantability or fitness 
#for a particular purpose, with respect to the services rendered.  In no event will 
#Halliburton be liable for failure to obtain any particular results or for 
#any damages, including, but not limited to, indirect, special or consequential damages, 
#resulting from the use of any information or interpretation provided by Halliburton.
#
~A           TIME           GTDEPTH  GTPQH  GTTQ  GTTN   GTET   GTTVD  
# ...
   11:30:25.454.27-Aug-2021 4925.00 7240.06 85.63 10.00  45.22 3271.33
   11:30:25.654.27-Aug-2021 4925.00 7303.45 85.63 10.00  45.42 3271.33
   11:30:25.854.27-Aug-2021 4925.00 7389.88 85.63 10.00  45.62 3271.33
   11:30:26.054.27-Aug-2021 4925.00 7349.37 85.63 10.00  45.82 3271.33
   11:30:26.254.27-Aug-2021 4925.00 7260.93 85.63 10.00  46.02 3271.33
   11:30:26.454.27-Aug-2021 4925.00 7260.93 85.63 10.00  46.22 3271.33
   11:30:26.654.27-Aug-2021 4925.00 7107.12 85.63 10.00  46.42 3271.33
   11:30:26.854.27-Aug-2021 4925.00 7035.36 85.63 10.00  46.62 3271.33
   11:30:27.054.27-Aug-2021 4925.00 6962.73 85.63 10.00  46.82 3271.33
   11:30:27.254.27-Aug-2021 4925.00 6885.24 85.62 10.00  47.02 3271.33
   11:30:27.454.27-Aug-2021 4925.00 6885.24 85.62 10.00  47.22 3271.33
   11:30:27.655.27-Aug-2021 4925.00 6885.24 85.62 10.00  47.42 3271.33
   11:30:27.855.27-Aug-2021 4925.00 6688.10 85.62 10.00  47.62 3271.33
   11:30:28.055.27-Aug-2021 4925.00 6630.98 85.62 10.00  47.82 3271.33
   11:30:28.255.27-Aug-2021 4925.00 6603.48 85.62 10.00  48.02 3271.33
   11:30:28.455.27-Aug-2021 4925.00 6603.48 85.62 10.00  48.22 3271.33
   11:30:28.655.27-Aug-2021 4925.00 6555.97 85.62 10.00  48.42 3271.33
   11:30:28.855.27-Aug-2021 4925.00 6507.86 85.62 10.00  48.62 3271.33
   11:30:29.055.27-Aug-2021 4925.00 6396.64 85.62 10.00  48.82 3271.33
   11:30:29.255.27-Aug-2021 4925.00 6242.96 85.62 10.00  49.02 3271.33
   11:30:29.455.27-Aug-2021 4925.00 6242.96 85.62 10.00  49.22 3271.33
   11:30:29.655.27-Aug-2021 4925.00 5940.14 85.61 10.00  49.42 3271.33
   11:30:29.855.27-Aug-2021 4925.00 5824.05 85.61 10.00  49.62 3271.33
   11:30:30.055.27-Aug-2021 4925.00 5753.37 85.61 10.00  49.82 3271.33
   11:30:30.255.27-Aug-2021 4925.00 5711.57 85.61 10.00  50.02 3271.33
   11:30:30.456.27-Aug-2021 4925.00 5711.57 85.61 10.00  50.22 3271.33
   11:30:30.656.27-Aug-2021 4925.00 5657.97 85.61 10.00  50.42 3271.33
   11:30:30.856.27-Aug-2021 4925.00 5639.03 85.61 10.00  50.62 3271.33
   11:30:31.056.27-Aug-2021 4925.00 5629.28 85.61 10.00  50.82 3271.33
   11:30:31.256.27-Aug-2021 4925.00 5623.02 85.60 10.00  51.02 3271.33
   11:30:31.456.27-Aug-2021 4925.00 5623.02 85.60 10.00  51.22 3271.33
   11:30:31.656.27-Aug-2021 4925.00 5614.35 85.60 10.00  51.42 3271.33
   11:30:31.856.27-Aug-2021 4925.00 5610.84 85.60 10.00  51.62 3271.33
   11:30:32.056.27-Aug-2021 4925.00 5611.41 85.60 10.00  51.82 3271.33
   11:30:32.256.27-Aug-2021 4925.00 5613.30 85.60 10.00  52.02 3271.33
   11:30:32.456.27-Aug-2021 4925.00 5613.30 85.60 10.00  52.22 3271.33
   11:30:32.656.27-Aug-2021 4925.00 5617.76 85.60 10.00  52.42 3271.33
   11:30:32.856.27-Aug-2021 4925.00 5619.49 85.59 10.00  52.62 3271.33
   11:30:33.056.27-Aug-2021 4925.00 5621.65 85.59 10.00  52.82 3271.33
   11:30:33.257.27-Aug-2021 4925.00 5623.55 85.59 10.00  53.02 3271.33
   11:30:33.457.27-Aug-2021 4925.00 5623.55 85.59 10.00  53.22 3271.33
   11:30:33.657.27-Aug-2021 4925.00 5626.33 85.59 10.00  53.42 3271.33
   11:30:33.857.27-Aug-2021 4925.00 5628.96 85.59 10.00  53.62 3271.33
   11:30:34.057.27-Aug-2021 4925.00 5606.55 85.59 10.00  53.82 3271.33
   11:30:34.257.27-Aug-2021 4925.00 5440.28 85.58 10.00  54.02 3271.33
   11:30:34.457.27-Aug-2021 4925.00 5440.28 85.58 10.00  54.22 3271.33
   11:30:34.657.27-Aug-2021 4925.00 4673.68 85.58 10.00  54.42 3271.33
   11:30:34.857.27-Aug-2021 4925.00 4686.78 85.58 10.00  54.62 3271.33
   11:30:35.057.27-Aug-2021 4925.00 4692.08 85.58 10.00  54.82 3271.33
   11:30:35.257.27-Aug-2021 4925.00 4695.04 85.58 10.00  55.02 3271.33
   11:30:35.457.27-Aug-2021 4925.00 4695.04 85.58 10.00  55.22 3271.33
   11:30:35.657.27-Aug-2021 4925.00 4695.04 85.58 10.00  55.42 3271.33
   11:30:35.857.27-Aug-2021 4925.00 4695.00 85.57 10.00  55.62 3271.33
   11:30:36.058.27-Aug-2021 4925.00 4695.52 85.57 10.00  55.82 3271.33
   11:30:36.258.27-Aug-2021 4925.00 4695.50 85.57 10.00  56.02 3271.33
   11:30:36.458.27-Aug-2021 4925.00 4695.50 85.57 10.00  56.22 3271.33
   11:30:36.658.27-Aug-2021 4925.00 4695.34 85.57 10.00  56.42 3271.33
   11:30:36.858.27-Aug-2021 4925.00 4696.20 85.57 10.00  56.62 3271.33
   11:30:37.058.27-Aug-2021 4925.00 4695.05 85.57 10.00  56.82 3271.33
   11:30:37.258.27-Aug-2021 4925.00 4696.79 85.56 10.00  57.02 3271.33
   11:30:37.458.27-Aug-2021 4925.00 4696.79 85.56 10.00  57.22 3271.33
   11:30:37.658.27-Aug-2021 4925.00 4697.11 85.56 10.00  57.42 3271.33
   11:30:37.858.27-Aug-2021 4925.00 4696.39 85.56 10.00  57.62 3271.33
   11:30:38.058.27-Aug-2021 4925.00 4696.95 85.56 10.00  57.82 3271.33
   11:30:38.258.27-Aug-2021 4925.00 4698.22 85.56 10.00  58.02 3271.33
   11:30:38.458.27-Aug-2021 4925.00 4698.22 85.56 10.00  58.22 3271.33
   11:30:38.658.27-Aug-2021 4925.00 4698.18 85.56 10.00  58.42 3271.33
   11:30:38.859.27-Aug-2021 4925.00 4699.67 85.56 10.00  58.62 3271.33
   11:30:39.059.27-Aug-2021 4925.00 4698.83 85.55 10.00  58.82 3271.33
   11:30:39.259.27-Aug-2021 4925.00 4700.41 85.55 10.00  59.02 3271.33
   11:30:39.459.27-Aug-2021 4925.00 4700.41 85.55 10.00  59.22 3271.33
   11:30:39.659.27-Aug-2021 4925.00 4700.65 85.55 10.00  59.42 3271.33
   11:30:39.859.27-Aug-2021 4925.00 4701.62 85.55 10.00  59.62 3271.33
   11:30:40.059.27-Aug-2021 4925.00 4700.70 85.55 10.00  59.82 3271.33
   11:30:40.259.27-Aug-2021 4925.00 4702.79 85.55 10.00  60.02 3271.33
   11:30:40.459.27-Aug-2021 4925.00 4702.79 85.55 10.00  60.22 3271.33
   11:30:40.659.27-Aug-2021 4925.00 4703.60 85.55 10.00  60.42 3271.33
   11:30:40.859.27-Aug-2021 4925.00 4702.28 85.55 10.00  60.62 3271.33
   11:30:41.059.27-Aug-2021 4925.00 4702.78 85.55 10.00  60.82 3271.33
   11:30:41.259.27-Aug-2021 4925.00 4703.63 85.55 10.00  61.02 3271.33
   11:30:41.459.27-Aug-2021 4925.00 4703.63 85.55 10.00  61.22 3271.33
   11:30:41.660.27-Aug-2021 4925.00 4705.01 85.54 10.00  61.42 3271.33
   11:30:41.860.27-Aug-2021 4925.00 4704.80 85.54 10.00  61.62 3271.33
   11:30:42.060.27-Aug-2021 4925.00 4704.09 85.54 10.00  61.82 3271.33
   11:30:42.260.27-Aug-2021 4925.00 4705.94 85.54 10.00  62.02 3271.33
   11:30:42.460.27-Aug-2021 4925.00 4705.94 85.54 10.00  62.22 3271.33
   11:30:42.660.27-Aug-2021 4925.00 4707.19 85.54 10.00  62.42 3271.33
   11:30:42.860.27-Aug-2021 4925.00 4707.76 85.54 10.00  62.62 3271.33
   11:30:43.060.27-Aug-2021 4925.00 4707.51 85.54 10.00  62.82 3271.33
   11:30:43.260.27-Aug-2021 4925.00 4706.75 85.54 10.00  63.02 3271.33
   11:30:43.460.27-Aug-2021 4925.00 4706.75 85.54 10.00  63.22 3271.33
   11:30:43.660.27-Aug-2021 4925.00 4709.22 85.54 10.00  63.42 3271.33
   11:30:43.860.27-Aug-2021 4925.00 4708.58 85.54 10.00  63.62 3271.33
   11:30:44.060.27-Aug-2021 4925.00 4740.17 85.54 10.00  63.82 3271.33
   11:30:44.260.27-Aug-2021 4925.00 4807.99 85.54 10.00  64.02 3271.33
   11:30:44.461.27-Aug-2021 4925.00 4807.99 85.54 10.00  64.22 3271.33
   11:30:44.661.27-Aug-2021 4925.00 4810.12 85.54 10.00  64.42 3271.33
   11:30:44.861.27-Aug-2021 4925.00 4810.30 85.54 10.00  64.62 3271.33
   11:30:45.061.27-Aug-2021 4925.00 4810.48 85.54 10.00  64.82 3271.33
   11:30:45.261.27-Aug-2021 4925.00 4810.63 85.54 10.00  65.02 3271.33
   11:30:45.461.27-Aug-2021 4925.00 4810.63 85.54 10.00  65.22 3271.33
   11:30:45.661.27-Aug-2021 4925.00 4810.88 85.54 10.00  65.42 3271.33
   11:30:45.861.27-Aug-2021 4925.00 4811.00 85.54 10.00  65.62 3271.33
   11:30:46.061.27-Aug-2021 4925.00 4811.08 85.54 10.00  65.82 3271.33
   11:30:46.261.27-Aug-2021 4925.00 4810.86 85.54 10.00  66.02 3271.33
   11:30:46.461.27-Aug-2021 4925.00 4810.86 85.54 10.00  66.22 3271.33
   11:30:46.661.27-Aug-2021 4925.00 4811.02 85.54 10.00  66.42 3271.33
   11:30:46.861.27-Aug-2021 4925.00 4811.15 85.54 10.00  66.62 3271.33
   11:30:47.061.27-Aug-2021 4925.00 4811.26 85.54 10.00  66.82 3271.33
   11:30:47.262.27-Aug-2021 4925.00 4811.34 85.54 10.00  67.02 3271.33
   11:30:47.462.27-Aug-2021 4925.00 4811.34 85.54 10.00  67.22 3271.33
   11:30:47.662.27-Aug-2021 4925.00 4811.46 85.54 10.00  67.42 3271.33
   11:30:47.862.27-Aug-2021 4925.00 4811.51 85.54 10.00  67.62 3271.33
