~Version Information
 VERS.                  2.0:   CWLS log ASCII Standard -VERSION 2.0
 WRAP.                   NO:   One line per depth step
~Well Information Block
#MNEM.UNIT     VALUE/NAME     DESCRIPTION
#---------     -----------    ---------------------------
 STRT.S             21:24:04 27-Aug-21: START TIME 21:24:04 27-Aug-21
 STOP.S             21:30:54 27-Aug-21: STOP TIME  21:30:54 27-Aug-21
 STEP.S                   0.00: STEP TIME
 NULL.                 -999.25: NULL VALUE
 DFWT.                        :  DIST FWL TEXT
 DFST.                        :  DIST FSL TEXT
 DMF .             Drill Floor:  DRILL MEAS FROM
 STIM.      20.00.00 17-Aug-21:  START TIME
 DATE.      19.00.00 29-Aug-21:  END TIME
 SPUD.               15-Aug-21:  SPUD DATE
 NREF.                    Grid:  NORTH REFERENCE
 HPTY.       Minimum Curvature:  HOLE POS TYPE
 DMOD.             Drill Model:  DRILL MOD DESC
 SVYD.                  Survey:  SURVEY DESC
 ILTD.               Lithology:  INTERP LTH DESC
 FTOP.          Formation Tops:  FORM TOPS DESC
 RIG .              East Azeri:  RIG NAME
 PDAT.          Mean Sea Level:  PERMANENT DATUM
 FLD .                     ACG:  FIELD NAME
 SON .        AZ-XX-0907180857:  JOB NUMBER
 CTRY.              Azerbaijan:  COUNTRY NAME
 WELL.                    D23x:  WELL NAME
 SRVC.     Turan Drilling and Engineering:  CONTRACTOR
 COMP.     BP Exploration (Caspian Sea) Ltd.:  COMPANY
 UWI .            /AZE00000214:  UNIQUE WELL IDENTIFIER
 API .            /AZE00000214:  API NUMBER
 MDS .        Operator Entered:  MAG DATA SOURCE
 BASE.              Azerbaijan:  LOGGING EQUIPMENT BASE LOCATION
 REGN.                   EESSA:  REGION
 PROV.                    Baku:  PROVINCE
 STAT.                    Baku:  STATE NAME
 MWDS.                    Baku:  MWD SHOP
 DOE .                     N/A:  DOE NUMBER
 DCON.         Sperry Drilling:  DIRECTNL CONTR
 UNIT.                     N/A:  LOGGING EQUIPMENT ID
 WTYP.                Deviated:  WELL TYPE
 CNTY.                        :  COUNTY
 LOC .                        :  LOCATION
 LMF .             Drill Floor:  LOG MEASURED FROM
 TVDS.m                  43.60:  TVDSS CORRECTN
 LATI.deg                40.02:  LATITUDE
 LONG.deg                51.45:  LONGITUDE
 WHNS.m                  -7.04:  WELL HEAD N/S
 WHEW.m                  -0.67:  WELL HEAD E/W
 UTMX.m              538762.90:  UTM X
 UTMY.m             4431871.34:  UTM Y
 DFWL.m                   0.00:  DISTANCE FWL
 DFSL.m                   0.00:  DISTANCE FSL
 SDEP.m                4127.00:  START DEPTH
 TDD .m                5084.50:  TOTAL DEPTH (DRILLER)
 VSDR.deg               140.47:  VERT SEC DIRECT
 GVFD.g                   1.00:  GRAVITY FIELD
 MFLD.nT              50362.00:  MAGNETIC FIELD
 MDIP.deg                59.48:  MAGNETIC DIP
 MDEC.deg                 6.47:  MAGNETIC DECL
 GRDC.deg                 0.31:  GRID CORRECTION
 AZTC.deg                 6.16:  AZM TOTAL CORR
 EPD .m                   0.00:  ELEVATION
 EGL .m                   0.00:  GROUND ELEVATION
 WDMS.m                 151.80:  WD ELEV
 APD .m                  43.60:  DEPTH ABOVE PD
 DEP .m                4092.57:  DEPTH
 AGAP.m                  43.60:  AIR GAP
 VSEW.m                  -0.67:  VERT SEC E/W
 VSNS.m                  -7.04:  VERT SEC N/S
 EKB .m                  43.60:  KB ELEVATION
 EDF .m                  43.60:  DF ELEVATION
 TDL .m                 957.50:  TOTAL DEPTH (LOGGER)
 VSC .                       0:  VS TO CLOSURE
 MAGU.                 1851413:  MAGUTM CHECKSUM
~Parameter Information Block
#MNEM.UNIT       Value        Description
#---------     -----------    ---------------------------
 AV  .mps                 1.50:  Ann Velocity 
 AVMX.mps                 2.00:  Max Ann Veloc 
 AZIF.deg               184.66:  Azm, Final 
 BHAT.        Rotary Steerable:  BHA Type 
 BREV.rev               300.00:  Rev Bit Total 
 BROT.°/30m              -0.50:  Build Rotating 
 BS  .in                  8.50:  Bit Size 
 BSZ .in                  8.50:  Bit Size 
 BTPL.psig              370.00:  Bit Press Loss 
 CABU.                      No:  Customer Abuse 
 CGEO.      Behruz Shahbaliyev:  Customer Geo 
 COMM.                     tºv:  Run Comments 1 
 TCS .hr                140.08:  Time Ciculation Ended 
 CV  .mps                 3.00:  Crit Velocity 
 CVMX.mps                 3.20:  Max Crit Veloc 
 DD1 .            Musa Ahmadov:  Direct Drillr 1 
 DD2 .           Hamid Ahmadov:  Direct Drillr 2 
 DDSV.               Geo-Pilot:  DD Service 
 DEFF.%                  98.40:  % Det Eff 
 DLRX.°/30m               3.40:  Dogleg Rot Max 
 DLSO.°/30m               1.45:  Dogleg Oriented 
 DLSX.°/30m               3.40:  Dogleg Str Max 
 DRET.      18.40.00 29-Aug-21:  Drill End Time 
 DRST.      21.00.00 20-Aug-21:  Drill Start Tim 
 DTIM.hr                 69.47:  Time Drilling 
 EDEP.m                5084.50:  End Depth 
 ENG1.      Artemiy Matviyanov:  Engineer 1 
 ENG2.         Almaz Almadatov:  Engineer 2 
 ETIM.      18.40.00 29-Aug-21:  End Time 
 FLOI.gpm               500.00:  Flow In 
 FLON.gpm               400.00:  Flow In Min 
 FLOS.cptm                0.00:  Fluid Loss 
 FLOX.gpm               500.00:  Flow In Max 
 DFT .        Mineral Oil Base:  Mud Type 
 HFLO.                      No:  High Flow 
 HPRE.                      No:  High Pressure 
 HTEM.                      No:  High Temp 
 HYDO.m                   1.80:  Hydro Offset 
 IFIN.deg                25.62:  Inc, Final 
 IMAX.deg                48.69:  Inc Max 
 IMIN.deg                24.01:  Inc Min 
 IMND.m                4962.57:  Inc Min Depth 
 IMXD.m                4119.01:  Inc Max Depth 
 JARR.                      No:  Jarring 
 LETM.      18.40.00 29-Aug-21:  Log End Time 
 LOST.hr                     0:  Lost Rig Time 
 LSTM.      21.00.00 20-Aug-21:  Log Start Time 
 MDCL.ppm             41500.00:  Mud Chlorides 
 MDES.     Inversion Oil/Synthetic:  Mud Desc 
 DFD .sg                  1.56:  Mud Density 
 MDMN.sg                  1.56:  Dens Mud Min 
 MDMX.sg                  1.56:  Dens Mud Max 
 MOIL.                      70:  Run Mud Oil % 
 MOWR.                   70:30:  Run Mud OWR 
 MSND.                     0.2:  Run Mud Sand % 
 MSOL.                    23.3:  Run Mud Solids% 
 DFV .spqt               78.00:  Mud Viscosity 
 MWOD.in                  6.75:  MWD Tool OD 
 MWSI.                      No:  Serv Intrp, MWD 
 OTIM.hr                218.30:  Time Operating 
 PCON.           Look Like New:  Pad Condition 
 PMAX.psia            11015.30:  Press Op, Max 
 PV  .cP                 38.00:  Mud PV 
 RUN .                     300:  Run Number 
 ROPA.m/hr               15.00:  ROP Avg 
 ROPN.m/hr                9.00:  ROP Min 
 ROPX.m/hr               17.00:  ROP Max 
 RPMA.rpm               120.00:  RPM Surface Avg 
 RPMN.rpm                90.00:  RPM Surface Min 
 RPMX.rpm               140.00:  RPM Surface Max 
 RRUN.                     300:  Rig Run Number 
 RTIM.hr                 31.53:  Time Reaming 
 SAZI.deg               331.64:  Azm, Start 
 SDEP.m                4127.00:  Start Depth 
 SIDD.                      No:  Serv Intrp, DD 
 SINC.deg                48.43:  Inc, Start 
 SPPA.psig             5830.00:  SPP Avg 
 SPPN.psig             5600.00:  SPP Min 
 SPPX.psig             5900.00:  SPP Max 
 STIM.      21.00.00 20-Aug-21:  Start Time 
 SVCS.                 DD, MWD:  Services 
 SVER.                    9.20:  Sperry Version 
 TDAT.m                 957.50:  Tot Depth Attmp 
 TDDF.                      No:  Trip for DD 
 TDLG.m                 957.50:  Tot Depth Loggd 
 TFF .                      No:  Trip for Fail 
 TQAA.f-kp               15.00:  Torque Abs Avg 
 TQAN.f-kp               12.00:  Torque Abs Min 
 TQAX.f-kp               19.00:  Torque Abs Max 
 TRRT.°/30m              -3.40:  Turn Rotating 
 MRT .                  EWR-M5:  Maximum Recorded Temperature 
 TTMX.degC              100.00:  Max Tool Temp 
 VS01.                90639251:  Virtual Str1 SN 
 VS02.                90634715:  Virtual Str2 SN 
 VS03.                90652479:  Virtual Str3 SN 
 VS04.                90642262:  Virtual Str4 SN 
 WBMN.klb                 0.00:  WOB Min 
 WITN.           Murad Guliyev:  Customer Rep 
 WITN.          Yashar Gaziyev:  Customer Rep 2 
 WOBA.klb                 9.00:  WOB Avg 
 WOBX.klb                12.00:  WOB Max 
 YP  .lhf2               30.00:  Yield Point 
~Curve Information Block
#MNEM.UNIT                 API CODE     Curve Description
#---------               -----------    ---------------------------
 TIME.HHMMSS            00 000 000 000:  GT Time & Date
 GTDEPTH.m              00 000 000 000:  GT Depth
 GTPQH.psia             00 000 000 000:  GT HR Quartz Pressure
 GTTQ.degC              00 000 000 000:  GT Quartz Temperature
 GTTN.NONE              00 000 000 000:  GT Test Number
 GTET.sec               00 000 000 000:  GT Elapsed Test Time
 GTTVD.m                00 000 000 000:  GT True Vertical Depth
#Other Information
#
#WARRANTY: Halliburton will use its best efforts to furnish customers with 
#accurate information and interpretations that are part of, and incident to, the services 
#provided.  However, Halliburton cannot and does not warrant the accuracy 
#or correctness of such information and interpretations.  Under no circumstances should any 
#such information or interpretation be relied upon as the sole basis for any drilling, 
#completion, production, or financial decision or any procedure involving any risk to the 
#safety of any drilling venture, drilling rig or its crew or any other third party.  The 
#Customer has full responsibility for all drilling, completion and production operation.  
#Halliburton makes no representations or warranties, either expressed or 
#implied, including, but not limited to, the implied warranties of merchantability or fitness 
#for a particular purpose, with respect to the services rendered.  In no event will 
#Halliburton be liable for failure to obtain any particular results or for 
#any damages, including, but not limited to, indirect, special or consequential damages, 
#resulting from the use of any information or interpretation provided by Halliburton.
#
~A           TIME           GTDEPTH  GTPQH  GTTQ  GTTN   GTET   GTTVD  
# ...
   21:27:05.070.27-Aug-2021 4641.00 1218.43 82.40 23.00 180.82 3014.10
   21:27:05.270.27-Aug-2021 4641.00 1218.44 82.40 23.00 181.02 3014.10
   21:27:05.470.27-Aug-2021 4641.00 1218.44 82.40 23.00 181.22 3014.10
   21:27:05.670.27-Aug-2021 4641.00 1218.78 82.40 23.00 181.42 3014.10
   21:27:05.870.27-Aug-2021 4641.00 1218.93 82.40 23.00 181.62 3014.10
   21:27:06.071.27-Aug-2021 4641.00 1219.10 82.40 23.00 181.82 3014.10
   21:27:06.271.27-Aug-2021 4641.00 1218.39 82.40 23.00 182.02 3014.10
   21:27:06.471.27-Aug-2021 4641.00 1218.39 82.40 23.00 182.22 3014.10
   21:27:06.671.27-Aug-2021 4641.00 1219.13 82.40 23.00 182.42 3014.10
   21:27:06.871.27-Aug-2021 4641.00 1219.28 82.40 23.00 182.62 3014.10
   21:27:07.071.27-Aug-2021 4641.00 1218.83 82.40 23.00 182.82 3014.10
   21:27:07.271.27-Aug-2021 4641.00 1219.29 82.40 23.00 183.02 3014.10
   21:27:07.471.27-Aug-2021 4641.00 1219.29 82.40 23.00 183.22 3014.10
   21:27:07.671.27-Aug-2021 4641.00 1219.56 82.40 23.00 183.42 3014.10
   21:27:07.871.27-Aug-2021 4641.00 1219.69 82.40 23.00 183.62 3014.10
   21:27:08.071.27-Aug-2021 4641.00 1219.76 82.40 23.00 183.82 3014.10
   21:27:08.271.27-Aug-2021 4641.00 1219.46 82.40 23.00 184.02 3014.10
   21:27:08.471.27-Aug-2021 4641.00 1219.46 82.40 23.00 184.22 3014.10
   21:27:08.671.27-Aug-2021 4641.00 1220.20 82.40 23.00 184.42 3014.10
   21:27:08.871.27-Aug-2021 4641.00 1220.31 82.40 23.00 184.62 3014.10
   21:27:09.071.27-Aug-2021 4641.00 1220.49 82.40 23.00 184.82 3014.10
   21:27:09.271.27-Aug-2021 4641.00 1220.69 82.40 23.00 185.02 3014.10
   21:27:09.471.27-Aug-2021 4641.00 1220.69 82.40 23.00 185.22 3014.10
   21:27:09.671.27-Aug-2021 4641.00 1220.97 82.40 23.00 185.42 3014.10
   21:27:09.871.27-Aug-2021 4641.00 1221.12 82.40 23.00 185.62 3014.10
   21:27:10.071.27-Aug-2021 4641.00 1221.29 82.40 23.00 185.82 3014.10
   21:27:10.271.27-Aug-2021 4641.00 1221.45 82.40 23.00 186.02 3014.10
   21:27:10.471.27-Aug-2021 4641.00 1221.45 82.40 23.00 186.22 3014.10
   21:27:10.671.27-Aug-2021 4641.00 1221.79 82.40 23.00 186.42 3014.10
   21:27:10.871.27-Aug-2021 4641.00 1221.98 82.40 23.00 186.62 3014.10
   21:27:11.071.27-Aug-2021 4641.00 1222.15 82.40 23.00 186.82 3014.10
   21:27:11.271.27-Aug-2021 4641.00 1221.70 82.40 23.00 187.02 3014.10
   21:27:11.471.27-Aug-2021 4641.00 1221.70 82.40 23.00 187.22 3014.10
   21:27:11.671.27-Aug-2021 4641.00 1222.86 82.40 23.00 187.42 3014.10
   21:27:11.871.27-Aug-2021 4641.00 1222.97 82.40 23.00 187.62 3014.10
   21:27:12.071.27-Aug-2021 4641.00 1223.13 82.40 23.00 187.82 3014.10
   21:27:12.271.27-Aug-2021 4641.00 1223.27 82.40 23.00 188.02 3014.10
   21:27:12.471.27-Aug-2021 4641.00 1223.27 82.40 23.00 188.22 3014.10
   21:27:12.671.27-Aug-2021 4641.00 1223.54 82.40 23.00 188.42 3014.10
   21:27:12.871.27-Aug-2021 4641.00 1223.67 82.40 23.00 188.62 3014.10
   21:27:13.071.27-Aug-2021 4641.00 1223.79 82.40 23.00 188.82 3014.10
   21:27:13.271.27-Aug-2021 4641.00 1223.94 82.40 23.00 189.02 3014.10
   21:27:13.471.27-Aug-2021 4641.00 1223.94 82.40 23.00 189.22 3014.10
   21:27:13.671.27-Aug-2021 4641.00 1224.26 82.40 23.00 189.42 3014.10
   21:27:13.871.27-Aug-2021 4641.00 1224.44 82.40 23.00 189.62 3014.10
   21:27:14.071.27-Aug-2021 4641.00 1224.60 82.40 23.00 189.82 3014.10
   21:27:14.271.27-Aug-2021 4641.00 1224.78 82.40 23.00 190.02 3014.10
   21:27:14.471.27-Aug-2021 4641.00 1224.78 82.40 23.00 190.22 3014.10
   21:27:14.671.27-Aug-2021 4641.00 1225.50 82.40 23.00 190.42 3014.10
   21:27:14.871.27-Aug-2021 4641.00 1225.51 82.40 23.00 190.62 3014.10
   21:27:15.071.27-Aug-2021 4641.00 1225.60 82.40 23.00 190.82 3014.10
   21:27:15.271.27-Aug-2021 4641.00 1225.75 82.40 23.00 191.02 3014.10
   21:27:15.471.27-Aug-2021 4641.00 1225.75 82.40 23.00 191.22 3014.10
   21:27:15.671.27-Aug-2021 4641.00 1225.02 82.40 23.00 191.42 3014.10
   21:27:15.872.27-Aug-2021 4641.00 1225.60 82.40 23.00 191.62 3014.10
   21:27:16.072.27-Aug-2021 4641.00 1225.72 82.40 23.00 191.82 3014.10
   21:27:16.272.27-Aug-2021 4641.00 1225.83 82.40 23.00 192.02 3014.10
   21:27:16.472.27-Aug-2021 4641.00 1225.83 82.40 23.00 192.22 3014.10
   21:27:16.672.27-Aug-2021 4641.00 1225.56 82.40 23.00 192.42 3014.10
   21:27:16.872.27-Aug-2021 4641.00 1226.23 82.40 23.00 192.62 3014.10
   21:27:17.072.27-Aug-2021 4641.00 1226.39 82.40 23.00 192.82 3014.10
   21:27:17.272.27-Aug-2021 4641.00 1226.48 82.40 23.00 193.02 3014.10
   21:27:17.472.27-Aug-2021 4641.00 1226.48 82.40 23.00 193.22 3014.10
   21:27:17.672.27-Aug-2021 4641.00 1226.75 82.40 23.00 193.42 3014.10
   21:27:17.872.27-Aug-2021 4641.00 1226.09 82.40 23.00 193.62 3014.10
   21:27:18.072.27-Aug-2021 4641.00 1226.93 82.40 23.00 193.82 3014.10
   21:27:18.272.27-Aug-2021 4641.00 1226.93 82.40 23.00 194.02 3014.10
   21:27:18.472.27-Aug-2021 4641.00 1226.93 82.40 23.00 194.22 3014.10
   21:27:18.672.27-Aug-2021 4641.00 1227.19 82.40 23.00 194.42 3014.10
   21:27:18.872.27-Aug-2021 4641.00 1227.35 82.40 23.00 194.62 3014.10
   21:27:19.072.27-Aug-2021 4641.00 1227.45 82.40 23.00 194.82 3014.10
   21:27:19.272.27-Aug-2021 4641.00 1227.60 82.40 23.00 195.02 3014.10
   21:27:19.472.27-Aug-2021 4641.00 1227.60 82.40 23.00 195.22 3014.10
   21:27:19.672.27-Aug-2021 4641.00 1227.86 82.40 23.00 195.42 3014.10
   21:27:19.872.27-Aug-2021 4641.00 1228.01 82.40 23.00 195.62 3014.10
   21:27:20.072.27-Aug-2021 4641.00 1228.14 82.40 23.00 195.82 3014.10
   21:27:20.272.27-Aug-2021 4641.00 1228.30 82.40 23.00 196.02 3014.10
   21:27:20.472.27-Aug-2021 4641.00 1228.30 82.40 23.00 196.22 3014.10
   21:27:20.672.27-Aug-2021 4641.00 1228.57 82.40 23.00 196.42 3014.10
   21:27:20.872.27-Aug-2021 4641.00 1228.58 82.40 23.00 196.62 3014.10
   21:27:21.072.27-Aug-2021 4641.00 1228.49 82.40 23.00 196.82 3014.10
   21:27:21.272.27-Aug-2021 4641.00 1229.09 82.40 23.00 197.02 3014.10
   21:27:21.472.27-Aug-2021 4641.00 1229.09 82.40 23.00 197.22 3014.10
   21:27:21.672.27-Aug-2021 4641.00 1229.29 82.40 23.00 197.42 3014.10
   21:27:21.872.27-Aug-2021 4641.00 1229.39 82.40 23.00 197.62 3014.10
   21:27:22.072.27-Aug-2021 4641.00 1229.55 82.40 23.00 197.82 3014.10
   21:27:22.272.27-Aug-2021 4641.00 1229.64 82.40 23.00 198.02 3014.10
   21:27:22.472.27-Aug-2021 4641.00 1229.64 82.40 23.00 198.22 3014.10
   21:27:22.672.27-Aug-2021 4641.00 1229.88 82.40 23.00 198.42 3014.10
   21:27:22.872.27-Aug-2021 4641.00 1230.02 82.40 23.00 198.62 3014.10
   21:27:23.072.27-Aug-2021 4641.00 1230.14 82.40 23.00 198.82 3014.10
   21:27:23.272.27-Aug-2021 4641.00 1230.27 82.40 23.00 199.02 3014.10
   21:27:23.472.27-Aug-2021 4641.00 1230.27 82.40 23.00 199.22 3014.10
   21:27:23.672.27-Aug-2021 4641.00 1230.55 82.41 23.00 199.42 3014.10
   21:27:23.872.27-Aug-2021 4641.00 1230.68 82.41 23.00 199.62 3014.10
   21:27:24.072.27-Aug-2021 4641.00 1230.71 82.41 23.00 199.82 3014.10
   21:27:24.272.27-Aug-2021 4641.00 1230.74 82.41 23.00 200.02 3014.10
   21:27:24.472.27-Aug-2021 4641.00 1230.74 82.41 23.00 200.22 3014.10
   21:27:24.672.27-Aug-2021 4641.00 1231.46 82.41 23.00 200.42 3014.10
   21:27:24.872.27-Aug-2021 4641.00 1231.55 82.41 23.00 200.62 3014.10
   21:27:25.072.27-Aug-2021 4641.00 1231.66 82.41 23.00 200.82 3014.10
   21:27:25.272.27-Aug-2021 4641.00 1231.68 82.41 23.00 201.02 3014.10
   21:27:25.472.27-Aug-2021 4641.00 1231.68 82.41 23.00 201.22 3014.10
   21:27:25.673.27-Aug-2021 4641.00 1232.18 82.41 23.00 201.42 3014.10
   21:27:25.873.27-Aug-2021 4641.00 1232.26 82.41 23.00 201.62 3014.10
   21:27:26.073.27-Aug-2021 4641.00 1232.38 82.41 23.00 201.82 3014.10
   21:27:26.273.27-Aug-2021 4641.00 1232.49 82.41 23.00 202.02 3014.10
   21:27:26.473.27-Aug-2021 4641.00 1232.49 82.41 23.00 202.22 3014.10
   21:27:26.673.27-Aug-2021 4641.00 1232.56 82.41 23.00 202.42 3014.10
   21:27:26.873.27-Aug-2021 4641.00 1232.74 82.41 23.00 202.62 3014.10
   21:27:27.073.27-Aug-2021 4641.00 1232.83 82.41 23.00 202.82 3014.10
   21:27:27.273.27-Aug-2021 4641.00 1232.07 82.41 23.00 203.02 3014.10
   21:27:27.473.27-Aug-2021 4641.00 1232.07 82.41 23.00 203.22 3014.10
