~Version Information
 VERS.                  2.0:   CWLS log ASCII Standard -VERSION 2.0
 WRAP.                   NO:   One line per depth step
~Well Information Block
#MNEM.UNIT     VALUE/NAME     DESCRIPTION
#---------     -----------    ---------------------------
 STRT.S             04:10:22 28-Aug-21: START TIME 04:10:22 28-Aug-21
 STOP.S             04:17:14 28-Aug-21: STOP TIME  04:17:14 28-Aug-21
 STEP.S                   0.00: STEP TIME
 NULL.                 -999.25: NULL VALUE
 DFWT.                        :  DIST FWL TEXT
 DFST.                        :  DIST FSL TEXT
 DMF .             Drill Floor:  DRILL MEAS FROM
 STIM.      20.00.00 17-Aug-21:  START TIME
 DATE.      19.00.00 29-Aug-21:  END TIME
 SPUD.               15-Aug-21:  SPUD DATE
 NREF.                    Grid:  NORTH REFERENCE
 HPTY.       Minimum Curvature:  HOLE POS TYPE
 DMOD.             Drill Model:  DRILL MOD DESC
 SVYD.                  Survey:  SURVEY DESC
 ILTD.               Lithology:  INTERP LTH DESC
 FTOP.          Formation Tops:  FORM TOPS DESC
 RIG .              East Azeri:  RIG NAME
 PDAT.          Mean Sea Level:  PERMANENT DATUM
 FLD .                     ACG:  FIELD NAME
 SON .        AZ-XX-0907180857:  JOB NUMBER
 CTRY.              Azerbaijan:  COUNTRY NAME
 WELL.                    D23x:  WELL NAME
 SRVC.     Turan Drilling and Engineering:  CONTRACTOR
 COMP.     BP Exploration (Caspian Sea) Ltd.:  COMPANY
 UWI .            /AZE00000214:  UNIQUE WELL IDENTIFIER
 API .            /AZE00000214:  API NUMBER
 MDS .        Operator Entered:  MAG DATA SOURCE
 BASE.              Azerbaijan:  LOGGING EQUIPMENT BASE LOCATION
 REGN.                   EESSA:  REGION
 PROV.                    Baku:  PROVINCE
 STAT.                    Baku:  STATE NAME
 MWDS.                    Baku:  MWD SHOP
 DOE .                     N/A:  DOE NUMBER
 DCON.         Sperry Drilling:  DIRECTNL CONTR
 UNIT.                     N/A:  LOGGING EQUIPMENT ID
 WTYP.                Deviated:  WELL TYPE
 CNTY.                        :  COUNTY
 LOC .                        :  LOCATION
 LMF .             Drill Floor:  LOG MEASURED FROM
 TVDS.m                  43.60:  TVDSS CORRECTN
 LATI.deg                40.02:  LATITUDE
 LONG.deg                51.45:  LONGITUDE
 WHNS.m                  -7.04:  WELL HEAD N/S
 WHEW.m                  -0.67:  WELL HEAD E/W
 UTMX.m              538762.90:  UTM X
 UTMY.m             4431871.34:  UTM Y
 DFWL.m                   0.00:  DISTANCE FWL
 DFSL.m                   0.00:  DISTANCE FSL
 SDEP.m                4127.00:  START DEPTH
 TDD .m                5084.50:  TOTAL DEPTH (DRILLER)
 VSDR.deg               140.47:  VERT SEC DIRECT
 GVFD.g                   1.00:  GRAVITY FIELD
 MFLD.nT              50362.00:  MAGNETIC FIELD
 MDIP.deg                59.48:  MAGNETIC DIP
 MDEC.deg                 6.47:  MAGNETIC DECL
 GRDC.deg                 0.31:  GRID CORRECTION
 AZTC.deg                 6.16:  AZM TOTAL CORR
 EPD .m                   0.00:  ELEVATION
 EGL .m                   0.00:  GROUND ELEVATION
 WDMS.m                 151.80:  WD ELEV
 APD .m                  43.60:  DEPTH ABOVE PD
 DEP .m                4092.57:  DEPTH
 AGAP.m                  43.60:  AIR GAP
 VSEW.m                  -0.67:  VERT SEC E/W
 VSNS.m                  -7.04:  VERT SEC N/S
 EKB .m                  43.60:  KB ELEVATION
 EDF .m                  43.60:  DF ELEVATION
 TDL .m                 957.50:  TOTAL DEPTH (LOGGER)
 VSC .                       0:  VS TO CLOSURE
 MAGU.                 1851413:  MAGUTM CHECKSUM
~Parameter Information Block
#MNEM.UNIT       Value        Description
#---------     -----------    ---------------------------
 AV  .mps                 1.50:  Ann Velocity 
 AVMX.mps                 2.00:  Max Ann Veloc 
 AZIF.deg               184.66:  Azm, Final 
 BHAT.        Rotary Steerable:  BHA Type 
 BREV.rev               300.00:  Rev Bit Total 
 BROT.°/30m              -0.50:  Build Rotating 
 BS  .in                  8.50:  Bit Size 
 BSZ .in                  8.50:  Bit Size 
 BTPL.psig              370.00:  Bit Press Loss 
 CABU.                      No:  Customer Abuse 
 CGEO.      Behruz Shahbaliyev:  Customer Geo 
 COMM.                     LÁp:  Run Comments 1 
 TCS .hr                140.08:  Time Ciculation Ended 
 CV  .mps                 3.00:  Crit Velocity 
 CVMX.mps                 3.20:  Max Crit Veloc 
 DD1 .            Musa Ahmadov:  Direct Drillr 1 
 DD2 .           Hamid Ahmadov:  Direct Drillr 2 
 DDSV.               Geo-Pilot:  DD Service 
 DEFF.%                  98.40:  % Det Eff 
 DLRX.°/30m               3.40:  Dogleg Rot Max 
 DLSO.°/30m               1.45:  Dogleg Oriented 
 DLSX.°/30m               3.40:  Dogleg Str Max 
 DRET.      18.40.00 29-Aug-21:  Drill End Time 
 DRST.      21.00.00 20-Aug-21:  Drill Start Tim 
 DTIM.hr                 69.47:  Time Drilling 
 EDEP.m                5084.50:  End Depth 
 ENG1.      Artemiy Matviyanov:  Engineer 1 
 ENG2.         Almaz Almadatov:  Engineer 2 
 ETIM.      18.40.00 29-Aug-21:  End Time 
 FLOI.gpm               500.00:  Flow In 
 FLON.gpm               400.00:  Flow In Min 
 FLOS.cptm                0.00:  Fluid Loss 
 FLOX.gpm               500.00:  Flow In Max 
 DFT .        Mineral Oil Base:  Mud Type 
 HFLO.                      No:  High Flow 
 HPRE.                      No:  High Pressure 
 HTEM.                      No:  High Temp 
 HYDO.m                   1.80:  Hydro Offset 
 IFIN.deg                25.62:  Inc, Final 
 IMAX.deg                48.69:  Inc Max 
 IMIN.deg                24.01:  Inc Min 
 IMND.m                4962.57:  Inc Min Depth 
 IMXD.m                4119.01:  Inc Max Depth 
 JARR.                      No:  Jarring 
 LETM.      18.40.00 29-Aug-21:  Log End Time 
 LOST.hr                     0:  Lost Rig Time 
 LSTM.      21.00.00 20-Aug-21:  Log Start Time 
 MDCL.ppm             41500.00:  Mud Chlorides 
 MDES.     Inversion Oil/Synthetic:  Mud Desc 
 DFD .sg                  1.56:  Mud Density 
 MDMN.sg                  1.56:  Dens Mud Min 
 MDMX.sg                  1.56:  Dens Mud Max 
 MOIL.                      70:  Run Mud Oil % 
 MOWR.                   70:30:  Run Mud OWR 
 MSND.                     0.2:  Run Mud Sand % 
 MSOL.                    23.3:  Run Mud Solids% 
 DFV .spqt               78.00:  Mud Viscosity 
 MWOD.in                  6.75:  MWD Tool OD 
 MWSI.                      No:  Serv Intrp, MWD 
 OTIM.hr                218.30:  Time Operating 
 PCON.           Look Like New:  Pad Condition 
 PMAX.psia            11015.30:  Press Op, Max 
 PV  .cP                 38.00:  Mud PV 
 RUN .                     300:  Run Number 
 ROPA.m/hr               15.00:  ROP Avg 
 ROPN.m/hr                9.00:  ROP Min 
 ROPX.m/hr               17.00:  ROP Max 
 RPMA.rpm               120.00:  RPM Surface Avg 
 RPMN.rpm                90.00:  RPM Surface Min 
 RPMX.rpm               140.00:  RPM Surface Max 
 RRUN.                     300:  Rig Run Number 
 RTIM.hr                 31.53:  Time Reaming 
 SAZI.deg               331.64:  Azm, Start 
 SDEP.m                4127.00:  Start Depth 
 SIDD.                      No:  Serv Intrp, DD 
 SINC.deg                48.43:  Inc, Start 
 SPPA.psig             5830.00:  SPP Avg 
 SPPN.psig             5600.00:  SPP Min 
 SPPX.psig             5900.00:  SPP Max 
 STIM.      21.00.00 20-Aug-21:  Start Time 
 SVCS.                 DD, MWD:  Services 
 SVER.                    9.20:  Sperry Version 
 TDAT.m                 957.50:  Tot Depth Attmp 
 TDDF.                      No:  Trip for DD 
 TDLG.m                 957.50:  Tot Depth Loggd 
 TFF .                      No:  Trip for Fail 
 TQAA.f-kp               15.00:  Torque Abs Avg 
 TQAN.f-kp               12.00:  Torque Abs Min 
 TQAX.f-kp               19.00:  Torque Abs Max 
 TRRT.°/30m              -3.40:  Turn Rotating 
 MRT .                  EWR-M5:  Maximum Recorded Temperature 
 TTMX.degC              100.00:  Max Tool Temp 
 VS01.                90639251:  Virtual Str1 SN 
 VS02.                90634715:  Virtual Str2 SN 
 VS03.                90652479:  Virtual Str3 SN 
 VS04.                90642262:  Virtual Str4 SN 
 WBMN.klb                 0.00:  WOB Min 
 WITN.           Murad Guliyev:  Customer Rep 
 WITN.          Yashar Gaziyev:  Customer Rep 2 
 WOBA.klb                 9.00:  WOB Avg 
 WOBX.klb                12.00:  WOB Max 
 YP  .lhf2               30.00:  Yield Point 
~Curve Information Block
#MNEM.UNIT                 API CODE     Curve Description
#---------               -----------    ---------------------------
 TIME.HHMMSS            00 000 000 000:  GT Time & Date
 GTDEPTH.m              00 000 000 000:  GT Depth
 GTPQH.psia             00 000 000 000:  GT HR Quartz Pressure
 GTTQ.degC              00 000 000 000:  GT Quartz Temperature
 GTTN.NONE              00 000 000 000:  GT Test Number
 GTET.sec               00 000 000 000:  GT Elapsed Test Time
 GTTVD.m                00 000 000 000:  GT True Vertical Depth
#Other Information
#
#WARRANTY: Halliburton will use its best efforts to furnish customers with 
#accurate information and interpretations that are part of, and incident to, the services 
#provided.  However, Halliburton cannot and does not warrant the accuracy 
#or correctness of such information and interpretations.  Under no circumstances should any 
#such information or interpretation be relied upon as the sole basis for any drilling, 
#completion, production, or financial decision or any procedure involving any risk to the 
#safety of any drilling venture, drilling rig or its crew or any other third party.  The 
#Customer has full responsibility for all drilling, completion and production operation.  
#Halliburton makes no representations or warranties, either expressed or 
#implied, including, but not limited to, the implied warranties of merchantability or fitness 
#for a particular purpose, with respect to the services rendered.  In no event will 
#Halliburton be liable for failure to obtain any particular results or for 
#any damages, including, but not limited to, indirect, special or consequential damages, 
#resulting from the use of any information or interpretation provided by Halliburton.
#
~A           TIME           GTDEPTH  GTPQH  GTTQ  GTTN   GTET   GTTVD  
# ...
   04:10:45.453.28-Aug-2021 4978.00 7934.33 80.52 29.00  22.63 3319.69
   04:10:45.653.28-Aug-2021 4978.00 7934.45 80.52 29.00  22.83 3319.69
   04:10:45.853.28-Aug-2021 4978.00 7934.98 80.52 29.00  23.03 3319.69
   04:10:46.053.28-Aug-2021 4978.00 7934.98 80.52 29.00  23.23 3319.69
   04:10:46.254.28-Aug-2021 4978.00 7934.41 80.52 29.00  23.43 3319.69
   04:10:46.454.28-Aug-2021 4978.00 7934.40 80.52 29.00  23.63 3319.69
   04:10:46.654.28-Aug-2021 4978.00 7934.81 80.52 29.00  23.83 3319.69
   04:10:46.855.28-Aug-2021 4978.00 7935.48 80.52 29.00  24.03 3319.69
   04:10:47.055.28-Aug-2021 4978.00 7935.48 80.52 29.00  24.23 3319.69
   04:10:47.255.28-Aug-2021 4978.00 7935.61 80.52 29.00  24.43 3319.69
   04:10:47.455.28-Aug-2021 4978.00 7935.75 80.52 29.00  24.63 3319.69
   04:10:47.656.28-Aug-2021 4978.00 7935.77 80.52 29.00  24.83 3319.69
   04:10:47.856.28-Aug-2021 4978.00 7935.83 80.52 29.00  25.04 3319.69
   04:10:48.056.28-Aug-2021 4978.00 7935.83 80.52 29.00  25.24 3319.69
   04:10:48.257.28-Aug-2021 4978.00 7936.17 80.52 29.00  25.44 3319.69
   04:10:48.457.28-Aug-2021 4978.00 7936.86 80.52 29.00  25.64 3319.69
   04:10:48.657.28-Aug-2021 4978.00 7936.82 80.52 29.00  25.84 3319.69
   04:10:48.857.28-Aug-2021 4978.00 7936.98 80.52 29.00  26.04 3319.69
   04:10:49.058.28-Aug-2021 4978.00 7936.98 80.52 29.00  26.24 3319.69
   04:10:49.258.28-Aug-2021 4978.00 7937.22 80.51 29.00  26.44 3319.69
   04:10:49.458.28-Aug-2021 4978.00 7937.15 80.51 29.00  26.64 3319.69
   04:10:49.658.28-Aug-2021 4978.00 7937.00 80.51 29.00  26.84 3319.69
   04:10:49.859.28-Aug-2021 4978.00 7937.41 80.51 29.00  27.04 3319.69
   04:10:50.059.28-Aug-2021 4978.00 7937.41 80.51 29.00  27.24 3319.69
   04:10:50.259.28-Aug-2021 4978.00 7938.69 80.51 29.00  27.44 3319.69
   04:10:50.460.28-Aug-2021 4978.00 7938.61 80.51 29.00  27.64 3319.69
   04:10:50.660.28-Aug-2021 4978.00 7938.61 80.51 29.00  27.84 3319.69
   04:10:50.860.28-Aug-2021 4978.00 7938.61 80.51 29.00  28.04 3319.69
   04:10:51.060.28-Aug-2021 4978.00 7938.61 80.51 29.00  28.24 3319.69
   04:10:51.261.28-Aug-2021 4978.00 7938.89 80.51 29.00  28.44 3319.69
   04:10:51.461.28-Aug-2021 4978.00 7943.91 80.51 29.00  28.64 3319.69
   04:10:51.661.28-Aug-2021 4978.00 7938.67 80.51 29.00  28.84 3319.69
   04:10:51.862.28-Aug-2021 4978.00 7939.26 80.51 29.00  29.04 3319.69
   04:10:52.062.28-Aug-2021 4978.00 7939.26 80.51 29.00  29.24 3319.69
   04:10:52.262.28-Aug-2021 4978.00 7939.56 80.51 29.00  29.44 3319.69
   04:10:52.462.28-Aug-2021 4978.00 7939.85 80.51 29.00  29.64 3319.69
   04:10:52.663.28-Aug-2021 4978.00 7939.65 80.51 29.00  29.84 3319.69
   04:10:52.863.28-Aug-2021 4978.00 7944.58 80.51 29.00  30.04 3319.69
   04:10:53.063.28-Aug-2021 4978.00 7944.58 80.51 29.00  30.24 3319.69
   04:10:53.264.28-Aug-2021 4978.00 7940.91 80.51 29.00  30.44 3319.69
   04:10:53.464.28-Aug-2021 4978.00 7941.25 80.51 29.00  30.64 3319.69
   04:10:53.664.28-Aug-2021 4978.00 7941.87 80.51 29.00  30.84 3319.69
   04:10:53.864.28-Aug-2021 4978.00 7941.57 80.51 29.00  31.04 3319.69
   04:10:54.065.28-Aug-2021 4978.00 7941.57 80.51 29.00  31.24 3319.69
   04:10:54.265.28-Aug-2021 4978.00 7944.05 80.51 29.00  31.44 3319.69
   04:10:54.465.28-Aug-2021 4978.00 7941.75 80.51 29.00  31.64 3319.69
   04:10:54.666.28-Aug-2021 4978.00 7941.08 80.51 29.00  31.84 3319.69
   04:10:54.866.28-Aug-2021 4978.00 7941.81 80.51 29.00  32.05 3319.69
   04:10:55.066.28-Aug-2021 4978.00 7941.81 80.51 29.00  32.25 3319.69
   04:10:55.266.28-Aug-2021 4978.00 7941.95 80.51 29.00  32.45 3319.69
   04:10:55.467.28-Aug-2021 4978.00 7941.53 80.51 29.00  32.65 3319.69
   04:10:55.667.28-Aug-2021 4978.00 7946.13 80.51 29.00  32.85 3319.69
   04:10:55.867.28-Aug-2021 4978.00 7941.36 80.51 29.00  33.05 3319.69
   04:10:56.067.28-Aug-2021 4978.00 7941.36 80.51 29.00  33.25 3319.69
   04:10:56.268.28-Aug-2021 4978.00 7943.19 80.51 29.00  33.45 3319.69
   04:10:56.468.28-Aug-2021 4978.00 7941.78 80.51 29.00  33.65 3319.69
   04:10:56.668.28-Aug-2021 4978.00 7941.32 80.51 29.00  33.85 3319.69
   04:10:56.869.28-Aug-2021 4978.00 7940.86 80.51 29.00  34.05 3319.69
   04:10:57.069.28-Aug-2021 4978.00 7940.86 80.51 29.00  34.25 3319.69
   04:10:57.269.28-Aug-2021 4978.00 7940.90 80.51 29.00  34.45 3319.69
   04:10:57.469.28-Aug-2021 4978.00 7941.43 80.51 29.00  34.65 3319.69
   04:10:57.670.28-Aug-2021 4978.00 7942.29 80.51 29.00  34.85 3319.69
   04:10:57.870.28-Aug-2021 4978.00 7942.66 80.51 29.00  35.05 3319.69
   04:10:58.070.28-Aug-2021 4978.00 7942.66 80.51 29.00  35.25 3319.69
   04:10:58.271.28-Aug-2021 4978.00 7942.36 80.51 29.00  35.45 3319.69
   04:10:58.471.28-Aug-2021 4978.00 7942.67 80.51 29.00  35.65 3319.69
   04:10:58.671.28-Aug-2021 4978.00 7942.83 80.51 29.00  35.85 3319.69
   04:10:58.871.28-Aug-2021 4978.00 7942.89 80.51 29.00  36.05 3319.69
   04:10:59.072.28-Aug-2021 4978.00 7942.89 80.51 29.00  36.25 3319.69
   04:10:59.272.28-Aug-2021 4978.00 7944.52 80.51 29.00  36.45 3319.69
   04:10:59.472.28-Aug-2021 4978.00 7944.90 80.51 29.00  36.65 3319.69
   04:10:59.673.28-Aug-2021 4978.00 7944.21 80.51 29.00  36.85 3319.69
   04:10:59.873.28-Aug-2021 4978.00 7943.25 80.51 29.00  37.05 3319.69
   04:11:00.073.28-Aug-2021 4978.00 7943.25 80.51 29.00  37.25 3319.69
   04:11:00.273.28-Aug-2021 4978.00 7943.36 80.51 29.00  37.45 3319.69
   04:11:00.474.28-Aug-2021 4978.00 7943.64 80.51 29.00  37.65 3319.69
   04:11:00.674.28-Aug-2021 4978.00 7943.27 80.51 29.00  37.85 3319.69
   04:11:00.874.28-Aug-2021 4978.00 7943.09 80.51 29.00  38.05 3319.69
   04:11:01.075.28-Aug-2021 4978.00 7943.09 80.51 29.00  38.25 3319.69
   04:11:01.275.28-Aug-2021 4978.00 7944.08 80.51 29.00  38.45 3319.69
   04:11:01.475.28-Aug-2021 4978.00 7944.89 80.51 29.00  38.65 3319.69
   04:11:01.675.28-Aug-2021 4978.00 7945.07 80.51 29.00  38.85 3319.69
   04:11:01.876.28-Aug-2021 4978.00 7944.89 80.51 29.00  39.05 3319.69
   04:11:02.076.28-Aug-2021 4978.00 7944.89 80.51 29.00  39.26 3319.69
   04:11:02.276.28-Aug-2021 4978.00 7944.63 80.51 29.00  39.46 3319.69
   04:11:02.476.28-Aug-2021 4978.00 7946.22 80.51 29.00  39.66 3319.69
   04:11:02.677.28-Aug-2021 4978.00 7946.93 80.51 29.00  39.86 3319.69
   04:11:02.877.28-Aug-2021 4978.00 7945.98 80.51 29.00  40.06 3319.69
   04:11:03.077.28-Aug-2021 4978.00 7945.98 80.51 29.00  40.26 3319.69
   04:11:03.278.28-Aug-2021 4978.00 7944.89 80.51 29.00  40.46 3319.69
   04:11:03.478.28-Aug-2021 4978.00 7944.80 80.51 29.00  40.66 3319.69
   04:11:03.678.28-Aug-2021 4978.00 7946.85 80.51 29.00  40.86 3319.69
   04:11:03.878.28-Aug-2021 4978.00 7946.96 80.50 29.00  41.06 3319.69
   04:11:04.079.28-Aug-2021 4978.00 7946.96 80.50 29.00  41.26 3319.69
   04:11:04.279.28-Aug-2021 4978.00 7945.18 80.50 29.00  41.46 3319.69
   04:11:04.479.28-Aug-2021 4978.00 7945.78 80.50 29.00  41.66 3319.69
   04:11:04.680.28-Aug-2021 4978.00 7946.26 80.50 29.00  41.86 3319.69
   04:11:04.880.28-Aug-2021 4978.00 7951.69 80.50 29.00  42.06 3319.69
   04:11:05.080.28-Aug-2021 4978.00 7951.69 80.50 29.00  42.26 3319.69
   04:11:05.280.28-Aug-2021 4978.00 7946.17 80.50 29.00  42.46 3319.69
   04:11:05.481.28-Aug-2021 4978.00 7945.93 80.50 29.00  42.66 3319.69
   04:11:05.681.28-Aug-2021 4978.00 7946.63 80.50 29.00  42.86 3319.69
   04:11:05.881.28-Aug-2021 4978.00 7947.25 80.50 29.00  43.06 3319.69
   04:11:06.082.28-Aug-2021 4978.00 7947.25 80.50 29.00  43.26 3319.69
   04:11:06.282.28-Aug-2021 4978.00 7949.35 80.50 29.00  43.46 3319.69
   04:11:06.482.28-Aug-2021 4978.00 7947.92 80.50 29.00  43.66 3319.69
   04:11:06.682.28-Aug-2021 4978.00 7949.84 80.50 29.00  43.86 3319.69
   04:11:06.883.28-Aug-2021 4978.00 7951.25 80.50 29.00  44.06 3319.69
   04:11:07.083.28-Aug-2021 4978.00 7951.25 80.50 29.00  44.26 3319.69
   04:11:07.283.28-Aug-2021 4978.00 7949.32 80.50 29.00  44.46 3319.69
   04:11:07.484.28-Aug-2021 4978.00 7948.76 80.50 29.00  44.66 3319.69
   04:11:07.684.28-Aug-2021 4978.00 7948.72 80.50 29.00  44.86 3319.69
   04:11:07.884.28-Aug-2021 4978.00 7952.70 80.50 29.00  45.06 3319.69
