~Version Information
 VERS.                  2.0:   CWLS log ASCII Standard -VERSION 2.0
 WRAP.                   NO:   One line per depth step
~Well Information Block
#MNEM.UNIT     VALUE/NAME     DESCRIPTION
#---------     -----------    ---------------------------
 STRT.S             05:44:14 27-Aug-21: START TIME 05:44:14 27-Aug-21
 STOP.S             05:51:24 27-Aug-21: STOP TIME  05:51:24 27-Aug-21
 STEP.S                   0.00: STEP TIME
 NULL.                 -999.25: NULL VALUE
 DFWT.                        :  DIST FWL TEXT
 DFST.                        :  DIST FSL TEXT
 DMF .             Drill Floor:  DRILL MEAS FROM
 STIM.      20.00.00 17-Aug-21:  START TIME
 DATE.      19.00.00 29-Aug-21:  END TIME
 SPUD.               15-Aug-21:  SPUD DATE
 NREF.                    Grid:  NORTH REFERENCE
 HPTY.       Minimum Curvature:  HOLE POS TYPE
 DMOD.             Drill Model:  DRILL MOD DESC
 SVYD.                  Survey:  SURVEY DESC
 ILTD.               Lithology:  INTERP LTH DESC
 FTOP.          Formation Tops:  FORM TOPS DESC
 RIG .              East Azeri:  RIG NAME
 PDAT.          Mean Sea Level:  PERMANENT DATUM
 FLD .                     ACG:  FIELD NAME
 SON .        AZ-XX-0907180857:  JOB NUMBER
 CTRY.              Azerbaijan:  COUNTRY NAME
 WELL.                    D23x:  WELL NAME
 SRVC.     Turan Drilling and Engineering:  CONTRACTOR
 COMP.     BP Exploration (Caspian Sea) Ltd.:  COMPANY
 UWI .            /AZE00000214:  UNIQUE WELL IDENTIFIER
 API .            /AZE00000214:  API NUMBER
 MDS .        Operator Entered:  MAG DATA SOURCE
 BASE.              Azerbaijan:  LOGGING EQUIPMENT BASE LOCATION
 REGN.                   EESSA:  REGION
 PROV.                    Baku:  PROVINCE
 STAT.                    Baku:  STATE NAME
 MWDS.                    Baku:  MWD SHOP
 DOE .                     N/A:  DOE NUMBER
 DCON.         Sperry Drilling:  DIRECTNL CONTR
 UNIT.                     N/A:  LOGGING EQUIPMENT ID
 WTYP.                Deviated:  WELL TYPE
 CNTY.                        :  COUNTY
 LOC .                        :  LOCATION
 LMF .             Drill Floor:  LOG MEASURED FROM
 TVDS.m                  43.60:  TVDSS CORRECTN
 LATI.deg                40.02:  LATITUDE
 LONG.deg                51.45:  LONGITUDE
 WHNS.m                  -7.04:  WELL HEAD N/S
 WHEW.m                  -0.67:  WELL HEAD E/W
 UTMX.m              538762.90:  UTM X
 UTMY.m             4431871.34:  UTM Y
 DFWL.m                   0.00:  DISTANCE FWL
 DFSL.m                   0.00:  DISTANCE FSL
 SDEP.m                4127.00:  START DEPTH
 TDD .m                5084.50:  TOTAL DEPTH (DRILLER)
 VSDR.deg               140.47:  VERT SEC DIRECT
 GVFD.g                   1.00:  GRAVITY FIELD
 MFLD.nT              50362.00:  MAGNETIC FIELD
 MDIP.deg                59.48:  MAGNETIC DIP
 MDEC.deg                 6.47:  MAGNETIC DECL
 GRDC.deg                 0.31:  GRID CORRECTION
 AZTC.deg                 6.16:  AZM TOTAL CORR
 EPD .m                   0.00:  ELEVATION
 EGL .m                   0.00:  GROUND ELEVATION
 WDMS.m                 151.80:  WD ELEV
 APD .m                  43.60:  DEPTH ABOVE PD
 DEP .m                4092.57:  DEPTH
 AGAP.m                  43.60:  AIR GAP
 VSEW.m                  -0.67:  VERT SEC E/W
 VSNS.m                  -7.04:  VERT SEC N/S
 EKB .m                  43.60:  KB ELEVATION
 EDF .m                  43.60:  DF ELEVATION
 TDL .m                 957.50:  TOTAL DEPTH (LOGGER)
 VSC .                       0:  VS TO CLOSURE
 MAGU.                 1851413:  MAGUTM CHECKSUM
~Parameter Information Block
#MNEM.UNIT       Value        Description
#---------     -----------    ---------------------------
 AV  .mps                 1.50:  Ann Velocity 
 AVMX.mps                 2.00:  Max Ann Veloc 
 AZIF.deg               184.66:  Azm, Final 
 BHAT.        Rotary Steerable:  BHA Type 
 BREV.rev               300.00:  Rev Bit Total 
 BROT.°/30m              -0.50:  Build Rotating 
 BS  .in                  8.50:  Bit Size 
 BSZ .in                  8.50:  Bit Size 
 BTPL.psig              370.00:  Bit Press Loss 
 CABU.                      No:  Customer Abuse 
 CGEO.      Behruz Shahbaliyev:  Customer Geo 
 COMM.                     ä=U:  Run Comments 1 
 TCS .hr                140.08:  Time Ciculation Ended 
 CV  .mps                 3.00:  Crit Velocity 
 CVMX.mps                 3.20:  Max Crit Veloc 
 DD1 .            Musa Ahmadov:  Direct Drillr 1 
 DD2 .           Hamid Ahmadov:  Direct Drillr 2 
 DDSV.               Geo-Pilot:  DD Service 
 DEFF.%                  98.40:  % Det Eff 
 DLRX.°/30m               3.40:  Dogleg Rot Max 
 DLSO.°/30m               1.45:  Dogleg Oriented 
 DLSX.°/30m               3.40:  Dogleg Str Max 
 DRET.      18.40.00 29-Aug-21:  Drill End Time 
 DRST.      21.00.00 20-Aug-21:  Drill Start Tim 
 DTIM.hr                 69.47:  Time Drilling 
 EDEP.m                5084.50:  End Depth 
 ENG1.      Artemiy Matviyanov:  Engineer 1 
 ENG2.         Almaz Almadatov:  Engineer 2 
 ETIM.      18.40.00 29-Aug-21:  End Time 
 FLOI.gpm               500.00:  Flow In 
 FLON.gpm               400.00:  Flow In Min 
 FLOS.cptm                0.00:  Fluid Loss 
 FLOX.gpm               500.00:  Flow In Max 
 DFT .        Mineral Oil Base:  Mud Type 
 HFLO.                      No:  High Flow 
 HPRE.                      No:  High Pressure 
 HTEM.                      No:  High Temp 
 HYDO.m                   1.80:  Hydro Offset 
 IFIN.deg                25.62:  Inc, Final 
 IMAX.deg                48.69:  Inc Max 
 IMIN.deg                24.01:  Inc Min 
 IMND.m                4962.57:  Inc Min Depth 
 IMXD.m                4119.01:  Inc Max Depth 
 JARR.                      No:  Jarring 
 LETM.      18.40.00 29-Aug-21:  Log End Time 
 LOST.hr                     0:  Lost Rig Time 
 LSTM.      21.00.00 20-Aug-21:  Log Start Time 
 MDCL.ppm             41500.00:  Mud Chlorides 
 MDES.     Inversion Oil/Synthetic:  Mud Desc 
 DFD .sg                  1.56:  Mud Density 
 MDMN.sg                  1.56:  Dens Mud Min 
 MDMX.sg                  1.56:  Dens Mud Max 
 MOIL.                      70:  Run Mud Oil % 
 MOWR.                   70:30:  Run Mud OWR 
 MSND.                     0.2:  Run Mud Sand % 
 MSOL.                    23.3:  Run Mud Solids% 
 DFV .spqt               78.00:  Mud Viscosity 
 MWOD.in                  6.75:  MWD Tool OD 
 MWSI.                      No:  Serv Intrp, MWD 
 OTIM.hr                218.30:  Time Operating 
 PCON.           Look Like New:  Pad Condition 
 PMAX.psia            11015.30:  Press Op, Max 
 PV  .cP                 38.00:  Mud PV 
 RUN .                     300:  Run Number 
 ROPA.m/hr               15.00:  ROP Avg 
 ROPN.m/hr                9.00:  ROP Min 
 ROPX.m/hr               17.00:  ROP Max 
 RPMA.rpm               120.00:  RPM Surface Avg 
 RPMN.rpm                90.00:  RPM Surface Min 
 RPMX.rpm               140.00:  RPM Surface Max 
 RRUN.                     300:  Rig Run Number 
 RTIM.hr                 31.53:  Time Reaming 
 SAZI.deg               331.64:  Azm, Start 
 SDEP.m                4127.00:  Start Depth 
 SIDD.                      No:  Serv Intrp, DD 
 SINC.deg                48.43:  Inc, Start 
 SPPA.psig             5830.00:  SPP Avg 
 SPPN.psig             5600.00:  SPP Min 
 SPPX.psig             5900.00:  SPP Max 
 STIM.      21.00.00 20-Aug-21:  Start Time 
 SVCS.                 DD, MWD:  Services 
 SVER.                    9.20:  Sperry Version 
 TDAT.m                 957.50:  Tot Depth Attmp 
 TDDF.                      No:  Trip for DD 
 TDLG.m                 957.50:  Tot Depth Loggd 
 TFF .                      No:  Trip for Fail 
 TQAA.f-kp               15.00:  Torque Abs Avg 
 TQAN.f-kp               12.00:  Torque Abs Min 
 TQAX.f-kp               19.00:  Torque Abs Max 
 TRRT.°/30m              -3.40:  Turn Rotating 
 MRT .                  EWR-M5:  Maximum Recorded Temperature 
 TTMX.degC              100.00:  Max Tool Temp 
 VS01.                90639251:  Virtual Str1 SN 
 VS02.                90634715:  Virtual Str2 SN 
 VS03.                90652479:  Virtual Str3 SN 
 VS04.                90642262:  Virtual Str4 SN 
 WBMN.klb                 0.00:  WOB Min 
 WITN.           Murad Guliyev:  Customer Rep 
 WITN.          Yashar Gaziyev:  Customer Rep 2 
 WOBA.klb                 9.00:  WOB Avg 
 WOBX.klb                12.00:  WOB Max 
 YP  .lhf2               30.00:  Yield Point 
~Curve Information Block
#MNEM.UNIT                 API CODE     Curve Description
#---------               -----------    ---------------------------
 TIME.HHMMSS            00 000 000 000:  GT Time & Date
 GTDEPTH.m              00 000 000 000:  GT Depth
 GTPQH.psia             00 000 000 000:  GT HR Quartz Pressure
 GTTQ.degC              00 000 000 000:  GT Quartz Temperature
 GTTN.NONE              00 000 000 000:  GT Test Number
 GTET.sec               00 000 000 000:  GT Elapsed Test Time
 GTTVD.m                00 000 000 000:  GT True Vertical Depth
#Other Information
#
#WARRANTY: Halliburton will use its best efforts to furnish customers with 
#accurate information and interpretations that are part of, and incident to, the services 
#provided.  However, Halliburton cannot and does not warrant the accuracy 
#or correctness of such information and interpretations.  Under no circumstances should any 
#such information or interpretation be relied upon as the sole basis for any drilling, 
#completion, production, or financial decision or any procedure involving any risk to the 
#safety of any drilling venture, drilling rig or its crew or any other third party.  The 
#Customer has full responsibility for all drilling, completion and production operation.  
#Halliburton makes no representations or warranties, either expressed or 
#implied, including, but not limited to, the implied warranties of merchantability or fitness 
#for a particular purpose, with respect to the services rendered.  In no event will 
#Halliburton be liable for failure to obtain any particular results or for 
#any damages, including, but not limited to, indirect, special or consequential damages, 
#resulting from the use of any information or interpretation provided by Halliburton.
#
~A           TIME           GTDEPTH  GTPQH  GTTQ  GTTN  GTET   GTTVD  
# ...
   05:45:46.337.27-Aug-2021 5021.00 7998.04 88.68 1.00  92.02 3358.56
   05:45:46.537.27-Aug-2021 5021.00 7998.04 88.68 1.00  92.22 3358.56
   05:45:46.737.27-Aug-2021 5021.00 7997.58 88.68 1.00  92.42 3358.56
   05:45:46.937.27-Aug-2021 5021.00 7997.48 88.68 1.00  92.62 3358.56
   05:45:47.137.27-Aug-2021 5021.00 8002.65 88.68 1.00  92.82 3358.56
   05:45:47.337.27-Aug-2021 5021.00 8000.08 88.67 1.00  93.02 3358.56
   05:45:47.537.27-Aug-2021 5021.00 8000.08 88.67 1.00  93.22 3358.56
   05:45:47.737.27-Aug-2021 5021.00 7997.85 88.67 1.00  93.42 3358.56
   05:45:47.937.27-Aug-2021 5021.00 7997.72 88.67 1.00  93.62 3358.56
   05:45:48.137.27-Aug-2021 5021.00 8002.92 88.67 1.00  93.82 3358.56
   05:45:48.337.27-Aug-2021 5021.00 7999.81 88.67 1.00  94.02 3358.56
   05:45:48.537.27-Aug-2021 5021.00 7999.81 88.67 1.00  94.22 3358.56
   05:45:48.737.27-Aug-2021 5021.00 7997.38 88.67 1.00  94.42 3358.56
   05:45:48.937.27-Aug-2021 5021.00 7997.61 88.67 1.00  94.62 3358.56
   05:45:49.138.27-Aug-2021 5021.00 7998.85 88.67 1.00  94.82 3358.56
   05:45:49.338.27-Aug-2021 5021.00 7998.42 88.67 1.00  95.02 3358.56
   05:45:49.538.27-Aug-2021 5021.00 7998.42 88.67 1.00  95.22 3358.56
   05:45:49.738.27-Aug-2021 5021.00 7998.04 88.67 1.00  95.42 3358.56
   05:45:49.938.27-Aug-2021 5021.00 7998.59 88.67 1.00  95.62 3358.56
   05:45:50.138.27-Aug-2021 5021.00 7999.14 88.67 1.00  95.82 3358.56
   05:45:50.338.27-Aug-2021 5021.00 8000.10 88.67 1.00  96.02 3358.56
   05:45:50.538.27-Aug-2021 5021.00 8000.10 88.67 1.00  96.22 3358.56
   05:45:50.738.27-Aug-2021 5021.00 7999.20 88.67 1.00  96.42 3358.56
   05:45:50.938.27-Aug-2021 5021.00 7999.07 88.67 1.00  96.62 3358.56
   05:45:51.138.27-Aug-2021 5021.00 7998.58 88.67 1.00  96.82 3358.56
   05:45:51.338.27-Aug-2021 5021.00 8004.82 88.67 1.00  97.02 3358.56
   05:45:51.538.27-Aug-2021 5021.00 8004.82 88.67 1.00  97.22 3358.56
   05:45:51.738.27-Aug-2021 5021.00 7998.44 88.67 1.00  97.42 3358.56
   05:45:51.938.27-Aug-2021 5021.00 7998.49 88.67 1.00  97.62 3358.56
   05:45:52.138.27-Aug-2021 5021.00 7998.19 88.67 1.00  97.82 3358.56
   05:45:52.338.27-Aug-2021 5021.00 7998.32 88.67 1.00  98.02 3358.56
   05:45:52.538.27-Aug-2021 5021.00 7998.32 88.67 1.00  98.22 3358.56
   05:45:52.738.27-Aug-2021 5021.00 7998.05 88.67 1.00  98.42 3358.56
   05:45:52.938.27-Aug-2021 5021.00 7998.04 88.67 1.00  98.62 3358.56
   05:45:53.138.27-Aug-2021 5021.00 7998.49 88.67 1.00  98.82 3358.56
   05:45:53.338.27-Aug-2021 5021.00 7999.02 88.67 1.00  99.02 3358.56
   05:45:53.538.27-Aug-2021 5021.00 7999.02 88.67 1.00  99.22 3358.56
   05:45:53.738.27-Aug-2021 5021.00 7999.97 88.67 1.00  99.42 3358.56
   05:45:53.938.27-Aug-2021 5021.00 7999.75 88.67 1.00  99.62 3358.56
   05:45:54.138.27-Aug-2021 5021.00 7999.43 88.67 1.00  99.82 3358.56
   05:45:54.338.27-Aug-2021 5021.00 7999.22 88.67 1.00 100.02 3358.56
   05:45:54.538.27-Aug-2021 5021.00 7999.22 88.67 1.00 100.22 3358.56
   05:45:54.738.27-Aug-2021 5021.00 8006.72 88.67 1.00 100.42 3358.56
   05:45:54.938.27-Aug-2021 5021.00 7996.99 88.67 1.00 100.62 3358.56
   05:45:55.138.27-Aug-2021 5021.00 7998.22 88.67 1.00 100.82 3358.56
   05:45:55.339.27-Aug-2021 5021.00 7998.47 88.67 1.00 101.02 3358.56
   05:45:55.539.27-Aug-2021 5021.00 7998.47 88.67 1.00 101.22 3358.56
   05:45:55.739.27-Aug-2021 5021.00 8006.08 88.67 1.00 101.42 3358.56
   05:45:55.939.27-Aug-2021 5021.00 7996.54 88.67 1.00 101.62 3358.56
   05:45:56.139.27-Aug-2021 5021.00 7997.50 88.67 1.00 101.82 3358.56
   05:45:56.339.27-Aug-2021 5021.00 7998.13 88.67 1.00 102.02 3358.56
   05:45:56.539.27-Aug-2021 5021.00 7998.13 88.67 1.00 102.22 3358.56
   05:45:56.739.27-Aug-2021 5021.00 8001.95 88.67 1.00 102.42 3358.56
   05:45:56.939.27-Aug-2021 5021.00 8000.92 88.67 1.00 102.62 3358.56
   05:45:57.139.27-Aug-2021 5021.00 7999.79 88.67 1.00 102.82 3358.56
   05:45:57.339.27-Aug-2021 5021.00 7998.55 88.66 1.00 103.02 3358.56
   05:45:57.539.27-Aug-2021 5021.00 7998.55 88.66 1.00 103.22 3358.56
   05:45:57.739.27-Aug-2021 5021.00 8002.31 88.66 1.00 103.42 3358.56
   05:45:57.939.27-Aug-2021 5021.00 8001.20 88.66 1.00 103.62 3358.56
   05:45:58.139.27-Aug-2021 5021.00 7999.80 88.66 1.00 103.82 3358.56
   05:45:58.339.27-Aug-2021 5021.00 7998.54 88.66 1.00 104.02 3358.56
   05:45:58.539.27-Aug-2021 5021.00 7998.54 88.66 1.00 104.22 3358.56
   05:45:58.739.27-Aug-2021 5021.00 7998.39 88.66 1.00 104.42 3358.56
   05:45:58.939.27-Aug-2021 5021.00 7999.83 88.66 1.00 104.62 3358.56
   05:45:59.139.27-Aug-2021 5021.00 7999.07 88.66 1.00 104.82 3358.56
   05:45:59.339.27-Aug-2021 5021.00 7999.07 88.66 1.00 105.02 3358.56
   05:45:59.539.27-Aug-2021 5021.00 7999.07 88.66 1.00 105.22 3358.56
   05:45:59.739.27-Aug-2021 5021.00 7999.03 88.66 1.00 105.42 3358.56
   05:45:59.939.27-Aug-2021 5021.00 8000.32 88.66 1.00 105.62 3358.56
   05:46:00.139.27-Aug-2021 5021.00 8000.39 88.66 1.00 105.82 3358.56
   05:46:00.339.27-Aug-2021 5021.00 8000.25 88.66 1.00 106.02 3358.56
   05:46:00.539.27-Aug-2021 5021.00 8000.25 88.66 1.00 106.22 3358.56
   05:46:00.739.27-Aug-2021 5021.00 7999.59 88.66 1.00 106.42 3358.56
   05:46:00.939.27-Aug-2021 5021.00 7999.39 88.66 1.00 106.62 3358.56
   05:46:01.139.27-Aug-2021 5021.00 8002.73 88.66 1.00 106.82 3358.56
   05:46:01.340.27-Aug-2021 5021.00 8001.51 88.66 1.00 107.02 3358.56
   05:46:01.540.27-Aug-2021 5021.00 8001.51 88.66 1.00 107.22 3358.56
   05:46:01.740.27-Aug-2021 5021.00 7999.23 88.66 1.00 107.42 3358.56
   05:46:01.940.27-Aug-2021 5021.00 7998.65 88.66 1.00 107.62 3358.56
   05:46:02.140.27-Aug-2021 5021.00 7999.28 88.66 1.00 107.82 3358.56
   05:46:02.340.27-Aug-2021 5021.00 7998.44 88.66 1.00 108.02 3358.56
   05:46:02.540.27-Aug-2021 5021.00 7998.44 88.66 1.00 108.22 3358.56
   05:46:02.740.27-Aug-2021 5021.00 7998.76 88.66 1.00 108.42 3358.56
   05:46:02.940.27-Aug-2021 5021.00 7998.94 88.66 1.00 108.62 3358.56
   05:46:03.140.27-Aug-2021 5021.00 8000.18 88.66 1.00 108.82 3358.56
   05:46:03.340.27-Aug-2021 5021.00 8000.59 88.66 1.00 109.02 3358.56
   05:46:03.540.27-Aug-2021 5021.00 8000.59 88.66 1.00 109.22 3358.56
   05:46:03.740.27-Aug-2021 5021.00 8000.07 88.66 1.00 109.42 3358.56
   05:46:03.940.27-Aug-2021 5021.00 7999.93 88.66 1.00 109.62 3358.56
   05:46:04.140.27-Aug-2021 5021.00 7999.76 88.66 1.00 109.82 3358.56
   05:46:04.340.27-Aug-2021 5021.00 7999.58 88.66 1.00 110.02 3358.56
   05:46:04.540.27-Aug-2021 5021.00 7999.58 88.66 1.00 110.22 3358.56
   05:46:04.740.27-Aug-2021 5021.00 7998.74 88.66 1.00 110.42 3358.56
   05:46:04.940.27-Aug-2021 5021.00 7998.94 88.66 1.00 110.62 3358.56
   05:46:05.140.27-Aug-2021 5021.00 7999.00 88.66 1.00 110.82 3358.56
   05:46:05.340.27-Aug-2021 5021.00 8002.62 88.66 1.00 111.02 3358.56
   05:46:05.540.27-Aug-2021 5021.00 8002.62 88.66 1.00 111.22 3358.56
   05:46:05.740.27-Aug-2021 5021.00 7998.70 88.66 1.00 111.42 3358.56
   05:46:05.940.27-Aug-2021 5021.00 7998.91 88.66 1.00 111.62 3358.56
   05:46:06.140.27-Aug-2021 5021.00 7998.59 88.66 1.00 111.82 3358.56
   05:46:06.340.27-Aug-2021 5021.00 7999.54 88.66 1.00 112.02 3358.56
   05:46:06.540.27-Aug-2021 5021.00 7999.54 88.66 1.00 112.22 3358.56
   05:46:06.740.27-Aug-2021 5021.00 8002.29 88.66 1.00 112.42 3358.56
   05:46:06.940.27-Aug-2021 5021.00 7999.10 88.66 1.00 112.62 3358.56
   05:46:07.140.27-Aug-2021 5021.00 8007.54 88.66 1.00 112.82 3358.56
   05:46:07.340.27-Aug-2021 5021.00 7998.08 88.66 1.00 113.02 3358.56
   05:46:07.541.27-Aug-2021 5021.00 7998.08 88.66 1.00 113.22 3358.56
   05:46:07.741.27-Aug-2021 5021.00 7999.20 88.65 1.00 113.42 3358.56
   05:46:07.941.27-Aug-2021 5021.00 7998.76 88.65 1.00 113.62 3358.56
   05:46:08.141.27-Aug-2021 5021.00 7998.33 88.65 1.00 113.82 3358.56
   05:46:08.341.27-Aug-2021 5021.00 7998.62 88.65 1.00 114.02 3358.56
   05:46:08.541.27-Aug-2021 5021.00 7998.62 88.65 1.00 114.22 3358.56
   05:46:08.741.27-Aug-2021 5021.00 7999.34 88.65 1.00 114.42 3358.56
   05:46:08.941.27-Aug-2021 5021.00 7999.22 88.65 1.00 114.62 3358.56
   05:46:09.141.27-Aug-2021 5021.00 7999.70 88.65 1.00 114.82 3358.56
