~Version Information
 VERS.                  2.0:   CWLS log ASCII Standard -VERSION 2.0
 WRAP.                   NO:   One line per depth step
~Well Information Block
#MNEM.UNIT     VALUE/NAME     DESCRIPTION
#---------     -----------    ---------------------------
 STRT.S             10:06:49 27-Aug-21: START TIME 10:06:49 27-Aug-21
 STOP.S             10:13:57 27-Aug-21: STOP TIME  10:13:57 27-Aug-21
 STEP.S                   0.00: STEP TIME
 NULL.                 -999.25: NULL VALUE
 DFWT.                        :  DIST FWL TEXT
 DFST.                        :  DIST FSL TEXT
 DMF .             Drill Floor:  DRILL MEAS FROM
 STIM.      20.00.00 17-Aug-21:  START TIME
 DATE.      19.00.00 29-Aug-21:  END TIME
 SPUD.               15-Aug-21:  SPUD DATE
 NREF.                    Grid:  NORTH REFERENCE
 HPTY.       Minimum Curvature:  HOLE POS TYPE
 DMOD.             Drill Model:  DRILL MOD DESC
 SVYD.                  Survey:  SURVEY DESC
 ILTD.               Lithology:  INTERP LTH DESC
 FTOP.          Formation Tops:  FORM TOPS DESC
 RIG .              East Azeri:  RIG NAME
 PDAT.          Mean Sea Level:  PERMANENT DATUM
 FLD .                     ACG:  FIELD NAME
 SON .        AZ-XX-0907180857:  JOB NUMBER
 CTRY.              Azerbaijan:  COUNTRY NAME
 WELL.                    D23x:  WELL NAME
 SRVC.     Turan Drilling and Engineering:  CONTRACTOR
 COMP.     BP Exploration (Caspian Sea) Ltd.:  COMPANY
 UWI .            /AZE00000214:  UNIQUE WELL IDENTIFIER
 API .            /AZE00000214:  API NUMBER
 MDS .        Operator Entered:  MAG DATA SOURCE
 BASE.              Azerbaijan:  LOGGING EQUIPMENT BASE LOCATION
 REGN.                   EESSA:  REGION
 PROV.                    Baku:  PROVINCE
 STAT.                    Baku:  STATE NAME
 MWDS.                    Baku:  MWD SHOP
 DOE .                     N/A:  DOE NUMBER
 DCON.         Sperry Drilling:  DIRECTNL CONTR
 UNIT.                     N/A:  LOGGING EQUIPMENT ID
 WTYP.                Deviated:  WELL TYPE
 CNTY.                        :  COUNTY
 LOC .                        :  LOCATION
 LMF .             Drill Floor:  LOG MEASURED FROM
 TVDS.m                  43.60:  TVDSS CORRECTN
 LATI.deg                40.02:  LATITUDE
 LONG.deg                51.45:  LONGITUDE
 WHNS.m                  -7.04:  WELL HEAD N/S
 WHEW.m                  -0.67:  WELL HEAD E/W
 UTMX.m              538762.90:  UTM X
 UTMY.m             4431871.34:  UTM Y
 DFWL.m                   0.00:  DISTANCE FWL
 DFSL.m                   0.00:  DISTANCE FSL
 SDEP.m                4127.00:  START DEPTH
 TDD .m                5084.50:  TOTAL DEPTH (DRILLER)
 VSDR.deg               140.47:  VERT SEC DIRECT
 GVFD.g                   1.00:  GRAVITY FIELD
 MFLD.nT              50362.00:  MAGNETIC FIELD
 MDIP.deg                59.48:  MAGNETIC DIP
 MDEC.deg                 6.47:  MAGNETIC DECL
 GRDC.deg                 0.31:  GRID CORRECTION
 AZTC.deg                 6.16:  AZM TOTAL CORR
 EPD .m                   0.00:  ELEVATION
 EGL .m                   0.00:  GROUND ELEVATION
 WDMS.m                 151.80:  WD ELEV
 APD .m                  43.60:  DEPTH ABOVE PD
 DEP .m                4092.57:  DEPTH
 AGAP.m                  43.60:  AIR GAP
 VSEW.m                  -0.67:  VERT SEC E/W
 VSNS.m                  -7.04:  VERT SEC N/S
 EKB .m                  43.60:  KB ELEVATION
 EDF .m                  43.60:  DF ELEVATION
 TDL .m                 957.50:  TOTAL DEPTH (LOGGER)
 VSC .                       0:  VS TO CLOSURE
 MAGU.                 1851413:  MAGUTM CHECKSUM
~Parameter Information Block
#MNEM.UNIT       Value        Description
#---------     -----------    ---------------------------
 AV  .mps                 1.50:  Ann Velocity 
 AVMX.mps                 2.00:  Max Ann Veloc 
 AZIF.deg               184.66:  Azm, Final 
 BHAT.        Rotary Steerable:  BHA Type 
 BREV.rev               300.00:  Rev Bit Total 
 BROT.°/30m              -0.50:  Build Rotating 
 BS  .in                  8.50:  Bit Size 
 BSZ .in                  8.50:  Bit Size 
 BTPL.psig              370.00:  Bit Press Loss 
 CABU.                      No:  Customer Abuse 
 CGEO.      Behruz Shahbaliyev:  Customer Geo 
 COMM.                     Ììg:  Run Comments 1 
 TCS .hr                140.08:  Time Ciculation Ended 
 CV  .mps                 3.00:  Crit Velocity 
 CVMX.mps                 3.20:  Max Crit Veloc 
 DD1 .            Musa Ahmadov:  Direct Drillr 1 
 DD2 .           Hamid Ahmadov:  Direct Drillr 2 
 DDSV.               Geo-Pilot:  DD Service 
 DEFF.%                  98.40:  % Det Eff 
 DLRX.°/30m               3.40:  Dogleg Rot Max 
 DLSO.°/30m               1.45:  Dogleg Oriented 
 DLSX.°/30m               3.40:  Dogleg Str Max 
 DRET.      18.40.00 29-Aug-21:  Drill End Time 
 DRST.      21.00.00 20-Aug-21:  Drill Start Tim 
 DTIM.hr                 69.47:  Time Drilling 
 EDEP.m                5084.50:  End Depth 
 ENG1.      Artemiy Matviyanov:  Engineer 1 
 ENG2.         Almaz Almadatov:  Engineer 2 
 ETIM.      18.40.00 29-Aug-21:  End Time 
 FLOI.gpm               500.00:  Flow In 
 FLON.gpm               400.00:  Flow In Min 
 FLOS.cptm                0.00:  Fluid Loss 
 FLOX.gpm               500.00:  Flow In Max 
 DFT .        Mineral Oil Base:  Mud Type 
 HFLO.                      No:  High Flow 
 HPRE.                      No:  High Pressure 
 HTEM.                      No:  High Temp 
 HYDO.m                   1.80:  Hydro Offset 
 IFIN.deg                25.62:  Inc, Final 
 IMAX.deg                48.69:  Inc Max 
 IMIN.deg                24.01:  Inc Min 
 IMND.m                4962.57:  Inc Min Depth 
 IMXD.m                4119.01:  Inc Max Depth 
 JARR.                      No:  Jarring 
 LETM.      18.40.00 29-Aug-21:  Log End Time 
 LOST.hr                     0:  Lost Rig Time 
 LSTM.      21.00.00 20-Aug-21:  Log Start Time 
 MDCL.ppm             41500.00:  Mud Chlorides 
 MDES.     Inversion Oil/Synthetic:  Mud Desc 
 DFD .sg                  1.56:  Mud Density 
 MDMN.sg                  1.56:  Dens Mud Min 
 MDMX.sg                  1.56:  Dens Mud Max 
 MOIL.                      70:  Run Mud Oil % 
 MOWR.                   70:30:  Run Mud OWR 
 MSND.                     0.2:  Run Mud Sand % 
 MSOL.                    23.3:  Run Mud Solids% 
 DFV .spqt               78.00:  Mud Viscosity 
 MWOD.in                  6.75:  MWD Tool OD 
 MWSI.                      No:  Serv Intrp, MWD 
 OTIM.hr                218.30:  Time Operating 
 PCON.           Look Like New:  Pad Condition 
 PMAX.psia            11015.30:  Press Op, Max 
 PV  .cP                 38.00:  Mud PV 
 RUN .                     300:  Run Number 
 ROPA.m/hr               15.00:  ROP Avg 
 ROPN.m/hr                9.00:  ROP Min 
 ROPX.m/hr               17.00:  ROP Max 
 RPMA.rpm               120.00:  RPM Surface Avg 
 RPMN.rpm                90.00:  RPM Surface Min 
 RPMX.rpm               140.00:  RPM Surface Max 
 RRUN.                     300:  Rig Run Number 
 RTIM.hr                 31.53:  Time Reaming 
 SAZI.deg               331.64:  Azm, Start 
 SDEP.m                4127.00:  Start Depth 
 SIDD.                      No:  Serv Intrp, DD 
 SINC.deg                48.43:  Inc, Start 
 SPPA.psig             5830.00:  SPP Avg 
 SPPN.psig             5600.00:  SPP Min 
 SPPX.psig             5900.00:  SPP Max 
 STIM.      21.00.00 20-Aug-21:  Start Time 
 SVCS.                 DD, MWD:  Services 
 SVER.                    9.20:  Sperry Version 
 TDAT.m                 957.50:  Tot Depth Attmp 
 TDDF.                      No:  Trip for DD 
 TDLG.m                 957.50:  Tot Depth Loggd 
 TFF .                      No:  Trip for Fail 
 TQAA.f-kp               15.00:  Torque Abs Avg 
 TQAN.f-kp               12.00:  Torque Abs Min 
 TQAX.f-kp               19.00:  Torque Abs Max 
 TRRT.°/30m              -3.40:  Turn Rotating 
 MRT .                  EWR-M5:  Maximum Recorded Temperature 
 TTMX.degC              100.00:  Max Tool Temp 
 VS01.                90639251:  Virtual Str1 SN 
 VS02.                90634715:  Virtual Str2 SN 
 VS03.                90652479:  Virtual Str3 SN 
 VS04.                90642262:  Virtual Str4 SN 
 WBMN.klb                 0.00:  WOB Min 
 WITN.           Murad Guliyev:  Customer Rep 
 WITN.          Yashar Gaziyev:  Customer Rep 2 
 WOBA.klb                 9.00:  WOB Avg 
 WOBX.klb                12.00:  WOB Max 
 YP  .lhf2               30.00:  Yield Point 
~Curve Information Block
#MNEM.UNIT                 API CODE     Curve Description
#---------               -----------    ---------------------------
 TIME.HHMMSS            00 000 000 000:  GT Time & Date
 GTDEPTH.m              00 000 000 000:  GT Depth
 GTPQH.psia             00 000 000 000:  GT HR Quartz Pressure
 GTTQ.degC              00 000 000 000:  GT Quartz Temperature
 GTTN.NONE              00 000 000 000:  GT Test Number
 GTET.sec               00 000 000 000:  GT Elapsed Test Time
 GTTVD.m                00 000 000 000:  GT True Vertical Depth
#Other Information
#
#WARRANTY: Halliburton will use its best efforts to furnish customers with 
#accurate information and interpretations that are part of, and incident to, the services 
#provided.  However, Halliburton cannot and does not warrant the accuracy 
#or correctness of such information and interpretations.  Under no circumstances should any 
#such information or interpretation be relied upon as the sole basis for any drilling, 
#completion, production, or financial decision or any procedure involving any risk to the 
#safety of any drilling venture, drilling rig or its crew or any other third party.  The 
#Customer has full responsibility for all drilling, completion and production operation.  
#Halliburton makes no representations or warranties, either expressed or 
#implied, including, but not limited to, the implied warranties of merchantability or fitness 
#for a particular purpose, with respect to the services rendered.  In no event will 
#Halliburton be liable for failure to obtain any particular results or for 
#any damages, including, but not limited to, indirect, special or consequential damages, 
#resulting from the use of any information or interpretation provided by Halliburton.
#
~A           TIME           GTDEPTH  GTPQH  GTTQ  GTTN  GTET   GTTVD  
   10:06:49.134.27-Aug-2021 4958.50 7840.94 86.13 8.00   0.00 3301.91
   10:06:49.333.27-Aug-2021 4958.50 7840.94 86.13 8.00   0.20 3301.91
   10:06:49.533.27-Aug-2021 4958.50 7841.84 86.13 8.00   0.40 3301.91
   10:06:49.733.27-Aug-2021 4958.50 7840.63 86.13 8.00   0.60 3301.91
   10:06:49.933.27-Aug-2021 4958.50 7840.12 86.13 8.00   0.80 3301.91
   10:06:50.132.27-Aug-2021 4958.50 7844.65 86.13 8.00   1.00 3301.91
   10:06:50.332.27-Aug-2021 4958.50 7844.65 86.13 8.00   1.20 3301.91
   10:06:50.532.27-Aug-2021 4958.50 7840.61 86.13 8.00   1.40 3301.91
   10:06:50.732.27-Aug-2021 4958.50 7838.90 86.13 8.00   1.60 3301.91
   10:06:50.932.27-Aug-2021 4958.50 7838.71 86.13 8.00   1.80 3301.91
   10:06:51.131.27-Aug-2021 4958.50 7843.71 86.13 8.00   2.00 3301.91
   10:06:51.331.27-Aug-2021 4958.50 7843.71 86.13 8.00   2.20 3301.91
   10:06:51.531.27-Aug-2021 4958.50 7839.50 86.13 8.00   2.40 3301.91
   10:06:51.731.27-Aug-2021 4958.50 7838.13 86.13 8.00   2.60 3301.91
   10:06:51.930.27-Aug-2021 4958.50 7842.46 86.13 8.00   2.80 3301.91
   10:06:52.130.27-Aug-2021 4958.50 7838.79 86.13 8.00   3.00 3301.91
   10:06:52.330.27-Aug-2021 4958.50 7838.79 86.13 8.00   3.20 3301.91
   10:06:52.530.27-Aug-2021 4958.50 7839.53 86.13 8.00   3.40 3301.91
   10:06:52.729.27-Aug-2021 4958.50 7839.31 86.13 8.00   3.60 3301.91
   10:06:52.929.27-Aug-2021 4958.50 7840.03 86.13 8.00   3.80 3301.91
   10:06:53.129.27-Aug-2021 4958.50 7840.51 86.13 8.00   4.00 3301.91
   10:06:53.329.27-Aug-2021 4958.50 7840.51 86.13 8.00   4.19 3301.91
   10:06:53.528.27-Aug-2021 4958.50 7840.85 86.13 8.00   4.39 3301.91
   10:06:53.728.27-Aug-2021 4958.50 7840.90 86.13 8.00   4.59 3301.91
   10:06:53.928.27-Aug-2021 4958.50 7841.58 86.13 8.00   4.79 3301.91
   10:06:54.128.27-Aug-2021 4958.50 7841.71 86.13 8.00   4.99 3301.91
   10:06:54.327.27-Aug-2021 4958.50 7841.71 86.13 8.00   5.19 3301.91
   10:06:54.527.27-Aug-2021 4958.50 7841.92 86.13 8.00   5.39 3301.91
   10:06:54.727.27-Aug-2021 4958.50 7842.20 86.13 8.00   5.59 3301.91
   10:06:54.927.27-Aug-2021 4958.50 7842.40 86.13 8.00   5.79 3301.91
   10:06:55.127.27-Aug-2021 4958.50 7842.54 86.13 8.00   5.99 3301.91
   10:06:55.326.27-Aug-2021 4958.50 7842.54 86.13 8.00   6.19 3301.91
   10:06:55.526.27-Aug-2021 4958.50 7842.54 86.13 8.00   6.39 3301.91
   10:06:55.726.27-Aug-2021 4958.50 7844.73 86.13 8.00   6.59 3301.91
   10:06:55.926.27-Aug-2021 4958.50 7845.51 86.13 8.00   6.79 3301.91
   10:06:56.125.27-Aug-2021 4958.50 7844.90 86.13 8.00   6.99 3301.91
   10:06:56.325.27-Aug-2021 4958.50 7844.90 86.13 8.00   7.19 3301.91
   10:06:56.525.27-Aug-2021 4958.50 7844.64 86.13 8.00   7.39 3301.91
   10:06:56.725.27-Aug-2021 4958.50 7845.01 86.13 8.00   7.59 3301.91
   10:06:56.924.27-Aug-2021 4958.50 7845.16 86.13 8.00   7.79 3301.91
   10:06:57.124.27-Aug-2021 4958.50 7845.13 86.13 8.00   7.99 3301.91
   10:06:57.324.27-Aug-2021 4958.50 7845.13 86.13 8.00   8.19 3301.91
   10:06:57.524.27-Aug-2021 4958.50 7846.46 86.13 8.00   8.39 3301.91
   10:06:57.723.27-Aug-2021 4958.50 7847.28 86.13 8.00   8.59 3301.91
   10:06:57.923.27-Aug-2021 4958.50 7847.78 86.13 8.00   8.79 3301.91
   10:06:58.123.27-Aug-2021 4958.50 7848.16 86.13 8.00   8.99 3301.91
   10:06:58.323.27-Aug-2021 4958.50 7848.16 86.13 8.00   9.19 3301.91
   10:06:58.522.27-Aug-2021 4958.50 7848.36 86.13 8.00   9.39 3301.91
   10:06:58.722.27-Aug-2021 4958.50 7851.65 86.13 8.00   9.59 3301.91
   10:06:58.922.27-Aug-2021 4958.50 7848.57 86.13 8.00   9.79 3301.91
   10:06:59.122.27-Aug-2021 4958.50 7850.05 86.13 8.00   9.99 3301.91
   10:06:59.322.27-Aug-2021 4958.50 7850.05 86.13 8.00  10.19 3301.91
   10:06:59.521.27-Aug-2021 4958.50 7848.48 86.13 8.00  10.39 3301.91
   10:06:59.721.27-Aug-2021 4958.50 7848.31 86.13 8.00  10.59 3301.91
   10:06:59.921.27-Aug-2021 4958.50 7850.74 86.13 8.00  10.79 3301.91
   10:07:00.121.27-Aug-2021 4958.50 7849.20 86.13 8.00  10.99 3301.91
   10:07:00.320.27-Aug-2021 4958.50 7849.20 86.13 8.00  11.19 3301.91
   10:07:00.520.27-Aug-2021 4958.50 7849.04 86.13 8.00  11.39 3301.91
   10:07:00.720.27-Aug-2021 4958.50 7849.07 86.13 8.00  11.59 3301.91
   10:07:00.920.27-Aug-2021 4958.50 7849.50 86.13 8.00  11.79 3301.91
   10:07:01.119.27-Aug-2021 4958.50 7855.38 86.13 8.00  11.99 3301.91
   10:07:01.319.27-Aug-2021 4958.50 7855.38 86.13 8.00  12.19 3301.91
   10:07:01.519.27-Aug-2021 4958.50 7850.98 86.13 8.00  12.39 3301.91
   10:07:01.719.27-Aug-2021 4958.50 7850.40 86.13 8.00  12.58 3301.91
   10:07:01.918.27-Aug-2021 4958.50 7850.69 86.13 8.00  12.78 3301.91
   10:07:02.118.27-Aug-2021 4958.50 7851.16 86.13 8.00  12.98 3301.91
   10:07:02.318.27-Aug-2021 4958.50 7851.16 86.13 8.00  13.18 3301.91
   10:07:02.518.27-Aug-2021 4958.50 7852.63 86.13 8.00  13.38 3301.91
   10:07:02.717.27-Aug-2021 4958.50 7851.19 86.13 8.00  13.58 3301.91
   10:07:02.917.27-Aug-2021 4958.50 7853.28 86.13 8.00  13.78 3301.91
   10:07:03.117.27-Aug-2021 4958.50 7852.84 86.13 8.00  13.98 3301.91
   10:07:03.317.27-Aug-2021 4958.50 7852.84 86.13 8.00  14.18 3301.91
   10:07:03.516.27-Aug-2021 4958.50 7853.23 86.13 8.00  14.38 3301.91
   10:07:03.716.27-Aug-2021 4958.50 7852.69 86.13 8.00  14.58 3301.91
   10:07:03.916.27-Aug-2021 4958.50 7852.63 86.13 8.00  14.78 3301.91
   10:07:04.116.27-Aug-2021 4958.50 7855.84 86.13 8.00  14.98 3301.91
   10:07:04.316.27-Aug-2021 4958.50 7855.84 86.13 8.00  15.18 3301.91
   10:07:04.515.27-Aug-2021 4958.50 7853.78 86.13 8.00  15.38 3301.91
   10:07:04.715.27-Aug-2021 4958.50 7853.80 86.13 8.00  15.58 3301.91
   10:07:04.915.27-Aug-2021 4958.50 7854.00 86.13 8.00  15.78 3301.91
   10:07:05.115.27-Aug-2021 4958.50 7854.30 86.13 8.00  15.98 3301.91
   10:07:05.314.27-Aug-2021 4958.50 7854.30 86.13 8.00  16.18 3301.91
   10:07:05.514.27-Aug-2021 4958.50 7854.17 86.13 8.00  16.38 3301.91
   10:07:05.714.27-Aug-2021 4958.50 7854.65 86.12 8.00  16.58 3301.91
   10:07:05.914.27-Aug-2021 4958.50 7854.83 86.13 8.00  16.78 3301.91
   10:07:06.113.27-Aug-2021 4958.50 7855.55 86.12 8.00  16.98 3301.91
   10:07:06.313.27-Aug-2021 4958.50 7855.55 86.12 8.00  17.18 3301.91
   10:07:06.513.27-Aug-2021 4958.50 7855.80 86.12 8.00  17.38 3301.91
   10:07:06.713.27-Aug-2021 4958.50 7855.91 86.12 8.00  17.58 3301.91
   10:07:06.912.27-Aug-2021 4958.50 7855.76 86.12 8.00  17.78 3301.91
   10:07:07.112.27-Aug-2021 4958.50 7855.75 86.12 8.00  17.98 3301.91
   10:07:07.312.27-Aug-2021 4958.50 7855.75 86.12 8.00  18.18 3301.91
   10:07:07.512.27-Aug-2021 4958.50 7856.03 86.12 8.00  18.38 3301.91
   10:07:07.711.27-Aug-2021 4958.50 7857.44 86.12 8.00  18.58 3301.91
   10:07:07.911.27-Aug-2021 4958.50 7856.69 86.12 8.00  18.78 3301.91
   10:07:08.111.27-Aug-2021 4958.50 7856.77 86.12 8.00  18.98 3301.91
   10:07:08.311.27-Aug-2021 4958.50 7856.77 86.12 8.00  19.18 3301.91
   10:07:08.511.27-Aug-2021 4958.50 7857.29 86.12 8.00  19.38 3301.91
   10:07:08.710.27-Aug-2021 4958.50 7857.36 86.12 8.00  19.58 3301.91
   10:07:08.910.27-Aug-2021 4958.50 7857.31 86.12 8.00  19.78 3301.91
   10:07:09.110.27-Aug-2021 4958.50 7857.74 86.12 8.00  19.98 3301.91
   10:07:09.310.27-Aug-2021 4958.50 7857.74 86.12 8.00  20.18 3301.91
   10:07:09.509.27-Aug-2021 4958.50 7858.73 86.12 8.00  20.38 3301.91
   10:07:09.709.27-Aug-2021 4958.50 7858.95 86.12 8.00  20.58 3301.91
   10:07:09.909.27-Aug-2021 4958.50 7859.06 86.12 8.00  20.78 3301.91
   10:07:10.109.27-Aug-2021 4958.50 7859.01 86.12 8.00  20.97 3301.91
   10:07:10.308.27-Aug-2021 4958.50 7859.01 86.12 8.00  21.17 3301.91
   10:07:10.508.27-Aug-2021 4958.50 7859.12 86.12 8.00  21.37 3301.91
   10:07:10.708.27-Aug-2021 4958.50 7864.04 86.12 8.00  21.57 3301.91
   10:07:10.908.27-Aug-2021 4958.50 7859.02 86.12 8.00  21.77 3301.91
   10:07:11.107.27-Aug-2021 4958.50 7860.36 86.12 8.00  21.97 3301.91
   10:07:11.307.27-Aug-2021 4958.50 7860.36 86.12 8.00  22.17 3301.91
   10:07:11.507.27-Aug-2021 4958.50 7859.84 86.12 8.00  22.37 3301.91
   10:07:11.707.27-Aug-2021 4958.50 7860.20 86.12 8.00  22.57 3301.91
   10:07:11.906.27-Aug-2021 4958.50 7860.22 86.12 8.00  22.77 3301.91
