~Version Information
 VERS.                  2.0:   CWLS log ASCII Standard -VERSION 2.0
 WRAP.                   NO:   One line per depth step
~Well Information Block
#MNEM.UNIT     VALUE/NAME     DESCRIPTION
#---------     -----------    ---------------------------
 STRT.S             11:29:40 27-Aug-21: START TIME 11:29:40 27-Aug-21
 STOP.S             11:36:51 27-Aug-21: STOP TIME  11:36:51 27-Aug-21
 STEP.S                   0.00: STEP TIME
 NULL.                 -999.25: NULL VALUE
 DFWT.                        :  DIST FWL TEXT
 DFST.                        :  DIST FSL TEXT
 DMF .             Drill Floor:  DRILL MEAS FROM
 STIM.      20.00.00 17-Aug-21:  START TIME
 DATE.      19.00.00 29-Aug-21:  END TIME
 SPUD.               15-Aug-21:  SPUD DATE
 NREF.                    Grid:  NORTH REFERENCE
 HPTY.       Minimum Curvature:  HOLE POS TYPE
 DMOD.             Drill Model:  DRILL MOD DESC
 SVYD.                  Survey:  SURVEY DESC
 ILTD.               Lithology:  INTERP LTH DESC
 FTOP.          Formation Tops:  FORM TOPS DESC
 RIG .              East Azeri:  RIG NAME
 PDAT.          Mean Sea Level:  PERMANENT DATUM
 FLD .                     ACG:  FIELD NAME
 SON .        AZ-XX-0907180857:  JOB NUMBER
 CTRY.              Azerbaijan:  COUNTRY NAME
 WELL.                    D23x:  WELL NAME
 SRVC.     Turan Drilling and Engineering:  CONTRACTOR
 COMP.     BP Exploration (Caspian Sea) Ltd.:  COMPANY
 UWI .            /AZE00000214:  UNIQUE WELL IDENTIFIER
 API .            /AZE00000214:  API NUMBER
 MDS .        Operator Entered:  MAG DATA SOURCE
 BASE.              Azerbaijan:  LOGGING EQUIPMENT BASE LOCATION
 REGN.                   EESSA:  REGION
 PROV.                    Baku:  PROVINCE
 STAT.                    Baku:  STATE NAME
 MWDS.                    Baku:  MWD SHOP
 DOE .                     N/A:  DOE NUMBER
 DCON.         Sperry Drilling:  DIRECTNL CONTR
 UNIT.                     N/A:  LOGGING EQUIPMENT ID
 WTYP.                Deviated:  WELL TYPE
 CNTY.                        :  COUNTY
 LOC .                        :  LOCATION
 LMF .             Drill Floor:  LOG MEASURED FROM
 TVDS.m                  43.60:  TVDSS CORRECTN
 LATI.deg                40.02:  LATITUDE
 LONG.deg                51.45:  LONGITUDE
 WHNS.m                  -7.04:  WELL HEAD N/S
 WHEW.m                  -0.67:  WELL HEAD E/W
 UTMX.m              538762.90:  UTM X
 UTMY.m             4431871.34:  UTM Y
 DFWL.m                   0.00:  DISTANCE FWL
 DFSL.m                   0.00:  DISTANCE FSL
 SDEP.m                4127.00:  START DEPTH
 TDD .m                5084.50:  TOTAL DEPTH (DRILLER)
 VSDR.deg               140.47:  VERT SEC DIRECT
 GVFD.g                   1.00:  GRAVITY FIELD
 MFLD.nT              50362.00:  MAGNETIC FIELD
 MDIP.deg                59.48:  MAGNETIC DIP
 MDEC.deg                 6.47:  MAGNETIC DECL
 GRDC.deg                 0.31:  GRID CORRECTION
 AZTC.deg                 6.16:  AZM TOTAL CORR
 EPD .m                   0.00:  ELEVATION
 EGL .m                   0.00:  GROUND ELEVATION
 WDMS.m                 151.80:  WD ELEV
 APD .m                  43.60:  DEPTH ABOVE PD
 DEP .m                4092.57:  DEPTH
 AGAP.m                  43.60:  AIR GAP
 VSEW.m                  -0.67:  VERT SEC E/W
 VSNS.m                  -7.04:  VERT SEC N/S
 EKB .m                  43.60:  KB ELEVATION
 EDF .m                  43.60:  DF ELEVATION
 TDL .m                 957.50:  TOTAL DEPTH (LOGGER)
 VSC .                       0:  VS TO CLOSURE
 MAGU.                 1851413:  MAGUTM CHECKSUM
~Parameter Information Block
#MNEM.UNIT       Value        Description
#---------     -----------    ---------------------------
 AV  .mps                 1.50:  Ann Velocity 
 AVMX.mps                 2.00:  Max Ann Veloc 
 AZIF.deg               184.66:  Azm, Final 
 BHAT.        Rotary Steerable:  BHA Type 
 BREV.rev               300.00:  Rev Bit Total 
 BROT.°/30m              -0.50:  Build Rotating 
 BS  .in                  8.50:  Bit Size 
 BSZ .in                  8.50:  Bit Size 
 BTPL.psig              370.00:  Bit Press Loss 
 CABU.                      No:  Customer Abuse 
 CGEO.      Behruz Shahbaliyev:  Customer Geo 
 COMM.                     ,A[:  Run Comments 1 
 TCS .hr                140.08:  Time Ciculation Ended 
 CV  .mps                 3.00:  Crit Velocity 
 CVMX.mps                 3.20:  Max Crit Veloc 
 DD1 .            Musa Ahmadov:  Direct Drillr 1 
 DD2 .           Hamid Ahmadov:  Direct Drillr 2 
 DDSV.               Geo-Pilot:  DD Service 
 DEFF.%                  98.40:  % Det Eff 
 DLRX.°/30m               3.40:  Dogleg Rot Max 
 DLSO.°/30m               1.45:  Dogleg Oriented 
 DLSX.°/30m               3.40:  Dogleg Str Max 
 DRET.      18.40.00 29-Aug-21:  Drill End Time 
 DRST.      21.00.00 20-Aug-21:  Drill Start Tim 
 DTIM.hr                 69.47:  Time Drilling 
 EDEP.m                5084.50:  End Depth 
 ENG1.      Artemiy Matviyanov:  Engineer 1 
 ENG2.         Almaz Almadatov:  Engineer 2 
 ETIM.      18.40.00 29-Aug-21:  End Time 
 FLOI.gpm               500.00:  Flow In 
 FLON.gpm               400.00:  Flow In Min 
 FLOS.cptm                0.00:  Fluid Loss 
 FLOX.gpm               500.00:  Flow In Max 
 DFT .        Mineral Oil Base:  Mud Type 
 HFLO.                      No:  High Flow 
 HPRE.                      No:  High Pressure 
 HTEM.                      No:  High Temp 
 HYDO.m                   1.80:  Hydro Offset 
 IFIN.deg                25.62:  Inc, Final 
 IMAX.deg                48.69:  Inc Max 
 IMIN.deg                24.01:  Inc Min 
 IMND.m                4962.57:  Inc Min Depth 
 IMXD.m                4119.01:  Inc Max Depth 
 JARR.                      No:  Jarring 
 LETM.      18.40.00 29-Aug-21:  Log End Time 
 LOST.hr                     0:  Lost Rig Time 
 LSTM.      21.00.00 20-Aug-21:  Log Start Time 
 MDCL.ppm             41500.00:  Mud Chlorides 
 MDES.     Inversion Oil/Synthetic:  Mud Desc 
 DFD .sg                  1.56:  Mud Density 
 MDMN.sg                  1.56:  Dens Mud Min 
 MDMX.sg                  1.56:  Dens Mud Max 
 MOIL.                      70:  Run Mud Oil % 
 MOWR.                   70:30:  Run Mud OWR 
 MSND.                     0.2:  Run Mud Sand % 
 MSOL.                    23.3:  Run Mud Solids% 
 DFV .spqt               78.00:  Mud Viscosity 
 MWOD.in                  6.75:  MWD Tool OD 
 MWSI.                      No:  Serv Intrp, MWD 
 OTIM.hr                218.30:  Time Operating 
 PCON.           Look Like New:  Pad Condition 
 PMAX.psia            11015.30:  Press Op, Max 
 PV  .cP                 38.00:  Mud PV 
 RUN .                     300:  Run Number 
 ROPA.m/hr               15.00:  ROP Avg 
 ROPN.m/hr                9.00:  ROP Min 
 ROPX.m/hr               17.00:  ROP Max 
 RPMA.rpm               120.00:  RPM Surface Avg 
 RPMN.rpm                90.00:  RPM Surface Min 
 RPMX.rpm               140.00:  RPM Surface Max 
 RRUN.                     300:  Rig Run Number 
 RTIM.hr                 31.53:  Time Reaming 
 SAZI.deg               331.64:  Azm, Start 
 SDEP.m                4127.00:  Start Depth 
 SIDD.                      No:  Serv Intrp, DD 
 SINC.deg                48.43:  Inc, Start 
 SPPA.psig             5830.00:  SPP Avg 
 SPPN.psig             5600.00:  SPP Min 
 SPPX.psig             5900.00:  SPP Max 
 STIM.      21.00.00 20-Aug-21:  Start Time 
 SVCS.                 DD, MWD:  Services 
 SVER.                    9.20:  Sperry Version 
 TDAT.m                 957.50:  Tot Depth Attmp 
 TDDF.                      No:  Trip for DD 
 TDLG.m                 957.50:  Tot Depth Loggd 
 TFF .                      No:  Trip for Fail 
 TQAA.f-kp               15.00:  Torque Abs Avg 
 TQAN.f-kp               12.00:  Torque Abs Min 
 TQAX.f-kp               19.00:  Torque Abs Max 
 TRRT.°/30m              -3.40:  Turn Rotating 
 MRT .                  EWR-M5:  Maximum Recorded Temperature 
 TTMX.degC              100.00:  Max Tool Temp 
 VS01.                90639251:  Virtual Str1 SN 
 VS02.                90634715:  Virtual Str2 SN 
 VS03.                90652479:  Virtual Str3 SN 
 VS04.                90642262:  Virtual Str4 SN 
 WBMN.klb                 0.00:  WOB Min 
 WITN.           Murad Guliyev:  Customer Rep 
 WITN.          Yashar Gaziyev:  Customer Rep 2 
 WOBA.klb                 9.00:  WOB Avg 
 WOBX.klb                12.00:  WOB Max 
 YP  .lhf2               30.00:  Yield Point 
~Curve Information Block
#MNEM.UNIT                 API CODE     Curve Description
#---------               -----------    ---------------------------
 TIME.HHMMSS            00 000 000 000:  GT Time & Date
 GTDEPTH.m              00 000 000 000:  GT Depth
 GTPQH.psia             00 000 000 000:  GT HR Quartz Pressure
 GTTQ.degC              00 000 000 000:  GT Quartz Temperature
 GTTN.NONE              00 000 000 000:  GT Test Number
 GTET.sec               00 000 000 000:  GT Elapsed Test Time
 GTTVD.m                00 000 000 000:  GT True Vertical Depth
#Other Information
#
#WARRANTY: Halliburton will use its best efforts to furnish customers with 
#accurate information and interpretations that are part of, and incident to, the services 
#provided.  However, Halliburton cannot and does not warrant the accuracy 
#or correctness of such information and interpretations.  Under no circumstances should any 
#such information or interpretation be relied upon as the sole basis for any drilling, 
#completion, production, or financial decision or any procedure involving any risk to the 
#safety of any drilling venture, drilling rig or its crew or any other third party.  The 
#Customer has full responsibility for all drilling, completion and production operation.  
#Halliburton makes no representations or warranties, either expressed or 
#implied, including, but not limited to, the implied warranties of merchantability or fitness 
#for a particular purpose, with respect to the services rendered.  In no event will 
#Halliburton be liable for failure to obtain any particular results or for 
#any damages, including, but not limited to, indirect, special or consequential damages, 
#resulting from the use of any information or interpretation provided by Halliburton.
#
~A           TIME           GTDEPTH  GTPQH  GTTQ  GTTN   GTET   GTTVD  
# ...
   11:32:41.102.27-Aug-2021 4925.00 4811.19 85.55 10.00 180.86 3271.33
   11:32:41.302.27-Aug-2021 4925.00 4811.24 85.55 10.00 181.06 3271.33
   11:32:41.502.27-Aug-2021 4925.00 4811.24 85.55 10.00 181.26 3271.33
   11:32:41.702.27-Aug-2021 4925.00 4811.16 85.55 10.00 181.46 3271.33
   11:32:41.902.27-Aug-2021 4925.00 4811.32 85.55 10.00 181.66 3271.33
   11:32:42.102.27-Aug-2021 4925.00 4811.28 85.55 10.00 181.86 3271.33
   11:32:42.302.27-Aug-2021 4925.00 4811.23 85.55 10.00 182.06 3271.33
   11:32:42.502.27-Aug-2021 4925.00 4811.23 85.55 10.00 182.26 3271.33
   11:32:42.703.27-Aug-2021 4925.00 4811.26 85.55 10.00 182.46 3271.33
   11:32:42.903.27-Aug-2021 4925.00 4811.24 85.55 10.00 182.66 3271.33
   11:32:43.103.27-Aug-2021 4925.00 4811.26 85.55 10.00 182.86 3271.33
   11:32:43.303.27-Aug-2021 4925.00 4811.24 85.55 10.00 183.06 3271.33
   11:32:43.503.27-Aug-2021 4925.00 4811.24 85.55 10.00 183.27 3271.33
   11:32:43.703.27-Aug-2021 4925.00 4811.25 85.55 10.00 183.47 3271.33
   11:32:43.903.27-Aug-2021 4925.00 4811.25 85.55 10.00 183.67 3271.33
   11:32:44.103.27-Aug-2021 4925.00 4811.24 85.55 10.00 183.87 3271.33
   11:32:44.303.27-Aug-2021 4925.00 4811.25 85.55 10.00 184.07 3271.33
   11:32:44.503.27-Aug-2021 4925.00 4811.25 85.55 10.00 184.27 3271.33
   11:32:44.703.27-Aug-2021 4925.00 4811.24 85.55 10.00 184.47 3271.33
   11:32:44.903.27-Aug-2021 4925.00 4811.20 85.55 10.00 184.67 3271.33
   11:32:45.103.27-Aug-2021 4925.00 4811.32 85.55 10.00 184.87 3271.33
   11:32:45.303.27-Aug-2021 4925.00 4811.26 85.55 10.00 185.07 3271.33
   11:32:45.503.27-Aug-2021 4925.00 4811.26 85.55 10.00 185.27 3271.33
   11:32:45.704.27-Aug-2021 4925.00 4811.26 85.55 10.00 185.47 3271.33
   11:32:45.904.27-Aug-2021 4925.00 4811.28 85.55 10.00 185.67 3271.33
   11:32:46.104.27-Aug-2021 4925.00 4811.27 85.55 10.00 185.87 3271.33
   11:32:46.304.27-Aug-2021 4925.00 4811.27 85.55 10.00 186.07 3271.33
   11:32:46.504.27-Aug-2021 4925.00 4811.27 85.55 10.00 186.27 3271.33
   11:32:46.704.27-Aug-2021 4925.00 4811.27 85.55 10.00 186.47 3271.33
   11:32:46.904.27-Aug-2021 4925.00 4811.29 85.55 10.00 186.67 3271.33
   11:32:47.104.27-Aug-2021 4925.00 4811.27 85.55 10.00 186.87 3271.33
   11:32:47.304.27-Aug-2021 4925.00 4811.28 85.55 10.00 187.07 3271.33
   11:32:47.504.27-Aug-2021 4925.00 4811.28 85.55 10.00 187.27 3271.33
   11:32:47.704.27-Aug-2021 4925.00 4811.28 85.55 10.00 187.47 3271.33
   11:32:47.904.27-Aug-2021 4925.00 4811.27 85.55 10.00 187.67 3271.33
   11:32:48.104.27-Aug-2021 4925.00 4811.27 85.55 10.00 187.87 3271.33
   11:32:48.304.27-Aug-2021 4925.00 4811.23 85.55 10.00 188.07 3271.33
   11:32:48.505.27-Aug-2021 4925.00 4811.23 85.55 10.00 188.27 3271.33
   11:32:48.705.27-Aug-2021 4925.00 4811.30 85.55 10.00 188.47 3271.33
   11:32:48.905.27-Aug-2021 4925.00 4811.28 85.55 10.00 188.67 3271.33
   11:32:49.105.27-Aug-2021 4925.00 4811.29 85.55 10.00 188.87 3271.33
   11:32:49.305.27-Aug-2021 4925.00 4811.29 85.55 10.00 189.07 3271.33
   11:32:49.505.27-Aug-2021 4925.00 4811.29 85.55 10.00 189.27 3271.33
   11:32:49.705.27-Aug-2021 4925.00 4811.25 85.55 10.00 189.47 3271.33
   11:32:49.905.27-Aug-2021 4925.00 4811.32 85.55 10.00 189.67 3271.33
   11:32:50.105.27-Aug-2021 4925.00 4811.30 85.55 10.00 189.87 3271.33
   11:32:50.305.27-Aug-2021 4925.00 4811.30 85.55 10.00 190.07 3271.33
   11:32:50.505.27-Aug-2021 4925.00 4811.30 85.55 10.00 190.27 3271.33
   11:32:50.705.27-Aug-2021 4925.00 4811.28 85.54 10.00 190.47 3271.33
   11:32:50.905.27-Aug-2021 4925.00 4811.36 85.54 10.00 190.67 3271.33
   11:32:51.105.27-Aug-2021 4925.00 4811.30 85.54 10.00 190.87 3271.33
   11:32:51.306.27-Aug-2021 4925.00 4811.31 85.54 10.00 191.07 3271.33
   11:32:51.506.27-Aug-2021 4925.00 4811.31 85.54 10.00 191.27 3271.33
   11:32:51.706.27-Aug-2021 4925.00 4811.35 85.54 10.00 191.47 3271.33
   11:32:51.906.27-Aug-2021 4925.00 4811.29 85.54 10.00 191.67 3271.33
   11:32:52.106.27-Aug-2021 4925.00 4811.31 85.54 10.00 191.87 3271.33
   11:32:52.306.27-Aug-2021 4925.00 4811.32 85.54 10.00 192.07 3271.33
   11:32:52.506.27-Aug-2021 4925.00 4811.32 85.54 10.00 192.27 3271.33
   11:32:52.706.27-Aug-2021 4925.00 4811.33 85.54 10.00 192.47 3271.33
   11:32:52.906.27-Aug-2021 4925.00 4811.32 85.54 10.00 192.67 3271.33
   11:32:53.106.27-Aug-2021 4925.00 4811.31 85.54 10.00 192.87 3271.33
   11:32:53.306.27-Aug-2021 4925.00 4811.32 85.54 10.00 193.07 3271.33
   11:32:53.506.27-Aug-2021 4925.00 4811.32 85.54 10.00 193.27 3271.33
   11:32:53.706.27-Aug-2021 4925.00 4811.32 85.54 10.00 193.47 3271.33
   11:32:53.906.27-Aug-2021 4925.00 4811.32 85.54 10.00 193.67 3271.33
   11:32:54.107.27-Aug-2021 4925.00 4811.33 85.54 10.00 193.87 3271.33
   11:32:54.307.27-Aug-2021 4925.00 4811.33 85.54 10.00 194.07 3271.33
   11:32:54.507.27-Aug-2021 4925.00 4811.33 85.54 10.00 194.27 3271.33
   11:32:54.707.27-Aug-2021 4925.00 4811.32 85.54 10.00 194.47 3271.33
   11:32:54.907.27-Aug-2021 4925.00 4811.30 85.54 10.00 194.67 3271.33
   11:32:55.107.27-Aug-2021 4925.00 4811.38 85.54 10.00 194.87 3271.33
   11:32:55.307.27-Aug-2021 4925.00 4811.34 85.54 10.00 195.07 3271.33
   11:32:55.507.27-Aug-2021 4925.00 4811.34 85.54 10.00 195.27 3271.33
   11:32:55.707.27-Aug-2021 4925.00 4811.32 85.54 10.00 195.47 3271.33
   11:32:55.907.27-Aug-2021 4925.00 4811.33 85.54 10.00 195.67 3271.33
   11:32:56.107.27-Aug-2021 4925.00 4811.33 85.54 10.00 195.87 3271.33
   11:32:56.307.27-Aug-2021 4925.00 4811.33 85.54 10.00 196.07 3271.33
   11:32:56.507.27-Aug-2021 4925.00 4811.33 85.54 10.00 196.27 3271.33
   11:32:56.707.27-Aug-2021 4925.00 4811.34 85.54 10.00 196.47 3271.33
   11:32:56.908.27-Aug-2021 4925.00 4811.34 85.54 10.00 196.67 3271.33
   11:32:57.108.27-Aug-2021 4925.00 4811.33 85.54 10.00 196.87 3271.33
   11:32:57.308.27-Aug-2021 4925.00 4811.33 85.54 10.00 197.07 3271.33
   11:32:57.508.27-Aug-2021 4925.00 4811.33 85.54 10.00 197.27 3271.33
   11:32:57.708.27-Aug-2021 4925.00 4811.32 85.54 10.00 197.47 3271.33
   11:32:57.908.27-Aug-2021 4925.00 4811.33 85.54 10.00 197.67 3271.33
   11:32:58.108.27-Aug-2021 4925.00 4811.29 85.54 10.00 197.87 3271.33
   11:32:58.308.27-Aug-2021 4925.00 4811.41 85.54 10.00 198.07 3271.33
   11:32:58.508.27-Aug-2021 4925.00 4811.41 85.54 10.00 198.27 3271.33
   11:32:58.708.27-Aug-2021 4925.00 4811.32 85.54 10.00 198.47 3271.33
   11:32:58.908.27-Aug-2021 4925.00 4811.32 85.54 10.00 198.67 3271.33
   11:32:59.108.27-Aug-2021 4925.00 4811.33 85.54 10.00 198.87 3271.33
   11:32:59.308.27-Aug-2021 4925.00 4811.26 85.54 10.00 199.07 3271.33
   11:32:59.508.27-Aug-2021 4925.00 4811.26 85.54 10.00 199.27 3271.33
   11:32:59.709.27-Aug-2021 4925.00 4811.39 85.54 10.00 199.47 3271.33
   11:32:59.909.27-Aug-2021 4925.00 4811.32 85.54 10.00 199.67 3271.33
   11:33:00.109.27-Aug-2021 4925.00 4811.34 85.54 10.00 199.87 3271.33
   11:33:00.309.27-Aug-2021 4925.00 4811.35 85.54 10.00 200.07 3271.33
   11:33:00.509.27-Aug-2021 4925.00 4811.35 85.54 10.00 200.27 3271.33
   11:33:00.709.27-Aug-2021 4925.00 4811.43 85.54 10.00 200.47 3271.33
   11:33:00.909.27-Aug-2021 4925.00 4811.32 85.54 10.00 200.67 3271.33
   11:33:01.109.27-Aug-2021 4925.00 4811.33 85.54 10.00 200.87 3271.33
   11:33:01.309.27-Aug-2021 4925.00 4811.34 85.54 10.00 201.07 3271.33
   11:33:01.509.27-Aug-2021 4925.00 4811.34 85.54 10.00 201.27 3271.33
   11:33:01.709.27-Aug-2021 4925.00 4811.40 85.54 10.00 201.47 3271.33
   11:33:01.909.27-Aug-2021 4925.00 4811.38 85.54 10.00 201.67 3271.33
   11:33:02.109.27-Aug-2021 4925.00 4811.31 85.54 10.00 201.87 3271.33
   11:33:02.309.27-Aug-2021 4925.00 4811.33 85.54 10.00 202.07 3271.33
   11:33:02.510.27-Aug-2021 4925.00 4811.33 85.54 10.00 202.27 3271.33
   11:33:02.710.27-Aug-2021 4925.00 4811.34 85.54 10.00 202.47 3271.33
   11:33:02.910.27-Aug-2021 4925.00 4811.34 85.54 10.00 202.67 3271.33
   11:33:03.110.27-Aug-2021 4925.00 4811.34 85.54 10.00 202.87 3271.33
   11:33:03.310.27-Aug-2021 4925.00 4811.35 85.54 10.00 203.07 3271.33
   11:33:03.510.27-Aug-2021 4925.00 4811.35 85.54 10.00 203.27 3271.33
