~Version Information
 VERS.                  2.0:   CWLS log ASCII Standard -VERSION 2.0
 WRAP.                   NO:   One line per depth step
~Well Information Block
#MNEM.UNIT     VALUE/NAME     DESCRIPTION
#---------     -----------    ---------------------------
 STRT.S             11:48:55 27-Aug-21: START TIME 11:48:55 27-Aug-21
 STOP.S             11:56:03 27-Aug-21: STOP TIME  11:56:03 27-Aug-21
 STEP.S                   0.00: STEP TIME
 NULL.                 -999.25: NULL VALUE
 DFWT.                        :  DIST FWL TEXT
 DFST.                        :  DIST FSL TEXT
 DMF .             Drill Floor:  DRILL MEAS FROM
 STIM.      20.00.00 17-Aug-21:  START TIME
 DATE.      19.00.00 29-Aug-21:  END TIME
 SPUD.               15-Aug-21:  SPUD DATE
 NREF.                    Grid:  NORTH REFERENCE
 HPTY.       Minimum Curvature:  HOLE POS TYPE
 DMOD.             Drill Model:  DRILL MOD DESC
 SVYD.                  Survey:  SURVEY DESC
 ILTD.               Lithology:  INTERP LTH DESC
 FTOP.          Formation Tops:  FORM TOPS DESC
 RIG .              East Azeri:  RIG NAME
 PDAT.          Mean Sea Level:  PERMANENT DATUM
 FLD .                     ACG:  FIELD NAME
 SON .        AZ-XX-0907180857:  JOB NUMBER
 CTRY.              Azerbaijan:  COUNTRY NAME
 WELL.                    D23x:  WELL NAME
 SRVC.     Turan Drilling and Engineering:  CONTRACTOR
 COMP.     BP Exploration (Caspian Sea) Ltd.:  COMPANY
 UWI .            /AZE00000214:  UNIQUE WELL IDENTIFIER
 API .            /AZE00000214:  API NUMBER
 MDS .        Operator Entered:  MAG DATA SOURCE
 BASE.              Azerbaijan:  LOGGING EQUIPMENT BASE LOCATION
 REGN.                   EESSA:  REGION
 PROV.                    Baku:  PROVINCE
 STAT.                    Baku:  STATE NAME
 MWDS.                    Baku:  MWD SHOP
 DOE .                     N/A:  DOE NUMBER
 DCON.         Sperry Drilling:  DIRECTNL CONTR
 UNIT.                     N/A:  LOGGING EQUIPMENT ID
 WTYP.                Deviated:  WELL TYPE
 CNTY.                        :  COUNTY
 LOC .                        :  LOCATION
 LMF .             Drill Floor:  LOG MEASURED FROM
 TVDS.m                  43.60:  TVDSS CORRECTN
 LATI.deg                40.02:  LATITUDE
 LONG.deg                51.45:  LONGITUDE
 WHNS.m                  -7.04:  WELL HEAD N/S
 WHEW.m                  -0.67:  WELL HEAD E/W
 UTMX.m              538762.90:  UTM X
 UTMY.m             4431871.34:  UTM Y
 DFWL.m                   0.00:  DISTANCE FWL
 DFSL.m                   0.00:  DISTANCE FSL
 SDEP.m                4127.00:  START DEPTH
 TDD .m                5084.50:  TOTAL DEPTH (DRILLER)
 VSDR.deg               140.47:  VERT SEC DIRECT
 GVFD.g                   1.00:  GRAVITY FIELD
 MFLD.nT              50362.00:  MAGNETIC FIELD
 MDIP.deg                59.48:  MAGNETIC DIP
 MDEC.deg                 6.47:  MAGNETIC DECL
 GRDC.deg                 0.31:  GRID CORRECTION
 AZTC.deg                 6.16:  AZM TOTAL CORR
 EPD .m                   0.00:  ELEVATION
 EGL .m                   0.00:  GROUND ELEVATION
 WDMS.m                 151.80:  WD ELEV
 APD .m                  43.60:  DEPTH ABOVE PD
 DEP .m                4092.57:  DEPTH
 AGAP.m                  43.60:  AIR GAP
 VSEW.m                  -0.67:  VERT SEC E/W
 VSNS.m                  -7.04:  VERT SEC N/S
 EKB .m                  43.60:  KB ELEVATION
 EDF .m                  43.60:  DF ELEVATION
 TDL .m                 957.50:  TOTAL DEPTH (LOGGER)
 VSC .                       0:  VS TO CLOSURE
 MAGU.                 1851413:  MAGUTM CHECKSUM
~Parameter Information Block
#MNEM.UNIT       Value        Description
#---------     -----------    ---------------------------
 AV  .mps                 1.50:  Ann Velocity 
 AVMX.mps                 2.00:  Max Ann Veloc 
 AZIF.deg               184.66:  Azm, Final 
 BHAT.        Rotary Steerable:  BHA Type 
 BREV.rev               300.00:  Rev Bit Total 
 BROT.°/30m              -0.50:  Build Rotating 
 BS  .in                  8.50:  Bit Size 
 BSZ .in                  8.50:  Bit Size 
 BTPL.psig              370.00:  Bit Press Loss 
 CABU.                      No:  Customer Abuse 
 CGEO.      Behruz Shahbaliyev:  Customer Geo 
 COMM.                     L*e:  Run Comments 1 
 TCS .hr                140.08:  Time Ciculation Ended 
 CV  .mps                 3.00:  Crit Velocity 
 CVMX.mps                 3.20:  Max Crit Veloc 
 DD1 .            Musa Ahmadov:  Direct Drillr 1 
 DD2 .           Hamid Ahmadov:  Direct Drillr 2 
 DDSV.               Geo-Pilot:  DD Service 
 DEFF.%                  98.40:  % Det Eff 
 DLRX.°/30m               3.40:  Dogleg Rot Max 
 DLSO.°/30m               1.45:  Dogleg Oriented 
 DLSX.°/30m               3.40:  Dogleg Str Max 
 DRET.      18.40.00 29-Aug-21:  Drill End Time 
 DRST.      21.00.00 20-Aug-21:  Drill Start Tim 
 DTIM.hr                 69.47:  Time Drilling 
 EDEP.m                5084.50:  End Depth 
 ENG1.      Artemiy Matviyanov:  Engineer 1 
 ENG2.         Almaz Almadatov:  Engineer 2 
 ETIM.      18.40.00 29-Aug-21:  End Time 
 FLOI.gpm               500.00:  Flow In 
 FLON.gpm               400.00:  Flow In Min 
 FLOS.cptm                0.00:  Fluid Loss 
 FLOX.gpm               500.00:  Flow In Max 
 DFT .        Mineral Oil Base:  Mud Type 
 HFLO.                      No:  High Flow 
 HPRE.                      No:  High Pressure 
 HTEM.                      No:  High Temp 
 HYDO.m                   1.80:  Hydro Offset 
 IFIN.deg                25.62:  Inc, Final 
 IMAX.deg                48.69:  Inc Max 
 IMIN.deg                24.01:  Inc Min 
 IMND.m                4962.57:  Inc Min Depth 
 IMXD.m                4119.01:  Inc Max Depth 
 JARR.                      No:  Jarring 
 LETM.      18.40.00 29-Aug-21:  Log End Time 
 LOST.hr                     0:  Lost Rig Time 
 LSTM.      21.00.00 20-Aug-21:  Log Start Time 
 MDCL.ppm             41500.00:  Mud Chlorides 
 MDES.     Inversion Oil/Synthetic:  Mud Desc 
 DFD .sg                  1.56:  Mud Density 
 MDMN.sg                  1.56:  Dens Mud Min 
 MDMX.sg                  1.56:  Dens Mud Max 
 MOIL.                      70:  Run Mud Oil % 
 MOWR.                   70:30:  Run Mud OWR 
 MSND.                     0.2:  Run Mud Sand % 
 MSOL.                    23.3:  Run Mud Solids% 
 DFV .spqt               78.00:  Mud Viscosity 
 MWOD.in                  6.75:  MWD Tool OD 
 MWSI.                      No:  Serv Intrp, MWD 
 OTIM.hr                218.30:  Time Operating 
 PCON.           Look Like New:  Pad Condition 
 PMAX.psia            11015.30:  Press Op, Max 
 PV  .cP                 38.00:  Mud PV 
 RUN .                     300:  Run Number 
 ROPA.m/hr               15.00:  ROP Avg 
 ROPN.m/hr                9.00:  ROP Min 
 ROPX.m/hr               17.00:  ROP Max 
 RPMA.rpm               120.00:  RPM Surface Avg 
 RPMN.rpm                90.00:  RPM Surface Min 
 RPMX.rpm               140.00:  RPM Surface Max 
 RRUN.                     300:  Rig Run Number 
 RTIM.hr                 31.53:  Time Reaming 
 SAZI.deg               331.64:  Azm, Start 
 SDEP.m                4127.00:  Start Depth 
 SIDD.                      No:  Serv Intrp, DD 
 SINC.deg                48.43:  Inc, Start 
 SPPA.psig             5830.00:  SPP Avg 
 SPPN.psig             5600.00:  SPP Min 
 SPPX.psig             5900.00:  SPP Max 
 STIM.      21.00.00 20-Aug-21:  Start Time 
 SVCS.                 DD, MWD:  Services 
 SVER.                    9.20:  Sperry Version 
 TDAT.m                 957.50:  Tot Depth Attmp 
 TDDF.                      No:  Trip for DD 
 TDLG.m                 957.50:  Tot Depth Loggd 
 TFF .                      No:  Trip for Fail 
 TQAA.f-kp               15.00:  Torque Abs Avg 
 TQAN.f-kp               12.00:  Torque Abs Min 
 TQAX.f-kp               19.00:  Torque Abs Max 
 TRRT.°/30m              -3.40:  Turn Rotating 
 MRT .                  EWR-M5:  Maximum Recorded Temperature 
 TTMX.degC              100.00:  Max Tool Temp 
 VS01.                90639251:  Virtual Str1 SN 
 VS02.                90634715:  Virtual Str2 SN 
 VS03.                90652479:  Virtual Str3 SN 
 VS04.                90642262:  Virtual Str4 SN 
 WBMN.klb                 0.00:  WOB Min 
 WITN.           Murad Guliyev:  Customer Rep 
 WITN.          Yashar Gaziyev:  Customer Rep 2 
 WOBA.klb                 9.00:  WOB Avg 
 WOBX.klb                12.00:  WOB Max 
 YP  .lhf2               30.00:  Yield Point 
~Curve Information Block
#MNEM.UNIT                 API CODE     Curve Description
#---------               -----------    ---------------------------
 TIME.HHMMSS            00 000 000 000:  GT Time & Date
 GTDEPTH.m              00 000 000 000:  GT Depth
 GTPQH.psia             00 000 000 000:  GT HR Quartz Pressure
 GTTQ.degC              00 000 000 000:  GT Quartz Temperature
 GTTN.NONE              00 000 000 000:  GT Test Number
 GTET.sec               00 000 000 000:  GT Elapsed Test Time
 GTTVD.m                00 000 000 000:  GT True Vertical Depth
#Other Information
#
#WARRANTY: Halliburton will use its best efforts to furnish customers with 
#accurate information and interpretations that are part of, and incident to, the services 
#provided.  However, Halliburton cannot and does not warrant the accuracy 
#or correctness of such information and interpretations.  Under no circumstances should any 
#such information or interpretation be relied upon as the sole basis for any drilling, 
#completion, production, or financial decision or any procedure involving any risk to the 
#safety of any drilling venture, drilling rig or its crew or any other third party.  The 
#Customer has full responsibility for all drilling, completion and production operation.  
#Halliburton makes no representations or warranties, either expressed or 
#implied, including, but not limited to, the implied warranties of merchantability or fitness 
#for a particular purpose, with respect to the services rendered.  In no event will 
#Halliburton be liable for failure to obtain any particular results or for 
#any damages, including, but not limited to, indirect, special or consequential damages, 
#resulting from the use of any information or interpretation provided by Halliburton.
#
~A           TIME           GTDEPTH  GTPQH  GTTQ  GTTN   GTET   GTTVD  
# ...
   11:52:41.728.27-Aug-2021 4914.00 7812.17 85.28 11.00 226.08 3261.31
   11:52:41.928.27-Aug-2021 4914.00 7812.17 85.28 11.00 226.28 3261.31
   11:52:42.128.27-Aug-2021 4914.00 7809.85 85.28 11.00 226.48 3261.31
   11:52:42.328.27-Aug-2021 4914.00 7808.75 85.28 11.00 226.68 3261.31
   11:52:42.528.27-Aug-2021 4914.00 7808.68 85.28 11.00 226.88 3261.31
   11:52:42.728.27-Aug-2021 4914.00 7808.50 85.28 11.00 227.08 3261.31
   11:52:42.928.27-Aug-2021 4914.00 7808.50 85.28 11.00 227.28 3261.31
   11:52:43.129.27-Aug-2021 4914.00 7808.17 85.28 11.00 227.48 3261.31
   11:52:43.329.27-Aug-2021 4914.00 7808.86 85.28 11.00 227.68 3261.31
   11:52:43.529.27-Aug-2021 4914.00 7809.27 85.28 11.00 227.88 3261.31
   11:52:43.729.27-Aug-2021 4914.00 7809.49 85.28 11.00 228.08 3261.31
   11:52:43.929.27-Aug-2021 4914.00 7809.49 85.28 11.00 228.28 3261.31
   11:52:44.129.27-Aug-2021 4914.00 7809.74 85.28 11.00 228.48 3261.31
   11:52:44.329.27-Aug-2021 4914.00 7809.89 85.28 11.00 228.68 3261.31
   11:52:44.529.27-Aug-2021 4914.00 7809.49 85.28 11.00 228.88 3261.31
   11:52:44.729.27-Aug-2021 4914.00 7809.54 85.28 11.00 229.08 3261.31
   11:52:44.929.27-Aug-2021 4914.00 7809.54 85.28 11.00 229.28 3261.31
   11:52:45.129.27-Aug-2021 4914.00 7812.30 85.28 11.00 229.48 3261.31
   11:52:45.329.27-Aug-2021 4914.00 7810.29 85.28 11.00 229.68 3261.31
   11:52:45.529.27-Aug-2021 4914.00 7809.63 85.28 11.00 229.88 3261.31
   11:52:45.729.27-Aug-2021 4914.00 7809.02 85.27 11.00 230.08 3261.31
   11:52:45.930.27-Aug-2021 4914.00 7809.02 85.27 11.00 230.28 3261.31
   11:52:46.130.27-Aug-2021 4914.00 7814.94 85.28 11.00 230.48 3261.31
   11:52:46.330.27-Aug-2021 4914.00 7805.51 85.27 11.00 230.68 3261.31
   11:52:46.530.27-Aug-2021 4914.00 7809.36 85.27 11.00 230.88 3261.31
   11:52:46.730.27-Aug-2021 4914.00 7808.76 85.27 11.00 231.08 3261.31
   11:52:46.930.27-Aug-2021 4914.00 7808.76 85.27 11.00 231.28 3261.31
   11:52:47.130.27-Aug-2021 4914.00 7808.42 85.27 11.00 231.48 3261.31
   11:52:47.330.27-Aug-2021 4914.00 7809.84 85.27 11.00 231.68 3261.31
   11:52:47.530.27-Aug-2021 4914.00 7809.00 85.27 11.00 231.88 3261.31
   11:52:47.730.27-Aug-2021 4914.00 7808.40 85.27 11.00 232.08 3261.31
   11:52:47.930.27-Aug-2021 4914.00 7808.40 85.27 11.00 232.28 3261.31
   11:52:48.130.27-Aug-2021 4914.00 7811.53 85.27 11.00 232.48 3261.31
   11:52:48.330.27-Aug-2021 4914.00 7809.54 85.27 11.00 232.68 3261.31
   11:52:48.530.27-Aug-2021 4914.00 7809.63 85.27 11.00 232.88 3261.31
   11:52:48.731.27-Aug-2021 4914.00 7808.94 85.27 11.00 233.08 3261.31
   11:52:48.931.27-Aug-2021 4914.00 7808.94 85.27 11.00 233.28 3261.31
   11:52:49.131.27-Aug-2021 4914.00 7809.02 85.27 11.00 233.48 3261.31
   11:52:49.331.27-Aug-2021 4914.00 7809.18 85.27 11.00 233.68 3261.31
   11:52:49.531.27-Aug-2021 4914.00 7808.41 85.27 11.00 233.88 3261.31
   11:52:49.731.27-Aug-2021 4914.00 7808.74 85.27 11.00 234.08 3261.31
   11:52:49.931.27-Aug-2021 4914.00 7808.74 85.27 11.00 234.28 3261.31
   11:52:50.131.27-Aug-2021 4914.00 7809.15 85.27 11.00 234.48 3261.31
   11:52:50.331.27-Aug-2021 4914.00 7809.67 85.27 11.00 234.68 3261.31
   11:52:50.531.27-Aug-2021 4914.00 7809.28 85.27 11.00 234.88 3261.31
   11:52:50.731.27-Aug-2021 4914.00 7809.48 85.27 11.00 235.08 3261.31
   11:52:50.931.27-Aug-2021 4914.00 7809.48 85.27 11.00 235.28 3261.31
   11:52:51.131.27-Aug-2021 4914.00 7809.11 85.27 11.00 235.48 3261.31
   11:52:51.331.27-Aug-2021 4914.00 7812.85 85.27 11.00 235.68 3261.31
   11:52:51.532.27-Aug-2021 4914.00 7808.41 85.27 11.00 235.88 3261.31
   11:52:51.732.27-Aug-2021 4914.00 7810.23 85.27 11.00 236.08 3261.31
   11:52:51.932.27-Aug-2021 4914.00 7810.23 85.27 11.00 236.28 3261.31
   11:52:52.132.27-Aug-2021 4914.00 7808.61 85.27 11.00 236.48 3261.31
   11:52:52.332.27-Aug-2021 4914.00 7808.42 85.27 11.00 236.68 3261.31
   11:52:52.532.27-Aug-2021 4914.00 7808.38 85.27 11.00 236.88 3261.31
   11:52:52.732.27-Aug-2021 4914.00 7807.99 85.27 11.00 237.08 3261.31
   11:52:52.932.27-Aug-2021 4914.00 7807.99 85.27 11.00 237.28 3261.31
   11:52:53.132.27-Aug-2021 4914.00 7808.70 85.27 11.00 237.48 3261.31
   11:52:53.332.27-Aug-2021 4914.00 7809.20 85.27 11.00 237.68 3261.31
   11:52:53.532.27-Aug-2021 4914.00 7809.51 85.27 11.00 237.88 3261.31
   11:52:53.732.27-Aug-2021 4914.00 7809.53 85.27 11.00 238.08 3261.31
   11:52:53.932.27-Aug-2021 4914.00 7809.53 85.27 11.00 238.28 3261.31
   11:52:54.132.27-Aug-2021 4914.00 7809.15 85.27 11.00 238.48 3261.31
   11:52:54.333.27-Aug-2021 4914.00 7809.21 85.27 11.00 238.68 3261.31
   11:52:54.533.27-Aug-2021 4914.00 7808.87 85.27 11.00 238.88 3261.31
   11:52:54.733.27-Aug-2021 4914.00 7812.81 85.27 11.00 239.08 3261.31
   11:52:54.933.27-Aug-2021 4914.00 7812.81 85.27 11.00 239.28 3261.31
   11:52:55.133.27-Aug-2021 4914.00 7809.73 85.27 11.00 239.48 3261.31
   11:52:55.333.27-Aug-2021 4914.00 7808.70 85.27 11.00 239.69 3261.31
   11:52:55.533.27-Aug-2021 4914.00 7808.16 85.27 11.00 239.89 3261.31
   11:52:55.733.27-Aug-2021 4914.00 7812.19 85.27 11.00 240.09 3261.31
   11:52:55.933.27-Aug-2021 4914.00 7812.19 85.27 11.00 240.29 3261.31
   11:52:56.133.27-Aug-2021 4914.00 7809.49 85.27 11.00 240.49 3261.31
   11:52:56.333.27-Aug-2021 4914.00 7808.40 85.27 11.00 240.69 3261.31
   11:52:56.533.27-Aug-2021 4914.00 7815.01 85.27 11.00 240.89 3261.31
   11:52:56.733.27-Aug-2021 4914.00 7805.55 85.27 11.00 241.09 3261.31
   11:52:56.933.27-Aug-2021 4914.00 7805.55 85.27 11.00 241.29 3261.31
   11:52:57.134.27-Aug-2021 4914.00 7809.45 85.27 11.00 241.49 3261.31
   11:52:57.334.27-Aug-2021 4914.00 7808.26 85.27 11.00 241.69 3261.31
   11:52:57.534.27-Aug-2021 4914.00 7808.41 85.27 11.00 241.89 3261.31
   11:52:57.734.27-Aug-2021 4914.00 7812.20 85.27 11.00 242.09 3261.31
   11:52:57.934.27-Aug-2021 4914.00 7812.20 85.27 11.00 242.29 3261.31
   11:52:58.134.27-Aug-2021 4914.00 7810.03 85.27 11.00 242.49 3261.31
   11:52:58.334.27-Aug-2021 4914.00 7808.76 85.27 11.00 242.69 3261.31
   11:52:58.534.27-Aug-2021 4914.00 7808.89 85.27 11.00 242.89 3261.31
   11:52:58.734.27-Aug-2021 4914.00 7809.02 85.27 11.00 243.09 3261.31
   11:52:58.934.27-Aug-2021 4914.00 7809.02 85.27 11.00 243.29 3261.31
   11:52:59.134.27-Aug-2021 4914.00 7808.40 85.27 11.00 243.49 3261.31
   11:52:59.334.27-Aug-2021 4914.00 7808.78 85.27 11.00 243.69 3261.31
   11:52:59.534.27-Aug-2021 4914.00 7808.80 85.27 11.00 243.89 3261.31
   11:52:59.734.27-Aug-2021 4914.00 7809.07 85.27 11.00 244.09 3261.31
   11:52:59.935.27-Aug-2021 4914.00 7809.07 85.27 11.00 244.29 3261.31
   11:53:00.135.27-Aug-2021 4914.00 7809.24 85.27 11.00 244.49 3261.31
   11:53:00.335.27-Aug-2021 4914.00 7809.18 85.27 11.00 244.69 3261.31
   11:53:00.535.27-Aug-2021 4914.00 7808.91 85.27 11.00 244.89 3261.31
   11:53:00.735.27-Aug-2021 4914.00 7808.93 85.27 11.00 245.09 3261.31
   11:53:00.935.27-Aug-2021 4914.00 7808.93 85.27 11.00 245.29 3261.31
   11:53:01.135.27-Aug-2021 4914.00 7805.56 85.27 11.00 245.49 3261.31
   11:53:01.335.27-Aug-2021 4914.00 7810.00 85.27 11.00 245.69 3261.31
   11:53:01.535.27-Aug-2021 4914.00 7808.88 85.27 11.00 245.89 3261.31
   11:53:01.735.27-Aug-2021 4914.00 7808.29 85.27 11.00 246.09 3261.31
   11:53:01.935.27-Aug-2021 4914.00 7808.29 85.27 11.00 246.29 3261.31
   11:53:02.135.27-Aug-2021 4914.00 7807.88 85.27 11.00 246.49 3261.31
   11:53:02.335.27-Aug-2021 4914.00 7808.01 85.27 11.00 246.69 3261.31
   11:53:02.535.27-Aug-2021 4914.00 7808.07 85.27 11.00 246.89 3261.31
   11:53:02.736.27-Aug-2021 4914.00 7808.25 85.27 11.00 247.09 3261.31
   11:53:02.936.27-Aug-2021 4914.00 7808.25 85.27 11.00 247.29 3261.31
   11:53:03.136.27-Aug-2021 4914.00 7809.15 85.27 11.00 247.49 3261.31
   11:53:03.336.27-Aug-2021 4914.00 7809.36 85.27 11.00 247.69 3261.31
   11:53:03.536.27-Aug-2021 4914.00 7809.27 85.27 11.00 247.89 3261.31
   11:53:03.736.27-Aug-2021 4914.00 7809.07 85.27 11.00 248.09 3261.31
   11:53:03.936.27-Aug-2021 4914.00 7809.07 85.27 11.00 248.29 3261.31
   11:53:04.136.27-Aug-2021 4914.00 7808.72 85.27 11.00 248.49 3261.31
