~Version Information
 VERS.                  2.0:   CWLS log ASCII Standard -VERSION 2.0
 WRAP.                   NO:   One line per depth step
~Well Information Block
#MNEM.UNIT     VALUE/NAME     DESCRIPTION
#---------     -----------    ---------------------------
 STRT.S             14:18:21 27-Aug-21: START TIME 14:18:21 27-Aug-21
 STOP.S             14:25:11 27-Aug-21: STOP TIME  14:25:11 27-Aug-21
 STEP.S                   0.00: STEP TIME
 NULL.                 -999.25: NULL VALUE
 DFWT.                        :  DIST FWL TEXT
 DFST.                        :  DIST FSL TEXT
 DMF .             Drill Floor:  DRILL MEAS FROM
 STIM.      20.00.00 17-Aug-21:  START TIME
 DATE.      19.00.00 29-Aug-21:  END TIME
 SPUD.               15-Aug-21:  SPUD DATE
 NREF.                    Grid:  NORTH REFERENCE
 HPTY.       Minimum Curvature:  HOLE POS TYPE
 DMOD.             Drill Model:  DRILL MOD DESC
 SVYD.                  Survey:  SURVEY DESC
 ILTD.               Lithology:  INTERP LTH DESC
 FTOP.          Formation Tops:  FORM TOPS DESC
 RIG .              East Azeri:  RIG NAME
 PDAT.          Mean Sea Level:  PERMANENT DATUM
 FLD .                     ACG:  FIELD NAME
 SON .        AZ-XX-0907180857:  JOB NUMBER
 CTRY.              Azerbaijan:  COUNTRY NAME
 WELL.                    D23x:  WELL NAME
 SRVC.     Turan Drilling and Engineering:  CONTRACTOR
 COMP.     BP Exploration (Caspian Sea) Ltd.:  COMPANY
 UWI .            /AZE00000214:  UNIQUE WELL IDENTIFIER
 API .            /AZE00000214:  API NUMBER
 MDS .        Operator Entered:  MAG DATA SOURCE
 BASE.              Azerbaijan:  LOGGING EQUIPMENT BASE LOCATION
 REGN.                   EESSA:  REGION
 PROV.                    Baku:  PROVINCE
 STAT.                    Baku:  STATE NAME
 MWDS.                    Baku:  MWD SHOP
 DOE .                     N/A:  DOE NUMBER
 DCON.         Sperry Drilling:  DIRECTNL CONTR
 UNIT.                     N/A:  LOGGING EQUIPMENT ID
 WTYP.                Deviated:  WELL TYPE
 CNTY.                        :  COUNTY
 LOC .                        :  LOCATION
 LMF .             Drill Floor:  LOG MEASURED FROM
 TVDS.m                  43.60:  TVDSS CORRECTN
 LATI.deg                40.02:  LATITUDE
 LONG.deg                51.45:  LONGITUDE
 WHNS.m                  -7.04:  WELL HEAD N/S
 WHEW.m                  -0.67:  WELL HEAD E/W
 UTMX.m              538762.90:  UTM X
 UTMY.m             4431871.34:  UTM Y
 DFWL.m                   0.00:  DISTANCE FWL
 DFSL.m                   0.00:  DISTANCE FSL
 SDEP.m                4127.00:  START DEPTH
 TDD .m                5084.50:  TOTAL DEPTH (DRILLER)
 VSDR.deg               140.47:  VERT SEC DIRECT
 GVFD.g                   1.00:  GRAVITY FIELD
 MFLD.nT              50362.00:  MAGNETIC FIELD
 MDIP.deg                59.48:  MAGNETIC DIP
 MDEC.deg                 6.47:  MAGNETIC DECL
 GRDC.deg                 0.31:  GRID CORRECTION
 AZTC.deg                 6.16:  AZM TOTAL CORR
 EPD .m                   0.00:  ELEVATION
 EGL .m                   0.00:  GROUND ELEVATION
 WDMS.m                 151.80:  WD ELEV
 APD .m                  43.60:  DEPTH ABOVE PD
 DEP .m                4092.57:  DEPTH
 AGAP.m                  43.60:  AIR GAP
 VSEW.m                  -0.67:  VERT SEC E/W
 VSNS.m                  -7.04:  VERT SEC N/S
 EKB .m                  43.60:  KB ELEVATION
 EDF .m                  43.60:  DF ELEVATION
 TDL .m                 957.50:  TOTAL DEPTH (LOGGER)
 VSC .                       0:  VS TO CLOSURE
 MAGU.                 1851413:  MAGUTM CHECKSUM
~Parameter Information Block
#MNEM.UNIT       Value        Description
#---------     -----------    ---------------------------
 AV  .mps                 1.50:  Ann Velocity 
 AVMX.mps                 2.00:  Max Ann Veloc 
 AZIF.deg               184.66:  Azm, Final 
 BHAT.        Rotary Steerable:  BHA Type 
 BREV.rev               300.00:  Rev Bit Total 
 BROT.°/30m              -0.50:  Build Rotating 
 BS  .in                  8.50:  Bit Size 
 BSZ .in                  8.50:  Bit Size 
 BTPL.psig              370.00:  Bit Press Loss 
 CABU.                      No:  Customer Abuse 
 CGEO.      Behruz Shahbaliyev:  Customer Geo 
 COMM.                     LAp:  Run Comments 1 
 TCS .hr                140.08:  Time Ciculation Ended 
 CV  .mps                 3.00:  Crit Velocity 
 CVMX.mps                 3.20:  Max Crit Veloc 
 DD1 .            Musa Ahmadov:  Direct Drillr 1 
 DD2 .           Hamid Ahmadov:  Direct Drillr 2 
 DDSV.               Geo-Pilot:  DD Service 
 DEFF.%                  98.40:  % Det Eff 
 DLRX.°/30m               3.40:  Dogleg Rot Max 
 DLSO.°/30m               1.45:  Dogleg Oriented 
 DLSX.°/30m               3.40:  Dogleg Str Max 
 DRET.      18.40.00 29-Aug-21:  Drill End Time 
 DRST.      21.00.00 20-Aug-21:  Drill Start Tim 
 DTIM.hr                 69.47:  Time Drilling 
 EDEP.m                5084.50:  End Depth 
 ENG1.      Artemiy Matviyanov:  Engineer 1 
 ENG2.         Almaz Almadatov:  Engineer 2 
 ETIM.      18.40.00 29-Aug-21:  End Time 
 FLOI.gpm               500.00:  Flow In 
 FLON.gpm               400.00:  Flow In Min 
 FLOS.cptm                0.00:  Fluid Loss 
 FLOX.gpm               500.00:  Flow In Max 
 DFT .        Mineral Oil Base:  Mud Type 
 HFLO.                      No:  High Flow 
 HPRE.                      No:  High Pressure 
 HTEM.                      No:  High Temp 
 HYDO.m                   1.80:  Hydro Offset 
 IFIN.deg                25.62:  Inc, Final 
 IMAX.deg                48.69:  Inc Max 
 IMIN.deg                24.01:  Inc Min 
 IMND.m                4962.57:  Inc Min Depth 
 IMXD.m                4119.01:  Inc Max Depth 
 JARR.                      No:  Jarring 
 LETM.      18.40.00 29-Aug-21:  Log End Time 
 LOST.hr                     0:  Lost Rig Time 
 LSTM.      21.00.00 20-Aug-21:  Log Start Time 
 MDCL.ppm             41500.00:  Mud Chlorides 
 MDES.     Inversion Oil/Synthetic:  Mud Desc 
 DFD .sg                  1.56:  Mud Density 
 MDMN.sg                  1.56:  Dens Mud Min 
 MDMX.sg                  1.56:  Dens Mud Max 
 MOIL.                      70:  Run Mud Oil % 
 MOWR.                   70:30:  Run Mud OWR 
 MSND.                     0.2:  Run Mud Sand % 
 MSOL.                    23.3:  Run Mud Solids% 
 DFV .spqt               78.00:  Mud Viscosity 
 MWOD.in                  6.75:  MWD Tool OD 
 MWSI.                      No:  Serv Intrp, MWD 
 OTIM.hr                218.30:  Time Operating 
 PCON.           Look Like New:  Pad Condition 
 PMAX.psia            11015.30:  Press Op, Max 
 PV  .cP                 38.00:  Mud PV 
 RUN .                     300:  Run Number 
 ROPA.m/hr               15.00:  ROP Avg 
 ROPN.m/hr                9.00:  ROP Min 
 ROPX.m/hr               17.00:  ROP Max 
 RPMA.rpm               120.00:  RPM Surface Avg 
 RPMN.rpm                90.00:  RPM Surface Min 
 RPMX.rpm               140.00:  RPM Surface Max 
 RRUN.                     300:  Rig Run Number 
 RTIM.hr                 31.53:  Time Reaming 
 SAZI.deg               331.64:  Azm, Start 
 SDEP.m                4127.00:  Start Depth 
 SIDD.                      No:  Serv Intrp, DD 
 SINC.deg                48.43:  Inc, Start 
 SPPA.psig             5830.00:  SPP Avg 
 SPPN.psig             5600.00:  SPP Min 
 SPPX.psig             5900.00:  SPP Max 
 STIM.      21.00.00 20-Aug-21:  Start Time 
 SVCS.                 DD, MWD:  Services 
 SVER.                    9.20:  Sperry Version 
 TDAT.m                 957.50:  Tot Depth Attmp 
 TDDF.                      No:  Trip for DD 
 TDLG.m                 957.50:  Tot Depth Loggd 
 TFF .                      No:  Trip for Fail 
 TQAA.f-kp               15.00:  Torque Abs Avg 
 TQAN.f-kp               12.00:  Torque Abs Min 
 TQAX.f-kp               19.00:  Torque Abs Max 
 TRRT.°/30m              -3.40:  Turn Rotating 
 MRT .                  EWR-M5:  Maximum Recorded Temperature 
 TTMX.degC              100.00:  Max Tool Temp 
 VS01.                90639251:  Virtual Str1 SN 
 VS02.                90634715:  Virtual Str2 SN 
 VS03.                90652479:  Virtual Str3 SN 
 VS04.                90642262:  Virtual Str4 SN 
 WBMN.klb                 0.00:  WOB Min 
 WITN.           Murad Guliyev:  Customer Rep 
 WITN.          Yashar Gaziyev:  Customer Rep 2 
 WOBA.klb                 9.00:  WOB Avg 
 WOBX.klb                12.00:  WOB Max 
 YP  .lhf2               30.00:  Yield Point 
~Curve Information Block
#MNEM.UNIT                 API CODE     Curve Description
#---------               -----------    ---------------------------
 TIME.HHMMSS            00 000 000 000:  GT Time & Date
 GTDEPTH.m              00 000 000 000:  GT Depth
 GTPQH.psia             00 000 000 000:  GT HR Quartz Pressure
 GTTQ.degC              00 000 000 000:  GT Quartz Temperature
 GTTN.NONE              00 000 000 000:  GT Test Number
 GTET.sec               00 000 000 000:  GT Elapsed Test Time
 GTTVD.m                00 000 000 000:  GT True Vertical Depth
#Other Information
#
#WARRANTY: Halliburton will use its best efforts to furnish customers with 
#accurate information and interpretations that are part of, and incident to, the services 
#provided.  However, Halliburton cannot and does not warrant the accuracy 
#or correctness of such information and interpretations.  Under no circumstances should any 
#such information or interpretation be relied upon as the sole basis for any drilling, 
#completion, production, or financial decision or any procedure involving any risk to the 
#safety of any drilling venture, drilling rig or its crew or any other third party.  The 
#Customer has full responsibility for all drilling, completion and production operation.  
#Halliburton makes no representations or warranties, either expressed or 
#implied, including, but not limited to, the implied warranties of merchantability or fitness 
#for a particular purpose, with respect to the services rendered.  In no event will 
#Halliburton be liable for failure to obtain any particular results or for 
#any damages, including, but not limited to, indirect, special or consequential damages, 
#resulting from the use of any information or interpretation provided by Halliburton.
#
~A           TIME           GTDEPTH  GTPQH  GTTQ  GTTN   GTET   GTTVD  
# ...
   14:20:14.000.27-Aug-2021 4859.50 3091.10 84.37 15.00 113.00 3211.87
   14:20:14.200.27-Aug-2021 4859.50 3091.10 84.37 15.00 113.20 3211.87
   14:20:14.400.27-Aug-2021 4859.50 3100.04 84.37 15.00 113.40 3211.87
   14:20:14.600.27-Aug-2021 4859.50 3104.64 84.37 15.00 113.60 3211.87
   14:20:14.800.27-Aug-2021 4859.50 3109.15 84.37 15.00 113.80 3211.87
   14:20:15.000.27-Aug-2021 4859.50 3113.76 84.37 15.00 114.00 3211.87
   14:20:15.200.27-Aug-2021 4859.50 3113.76 84.37 15.00 114.20 3211.87
   14:20:15.400.27-Aug-2021 4859.50 3122.76 84.37 15.00 114.40 3211.87
   14:20:15.600.27-Aug-2021 4859.50 3125.89 84.37 15.00 114.60 3211.87
   14:20:15.800.27-Aug-2021 4859.50 3129.94 84.37 15.00 114.80 3211.87
   14:20:16.000.27-Aug-2021 4859.50 3134.45 84.37 15.00 115.00 3211.87
   14:20:16.200.27-Aug-2021 4859.50 3134.45 84.37 15.00 115.20 3211.87
   14:20:16.400.27-Aug-2021 4859.50 3143.45 84.37 15.00 115.40 3211.87
   14:20:16.600.27-Aug-2021 4859.50 3147.88 84.37 15.00 115.60 3211.87
   14:20:16.800.27-Aug-2021 4859.50 3152.41 84.37 15.00 115.80 3211.87
   14:20:17.000.27-Aug-2021 4859.50 3156.77 84.37 15.00 116.00 3211.87
   14:20:17.200.27-Aug-2021 4859.50 3156.77 84.37 15.00 116.20 3211.87
   14:20:17.400.27-Aug-2021 4859.50 3164.29 84.37 15.00 116.40 3211.87
   14:20:17.600.27-Aug-2021 4859.50 3168.78 84.37 15.00 116.60 3211.87
   14:20:17.800.27-Aug-2021 4859.50 3173.15 84.37 15.00 116.80 3211.87
   14:20:18.000.27-Aug-2021 4859.50 3177.44 84.37 15.00 117.00 3211.87
   14:20:18.200.27-Aug-2021 4859.50 3177.44 84.37 15.00 117.20 3211.87
   14:20:18.400.27-Aug-2021 4859.50 3184.39 84.37 15.00 117.40 3211.87
   14:20:18.600.27-Aug-2021 4859.50 3188.81 84.37 15.00 117.60 3211.87
   14:20:18.800.27-Aug-2021 4859.50 3193.15 84.37 15.00 117.80 3211.87
   14:20:19.000.27-Aug-2021 4859.50 3197.58 84.37 15.00 118.00 3211.87
   14:20:19.200.27-Aug-2021 4859.50 3197.58 84.37 15.00 118.20 3211.87
   14:20:19.400.27-Aug-2021 4859.50 3206.27 84.38 15.00 118.40 3211.87
   14:20:19.600.27-Aug-2021 4859.50 3210.60 84.38 15.00 118.60 3211.87
   14:20:19.800.27-Aug-2021 4859.50 3214.88 84.38 15.00 118.80 3211.87
   14:20:20.000.27-Aug-2021 4859.50 3219.21 84.38 15.00 119.00 3211.87
   14:20:20.200.27-Aug-2021 4859.50 3219.21 84.38 15.00 119.20 3211.87
   14:20:20.400.27-Aug-2021 4859.50 3227.26 84.38 15.00 119.40 3211.87
   14:20:20.600.27-Aug-2021 4859.50 3230.54 84.38 15.00 119.60 3211.87
   14:20:20.800.27-Aug-2021 4859.50 3234.43 84.38 15.00 119.80 3211.87
   14:20:21.000.27-Aug-2021 4859.50 3237.05 84.38 15.00 120.00 3211.87
   14:20:21.200.27-Aug-2021 4859.50 3237.05 84.38 15.00 120.20 3211.87
   14:20:21.400.27-Aug-2021 4859.50 3245.50 84.38 15.00 120.40 3211.87
   14:20:21.600.27-Aug-2021 4859.50 3248.87 84.38 15.00 120.60 3211.87
   14:20:21.800.27-Aug-2021 4859.50 3253.26 84.38 15.00 120.80 3211.87
   14:20:22.000.27-Aug-2021 4859.50 3257.18 84.38 15.00 121.00 3211.87
   14:20:22.200.27-Aug-2021 4859.50 3257.18 84.38 15.00 121.20 3211.87
   14:20:22.400.27-Aug-2021 4859.50 3265.66 84.38 15.00 121.40 3211.87
   14:20:22.600.27-Aug-2021 4859.50 3269.93 84.38 15.00 121.60 3211.87
   14:20:22.800.27-Aug-2021 4859.50 3274.09 84.38 15.00 121.80 3211.87
   14:20:23.000.27-Aug-2021 4859.50 3277.46 84.38 15.00 122.00 3211.87
   14:20:23.200.27-Aug-2021 4859.50 3277.46 84.38 15.00 122.20 3211.87
   14:20:23.400.27-Aug-2021 4859.50 3285.89 84.38 15.00 122.40 3211.87
   14:20:23.600.27-Aug-2021 4859.50 3289.94 84.38 15.00 122.60 3211.87
   14:20:23.800.27-Aug-2021 4859.50 3292.29 84.38 15.00 122.80 3211.87
   14:20:24.000.27-Aug-2021 4859.50 3296.40 84.38 15.00 123.00 3211.87
   14:20:24.200.27-Aug-2021 4859.50 3296.40 84.38 15.00 123.20 3211.87
   14:20:24.400.27-Aug-2021 4859.50 3303.94 84.38 15.00 123.40 3211.87
   14:20:24.600.27-Aug-2021 4859.50 3307.98 84.38 15.00 123.60 3211.87
   14:20:24.800.27-Aug-2021 4859.50 3312.12 84.38 15.00 123.80 3211.87
   14:20:25.000.27-Aug-2021 4859.50 3316.25 84.38 15.00 124.00 3211.87
   14:20:25.200.27-Aug-2021 4859.50 3316.25 84.38 15.00 124.20 3211.87
   14:20:25.400.27-Aug-2021 4859.50 3324.46 84.38 15.00 124.40 3211.87
   14:20:25.600.27-Aug-2021 4859.50 3328.52 84.38 15.00 124.60 3211.87
   14:20:25.800.27-Aug-2021 4859.50 3332.67 84.38 15.00 124.80 3211.87
   14:20:26.000.27-Aug-2021 4859.50 3336.72 84.38 15.00 125.00 3211.87
   14:20:26.200.27-Aug-2021 4859.50 3336.72 84.38 15.00 125.20 3211.87
   14:20:26.400.27-Aug-2021 4859.50 3344.32 84.38 15.00 125.40 3211.87
   14:20:26.600.27-Aug-2021 4859.50 3347.01 84.38 15.00 125.60 3211.87
   14:20:26.800.27-Aug-2021 4859.50 3351.08 84.38 15.00 125.80 3211.87
   14:20:27.000.27-Aug-2021 4859.50 3355.06 84.38 15.00 126.00 3211.87
   14:20:27.200.27-Aug-2021 4859.50 3355.06 84.38 15.00 126.20 3211.87
   14:20:27.400.27-Aug-2021 4859.50 3362.69 84.38 15.00 126.40 3211.87
   14:20:27.600.27-Aug-2021 4859.50 3366.05 84.38 15.00 126.60 3211.87
   14:20:27.800.27-Aug-2021 4859.50 3369.90 84.38 15.00 126.80 3211.87
   14:20:28.000.27-Aug-2021 4859.50 3373.90 84.38 15.00 127.00 3211.87
   14:20:28.200.27-Aug-2021 4859.50 3373.90 84.38 15.00 127.20 3211.87
   14:20:28.400.27-Aug-2021 4859.50 3381.80 84.38 15.00 127.40 3211.87
   14:20:28.600.27-Aug-2021 4859.50 3385.77 84.38 15.00 127.60 3211.87
   14:20:28.800.27-Aug-2021 4859.50 3389.67 84.38 15.00 127.80 3211.87
   14:20:29.000.27-Aug-2021 4859.50 3393.69 84.38 15.00 128.00 3211.87
   14:20:29.200.27-Aug-2021 4859.50 3393.69 84.38 15.00 128.20 3211.87
   14:20:29.400.27-Aug-2021 4859.50 3400.60 84.38 15.00 128.40 3211.87
   14:20:29.600.27-Aug-2021 4859.50 3403.41 84.38 15.00 128.60 3211.87
   14:20:29.800.27-Aug-2021 4859.50 3407.35 84.38 15.00 128.80 3211.87
   14:20:30.000.27-Aug-2021 4859.50 3411.29 84.38 15.00 129.00 3211.87
   14:20:30.200.27-Aug-2021 4859.50 3411.29 84.38 15.00 129.20 3211.87
   14:20:30.400.27-Aug-2021 4859.50 3419.08 84.38 15.00 129.40 3211.87
   14:20:30.600.27-Aug-2021 4859.50 3422.42 84.38 15.00 129.60 3211.87
   14:20:30.800.27-Aug-2021 4859.50 3425.47 84.38 15.00 129.80 3211.87
   14:20:31.000.27-Aug-2021 4859.50 3429.20 84.38 15.00 130.00 3211.87
   14:20:31.200.27-Aug-2021 4859.50 3429.20 84.38 15.00 130.20 3211.87
   14:20:31.400.27-Aug-2021 4859.50 3436.91 84.38 15.00 130.40 3211.87
   14:20:31.600.27-Aug-2021 4859.50 3440.78 84.39 15.00 130.60 3211.87
   14:20:31.800.27-Aug-2021 4859.50 3444.63 84.39 15.00 130.80 3211.87
   14:20:32.000.27-Aug-2021 4859.50 3448.06 84.39 15.00 131.00 3211.87
   14:20:32.200.27-Aug-2021 4859.50 3448.06 84.39 15.00 131.20 3211.87
   14:20:32.400.27-Aug-2021 4859.50 3455.07 84.39 15.00 131.40 3211.87
   14:20:32.600.27-Aug-2021 4859.50 3457.98 84.39 15.00 131.60 3211.87
   14:20:32.800.27-Aug-2021 4859.50 3459.98 84.39 15.00 131.80 3211.87
   14:20:33.000.27-Aug-2021 4859.50 3464.11 84.39 15.00 132.00 3211.87
   14:20:33.200.27-Aug-2021 4859.50 3464.11 84.39 15.00 132.20 3211.87
   14:20:33.400.27-Aug-2021 4859.50 3471.37 84.39 15.00 132.40 3211.87
   14:20:33.600.27-Aug-2021 4859.50 3474.91 84.39 15.00 132.60 3211.87
   14:20:33.800.27-Aug-2021 4859.50 3478.39 84.39 15.00 132.80 3211.87
   14:20:34.000.27-Aug-2021 4859.50 3482.08 84.39 15.00 133.00 3211.87
   14:20:34.200.27-Aug-2021 4859.50 3482.08 84.39 15.00 133.20 3211.87
   14:20:34.400.27-Aug-2021 4859.50 3489.65 84.39 15.00 133.40 3211.87
   14:20:34.600.27-Aug-2021 4859.50 3493.44 84.39 15.00 133.60 3211.87
   14:20:34.800.27-Aug-2021 4859.50 3497.14 84.39 15.00 133.80 3211.87
   14:20:35.000.27-Aug-2021 4859.50 3500.94 84.39 15.00 134.00 3211.87
   14:20:35.200.27-Aug-2021 4859.50 3500.94 84.39 15.00 134.20 3211.87
   14:20:35.400.27-Aug-2021 4859.50 3508.43 84.39 15.00 134.40 3211.87
   14:20:35.600.27-Aug-2021 4859.50 3512.07 84.39 15.00 134.60 3211.87
   14:20:35.800.27-Aug-2021 4859.50 3515.64 84.39 15.00 134.80 3211.87
   14:20:36.000.27-Aug-2021 4859.50 3517.51 84.39 15.00 135.00 3211.87
   14:20:36.200.27-Aug-2021 4859.50 3517.51 84.39 15.00 135.20 3211.87
   14:20:36.400.27-Aug-2021 4859.50 3524.80 84.39 15.00 135.40 3211.87
