~Version Information
 VERS.                  2.0:   CWLS log ASCII Standard -VERSION 2.0
 WRAP.                   NO:   One line per depth step
~Well Information Block
#MNEM.UNIT     VALUE/NAME     DESCRIPTION
#---------     -----------    ---------------------------
 STRT.S             16:35:30 27-Aug-21: START TIME 16:35:30 27-Aug-21
 STOP.S             16:42:43 27-Aug-21: STOP TIME  16:42:43 27-Aug-21
 STEP.S                   0.00: STEP TIME
 NULL.                 -999.25: NULL VALUE
 DFWT.                        :  DIST FWL TEXT
 DFST.                        :  DIST FSL TEXT
 DMF .             Drill Floor:  DRILL MEAS FROM
 STIM.      20.00.00 17-Aug-21:  START TIME
 DATE.      19.00.00 29-Aug-21:  END TIME
 SPUD.               15-Aug-21:  SPUD DATE
 NREF.                    Grid:  NORTH REFERENCE
 HPTY.       Minimum Curvature:  HOLE POS TYPE
 DMOD.             Drill Model:  DRILL MOD DESC
 SVYD.                  Survey:  SURVEY DESC
 ILTD.               Lithology:  INTERP LTH DESC
 FTOP.          Formation Tops:  FORM TOPS DESC
 RIG .              East Azeri:  RIG NAME
 PDAT.          Mean Sea Level:  PERMANENT DATUM
 FLD .                     ACG:  FIELD NAME
 SON .        AZ-XX-0907180857:  JOB NUMBER
 CTRY.              Azerbaijan:  COUNTRY NAME
 WELL.                    D23x:  WELL NAME
 SRVC.     Turan Drilling and Engineering:  CONTRACTOR
 COMP.     BP Exploration (Caspian Sea) Ltd.:  COMPANY
 UWI .            /AZE00000214:  UNIQUE WELL IDENTIFIER
 API .            /AZE00000214:  API NUMBER
 MDS .        Operator Entered:  MAG DATA SOURCE
 BASE.              Azerbaijan:  LOGGING EQUIPMENT BASE LOCATION
 REGN.                   EESSA:  REGION
 PROV.                    Baku:  PROVINCE
 STAT.                    Baku:  STATE NAME
 MWDS.                    Baku:  MWD SHOP
 DOE .                     N/A:  DOE NUMBER
 DCON.         Sperry Drilling:  DIRECTNL CONTR
 UNIT.                     N/A:  LOGGING EQUIPMENT ID
 WTYP.                Deviated:  WELL TYPE
 CNTY.                        :  COUNTY
 LOC .                        :  LOCATION
 LMF .             Drill Floor:  LOG MEASURED FROM
 TVDS.m                  43.60:  TVDSS CORRECTN
 LATI.deg                40.02:  LATITUDE
 LONG.deg                51.45:  LONGITUDE
 WHNS.m                  -7.04:  WELL HEAD N/S
 WHEW.m                  -0.67:  WELL HEAD E/W
 UTMX.m              538762.90:  UTM X
 UTMY.m             4431871.34:  UTM Y
 DFWL.m                   0.00:  DISTANCE FWL
 DFSL.m                   0.00:  DISTANCE FSL
 SDEP.m                4127.00:  START DEPTH
 TDD .m                5084.50:  TOTAL DEPTH (DRILLER)
 VSDR.deg               140.47:  VERT SEC DIRECT
 GVFD.g                   1.00:  GRAVITY FIELD
 MFLD.nT              50362.00:  MAGNETIC FIELD
 MDIP.deg                59.48:  MAGNETIC DIP
 MDEC.deg                 6.47:  MAGNETIC DECL
 GRDC.deg                 0.31:  GRID CORRECTION
 AZTC.deg                 6.16:  AZM TOTAL CORR
 EPD .m                   0.00:  ELEVATION
 EGL .m                   0.00:  GROUND ELEVATION
 WDMS.m                 151.80:  WD ELEV
 APD .m                  43.60:  DEPTH ABOVE PD
 DEP .m                4092.57:  DEPTH
 AGAP.m                  43.60:  AIR GAP
 VSEW.m                  -0.67:  VERT SEC E/W
 VSNS.m                  -7.04:  VERT SEC N/S
 EKB .m                  43.60:  KB ELEVATION
 EDF .m                  43.60:  DF ELEVATION
 TDL .m                 957.50:  TOTAL DEPTH (LOGGER)
 VSC .                       0:  VS TO CLOSURE
 MAGU.                 1851413:  MAGUTM CHECKSUM
~Parameter Information Block
#MNEM.UNIT       Value        Description
#---------     -----------    ---------------------------
 AV  .mps                 1.50:  Ann Velocity 
 AVMX.mps                 2.00:  Max Ann Veloc 
 AZIF.deg               184.66:  Azm, Final 
 BHAT.        Rotary Steerable:  BHA Type 
 BREV.rev               300.00:  Rev Bit Total 
 BROT.°/30m              -0.50:  Build Rotating 
 BS  .in                  8.50:  Bit Size 
 BSZ .in                  8.50:  Bit Size 
 BTPL.psig              370.00:  Bit Press Loss 
 CABU.                      No:  Customer Abuse 
 CGEO.      Behruz Shahbaliyev:  Customer Geo 
 COMM.                     äU:  Run Comments 1 
 TCS .hr                140.08:  Time Ciculation Ended 
 CV  .mps                 3.00:  Crit Velocity 
 CVMX.mps                 3.20:  Max Crit Veloc 
 DD1 .            Musa Ahmadov:  Direct Drillr 1 
 DD2 .           Hamid Ahmadov:  Direct Drillr 2 
 DDSV.               Geo-Pilot:  DD Service 
 DEFF.%                  98.40:  % Det Eff 
 DLRX.°/30m               3.40:  Dogleg Rot Max 
 DLSO.°/30m               1.45:  Dogleg Oriented 
 DLSX.°/30m               3.40:  Dogleg Str Max 
 DRET.      18.40.00 29-Aug-21:  Drill End Time 
 DRST.      21.00.00 20-Aug-21:  Drill Start Tim 
 DTIM.hr                 69.47:  Time Drilling 
 EDEP.m                5084.50:  End Depth 
 ENG1.      Artemiy Matviyanov:  Engineer 1 
 ENG2.         Almaz Almadatov:  Engineer 2 
 ETIM.      18.40.00 29-Aug-21:  End Time 
 FLOI.gpm               500.00:  Flow In 
 FLON.gpm               400.00:  Flow In Min 
 FLOS.cptm                0.00:  Fluid Loss 
 FLOX.gpm               500.00:  Flow In Max 
 DFT .        Mineral Oil Base:  Mud Type 
 HFLO.                      No:  High Flow 
 HPRE.                      No:  High Pressure 
 HTEM.                      No:  High Temp 
 HYDO.m                   1.80:  Hydro Offset 
 IFIN.deg                25.62:  Inc, Final 
 IMAX.deg                48.69:  Inc Max 
 IMIN.deg                24.01:  Inc Min 
 IMND.m                4962.57:  Inc Min Depth 
 IMXD.m                4119.01:  Inc Max Depth 
 JARR.                      No:  Jarring 
 LETM.      18.40.00 29-Aug-21:  Log End Time 
 LOST.hr                     0:  Lost Rig Time 
 LSTM.      21.00.00 20-Aug-21:  Log Start Time 
 MDCL.ppm             41500.00:  Mud Chlorides 
 MDES.     Inversion Oil/Synthetic:  Mud Desc 
 DFD .sg                  1.56:  Mud Density 
 MDMN.sg                  1.56:  Dens Mud Min 
 MDMX.sg                  1.56:  Dens Mud Max 
 MOIL.                      70:  Run Mud Oil % 
 MOWR.                   70:30:  Run Mud OWR 
 MSND.                     0.2:  Run Mud Sand % 
 MSOL.                    23.3:  Run Mud Solids% 
 DFV .spqt               78.00:  Mud Viscosity 
 MWOD.in                  6.75:  MWD Tool OD 
 MWSI.                      No:  Serv Intrp, MWD 
 OTIM.hr                218.30:  Time Operating 
 PCON.           Look Like New:  Pad Condition 
 PMAX.psia            11015.30:  Press Op, Max 
 PV  .cP                 38.00:  Mud PV 
 RUN .                     300:  Run Number 
 ROPA.m/hr               15.00:  ROP Avg 
 ROPN.m/hr                9.00:  ROP Min 
 ROPX.m/hr               17.00:  ROP Max 
 RPMA.rpm               120.00:  RPM Surface Avg 
 RPMN.rpm                90.00:  RPM Surface Min 
 RPMX.rpm               140.00:  RPM Surface Max 
 RRUN.                     300:  Rig Run Number 
 RTIM.hr                 31.53:  Time Reaming 
 SAZI.deg               331.64:  Azm, Start 
 SDEP.m                4127.00:  Start Depth 
 SIDD.                      No:  Serv Intrp, DD 
 SINC.deg                48.43:  Inc, Start 
 SPPA.psig             5830.00:  SPP Avg 
 SPPN.psig             5600.00:  SPP Min 
 SPPX.psig             5900.00:  SPP Max 
 STIM.      21.00.00 20-Aug-21:  Start Time 
 SVCS.                 DD, MWD:  Services 
 SVER.                    9.20:  Sperry Version 
 TDAT.m                 957.50:  Tot Depth Attmp 
 TDDF.                      No:  Trip for DD 
 TDLG.m                 957.50:  Tot Depth Loggd 
 TFF .                      No:  Trip for Fail 
 TQAA.f-kp               15.00:  Torque Abs Avg 
 TQAN.f-kp               12.00:  Torque Abs Min 
 TQAX.f-kp               19.00:  Torque Abs Max 
 TRRT.°/30m              -3.40:  Turn Rotating 
 MRT .                  EWR-M5:  Maximum Recorded Temperature 
 TTMX.degC              100.00:  Max Tool Temp 
 VS01.                90639251:  Virtual Str1 SN 
 VS02.                90634715:  Virtual Str2 SN 
 VS03.                90652479:  Virtual Str3 SN 
 VS04.                90642262:  Virtual Str4 SN 
 WBMN.klb                 0.00:  WOB Min 
 WITN.           Murad Guliyev:  Customer Rep 
 WITN.          Yashar Gaziyev:  Customer Rep 2 
 WOBA.klb                 9.00:  WOB Avg 
 WOBX.klb                12.00:  WOB Max 
 YP  .lhf2               30.00:  Yield Point 
~Curve Information Block
#MNEM.UNIT                 API CODE     Curve Description
#---------               -----------    ---------------------------
 TIME.HHMMSS            00 000 000 000:  GT Time & Date
 GTDEPTH.m              00 000 000 000:  GT Depth
 GTPQH.psia             00 000 000 000:  GT HR Quartz Pressure
 GTTQ.degC              00 000 000 000:  GT Quartz Temperature
 GTTN.NONE              00 000 000 000:  GT Test Number
 GTET.sec               00 000 000 000:  GT Elapsed Test Time
 GTTVD.m                00 000 000 000:  GT True Vertical Depth
#Other Information
#
#WARRANTY: Halliburton will use its best efforts to furnish customers with 
#accurate information and interpretations that are part of, and incident to, the services 
#provided.  However, Halliburton cannot and does not warrant the accuracy 
#or correctness of such information and interpretations.  Under no circumstances should any 
#such information or interpretation be relied upon as the sole basis for any drilling, 
#completion, production, or financial decision or any procedure involving any risk to the 
#safety of any drilling venture, drilling rig or its crew or any other third party.  The 
#Customer has full responsibility for all drilling, completion and production operation.  
#Halliburton makes no representations or warranties, either expressed or 
#implied, including, but not limited to, the implied warranties of merchantability or fitness 
#for a particular purpose, with respect to the services rendered.  In no event will 
#Halliburton be liable for failure to obtain any particular results or for 
#any damages, including, but not limited to, indirect, special or consequential damages, 
#resulting from the use of any information or interpretation provided by Halliburton.
#
~A           TIME           GTDEPTH  GTPQH  GTTQ  GTTN   GTET   GTTVD  
# ...
   16:40:23.939.27-Aug-2021 4788.00 7527.73 83.19 17.00 293.51 3147.22
   16:40:24.139.27-Aug-2021 4788.00 7524.23 83.19 17.00 293.71 3147.22
   16:40:24.339.27-Aug-2021 4788.00 7524.23 83.19 17.00 293.91 3147.22
   16:40:24.538.27-Aug-2021 4788.00 7525.11 83.19 17.00 294.11 3147.22
   16:40:24.738.27-Aug-2021 4788.00 7523.63 83.19 17.00 294.31 3147.22
   16:40:24.938.27-Aug-2021 4788.00 7524.34 83.19 17.00 294.51 3147.22
   16:40:25.138.27-Aug-2021 4788.00 7523.69 83.19 17.00 294.71 3147.22
   16:40:25.338.27-Aug-2021 4788.00 7523.69 83.19 17.00 294.91 3147.22
   16:40:25.537.27-Aug-2021 4788.00 7524.66 83.19 17.00 295.11 3147.22
   16:40:25.737.27-Aug-2021 4788.00 7524.38 83.19 17.00 295.31 3147.22
   16:40:25.937.27-Aug-2021 4788.00 7524.72 83.19 17.00 295.51 3147.22
   16:40:26.137.27-Aug-2021 4788.00 7524.81 83.19 17.00 295.70 3147.22
   16:40:26.337.27-Aug-2021 4788.00 7524.81 83.19 17.00 295.90 3147.22
   16:40:26.536.27-Aug-2021 4788.00 7524.68 83.19 17.00 296.10 3147.22
   16:40:26.736.27-Aug-2021 4788.00 7524.53 83.19 17.00 296.30 3147.22
   16:40:26.936.27-Aug-2021 4788.00 7524.39 83.19 17.00 296.50 3147.22
   16:40:27.136.27-Aug-2021 4788.00 7524.31 83.19 17.00 296.70 3147.22
   16:40:27.336.27-Aug-2021 4788.00 7524.31 83.19 17.00 296.90 3147.22
   16:40:27.535.27-Aug-2021 4788.00 7523.12 83.19 17.00 297.10 3147.22
   16:40:27.735.27-Aug-2021 4788.00 7524.48 83.19 17.00 297.30 3147.22
   16:40:27.935.27-Aug-2021 4788.00 7525.33 83.19 17.00 297.50 3147.22
   16:40:28.135.27-Aug-2021 4788.00 7527.39 83.19 17.00 297.70 3147.22
   16:40:28.335.27-Aug-2021 4788.00 7527.39 83.19 17.00 297.90 3147.22
   16:40:28.534.27-Aug-2021 4788.00 7523.51 83.19 17.00 298.10 3147.22
   16:40:28.734.27-Aug-2021 4788.00 7524.74 83.19 17.00 298.30 3147.22
   16:40:28.934.27-Aug-2021 4788.00 7525.24 83.19 17.00 298.50 3147.22
   16:40:29.134.27-Aug-2021 4788.00 7523.78 83.19 17.00 298.70 3147.22
   16:40:29.334.27-Aug-2021 4788.00 7523.78 83.19 17.00 298.90 3147.22
   16:40:29.533.27-Aug-2021 4788.00 7524.29 83.19 17.00 299.10 3147.22
   16:40:29.733.27-Aug-2021 4788.00 7524.53 83.19 17.00 299.30 3147.22
   16:40:29.933.27-Aug-2021 4788.00 7525.22 83.19 17.00 299.50 3147.22
   16:40:30.133.27-Aug-2021 4788.00 7524.74 83.19 17.00 299.70 3147.22
   16:40:30.333.27-Aug-2021 4788.00 7524.74 83.19 17.00 299.90 3147.22
   16:40:30.532.27-Aug-2021 4788.00 7523.06 83.19 17.00 300.10 3147.22
   16:40:30.732.27-Aug-2021 4788.00 7524.27 83.19 17.00 300.30 3147.22
   16:40:30.932.27-Aug-2021 4788.00 7525.56 83.19 17.00 300.50 3147.22
   16:40:31.132.27-Aug-2021 4788.00 7523.92 83.19 17.00 300.70 3147.22
   16:40:31.332.27-Aug-2021 4788.00 7523.92 83.19 17.00 300.90 3147.22
   16:40:31.531.27-Aug-2021 4788.00 7523.62 83.19 17.00 301.10 3147.22
   16:40:31.731.27-Aug-2021 4788.00 7524.12 83.19 17.00 301.30 3147.22
   16:40:31.931.27-Aug-2021 4788.00 7524.78 83.19 17.00 301.50 3147.22
   16:40:32.131.27-Aug-2021 4788.00 7524.32 83.19 17.00 301.70 3147.22
   16:40:32.331.27-Aug-2021 4788.00 7524.32 83.19 17.00 301.90 3147.22
   16:40:32.530.27-Aug-2021 4788.00 7524.71 83.19 17.00 302.10 3147.22
   16:40:32.730.27-Aug-2021 4788.00 7524.50 83.19 17.00 302.30 3147.22
   16:40:32.930.27-Aug-2021 4788.00 7524.49 83.19 17.00 302.50 3147.22
   16:40:33.130.27-Aug-2021 4788.00 7524.49 83.19 17.00 302.70 3147.22
   16:40:33.330.27-Aug-2021 4788.00 7524.49 83.19 17.00 302.90 3147.22
   16:40:33.529.27-Aug-2021 4788.00 7528.62 83.19 17.00 303.10 3147.22
   16:40:33.729.27-Aug-2021 4788.00 7523.03 83.19 17.00 303.30 3147.22
   16:40:33.929.27-Aug-2021 4788.00 7524.33 83.19 17.00 303.50 3147.22
   16:40:34.129.27-Aug-2021 4788.00 7525.18 83.19 17.00 303.70 3147.22
   16:40:34.329.27-Aug-2021 4788.00 7525.18 83.19 17.00 303.90 3147.22
   16:40:34.528.27-Aug-2021 4788.00 7524.18 83.19 17.00 304.10 3147.22
   16:40:34.728.27-Aug-2021 4788.00 7523.30 83.19 17.00 304.30 3147.22
   16:40:34.928.27-Aug-2021 4788.00 7523.89 83.19 17.00 304.50 3147.22
   16:40:35.128.27-Aug-2021 4788.00 7524.61 83.19 17.00 304.70 3147.22
   16:40:35.328.27-Aug-2021 4788.00 7524.61 83.19 17.00 304.90 3147.22
   16:40:35.527.27-Aug-2021 4788.00 7524.52 83.19 17.00 305.10 3147.22
   16:40:35.727.27-Aug-2021 4788.00 7524.76 83.19 17.00 305.30 3147.22
   16:40:35.927.27-Aug-2021 4788.00 7524.56 83.19 17.00 305.50 3147.22
   16:40:36.127.27-Aug-2021 4788.00 7524.60 83.19 17.00 305.69 3147.22
   16:40:36.327.27-Aug-2021 4788.00 7524.60 83.19 17.00 305.89 3147.22
   16:40:36.527.27-Aug-2021 4788.00 7524.31 83.19 17.00 306.09 3147.22
   16:40:36.726.27-Aug-2021 4788.00 7524.22 83.19 17.00 306.29 3147.22
   16:40:36.926.27-Aug-2021 4788.00 7530.32 83.19 17.00 306.49 3147.22
   16:40:37.126.27-Aug-2021 4788.00 7521.14 83.19 17.00 306.69 3147.22
   16:40:37.326.27-Aug-2021 4788.00 7521.14 83.19 17.00 306.89 3147.22
   16:40:37.526.27-Aug-2021 4788.00 7525.09 83.19 17.00 307.09 3147.22
   16:40:37.725.27-Aug-2021 4788.00 7523.83 83.19 17.00 307.29 3147.22
   16:40:37.925.27-Aug-2021 4788.00 7527.27 83.19 17.00 307.49 3147.22
   16:40:38.125.27-Aug-2021 4788.00 7523.04 83.19 17.00 307.69 3147.22
   16:40:38.325.27-Aug-2021 4788.00 7523.04 83.19 17.00 307.89 3147.22
   16:40:38.525.27-Aug-2021 4788.00 7525.27 83.19 17.00 308.09 3147.22
   16:40:38.724.27-Aug-2021 4788.00 7523.25 83.19 17.00 308.29 3147.22
   16:40:38.924.27-Aug-2021 4788.00 7524.22 83.19 17.00 308.49 3147.22
   16:40:39.124.27-Aug-2021 4788.00 7527.26 83.19 17.00 308.69 3147.22
   16:40:39.324.27-Aug-2021 4788.00 7527.26 83.19 17.00 308.89 3147.22
   16:40:39.524.27-Aug-2021 4788.00 7524.66 83.19 17.00 309.09 3147.22
   16:40:39.723.27-Aug-2021 4788.00 7524.96 83.19 17.00 309.29 3147.22
   16:40:39.923.27-Aug-2021 4788.00 7529.88 83.19 17.00 309.49 3147.22
   16:40:40.123.27-Aug-2021 4788.00 7521.54 83.19 17.00 309.69 3147.22
   16:40:40.323.27-Aug-2021 4788.00 7521.54 83.19 17.00 309.89 3147.22
   16:40:40.523.27-Aug-2021 4788.00 7525.09 83.19 17.00 310.09 3147.22
   16:40:40.722.27-Aug-2021 4788.00 7524.19 83.19 17.00 310.29 3147.22
   16:40:40.922.27-Aug-2021 4788.00 7523.64 83.19 17.00 310.49 3147.22
   16:40:41.122.27-Aug-2021 4788.00 7523.33 83.19 17.00 310.69 3147.22
   16:40:41.322.27-Aug-2021 4788.00 7523.33 83.19 17.00 310.89 3147.22
   16:40:41.522.27-Aug-2021 4788.00 7524.25 83.19 17.00 311.09 3147.22
   16:40:41.721.27-Aug-2021 4788.00 7524.06 83.19 17.00 311.29 3147.22
   16:40:41.921.27-Aug-2021 4788.00 7524.26 83.19 17.00 311.49 3147.22
   16:40:42.121.27-Aug-2021 4788.00 7524.49 83.19 17.00 311.69 3147.22
   16:40:42.321.27-Aug-2021 4788.00 7524.49 83.19 17.00 311.89 3147.22
   16:40:42.521.27-Aug-2021 4788.00 7524.36 83.19 17.00 312.09 3147.22
   16:40:42.720.27-Aug-2021 4788.00 7524.41 83.19 17.00 312.29 3147.22
   16:40:42.920.27-Aug-2021 4788.00 7524.25 83.19 17.00 312.49 3147.22
   16:40:43.120.27-Aug-2021 4788.00 7530.21 83.19 17.00 312.69 3147.22
   16:40:43.320.27-Aug-2021 4788.00 7530.21 83.19 17.00 312.89 3147.22
   16:40:43.520.27-Aug-2021 4788.00 7524.13 83.19 17.00 313.09 3147.22
   16:40:43.719.27-Aug-2021 4788.00 7525.14 83.19 17.00 313.29 3147.22
   16:40:43.919.27-Aug-2021 4788.00 7523.78 83.19 17.00 313.49 3147.22
   16:40:44.119.27-Aug-2021 4788.00 7523.79 83.19 17.00 313.69 3147.22
   16:40:44.319.27-Aug-2021 4788.00 7523.79 83.19 17.00 313.89 3147.22
   16:40:44.519.27-Aug-2021 4788.00 7523.67 83.19 17.00 314.09 3147.22
   16:40:44.718.27-Aug-2021 4788.00 7524.24 83.19 17.00 314.29 3147.22
   16:40:44.918.27-Aug-2021 4788.00 7524.05 83.19 17.00 314.49 3147.22
   16:40:45.118.27-Aug-2021 4788.00 7524.30 83.19 17.00 314.69 3147.22
   16:40:45.318.27-Aug-2021 4788.00 7524.30 83.19 17.00 314.89 3147.22
   16:40:45.518.27-Aug-2021 4788.00 7524.61 83.19 17.00 315.09 3147.22
   16:40:45.717.27-Aug-2021 4788.00 7524.55 83.19 17.00 315.29 3147.22
   16:40:45.917.27-Aug-2021 4788.00 7524.46 83.19 17.00 315.49 3147.22
   16:40:46.117.27-Aug-2021 4788.00 7524.32 83.19 17.00 315.68 3147.22
   16:40:46.317.27-Aug-2021 4788.00 7524.32 83.19 17.00 315.88 3147.22
