~Version Information
 VERS.                  2.0:   CWLS log ASCII Standard -VERSION 2.0
 WRAP.                   NO:   One line per depth step
~Well Information Block
#MNEM.UNIT     VALUE/NAME     DESCRIPTION
#---------     -----------    ---------------------------
 STRT.S             12:21:31 27-Aug-21: START TIME 12:21:31 27-Aug-21
 STOP.S             12:28:48 27-Aug-21: STOP TIME  12:28:48 27-Aug-21
 STEP.S                   0.00: STEP TIME
 NULL.                 -999.25: NULL VALUE
 DFWT.                        :  DIST FWL TEXT
 DFST.                        :  DIST FSL TEXT
 DMF .             Drill Floor:  DRILL MEAS FROM
 STIM.      20.00.00 17-Aug-21:  START TIME
 DATE.      19.00.00 29-Aug-21:  END TIME
 SPUD.               15-Aug-21:  SPUD DATE
 NREF.                    Grid:  NORTH REFERENCE
 HPTY.       Minimum Curvature:  HOLE POS TYPE
 DMOD.             Drill Model:  DRILL MOD DESC
 SVYD.                  Survey:  SURVEY DESC
 ILTD.               Lithology:  INTERP LTH DESC
 FTOP.          Formation Tops:  FORM TOPS DESC
 RIG .              East Azeri:  RIG NAME
 PDAT.          Mean Sea Level:  PERMANENT DATUM
 FLD .                     ACG:  FIELD NAME
 SON .        AZ-XX-0907180857:  JOB NUMBER
 CTRY.              Azerbaijan:  COUNTRY NAME
 WELL.                    D23x:  WELL NAME
 SRVC.     Turan Drilling and Engineering:  CONTRACTOR
 COMP.     BP Exploration (Caspian Sea) Ltd.:  COMPANY
 UWI .            /AZE00000214:  UNIQUE WELL IDENTIFIER
 API .            /AZE00000214:  API NUMBER
 MDS .        Operator Entered:  MAG DATA SOURCE
 BASE.              Azerbaijan:  LOGGING EQUIPMENT BASE LOCATION
 REGN.                   EESSA:  REGION
 PROV.                    Baku:  PROVINCE
 STAT.                    Baku:  STATE NAME
 MWDS.                    Baku:  MWD SHOP
 DOE .                     N/A:  DOE NUMBER
 DCON.         Sperry Drilling:  DIRECTNL CONTR
 UNIT.                     N/A:  LOGGING EQUIPMENT ID
 WTYP.                Deviated:  WELL TYPE
 CNTY.                        :  COUNTY
 LOC .                        :  LOCATION
 LMF .             Drill Floor:  LOG MEASURED FROM
 TVDS.m                  43.60:  TVDSS CORRECTN
 LATI.deg                40.02:  LATITUDE
 LONG.deg                51.45:  LONGITUDE
 WHNS.m                  -7.04:  WELL HEAD N/S
 WHEW.m                  -0.67:  WELL HEAD E/W
 UTMX.m              538762.90:  UTM X
 UTMY.m             4431871.34:  UTM Y
 DFWL.m                   0.00:  DISTANCE FWL
 DFSL.m                   0.00:  DISTANCE FSL
 SDEP.m                4127.00:  START DEPTH
 TDD .m                5084.50:  TOTAL DEPTH (DRILLER)
 VSDR.deg               140.47:  VERT SEC DIRECT
 GVFD.g                   1.00:  GRAVITY FIELD
 MFLD.nT              50362.00:  MAGNETIC FIELD
 MDIP.deg                59.48:  MAGNETIC DIP
 MDEC.deg                 6.47:  MAGNETIC DECL
 GRDC.deg                 0.31:  GRID CORRECTION
 AZTC.deg                 6.16:  AZM TOTAL CORR
 EPD .m                   0.00:  ELEVATION
 EGL .m                   0.00:  GROUND ELEVATION
 WDMS.m                 151.80:  WD ELEV
 APD .m                  43.60:  DEPTH ABOVE PD
 DEP .m                4092.57:  DEPTH
 AGAP.m                  43.60:  AIR GAP
 VSEW.m                  -0.67:  VERT SEC E/W
 VSNS.m                  -7.04:  VERT SEC N/S
 EKB .m                  43.60:  KB ELEVATION
 EDF .m                  43.60:  DF ELEVATION
 TDL .m                 957.50:  TOTAL DEPTH (LOGGER)
 VSC .                       0:  VS TO CLOSURE
 MAGU.                 1851413:  MAGUTM CHECKSUM
~Parameter Information Block
#MNEM.UNIT       Value        Description
#---------     -----------    ---------------------------
 AV  .mps                 1.50:  Ann Velocity 
 AVMX.mps                 2.00:  Max Ann Veloc 
 AZIF.deg               184.66:  Azm, Final 
 BHAT.        Rotary Steerable:  BHA Type 
 BREV.rev               300.00:  Rev Bit Total 
 BROT.°/30m              -0.50:  Build Rotating 
 BS  .in                  8.50:  Bit Size 
 BSZ .in                  8.50:  Bit Size 
 BTPL.psig              370.00:  Bit Press Loss 
 CABU.                      No:  Customer Abuse 
 CGEO.      Behruz Shahbaliyev:  Customer Geo 
 TCS .hr                140.08:  Time Ciculation Ended 
 CV  .mps                 3.00:  Crit Velocity 
 CVMX.mps                 3.20:  Max Crit Veloc 
 DD1 .            Musa Ahmadov:  Direct Drillr 1 
 DD2 .           Hamid Ahmadov:  Direct Drillr 2 
 DDSV.               Geo-Pilot:  DD Service 
 DEFF.%                  98.40:  % Det Eff 
 DLRX.°/30m               3.40:  Dogleg Rot Max 
 DLSO.°/30m               1.45:  Dogleg Oriented 
 DLSX.°/30m               3.40:  Dogleg Str Max 
 DRET.      18.40.00 29-Aug-21:  Drill End Time 
 DRST.      21.00.00 20-Aug-21:  Drill Start Tim 
 DTIM.hr                 69.47:  Time Drilling 
 EDEP.m                5084.50:  End Depth 
 ENG1.      Artemiy Matviyanov:  Engineer 1 
 ENG2.         Almaz Almadatov:  Engineer 2 
 ETIM.      18.40.00 29-Aug-21:  End Time 
 FLOI.gpm               500.00:  Flow In 
 FLON.gpm               400.00:  Flow In Min 
 FLOS.cptm                0.00:  Fluid Loss 
 FLOX.gpm               500.00:  Flow In Max 
 DFT .        Mineral Oil Base:  Mud Type 
 HFLO.                      No:  High Flow 
 HPRE.                      No:  High Pressure 
 HTEM.                      No:  High Temp 
 HYDO.m                   1.80:  Hydro Offset 
 IFIN.deg                25.62:  Inc, Final 
 IMAX.deg                48.69:  Inc Max 
 IMIN.deg                24.01:  Inc Min 
 IMND.m                4962.57:  Inc Min Depth 
 IMXD.m                4119.01:  Inc Max Depth 
 JARR.                      No:  Jarring 
 LETM.      18.40.00 29-Aug-21:  Log End Time 
 LOST.hr                     0:  Lost Rig Time 
 LSTM.      21.00.00 20-Aug-21:  Log Start Time 
 MDCL.ppm             41500.00:  Mud Chlorides 
 MDES.     Inversion Oil/Synthetic:  Mud Desc 
 DFD .sg                  1.56:  Mud Density 
 MDMN.sg                  1.56:  Dens Mud Min 
 MDMX.sg                  1.56:  Dens Mud Max 
 MOIL.                      70:  Run Mud Oil % 
 MOWR.                   70:30:  Run Mud OWR 
 MSND.                     0.2:  Run Mud Sand % 
 MSOL.                    23.3:  Run Mud Solids% 
 DFV .spqt               78.00:  Mud Viscosity 
 MWOD.in                  6.75:  MWD Tool OD 
 MWSI.                      No:  Serv Intrp, MWD 
 OTIM.hr                218.30:  Time Operating 
 PCON.           Look Like New:  Pad Condition 
 PMAX.psia            11015.30:  Press Op, Max 
 PV  .cP                 38.00:  Mud PV 
 RUN .                     300:  Run Number 
 ROPA.m/hr               15.00:  ROP Avg 
 ROPN.m/hr                9.00:  ROP Min 
 ROPX.m/hr               17.00:  ROP Max 
 RPMA.rpm               120.00:  RPM Surface Avg 
 RPMN.rpm                90.00:  RPM Surface Min 
 RPMX.rpm               140.00:  RPM Surface Max 
 RRUN.                     300:  Rig Run Number 
 RTIM.hr                 31.53:  Time Reaming 
 SAZI.deg               331.64:  Azm, Start 
 SDEP.m                4127.00:  Start Depth 
 SIDD.                      No:  Serv Intrp, DD 
 SINC.deg                48.43:  Inc, Start 
 SPPA.psig             5830.00:  SPP Avg 
 SPPN.psig             5600.00:  SPP Min 
 SPPX.psig             5900.00:  SPP Max 
 STIM.      21.00.00 20-Aug-21:  Start Time 
 SVCS.                 DD, MWD:  Services 
 SVER.                    9.20:  Sperry Version 
 TDAT.m                 957.50:  Tot Depth Attmp 
 TDDF.                      No:  Trip for DD 
 TDLG.m                 957.50:  Tot Depth Loggd 
 TFF .                      No:  Trip for Fail 
 TQAA.f-kp               15.00:  Torque Abs Avg 
 TQAN.f-kp               12.00:  Torque Abs Min 
 TQAX.f-kp               19.00:  Torque Abs Max 
 TRRT.°/30m              -3.40:  Turn Rotating 
 MRT .                  EWR-M5:  Maximum Recorded Temperature 
 TTMX.degC              100.00:  Max Tool Temp 
 VS01.                90639251:  Virtual Str1 SN 
 VS02.                90634715:  Virtual Str2 SN 
 VS03.                90652479:  Virtual Str3 SN 
 VS04.                90642262:  Virtual Str4 SN 
 WBMN.klb                 0.00:  WOB Min 
 WITN.           Murad Guliyev:  Customer Rep 
 WITN.          Yashar Gaziyev:  Customer Rep 2 
 WOBA.klb                 9.00:  WOB Avg 
 WOBX.klb                12.00:  WOB Max 
 YP  .lhf2               30.00:  Yield Point 
~Curve Information Block
#MNEM.UNIT                 API CODE     Curve Description
#---------               -----------    ---------------------------
 TIME.HHMMSS            00 000 000 000:  GT Time & Date
 GTDEPTH.m              00 000 000 000:  GT Depth
 GTPQH.psia             00 000 000 000:  GT HR Quartz Pressure
 GTTQ.degC              00 000 000 000:  GT Quartz Temperature
 GTTN.NONE              00 000 000 000:  GT Test Number
 GTET.sec               00 000 000 000:  GT Elapsed Test Time
 GTTVD.m                00 000 000 000:  GT True Vertical Depth
#Other Information
#
#WARRANTY: Halliburton will use its best efforts to furnish customers with 
#accurate information and interpretations that are part of, and incident to, the services 
#provided.  However, Halliburton cannot and does not warrant the accuracy 
#or correctness of such information and interpretations.  Under no circumstances should any 
#such information or interpretation be relied upon as the sole basis for any drilling, 
#completion, production, or financial decision or any procedure involving any risk to the 
#safety of any drilling venture, drilling rig or its crew or any other third party.  The 
#Customer has full responsibility for all drilling, completion and production operation.  
#Halliburton makes no representations or warranties, either expressed or 
#implied, including, but not limited to, the implied warranties of merchantability or fitness 
#for a particular purpose, with respect to the services rendered.  In no event will 
#Halliburton be liable for failure to obtain any particular results or for 
#any damages, including, but not limited to, indirect, special or consequential damages, 
#resulting from the use of any information or interpretation provided by Halliburton.
#
~A           TIME           GTDEPTH  GTPQH  GTTQ  GTTN   GTET   GTTVD  
# ...
   12:27:55.678.27-Aug-2021 4914.80 7804.76 85.32 12.00 384.34 3262.04
   12:27:55.878.27-Aug-2021 4914.80 7804.66 85.32 12.00 384.54 3262.04
   12:27:56.078.27-Aug-2021 4914.80 7804.61 85.32 12.00 384.74 3262.04
   12:27:56.279.27-Aug-2021 4914.80 7804.68 85.32 12.00 384.94 3262.04
   12:27:56.479.27-Aug-2021 4914.80 7808.03 85.32 12.00 385.14 3262.04
   12:27:56.679.27-Aug-2021 4914.80 7808.03 85.32 12.00 385.34 3262.04
   12:27:56.879.27-Aug-2021 4914.80 7806.17 85.32 12.00 385.54 3262.04
   12:27:57.079.27-Aug-2021 4914.80 7804.21 85.32 12.00 385.74 3262.04
   12:27:57.279.27-Aug-2021 4914.80 7804.02 85.32 12.00 385.94 3262.04
   12:27:57.479.27-Aug-2021 4914.80 7804.07 85.32 12.00 386.14 3262.04
   12:27:57.679.27-Aug-2021 4914.80 7804.07 85.32 12.00 386.34 3262.04
   12:27:57.879.27-Aug-2021 4914.80 7804.34 85.32 12.00 386.54 3262.04
   12:27:58.079.27-Aug-2021 4914.80 7803.79 85.32 12.00 386.74 3262.04
   12:27:58.279.27-Aug-2021 4914.80 7804.34 85.32 12.00 386.94 3262.04
   12:27:58.479.27-Aug-2021 4914.80 7804.85 85.32 12.00 387.14 3262.04
   12:27:58.679.27-Aug-2021 4914.80 7804.85 85.32 12.00 387.34 3262.04
   12:27:58.879.27-Aug-2021 4914.80 7805.46 85.32 12.00 387.54 3262.04
   12:27:59.080.27-Aug-2021 4914.80 7805.44 85.32 12.00 387.74 3262.04
   12:27:59.280.27-Aug-2021 4914.80 7805.22 85.32 12.00 387.94 3262.04
   12:27:59.480.27-Aug-2021 4914.80 7804.86 85.32 12.00 388.14 3262.04
   12:27:59.680.27-Aug-2021 4914.80 7804.86 85.32 12.00 388.34 3262.04
   12:27:59.880.27-Aug-2021 4914.80 7807.65 85.32 12.00 388.54 3262.04
   12:28:00.080.27-Aug-2021 4914.80 7804.51 85.32 12.00 388.74 3262.04
   12:28:00.280.27-Aug-2021 4914.80 7805.74 85.32 12.00 388.94 3262.04
   12:28:00.480.27-Aug-2021 4914.80 7804.13 85.32 12.00 389.14 3262.04
   12:28:00.680.27-Aug-2021 4914.80 7804.13 85.32 12.00 389.34 3262.04
   12:28:00.880.27-Aug-2021 4914.80 7806.78 85.32 12.00 389.54 3262.04
   12:28:01.080.27-Aug-2021 4914.80 7804.72 85.32 12.00 389.74 3262.04
   12:28:01.280.27-Aug-2021 4914.80 7804.67 85.32 12.00 389.94 3262.04
   12:28:01.480.27-Aug-2021 4914.80 7803.64 85.32 12.00 390.14 3262.04
   12:28:01.680.27-Aug-2021 4914.80 7803.64 85.32 12.00 390.34 3262.04
   12:28:01.881.27-Aug-2021 4914.80 7804.27 85.32 12.00 390.54 3262.04
   12:28:02.081.27-Aug-2021 4914.80 7804.64 85.32 12.00 390.74 3262.04
   12:28:02.281.27-Aug-2021 4914.80 7807.18 85.32 12.00 390.94 3262.04
   12:28:02.481.27-Aug-2021 4914.80 7805.50 85.32 12.00 391.14 3262.04
   12:28:02.681.27-Aug-2021 4914.80 7805.50 85.32 12.00 391.34 3262.04
   12:28:02.881.27-Aug-2021 4914.80 7804.85 85.32 12.00 391.54 3262.04
   12:28:03.081.27-Aug-2021 4914.80 7804.61 85.32 12.00 391.74 3262.04
   12:28:03.281.27-Aug-2021 4914.80 7810.64 85.32 12.00 391.94 3262.04
   12:28:03.481.27-Aug-2021 4914.80 7801.15 85.32 12.00 392.14 3262.04
   12:28:03.681.27-Aug-2021 4914.80 7801.15 85.32 12.00 392.34 3262.04
   12:28:03.881.27-Aug-2021 4914.80 7803.90 85.32 12.00 392.54 3262.04
   12:28:04.081.27-Aug-2021 4914.80 7803.83 85.32 12.00 392.74 3262.04
   12:28:04.281.27-Aug-2021 4914.80 7804.01 85.32 12.00 392.94 3262.04
   12:28:04.481.27-Aug-2021 4914.80 7803.90 85.32 12.00 393.14 3262.04
   12:28:04.682.27-Aug-2021 4914.80 7803.90 85.32 12.00 393.34 3262.04
   12:28:04.882.27-Aug-2021 4914.80 7804.06 85.32 12.00 393.54 3262.04
   12:28:05.082.27-Aug-2021 4914.80 7804.24 85.32 12.00 393.74 3262.04
   12:28:05.282.27-Aug-2021 4914.80 7804.72 85.32 12.00 393.94 3262.04
   12:28:05.482.27-Aug-2021 4914.80 7805.08 85.32 12.00 394.14 3262.04
   12:28:05.682.27-Aug-2021 4914.80 7805.08 85.32 12.00 394.34 3262.04
   12:28:05.882.27-Aug-2021 4914.80 7805.01 85.32 12.00 394.54 3262.04
   12:28:06.082.27-Aug-2021 4914.80 7804.78 85.32 12.00 394.74 3262.04
   12:28:06.282.27-Aug-2021 4914.80 7804.43 85.32 12.00 394.94 3262.04
   12:28:06.482.27-Aug-2021 4914.80 7807.66 85.32 12.00 395.14 3262.04
   12:28:06.682.27-Aug-2021 4914.80 7807.66 85.32 12.00 395.34 3262.04
   12:28:06.882.27-Aug-2021 4914.80 7806.11 85.32 12.00 395.54 3262.04
   12:28:07.082.27-Aug-2021 4914.80 7804.25 85.32 12.00 395.74 3262.04
   12:28:07.282.27-Aug-2021 4914.80 7804.00 85.32 12.00 395.94 3262.04
   12:28:07.483.27-Aug-2021 4914.80 7804.00 85.32 12.00 396.14 3262.04
   12:28:07.683.27-Aug-2021 4914.80 7804.00 85.32 12.00 396.34 3262.04
   12:28:07.883.27-Aug-2021 4914.80 7804.37 85.32 12.00 396.54 3262.04
   12:28:08.083.27-Aug-2021 4914.80 7803.95 85.32 12.00 396.74 3262.04
   12:28:08.283.27-Aug-2021 4914.80 7804.61 85.32 12.00 396.94 3262.04
   12:28:08.483.27-Aug-2021 4914.80 7805.05 85.32 12.00 397.14 3262.04
   12:28:08.683.27-Aug-2021 4914.80 7805.05 85.32 12.00 397.34 3262.04
   12:28:08.883.27-Aug-2021 4914.80 7805.59 85.32 12.00 397.54 3262.04
   12:28:09.083.27-Aug-2021 4914.80 7805.55 85.32 12.00 397.74 3262.04
   12:28:09.283.27-Aug-2021 4914.80 7805.34 85.32 12.00 397.94 3262.04
   12:28:09.483.27-Aug-2021 4914.80 7805.10 85.32 12.00 398.14 3262.04
   12:28:09.683.27-Aug-2021 4914.80 7805.10 85.32 12.00 398.34 3262.04
   12:28:09.883.27-Aug-2021 4914.80 7807.69 85.32 12.00 398.54 3262.04
   12:28:10.083.27-Aug-2021 4914.80 7804.68 85.32 12.00 398.74 3262.04
   12:28:10.284.27-Aug-2021 4914.80 7805.86 85.32 12.00 398.94 3262.04
   12:28:10.484.27-Aug-2021 4914.80 7804.17 85.32 12.00 399.14 3262.04
   12:28:10.684.27-Aug-2021 4914.80 7804.17 85.32 12.00 399.34 3262.04
   12:28:10.884.27-Aug-2021 4914.80 7807.05 85.32 12.00 399.54 3262.04
   12:28:11.084.27-Aug-2021 4914.80 7803.81 85.32 12.00 399.74 3262.04
   12:28:11.284.27-Aug-2021 4914.80 7805.76 85.32 12.00 399.94 3262.04
   12:28:11.484.27-Aug-2021 4914.80 7803.75 85.32 12.00 400.14 3262.04
   12:28:11.684.27-Aug-2021 4914.80 7803.75 85.32 12.00 400.34 3262.04
   12:28:11.884.27-Aug-2021 4914.80 7804.17 85.32 12.00 400.54 3262.04
   12:28:12.084.27-Aug-2021 4914.80 7804.02 85.32 12.00 400.74 3262.04
   12:28:12.284.27-Aug-2021 4914.80 7807.65 85.32 12.00 400.94 3262.04
   12:28:12.484.27-Aug-2021 4914.80 7804.16 85.32 12.00 401.14 3262.04
   12:28:12.684.27-Aug-2021 4914.80 7804.16 85.32 12.00 401.34 3262.04
   12:28:12.884.27-Aug-2021 4914.80 7804.79 85.32 12.00 401.54 3262.04
   12:28:13.085.27-Aug-2021 4914.80 7804.36 85.32 12.00 401.74 3262.04
   12:28:13.285.27-Aug-2021 4914.80 7804.56 85.32 12.00 401.94 3262.04
   12:28:13.485.27-Aug-2021 4914.80 7804.16 85.32 12.00 402.14 3262.04
   12:28:13.685.27-Aug-2021 4914.80 7804.16 85.32 12.00 402.34 3262.04
   12:28:13.885.27-Aug-2021 4914.80 7800.45 85.32 12.00 402.54 3262.04
   12:28:14.085.27-Aug-2021 4914.80 7805.17 85.32 12.00 402.74 3262.04
   12:28:14.285.27-Aug-2021 4914.80 7804.43 85.32 12.00 402.94 3262.04
   12:28:14.485.27-Aug-2021 4914.80 7804.00 85.32 12.00 403.14 3262.04
   12:28:14.685.27-Aug-2021 4914.80 7804.00 85.32 12.00 403.34 3262.04
   12:28:14.885.27-Aug-2021 4914.80 7803.73 85.32 12.00 403.54 3262.04
   12:28:15.085.27-Aug-2021 4914.80 7804.26 85.32 12.00 403.74 3262.04
   12:28:15.285.27-Aug-2021 4914.80 7803.88 85.32 12.00 403.94 3262.04
   12:28:15.485.27-Aug-2021 4914.80 7804.07 85.32 12.00 404.14 3262.04
   12:28:15.685.27-Aug-2021 4914.80 7804.07 85.32 12.00 404.34 3262.04
   12:28:15.886.27-Aug-2021 4914.80 7804.74 85.32 12.00 404.54 3262.04
   12:28:16.086.27-Aug-2021 4914.80 7804.85 85.32 12.00 404.74 3262.04
   12:28:16.286.27-Aug-2021 4914.80 7804.45 85.32 12.00 404.94 3262.04
   12:28:16.486.27-Aug-2021 4914.80 7804.60 85.32 12.00 405.14 3262.04
   12:28:16.686.27-Aug-2021 4914.80 7804.60 85.32 12.00 405.34 3262.04
   12:28:16.886.27-Aug-2021 4914.80 7807.53 85.32 12.00 405.54 3262.04
   12:28:17.086.27-Aug-2021 4914.80 7804.20 85.32 12.00 405.74 3262.04
   12:28:17.286.27-Aug-2021 4914.80 7805.76 85.32 12.00 405.94 3262.04
   12:28:17.486.27-Aug-2021 4914.80 7804.12 85.32 12.00 406.14 3262.04
   12:28:17.686.27-Aug-2021 4914.80 7804.12 85.32 12.00 406.34 3262.04
   12:28:17.886.27-Aug-2021 4914.80 7803.79 85.32 12.00 406.54 3262.04
   12:28:18.086.27-Aug-2021 4914.80 7803.59 85.32 12.00 406.74 3262.04
