~Version Information
 VERS.                  2.0:   CWLS log ASCII Standard -VERSION 2.0
 WRAP.                   NO:   One line per depth step
~Well Information Block
#MNEM.UNIT     VALUE/NAME     DESCRIPTION
#---------     -----------    ---------------------------
 STRT.S             11:48:55 27-Aug-21: START TIME 11:48:55 27-Aug-21
 STOP.S             11:56:03 27-Aug-21: STOP TIME  11:56:03 27-Aug-21
 STEP.S                   0.00: STEP TIME
 NULL.                 -999.25: NULL VALUE
 DFWT.                        :  DIST FWL TEXT
 DFST.                        :  DIST FSL TEXT
 DMF .             Drill Floor:  DRILL MEAS FROM
 STIM.      20.00.00 17-Aug-21:  START TIME
 DATE.      19.00.00 29-Aug-21:  END TIME
 SPUD.               15-Aug-21:  SPUD DATE
 NREF.                    Grid:  NORTH REFERENCE
 HPTY.       Minimum Curvature:  HOLE POS TYPE
 DMOD.             Drill Model:  DRILL MOD DESC
 SVYD.                  Survey:  SURVEY DESC
 ILTD.               Lithology:  INTERP LTH DESC
 FTOP.          Formation Tops:  FORM TOPS DESC
 RIG .              East Azeri:  RIG NAME
 PDAT.          Mean Sea Level:  PERMANENT DATUM
 FLD .                     ACG:  FIELD NAME
 SON .        AZ-XX-0907180857:  JOB NUMBER
 CTRY.              Azerbaijan:  COUNTRY NAME
 WELL.                    D23x:  WELL NAME
 SRVC.     Turan Drilling and Engineering:  CONTRACTOR
 COMP.     BP Exploration (Caspian Sea) Ltd.:  COMPANY
 UWI .            /AZE00000214:  UNIQUE WELL IDENTIFIER
 API .            /AZE00000214:  API NUMBER
 MDS .        Operator Entered:  MAG DATA SOURCE
 BASE.              Azerbaijan:  LOGGING EQUIPMENT BASE LOCATION
 REGN.                   EESSA:  REGION
 PROV.                    Baku:  PROVINCE
 STAT.                    Baku:  STATE NAME
 MWDS.                    Baku:  MWD SHOP
 DOE .                     N/A:  DOE NUMBER
 DCON.         Sperry Drilling:  DIRECTNL CONTR
 UNIT.                     N/A:  LOGGING EQUIPMENT ID
 WTYP.                Deviated:  WELL TYPE
 CNTY.                        :  COUNTY
 LOC .                        :  LOCATION
 LMF .             Drill Floor:  LOG MEASURED FROM
 TVDS.m                  43.60:  TVDSS CORRECTN
 LATI.deg                40.02:  LATITUDE
 LONG.deg                51.45:  LONGITUDE
 WHNS.m                  -7.04:  WELL HEAD N/S
 WHEW.m                  -0.67:  WELL HEAD E/W
 UTMX.m              538762.90:  UTM X
 UTMY.m             4431871.34:  UTM Y
 DFWL.m                   0.00:  DISTANCE FWL
 DFSL.m                   0.00:  DISTANCE FSL
 SDEP.m                4127.00:  START DEPTH
 TDD .m                5084.50:  TOTAL DEPTH (DRILLER)
 VSDR.deg               140.47:  VERT SEC DIRECT
 GVFD.g                   1.00:  GRAVITY FIELD
 MFLD.nT              50362.00:  MAGNETIC FIELD
 MDIP.deg                59.48:  MAGNETIC DIP
 MDEC.deg                 6.47:  MAGNETIC DECL
 GRDC.deg                 0.31:  GRID CORRECTION
 AZTC.deg                 6.16:  AZM TOTAL CORR
 EPD .m                   0.00:  ELEVATION
 EGL .m                   0.00:  GROUND ELEVATION
 WDMS.m                 151.80:  WD ELEV
 APD .m                  43.60:  DEPTH ABOVE PD
 DEP .m                4092.57:  DEPTH
 AGAP.m                  43.60:  AIR GAP
 VSEW.m                  -0.67:  VERT SEC E/W
 VSNS.m                  -7.04:  VERT SEC N/S
 EKB .m                  43.60:  KB ELEVATION
 EDF .m                  43.60:  DF ELEVATION
 TDL .m                 957.50:  TOTAL DEPTH (LOGGER)
 VSC .                       0:  VS TO CLOSURE
 MAGU.                 1851413:  MAGUTM CHECKSUM
~Parameter Information Block
#MNEM.UNIT       Value        Description
#---------     -----------    ---------------------------
 AV  .mps                 1.50:  Ann Velocity 
 AVMX.mps                 2.00:  Max Ann Veloc 
 AZIF.deg               184.66:  Azm, Final 
 BHAT.        Rotary Steerable:  BHA Type 
 BREV.rev               300.00:  Rev Bit Total 
 BROT.°/30m              -0.50:  Build Rotating 
 BS  .in                  8.50:  Bit Size 
 BSZ .in                  8.50:  Bit Size 
 BTPL.psig              370.00:  Bit Press Loss 
 CABU.                      No:  Customer Abuse 
 CGEO.      Behruz Shahbaliyev:  Customer Geo 
 COMM.                     L*e:  Run Comments 1 
 TCS .hr                140.08:  Time Ciculation Ended 
 CV  .mps                 3.00:  Crit Velocity 
 CVMX.mps                 3.20:  Max Crit Veloc 
 DD1 .            Musa Ahmadov:  Direct Drillr 1 
 DD2 .           Hamid Ahmadov:  Direct Drillr 2 
 DDSV.               Geo-Pilot:  DD Service 
 DEFF.%                  98.40:  % Det Eff 
 DLRX.°/30m               3.40:  Dogleg Rot Max 
 DLSO.°/30m               1.45:  Dogleg Oriented 
 DLSX.°/30m               3.40:  Dogleg Str Max 
 DRET.      18.40.00 29-Aug-21:  Drill End Time 
 DRST.      21.00.00 20-Aug-21:  Drill Start Tim 
 DTIM.hr                 69.47:  Time Drilling 
 EDEP.m                5084.50:  End Depth 
 ENG1.      Artemiy Matviyanov:  Engineer 1 
 ENG2.         Almaz Almadatov:  Engineer 2 
 ETIM.      18.40.00 29-Aug-21:  End Time 
 FLOI.gpm               500.00:  Flow In 
 FLON.gpm               400.00:  Flow In Min 
 FLOS.cptm                0.00:  Fluid Loss 
 FLOX.gpm               500.00:  Flow In Max 
 DFT .        Mineral Oil Base:  Mud Type 
 HFLO.                      No:  High Flow 
 HPRE.                      No:  High Pressure 
 HTEM.                      No:  High Temp 
 HYDO.m                   1.80:  Hydro Offset 
 IFIN.deg                25.62:  Inc, Final 
 IMAX.deg                48.69:  Inc Max 
 IMIN.deg                24.01:  Inc Min 
 IMND.m                4962.57:  Inc Min Depth 
 IMXD.m                4119.01:  Inc Max Depth 
 JARR.                      No:  Jarring 
 LETM.      18.40.00 29-Aug-21:  Log End Time 
 LOST.hr                     0:  Lost Rig Time 
 LSTM.      21.00.00 20-Aug-21:  Log Start Time 
 MDCL.ppm             41500.00:  Mud Chlorides 
 MDES.     Inversion Oil/Synthetic:  Mud Desc 
 DFD .sg                  1.56:  Mud Density 
 MDMN.sg                  1.56:  Dens Mud Min 
 MDMX.sg                  1.56:  Dens Mud Max 
 MOIL.                      70:  Run Mud Oil % 
 MOWR.                   70:30:  Run Mud OWR 
 MSND.                     0.2:  Run Mud Sand % 
 MSOL.                    23.3:  Run Mud Solids% 
 DFV .spqt               78.00:  Mud Viscosity 
 MWOD.in                  6.75:  MWD Tool OD 
 MWSI.                      No:  Serv Intrp, MWD 
 OTIM.hr                218.30:  Time Operating 
 PCON.           Look Like New:  Pad Condition 
 PMAX.psia            11015.30:  Press Op, Max 
 PV  .cP                 38.00:  Mud PV 
 RUN .                     300:  Run Number 
 ROPA.m/hr               15.00:  ROP Avg 
 ROPN.m/hr                9.00:  ROP Min 
 ROPX.m/hr               17.00:  ROP Max 
 RPMA.rpm               120.00:  RPM Surface Avg 
 RPMN.rpm                90.00:  RPM Surface Min 
 RPMX.rpm               140.00:  RPM Surface Max 
 RRUN.                     300:  Rig Run Number 
 RTIM.hr                 31.53:  Time Reaming 
 SAZI.deg               331.64:  Azm, Start 
 SDEP.m                4127.00:  Start Depth 
 SIDD.                      No:  Serv Intrp, DD 
 SINC.deg                48.43:  Inc, Start 
 SPPA.psig             5830.00:  SPP Avg 
 SPPN.psig             5600.00:  SPP Min 
 SPPX.psig             5900.00:  SPP Max 
 STIM.      21.00.00 20-Aug-21:  Start Time 
 SVCS.                 DD, MWD:  Services 
 SVER.                    9.20:  Sperry Version 
 TDAT.m                 957.50:  Tot Depth Attmp 
 TDDF.                      No:  Trip for DD 
 TDLG.m                 957.50:  Tot Depth Loggd 
 TFF .                      No:  Trip for Fail 
 TQAA.f-kp               15.00:  Torque Abs Avg 
 TQAN.f-kp               12.00:  Torque Abs Min 
 TQAX.f-kp               19.00:  Torque Abs Max 
 TRRT.°/30m              -3.40:  Turn Rotating 
 MRT .                  EWR-M5:  Maximum Recorded Temperature 
 TTMX.degC              100.00:  Max Tool Temp 
 VS01.                90639251:  Virtual Str1 SN 
 VS02.                90634715:  Virtual Str2 SN 
 VS03.                90652479:  Virtual Str3 SN 
 VS04.                90642262:  Virtual Str4 SN 
 WBMN.klb                 0.00:  WOB Min 
 WITN.           Murad Guliyev:  Customer Rep 
 WITN.          Yashar Gaziyev:  Customer Rep 2 
 WOBA.klb                 9.00:  WOB Avg 
 WOBX.klb                12.00:  WOB Max 
 YP  .lhf2               30.00:  Yield Point 
~Curve Information Block
#MNEM.UNIT                 API CODE     Curve Description
#---------               -----------    ---------------------------
 TIME.HHMMSS            00 000 000 000:  GT Time & Date
 GTDEPTH.m              00 000 000 000:  GT Depth
 GTPQH.psia             00 000 000 000:  GT HR Quartz Pressure
 GTTQ.degC              00 000 000 000:  GT Quartz Temperature
 GTTN.NONE              00 000 000 000:  GT Test Number
 GTET.sec               00 000 000 000:  GT Elapsed Test Time
 GTTVD.m                00 000 000 000:  GT True Vertical Depth
#Other Information
#
#WARRANTY: Halliburton will use its best efforts to furnish customers with 
#accurate information and interpretations that are part of, and incident to, the services 
#provided.  However, Halliburton cannot and does not warrant the accuracy 
#or correctness of such information and interpretations.  Under no circumstances should any 
#such information or interpretation be relied upon as the sole basis for any drilling, 
#completion, production, or financial decision or any procedure involving any risk to the 
#safety of any drilling venture, drilling rig or its crew or any other third party.  The 
#Customer has full responsibility for all drilling, completion and production operation.  
#Halliburton makes no representations or warranties, either expressed or 
#implied, including, but not limited to, the implied warranties of merchantability or fitness 
#for a particular purpose, with respect to the services rendered.  In no event will 
#Halliburton be liable for failure to obtain any particular results or for 
#any damages, including, but not limited to, indirect, special or consequential damages, 
#resulting from the use of any information or interpretation provided by Halliburton.
#
~A           TIME           GTDEPTH  GTPQH  GTTQ  GTTN   GTET   GTTVD  
# ...
   11:50:48.688.27-Aug-2021 4914.00 7808.71 85.30 11.00 113.04 3261.31
   11:50:48.888.27-Aug-2021 4914.00 7808.71 85.30 11.00 113.24 3261.31
   11:50:49.088.27-Aug-2021 4914.00 7808.86 85.30 11.00 113.44 3261.31
   11:50:49.288.27-Aug-2021 4914.00 7808.59 85.30 11.00 113.64 3261.31
   11:50:49.488.27-Aug-2021 4914.00 7812.08 85.30 11.00 113.84 3261.31
   11:50:49.688.27-Aug-2021 4914.00 7809.15 85.30 11.00 114.04 3261.31
   11:50:49.888.27-Aug-2021 4914.00 7809.15 85.30 11.00 114.24 3261.31
   11:50:50.088.27-Aug-2021 4914.00 7808.98 85.30 11.00 114.44 3261.31
   11:50:50.289.27-Aug-2021 4914.00 7809.12 85.30 11.00 114.64 3261.31
   11:50:50.489.27-Aug-2021 4914.00 7809.07 85.30 11.00 114.84 3261.31
   11:50:50.689.27-Aug-2021 4914.00 7809.09 85.30 11.00 115.04 3261.31
   11:50:50.889.27-Aug-2021 4914.00 7809.09 85.30 11.00 115.24 3261.31
   11:50:51.089.27-Aug-2021 4914.00 7808.77 85.30 11.00 115.44 3261.31
   11:50:51.289.27-Aug-2021 4914.00 7809.08 85.30 11.00 115.64 3261.31
   11:50:51.489.27-Aug-2021 4914.00 7809.40 85.30 11.00 115.84 3261.31
   11:50:51.689.27-Aug-2021 4914.00 7809.60 85.30 11.00 116.04 3261.31
   11:50:51.889.27-Aug-2021 4914.00 7809.60 85.30 11.00 116.24 3261.31
   11:50:52.089.27-Aug-2021 4914.00 7809.45 85.30 11.00 116.44 3261.31
   11:50:52.289.27-Aug-2021 4914.00 7809.08 85.30 11.00 116.64 3261.31
   11:50:52.489.27-Aug-2021 4914.00 7809.18 85.30 11.00 116.84 3261.31
   11:50:52.689.27-Aug-2021 4914.00 7814.35 85.30 11.00 117.04 3261.31
   11:50:52.889.27-Aug-2021 4914.00 7814.35 85.30 11.00 117.24 3261.31
   11:50:53.090.27-Aug-2021 4914.00 7806.98 85.30 11.00 117.44 3261.31
   11:50:53.290.27-Aug-2021 4914.00 7809.16 85.30 11.00 117.64 3261.31
   11:50:53.490.27-Aug-2021 4914.00 7808.75 85.30 11.00 117.84 3261.31
   11:50:53.690.27-Aug-2021 4914.00 7808.73 85.30 11.00 118.04 3261.31
   11:50:53.890.27-Aug-2021 4914.00 7808.73 85.30 11.00 118.24 3261.31
   11:50:54.090.27-Aug-2021 4914.00 7808.73 85.30 11.00 118.44 3261.31
   11:50:54.290.27-Aug-2021 4914.00 7808.99 85.30 11.00 118.64 3261.31
   11:50:54.490.27-Aug-2021 4914.00 7809.17 85.30 11.00 118.84 3261.31
   11:50:54.690.27-Aug-2021 4914.00 7809.95 85.30 11.00 119.04 3261.31
   11:50:54.890.27-Aug-2021 4914.00 7809.95 85.30 11.00 119.24 3261.31
   11:50:55.090.27-Aug-2021 4914.00 7810.20 85.30 11.00 119.44 3261.31
   11:50:55.290.27-Aug-2021 4914.00 7810.22 85.30 11.00 119.64 3261.31
   11:50:55.490.27-Aug-2021 4914.00 7809.82 85.30 11.00 119.84 3261.31
   11:50:55.690.27-Aug-2021 4914.00 7809.87 85.30 11.00 120.04 3261.31
   11:50:55.891.27-Aug-2021 4914.00 7809.87 85.30 11.00 120.24 3261.31
   11:50:56.091.27-Aug-2021 4914.00 7814.94 85.30 11.00 120.44 3261.31
   11:50:56.291.27-Aug-2021 4914.00 7807.07 85.30 11.00 120.64 3261.31
   11:50:56.491.27-Aug-2021 4914.00 7810.37 85.30 11.00 120.84 3261.31
   11:50:56.691.27-Aug-2021 4914.00 7809.24 85.30 11.00 121.04 3261.31
   11:50:56.891.27-Aug-2021 4914.00 7809.24 85.30 11.00 121.24 3261.31
   11:50:57.091.27-Aug-2021 4914.00 7810.21 85.29 11.00 121.44 3261.31
   11:50:57.291.27-Aug-2021 4914.00 7810.29 85.29 11.00 121.64 3261.31
   11:50:57.491.27-Aug-2021 4914.00 7810.00 85.29 11.00 121.84 3261.31
   11:50:57.691.27-Aug-2021 4914.00 7809.17 85.29 11.00 122.04 3261.31
   11:50:57.891.27-Aug-2021 4914.00 7809.17 85.29 11.00 122.24 3261.31
   11:50:58.091.27-Aug-2021 4914.00 7807.07 85.29 11.00 122.44 3261.31
   11:50:58.291.27-Aug-2021 4914.00 7810.68 85.29 11.00 122.64 3261.31
   11:50:58.491.27-Aug-2021 4914.00 7809.98 85.29 11.00 122.84 3261.31
   11:50:58.691.27-Aug-2021 4914.00 7808.61 85.29 11.00 123.04 3261.31
   11:50:58.892.27-Aug-2021 4914.00 7808.61 85.29 11.00 123.24 3261.31
   11:50:59.092.27-Aug-2021 4914.00 7814.03 85.29 11.00 123.44 3261.31
   11:50:59.292.27-Aug-2021 4914.00 7807.37 85.29 11.00 123.64 3261.31
   11:50:59.492.27-Aug-2021 4914.00 7811.12 85.29 11.00 123.84 3261.31
   11:50:59.692.27-Aug-2021 4914.00 7809.84 85.29 11.00 124.04 3261.31
   11:50:59.892.27-Aug-2021 4914.00 7809.84 85.29 11.00 124.24 3261.31
   11:51:00.092.27-Aug-2021 4914.00 7809.78 85.29 11.00 124.44 3261.31
   11:51:00.292.27-Aug-2021 4914.00 7809.37 85.29 11.00 124.64 3261.31
   11:51:00.492.27-Aug-2021 4914.00 7809.51 85.29 11.00 124.84 3261.31
   11:51:00.692.27-Aug-2021 4914.00 7809.13 85.29 11.00 125.04 3261.31
   11:51:00.892.27-Aug-2021 4914.00 7809.13 85.29 11.00 125.24 3261.31
   11:51:01.092.27-Aug-2021 4914.00 7809.70 85.29 11.00 125.44 3261.31
   11:51:01.292.27-Aug-2021 4914.00 7809.67 85.29 11.00 125.64 3261.31
   11:51:01.492.27-Aug-2021 4914.00 7809.90 85.29 11.00 125.84 3261.31
   11:51:01.693.27-Aug-2021 4914.00 7809.85 85.29 11.00 126.04 3261.31
   11:51:01.893.27-Aug-2021 4914.00 7809.85 85.29 11.00 126.24 3261.31
   11:51:02.093.27-Aug-2021 4914.00 7809.71 85.29 11.00 126.44 3261.31
   11:51:02.293.27-Aug-2021 4914.00 7810.79 85.29 11.00 126.64 3261.31
   11:51:02.493.27-Aug-2021 4914.00 7811.59 85.29 11.00 126.85 3261.31
   11:51:02.693.27-Aug-2021 4914.00 7810.45 85.29 11.00 127.05 3261.31
   11:51:02.893.27-Aug-2021 4914.00 7810.45 85.29 11.00 127.25 3261.31
   11:51:03.093.27-Aug-2021 4914.00 7810.45 85.29 11.00 127.45 3261.31
   11:51:03.293.27-Aug-2021 4914.00 7808.89 85.29 11.00 127.65 3261.31
   11:51:03.493.27-Aug-2021 4914.00 7808.83 85.29 11.00 127.85 3261.31
   11:51:03.693.27-Aug-2021 4914.00 7808.94 85.29 11.00 128.05 3261.31
   11:51:03.893.27-Aug-2021 4914.00 7808.94 85.29 11.00 128.25 3261.31
   11:51:04.093.27-Aug-2021 4914.00 7809.06 85.29 11.00 128.45 3261.31
   11:51:04.293.27-Aug-2021 4914.00 7809.83 85.29 11.00 128.65 3261.31
   11:51:04.494.27-Aug-2021 4914.00 7809.91 85.29 11.00 128.85 3261.31
   11:51:04.694.27-Aug-2021 4914.00 7810.41 85.29 11.00 129.05 3261.31
   11:51:04.894.27-Aug-2021 4914.00 7810.41 85.29 11.00 129.25 3261.31
   11:51:05.094.27-Aug-2021 4914.00 7810.10 85.29 11.00 129.45 3261.31
   11:51:05.294.27-Aug-2021 4914.00 7810.03 85.29 11.00 129.65 3261.31
   11:51:05.494.27-Aug-2021 4914.00 7809.81 85.29 11.00 129.85 3261.31
   11:51:05.694.27-Aug-2021 4914.00 7811.10 85.29 11.00 130.05 3261.31
   11:51:05.894.27-Aug-2021 4914.00 7811.10 85.29 11.00 130.25 3261.31
   11:51:06.094.27-Aug-2021 4914.00 7810.62 85.29 11.00 130.45 3261.31
   11:51:06.294.27-Aug-2021 4914.00 7809.80 85.29 11.00 130.65 3261.31
   11:51:06.494.27-Aug-2021 4914.00 7809.19 85.29 11.00 130.85 3261.31
   11:51:06.694.27-Aug-2021 4914.00 7809.12 85.29 11.00 131.05 3261.31
   11:51:06.894.27-Aug-2021 4914.00 7809.12 85.29 11.00 131.25 3261.31
   11:51:07.094.27-Aug-2021 4914.00 7807.64 85.29 11.00 131.45 3261.31
   11:51:07.295.27-Aug-2021 4914.00 7810.08 85.29 11.00 131.65 3261.31
   11:51:07.495.27-Aug-2021 4914.00 7809.26 85.29 11.00 131.85 3261.31
   11:51:07.695.27-Aug-2021 4914.00 7812.94 85.29 11.00 132.05 3261.31
   11:51:07.895.27-Aug-2021 4914.00 7812.94 85.29 11.00 132.25 3261.31
   11:51:08.095.27-Aug-2021 4914.00 7810.62 85.29 11.00 132.45 3261.31
   11:51:08.295.27-Aug-2021 4914.00 7809.62 85.29 11.00 132.65 3261.31
   11:51:08.495.27-Aug-2021 4914.00 7808.92 85.29 11.00 132.85 3261.31
   11:51:08.695.27-Aug-2021 4914.00 7808.71 85.29 11.00 133.05 3261.31
   11:51:08.895.27-Aug-2021 4914.00 7808.71 85.29 11.00 133.25 3261.31
   11:51:09.095.27-Aug-2021 4914.00 7814.29 85.29 11.00 133.45 3261.31
   11:51:09.295.27-Aug-2021 4914.00 7807.22 85.29 11.00 133.65 3261.31
   11:51:09.495.27-Aug-2021 4914.00 7810.95 85.29 11.00 133.85 3261.31
   11:51:09.695.27-Aug-2021 4914.00 7809.82 85.29 11.00 134.05 3261.31
   11:51:09.895.27-Aug-2021 4914.00 7809.82 85.29 11.00 134.25 3261.31
   11:51:10.096.27-Aug-2021 4914.00 7809.56 85.29 11.00 134.45 3261.31
   11:51:10.296.27-Aug-2021 4914.00 7809.09 85.29 11.00 134.65 3261.31
   11:51:10.496.27-Aug-2021 4914.00 7809.03 85.29 11.00 134.85 3261.31
   11:51:10.696.27-Aug-2021 4914.00 7808.98 85.29 11.00 135.05 3261.31
   11:51:10.896.27-Aug-2021 4914.00 7808.98 85.29 11.00 135.25 3261.31
   11:51:11.096.27-Aug-2021 4914.00 7809.59 85.29 11.00 135.45 3261.31
