~Version Information
 VERS.                  2.0:   CWLS log ASCII Standard -VERSION 2.0
 WRAP.                   NO:   One line per depth step
~Well Information Block
#MNEM.UNIT     VALUE/NAME     DESCRIPTION
#---------     -----------    ---------------------------
 STRT.S             14:18:21 27-Aug-21: START TIME 14:18:21 27-Aug-21
 STOP.S             14:25:11 27-Aug-21: STOP TIME  14:25:11 27-Aug-21
 STEP.S                   0.00: STEP TIME
 NULL.                 -999.25: NULL VALUE
 DFWT.                        :  DIST FWL TEXT
 DFST.                        :  DIST FSL TEXT
 DMF .             Drill Floor:  DRILL MEAS FROM
 STIM.      20.00.00 17-Aug-21:  START TIME
 DATE.      19.00.00 29-Aug-21:  END TIME
 SPUD.               15-Aug-21:  SPUD DATE
 NREF.                    Grid:  NORTH REFERENCE
 HPTY.       Minimum Curvature:  HOLE POS TYPE
 DMOD.             Drill Model:  DRILL MOD DESC
 SVYD.                  Survey:  SURVEY DESC
 ILTD.               Lithology:  INTERP LTH DESC
 FTOP.          Formation Tops:  FORM TOPS DESC
 RIG .              East Azeri:  RIG NAME
 PDAT.          Mean Sea Level:  PERMANENT DATUM
 FLD .                     ACG:  FIELD NAME
 SON .        AZ-XX-0907180857:  JOB NUMBER
 CTRY.              Azerbaijan:  COUNTRY NAME
 WELL.                    D23x:  WELL NAME
 SRVC.     Turan Drilling and Engineering:  CONTRACTOR
 COMP.     BP Exploration (Caspian Sea) Ltd.:  COMPANY
 UWI .            /AZE00000214:  UNIQUE WELL IDENTIFIER
 API .            /AZE00000214:  API NUMBER
 MDS .        Operator Entered:  MAG DATA SOURCE
 BASE.              Azerbaijan:  LOGGING EQUIPMENT BASE LOCATION
 REGN.                   EESSA:  REGION
 PROV.                    Baku:  PROVINCE
 STAT.                    Baku:  STATE NAME
 MWDS.                    Baku:  MWD SHOP
 DOE .                     N/A:  DOE NUMBER
 DCON.         Sperry Drilling:  DIRECTNL CONTR
 UNIT.                     N/A:  LOGGING EQUIPMENT ID
 WTYP.                Deviated:  WELL TYPE
 CNTY.                        :  COUNTY
 LOC .                        :  LOCATION
 LMF .             Drill Floor:  LOG MEASURED FROM
 TVDS.m                  43.60:  TVDSS CORRECTN
 LATI.deg                40.02:  LATITUDE
 LONG.deg                51.45:  LONGITUDE
 WHNS.m                  -7.04:  WELL HEAD N/S
 WHEW.m                  -0.67:  WELL HEAD E/W
 UTMX.m              538762.90:  UTM X
 UTMY.m             4431871.34:  UTM Y
 DFWL.m                   0.00:  DISTANCE FWL
 DFSL.m                   0.00:  DISTANCE FSL
 SDEP.m                4127.00:  START DEPTH
 TDD .m                5084.50:  TOTAL DEPTH (DRILLER)
 VSDR.deg               140.47:  VERT SEC DIRECT
 GVFD.g                   1.00:  GRAVITY FIELD
 MFLD.nT              50362.00:  MAGNETIC FIELD
 MDIP.deg                59.48:  MAGNETIC DIP
 MDEC.deg                 6.47:  MAGNETIC DECL
 GRDC.deg                 0.31:  GRID CORRECTION
 AZTC.deg                 6.16:  AZM TOTAL CORR
 EPD .m                   0.00:  ELEVATION
 EGL .m                   0.00:  GROUND ELEVATION
 WDMS.m                 151.80:  WD ELEV
 APD .m                  43.60:  DEPTH ABOVE PD
 DEP .m                4092.57:  DEPTH
 AGAP.m                  43.60:  AIR GAP
 VSEW.m                  -0.67:  VERT SEC E/W
 VSNS.m                  -7.04:  VERT SEC N/S
 EKB .m                  43.60:  KB ELEVATION
 EDF .m                  43.60:  DF ELEVATION
 TDL .m                 957.50:  TOTAL DEPTH (LOGGER)
 VSC .                       0:  VS TO CLOSURE
 MAGU.                 1851413:  MAGUTM CHECKSUM
~Parameter Information Block
#MNEM.UNIT       Value        Description
#---------     -----------    ---------------------------
 AV  .mps                 1.50:  Ann Velocity 
 AVMX.mps                 2.00:  Max Ann Veloc 
 AZIF.deg               184.66:  Azm, Final 
 BHAT.        Rotary Steerable:  BHA Type 
 BREV.rev               300.00:  Rev Bit Total 
 BROT.°/30m              -0.50:  Build Rotating 
 BS  .in                  8.50:  Bit Size 
 BSZ .in                  8.50:  Bit Size 
 BTPL.psig              370.00:  Bit Press Loss 
 CABU.                      No:  Customer Abuse 
 CGEO.      Behruz Shahbaliyev:  Customer Geo 
 COMM.                     LAp:  Run Comments 1 
 TCS .hr                140.08:  Time Ciculation Ended 
 CV  .mps                 3.00:  Crit Velocity 
 CVMX.mps                 3.20:  Max Crit Veloc 
 DD1 .            Musa Ahmadov:  Direct Drillr 1 
 DD2 .           Hamid Ahmadov:  Direct Drillr 2 
 DDSV.               Geo-Pilot:  DD Service 
 DEFF.%                  98.40:  % Det Eff 
 DLRX.°/30m               3.40:  Dogleg Rot Max 
 DLSO.°/30m               1.45:  Dogleg Oriented 
 DLSX.°/30m               3.40:  Dogleg Str Max 
 DRET.      18.40.00 29-Aug-21:  Drill End Time 
 DRST.      21.00.00 20-Aug-21:  Drill Start Tim 
 DTIM.hr                 69.47:  Time Drilling 
 EDEP.m                5084.50:  End Depth 
 ENG1.      Artemiy Matviyanov:  Engineer 1 
 ENG2.         Almaz Almadatov:  Engineer 2 
 ETIM.      18.40.00 29-Aug-21:  End Time 
 FLOI.gpm               500.00:  Flow In 
 FLON.gpm               400.00:  Flow In Min 
 FLOS.cptm                0.00:  Fluid Loss 
 FLOX.gpm               500.00:  Flow In Max 
 DFT .        Mineral Oil Base:  Mud Type 
 HFLO.                      No:  High Flow 
 HPRE.                      No:  High Pressure 
 HTEM.                      No:  High Temp 
 HYDO.m                   1.80:  Hydro Offset 
 IFIN.deg                25.62:  Inc, Final 
 IMAX.deg                48.69:  Inc Max 
 IMIN.deg                24.01:  Inc Min 
 IMND.m                4962.57:  Inc Min Depth 
 IMXD.m                4119.01:  Inc Max Depth 
 JARR.                      No:  Jarring 
 LETM.      18.40.00 29-Aug-21:  Log End Time 
 LOST.hr                     0:  Lost Rig Time 
 LSTM.      21.00.00 20-Aug-21:  Log Start Time 
 MDCL.ppm             41500.00:  Mud Chlorides 
 MDES.     Inversion Oil/Synthetic:  Mud Desc 
 DFD .sg                  1.56:  Mud Density 
 MDMN.sg                  1.56:  Dens Mud Min 
 MDMX.sg                  1.56:  Dens Mud Max 
 MOIL.                      70:  Run Mud Oil % 
 MOWR.                   70:30:  Run Mud OWR 
 MSND.                     0.2:  Run Mud Sand % 
 MSOL.                    23.3:  Run Mud Solids% 
 DFV .spqt               78.00:  Mud Viscosity 
 MWOD.in                  6.75:  MWD Tool OD 
 MWSI.                      No:  Serv Intrp, MWD 
 OTIM.hr                218.30:  Time Operating 
 PCON.           Look Like New:  Pad Condition 
 PMAX.psia            11015.30:  Press Op, Max 
 PV  .cP                 38.00:  Mud PV 
 RUN .                     300:  Run Number 
 ROPA.m/hr               15.00:  ROP Avg 
 ROPN.m/hr                9.00:  ROP Min 
 ROPX.m/hr               17.00:  ROP Max 
 RPMA.rpm               120.00:  RPM Surface Avg 
 RPMN.rpm                90.00:  RPM Surface Min 
 RPMX.rpm               140.00:  RPM Surface Max 
 RRUN.                     300:  Rig Run Number 
 RTIM.hr                 31.53:  Time Reaming 
 SAZI.deg               331.64:  Azm, Start 
 SDEP.m                4127.00:  Start Depth 
 SIDD.                      No:  Serv Intrp, DD 
 SINC.deg                48.43:  Inc, Start 
 SPPA.psig             5830.00:  SPP Avg 
 SPPN.psig             5600.00:  SPP Min 
 SPPX.psig             5900.00:  SPP Max 
 STIM.      21.00.00 20-Aug-21:  Start Time 
 SVCS.                 DD, MWD:  Services 
 SVER.                    9.20:  Sperry Version 
 TDAT.m                 957.50:  Tot Depth Attmp 
 TDDF.                      No:  Trip for DD 
 TDLG.m                 957.50:  Tot Depth Loggd 
 TFF .                      No:  Trip for Fail 
 TQAA.f-kp               15.00:  Torque Abs Avg 
 TQAN.f-kp               12.00:  Torque Abs Min 
 TQAX.f-kp               19.00:  Torque Abs Max 
 TRRT.°/30m              -3.40:  Turn Rotating 
 MRT .                  EWR-M5:  Maximum Recorded Temperature 
 TTMX.degC              100.00:  Max Tool Temp 
 VS01.                90639251:  Virtual Str1 SN 
 VS02.                90634715:  Virtual Str2 SN 
 VS03.                90652479:  Virtual Str3 SN 
 VS04.                90642262:  Virtual Str4 SN 
 WBMN.klb                 0.00:  WOB Min 
 WITN.           Murad Guliyev:  Customer Rep 
 WITN.          Yashar Gaziyev:  Customer Rep 2 
 WOBA.klb                 9.00:  WOB Avg 
 WOBX.klb                12.00:  WOB Max 
 YP  .lhf2               30.00:  Yield Point 
~Curve Information Block
#MNEM.UNIT                 API CODE     Curve Description
#---------               -----------    ---------------------------
 TIME.HHMMSS            00 000 000 000:  GT Time & Date
 GTDEPTH.m              00 000 000 000:  GT Depth
 GTPQH.psia             00 000 000 000:  GT HR Quartz Pressure
 GTTQ.degC              00 000 000 000:  GT Quartz Temperature
 GTTN.NONE              00 000 000 000:  GT Test Number
 GTET.sec               00 000 000 000:  GT Elapsed Test Time
 GTTVD.m                00 000 000 000:  GT True Vertical Depth
#Other Information
#
#WARRANTY: Halliburton will use its best efforts to furnish customers with 
#accurate information and interpretations that are part of, and incident to, the services 
#provided.  However, Halliburton cannot and does not warrant the accuracy 
#or correctness of such information and interpretations.  Under no circumstances should any 
#such information or interpretation be relied upon as the sole basis for any drilling, 
#completion, production, or financial decision or any procedure involving any risk to the 
#safety of any drilling venture, drilling rig or its crew or any other third party.  The 
#Customer has full responsibility for all drilling, completion and production operation.  
#Halliburton makes no representations or warranties, either expressed or 
#implied, including, but not limited to, the implied warranties of merchantability or fitness 
#for a particular purpose, with respect to the services rendered.  In no event will 
#Halliburton be liable for failure to obtain any particular results or for 
#any damages, including, but not limited to, indirect, special or consequential damages, 
#resulting from the use of any information or interpretation provided by Halliburton.
#
~A           TIME           GTDEPTH  GTPQH  GTTQ  GTTN   GTET   GTTVD  
   14:18:21.000.27-Aug-2021 4859.50 7647.79 84.48 15.00   0.00 3211.87
   14:18:21.200.27-Aug-2021 4859.50 7647.79 84.48 15.00   0.20 3211.87
   14:18:21.400.27-Aug-2021 4859.50 7648.98 84.48 15.00   0.40 3211.87
   14:18:21.600.27-Aug-2021 4859.50 7649.14 84.47 15.00   0.60 3211.87
   14:18:21.800.27-Aug-2021 4859.50 7655.00 84.47 15.00   0.80 3211.87
   14:18:22.000.27-Aug-2021 4859.50 7646.84 84.47 15.00   1.00 3211.87
   14:18:22.200.27-Aug-2021 4859.50 7646.84 84.47 15.00   1.20 3211.87
   14:18:22.400.27-Aug-2021 4859.50 7650.17 84.47 15.00   1.40 3211.87
   14:18:22.600.27-Aug-2021 4859.50 7649.88 84.47 15.00   1.60 3211.87
   14:18:22.800.27-Aug-2021 4859.50 7649.70 84.47 15.00   1.80 3211.87
   14:18:23.000.27-Aug-2021 4859.50 7651.12 84.47 15.00   2.00 3211.87
   14:18:23.200.27-Aug-2021 4859.50 7651.12 84.47 15.00   2.20 3211.87
   14:18:23.400.27-Aug-2021 4859.50 7649.23 84.47 15.00   2.40 3211.87
   14:18:23.600.27-Aug-2021 4859.50 7648.70 84.47 15.00   2.60 3211.87
   14:18:23.800.27-Aug-2021 4859.50 7648.08 84.47 15.00   2.80 3211.87
   14:18:24.000.27-Aug-2021 4859.50 7648.47 84.47 15.00   3.00 3211.87
   14:18:24.200.27-Aug-2021 4859.50 7648.47 84.47 15.00   3.20 3211.87
   14:18:24.400.27-Aug-2021 4859.50 7648.26 84.47 15.00   3.40 3211.87
   14:18:24.600.27-Aug-2021 4859.50 7650.14 84.47 15.00   3.60 3211.87
   14:18:24.800.27-Aug-2021 4859.50 7649.61 84.47 15.00   3.80 3211.87
   14:18:25.000.27-Aug-2021 4859.50 7649.85 84.47 15.00   4.00 3211.87
   14:18:25.200.27-Aug-2021 4859.50 7649.85 84.47 15.00   4.20 3211.87
   14:18:25.400.27-Aug-2021 4859.50 7650.23 84.47 15.00   4.40 3211.87
   14:18:25.600.27-Aug-2021 4859.50 7650.37 84.47 15.00   4.60 3211.87
   14:18:25.800.27-Aug-2021 4859.50 7650.73 84.47 15.00   4.80 3211.87
   14:18:26.000.27-Aug-2021 4859.50 7650.94 84.47 15.00   5.00 3211.87
   14:18:26.200.27-Aug-2021 4859.50 7650.94 84.47 15.00   5.20 3211.87
   14:18:26.400.27-Aug-2021 4859.50 7651.45 84.47 15.00   5.40 3211.87
   14:18:26.600.27-Aug-2021 4859.50 7651.63 84.47 15.00   5.60 3211.87
   14:18:26.800.27-Aug-2021 4859.50 7651.80 84.47 15.00   5.80 3211.87
   14:18:27.000.27-Aug-2021 4859.50 7651.96 84.47 15.00   6.00 3211.87
   14:18:27.200.27-Aug-2021 4859.50 7651.96 84.47 15.00   6.20 3211.87
   14:18:27.400.27-Aug-2021 4859.50 7651.96 84.47 15.00   6.40 3211.87
   14:18:27.600.27-Aug-2021 4859.50 7652.45 84.47 15.00   6.60 3211.87
   14:18:27.800.27-Aug-2021 4859.50 7656.89 84.47 15.00   6.80 3211.87
   14:18:28.000.27-Aug-2021 4859.50 7652.25 84.47 15.00   7.00 3211.87
   14:18:28.200.27-Aug-2021 4859.50 7652.25 84.47 15.00   7.20 3211.87
   14:18:28.400.27-Aug-2021 4859.50 7654.82 84.47 15.00   7.40 3211.87
   14:18:28.600.27-Aug-2021 4859.50 7654.46 84.47 15.00   7.60 3211.87
   14:18:28.800.27-Aug-2021 4859.50 7654.23 84.47 15.00   7.80 3211.87
   14:18:29.000.27-Aug-2021 4859.50 7654.78 84.47 15.00   8.00 3211.87
   14:18:29.200.27-Aug-2021 4859.50 7654.78 84.47 15.00   8.20 3211.87
   14:18:29.400.27-Aug-2021 4859.50 7655.48 84.47 15.00   8.40 3211.87
   14:18:29.600.27-Aug-2021 4859.50 7655.82 84.47 15.00   8.60 3211.87
   14:18:29.800.27-Aug-2021 4859.50 7656.30 84.47 15.00   8.80 3211.87
   14:18:30.000.27-Aug-2021 4859.50 7656.64 84.47 15.00   9.00 3211.87
   14:18:30.200.27-Aug-2021 4859.50 7656.64 84.47 15.00   9.20 3211.87
   14:18:30.400.27-Aug-2021 4859.50 7657.25 84.47 15.00   9.40 3211.87
   14:18:30.600.27-Aug-2021 4859.50 7657.37 84.47 15.00   9.60 3211.87
   14:18:30.800.27-Aug-2021 4859.50 7657.51 84.47 15.00   9.80 3211.87
   14:18:31.000.27-Aug-2021 4859.50 7661.34 84.47 15.00  10.00 3211.87
   14:18:31.200.27-Aug-2021 4859.50 7661.34 84.47 15.00  10.20 3211.87
   14:18:31.400.27-Aug-2021 4859.50 7657.97 84.47 15.00  10.40 3211.87
   14:18:31.600.27-Aug-2021 4859.50 7658.63 84.47 15.00  10.60 3211.87
   14:18:31.800.27-Aug-2021 4859.50 7658.13 84.47 15.00  10.80 3211.87
   14:18:32.000.27-Aug-2021 4859.50 7657.70 84.47 15.00  11.00 3211.87
   14:18:32.200.27-Aug-2021 4859.50 7657.70 84.47 15.00  11.20 3211.87
   14:18:32.400.27-Aug-2021 4859.50 7661.95 84.47 15.00  11.40 3211.87
   14:18:32.600.27-Aug-2021 4859.50 7658.78 84.47 15.00  11.60 3211.87
   14:18:32.800.27-Aug-2021 4859.50 7659.45 84.47 15.00  11.80 3211.87
   14:18:33.000.27-Aug-2021 4859.50 7659.15 84.47 15.00  12.00 3211.87
   14:18:33.200.27-Aug-2021 4859.50 7659.15 84.47 15.00  12.20 3211.87
   14:18:33.400.27-Aug-2021 4859.50 7665.01 84.47 15.00  12.40 3211.87
   14:18:33.600.27-Aug-2021 4859.50 7656.24 84.47 15.00  12.60 3211.87
   14:18:33.800.27-Aug-2021 4859.50 7660.37 84.47 15.00  12.80 3211.87
   14:18:34.000.27-Aug-2021 4859.50 7660.56 84.47 15.00  13.00 3211.87
   14:18:34.200.27-Aug-2021 4859.50 7660.56 84.47 15.00  13.20 3211.87
   14:18:34.400.27-Aug-2021 4859.50 7660.89 84.47 15.00  13.40 3211.87
   14:18:34.600.27-Aug-2021 4859.50 7663.12 84.47 15.00  13.60 3211.87
   14:18:34.800.27-Aug-2021 4859.50 7660.85 84.47 15.00  13.80 3211.87
   14:18:35.000.27-Aug-2021 4859.50 7661.96 84.47 15.00  14.00 3211.87
   14:18:35.200.27-Aug-2021 4859.50 7661.96 84.47 15.00  14.20 3211.87
   14:18:35.400.27-Aug-2021 4859.50 7660.43 84.47 15.00  14.40 3211.87
   14:18:35.600.27-Aug-2021 4859.50 7662.46 84.47 15.00  14.60 3211.87
   14:18:35.800.27-Aug-2021 4859.50 7662.81 84.47 15.00  14.80 3211.87
   14:18:36.000.27-Aug-2021 4859.50 7662.66 84.47 15.00  15.00 3211.87
   14:18:36.200.27-Aug-2021 4859.50 7662.66 84.47 15.00  15.20 3211.87
   14:18:36.400.27-Aug-2021 4859.50 7662.92 84.47 15.00  15.40 3211.87
   14:18:36.600.27-Aug-2021 4859.50 7662.73 84.47 15.00  15.60 3211.87
   14:18:36.800.27-Aug-2021 4859.50 7664.24 84.47 15.00  15.80 3211.87
   14:18:37.000.27-Aug-2021 4859.50 7663.74 84.47 15.00  16.00 3211.87
   14:18:37.200.27-Aug-2021 4859.50 7663.74 84.47 15.00  16.20 3211.87
   14:18:37.400.27-Aug-2021 4859.50 7663.81 84.47 15.00  16.40 3211.87
   14:18:37.600.27-Aug-2021 4859.50 7663.93 84.47 15.00  16.60 3211.87
   14:18:37.800.27-Aug-2021 4859.50 7664.21 84.47 15.00  16.80 3211.87
   14:18:38.000.27-Aug-2021 4859.50 7664.62 84.47 15.00  17.00 3211.87
   14:18:38.200.27-Aug-2021 4859.50 7664.62 84.47 15.00  17.20 3211.87
   14:18:38.400.27-Aug-2021 4859.50 7665.06 84.47 15.00  17.40 3211.87
   14:18:38.600.27-Aug-2021 4859.50 7665.33 84.47 15.00  17.60 3211.87
   14:18:38.800.27-Aug-2021 4859.50 7665.32 84.47 15.00  17.80 3211.87
   14:18:39.000.27-Aug-2021 4859.50 7665.59 84.47 15.00  18.00 3211.87
   14:18:39.200.27-Aug-2021 4859.50 7665.59 84.47 15.00  18.20 3211.87
   14:18:39.400.27-Aug-2021 4859.50 7666.31 84.47 15.00  18.40 3211.87
   14:18:39.600.27-Aug-2021 4859.50 7668.65 84.47 15.00  18.60 3211.87
   14:18:39.800.27-Aug-2021 4859.50 7666.63 84.47 15.00  18.80 3211.87
   14:18:40.000.27-Aug-2021 4859.50 7667.48 84.47 15.00  19.00 3211.87
   14:18:40.200.27-Aug-2021 4859.50 7667.48 84.47 15.00  19.20 3211.87
   14:18:40.400.27-Aug-2021 4859.50 7666.90 84.47 15.00  19.40 3211.87
   14:18:40.600.27-Aug-2021 4859.50 7667.07 84.47 15.00  19.60 3211.87
   14:18:40.800.27-Aug-2021 4859.50 7667.18 84.47 15.00  19.80 3211.87
   14:18:41.000.27-Aug-2021 4859.50 7667.56 84.47 15.00  20.00 3211.87
   14:18:41.200.27-Aug-2021 4859.50 7667.56 84.47 15.00  20.20 3211.87
   14:18:41.400.27-Aug-2021 4859.50 7668.26 84.46 15.00  20.40 3211.87
   14:18:41.600.27-Aug-2021 4859.50 7668.47 84.46 15.00  20.60 3211.87
   14:18:41.800.27-Aug-2021 4859.50 7668.78 84.46 15.00  20.80 3211.87
   14:18:42.000.27-Aug-2021 4859.50 7668.77 84.46 15.00  21.00 3211.87
   14:18:42.200.27-Aug-2021 4859.50 7668.77 84.46 15.00  21.20 3211.87
   14:18:42.400.27-Aug-2021 4859.50 7668.89 84.46 15.00  21.40 3211.87
   14:18:42.600.27-Aug-2021 4859.50 7669.10 84.46 15.00  21.60 3211.87
   14:18:42.800.27-Aug-2021 4859.50 7669.03 84.46 15.00  21.80 3211.87
   14:18:43.000.27-Aug-2021 4859.50 7673.20 84.46 15.00  22.00 3211.87
   14:18:43.200.27-Aug-2021 4859.50 7673.20 84.46 15.00  22.20 3211.87
   14:18:43.400.27-Aug-2021 4859.50 7670.75 84.46 15.00  22.40 3211.87
