~Version Information
 VERS.                  2.0:   CWLS log ASCII Standard -VERSION 2.0
 WRAP.                   NO:   One line per depth step
~Well Information Block
#MNEM.UNIT     VALUE/NAME     DESCRIPTION
#---------     -----------    ---------------------------
 STRT.S             10:43:45 27-Aug-21: START TIME 10:43:45 27-Aug-21
 STOP.S             10:50:54 27-Aug-21: STOP TIME  10:50:54 27-Aug-21
 STEP.S                   0.00: STEP TIME
 NULL.                 -999.25: NULL VALUE
 DFWT.                        :  DIST FWL TEXT
 DFST.                        :  DIST FSL TEXT
 DMF .             Drill Floor:  DRILL MEAS FROM
 STIM.      20.00.00 17-Aug-21:  START TIME
 DATE.      19.00.00 29-Aug-21:  END TIME
 SPUD.               15-Aug-21:  SPUD DATE
 NREF.                    Grid:  NORTH REFERENCE
 HPTY.       Minimum Curvature:  HOLE POS TYPE
 DMOD.             Drill Model:  DRILL MOD DESC
 SVYD.                  Survey:  SURVEY DESC
 ILTD.               Lithology:  INTERP LTH DESC
 FTOP.          Formation Tops:  FORM TOPS DESC
 RIG .              East Azeri:  RIG NAME
 PDAT.          Mean Sea Level:  PERMANENT DATUM
 FLD .                     ACG:  FIELD NAME
 SON .        AZ-XX-0907180857:  JOB NUMBER
 CTRY.              Azerbaijan:  COUNTRY NAME
 WELL.                    D23x:  WELL NAME
 SRVC.     Turan Drilling and Engineering:  CONTRACTOR
 COMP.     BP Exploration (Caspian Sea) Ltd.:  COMPANY
 UWI .            /AZE00000214:  UNIQUE WELL IDENTIFIER
 API .            /AZE00000214:  API NUMBER
 MDS .        Operator Entered:  MAG DATA SOURCE
 BASE.              Azerbaijan:  LOGGING EQUIPMENT BASE LOCATION
 REGN.                   EESSA:  REGION
 PROV.                    Baku:  PROVINCE
 STAT.                    Baku:  STATE NAME
 MWDS.                    Baku:  MWD SHOP
 DOE .                     N/A:  DOE NUMBER
 DCON.         Sperry Drilling:  DIRECTNL CONTR
 UNIT.                     N/A:  LOGGING EQUIPMENT ID
 WTYP.                Deviated:  WELL TYPE
 CNTY.                        :  COUNTY
 LOC .                        :  LOCATION
 LMF .             Drill Floor:  LOG MEASURED FROM
 TVDS.m                  43.60:  TVDSS CORRECTN
 LATI.deg                40.02:  LATITUDE
 LONG.deg                51.45:  LONGITUDE
 WHNS.m                  -7.04:  WELL HEAD N/S
 WHEW.m                  -0.67:  WELL HEAD E/W
 UTMX.m              538762.90:  UTM X
 UTMY.m             4431871.34:  UTM Y
 DFWL.m                   0.00:  DISTANCE FWL
 DFSL.m                   0.00:  DISTANCE FSL
 SDEP.m                4127.00:  START DEPTH
 TDD .m                5084.50:  TOTAL DEPTH (DRILLER)
 VSDR.deg               140.47:  VERT SEC DIRECT
 GVFD.g                   1.00:  GRAVITY FIELD
 MFLD.nT              50362.00:  MAGNETIC FIELD
 MDIP.deg                59.48:  MAGNETIC DIP
 MDEC.deg                 6.47:  MAGNETIC DECL
 GRDC.deg                 0.31:  GRID CORRECTION
 AZTC.deg                 6.16:  AZM TOTAL CORR
 EPD .m                   0.00:  ELEVATION
 EGL .m                   0.00:  GROUND ELEVATION
 WDMS.m                 151.80:  WD ELEV
 APD .m                  43.60:  DEPTH ABOVE PD
 DEP .m                4092.57:  DEPTH
 AGAP.m                  43.60:  AIR GAP
 VSEW.m                  -0.67:  VERT SEC E/W
 VSNS.m                  -7.04:  VERT SEC N/S
 EKB .m                  43.60:  KB ELEVATION
 EDF .m                  43.60:  DF ELEVATION
 TDL .m                 957.50:  TOTAL DEPTH (LOGGER)
 VSC .                       0:  VS TO CLOSURE
 MAGU.                 1851413:  MAGUTM CHECKSUM
~Parameter Information Block
#MNEM.UNIT       Value        Description
#---------     -----------    ---------------------------
 AV  .mps                 1.50:  Ann Velocity 
 AVMX.mps                 2.00:  Max Ann Veloc 
 AZIF.deg               184.66:  Azm, Final 
 BHAT.        Rotary Steerable:  BHA Type 
 BREV.rev               300.00:  Rev Bit Total 
 BROT.°/30m              -0.50:  Build Rotating 
 BS  .in                  8.50:  Bit Size 
 BSZ .in                  8.50:  Bit Size 
 BTPL.psig              370.00:  Bit Press Loss 
 CABU.                      No:  Customer Abuse 
 CGEO.      Behruz Shahbaliyev:  Customer Geo 
 COMM.                     $K:  Run Comments 1 
 TCS .hr                140.08:  Time Ciculation Ended 
 CV  .mps                 3.00:  Crit Velocity 
 CVMX.mps                 3.20:  Max Crit Veloc 
 DD1 .            Musa Ahmadov:  Direct Drillr 1 
 DD2 .           Hamid Ahmadov:  Direct Drillr 2 
 DDSV.               Geo-Pilot:  DD Service 
 DEFF.%                  98.40:  % Det Eff 
 DLRX.°/30m               3.40:  Dogleg Rot Max 
 DLSO.°/30m               1.45:  Dogleg Oriented 
 DLSX.°/30m               3.40:  Dogleg Str Max 
 DRET.      18.40.00 29-Aug-21:  Drill End Time 
 DRST.      21.00.00 20-Aug-21:  Drill Start Tim 
 DTIM.hr                 69.47:  Time Drilling 
 EDEP.m                5084.50:  End Depth 
 ENG1.      Artemiy Matviyanov:  Engineer 1 
 ENG2.         Almaz Almadatov:  Engineer 2 
 ETIM.      18.40.00 29-Aug-21:  End Time 
 FLOI.gpm               500.00:  Flow In 
 FLON.gpm               400.00:  Flow In Min 
 FLOS.cptm                0.00:  Fluid Loss 
 FLOX.gpm               500.00:  Flow In Max 
 DFT .        Mineral Oil Base:  Mud Type 
 HFLO.                      No:  High Flow 
 HPRE.                      No:  High Pressure 
 HTEM.                      No:  High Temp 
 HYDO.m                   1.80:  Hydro Offset 
 IFIN.deg                25.62:  Inc, Final 
 IMAX.deg                48.69:  Inc Max 
 IMIN.deg                24.01:  Inc Min 
 IMND.m                4962.57:  Inc Min Depth 
 IMXD.m                4119.01:  Inc Max Depth 
 JARR.                      No:  Jarring 
 LETM.      18.40.00 29-Aug-21:  Log End Time 
 LOST.hr                     0:  Lost Rig Time 
 LSTM.      21.00.00 20-Aug-21:  Log Start Time 
 MDCL.ppm             41500.00:  Mud Chlorides 
 MDES.     Inversion Oil/Synthetic:  Mud Desc 
 DFD .sg                  1.56:  Mud Density 
 MDMN.sg                  1.56:  Dens Mud Min 
 MDMX.sg                  1.56:  Dens Mud Max 
 MOIL.                      70:  Run Mud Oil % 
 MOWR.                   70:30:  Run Mud OWR 
 MSND.                     0.2:  Run Mud Sand % 
 MSOL.                    23.3:  Run Mud Solids% 
 DFV .spqt               78.00:  Mud Viscosity 
 MWOD.in                  6.75:  MWD Tool OD 
 MWSI.                      No:  Serv Intrp, MWD 
 OTIM.hr                218.30:  Time Operating 
 PCON.           Look Like New:  Pad Condition 
 PMAX.psia            11015.30:  Press Op, Max 
 PV  .cP                 38.00:  Mud PV 
 RUN .                     300:  Run Number 
 ROPA.m/hr               15.00:  ROP Avg 
 ROPN.m/hr                9.00:  ROP Min 
 ROPX.m/hr               17.00:  ROP Max 
 RPMA.rpm               120.00:  RPM Surface Avg 
 RPMN.rpm                90.00:  RPM Surface Min 
 RPMX.rpm               140.00:  RPM Surface Max 
 RRUN.                     300:  Rig Run Number 
 RTIM.hr                 31.53:  Time Reaming 
 SAZI.deg               331.64:  Azm, Start 
 SDEP.m                4127.00:  Start Depth 
 SIDD.                      No:  Serv Intrp, DD 
 SINC.deg                48.43:  Inc, Start 
 SPPA.psig             5830.00:  SPP Avg 
 SPPN.psig             5600.00:  SPP Min 
 SPPX.psig             5900.00:  SPP Max 
 STIM.      21.00.00 20-Aug-21:  Start Time 
 SVCS.                 DD, MWD:  Services 
 SVER.                    9.20:  Sperry Version 
 TDAT.m                 957.50:  Tot Depth Attmp 
 TDDF.                      No:  Trip for DD 
 TDLG.m                 957.50:  Tot Depth Loggd 
 TFF .                      No:  Trip for Fail 
 TQAA.f-kp               15.00:  Torque Abs Avg 
 TQAN.f-kp               12.00:  Torque Abs Min 
 TQAX.f-kp               19.00:  Torque Abs Max 
 TRRT.°/30m              -3.40:  Turn Rotating 
 MRT .                  EWR-M5:  Maximum Recorded Temperature 
 TTMX.degC              100.00:  Max Tool Temp 
 VS01.                90639251:  Virtual Str1 SN 
 VS02.                90634715:  Virtual Str2 SN 
 VS03.                90652479:  Virtual Str3 SN 
 VS04.                90642262:  Virtual Str4 SN 
 WBMN.klb                 0.00:  WOB Min 
 WITN.           Murad Guliyev:  Customer Rep 
 WITN.          Yashar Gaziyev:  Customer Rep 2 
 WOBA.klb                 9.00:  WOB Avg 
 WOBX.klb                12.00:  WOB Max 
 YP  .lhf2               30.00:  Yield Point 
~Curve Information Block
#MNEM.UNIT                 API CODE     Curve Description
#---------               -----------    ---------------------------
 TIME.HHMMSS            00 000 000 000:  GT Time & Date
 GTDEPTH.m              00 000 000 000:  GT Depth
 GTPQH.psia             00 000 000 000:  GT HR Quartz Pressure
 GTTQ.degC              00 000 000 000:  GT Quartz Temperature
 GTTN.NONE              00 000 000 000:  GT Test Number
 GTET.sec               00 000 000 000:  GT Elapsed Test Time
 GTTVD.m                00 000 000 000:  GT True Vertical Depth
#Other Information
#
#WARRANTY: Halliburton will use its best efforts to furnish customers with 
#accurate information and interpretations that are part of, and incident to, the services 
#provided.  However, Halliburton cannot and does not warrant the accuracy 
#or correctness of such information and interpretations.  Under no circumstances should any 
#such information or interpretation be relied upon as the sole basis for any drilling, 
#completion, production, or financial decision or any procedure involving any risk to the 
#safety of any drilling venture, drilling rig or its crew or any other third party.  The 
#Customer has full responsibility for all drilling, completion and production operation.  
#Halliburton makes no representations or warranties, either expressed or 
#implied, including, but not limited to, the implied warranties of merchantability or fitness 
#for a particular purpose, with respect to the services rendered.  In no event will 
#Halliburton be liable for failure to obtain any particular results or for 
#any damages, including, but not limited to, indirect, special or consequential damages, 
#resulting from the use of any information or interpretation provided by Halliburton.
#
~A           TIME           GTDEPTH  GTPQH  GTTQ  GTTN  GTET   GTTVD  
# ...
   10:45:17.378.27-Aug-2021 4957.82 5167.62 85.93 9.00  91.89 3301.29
   10:45:17.577.27-Aug-2021 4957.82 5167.62 85.93 9.00  92.09 3301.29
   10:45:17.777.27-Aug-2021 4957.82 5167.64 85.93 9.00  92.29 3301.29
   10:45:17.977.27-Aug-2021 4957.82 5167.65 85.93 9.00  92.49 3301.29
   10:45:18.177.27-Aug-2021 4957.82 5167.67 85.93 9.00  92.69 3301.29
   10:45:18.376.27-Aug-2021 4957.82 5167.67 85.93 9.00  92.89 3301.29
   10:45:18.576.27-Aug-2021 4957.82 5167.67 85.93 9.00  93.09 3301.29
   10:45:18.776.27-Aug-2021 4957.82 5167.51 85.93 9.00  93.29 3301.29
   10:45:18.976.27-Aug-2021 4957.82 5167.52 85.93 9.00  93.49 3301.29
   10:45:19.175.27-Aug-2021 4957.82 5167.48 85.93 9.00  93.69 3301.29
   10:45:19.375.27-Aug-2021 4957.82 5167.51 85.93 9.00  93.89 3301.29
   10:45:19.575.27-Aug-2021 4957.82 5167.51 85.93 9.00  94.09 3301.29
   10:45:19.775.27-Aug-2021 4957.82 5167.56 85.93 9.00  94.29 3301.29
   10:45:19.974.27-Aug-2021 4957.82 5167.55 85.93 9.00  94.49 3301.29
   10:45:20.174.27-Aug-2021 4957.82 5167.47 85.93 9.00  94.69 3301.29
   10:45:20.374.27-Aug-2021 4957.82 5167.51 85.93 9.00  94.89 3301.29
   10:45:20.574.27-Aug-2021 4957.82 5167.51 85.93 9.00  95.09 3301.29
   10:45:20.774.27-Aug-2021 4957.82 5167.58 85.93 9.00  95.29 3301.29
   10:45:20.973.27-Aug-2021 4957.82 5167.54 85.93 9.00  95.49 3301.29
   10:45:21.173.27-Aug-2021 4957.82 5167.53 85.93 9.00  95.69 3301.29
   10:45:21.373.27-Aug-2021 4957.82 5167.59 85.93 9.00  95.89 3301.29
   10:45:21.573.27-Aug-2021 4957.82 5167.59 85.93 9.00  96.09 3301.29
   10:45:21.772.27-Aug-2021 4957.82 5167.52 85.93 9.00  96.29 3301.29
   10:45:21.972.27-Aug-2021 4957.82 5167.53 85.93 9.00  96.48 3301.29
   10:45:22.172.27-Aug-2021 4957.82 5167.55 85.93 9.00  96.68 3301.29
   10:45:22.372.27-Aug-2021 4957.82 5167.57 85.93 9.00  96.88 3301.29
   10:45:22.571.27-Aug-2021 4957.82 5167.57 85.93 9.00  97.08 3301.29
   10:45:22.771.27-Aug-2021 4957.82 5167.62 85.93 9.00  97.28 3301.29
   10:45:22.971.27-Aug-2021 4957.82 5167.62 85.93 9.00  97.48 3301.29
   10:45:23.171.27-Aug-2021 4957.82 5167.64 85.93 9.00  97.68 3301.29
   10:45:23.370.27-Aug-2021 4957.82 5167.67 85.93 9.00  97.88 3301.29
   10:45:23.570.27-Aug-2021 4957.82 5167.67 85.93 9.00  98.08 3301.29
   10:45:23.770.27-Aug-2021 4957.82 5167.69 85.93 9.00  98.28 3301.29
   10:45:23.970.27-Aug-2021 4957.82 5167.70 85.93 9.00  98.48 3301.29
   10:45:24.169.27-Aug-2021 4957.82 5167.72 85.93 9.00  98.68 3301.29
   10:45:24.369.27-Aug-2021 4957.82 5167.69 85.93 9.00  98.88 3301.29
   10:45:24.569.27-Aug-2021 4957.82 5167.69 85.93 9.00  99.08 3301.29
   10:45:24.769.27-Aug-2021 4957.82 5167.63 85.93 9.00  99.28 3301.29
   10:45:24.968.27-Aug-2021 4957.82 5167.60 85.93 9.00  99.48 3301.29
   10:45:25.168.27-Aug-2021 4957.82 5167.63 85.93 9.00  99.68 3301.29
   10:45:25.368.27-Aug-2021 4957.82 5167.62 85.93 9.00  99.88 3301.29
   10:45:25.568.27-Aug-2021 4957.82 5167.62 85.93 9.00 100.08 3301.29
   10:45:25.768.27-Aug-2021 4957.82 5167.67 85.93 9.00 100.28 3301.29
   10:45:25.967.27-Aug-2021 4957.82 5167.67 85.93 9.00 100.48 3301.29
   10:45:26.167.27-Aug-2021 4957.82 5167.70 85.93 9.00 100.68 3301.29
   10:45:26.367.27-Aug-2021 4957.82 5167.72 85.93 9.00 100.88 3301.29
   10:45:26.567.27-Aug-2021 4957.82 5167.72 85.93 9.00 101.08 3301.29
   10:45:26.766.27-Aug-2021 4957.82 5167.75 85.93 9.00 101.28 3301.29
   10:45:26.966.27-Aug-2021 4957.82 5167.76 85.93 9.00 101.48 3301.29
   10:45:27.166.27-Aug-2021 4957.82 5167.77 85.93 9.00 101.68 3301.29
   10:45:27.366.27-Aug-2021 4957.82 5167.77 85.93 9.00 101.88 3301.29
   10:45:27.565.27-Aug-2021 4957.82 5167.77 85.93 9.00 102.08 3301.29
   10:45:27.765.27-Aug-2021 4957.82 5167.74 85.93 9.00 102.28 3301.29
   10:45:27.965.27-Aug-2021 4957.82 5167.72 85.93 9.00 102.48 3301.29
   10:45:28.165.27-Aug-2021 4957.82 5167.66 85.93 9.00 102.68 3301.29
   10:45:28.364.27-Aug-2021 4957.82 5167.66 85.93 9.00 102.88 3301.29
   10:45:28.564.27-Aug-2021 4957.82 5167.66 85.93 9.00 103.08 3301.29
   10:45:28.764.27-Aug-2021 4957.82 5167.69 85.93 9.00 103.28 3301.29
   10:45:28.964.27-Aug-2021 4957.82 5167.70 85.93 9.00 103.48 3301.29
   10:45:29.163.27-Aug-2021 4957.82 5167.68 85.93 9.00 103.68 3301.29
   10:45:29.363.27-Aug-2021 4957.82 5167.64 85.93 9.00 103.88 3301.29
   10:45:29.563.27-Aug-2021 4957.82 5167.64 85.93 9.00 104.08 3301.29
   10:45:29.763.27-Aug-2021 4957.82 5167.74 85.93 9.00 104.28 3301.29
   10:45:29.963.27-Aug-2021 4957.82 5167.71 85.93 9.00 104.48 3301.29
   10:45:30.162.27-Aug-2021 4957.82 5167.63 85.93 9.00 104.68 3301.29
   10:45:30.362.27-Aug-2021 4957.82 5167.65 85.93 9.00 104.87 3301.29
   10:45:30.562.27-Aug-2021 4957.82 5167.65 85.93 9.00 105.07 3301.29
   10:45:30.762.27-Aug-2021 4957.82 5167.70 85.93 9.00 105.27 3301.29
   10:45:30.961.27-Aug-2021 4957.82 5167.66 85.93 9.00 105.47 3301.29
   10:45:31.161.27-Aug-2021 4957.82 5167.67 85.93 9.00 105.67 3301.29
   10:45:31.361.27-Aug-2021 4957.82 5167.67 85.93 9.00 105.87 3301.29
   10:45:31.561.27-Aug-2021 4957.82 5167.67 85.93 9.00 106.07 3301.29
   10:45:31.760.27-Aug-2021 4957.82 5167.70 85.93 9.00 106.27 3301.29
   10:45:31.960.27-Aug-2021 4957.82 5167.72 85.93 9.00 106.47 3301.29
   10:45:32.160.27-Aug-2021 4957.82 5167.73 85.93 9.00 106.67 3301.29
   10:45:32.360.27-Aug-2021 4957.82 5167.74 85.93 9.00 106.87 3301.29
   10:45:32.559.27-Aug-2021 4957.82 5167.74 85.93 9.00 107.07 3301.29
   10:45:32.759.27-Aug-2021 4957.82 5167.76 85.93 9.00 107.27 3301.29
   10:45:32.959.27-Aug-2021 4957.82 5167.78 85.93 9.00 107.47 3301.29
   10:45:33.159.27-Aug-2021 4957.82 5167.78 85.93 9.00 107.67 3301.29
   10:45:33.358.27-Aug-2021 4957.82 5167.79 85.93 9.00 107.87 3301.29
   10:45:33.558.27-Aug-2021 4957.82 5167.79 85.93 9.00 108.07 3301.29
   10:45:33.758.27-Aug-2021 4957.82 5167.76 85.93 9.00 108.27 3301.29
   10:45:33.958.27-Aug-2021 4957.82 5167.72 85.93 9.00 108.47 3301.29
   10:45:34.158.27-Aug-2021 4957.82 5167.70 85.93 9.00 108.67 3301.29
   10:45:34.357.27-Aug-2021 4957.82 5167.71 85.93 9.00 108.87 3301.29
   10:45:34.557.27-Aug-2021 4957.82 5167.71 85.93 9.00 109.07 3301.29
   10:45:34.757.27-Aug-2021 4957.82 5167.75 85.93 9.00 109.27 3301.29
   10:45:34.957.27-Aug-2021 4957.82 5167.76 85.93 9.00 109.47 3301.29
   10:45:35.156.27-Aug-2021 4957.82 5167.76 85.93 9.00 109.67 3301.29
   10:45:35.356.27-Aug-2021 4957.82 5167.77 85.93 9.00 109.87 3301.29
   10:45:35.556.27-Aug-2021 4957.82 5167.77 85.93 9.00 110.07 3301.29
   10:45:35.756.27-Aug-2021 4957.82 5167.81 85.93 9.00 110.27 3301.29
   10:45:35.955.27-Aug-2021 4957.82 5167.82 85.93 9.00 110.47 3301.29
   10:45:36.155.27-Aug-2021 4957.82 5167.82 85.93 9.00 110.67 3301.29
   10:45:36.355.27-Aug-2021 4957.82 5167.83 85.93 9.00 110.87 3301.29
   10:45:36.555.27-Aug-2021 4957.82 5167.83 85.93 9.00 111.07 3301.29
   10:45:36.754.27-Aug-2021 4957.82 5167.85 85.93 9.00 111.27 3301.29
   10:45:36.954.27-Aug-2021 4957.82 5167.84 85.93 9.00 111.47 3301.29
   10:45:37.154.27-Aug-2021 4957.82 5167.78 85.93 9.00 111.67 3301.29
   10:45:37.354.27-Aug-2021 4957.82 5167.77 85.93 9.00 111.87 3301.29
   10:45:37.553.27-Aug-2021 4957.82 5167.77 85.93 9.00 112.07 3301.29
   10:45:37.753.27-Aug-2021 4957.82 5167.74 85.93 9.00 112.27 3301.29
   10:45:37.953.27-Aug-2021 4957.82 5167.78 85.93 9.00 112.47 3301.29
   10:45:38.153.27-Aug-2021 4957.82 5167.81 85.93 9.00 112.67 3301.29
   10:45:38.353.27-Aug-2021 4957.82 5167.75 85.93 9.00 112.87 3301.29
   10:45:38.552.27-Aug-2021 4957.82 5167.75 85.93 9.00 113.06 3301.29
   10:45:38.752.27-Aug-2021 4957.82 5167.73 85.93 9.00 113.26 3301.29
   10:45:38.952.27-Aug-2021 4957.82 5167.84 85.93 9.00 113.46 3301.29
   10:45:39.152.27-Aug-2021 4957.82 5167.79 85.93 9.00 113.66 3301.29
   10:45:39.351.27-Aug-2021 4957.82 5167.74 85.93 9.00 113.86 3301.29
   10:45:39.551.27-Aug-2021 4957.82 5167.74 85.93 9.00 114.06 3301.29
   10:45:39.751.27-Aug-2021 4957.82 5167.80 85.93 9.00 114.26 3301.29
   10:45:39.951.27-Aug-2021 4957.82 5167.75 85.93 9.00 114.46 3301.29
   10:45:40.150.27-Aug-2021 4957.82 5167.75 85.93 9.00 114.66 3301.29
