~Version Information
 VERS.                  2.0:   CWLS log ASCII Standard -VERSION 2.0
 WRAP.                   NO:   One line per depth step
~Well Information Block
#MNEM.UNIT     VALUE/NAME     DESCRIPTION
#---------     -----------    ---------------------------
 STRT.S             09:25:17 27-Aug-21: START TIME 09:25:17 27-Aug-21
 STOP.S             09:32:27 27-Aug-21: STOP TIME  09:32:27 27-Aug-21
 STEP.S                   0.00: STEP TIME
 NULL.                 -999.25: NULL VALUE
 DFWT.                        :  DIST FWL TEXT
 DFST.                        :  DIST FSL TEXT
 DMF .             Drill Floor:  DRILL MEAS FROM
 STIM.      20.00.00 17-Aug-21:  START TIME
 DATE.      19.00.00 29-Aug-21:  END TIME
 SPUD.               15-Aug-21:  SPUD DATE
 NREF.                    Grid:  NORTH REFERENCE
 HPTY.       Minimum Curvature:  HOLE POS TYPE
 DMOD.             Drill Model:  DRILL MOD DESC
 SVYD.                  Survey:  SURVEY DESC
 ILTD.               Lithology:  INTERP LTH DESC
 FTOP.          Formation Tops:  FORM TOPS DESC
 RIG .              East Azeri:  RIG NAME
 PDAT.          Mean Sea Level:  PERMANENT DATUM
 FLD .                     ACG:  FIELD NAME
 SON .        AZ-XX-0907180857:  JOB NUMBER
 CTRY.              Azerbaijan:  COUNTRY NAME
 WELL.                    D23x:  WELL NAME
 SRVC.     Turan Drilling and Engineering:  CONTRACTOR
 COMP.     BP Exploration (Caspian Sea) Ltd.:  COMPANY
 UWI .            /AZE00000214:  UNIQUE WELL IDENTIFIER
 API .            /AZE00000214:  API NUMBER
 MDS .        Operator Entered:  MAG DATA SOURCE
 BASE.              Azerbaijan:  LOGGING EQUIPMENT BASE LOCATION
 REGN.                   EESSA:  REGION
 PROV.                    Baku:  PROVINCE
 STAT.                    Baku:  STATE NAME
 MWDS.                    Baku:  MWD SHOP
 DOE .                     N/A:  DOE NUMBER
 DCON.         Sperry Drilling:  DIRECTNL CONTR
 UNIT.                     N/A:  LOGGING EQUIPMENT ID
 WTYP.                Deviated:  WELL TYPE
 CNTY.                        :  COUNTY
 LOC .                        :  LOCATION
 LMF .             Drill Floor:  LOG MEASURED FROM
 TVDS.m                  43.60:  TVDSS CORRECTN
 LATI.deg                40.02:  LATITUDE
 LONG.deg                51.45:  LONGITUDE
 WHNS.m                  -7.04:  WELL HEAD N/S
 WHEW.m                  -0.67:  WELL HEAD E/W
 UTMX.m              538762.90:  UTM X
 UTMY.m             4431871.34:  UTM Y
 DFWL.m                   0.00:  DISTANCE FWL
 DFSL.m                   0.00:  DISTANCE FSL
 SDEP.m                4127.00:  START DEPTH
 TDD .m                5084.50:  TOTAL DEPTH (DRILLER)
 VSDR.deg               140.47:  VERT SEC DIRECT
 GVFD.g                   1.00:  GRAVITY FIELD
 MFLD.nT              50362.00:  MAGNETIC FIELD
 MDIP.deg                59.48:  MAGNETIC DIP
 MDEC.deg                 6.47:  MAGNETIC DECL
 GRDC.deg                 0.31:  GRID CORRECTION
 AZTC.deg                 6.16:  AZM TOTAL CORR
 EPD .m                   0.00:  ELEVATION
 EGL .m                   0.00:  GROUND ELEVATION
 WDMS.m                 151.80:  WD ELEV
 APD .m                  43.60:  DEPTH ABOVE PD
 DEP .m                4092.57:  DEPTH
 AGAP.m                  43.60:  AIR GAP
 VSEW.m                  -0.67:  VERT SEC E/W
 VSNS.m                  -7.04:  VERT SEC N/S
 EKB .m                  43.60:  KB ELEVATION
 EDF .m                  43.60:  DF ELEVATION
 TDL .m                 957.50:  TOTAL DEPTH (LOGGER)
 VSC .                       0:  VS TO CLOSURE
 MAGU.                 1851413:  MAGUTM CHECKSUM
~Parameter Information Block
#MNEM.UNIT       Value        Description
#---------     -----------    ---------------------------
 AV  .mps                 1.50:  Ann Velocity 
 AVMX.mps                 2.00:  Max Ann Veloc 
 AZIF.deg               184.66:  Azm, Final 
 BHAT.        Rotary Steerable:  BHA Type 
 BREV.rev               300.00:  Rev Bit Total 
 BROT.°/30m              -0.50:  Build Rotating 
 BS  .in                  8.50:  Bit Size 
 BSZ .in                  8.50:  Bit Size 
 BTPL.psig              370.00:  Bit Press Loss 
 CABU.                      No:  Customer Abuse 
 CGEO.      Behruz Shahbaliyev:  Customer Geo 
 COMM.                     TD\:  Run Comments 1 
 TCS .hr                140.08:  Time Ciculation Ended 
 CV  .mps                 3.00:  Crit Velocity 
 CVMX.mps                 3.20:  Max Crit Veloc 
 DD1 .            Musa Ahmadov:  Direct Drillr 1 
 DD2 .           Hamid Ahmadov:  Direct Drillr 2 
 DDSV.               Geo-Pilot:  DD Service 
 DEFF.%                  98.40:  % Det Eff 
 DLRX.°/30m               3.40:  Dogleg Rot Max 
 DLSO.°/30m               1.45:  Dogleg Oriented 
 DLSX.°/30m               3.40:  Dogleg Str Max 
 DRET.      18.40.00 29-Aug-21:  Drill End Time 
 DRST.      21.00.00 20-Aug-21:  Drill Start Tim 
 DTIM.hr                 69.47:  Time Drilling 
 EDEP.m                5084.50:  End Depth 
 ENG1.      Artemiy Matviyanov:  Engineer 1 
 ENG2.         Almaz Almadatov:  Engineer 2 
 ETIM.      18.40.00 29-Aug-21:  End Time 
 FLOI.gpm               500.00:  Flow In 
 FLON.gpm               400.00:  Flow In Min 
 FLOS.cptm                0.00:  Fluid Loss 
 FLOX.gpm               500.00:  Flow In Max 
 DFT .        Mineral Oil Base:  Mud Type 
 HFLO.                      No:  High Flow 
 HPRE.                      No:  High Pressure 
 HTEM.                      No:  High Temp 
 HYDO.m                   1.80:  Hydro Offset 
 IFIN.deg                25.62:  Inc, Final 
 IMAX.deg                48.69:  Inc Max 
 IMIN.deg                24.01:  Inc Min 
 IMND.m                4962.57:  Inc Min Depth 
 IMXD.m                4119.01:  Inc Max Depth 
 JARR.                      No:  Jarring 
 LETM.      18.40.00 29-Aug-21:  Log End Time 
 LOST.hr                     0:  Lost Rig Time 
 LSTM.      21.00.00 20-Aug-21:  Log Start Time 
 MDCL.ppm             41500.00:  Mud Chlorides 
 MDES.     Inversion Oil/Synthetic:  Mud Desc 
 DFD .sg                  1.56:  Mud Density 
 MDMN.sg                  1.56:  Dens Mud Min 
 MDMX.sg                  1.56:  Dens Mud Max 
 MOIL.                      70:  Run Mud Oil % 
 MOWR.                   70:30:  Run Mud OWR 
 MSND.                     0.2:  Run Mud Sand % 
 MSOL.                    23.3:  Run Mud Solids% 
 DFV .spqt               78.00:  Mud Viscosity 
 MWOD.in                  6.75:  MWD Tool OD 
 MWSI.                      No:  Serv Intrp, MWD 
 OTIM.hr                218.30:  Time Operating 
 PCON.           Look Like New:  Pad Condition 
 PMAX.psia            11015.30:  Press Op, Max 
 PV  .cP                 38.00:  Mud PV 
 RUN .                     300:  Run Number 
 ROPA.m/hr               15.00:  ROP Avg 
 ROPN.m/hr                9.00:  ROP Min 
 ROPX.m/hr               17.00:  ROP Max 
 RPMA.rpm               120.00:  RPM Surface Avg 
 RPMN.rpm                90.00:  RPM Surface Min 
 RPMX.rpm               140.00:  RPM Surface Max 
 RRUN.                     300:  Rig Run Number 
 RTIM.hr                 31.53:  Time Reaming 
 SAZI.deg               331.64:  Azm, Start 
 SDEP.m                4127.00:  Start Depth 
 SIDD.                      No:  Serv Intrp, DD 
 SINC.deg                48.43:  Inc, Start 
 SPPA.psig             5830.00:  SPP Avg 
 SPPN.psig             5600.00:  SPP Min 
 SPPX.psig             5900.00:  SPP Max 
 STIM.      21.00.00 20-Aug-21:  Start Time 
 SVCS.                 DD, MWD:  Services 
 SVER.                    9.20:  Sperry Version 
 TDAT.m                 957.50:  Tot Depth Attmp 
 TDDF.                      No:  Trip for DD 
 TDLG.m                 957.50:  Tot Depth Loggd 
 TFF .                      No:  Trip for Fail 
 TQAA.f-kp               15.00:  Torque Abs Avg 
 TQAN.f-kp               12.00:  Torque Abs Min 
 TQAX.f-kp               19.00:  Torque Abs Max 
 TRRT.°/30m              -3.40:  Turn Rotating 
 MRT .                  EWR-M5:  Maximum Recorded Temperature 
 TTMX.degC              100.00:  Max Tool Temp 
 VS01.                90639251:  Virtual Str1 SN 
 VS02.                90634715:  Virtual Str2 SN 
 VS03.                90652479:  Virtual Str3 SN 
 VS04.                90642262:  Virtual Str4 SN 
 WBMN.klb                 0.00:  WOB Min 
 WITN.           Murad Guliyev:  Customer Rep 
 WITN.          Yashar Gaziyev:  Customer Rep 2 
 WOBA.klb                 9.00:  WOB Avg 
 WOBX.klb                12.00:  WOB Max 
 YP  .lhf2               30.00:  Yield Point 
~Curve Information Block
#MNEM.UNIT                 API CODE     Curve Description
#---------               -----------    ---------------------------
 TIME.HHMMSS            00 000 000 000:  GT Time & Date
 GTDEPTH.m              00 000 000 000:  GT Depth
 GTPQH.psia             00 000 000 000:  GT HR Quartz Pressure
 GTTQ.degC              00 000 000 000:  GT Quartz Temperature
 GTTN.NONE              00 000 000 000:  GT Test Number
 GTET.sec               00 000 000 000:  GT Elapsed Test Time
 GTTVD.m                00 000 000 000:  GT True Vertical Depth
#Other Information
#
#WARRANTY: Halliburton will use its best efforts to furnish customers with 
#accurate information and interpretations that are part of, and incident to, the services 
#provided.  However, Halliburton cannot and does not warrant the accuracy 
#or correctness of such information and interpretations.  Under no circumstances should any 
#such information or interpretation be relied upon as the sole basis for any drilling, 
#completion, production, or financial decision or any procedure involving any risk to the 
#safety of any drilling venture, drilling rig or its crew or any other third party.  The 
#Customer has full responsibility for all drilling, completion and production operation.  
#Halliburton makes no representations or warranties, either expressed or 
#implied, including, but not limited to, the implied warranties of merchantability or fitness 
#for a particular purpose, with respect to the services rendered.  In no event will 
#Halliburton be liable for failure to obtain any particular results or for 
#any damages, including, but not limited to, indirect, special or consequential damages, 
#resulting from the use of any information or interpretation provided by Halliburton.
#
~A           TIME           GTDEPTH  GTPQH  GTTQ  GTTN  GTET   GTTVD  
# ...
   09:30:39.399.27-Aug-2021 4964.50 5198.24 86.31 7.00 322.13 3307.39
   09:30:39.600.27-Aug-2021 4964.50 5198.24 86.31 7.00 322.33 3307.39
   09:30:39.800.27-Aug-2021 4964.50 5198.24 86.31 7.00 322.53 3307.39
   09:30:40.000.27-Aug-2021 4964.50 5198.24 86.31 7.00 322.73 3307.39
   09:30:40.200.27-Aug-2021 4964.50 5198.23 86.31 7.00 322.93 3307.39
   09:30:40.400.27-Aug-2021 4964.50 5198.23 86.31 7.00 323.13 3307.39
   09:30:40.600.27-Aug-2021 4964.50 5198.23 86.31 7.00 323.33 3307.39
   09:30:40.800.27-Aug-2021 4964.50 5198.25 86.31 7.00 323.53 3307.39
   09:30:41.000.27-Aug-2021 4964.50 5198.23 86.31 7.00 323.73 3307.39
   09:30:41.200.27-Aug-2021 4964.50 5198.23 86.31 7.00 323.93 3307.39
   09:30:41.400.27-Aug-2021 4964.50 5198.22 86.31 7.00 324.13 3307.39
   09:30:41.600.27-Aug-2021 4964.50 5198.22 86.31 7.00 324.33 3307.39
   09:30:41.800.27-Aug-2021 4964.50 5198.25 86.31 7.00 324.53 3307.39
   09:30:42.001.27-Aug-2021 4964.50 5198.24 86.31 7.00 324.73 3307.39
   09:30:42.201.27-Aug-2021 4964.50 5198.23 86.31 7.00 324.93 3307.39
   09:30:42.401.27-Aug-2021 4964.50 5198.24 86.31 7.00 325.14 3307.39
   09:30:42.601.27-Aug-2021 4964.50 5198.24 86.31 7.00 325.34 3307.39
   09:30:42.801.27-Aug-2021 4964.50 5198.24 86.31 7.00 325.54 3307.39
   09:30:43.001.27-Aug-2021 4964.50 5198.25 86.31 7.00 325.74 3307.39
   09:30:43.201.27-Aug-2021 4964.50 5198.24 86.31 7.00 325.94 3307.39
   09:30:43.401.27-Aug-2021 4964.50 5198.23 86.31 7.00 326.14 3307.39
   09:30:43.601.27-Aug-2021 4964.50 5198.23 86.31 7.00 326.34 3307.39
   09:30:43.801.27-Aug-2021 4964.50 5198.22 86.31 7.00 326.54 3307.39
   09:30:44.001.27-Aug-2021 4964.50 5198.26 86.31 7.00 326.74 3307.39
   09:30:44.201.27-Aug-2021 4964.50 5198.24 86.31 7.00 326.94 3307.39
   09:30:44.402.27-Aug-2021 4964.50 5198.23 86.31 7.00 327.14 3307.39
   09:30:44.602.27-Aug-2021 4964.50 5198.23 86.31 7.00 327.34 3307.39
   09:30:44.802.27-Aug-2021 4964.50 5198.23 86.31 7.00 327.54 3307.39
   09:30:45.002.27-Aug-2021 4964.50 5198.23 86.31 7.00 327.74 3307.39
   09:30:45.202.27-Aug-2021 4964.50 5198.24 86.31 7.00 327.94 3307.39
   09:30:45.402.27-Aug-2021 4964.50 5198.23 86.31 7.00 328.14 3307.39
   09:30:45.602.27-Aug-2021 4964.50 5198.23 86.31 7.00 328.34 3307.39
   09:30:45.802.27-Aug-2021 4964.50 5198.23 86.31 7.00 328.54 3307.39
   09:30:46.002.27-Aug-2021 4964.50 5198.24 86.31 7.00 328.74 3307.39
   09:30:46.202.27-Aug-2021 4964.50 5198.23 86.31 7.00 328.94 3307.39
   09:30:46.402.27-Aug-2021 4964.50 5198.24 86.31 7.00 329.14 3307.39
   09:30:46.602.27-Aug-2021 4964.50 5198.24 86.31 7.00 329.34 3307.39
   09:30:46.803.27-Aug-2021 4964.50 5198.25 86.31 7.00 329.54 3307.39
   09:30:47.003.27-Aug-2021 4964.50 5198.24 86.31 7.00 329.74 3307.39
   09:30:47.203.27-Aug-2021 4964.50 5198.24 86.31 7.00 329.94 3307.39
   09:30:47.403.27-Aug-2021 4964.50 5198.23 86.31 7.00 330.14 3307.39
   09:30:47.603.27-Aug-2021 4964.50 5198.23 86.31 7.00 330.34 3307.39
   09:30:47.803.27-Aug-2021 4964.50 5198.24 86.31 7.00 330.54 3307.39
   09:30:48.003.27-Aug-2021 4964.50 5198.24 86.31 7.00 330.74 3307.39
   09:30:48.203.27-Aug-2021 4964.50 5198.24 86.31 7.00 330.94 3307.39
   09:30:48.403.27-Aug-2021 4964.50 5198.24 86.31 7.00 331.14 3307.39
   09:30:48.603.27-Aug-2021 4964.50 5198.24 86.31 7.00 331.34 3307.39
   09:30:48.803.27-Aug-2021 4964.50 5198.24 86.31 7.00 331.54 3307.39
   09:30:49.003.27-Aug-2021 4964.50 5198.25 86.31 7.00 331.74 3307.39
   09:30:49.204.27-Aug-2021 4964.50 5198.24 86.31 7.00 331.94 3307.39
   09:30:49.404.27-Aug-2021 4964.50 5198.25 86.31 7.00 332.14 3307.39
   09:30:49.604.27-Aug-2021 4964.50 5198.25 86.31 7.00 332.34 3307.39
   09:30:49.804.27-Aug-2021 4964.50 5198.24 86.31 7.00 332.54 3307.39
   09:30:50.004.27-Aug-2021 4964.50 5198.23 86.31 7.00 332.74 3307.39
   09:30:50.204.27-Aug-2021 4964.50 5198.26 86.31 7.00 332.94 3307.39
   09:30:50.404.27-Aug-2021 4964.50 5198.24 86.31 7.00 333.14 3307.39
   09:30:50.604.27-Aug-2021 4964.50 5198.24 86.31 7.00 333.34 3307.39
   09:30:50.804.27-Aug-2021 4964.50 5198.24 86.31 7.00 333.54 3307.39
   09:30:51.004.27-Aug-2021 4964.50 5198.23 86.31 7.00 333.74 3307.39
   09:30:51.204.27-Aug-2021 4964.50 5198.25 86.31 7.00 333.94 3307.39
   09:30:51.404.27-Aug-2021 4964.50 5198.24 86.31 7.00 334.14 3307.39
   09:30:51.605.27-Aug-2021 4964.50 5198.24 86.31 7.00 334.34 3307.39
   09:30:51.805.27-Aug-2021 4964.50 5198.23 86.31 7.00 334.54 3307.39
   09:30:52.005.27-Aug-2021 4964.50 5198.24 86.31 7.00 334.74 3307.39
   09:30:52.205.27-Aug-2021 4964.50 5198.24 86.31 7.00 334.94 3307.39
   09:30:52.405.27-Aug-2021 4964.50 5198.26 86.31 7.00 335.14 3307.39
   09:30:52.605.27-Aug-2021 4964.50 5198.26 86.31 7.00 335.34 3307.39
   09:30:52.805.27-Aug-2021 4964.50 5198.24 86.31 7.00 335.54 3307.39
   09:30:53.005.27-Aug-2021 4964.50 5198.24 86.31 7.00 335.74 3307.39
   09:30:53.205.27-Aug-2021 4964.50 5198.22 86.31 7.00 335.94 3307.39
   09:30:53.405.27-Aug-2021 4964.50 5198.26 86.31 7.00 336.14 3307.39
   09:30:53.605.27-Aug-2021 4964.50 5198.26 86.31 7.00 336.34 3307.39
   09:30:53.805.27-Aug-2021 4964.50 5198.24 86.31 7.00 336.54 3307.39
   09:30:54.006.27-Aug-2021 4964.50 5198.23 86.31 7.00 336.74 3307.39
   09:30:54.206.27-Aug-2021 4964.50 5198.24 86.31 7.00 336.94 3307.39
   09:30:54.406.27-Aug-2021 4964.50 5198.24 86.31 7.00 337.14 3307.39
   09:30:54.606.27-Aug-2021 4964.50 5198.24 86.31 7.00 337.34 3307.39
   09:30:54.806.27-Aug-2021 4964.50 5198.24 86.31 7.00 337.54 3307.39
   09:30:55.006.27-Aug-2021 4964.50 5198.24 86.31 7.00 337.74 3307.39
   09:30:55.206.27-Aug-2021 4964.50 5198.24 86.31 7.00 337.94 3307.39
   09:30:55.406.27-Aug-2021 4964.50 5198.24 86.31 7.00 338.14 3307.39
   09:30:55.606.27-Aug-2021 4964.50 5198.24 86.31 7.00 338.34 3307.39
   09:30:55.806.27-Aug-2021 4964.50 5198.24 86.31 7.00 338.54 3307.39
   09:30:56.006.27-Aug-2021 4964.50 5198.23 86.31 7.00 338.74 3307.39
   09:30:56.206.27-Aug-2021 4964.50 5198.25 86.31 7.00 338.94 3307.39
   09:30:56.407.27-Aug-2021 4964.50 5198.24 86.31 7.00 339.14 3307.39
   09:30:56.607.27-Aug-2021 4964.50 5198.24 86.31 7.00 339.34 3307.39
   09:30:56.807.27-Aug-2021 4964.50 5198.24 86.31 7.00 339.54 3307.39
   09:30:57.007.27-Aug-2021 4964.50 5198.24 86.31 7.00 339.74 3307.39
   09:30:57.207.27-Aug-2021 4964.50 5198.23 86.31 7.00 339.94 3307.39
   09:30:57.407.27-Aug-2021 4964.50 5198.24 86.31 7.00 340.14 3307.39
   09:30:57.607.27-Aug-2021 4964.50 5198.24 86.31 7.00 340.34 3307.39
   09:30:57.807.27-Aug-2021 4964.50 5198.24 86.31 7.00 340.54 3307.39
   09:30:58.007.27-Aug-2021 4964.50 5198.23 86.31 7.00 340.74 3307.39
   09:30:58.207.27-Aug-2021 4964.50 5198.24 86.31 7.00 340.94 3307.39
   09:30:58.407.27-Aug-2021 4964.50 5198.24 86.31 7.00 341.14 3307.39
   09:30:58.607.27-Aug-2021 4964.50 5198.24 86.31 7.00 341.34 3307.39
   09:30:58.808.27-Aug-2021 4964.50 5198.23 86.31 7.00 341.54 3307.39
   09:30:59.008.27-Aug-2021 4964.50 5198.24 86.31 7.00 341.74 3307.39
   09:30:59.208.27-Aug-2021 4964.50 5198.24 86.31 7.00 341.94 3307.39
   09:30:59.408.27-Aug-2021 4964.50 5198.24 86.31 7.00 342.14 3307.39
   09:30:59.608.27-Aug-2021 4964.50 5198.24 86.31 7.00 342.34 3307.39
   09:30:59.808.27-Aug-2021 4964.50 5198.24 86.31 7.00 342.54 3307.39
   09:31:00.008.27-Aug-2021 4964.50 5198.22 86.31 7.00 342.74 3307.39
   09:31:00.208.27-Aug-2021 4964.50 5198.24 86.31 7.00 342.94 3307.39
   09:31:00.408.27-Aug-2021 4964.50 5198.23 86.31 7.00 343.14 3307.39
   09:31:00.608.27-Aug-2021 4964.50 5198.23 86.31 7.00 343.34 3307.39
   09:31:00.808.27-Aug-2021 4964.50 5198.24 86.31 7.00 343.54 3307.39
   09:31:01.008.27-Aug-2021 4964.50 5198.24 86.31 7.00 343.74 3307.39
   09:31:01.209.27-Aug-2021 4964.50 5198.23 86.31 7.00 343.94 3307.39
   09:31:01.409.27-Aug-2021 4964.50 5198.25 86.31 7.00 344.14 3307.39
   09:31:01.609.27-Aug-2021 4964.50 5198.25 86.31 7.00 344.34 3307.39
   09:31:01.809.27-Aug-2021 4964.50 5198.25 86.31 7.00 344.54 3307.39
   09:31:02.009.27-Aug-2021 4964.50 5198.24 86.31 7.00 344.74 3307.39
   09:31:02.209.27-Aug-2021 4964.50 5198.24 86.31 7.00 344.94 3307.39
