~Version Information
 VERS.                  2.0:   CWLS log ASCII Standard -VERSION 2.0
 WRAP.                   NO:   One line per depth step
~Well Information Block
#MNEM.UNIT     VALUE/NAME     DESCRIPTION
#---------     -----------    ---------------------------
 STRT.S             22:11:58 27-Aug-21: START TIME 22:11:58 27-Aug-21
 STOP.S             22:18:52 27-Aug-21: STOP TIME  22:18:52 27-Aug-21
 STEP.S                   0.00: STEP TIME
 NULL.                 -999.25: NULL VALUE
 DFWT.                        :  DIST FWL TEXT
 DFST.                        :  DIST FSL TEXT
 DMF .             Drill Floor:  DRILL MEAS FROM
 STIM.      20.00.00 17-Aug-21:  START TIME
 DATE.      19.00.00 29-Aug-21:  END TIME
 SPUD.               15-Aug-21:  SPUD DATE
 NREF.                    Grid:  NORTH REFERENCE
 HPTY.       Minimum Curvature:  HOLE POS TYPE
 DMOD.             Drill Model:  DRILL MOD DESC
 SVYD.                  Survey:  SURVEY DESC
 ILTD.               Lithology:  INTERP LTH DESC
 FTOP.          Formation Tops:  FORM TOPS DESC
 RIG .              East Azeri:  RIG NAME
 PDAT.          Mean Sea Level:  PERMANENT DATUM
 FLD .                     ACG:  FIELD NAME
 SON .        AZ-XX-0907180857:  JOB NUMBER
 CTRY.              Azerbaijan:  COUNTRY NAME
 WELL.                    D23x:  WELL NAME
 SRVC.     Turan Drilling and Engineering:  CONTRACTOR
 COMP.     BP Exploration (Caspian Sea) Ltd.:  COMPANY
 UWI .            /AZE00000214:  UNIQUE WELL IDENTIFIER
 API .            /AZE00000214:  API NUMBER
 MDS .        Operator Entered:  MAG DATA SOURCE
 BASE.              Azerbaijan:  LOGGING EQUIPMENT BASE LOCATION
 REGN.                   EESSA:  REGION
 PROV.                    Baku:  PROVINCE
 STAT.                    Baku:  STATE NAME
 MWDS.                    Baku:  MWD SHOP
 DOE .                     N/A:  DOE NUMBER
 DCON.         Sperry Drilling:  DIRECTNL CONTR
 UNIT.                     N/A:  LOGGING EQUIPMENT ID
 WTYP.                Deviated:  WELL TYPE
 CNTY.                        :  COUNTY
 LOC .                        :  LOCATION
 LMF .             Drill Floor:  LOG MEASURED FROM
 TVDS.m                  43.60:  TVDSS CORRECTN
 LATI.deg                40.02:  LATITUDE
 LONG.deg                51.45:  LONGITUDE
 WHNS.m                  -7.04:  WELL HEAD N/S
 WHEW.m                  -0.67:  WELL HEAD E/W
 UTMX.m              538762.90:  UTM X
 UTMY.m             4431871.34:  UTM Y
 DFWL.m                   0.00:  DISTANCE FWL
 DFSL.m                   0.00:  DISTANCE FSL
 SDEP.m                4127.00:  START DEPTH
 TDD .m                5084.50:  TOTAL DEPTH (DRILLER)
 VSDR.deg               140.47:  VERT SEC DIRECT
 GVFD.g                   1.00:  GRAVITY FIELD
 MFLD.nT              50362.00:  MAGNETIC FIELD
 MDIP.deg                59.48:  MAGNETIC DIP
 MDEC.deg                 6.47:  MAGNETIC DECL
 GRDC.deg                 0.31:  GRID CORRECTION
 AZTC.deg                 6.16:  AZM TOTAL CORR
 EPD .m                   0.00:  ELEVATION
 EGL .m                   0.00:  GROUND ELEVATION
 WDMS.m                 151.80:  WD ELEV
 APD .m                  43.60:  DEPTH ABOVE PD
 DEP .m                4092.57:  DEPTH
 AGAP.m                  43.60:  AIR GAP
 VSEW.m                  -0.67:  VERT SEC E/W
 VSNS.m                  -7.04:  VERT SEC N/S
 EKB .m                  43.60:  KB ELEVATION
 EDF .m                  43.60:  DF ELEVATION
 TDL .m                 957.50:  TOTAL DEPTH (LOGGER)
 VSC .                       0:  VS TO CLOSURE
 MAGU.                 1851413:  MAGUTM CHECKSUM
~Parameter Information Block
#MNEM.UNIT       Value        Description
#---------     -----------    ---------------------------
 AV  .mps                 1.50:  Ann Velocity 
 AVMX.mps                 2.00:  Max Ann Veloc 
 AZIF.deg               184.66:  Azm, Final 
 BHAT.        Rotary Steerable:  BHA Type 
 BREV.rev               300.00:  Rev Bit Total 
 BROT.°/30m              -0.50:  Build Rotating 
 BS  .in                  8.50:  Bit Size 
 BSZ .in                  8.50:  Bit Size 
 BTPL.psig              370.00:  Bit Press Loss 
 CABU.                      No:  Customer Abuse 
 CGEO.      Behruz Shahbaliyev:  Customer Geo 
 COMM.                     Tªl:  Run Comments 1 
 TCS .hr                140.08:  Time Ciculation Ended 
 CV  .mps                 3.00:  Crit Velocity 
 CVMX.mps                 3.20:  Max Crit Veloc 
 DD1 .            Musa Ahmadov:  Direct Drillr 1 
 DD2 .           Hamid Ahmadov:  Direct Drillr 2 
 DDSV.               Geo-Pilot:  DD Service 
 DEFF.%                  98.40:  % Det Eff 
 DLRX.°/30m               3.40:  Dogleg Rot Max 
 DLSO.°/30m               1.45:  Dogleg Oriented 
 DLSX.°/30m               3.40:  Dogleg Str Max 
 DRET.      18.40.00 29-Aug-21:  Drill End Time 
 DRST.      21.00.00 20-Aug-21:  Drill Start Tim 
 DTIM.hr                 69.47:  Time Drilling 
 EDEP.m                5084.50:  End Depth 
 ENG1.      Artemiy Matviyanov:  Engineer 1 
 ENG2.         Almaz Almadatov:  Engineer 2 
 ETIM.      18.40.00 29-Aug-21:  End Time 
 FLOI.gpm               500.00:  Flow In 
 FLON.gpm               400.00:  Flow In Min 
 FLOS.cptm                0.00:  Fluid Loss 
 FLOX.gpm               500.00:  Flow In Max 
 DFT .        Mineral Oil Base:  Mud Type 
 HFLO.                      No:  High Flow 
 HPRE.                      No:  High Pressure 
 HTEM.                      No:  High Temp 
 HYDO.m                   1.80:  Hydro Offset 
 IFIN.deg                25.62:  Inc, Final 
 IMAX.deg                48.69:  Inc Max 
 IMIN.deg                24.01:  Inc Min 
 IMND.m                4962.57:  Inc Min Depth 
 IMXD.m                4119.01:  Inc Max Depth 
 JARR.                      No:  Jarring 
 LETM.      18.40.00 29-Aug-21:  Log End Time 
 LOST.hr                     0:  Lost Rig Time 
 LSTM.      21.00.00 20-Aug-21:  Log Start Time 
 MDCL.ppm             41500.00:  Mud Chlorides 
 MDES.     Inversion Oil/Synthetic:  Mud Desc 
 DFD .sg                  1.56:  Mud Density 
 MDMN.sg                  1.56:  Dens Mud Min 
 MDMX.sg                  1.56:  Dens Mud Max 
 MOIL.                      70:  Run Mud Oil % 
 MOWR.                   70:30:  Run Mud OWR 
 MSND.                     0.2:  Run Mud Sand % 
 MSOL.                    23.3:  Run Mud Solids% 
 DFV .spqt               78.00:  Mud Viscosity 
 MWOD.in                  6.75:  MWD Tool OD 
 MWSI.                      No:  Serv Intrp, MWD 
 OTIM.hr                218.30:  Time Operating 
 PCON.           Look Like New:  Pad Condition 
 PMAX.psia            11015.30:  Press Op, Max 
 PV  .cP                 38.00:  Mud PV 
 RUN .                     300:  Run Number 
 ROPA.m/hr               15.00:  ROP Avg 
 ROPN.m/hr                9.00:  ROP Min 
 ROPX.m/hr               17.00:  ROP Max 
 RPMA.rpm               120.00:  RPM Surface Avg 
 RPMN.rpm                90.00:  RPM Surface Min 
 RPMX.rpm               140.00:  RPM Surface Max 
 RRUN.                     300:  Rig Run Number 
 RTIM.hr                 31.53:  Time Reaming 
 SAZI.deg               331.64:  Azm, Start 
 SDEP.m                4127.00:  Start Depth 
 SIDD.                      No:  Serv Intrp, DD 
 SINC.deg                48.43:  Inc, Start 
 SPPA.psig             5830.00:  SPP Avg 
 SPPN.psig             5600.00:  SPP Min 
 SPPX.psig             5900.00:  SPP Max 
 STIM.      21.00.00 20-Aug-21:  Start Time 
 SVCS.                 DD, MWD:  Services 
 SVER.                    9.20:  Sperry Version 
 TDAT.m                 957.50:  Tot Depth Attmp 
 TDDF.                      No:  Trip for DD 
 TDLG.m                 957.50:  Tot Depth Loggd 
 TFF .                      No:  Trip for Fail 
 TQAA.f-kp               15.00:  Torque Abs Avg 
 TQAN.f-kp               12.00:  Torque Abs Min 
 TQAX.f-kp               19.00:  Torque Abs Max 
 TRRT.°/30m              -3.40:  Turn Rotating 
 MRT .                  EWR-M5:  Maximum Recorded Temperature 
 TTMX.degC              100.00:  Max Tool Temp 
 VS01.                90639251:  Virtual Str1 SN 
 VS02.                90634715:  Virtual Str2 SN 
 VS03.                90652479:  Virtual Str3 SN 
 VS04.                90642262:  Virtual Str4 SN 
 WBMN.klb                 0.00:  WOB Min 
 WITN.           Murad Guliyev:  Customer Rep 
 WITN.          Yashar Gaziyev:  Customer Rep 2 
 WOBA.klb                 9.00:  WOB Avg 
 WOBX.klb                12.00:  WOB Max 
 YP  .lhf2               30.00:  Yield Point 
~Curve Information Block
#MNEM.UNIT                 API CODE     Curve Description
#---------               -----------    ---------------------------
 TIME.HHMMSS            00 000 000 000:  GT Time & Date
 GTDEPTH.m              00 000 000 000:  GT Depth
 GTPQH.psia             00 000 000 000:  GT HR Quartz Pressure
 GTTQ.degC              00 000 000 000:  GT Quartz Temperature
 GTTN.NONE              00 000 000 000:  GT Test Number
 GTET.sec               00 000 000 000:  GT Elapsed Test Time
 GTTVD.m                00 000 000 000:  GT True Vertical Depth
#Other Information
#
#WARRANTY: Halliburton will use its best efforts to furnish customers with 
#accurate information and interpretations that are part of, and incident to, the services 
#provided.  However, Halliburton cannot and does not warrant the accuracy 
#or correctness of such information and interpretations.  Under no circumstances should any 
#such information or interpretation be relied upon as the sole basis for any drilling, 
#completion, production, or financial decision or any procedure involving any risk to the 
#safety of any drilling venture, drilling rig or its crew or any other third party.  The 
#Customer has full responsibility for all drilling, completion and production operation.  
#Halliburton makes no representations or warranties, either expressed or 
#implied, including, but not limited to, the implied warranties of merchantability or fitness 
#for a particular purpose, with respect to the services rendered.  In no event will 
#Halliburton be liable for failure to obtain any particular results or for 
#any damages, including, but not limited to, indirect, special or consequential damages, 
#resulting from the use of any information or interpretation provided by Halliburton.
#
~A           TIME           GTDEPTH  GTPQH  GTTQ  GTTN   GTET   GTTVD  
# ...
   22:14:36.762.27-Aug-2021 4635.80 4304.24 82.43 24.00 158.22 3009.39
   22:14:36.962.27-Aug-2021 4635.80 4307.04 82.43 24.00 158.42 3009.39
   22:14:37.162.27-Aug-2021 4635.80 4308.42 82.43 24.00 158.62 3009.39
   22:14:37.362.27-Aug-2021 4635.80 4309.84 82.43 24.00 158.82 3009.39
   22:14:37.562.27-Aug-2021 4635.80 4311.25 82.43 24.00 159.02 3009.39
   22:14:37.762.27-Aug-2021 4635.80 4311.25 82.43 24.00 159.22 3009.39
   22:14:37.962.27-Aug-2021 4635.80 4311.58 82.43 24.00 159.42 3009.39
   22:14:38.162.27-Aug-2021 4635.80 4312.55 82.43 24.00 159.62 3009.39
   22:14:38.362.27-Aug-2021 4635.80 4313.78 82.43 24.00 159.82 3009.39
   22:14:38.562.27-Aug-2021 4635.80 4315.06 82.43 24.00 160.02 3009.39
   22:14:38.762.27-Aug-2021 4635.80 4315.06 82.43 24.00 160.22 3009.39
   22:14:38.962.27-Aug-2021 4635.80 4316.41 82.43 24.00 160.42 3009.39
   22:14:39.162.27-Aug-2021 4635.80 4317.08 82.43 24.00 160.62 3009.39
   22:14:39.362.27-Aug-2021 4635.80 4318.30 82.43 24.00 160.82 3009.39
   22:14:39.562.27-Aug-2021 4635.80 4319.75 82.43 24.00 161.02 3009.39
   22:14:39.762.27-Aug-2021 4635.80 4319.75 82.43 24.00 161.22 3009.39
   22:14:39.962.27-Aug-2021 4635.80 4321.47 82.43 24.00 161.42 3009.39
   22:14:40.162.27-Aug-2021 4635.80 4322.20 82.43 24.00 161.62 3009.39
   22:14:40.362.27-Aug-2021 4635.80 4323.41 82.43 24.00 161.82 3009.39
   22:14:40.562.27-Aug-2021 4635.80 4324.86 82.43 24.00 162.02 3009.39
   22:14:40.762.27-Aug-2021 4635.80 4324.86 82.43 24.00 162.22 3009.39
   22:14:40.962.27-Aug-2021 4635.80 4326.24 82.43 24.00 162.42 3009.39
   22:14:41.162.27-Aug-2021 4635.80 4327.27 82.43 24.00 162.62 3009.39
   22:14:41.362.27-Aug-2021 4635.80 4328.50 82.43 24.00 162.82 3009.39
   22:14:41.562.27-Aug-2021 4635.80 4329.92 82.43 24.00 163.02 3009.39
   22:14:41.762.27-Aug-2021 4635.80 4329.92 82.43 24.00 163.22 3009.39
   22:14:41.962.27-Aug-2021 4635.80 4197.51 82.43 24.00 163.42 3009.39
   22:14:42.162.27-Aug-2021 4635.80 3315.80 82.43 24.00 163.62 3009.39
   22:14:42.363.27-Aug-2021 4635.80 2428.07 82.43 24.00 163.82 3009.39
   22:14:42.563.27-Aug-2021 4635.80 1626.36 82.43 24.00 164.02 3009.39
   22:14:42.763.27-Aug-2021 4635.80 1626.36 82.43 24.00 164.22 3009.39
   22:14:42.963.27-Aug-2021 4635.80 1205.71 82.43 24.00 164.42 3009.39
   22:14:43.163.27-Aug-2021 4635.80 1135.70 82.43 24.00 164.62 3009.39
   22:14:43.363.27-Aug-2021 4635.80 1137.16 82.43 24.00 164.82 3009.39
   22:14:43.563.27-Aug-2021 4635.80 1137.57 82.42 24.00 165.02 3009.39
   22:14:43.763.27-Aug-2021 4635.80 1137.57 82.42 24.00 165.22 3009.39
   22:14:43.963.27-Aug-2021 4635.80 1136.73 82.42 24.00 165.42 3009.39
   22:14:44.163.27-Aug-2021 4635.80 1131.76 82.42 24.00 165.62 3009.39
   22:14:44.363.27-Aug-2021 4635.80 1128.02 82.42 24.00 165.82 3009.39
   22:14:44.563.27-Aug-2021 4635.80 1126.48 82.41 24.00 166.02 3009.39
   22:14:44.763.27-Aug-2021 4635.80 1126.48 82.41 24.00 166.22 3009.39
   22:14:44.963.27-Aug-2021 4635.80 1124.14 82.41 24.00 166.42 3009.39
   22:14:45.163.27-Aug-2021 4635.80 1124.22 82.41 24.00 166.62 3009.39
   22:14:45.363.27-Aug-2021 4635.80 1126.44 82.40 24.00 166.82 3009.39
   22:14:45.563.27-Aug-2021 4635.80 1126.66 82.40 24.00 167.02 3009.39
   22:14:45.763.27-Aug-2021 4635.80 1126.66 82.40 24.00 167.22 3009.39
   22:14:45.963.27-Aug-2021 4635.80 1126.66 82.40 24.00 167.42 3009.39
   22:14:46.163.27-Aug-2021 4635.80 1124.86 82.39 24.00 167.62 3009.39
   22:14:46.363.27-Aug-2021 4635.80 1123.30 82.39 24.00 167.82 3009.39
   22:14:46.563.27-Aug-2021 4635.80 1124.55 82.39 24.00 168.02 3009.39
   22:14:46.763.27-Aug-2021 4635.80 1124.55 82.39 24.00 168.22 3009.39
   22:14:46.963.27-Aug-2021 4635.80 1122.53 82.38 24.00 168.42 3009.39
   22:14:47.163.27-Aug-2021 4635.80 1124.00 82.38 24.00 168.62 3009.39
   22:14:47.363.27-Aug-2021 4635.80 1123.95 82.38 24.00 168.82 3009.39
   22:14:47.563.27-Aug-2021 4635.80 1121.62 82.38 24.00 169.02 3009.39
   22:14:47.763.27-Aug-2021 4635.80 1121.62 82.38 24.00 169.22 3009.39
   22:14:47.963.27-Aug-2021 4635.80 1123.88 82.37 24.00 169.42 3009.39
   22:14:48.163.27-Aug-2021 4635.80 1122.05 82.37 24.00 169.62 3009.39
   22:14:48.363.27-Aug-2021 4635.80 1123.07 82.37 24.00 169.82 3009.39
   22:14:48.563.27-Aug-2021 4635.80 1123.71 82.37 24.00 170.02 3009.39
   22:14:48.763.27-Aug-2021 4635.80 1123.71 82.37 24.00 170.22 3009.39
   22:14:48.963.27-Aug-2021 4635.80 1129.91 82.36 24.00 170.42 3009.39
   22:14:49.163.27-Aug-2021 4635.80 1131.57 82.36 24.00 170.62 3009.39
   22:14:49.363.27-Aug-2021 4635.80 1131.44 82.36 24.00 170.82 3009.39
   22:14:49.563.27-Aug-2021 4635.80 1130.52 82.36 24.00 171.02 3009.39
   22:14:49.763.27-Aug-2021 4635.80 1130.52 82.36 24.00 171.22 3009.39
   22:14:49.963.27-Aug-2021 4635.80 1122.70 82.36 24.00 171.42 3009.39
   22:14:50.163.27-Aug-2021 4635.80 1122.61 82.35 24.00 171.62 3009.39
   22:14:50.363.27-Aug-2021 4635.80 1125.32 82.35 24.00 171.82 3009.39
   22:14:50.563.27-Aug-2021 4635.80 1126.37 82.35 24.00 172.02 3009.39
   22:14:50.763.27-Aug-2021 4635.80 1126.37 82.35 24.00 172.22 3009.39
   22:14:50.963.27-Aug-2021 4635.80 1128.78 82.35 24.00 172.42 3009.39
   22:14:51.163.27-Aug-2021 4635.80 1130.32 82.35 24.00 172.62 3009.39
   22:14:51.363.27-Aug-2021 4635.80 1129.98 82.35 24.00 172.82 3009.39
   22:14:51.563.27-Aug-2021 4635.80 1128.35 82.34 24.00 173.02 3009.39
   22:14:51.763.27-Aug-2021 4635.80 1128.35 82.34 24.00 173.22 3009.39
   22:14:51.963.27-Aug-2021 4635.80 1129.58 82.34 24.00 173.42 3009.39
   22:14:52.164.27-Aug-2021 4635.80 1138.07 82.34 24.00 173.62 3009.39
   22:14:52.364.27-Aug-2021 4635.80 1160.54 82.34 24.00 173.82 3009.39
   22:14:52.564.27-Aug-2021 4635.80 1188.57 82.34 24.00 174.02 3009.39
   22:14:52.764.27-Aug-2021 4635.80 1188.57 82.34 24.00 174.22 3009.39
   22:14:52.964.27-Aug-2021 4635.80 1233.48 82.34 24.00 174.42 3009.39
   22:14:53.164.27-Aug-2021 4635.80 1255.52 82.34 24.00 174.62 3009.39
   22:14:53.364.27-Aug-2021 4635.80 1276.84 82.34 24.00 174.82 3009.39
   22:14:53.564.27-Aug-2021 4635.80 1298.70 82.34 24.00 175.02 3009.39
   22:14:53.764.27-Aug-2021 4635.80 1298.70 82.34 24.00 175.22 3009.39
   22:14:53.964.27-Aug-2021 4635.80 1339.79 82.34 24.00 175.42 3009.39
   22:14:54.164.27-Aug-2021 4635.80 1360.22 82.34 24.00 175.62 3009.39
   22:14:54.364.27-Aug-2021 4635.80 1380.35 82.34 24.00 175.82 3009.39
   22:14:54.564.27-Aug-2021 4635.80 1400.33 82.33 24.00 176.02 3009.39
   22:14:54.764.27-Aug-2021 4635.80 1400.33 82.33 24.00 176.22 3009.39
   22:14:54.964.27-Aug-2021 4635.80 1420.08 82.33 24.00 176.42 3009.39
   22:14:55.164.27-Aug-2021 4635.80 1459.18 82.33 24.00 176.62 3009.39
   22:14:55.364.27-Aug-2021 4635.80 1478.53 82.33 24.00 176.82 3009.39
   22:14:55.564.27-Aug-2021 4635.80 1497.57 82.33 24.00 177.02 3009.39
   22:14:55.764.27-Aug-2021 4635.80 1497.57 82.33 24.00 177.22 3009.39
   22:14:55.964.27-Aug-2021 4635.80 1535.38 82.33 24.00 177.42 3009.39
   22:14:56.164.27-Aug-2021 4635.80 1554.12 82.33 24.00 177.62 3009.39
   22:14:56.364.27-Aug-2021 4635.80 1572.65 82.33 24.00 177.82 3009.39
   22:14:56.564.27-Aug-2021 4635.80 1590.37 82.33 24.00 178.02 3009.39
   22:14:56.764.27-Aug-2021 4635.80 1590.37 82.33 24.00 178.22 3009.39
   22:14:56.964.27-Aug-2021 4635.80 1626.86 82.33 24.00 178.42 3009.39
   22:14:57.164.27-Aug-2021 4635.80 1644.82 82.33 24.00 178.62 3009.39
   22:14:57.364.27-Aug-2021 4635.80 1662.35 82.33 24.00 178.82 3009.39
   22:14:57.564.27-Aug-2021 4635.80 1679.99 82.33 24.00 179.02 3009.39
   22:14:57.764.27-Aug-2021 4635.80 1679.99 82.33 24.00 179.22 3009.39
   22:14:57.964.27-Aug-2021 4635.80 1715.12 82.34 24.00 179.42 3009.39
   22:14:58.164.27-Aug-2021 4635.80 1732.49 82.34 24.00 179.62 3009.39
   22:14:58.364.27-Aug-2021 4635.80 1749.90 82.34 24.00 179.82 3009.39
   22:14:58.564.27-Aug-2021 4635.80 1766.18 82.34 24.00 180.02 3009.39
   22:14:58.764.27-Aug-2021 4635.80 1766.18 82.34 24.00 180.22 3009.39
   22:14:58.964.27-Aug-2021 4635.80 1800.93 82.34 24.00 180.42 3009.39
   22:14:59.164.27-Aug-2021 4635.80 1817.78 82.34 24.00 180.62 3009.39
