~Version Information
 VERS.                  2.0:   CWLS log ASCII Standard -VERSION 2.0
 WRAP.                   NO:   One line per depth step
~Well Information Block
#MNEM.UNIT     VALUE/NAME     DESCRIPTION
#---------     -----------    ---------------------------
 STRT.S             09:25:17 27-Aug-21: START TIME 09:25:17 27-Aug-21
 STOP.S             09:32:27 27-Aug-21: STOP TIME  09:32:27 27-Aug-21
 STEP.S                   0.00: STEP TIME
 NULL.                 -999.25: NULL VALUE
 DFWT.                        :  DIST FWL TEXT
 DFST.                        :  DIST FSL TEXT
 DMF .             Drill Floor:  DRILL MEAS FROM
 STIM.      20.00.00 17-Aug-21:  START TIME
 DATE.      19.00.00 29-Aug-21:  END TIME
 SPUD.               15-Aug-21:  SPUD DATE
 NREF.                    Grid:  NORTH REFERENCE
 HPTY.       Minimum Curvature:  HOLE POS TYPE
 DMOD.             Drill Model:  DRILL MOD DESC
 SVYD.                  Survey:  SURVEY DESC
 ILTD.               Lithology:  INTERP LTH DESC
 FTOP.          Formation Tops:  FORM TOPS DESC
 RIG .              East Azeri:  RIG NAME
 PDAT.          Mean Sea Level:  PERMANENT DATUM
 FLD .                     ACG:  FIELD NAME
 SON .        AZ-XX-0907180857:  JOB NUMBER
 CTRY.              Azerbaijan:  COUNTRY NAME
 WELL.                    D23x:  WELL NAME
 SRVC.     Turan Drilling and Engineering:  CONTRACTOR
 COMP.     BP Exploration (Caspian Sea) Ltd.:  COMPANY
 UWI .            /AZE00000214:  UNIQUE WELL IDENTIFIER
 API .            /AZE00000214:  API NUMBER
 MDS .        Operator Entered:  MAG DATA SOURCE
 BASE.              Azerbaijan:  LOGGING EQUIPMENT BASE LOCATION
 REGN.                   EESSA:  REGION
 PROV.                    Baku:  PROVINCE
 STAT.                    Baku:  STATE NAME
 MWDS.                    Baku:  MWD SHOP
 DOE .                     N/A:  DOE NUMBER
 DCON.         Sperry Drilling:  DIRECTNL CONTR
 UNIT.                     N/A:  LOGGING EQUIPMENT ID
 WTYP.                Deviated:  WELL TYPE
 CNTY.                        :  COUNTY
 LOC .                        :  LOCATION
 LMF .             Drill Floor:  LOG MEASURED FROM
 TVDS.m                  43.60:  TVDSS CORRECTN
 LATI.deg                40.02:  LATITUDE
 LONG.deg                51.45:  LONGITUDE
 WHNS.m                  -7.04:  WELL HEAD N/S
 WHEW.m                  -0.67:  WELL HEAD E/W
 UTMX.m              538762.90:  UTM X
 UTMY.m             4431871.34:  UTM Y
 DFWL.m                   0.00:  DISTANCE FWL
 DFSL.m                   0.00:  DISTANCE FSL
 SDEP.m                4127.00:  START DEPTH
 TDD .m                5084.50:  TOTAL DEPTH (DRILLER)
 VSDR.deg               140.47:  VERT SEC DIRECT
 GVFD.g                   1.00:  GRAVITY FIELD
 MFLD.nT              50362.00:  MAGNETIC FIELD
 MDIP.deg                59.48:  MAGNETIC DIP
 MDEC.deg                 6.47:  MAGNETIC DECL
 GRDC.deg                 0.31:  GRID CORRECTION
 AZTC.deg                 6.16:  AZM TOTAL CORR
 EPD .m                   0.00:  ELEVATION
 EGL .m                   0.00:  GROUND ELEVATION
 WDMS.m                 151.80:  WD ELEV
 APD .m                  43.60:  DEPTH ABOVE PD
 DEP .m                4092.57:  DEPTH
 AGAP.m                  43.60:  AIR GAP
 VSEW.m                  -0.67:  VERT SEC E/W
 VSNS.m                  -7.04:  VERT SEC N/S
 EKB .m                  43.60:  KB ELEVATION
 EDF .m                  43.60:  DF ELEVATION
 TDL .m                 957.50:  TOTAL DEPTH (LOGGER)
 VSC .                       0:  VS TO CLOSURE
 MAGU.                 1851413:  MAGUTM CHECKSUM
~Parameter Information Block
#MNEM.UNIT       Value        Description
#---------     -----------    ---------------------------
 AV  .mps                 1.50:  Ann Velocity 
 AVMX.mps                 2.00:  Max Ann Veloc 
 AZIF.deg               184.66:  Azm, Final 
 BHAT.        Rotary Steerable:  BHA Type 
 BREV.rev               300.00:  Rev Bit Total 
 BROT.°/30m              -0.50:  Build Rotating 
 BS  .in                  8.50:  Bit Size 
 BSZ .in                  8.50:  Bit Size 
 BTPL.psig              370.00:  Bit Press Loss 
 CABU.                      No:  Customer Abuse 
 CGEO.      Behruz Shahbaliyev:  Customer Geo 
 COMM.                     TD\:  Run Comments 1 
 TCS .hr                140.08:  Time Ciculation Ended 
 CV  .mps                 3.00:  Crit Velocity 
 CVMX.mps                 3.20:  Max Crit Veloc 
 DD1 .            Musa Ahmadov:  Direct Drillr 1 
 DD2 .           Hamid Ahmadov:  Direct Drillr 2 
 DDSV.               Geo-Pilot:  DD Service 
 DEFF.%                  98.40:  % Det Eff 
 DLRX.°/30m               3.40:  Dogleg Rot Max 
 DLSO.°/30m               1.45:  Dogleg Oriented 
 DLSX.°/30m               3.40:  Dogleg Str Max 
 DRET.      18.40.00 29-Aug-21:  Drill End Time 
 DRST.      21.00.00 20-Aug-21:  Drill Start Tim 
 DTIM.hr                 69.47:  Time Drilling 
 EDEP.m                5084.50:  End Depth 
 ENG1.      Artemiy Matviyanov:  Engineer 1 
 ENG2.         Almaz Almadatov:  Engineer 2 
 ETIM.      18.40.00 29-Aug-21:  End Time 
 FLOI.gpm               500.00:  Flow In 
 FLON.gpm               400.00:  Flow In Min 
 FLOS.cptm                0.00:  Fluid Loss 
 FLOX.gpm               500.00:  Flow In Max 
 DFT .        Mineral Oil Base:  Mud Type 
 HFLO.                      No:  High Flow 
 HPRE.                      No:  High Pressure 
 HTEM.                      No:  High Temp 
 HYDO.m                   1.80:  Hydro Offset 
 IFIN.deg                25.62:  Inc, Final 
 IMAX.deg                48.69:  Inc Max 
 IMIN.deg                24.01:  Inc Min 
 IMND.m                4962.57:  Inc Min Depth 
 IMXD.m                4119.01:  Inc Max Depth 
 JARR.                      No:  Jarring 
 LETM.      18.40.00 29-Aug-21:  Log End Time 
 LOST.hr                     0:  Lost Rig Time 
 LSTM.      21.00.00 20-Aug-21:  Log Start Time 
 MDCL.ppm             41500.00:  Mud Chlorides 
 MDES.     Inversion Oil/Synthetic:  Mud Desc 
 DFD .sg                  1.56:  Mud Density 
 MDMN.sg                  1.56:  Dens Mud Min 
 MDMX.sg                  1.56:  Dens Mud Max 
 MOIL.                      70:  Run Mud Oil % 
 MOWR.                   70:30:  Run Mud OWR 
 MSND.                     0.2:  Run Mud Sand % 
 MSOL.                    23.3:  Run Mud Solids% 
 DFV .spqt               78.00:  Mud Viscosity 
 MWOD.in                  6.75:  MWD Tool OD 
 MWSI.                      No:  Serv Intrp, MWD 
 OTIM.hr                218.30:  Time Operating 
 PCON.           Look Like New:  Pad Condition 
 PMAX.psia            11015.30:  Press Op, Max 
 PV  .cP                 38.00:  Mud PV 
 RUN .                     300:  Run Number 
 ROPA.m/hr               15.00:  ROP Avg 
 ROPN.m/hr                9.00:  ROP Min 
 ROPX.m/hr               17.00:  ROP Max 
 RPMA.rpm               120.00:  RPM Surface Avg 
 RPMN.rpm                90.00:  RPM Surface Min 
 RPMX.rpm               140.00:  RPM Surface Max 
 RRUN.                     300:  Rig Run Number 
 RTIM.hr                 31.53:  Time Reaming 
 SAZI.deg               331.64:  Azm, Start 
 SDEP.m                4127.00:  Start Depth 
 SIDD.                      No:  Serv Intrp, DD 
 SINC.deg                48.43:  Inc, Start 
 SPPA.psig             5830.00:  SPP Avg 
 SPPN.psig             5600.00:  SPP Min 
 SPPX.psig             5900.00:  SPP Max 
 STIM.      21.00.00 20-Aug-21:  Start Time 
 SVCS.                 DD, MWD:  Services 
 SVER.                    9.20:  Sperry Version 
 TDAT.m                 957.50:  Tot Depth Attmp 
 TDDF.                      No:  Trip for DD 
 TDLG.m                 957.50:  Tot Depth Loggd 
 TFF .                      No:  Trip for Fail 
 TQAA.f-kp               15.00:  Torque Abs Avg 
 TQAN.f-kp               12.00:  Torque Abs Min 
 TQAX.f-kp               19.00:  Torque Abs Max 
 TRRT.°/30m              -3.40:  Turn Rotating 
 MRT .                  EWR-M5:  Maximum Recorded Temperature 
 TTMX.degC              100.00:  Max Tool Temp 
 VS01.                90639251:  Virtual Str1 SN 
 VS02.                90634715:  Virtual Str2 SN 
 VS03.                90652479:  Virtual Str3 SN 
 VS04.                90642262:  Virtual Str4 SN 
 WBMN.klb                 0.00:  WOB Min 
 WITN.           Murad Guliyev:  Customer Rep 
 WITN.          Yashar Gaziyev:  Customer Rep 2 
 WOBA.klb                 9.00:  WOB Avg 
 WOBX.klb                12.00:  WOB Max 
 YP  .lhf2               30.00:  Yield Point 
~Curve Information Block
#MNEM.UNIT                 API CODE     Curve Description
#---------               -----------    ---------------------------
 TIME.HHMMSS            00 000 000 000:  GT Time & Date
 GTDEPTH.m              00 000 000 000:  GT Depth
 GTPQH.psia             00 000 000 000:  GT HR Quartz Pressure
 GTTQ.degC              00 000 000 000:  GT Quartz Temperature
 GTTN.NONE              00 000 000 000:  GT Test Number
 GTET.sec               00 000 000 000:  GT Elapsed Test Time
 GTTVD.m                00 000 000 000:  GT True Vertical Depth
#Other Information
#
#WARRANTY: Halliburton will use its best efforts to furnish customers with 
#accurate information and interpretations that are part of, and incident to, the services 
#provided.  However, Halliburton cannot and does not warrant the accuracy 
#or correctness of such information and interpretations.  Under no circumstances should any 
#such information or interpretation be relied upon as the sole basis for any drilling, 
#completion, production, or financial decision or any procedure involving any risk to the 
#safety of any drilling venture, drilling rig or its crew or any other third party.  The 
#Customer has full responsibility for all drilling, completion and production operation.  
#Halliburton makes no representations or warranties, either expressed or 
#implied, including, but not limited to, the implied warranties of merchantability or fitness 
#for a particular purpose, with respect to the services rendered.  In no event will 
#Halliburton be liable for failure to obtain any particular results or for 
#any damages, including, but not limited to, indirect, special or consequential damages, 
#resulting from the use of any information or interpretation provided by Halliburton.
#
~A           TIME           GTDEPTH  GTPQH  GTTQ  GTTN  GTET   GTTVD  
# ...
   09:31:25.419.27-Aug-2021 4964.50 5198.23 86.31 7.00 368.15 3307.39
   09:31:25.619.27-Aug-2021 4964.50 5198.23 86.31 7.00 368.35 3307.39
   09:31:25.819.27-Aug-2021 4964.50 5198.23 86.31 7.00 368.55 3307.39
   09:31:26.019.27-Aug-2021 4964.50 5198.23 86.31 7.00 368.75 3307.39
   09:31:26.219.27-Aug-2021 4964.50 5198.22 86.31 7.00 368.95 3307.39
   09:31:26.419.27-Aug-2021 4964.50 5198.23 86.31 7.00 369.15 3307.39
   09:31:26.619.27-Aug-2021 4964.50 5198.23 86.31 7.00 369.35 3307.39
   09:31:26.819.27-Aug-2021 4964.50 5198.23 86.31 7.00 369.55 3307.39
   09:31:27.019.27-Aug-2021 4964.50 5198.23 86.31 7.00 369.75 3307.39
   09:31:27.219.27-Aug-2021 4964.50 5198.22 86.31 7.00 369.95 3307.39
   09:31:27.419.27-Aug-2021 4964.50 5198.23 86.31 7.00 370.15 3307.39
   09:31:27.619.27-Aug-2021 4964.50 5198.23 86.31 7.00 370.35 3307.39
   09:31:27.820.27-Aug-2021 4964.50 5198.24 86.31 7.00 370.55 3307.39
   09:31:28.020.27-Aug-2021 4964.50 5198.23 86.31 7.00 370.75 3307.39
   09:31:28.220.27-Aug-2021 4964.50 5198.22 86.31 7.00 370.95 3307.39
   09:31:28.420.27-Aug-2021 4964.50 5198.22 86.31 7.00 371.15 3307.39
   09:31:28.620.27-Aug-2021 4964.50 5198.22 86.31 7.00 371.35 3307.39
   09:31:28.820.27-Aug-2021 4964.50 5198.25 86.31 7.00 371.55 3307.39
   09:31:29.020.27-Aug-2021 4964.50 5198.23 86.31 7.00 371.75 3307.39
   09:31:29.220.27-Aug-2021 4964.50 5198.23 86.30 7.00 371.95 3307.39
   09:31:29.420.27-Aug-2021 4964.50 5198.22 86.31 7.00 372.15 3307.39
   09:31:29.620.27-Aug-2021 4964.50 5198.22 86.31 7.00 372.35 3307.39
   09:31:29.820.27-Aug-2021 4964.50 5198.23 86.30 7.00 372.55 3307.39
   09:31:30.020.27-Aug-2021 4964.50 5198.25 86.30 7.00 372.75 3307.39
   09:31:30.221.27-Aug-2021 4964.50 5198.23 86.30 7.00 372.95 3307.39
   09:31:30.421.27-Aug-2021 4964.50 5198.24 86.30 7.00 373.15 3307.39
   09:31:30.621.27-Aug-2021 4964.50 5198.24 86.30 7.00 373.36 3307.39
   09:31:30.821.27-Aug-2021 4964.50 5198.23 86.30 7.00 373.56 3307.39
   09:31:31.021.27-Aug-2021 4964.50 5198.25 86.30 7.00 373.76 3307.39
   09:31:31.221.27-Aug-2021 4964.50 5204.47 86.30 7.00 373.96 3307.39
   09:31:31.421.27-Aug-2021 4964.50 5212.29 86.30 7.00 374.16 3307.39
   09:31:31.621.27-Aug-2021 4964.50 5212.29 86.30 7.00 374.36 3307.39
   09:31:31.821.27-Aug-2021 4964.50 7048.60 86.30 7.00 374.56 3307.39
   09:31:32.021.27-Aug-2021 4964.50 7898.12 86.30 7.00 374.76 3307.39
   09:31:32.221.27-Aug-2021 4964.50 7897.04 86.31 7.00 374.96 3307.39
   09:31:32.421.27-Aug-2021 4964.50 7896.89 86.31 7.00 375.16 3307.39
   09:31:32.622.27-Aug-2021 4964.50 7896.89 86.31 7.00 375.36 3307.39
   09:31:32.822.27-Aug-2021 4964.50 7897.73 86.31 7.00 375.56 3307.39
   09:31:33.022.27-Aug-2021 4964.50 7898.53 86.31 7.00 375.76 3307.39
   09:31:33.222.27-Aug-2021 4964.50 7899.10 86.31 7.00 375.96 3307.39
   09:31:33.422.27-Aug-2021 4964.50 7899.49 86.31 7.00 376.16 3307.39
   09:31:33.622.27-Aug-2021 4964.50 7899.49 86.31 7.00 376.36 3307.39
   09:31:33.822.27-Aug-2021 4964.50 7899.54 86.31 7.00 376.56 3307.39
   09:31:34.022.27-Aug-2021 4964.50 7899.71 86.32 7.00 376.76 3307.39
   09:31:34.222.27-Aug-2021 4964.50 7902.94 86.32 7.00 376.96 3307.39
   09:31:34.422.27-Aug-2021 4964.50 7901.94 86.32 7.00 377.16 3307.39
   09:31:34.622.27-Aug-2021 4964.50 7901.94 86.32 7.00 377.36 3307.39
   09:31:34.822.27-Aug-2021 4964.50 7901.48 86.32 7.00 377.56 3307.39
   09:31:35.023.27-Aug-2021 4964.50 7901.47 86.33 7.00 377.76 3307.39
   09:31:35.223.27-Aug-2021 4964.50 7901.52 86.33 7.00 377.96 3307.39
   09:31:35.423.27-Aug-2021 4964.50 7901.17 86.33 7.00 378.16 3307.39
   09:31:35.623.27-Aug-2021 4964.50 7901.17 86.33 7.00 378.36 3307.39
   09:31:35.823.27-Aug-2021 4964.50 7902.46 86.34 7.00 378.56 3307.39
   09:31:36.023.27-Aug-2021 4964.50 7903.11 86.34 7.00 378.76 3307.39
   09:31:36.223.27-Aug-2021 4964.50 7903.69 86.34 7.00 378.96 3307.39
   09:31:36.423.27-Aug-2021 4964.50 7903.69 86.34 7.00 379.16 3307.39
   09:31:36.623.27-Aug-2021 4964.50 7903.69 86.34 7.00 379.36 3307.39
   09:31:36.823.27-Aug-2021 4964.50 7903.46 86.34 7.00 379.56 3307.39
   09:31:37.023.27-Aug-2021 4964.50 7903.43 86.35 7.00 379.76 3307.39
   09:31:37.223.27-Aug-2021 4964.50 7909.28 86.35 7.00 379.96 3307.39
   09:31:37.424.27-Aug-2021 4964.50 7902.75 86.35 7.00 380.16 3307.39
   09:31:37.624.27-Aug-2021 4964.50 7902.75 86.35 7.00 380.36 3307.39
   09:31:37.824.27-Aug-2021 4964.50 7904.11 86.35 7.00 380.56 3307.39
   09:31:38.024.27-Aug-2021 4964.50 7905.92 86.35 7.00 380.76 3307.39
   09:31:38.224.27-Aug-2021 4964.50 7905.20 86.36 7.00 380.96 3307.39
   09:31:38.424.27-Aug-2021 4964.50 7905.85 86.36 7.00 381.16 3307.39
   09:31:38.624.27-Aug-2021 4964.50 7905.85 86.36 7.00 381.36 3307.39
   09:31:38.824.27-Aug-2021 4964.50 7903.47 86.36 7.00 381.56 3307.39
   09:31:39.024.27-Aug-2021 4964.50 7903.56 86.36 7.00 381.76 3307.39
   09:31:39.224.27-Aug-2021 4964.50 7906.30 86.36 7.00 381.96 3307.39
   09:31:39.424.27-Aug-2021 4964.50 7906.12 86.36 7.00 382.16 3307.39
   09:31:39.624.27-Aug-2021 4964.50 7906.12 86.36 7.00 382.36 3307.39
   09:31:39.825.27-Aug-2021 4964.50 7905.16 86.36 7.00 382.56 3307.39
   09:31:40.025.27-Aug-2021 4964.50 7904.85 86.36 7.00 382.76 3307.39
   09:31:40.225.27-Aug-2021 4964.50 7908.33 86.37 7.00 382.96 3307.39
   09:31:40.425.27-Aug-2021 4964.50 7907.02 86.37 7.00 383.16 3307.39
   09:31:40.625.27-Aug-2021 4964.50 7907.02 86.37 7.00 383.36 3307.39
   09:31:40.825.27-Aug-2021 4964.50 7904.12 86.37 7.00 383.56 3307.39
   09:31:41.025.27-Aug-2021 4964.50 7904.04 86.37 7.00 383.76 3307.39
   09:31:41.225.27-Aug-2021 4964.50 7904.30 86.37 7.00 383.96 3307.39
   09:31:41.425.27-Aug-2021 4964.50 7904.44 86.37 7.00 384.16 3307.39
   09:31:41.625.27-Aug-2021 4964.50 7904.44 86.37 7.00 384.36 3307.39
   09:31:41.825.27-Aug-2021 4964.50 7904.30 86.37 7.00 384.56 3307.39
   09:31:42.025.27-Aug-2021 4964.50 7904.37 86.37 7.00 384.76 3307.39
   09:31:42.226.27-Aug-2021 4964.50 7904.96 86.37 7.00 384.96 3307.39
   09:31:42.426.27-Aug-2021 4964.50 7905.37 86.37 7.00 385.16 3307.39
   09:31:42.626.27-Aug-2021 4964.50 7905.37 86.37 7.00 385.36 3307.39
   09:31:42.826.27-Aug-2021 4964.50 7905.41 86.37 7.00 385.56 3307.39
   09:31:43.026.27-Aug-2021 4964.50 7905.18 86.37 7.00 385.76 3307.39
   09:31:43.226.27-Aug-2021 4964.50 7904.80 86.37 7.00 385.96 3307.39
   09:31:43.426.27-Aug-2021 4964.50 7909.88 86.37 7.00 386.16 3307.39
   09:31:43.626.27-Aug-2021 4964.50 7909.88 86.37 7.00 386.36 3307.39
   09:31:43.826.27-Aug-2021 4964.50 7905.56 86.37 7.00 386.56 3307.39
   09:31:44.026.27-Aug-2021 4964.50 7904.78 86.37 7.00 386.76 3307.39
   09:31:44.226.27-Aug-2021 4964.50 7904.50 86.37 7.00 386.96 3307.39
   09:31:44.426.27-Aug-2021 4964.50 7904.55 86.38 7.00 387.16 3307.39
   09:31:44.627.27-Aug-2021 4964.50 7904.55 86.38 7.00 387.36 3307.39
   09:31:44.827.27-Aug-2021 4964.50 7904.55 86.38 7.00 387.56 3307.39
   09:31:45.027.27-Aug-2021 4964.50 7904.00 86.38 7.00 387.76 3307.39
   09:31:45.227.27-Aug-2021 4964.50 7904.34 86.38 7.00 387.96 3307.39
   09:31:45.427.27-Aug-2021 4964.50 7905.04 86.38 7.00 388.16 3307.39
   09:31:45.627.27-Aug-2021 4964.50 7905.04 86.38 7.00 388.36 3307.39
   09:31:45.827.27-Aug-2021 4964.50 7905.63 86.38 7.00 388.56 3307.39
   09:31:46.027.27-Aug-2021 4964.50 7905.54 86.38 7.00 388.76 3307.39
   09:31:46.227.27-Aug-2021 4964.50 7905.36 86.38 7.00 388.96 3307.39
   09:31:46.427.27-Aug-2021 4964.50 7905.21 86.38 7.00 389.16 3307.39
   09:31:46.627.27-Aug-2021 4964.50 7905.21 86.38 7.00 389.36 3307.39
   09:31:46.827.27-Aug-2021 4964.50 7910.21 86.38 7.00 389.56 3307.39
   09:31:47.028.27-Aug-2021 4964.50 7904.98 86.38 7.00 389.76 3307.39
   09:31:47.228.27-Aug-2021 4964.50 7905.37 86.38 7.00 389.96 3307.39
   09:31:47.428.27-Aug-2021 4964.50 7904.62 86.38 7.00 390.16 3307.39
   09:31:47.628.27-Aug-2021 4964.50 7904.62 86.38 7.00 390.36 3307.39
   09:31:47.828.27-Aug-2021 4964.50 7904.47 86.38 7.00 390.56 3307.39
   09:31:48.028.27-Aug-2021 4964.50 7906.34 86.38 7.00 390.76 3307.39
   09:31:48.228.27-Aug-2021 4964.50 7905.45 86.38 7.00 390.96 3307.39
