~Version Information
 VERS.                  2.0:   CWLS log ASCII Standard -VERSION 2.0
 WRAP.                   NO:   One line per depth step
~Well Information Block
#MNEM.UNIT     VALUE/NAME     DESCRIPTION
#---------     -----------    ---------------------------
 STRT.S             16:35:30 27-Aug-21: START TIME 16:35:30 27-Aug-21
 STOP.S             16:42:43 27-Aug-21: STOP TIME  16:42:43 27-Aug-21
 STEP.S                   0.00: STEP TIME
 NULL.                 -999.25: NULL VALUE
 DFWT.                        :  DIST FWL TEXT
 DFST.                        :  DIST FSL TEXT
 DMF .             Drill Floor:  DRILL MEAS FROM
 STIM.      20.00.00 17-Aug-21:  START TIME
 DATE.      19.00.00 29-Aug-21:  END TIME
 SPUD.               15-Aug-21:  SPUD DATE
 NREF.                    Grid:  NORTH REFERENCE
 HPTY.       Minimum Curvature:  HOLE POS TYPE
 DMOD.             Drill Model:  DRILL MOD DESC
 SVYD.                  Survey:  SURVEY DESC
 ILTD.               Lithology:  INTERP LTH DESC
 FTOP.          Formation Tops:  FORM TOPS DESC
 RIG .              East Azeri:  RIG NAME
 PDAT.          Mean Sea Level:  PERMANENT DATUM
 FLD .                     ACG:  FIELD NAME
 SON .        AZ-XX-0907180857:  JOB NUMBER
 CTRY.              Azerbaijan:  COUNTRY NAME
 WELL.                    D23x:  WELL NAME
 SRVC.     Turan Drilling and Engineering:  CONTRACTOR
 COMP.     BP Exploration (Caspian Sea) Ltd.:  COMPANY
 UWI .            /AZE00000214:  UNIQUE WELL IDENTIFIER
 API .            /AZE00000214:  API NUMBER
 MDS .        Operator Entered:  MAG DATA SOURCE
 BASE.              Azerbaijan:  LOGGING EQUIPMENT BASE LOCATION
 REGN.                   EESSA:  REGION
 PROV.                    Baku:  PROVINCE
 STAT.                    Baku:  STATE NAME
 MWDS.                    Baku:  MWD SHOP
 DOE .                     N/A:  DOE NUMBER
 DCON.         Sperry Drilling:  DIRECTNL CONTR
 UNIT.                     N/A:  LOGGING EQUIPMENT ID
 WTYP.                Deviated:  WELL TYPE
 CNTY.                        :  COUNTY
 LOC .                        :  LOCATION
 LMF .             Drill Floor:  LOG MEASURED FROM
 TVDS.m                  43.60:  TVDSS CORRECTN
 LATI.deg                40.02:  LATITUDE
 LONG.deg                51.45:  LONGITUDE
 WHNS.m                  -7.04:  WELL HEAD N/S
 WHEW.m                  -0.67:  WELL HEAD E/W
 UTMX.m              538762.90:  UTM X
 UTMY.m             4431871.34:  UTM Y
 DFWL.m                   0.00:  DISTANCE FWL
 DFSL.m                   0.00:  DISTANCE FSL
 SDEP.m                4127.00:  START DEPTH
 TDD .m                5084.50:  TOTAL DEPTH (DRILLER)
 VSDR.deg               140.47:  VERT SEC DIRECT
 GVFD.g                   1.00:  GRAVITY FIELD
 MFLD.nT              50362.00:  MAGNETIC FIELD
 MDIP.deg                59.48:  MAGNETIC DIP
 MDEC.deg                 6.47:  MAGNETIC DECL
 GRDC.deg                 0.31:  GRID CORRECTION
 AZTC.deg                 6.16:  AZM TOTAL CORR
 EPD .m                   0.00:  ELEVATION
 EGL .m                   0.00:  GROUND ELEVATION
 WDMS.m                 151.80:  WD ELEV
 APD .m                  43.60:  DEPTH ABOVE PD
 DEP .m                4092.57:  DEPTH
 AGAP.m                  43.60:  AIR GAP
 VSEW.m                  -0.67:  VERT SEC E/W
 VSNS.m                  -7.04:  VERT SEC N/S
 EKB .m                  43.60:  KB ELEVATION
 EDF .m                  43.60:  DF ELEVATION
 TDL .m                 957.50:  TOTAL DEPTH (LOGGER)
 VSC .                       0:  VS TO CLOSURE
 MAGU.                 1851413:  MAGUTM CHECKSUM
~Parameter Information Block
#MNEM.UNIT       Value        Description
#---------     -----------    ---------------------------
 AV  .mps                 1.50:  Ann Velocity 
 AVMX.mps                 2.00:  Max Ann Veloc 
 AZIF.deg               184.66:  Azm, Final 
 BHAT.        Rotary Steerable:  BHA Type 
 BREV.rev               300.00:  Rev Bit Total 
 BROT.°/30m              -0.50:  Build Rotating 
 BS  .in                  8.50:  Bit Size 
 BSZ .in                  8.50:  Bit Size 
 BTPL.psig              370.00:  Bit Press Loss 
 CABU.                      No:  Customer Abuse 
 CGEO.      Behruz Shahbaliyev:  Customer Geo 
 COMM.                     äU:  Run Comments 1 
 TCS .hr                140.08:  Time Ciculation Ended 
 CV  .mps                 3.00:  Crit Velocity 
 CVMX.mps                 3.20:  Max Crit Veloc 
 DD1 .            Musa Ahmadov:  Direct Drillr 1 
 DD2 .           Hamid Ahmadov:  Direct Drillr 2 
 DDSV.               Geo-Pilot:  DD Service 
 DEFF.%                  98.40:  % Det Eff 
 DLRX.°/30m               3.40:  Dogleg Rot Max 
 DLSO.°/30m               1.45:  Dogleg Oriented 
 DLSX.°/30m               3.40:  Dogleg Str Max 
 DRET.      18.40.00 29-Aug-21:  Drill End Time 
 DRST.      21.00.00 20-Aug-21:  Drill Start Tim 
 DTIM.hr                 69.47:  Time Drilling 
 EDEP.m                5084.50:  End Depth 
 ENG1.      Artemiy Matviyanov:  Engineer 1 
 ENG2.         Almaz Almadatov:  Engineer 2 
 ETIM.      18.40.00 29-Aug-21:  End Time 
 FLOI.gpm               500.00:  Flow In 
 FLON.gpm               400.00:  Flow In Min 
 FLOS.cptm                0.00:  Fluid Loss 
 FLOX.gpm               500.00:  Flow In Max 
 DFT .        Mineral Oil Base:  Mud Type 
 HFLO.                      No:  High Flow 
 HPRE.                      No:  High Pressure 
 HTEM.                      No:  High Temp 
 HYDO.m                   1.80:  Hydro Offset 
 IFIN.deg                25.62:  Inc, Final 
 IMAX.deg                48.69:  Inc Max 
 IMIN.deg                24.01:  Inc Min 
 IMND.m                4962.57:  Inc Min Depth 
 IMXD.m                4119.01:  Inc Max Depth 
 JARR.                      No:  Jarring 
 LETM.      18.40.00 29-Aug-21:  Log End Time 
 LOST.hr                     0:  Lost Rig Time 
 LSTM.      21.00.00 20-Aug-21:  Log Start Time 
 MDCL.ppm             41500.00:  Mud Chlorides 
 MDES.     Inversion Oil/Synthetic:  Mud Desc 
 DFD .sg                  1.56:  Mud Density 
 MDMN.sg                  1.56:  Dens Mud Min 
 MDMX.sg                  1.56:  Dens Mud Max 
 MOIL.                      70:  Run Mud Oil % 
 MOWR.                   70:30:  Run Mud OWR 
 MSND.                     0.2:  Run Mud Sand % 
 MSOL.                    23.3:  Run Mud Solids% 
 DFV .spqt               78.00:  Mud Viscosity 
 MWOD.in                  6.75:  MWD Tool OD 
 MWSI.                      No:  Serv Intrp, MWD 
 OTIM.hr                218.30:  Time Operating 
 PCON.           Look Like New:  Pad Condition 
 PMAX.psia            11015.30:  Press Op, Max 
 PV  .cP                 38.00:  Mud PV 
 RUN .                     300:  Run Number 
 ROPA.m/hr               15.00:  ROP Avg 
 ROPN.m/hr                9.00:  ROP Min 
 ROPX.m/hr               17.00:  ROP Max 
 RPMA.rpm               120.00:  RPM Surface Avg 
 RPMN.rpm                90.00:  RPM Surface Min 
 RPMX.rpm               140.00:  RPM Surface Max 
 RRUN.                     300:  Rig Run Number 
 RTIM.hr                 31.53:  Time Reaming 
 SAZI.deg               331.64:  Azm, Start 
 SDEP.m                4127.00:  Start Depth 
 SIDD.                      No:  Serv Intrp, DD 
 SINC.deg                48.43:  Inc, Start 
 SPPA.psig             5830.00:  SPP Avg 
 SPPN.psig             5600.00:  SPP Min 
 SPPX.psig             5900.00:  SPP Max 
 STIM.      21.00.00 20-Aug-21:  Start Time 
 SVCS.                 DD, MWD:  Services 
 SVER.                    9.20:  Sperry Version 
 TDAT.m                 957.50:  Tot Depth Attmp 
 TDDF.                      No:  Trip for DD 
 TDLG.m                 957.50:  Tot Depth Loggd 
 TFF .                      No:  Trip for Fail 
 TQAA.f-kp               15.00:  Torque Abs Avg 
 TQAN.f-kp               12.00:  Torque Abs Min 
 TQAX.f-kp               19.00:  Torque Abs Max 
 TRRT.°/30m              -3.40:  Turn Rotating 
 MRT .                  EWR-M5:  Maximum Recorded Temperature 
 TTMX.degC              100.00:  Max Tool Temp 
 VS01.                90639251:  Virtual Str1 SN 
 VS02.                90634715:  Virtual Str2 SN 
 VS03.                90652479:  Virtual Str3 SN 
 VS04.                90642262:  Virtual Str4 SN 
 WBMN.klb                 0.00:  WOB Min 
 WITN.           Murad Guliyev:  Customer Rep 
 WITN.          Yashar Gaziyev:  Customer Rep 2 
 WOBA.klb                 9.00:  WOB Avg 
 WOBX.klb                12.00:  WOB Max 
 YP  .lhf2               30.00:  Yield Point 
~Curve Information Block
#MNEM.UNIT                 API CODE     Curve Description
#---------               -----------    ---------------------------
 TIME.HHMMSS            00 000 000 000:  GT Time & Date
 GTDEPTH.m              00 000 000 000:  GT Depth
 GTPQH.psia             00 000 000 000:  GT HR Quartz Pressure
 GTTQ.degC              00 000 000 000:  GT Quartz Temperature
 GTTN.NONE              00 000 000 000:  GT Test Number
 GTET.sec               00 000 000 000:  GT Elapsed Test Time
 GTTVD.m                00 000 000 000:  GT True Vertical Depth
#Other Information
#
#WARRANTY: Halliburton will use its best efforts to furnish customers with 
#accurate information and interpretations that are part of, and incident to, the services 
#provided.  However, Halliburton cannot and does not warrant the accuracy 
#or correctness of such information and interpretations.  Under no circumstances should any 
#such information or interpretation be relied upon as the sole basis for any drilling, 
#completion, production, or financial decision or any procedure involving any risk to the 
#safety of any drilling venture, drilling rig or its crew or any other third party.  The 
#Customer has full responsibility for all drilling, completion and production operation.  
#Halliburton makes no representations or warranties, either expressed or 
#implied, including, but not limited to, the implied warranties of merchantability or fitness 
#for a particular purpose, with respect to the services rendered.  In no event will 
#Halliburton be liable for failure to obtain any particular results or for 
#any damages, including, but not limited to, indirect, special or consequential damages, 
#resulting from the use of any information or interpretation provided by Halliburton.
#
~A           TIME           GTDEPTH  GTPQH  GTTQ  GTTN   GTET   GTTVD  
   16:35:30.432.27-Aug-2021 4788.00 7480.52 83.26 17.00   0.00 3147.22
   16:35:30.632.27-Aug-2021 4788.00 7480.52 83.26 17.00   0.20 3147.22
   16:35:30.832.27-Aug-2021 4788.00 7476.58 83.26 17.00   0.40 3147.22
   16:35:31.031.27-Aug-2021 4788.00 7478.08 83.26 17.00   0.60 3147.22
   16:35:31.231.27-Aug-2021 4788.00 7476.17 83.26 17.00   0.80 3147.22
   16:35:31.431.27-Aug-2021 4788.00 7479.61 83.26 17.00   1.00 3147.22
   16:35:31.631.27-Aug-2021 4788.00 7479.61 83.26 17.00   1.20 3147.22
   16:35:31.831.27-Aug-2021 4788.00 7475.72 83.26 17.00   1.40 3147.22
   16:35:32.030.27-Aug-2021 4788.00 7477.37 83.26 17.00   1.60 3147.22
   16:35:32.230.27-Aug-2021 4788.00 7475.05 83.26 17.00   1.80 3147.22
   16:35:32.430.27-Aug-2021 4788.00 7481.23 83.26 17.00   2.00 3147.22
   16:35:32.630.27-Aug-2021 4788.00 7481.23 83.26 17.00   2.20 3147.22
   16:35:32.830.27-Aug-2021 4788.00 7475.68 83.26 17.00   2.40 3147.22
   16:35:33.029.27-Aug-2021 4788.00 7477.43 83.26 17.00   2.60 3147.22
   16:35:33.229.27-Aug-2021 4788.00 7479.00 83.26 17.00   2.80 3147.22
   16:35:33.429.27-Aug-2021 4788.00 7477.11 83.26 17.00   3.00 3147.22
   16:35:33.629.27-Aug-2021 4788.00 7477.11 83.26 17.00   3.20 3147.22
   16:35:33.829.27-Aug-2021 4788.00 7477.74 83.26 17.00   3.40 3147.22
   16:35:34.028.27-Aug-2021 4788.00 7478.37 83.26 17.00   3.60 3147.22
   16:35:34.228.27-Aug-2021 4788.00 7477.21 83.26 17.00   3.80 3147.22
   16:35:34.428.27-Aug-2021 4788.00 7481.85 83.26 17.00   4.00 3147.22
   16:35:34.628.27-Aug-2021 4788.00 7481.85 83.26 17.00   4.20 3147.22
   16:35:34.828.27-Aug-2021 4788.00 7478.47 83.26 17.00   4.40 3147.22
   16:35:35.027.27-Aug-2021 4788.00 7479.41 83.26 17.00   4.60 3147.22
   16:35:35.227.27-Aug-2021 4788.00 7478.40 83.26 17.00   4.80 3147.22
   16:35:35.427.27-Aug-2021 4788.00 7479.21 83.26 17.00   5.00 3147.22
   16:35:35.627.27-Aug-2021 4788.00 7479.21 83.26 17.00   5.19 3147.22
   16:35:35.827.27-Aug-2021 4788.00 7479.23 83.26 17.00   5.39 3147.22
   16:35:36.026.27-Aug-2021 4788.00 7480.47 83.26 17.00   5.59 3147.22
   16:35:36.226.27-Aug-2021 4788.00 7480.26 83.26 17.00   5.79 3147.22
   16:35:36.426.27-Aug-2021 4788.00 7480.60 83.26 17.00   5.99 3147.22
   16:35:36.626.27-Aug-2021 4788.00 7480.60 83.26 17.00   6.19 3147.22
   16:35:36.826.27-Aug-2021 4788.00 7480.60 83.26 17.00   6.39 3147.22
   16:35:37.025.27-Aug-2021 4788.00 7481.20 83.26 17.00   6.59 3147.22
   16:35:37.225.27-Aug-2021 4788.00 7481.34 83.26 17.00   6.79 3147.22
   16:35:37.425.27-Aug-2021 4788.00 7481.52 83.26 17.00   6.99 3147.22
   16:35:37.625.27-Aug-2021 4788.00 7481.52 83.26 17.00   7.19 3147.22
   16:35:37.825.27-Aug-2021 4788.00 7481.52 83.26 17.00   7.39 3147.22
   16:35:38.024.27-Aug-2021 4788.00 7484.86 83.26 17.00   7.59 3147.22
   16:35:38.224.27-Aug-2021 4788.00 7483.10 83.26 17.00   7.79 3147.22
   16:35:38.424.27-Aug-2021 4788.00 7482.57 83.26 17.00   7.99 3147.22
   16:35:38.624.27-Aug-2021 4788.00 7482.57 83.26 17.00   8.19 3147.22
   16:35:38.824.27-Aug-2021 4788.00 7483.80 83.26 17.00   8.39 3147.22
   16:35:39.023.27-Aug-2021 4788.00 7483.21 83.26 17.00   8.59 3147.22
   16:35:39.223.27-Aug-2021 4788.00 7483.90 83.26 17.00   8.79 3147.22
   16:35:39.423.27-Aug-2021 4788.00 7483.85 83.26 17.00   8.99 3147.22
   16:35:39.623.27-Aug-2021 4788.00 7483.85 83.26 17.00   9.19 3147.22
   16:35:39.823.27-Aug-2021 4788.00 7484.74 83.26 17.00   9.39 3147.22
   16:35:40.022.27-Aug-2021 4788.00 7484.63 83.26 17.00   9.59 3147.22
   16:35:40.222.27-Aug-2021 4788.00 7484.96 83.26 17.00   9.79 3147.22
   16:35:40.422.27-Aug-2021 4788.00 7484.99 83.26 17.00   9.99 3147.22
   16:35:40.622.27-Aug-2021 4788.00 7484.99 83.26 17.00  10.19 3147.22
   16:35:40.822.27-Aug-2021 4788.00 7485.07 83.26 17.00  10.39 3147.22
   16:35:41.021.27-Aug-2021 4788.00 7485.02 83.26 17.00  10.59 3147.22
   16:35:41.221.27-Aug-2021 4788.00 7487.69 83.26 17.00  10.79 3147.22
   16:35:41.421.27-Aug-2021 4788.00 7485.70 83.26 17.00  10.99 3147.22
   16:35:41.621.27-Aug-2021 4788.00 7485.70 83.26 17.00  11.19 3147.22
   16:35:41.821.27-Aug-2021 4788.00 7485.88 83.26 17.00  11.39 3147.22
   16:35:42.020.27-Aug-2021 4788.00 7486.12 83.26 17.00  11.59 3147.22
   16:35:42.220.27-Aug-2021 4788.00 7485.49 83.26 17.00  11.79 3147.22
   16:35:42.420.27-Aug-2021 4788.00 7488.95 83.26 17.00  11.99 3147.22
   16:35:42.620.27-Aug-2021 4788.00 7488.95 83.26 17.00  12.19 3147.22
   16:35:42.820.27-Aug-2021 4788.00 7486.87 83.26 17.00  12.39 3147.22
   16:35:43.019.27-Aug-2021 4788.00 7487.88 83.26 17.00  12.59 3147.22
   16:35:43.219.27-Aug-2021 4788.00 7487.96 83.26 17.00  12.79 3147.22
   16:35:43.419.27-Aug-2021 4788.00 7487.56 83.26 17.00  12.99 3147.22
   16:35:43.619.27-Aug-2021 4788.00 7487.56 83.26 17.00  13.19 3147.22
   16:35:43.819.27-Aug-2021 4788.00 7485.54 83.25 17.00  13.39 3147.22
   16:35:44.018.27-Aug-2021 4788.00 7488.83 83.26 17.00  13.59 3147.22
   16:35:44.218.27-Aug-2021 4788.00 7489.74 83.25 17.00  13.79 3147.22
   16:35:44.418.27-Aug-2021 4788.00 7488.91 83.25 17.00  13.99 3147.22
   16:35:44.618.27-Aug-2021 4788.00 7488.91 83.25 17.00  14.19 3147.22
   16:35:44.818.27-Aug-2021 4788.00 7492.21 83.25 17.00  14.39 3147.22
   16:35:45.018.27-Aug-2021 4788.00 7489.47 83.25 17.00  14.59 3147.22
   16:35:45.217.27-Aug-2021 4788.00 7490.31 83.25 17.00  14.79 3147.22
   16:35:45.417.27-Aug-2021 4788.00 7493.36 83.25 17.00  14.99 3147.22
   16:35:45.617.27-Aug-2021 4788.00 7493.36 83.25 17.00  15.18 3147.22
   16:35:45.817.27-Aug-2021 4788.00 7490.67 83.25 17.00  15.38 3147.22
   16:35:46.017.27-Aug-2021 4788.00 7490.74 83.25 17.00  15.58 3147.22
   16:35:46.216.27-Aug-2021 4788.00 7490.95 83.25 17.00  15.78 3147.22
   16:35:46.416.27-Aug-2021 4788.00 7490.86 83.25 17.00  15.98 3147.22
   16:35:46.616.27-Aug-2021 4788.00 7490.86 83.25 17.00  16.18 3147.22
   16:35:46.816.27-Aug-2021 4788.00 7491.26 83.25 17.00  16.38 3147.22
   16:35:47.016.27-Aug-2021 4788.00 7491.93 83.25 17.00  16.58 3147.22
   16:35:47.215.27-Aug-2021 4788.00 7492.65 83.25 17.00  16.78 3147.22
   16:35:47.415.27-Aug-2021 4788.00 7491.55 83.25 17.00  16.98 3147.22
   16:35:47.615.27-Aug-2021 4788.00 7491.55 83.25 17.00  17.18 3147.22
   16:35:47.815.27-Aug-2021 4788.00 7492.06 83.25 17.00  17.38 3147.22
   16:35:48.015.27-Aug-2021 4788.00 7492.35 83.25 17.00  17.58 3147.22
   16:35:48.214.27-Aug-2021 4788.00 7493.10 83.25 17.00  17.78 3147.22
   16:35:48.414.27-Aug-2021 4788.00 7492.76 83.25 17.00  17.98 3147.22
   16:35:48.614.27-Aug-2021 4788.00 7492.76 83.25 17.00  18.18 3147.22
   16:35:48.814.27-Aug-2021 4788.00 7493.13 83.25 17.00  18.38 3147.22
   16:35:49.014.27-Aug-2021 4788.00 7493.18 83.25 17.00  18.58 3147.22
   16:35:49.213.27-Aug-2021 4788.00 7493.44 83.25 17.00  18.78 3147.22
   16:35:49.413.27-Aug-2021 4788.00 7493.46 83.25 17.00  18.98 3147.22
   16:35:49.613.27-Aug-2021 4788.00 7493.46 83.25 17.00  19.18 3147.22
   16:35:49.813.27-Aug-2021 4788.00 7497.04 83.25 17.00  19.38 3147.22
   16:35:50.013.27-Aug-2021 4788.00 7493.89 83.25 17.00  19.58 3147.22
   16:35:50.212.27-Aug-2021 4788.00 7494.40 83.25 17.00  19.78 3147.22
   16:35:50.412.27-Aug-2021 4788.00 7495.23 83.25 17.00  19.98 3147.22
   16:35:50.612.27-Aug-2021 4788.00 7495.23 83.25 17.00  20.18 3147.22
   16:35:50.812.27-Aug-2021 4788.00 7495.12 83.25 17.00  20.38 3147.22
   16:35:51.012.27-Aug-2021 4788.00 7494.72 83.25 17.00  20.58 3147.22
   16:35:51.211.27-Aug-2021 4788.00 7495.25 83.25 17.00  20.78 3147.22
   16:35:51.411.27-Aug-2021 4788.00 7496.09 83.25 17.00  20.98 3147.22
   16:35:51.611.27-Aug-2021 4788.00 7496.09 83.25 17.00  21.18 3147.22
   16:35:51.811.27-Aug-2021 4788.00 7496.15 83.25 17.00  21.38 3147.22
   16:35:52.011.27-Aug-2021 4788.00 7496.32 83.25 17.00  21.58 3147.22
   16:35:52.210.27-Aug-2021 4788.00 7496.43 83.25 17.00  21.78 3147.22
   16:35:52.410.27-Aug-2021 4788.00 7496.61 83.25 17.00  21.98 3147.22
   16:35:52.610.27-Aug-2021 4788.00 7496.61 83.25 17.00  22.18 3147.22
   16:35:52.810.27-Aug-2021 4788.00 7496.79 83.25 17.00  22.38 3147.22
