~Version Information
 VERS.                  2.0:   CWLS log ASCII Standard -VERSION 2.0
 WRAP.                   NO:   One line per depth step
~Well Information Block
#MNEM.UNIT     VALUE/NAME     DESCRIPTION
#---------     -----------    ---------------------------
 STRT.S             19:17:17 27-Aug-21: START TIME 19:17:17 27-Aug-21
 STOP.S             19:24:30 27-Aug-21: STOP TIME  19:24:30 27-Aug-21
 STEP.S                   0.00: STEP TIME
 NULL.                 -999.25: NULL VALUE
 DFWT.                        :  DIST FWL TEXT
 DFST.                        :  DIST FSL TEXT
 DMF .             Drill Floor:  DRILL MEAS FROM
 STIM.      20.00.00 17-Aug-21:  START TIME
 DATE.      19.00.00 29-Aug-21:  END TIME
 SPUD.               15-Aug-21:  SPUD DATE
 NREF.                    Grid:  NORTH REFERENCE
 HPTY.       Minimum Curvature:  HOLE POS TYPE
 DMOD.             Drill Model:  DRILL MOD DESC
 SVYD.                  Survey:  SURVEY DESC
 ILTD.               Lithology:  INTERP LTH DESC
 FTOP.          Formation Tops:  FORM TOPS DESC
 RIG .              East Azeri:  RIG NAME
 PDAT.          Mean Sea Level:  PERMANENT DATUM
 FLD .                     ACG:  FIELD NAME
 SON .        AZ-XX-0907180857:  JOB NUMBER
 CTRY.              Azerbaijan:  COUNTRY NAME
 WELL.                    D23x:  WELL NAME
 SRVC.     Turan Drilling and Engineering:  CONTRACTOR
 COMP.     BP Exploration (Caspian Sea) Ltd.:  COMPANY
 UWI .            /AZE00000214:  UNIQUE WELL IDENTIFIER
 API .            /AZE00000214:  API NUMBER
 MDS .        Operator Entered:  MAG DATA SOURCE
 BASE.              Azerbaijan:  LOGGING EQUIPMENT BASE LOCATION
 REGN.                   EESSA:  REGION
 PROV.                    Baku:  PROVINCE
 STAT.                    Baku:  STATE NAME
 MWDS.                    Baku:  MWD SHOP
 DOE .                     N/A:  DOE NUMBER
 DCON.         Sperry Drilling:  DIRECTNL CONTR
 UNIT.                     N/A:  LOGGING EQUIPMENT ID
 WTYP.                Deviated:  WELL TYPE
 CNTY.                        :  COUNTY
 LOC .                        :  LOCATION
 LMF .             Drill Floor:  LOG MEASURED FROM
 TVDS.m                  43.60:  TVDSS CORRECTN
 LATI.deg                40.02:  LATITUDE
 LONG.deg                51.45:  LONGITUDE
 WHNS.m                  -7.04:  WELL HEAD N/S
 WHEW.m                  -0.67:  WELL HEAD E/W
 UTMX.m              538762.90:  UTM X
 UTMY.m             4431871.34:  UTM Y
 DFWL.m                   0.00:  DISTANCE FWL
 DFSL.m                   0.00:  DISTANCE FSL
 SDEP.m                4127.00:  START DEPTH
 TDD .m                5084.50:  TOTAL DEPTH (DRILLER)
 VSDR.deg               140.47:  VERT SEC DIRECT
 GVFD.g                   1.00:  GRAVITY FIELD
 MFLD.nT              50362.00:  MAGNETIC FIELD
 MDIP.deg                59.48:  MAGNETIC DIP
 MDEC.deg                 6.47:  MAGNETIC DECL
 GRDC.deg                 0.31:  GRID CORRECTION
 AZTC.deg                 6.16:  AZM TOTAL CORR
 EPD .m                   0.00:  ELEVATION
 EGL .m                   0.00:  GROUND ELEVATION
 WDMS.m                 151.80:  WD ELEV
 APD .m                  43.60:  DEPTH ABOVE PD
 DEP .m                4092.57:  DEPTH
 AGAP.m                  43.60:  AIR GAP
 VSEW.m                  -0.67:  VERT SEC E/W
 VSNS.m                  -7.04:  VERT SEC N/S
 EKB .m                  43.60:  KB ELEVATION
 EDF .m                  43.60:  DF ELEVATION
 TDL .m                 957.50:  TOTAL DEPTH (LOGGER)
 VSC .                       0:  VS TO CLOSURE
 MAGU.                 1851413:  MAGUTM CHECKSUM
~Parameter Information Block
#MNEM.UNIT       Value        Description
#---------     -----------    ---------------------------
 AV  .mps                 1.50:  Ann Velocity 
 AVMX.mps                 2.00:  Max Ann Veloc 
 AZIF.deg               184.66:  Azm, Final 
 BHAT.        Rotary Steerable:  BHA Type 
 BREV.rev               300.00:  Rev Bit Total 
 BROT.°/30m              -0.50:  Build Rotating 
 BS  .in                  8.50:  Bit Size 
 BSZ .in                  8.50:  Bit Size 
 BTPL.psig              370.00:  Bit Press Loss 
 CABU.                      No:  Customer Abuse 
 CGEO.      Behruz Shahbaliyev:  Customer Geo 
 COMM.                     œþQ:  Run Comments 1 
 TCS .hr                140.08:  Time Ciculation Ended 
 CV  .mps                 3.00:  Crit Velocity 
 CVMX.mps                 3.20:  Max Crit Veloc 
 DD1 .            Musa Ahmadov:  Direct Drillr 1 
 DD2 .           Hamid Ahmadov:  Direct Drillr 2 
 DDSV.               Geo-Pilot:  DD Service 
 DEFF.%                  98.40:  % Det Eff 
 DLRX.°/30m               3.40:  Dogleg Rot Max 
 DLSO.°/30m               1.45:  Dogleg Oriented 
 DLSX.°/30m               3.40:  Dogleg Str Max 
 DRET.      18.40.00 29-Aug-21:  Drill End Time 
 DRST.      21.00.00 20-Aug-21:  Drill Start Tim 
 DTIM.hr                 69.47:  Time Drilling 
 EDEP.m                5084.50:  End Depth 
 ENG1.      Artemiy Matviyanov:  Engineer 1 
 ENG2.         Almaz Almadatov:  Engineer 2 
 ETIM.      18.40.00 29-Aug-21:  End Time 
 FLOI.gpm               500.00:  Flow In 
 FLON.gpm               400.00:  Flow In Min 
 FLOS.cptm                0.00:  Fluid Loss 
 FLOX.gpm               500.00:  Flow In Max 
 DFT .        Mineral Oil Base:  Mud Type 
 HFLO.                      No:  High Flow 
 HPRE.                      No:  High Pressure 
 HTEM.                      No:  High Temp 
 HYDO.m                   1.80:  Hydro Offset 
 IFIN.deg                25.62:  Inc, Final 
 IMAX.deg                48.69:  Inc Max 
 IMIN.deg                24.01:  Inc Min 
 IMND.m                4962.57:  Inc Min Depth 
 IMXD.m                4119.01:  Inc Max Depth 
 JARR.                      No:  Jarring 
 LETM.      18.40.00 29-Aug-21:  Log End Time 
 LOST.hr                     0:  Lost Rig Time 
 LSTM.      21.00.00 20-Aug-21:  Log Start Time 
 MDCL.ppm             41500.00:  Mud Chlorides 
 MDES.     Inversion Oil/Synthetic:  Mud Desc 
 DFD .sg                  1.56:  Mud Density 
 MDMN.sg                  1.56:  Dens Mud Min 
 MDMX.sg                  1.56:  Dens Mud Max 
 MOIL.                      70:  Run Mud Oil % 
 MOWR.                   70:30:  Run Mud OWR 
 MSND.                     0.2:  Run Mud Sand % 
 MSOL.                    23.3:  Run Mud Solids% 
 DFV .spqt               78.00:  Mud Viscosity 
 MWOD.in                  6.75:  MWD Tool OD 
 MWSI.                      No:  Serv Intrp, MWD 
 OTIM.hr                218.30:  Time Operating 
 PCON.           Look Like New:  Pad Condition 
 PMAX.psia            11015.30:  Press Op, Max 
 PV  .cP                 38.00:  Mud PV 
 RUN .                     300:  Run Number 
 ROPA.m/hr               15.00:  ROP Avg 
 ROPN.m/hr                9.00:  ROP Min 
 ROPX.m/hr               17.00:  ROP Max 
 RPMA.rpm               120.00:  RPM Surface Avg 
 RPMN.rpm                90.00:  RPM Surface Min 
 RPMX.rpm               140.00:  RPM Surface Max 
 RRUN.                     300:  Rig Run Number 
 RTIM.hr                 31.53:  Time Reaming 
 SAZI.deg               331.64:  Azm, Start 
 SDEP.m                4127.00:  Start Depth 
 SIDD.                      No:  Serv Intrp, DD 
 SINC.deg                48.43:  Inc, Start 
 SPPA.psig             5830.00:  SPP Avg 
 SPPN.psig             5600.00:  SPP Min 
 SPPX.psig             5900.00:  SPP Max 
 STIM.      21.00.00 20-Aug-21:  Start Time 
 SVCS.                 DD, MWD:  Services 
 SVER.                    9.20:  Sperry Version 
 TDAT.m                 957.50:  Tot Depth Attmp 
 TDDF.                      No:  Trip for DD 
 TDLG.m                 957.50:  Tot Depth Loggd 
 TFF .                      No:  Trip for Fail 
 TQAA.f-kp               15.00:  Torque Abs Avg 
 TQAN.f-kp               12.00:  Torque Abs Min 
 TQAX.f-kp               19.00:  Torque Abs Max 
 TRRT.°/30m              -3.40:  Turn Rotating 
 MRT .                  EWR-M5:  Maximum Recorded Temperature 
 TTMX.degC              100.00:  Max Tool Temp 
 VS01.                90639251:  Virtual Str1 SN 
 VS02.                90634715:  Virtual Str2 SN 
 VS03.                90652479:  Virtual Str3 SN 
 VS04.                90642262:  Virtual Str4 SN 
 WBMN.klb                 0.00:  WOB Min 
 WITN.           Murad Guliyev:  Customer Rep 
 WITN.          Yashar Gaziyev:  Customer Rep 2 
 WOBA.klb                 9.00:  WOB Avg 
 WOBX.klb                12.00:  WOB Max 
 YP  .lhf2               30.00:  Yield Point 
~Curve Information Block
#MNEM.UNIT                 API CODE     Curve Description
#---------               -----------    ---------------------------
 TIME.HHMMSS            00 000 000 000:  GT Time & Date
 GTDEPTH.m              00 000 000 000:  GT Depth
 GTPQH.psia             00 000 000 000:  GT HR Quartz Pressure
 GTTQ.degC              00 000 000 000:  GT Quartz Temperature
 GTTN.NONE              00 000 000 000:  GT Test Number
 GTET.sec               00 000 000 000:  GT Elapsed Test Time
 GTTVD.m                00 000 000 000:  GT True Vertical Depth
#Other Information
#
#WARRANTY: Halliburton will use its best efforts to furnish customers with 
#accurate information and interpretations that are part of, and incident to, the services 
#provided.  However, Halliburton cannot and does not warrant the accuracy 
#or correctness of such information and interpretations.  Under no circumstances should any 
#such information or interpretation be relied upon as the sole basis for any drilling, 
#completion, production, or financial decision or any procedure involving any risk to the 
#safety of any drilling venture, drilling rig or its crew or any other third party.  The 
#Customer has full responsibility for all drilling, completion and production operation.  
#Halliburton makes no representations or warranties, either expressed or 
#implied, including, but not limited to, the implied warranties of merchantability or fitness 
#for a particular purpose, with respect to the services rendered.  In no event will 
#Halliburton be liable for failure to obtain any particular results or for 
#any damages, including, but not limited to, indirect, special or consequential damages, 
#resulting from the use of any information or interpretation provided by Halliburton.
#
~A           TIME           GTDEPTH  GTPQH  GTTQ  GTTN   GTET   GTTVD  
# ...
   19:21:03.000.27-Aug-2021 4687.50 4416.57 82.06 20.00 226.00 3056.27
   19:21:03.200.27-Aug-2021 4687.50 4416.57 82.06 20.00 226.20 3056.27
   19:21:03.400.27-Aug-2021 4687.50 4416.53 82.06 20.00 226.40 3056.27
   19:21:03.600.27-Aug-2021 4687.50 4416.55 82.06 20.00 226.60 3056.27
   19:21:03.800.27-Aug-2021 4687.50 4416.55 82.06 20.00 226.80 3056.27
   19:21:04.000.27-Aug-2021 4687.50 4416.56 82.06 20.00 227.00 3056.27
   19:21:04.200.27-Aug-2021 4687.50 4416.56 82.06 20.00 227.20 3056.27
   19:21:04.400.27-Aug-2021 4687.50 4416.56 82.06 20.00 227.40 3056.27
   19:21:04.600.27-Aug-2021 4687.50 4416.56 82.06 20.00 227.60 3056.27
   19:21:04.800.27-Aug-2021 4687.50 4416.56 82.06 20.00 227.80 3056.27
   19:21:05.000.27-Aug-2021 4687.50 4416.56 82.06 20.00 228.00 3056.27
   19:21:05.200.27-Aug-2021 4687.50 4416.56 82.06 20.00 228.20 3056.27
   19:21:05.400.27-Aug-2021 4687.50 4416.56 82.06 20.00 228.40 3056.27
   19:21:05.600.27-Aug-2021 4687.50 4416.57 82.06 20.00 228.60 3056.27
   19:21:05.800.27-Aug-2021 4687.50 4416.57 82.06 20.00 228.80 3056.27
   19:21:06.000.27-Aug-2021 4687.50 4416.58 82.06 20.00 229.00 3056.27
   19:21:06.200.27-Aug-2021 4687.50 4416.58 82.06 20.00 229.20 3056.27
   19:21:06.400.27-Aug-2021 4687.50 4416.57 82.06 20.00 229.40 3056.27
   19:21:06.600.27-Aug-2021 4687.50 4416.57 82.06 20.00 229.60 3056.27
   19:21:06.800.27-Aug-2021 4687.50 4416.56 82.06 20.00 229.80 3056.27
   19:21:07.000.27-Aug-2021 4687.50 4416.55 82.06 20.00 230.00 3056.27
   19:21:07.200.27-Aug-2021 4687.50 4416.55 82.06 20.00 230.20 3056.27
   19:21:07.400.27-Aug-2021 4687.50 4416.56 82.06 20.00 230.40 3056.27
   19:21:07.600.27-Aug-2021 4687.50 4416.55 82.06 20.00 230.60 3056.27
   19:21:07.800.27-Aug-2021 4687.50 4416.55 82.06 20.00 230.80 3056.27
   19:21:08.000.27-Aug-2021 4687.50 4416.56 82.06 20.00 231.00 3056.27
   19:21:08.200.27-Aug-2021 4687.50 4416.56 82.06 20.00 231.20 3056.27
   19:21:08.400.27-Aug-2021 4687.50 4416.56 82.06 20.00 231.40 3056.27
   19:21:08.600.27-Aug-2021 4687.50 4416.54 82.06 20.00 231.60 3056.27
   19:21:08.800.27-Aug-2021 4687.50 4416.55 82.06 20.00 231.80 3056.27
   19:21:09.000.27-Aug-2021 4687.50 4416.55 82.06 20.00 232.00 3056.27
   19:21:09.200.27-Aug-2021 4687.50 4416.55 82.06 20.00 232.20 3056.27
   19:21:09.400.27-Aug-2021 4687.50 4416.55 82.06 20.00 232.40 3056.27
   19:21:09.600.27-Aug-2021 4687.50 4416.54 82.06 20.00 232.60 3056.27
   19:21:09.800.27-Aug-2021 4687.50 4416.55 82.06 20.00 232.80 3056.27
   19:21:10.000.27-Aug-2021 4687.50 4416.55 82.06 20.00 233.00 3056.27
   19:21:10.200.27-Aug-2021 4687.50 4416.55 82.06 20.00 233.20 3056.27
   19:21:10.400.27-Aug-2021 4687.50 4416.54 82.06 20.00 233.40 3056.27
   19:21:10.600.27-Aug-2021 4687.50 4416.55 82.06 20.00 233.60 3056.27
   19:21:10.800.27-Aug-2021 4687.50 4416.56 82.06 20.00 233.80 3056.27
   19:21:11.000.27-Aug-2021 4687.50 4416.56 82.06 20.00 234.00 3056.27
   19:21:11.200.27-Aug-2021 4687.50 4416.56 82.06 20.00 234.20 3056.27
   19:21:11.400.27-Aug-2021 4687.50 4416.56 82.06 20.00 234.40 3056.27
   19:21:11.600.27-Aug-2021 4687.50 4416.57 82.06 20.00 234.60 3056.27
   19:21:11.800.27-Aug-2021 4687.50 4416.55 82.06 20.00 234.80 3056.27
   19:21:12.000.27-Aug-2021 4687.50 4416.57 82.06 20.00 235.00 3056.27
   19:21:12.200.27-Aug-2021 4687.50 4416.57 82.06 20.00 235.20 3056.27
   19:21:12.400.27-Aug-2021 4687.50 4416.57 82.06 20.00 235.40 3056.27
   19:21:12.600.27-Aug-2021 4687.50 4416.55 82.06 20.00 235.60 3056.27
   19:21:12.800.27-Aug-2021 4687.50 4416.55 82.06 20.00 235.80 3056.27
   19:21:13.000.27-Aug-2021 4687.50 4416.56 82.06 20.00 236.00 3056.27
   19:21:13.200.27-Aug-2021 4687.50 4416.56 82.06 20.00 236.20 3056.27
   19:21:13.400.27-Aug-2021 4687.50 4416.56 82.06 20.00 236.40 3056.27
   19:21:13.600.27-Aug-2021 4687.50 4416.56 82.06 20.00 236.60 3056.27
   19:21:13.800.27-Aug-2021 4687.50 4416.56 82.06 20.00 236.80 3056.27
   19:21:14.000.27-Aug-2021 4687.50 4416.56 82.06 20.00 237.00 3056.27
   19:21:14.200.27-Aug-2021 4687.50 4416.56 82.06 20.00 237.20 3056.27
   19:21:14.400.27-Aug-2021 4687.50 4416.57 82.06 20.00 237.40 3056.27
   19:21:14.600.27-Aug-2021 4687.50 4416.56 82.06 20.00 237.60 3056.27
   19:21:14.800.27-Aug-2021 4687.50 4416.58 82.06 20.00 237.80 3056.27
   19:21:15.000.27-Aug-2021 4687.50 4416.57 82.06 20.00 238.00 3056.27
   19:21:15.200.27-Aug-2021 4687.50 4416.57 82.06 20.00 238.20 3056.27
   19:21:15.400.27-Aug-2021 4687.50 4416.58 82.06 20.00 238.40 3056.27
   19:21:15.600.27-Aug-2021 4687.50 4416.58 82.06 20.00 238.60 3056.27
   19:21:15.800.27-Aug-2021 4687.50 4416.54 82.06 20.00 238.80 3056.27
   19:21:16.000.27-Aug-2021 4687.50 4416.55 82.06 20.00 239.00 3056.27
   19:21:16.200.27-Aug-2021 4687.50 4416.55 82.06 20.00 239.20 3056.27
   19:21:16.400.27-Aug-2021 4687.50 4416.55 82.06 20.00 239.40 3056.27
   19:21:16.600.27-Aug-2021 4687.50 4416.55 82.06 20.00 239.60 3056.27
   19:21:16.800.27-Aug-2021 4687.50 4416.56 82.06 20.00 239.80 3056.27
   19:21:17.000.27-Aug-2021 4687.50 4416.55 82.06 20.00 240.00 3056.27
   19:21:17.200.27-Aug-2021 4687.50 4416.55 82.06 20.00 240.20 3056.27
   19:21:17.400.27-Aug-2021 4687.50 4416.56 82.06 20.00 240.40 3056.27
   19:21:17.600.27-Aug-2021 4687.50 4416.53 82.06 20.00 240.60 3056.27
   19:21:17.800.27-Aug-2021 4687.50 4416.56 82.06 20.00 240.80 3056.27
   19:21:18.000.27-Aug-2021 4687.50 4416.55 82.06 20.00 241.00 3056.27
   19:21:18.200.27-Aug-2021 4687.50 4416.55 82.06 20.00 241.20 3056.27
   19:21:18.400.27-Aug-2021 4687.50 4416.51 82.06 20.00 241.40 3056.27
   19:21:18.600.27-Aug-2021 4687.50 4416.55 82.06 20.00 241.60 3056.27
   19:21:18.800.27-Aug-2021 4687.50 4416.56 82.06 20.00 241.80 3056.27
   19:21:19.000.27-Aug-2021 4687.50 4416.55 82.06 20.00 242.00 3056.27
   19:21:19.200.27-Aug-2021 4687.50 4416.55 82.06 20.00 242.20 3056.27
   19:21:19.400.27-Aug-2021 4687.50 4416.56 82.06 20.00 242.40 3056.27
   19:21:19.600.27-Aug-2021 4687.50 4416.55 82.06 20.00 242.60 3056.27
   19:21:19.800.27-Aug-2021 4687.50 4416.55 82.06 20.00 242.80 3056.27
   19:21:20.000.27-Aug-2021 4687.50 4416.56 82.06 20.00 243.00 3056.27
   19:21:20.200.27-Aug-2021 4687.50 4416.56 82.06 20.00 243.20 3056.27
   19:21:20.400.27-Aug-2021 4687.50 4416.56 82.06 20.00 243.40 3056.27
   19:21:20.600.27-Aug-2021 4687.50 4416.56 82.06 20.00 243.60 3056.27
   19:21:20.800.27-Aug-2021 4687.50 4416.57 82.06 20.00 243.80 3056.27
   19:21:21.000.27-Aug-2021 4687.50 4416.57 82.06 20.00 244.00 3056.27
   19:21:21.200.27-Aug-2021 4687.50 4416.57 82.06 20.00 244.20 3056.27
   19:21:21.400.27-Aug-2021 4687.50 4416.54 82.06 20.00 244.40 3056.27
   19:21:21.600.27-Aug-2021 4687.50 4416.57 82.06 20.00 244.60 3056.27
   19:21:21.800.27-Aug-2021 4687.50 4416.54 82.06 20.00 244.80 3056.27
   19:21:22.000.27-Aug-2021 4687.50 4416.56 82.06 20.00 245.00 3056.27
   19:21:22.200.27-Aug-2021 4687.50 4416.56 82.06 20.00 245.20 3056.27
   19:21:22.400.27-Aug-2021 4687.50 4416.55 82.06 20.00 245.40 3056.27
   19:21:22.600.27-Aug-2021 4687.50 4416.56 82.06 20.00 245.60 3056.27
   19:21:22.800.27-Aug-2021 4687.50 4416.55 82.06 20.00 245.80 3056.27
   19:21:23.000.27-Aug-2021 4687.50 4416.56 82.06 20.00 246.00 3056.27
   19:21:23.200.27-Aug-2021 4687.50 4416.56 82.06 20.00 246.20 3056.27
   19:21:23.400.27-Aug-2021 4687.50 4416.57 82.06 20.00 246.40 3056.27
   19:21:23.600.27-Aug-2021 4687.50 4416.56 82.06 20.00 246.60 3056.27
   19:21:23.800.27-Aug-2021 4687.50 4416.58 82.06 20.00 246.80 3056.27
   19:21:24.000.27-Aug-2021 4687.50 4416.57 82.06 20.00 247.00 3056.27
   19:21:24.200.27-Aug-2021 4687.50 4416.57 82.06 20.00 247.20 3056.27
   19:21:24.400.27-Aug-2021 4687.50 4416.57 82.06 20.00 247.40 3056.27
   19:21:24.600.27-Aug-2021 4687.50 4416.57 82.06 20.00 247.60 3056.27
   19:21:24.800.27-Aug-2021 4687.50 4416.55 82.06 20.00 247.80 3056.27
   19:21:25.000.27-Aug-2021 4687.50 4416.55 82.06 20.00 248.00 3056.27
   19:21:25.200.27-Aug-2021 4687.50 4416.55 82.06 20.00 248.20 3056.27
   19:21:25.400.27-Aug-2021 4687.50 4416.54 82.06 20.00 248.40 3056.27
