~Version Information
 VERS.                  2.0:   CWLS log ASCII Standard -VERSION 2.0
 WRAP.                   NO:   One line per depth step
~Well Information Block
#MNEM.UNIT     VALUE/NAME     DESCRIPTION
#---------     -----------    ---------------------------
 STRT.S             10:43:45 27-Aug-21: START TIME 10:43:45 27-Aug-21
 STOP.S             10:50:54 27-Aug-21: STOP TIME  10:50:54 27-Aug-21
 STEP.S                   0.00: STEP TIME
 NULL.                 -999.25: NULL VALUE
 DFWT.                        :  DIST FWL TEXT
 DFST.                        :  DIST FSL TEXT
 DMF .             Drill Floor:  DRILL MEAS FROM
 STIM.      20.00.00 17-Aug-21:  START TIME
 DATE.      19.00.00 29-Aug-21:  END TIME
 SPUD.               15-Aug-21:  SPUD DATE
 NREF.                    Grid:  NORTH REFERENCE
 HPTY.       Minimum Curvature:  HOLE POS TYPE
 DMOD.             Drill Model:  DRILL MOD DESC
 SVYD.                  Survey:  SURVEY DESC
 ILTD.               Lithology:  INTERP LTH DESC
 FTOP.          Formation Tops:  FORM TOPS DESC
 RIG .              East Azeri:  RIG NAME
 PDAT.          Mean Sea Level:  PERMANENT DATUM
 FLD .                     ACG:  FIELD NAME
 SON .        AZ-XX-0907180857:  JOB NUMBER
 CTRY.              Azerbaijan:  COUNTRY NAME
 WELL.                    D23x:  WELL NAME
 SRVC.     Turan Drilling and Engineering:  CONTRACTOR
 COMP.     BP Exploration (Caspian Sea) Ltd.:  COMPANY
 UWI .            /AZE00000214:  UNIQUE WELL IDENTIFIER
 API .            /AZE00000214:  API NUMBER
 MDS .        Operator Entered:  MAG DATA SOURCE
 BASE.              Azerbaijan:  LOGGING EQUIPMENT BASE LOCATION
 REGN.                   EESSA:  REGION
 PROV.                    Baku:  PROVINCE
 STAT.                    Baku:  STATE NAME
 MWDS.                    Baku:  MWD SHOP
 DOE .                     N/A:  DOE NUMBER
 DCON.         Sperry Drilling:  DIRECTNL CONTR
 UNIT.                     N/A:  LOGGING EQUIPMENT ID
 WTYP.                Deviated:  WELL TYPE
 CNTY.                        :  COUNTY
 LOC .                        :  LOCATION
 LMF .             Drill Floor:  LOG MEASURED FROM
 TVDS.m                  43.60:  TVDSS CORRECTN
 LATI.deg                40.02:  LATITUDE
 LONG.deg                51.45:  LONGITUDE
 WHNS.m                  -7.04:  WELL HEAD N/S
 WHEW.m                  -0.67:  WELL HEAD E/W
 UTMX.m              538762.90:  UTM X
 UTMY.m             4431871.34:  UTM Y
 DFWL.m                   0.00:  DISTANCE FWL
 DFSL.m                   0.00:  DISTANCE FSL
 SDEP.m                4127.00:  START DEPTH
 TDD .m                5084.50:  TOTAL DEPTH (DRILLER)
 VSDR.deg               140.47:  VERT SEC DIRECT
 GVFD.g                   1.00:  GRAVITY FIELD
 MFLD.nT              50362.00:  MAGNETIC FIELD
 MDIP.deg                59.48:  MAGNETIC DIP
 MDEC.deg                 6.47:  MAGNETIC DECL
 GRDC.deg                 0.31:  GRID CORRECTION
 AZTC.deg                 6.16:  AZM TOTAL CORR
 EPD .m                   0.00:  ELEVATION
 EGL .m                   0.00:  GROUND ELEVATION
 WDMS.m                 151.80:  WD ELEV
 APD .m                  43.60:  DEPTH ABOVE PD
 DEP .m                4092.57:  DEPTH
 AGAP.m                  43.60:  AIR GAP
 VSEW.m                  -0.67:  VERT SEC E/W
 VSNS.m                  -7.04:  VERT SEC N/S
 EKB .m                  43.60:  KB ELEVATION
 EDF .m                  43.60:  DF ELEVATION
 TDL .m                 957.50:  TOTAL DEPTH (LOGGER)
 VSC .                       0:  VS TO CLOSURE
 MAGU.                 1851413:  MAGUTM CHECKSUM
~Parameter Information Block
#MNEM.UNIT       Value        Description
#---------     -----------    ---------------------------
 AV  .mps                 1.50:  Ann Velocity 
 AVMX.mps                 2.00:  Max Ann Veloc 
 AZIF.deg               184.66:  Azm, Final 
 BHAT.        Rotary Steerable:  BHA Type 
 BREV.rev               300.00:  Rev Bit Total 
 BROT.°/30m              -0.50:  Build Rotating 
 BS  .in                  8.50:  Bit Size 
 BSZ .in                  8.50:  Bit Size 
 BTPL.psig              370.00:  Bit Press Loss 
 CABU.                      No:  Customer Abuse 
 CGEO.      Behruz Shahbaliyev:  Customer Geo 
 COMM.                     $K:  Run Comments 1 
 TCS .hr                140.08:  Time Ciculation Ended 
 CV  .mps                 3.00:  Crit Velocity 
 CVMX.mps                 3.20:  Max Crit Veloc 
 DD1 .            Musa Ahmadov:  Direct Drillr 1 
 DD2 .           Hamid Ahmadov:  Direct Drillr 2 
 DDSV.               Geo-Pilot:  DD Service 
 DEFF.%                  98.40:  % Det Eff 
 DLRX.°/30m               3.40:  Dogleg Rot Max 
 DLSO.°/30m               1.45:  Dogleg Oriented 
 DLSX.°/30m               3.40:  Dogleg Str Max 
 DRET.      18.40.00 29-Aug-21:  Drill End Time 
 DRST.      21.00.00 20-Aug-21:  Drill Start Tim 
 DTIM.hr                 69.47:  Time Drilling 
 EDEP.m                5084.50:  End Depth 
 ENG1.      Artemiy Matviyanov:  Engineer 1 
 ENG2.         Almaz Almadatov:  Engineer 2 
 ETIM.      18.40.00 29-Aug-21:  End Time 
 FLOI.gpm               500.00:  Flow In 
 FLON.gpm               400.00:  Flow In Min 
 FLOS.cptm                0.00:  Fluid Loss 
 FLOX.gpm               500.00:  Flow In Max 
 DFT .        Mineral Oil Base:  Mud Type 
 HFLO.                      No:  High Flow 
 HPRE.                      No:  High Pressure 
 HTEM.                      No:  High Temp 
 HYDO.m                   1.80:  Hydro Offset 
 IFIN.deg                25.62:  Inc, Final 
 IMAX.deg                48.69:  Inc Max 
 IMIN.deg                24.01:  Inc Min 
 IMND.m                4962.57:  Inc Min Depth 
 IMXD.m                4119.01:  Inc Max Depth 
 JARR.                      No:  Jarring 
 LETM.      18.40.00 29-Aug-21:  Log End Time 
 LOST.hr                     0:  Lost Rig Time 
 LSTM.      21.00.00 20-Aug-21:  Log Start Time 
 MDCL.ppm             41500.00:  Mud Chlorides 
 MDES.     Inversion Oil/Synthetic:  Mud Desc 
 DFD .sg                  1.56:  Mud Density 
 MDMN.sg                  1.56:  Dens Mud Min 
 MDMX.sg                  1.56:  Dens Mud Max 
 MOIL.                      70:  Run Mud Oil % 
 MOWR.                   70:30:  Run Mud OWR 
 MSND.                     0.2:  Run Mud Sand % 
 MSOL.                    23.3:  Run Mud Solids% 
 DFV .spqt               78.00:  Mud Viscosity 
 MWOD.in                  6.75:  MWD Tool OD 
 MWSI.                      No:  Serv Intrp, MWD 
 OTIM.hr                218.30:  Time Operating 
 PCON.           Look Like New:  Pad Condition 
 PMAX.psia            11015.30:  Press Op, Max 
 PV  .cP                 38.00:  Mud PV 
 RUN .                     300:  Run Number 
 ROPA.m/hr               15.00:  ROP Avg 
 ROPN.m/hr                9.00:  ROP Min 
 ROPX.m/hr               17.00:  ROP Max 
 RPMA.rpm               120.00:  RPM Surface Avg 
 RPMN.rpm                90.00:  RPM Surface Min 
 RPMX.rpm               140.00:  RPM Surface Max 
 RRUN.                     300:  Rig Run Number 
 RTIM.hr                 31.53:  Time Reaming 
 SAZI.deg               331.64:  Azm, Start 
 SDEP.m                4127.00:  Start Depth 
 SIDD.                      No:  Serv Intrp, DD 
 SINC.deg                48.43:  Inc, Start 
 SPPA.psig             5830.00:  SPP Avg 
 SPPN.psig             5600.00:  SPP Min 
 SPPX.psig             5900.00:  SPP Max 
 STIM.      21.00.00 20-Aug-21:  Start Time 
 SVCS.                 DD, MWD:  Services 
 SVER.                    9.20:  Sperry Version 
 TDAT.m                 957.50:  Tot Depth Attmp 
 TDDF.                      No:  Trip for DD 
 TDLG.m                 957.50:  Tot Depth Loggd 
 TFF .                      No:  Trip for Fail 
 TQAA.f-kp               15.00:  Torque Abs Avg 
 TQAN.f-kp               12.00:  Torque Abs Min 
 TQAX.f-kp               19.00:  Torque Abs Max 
 TRRT.°/30m              -3.40:  Turn Rotating 
 MRT .                  EWR-M5:  Maximum Recorded Temperature 
 TTMX.degC              100.00:  Max Tool Temp 
 VS01.                90639251:  Virtual Str1 SN 
 VS02.                90634715:  Virtual Str2 SN 
 VS03.                90652479:  Virtual Str3 SN 
 VS04.                90642262:  Virtual Str4 SN 
 WBMN.klb                 0.00:  WOB Min 
 WITN.           Murad Guliyev:  Customer Rep 
 WITN.          Yashar Gaziyev:  Customer Rep 2 
 WOBA.klb                 9.00:  WOB Avg 
 WOBX.klb                12.00:  WOB Max 
 YP  .lhf2               30.00:  Yield Point 
~Curve Information Block
#MNEM.UNIT                 API CODE     Curve Description
#---------               -----------    ---------------------------
 TIME.HHMMSS            00 000 000 000:  GT Time & Date
 GTDEPTH.m              00 000 000 000:  GT Depth
 GTPQH.psia             00 000 000 000:  GT HR Quartz Pressure
 GTTQ.degC              00 000 000 000:  GT Quartz Temperature
 GTTN.NONE              00 000 000 000:  GT Test Number
 GTET.sec               00 000 000 000:  GT Elapsed Test Time
 GTTVD.m                00 000 000 000:  GT True Vertical Depth
#Other Information
#
#WARRANTY: Halliburton will use its best efforts to furnish customers with 
#accurate information and interpretations that are part of, and incident to, the services 
#provided.  However, Halliburton cannot and does not warrant the accuracy 
#or correctness of such information and interpretations.  Under no circumstances should any 
#such information or interpretation be relied upon as the sole basis for any drilling, 
#completion, production, or financial decision or any procedure involving any risk to the 
#safety of any drilling venture, drilling rig or its crew or any other third party.  The 
#Customer has full responsibility for all drilling, completion and production operation.  
#Halliburton makes no representations or warranties, either expressed or 
#implied, including, but not limited to, the implied warranties of merchantability or fitness 
#for a particular purpose, with respect to the services rendered.  In no event will 
#Halliburton be liable for failure to obtain any particular results or for 
#any damages, including, but not limited to, indirect, special or consequential damages, 
#resulting from the use of any information or interpretation provided by Halliburton.
#
~A           TIME           GTDEPTH  GTPQH  GTTQ  GTTN  GTET   GTTVD  
# ...
   10:44:08.460.27-Aug-2021 4957.82 7861.43 86.01 9.00  22.97 3301.29
   10:44:08.660.27-Aug-2021 4957.82 7861.43 86.01 9.00  23.17 3301.29
   10:44:08.859.27-Aug-2021 4957.82 7865.58 86.01 9.00  23.37 3301.29
   10:44:09.059.27-Aug-2021 4957.82 7862.44 86.01 9.00  23.57 3301.29
   10:44:09.259.27-Aug-2021 4957.82 7862.19 86.01 9.00  23.77 3301.29
   10:44:09.459.27-Aug-2021 4957.82 7861.85 86.01 9.00  23.97 3301.29
   10:44:09.658.27-Aug-2021 4957.82 7861.85 86.01 9.00  24.17 3301.29
   10:44:09.858.27-Aug-2021 4957.82 7862.58 86.01 9.00  24.37 3301.29
   10:44:10.058.27-Aug-2021 4957.82 7862.33 86.01 9.00  24.57 3301.29
   10:44:10.258.27-Aug-2021 4957.82 7868.16 86.01 9.00  24.77 3301.29
   10:44:10.457.27-Aug-2021 4957.82 7860.35 86.01 9.00  24.97 3301.29
   10:44:10.657.27-Aug-2021 4957.82 7860.35 86.01 9.00  25.17 3301.29
   10:44:10.857.27-Aug-2021 4957.82 7864.13 86.01 9.00  25.37 3301.29
   10:44:11.057.27-Aug-2021 4957.82 7867.17 86.01 9.00  25.57 3301.29
   10:44:11.257.27-Aug-2021 4957.82 7865.41 86.01 9.00  25.77 3301.29
   10:44:11.456.27-Aug-2021 4957.82 7863.98 86.01 9.00  25.97 3301.29
   10:44:11.656.27-Aug-2021 4957.82 7863.98 86.01 9.00  26.17 3301.29
   10:44:11.856.27-Aug-2021 4957.82 7863.41 86.01 9.00  26.37 3301.29
   10:44:12.056.27-Aug-2021 4957.82 7866.53 86.01 9.00  26.57 3301.29
   10:44:12.255.27-Aug-2021 4957.82 7865.77 86.01 9.00  26.77 3301.29
   10:44:12.455.27-Aug-2021 4957.82 7864.54 86.01 9.00  26.97 3301.29
   10:44:12.655.27-Aug-2021 4957.82 7864.54 86.01 9.00  27.17 3301.29
   10:44:12.855.27-Aug-2021 4957.82 7864.74 86.01 9.00  27.37 3301.29
   10:44:13.054.27-Aug-2021 4957.82 7865.36 86.01 9.00  27.57 3301.29
   10:44:13.254.27-Aug-2021 4957.82 7865.70 86.01 9.00  27.77 3301.29
   10:44:13.454.27-Aug-2021 4957.82 7865.21 86.01 9.00  27.97 3301.29
   10:44:13.654.27-Aug-2021 4957.82 7865.21 86.01 9.00  28.17 3301.29
   10:44:13.853.27-Aug-2021 4957.82 7865.78 86.01 9.00  28.37 3301.29
   10:44:14.053.27-Aug-2021 4957.82 7866.39 86.01 9.00  28.57 3301.29
   10:44:14.253.27-Aug-2021 4957.82 7866.59 86.01 9.00  28.77 3301.29
   10:44:14.453.27-Aug-2021 4957.82 7866.54 86.01 9.00  28.97 3301.29
   10:44:14.652.27-Aug-2021 4957.82 7866.54 86.01 9.00  29.17 3301.29
   10:44:14.852.27-Aug-2021 4957.82 7866.25 86.01 9.00  29.36 3301.29
   10:44:15.052.27-Aug-2021 4957.82 7866.18 86.01 9.00  29.56 3301.29
   10:44:15.252.27-Aug-2021 4957.82 7870.35 86.01 9.00  29.76 3301.29
   10:44:15.451.27-Aug-2021 4957.82 7867.22 86.01 9.00  29.96 3301.29
   10:44:15.651.27-Aug-2021 4957.82 7867.22 86.01 9.00  30.16 3301.29
   10:44:15.851.27-Aug-2021 4957.82 7866.58 86.01 9.00  30.36 3301.29
   10:44:16.051.27-Aug-2021 4957.82 7866.66 86.01 9.00  30.56 3301.29
   10:44:16.251.27-Aug-2021 4957.82 7867.09 86.01 9.00  30.76 3301.29
   10:44:16.450.27-Aug-2021 4957.82 7867.03 86.01 9.00  30.96 3301.29
   10:44:16.650.27-Aug-2021 4957.82 7867.03 86.01 9.00  31.16 3301.29
   10:44:16.850.27-Aug-2021 4957.82 7867.30 86.01 9.00  31.36 3301.29
   10:44:17.050.27-Aug-2021 4957.82 7867.70 86.01 9.00  31.56 3301.29
   10:44:17.249.27-Aug-2021 4957.82 7868.77 86.01 9.00  31.76 3301.29
   10:44:17.449.27-Aug-2021 4957.82 7869.03 86.01 9.00  31.96 3301.29
   10:44:17.649.27-Aug-2021 4957.82 7869.03 86.01 9.00  32.16 3301.29
   10:44:17.849.27-Aug-2021 4957.82 7869.07 86.01 9.00  32.36 3301.29
   10:44:18.048.27-Aug-2021 4957.82 7869.03 86.01 9.00  32.56 3301.29
   10:44:18.248.27-Aug-2021 4957.82 7869.16 86.01 9.00  32.76 3301.29
   10:44:18.448.27-Aug-2021 4957.82 7869.12 86.01 9.00  32.96 3301.29
   10:44:18.648.27-Aug-2021 4957.82 7869.12 86.01 9.00  33.16 3301.29
   10:44:18.847.27-Aug-2021 4957.82 7869.67 86.01 9.00  33.36 3301.29
   10:44:19.047.27-Aug-2021 4957.82 7869.56 86.01 9.00  33.56 3301.29
   10:44:19.247.27-Aug-2021 4957.82 7868.97 86.01 9.00  33.76 3301.29
   10:44:19.447.27-Aug-2021 4957.82 7869.26 86.01 9.00  33.96 3301.29
   10:44:19.646.27-Aug-2021 4957.82 7869.26 86.01 9.00  34.16 3301.29
   10:44:19.846.27-Aug-2021 4957.82 7873.29 86.01 9.00  34.36 3301.29
   10:44:20.046.27-Aug-2021 4957.82 7868.96 86.01 9.00  34.56 3301.29
   10:44:20.246.27-Aug-2021 4957.82 7871.01 86.01 9.00  34.76 3301.29
   10:44:20.446.27-Aug-2021 4957.82 7870.23 86.01 9.00  34.96 3301.29
   10:44:20.645.27-Aug-2021 4957.82 7870.23 86.01 9.00  35.16 3301.29
   10:44:20.845.27-Aug-2021 4957.82 7871.54 86.01 9.00  35.36 3301.29
   10:44:21.045.27-Aug-2021 4957.82 7874.14 86.01 9.00  35.56 3301.29
   10:44:21.245.27-Aug-2021 4957.82 7874.14 86.01 9.00  35.76 3301.29
   10:44:21.444.27-Aug-2021 4957.82 7870.24 86.01 9.00  35.96 3301.29
   10:44:21.644.27-Aug-2021 4957.82 7870.24 86.01 9.00  36.16 3301.29
   10:44:21.844.27-Aug-2021 4957.82 7877.11 86.01 9.00  36.36 3301.29
   10:44:22.044.27-Aug-2021 4957.82 7869.23 86.01 9.00  36.56 3301.29
   10:44:22.243.27-Aug-2021 4957.82 7872.62 86.01 9.00  36.76 3301.29
   10:44:22.443.27-Aug-2021 4957.82 7870.70 86.01 9.00  36.96 3301.29
   10:44:22.643.27-Aug-2021 4957.82 7870.70 86.01 9.00  37.16 3301.29
   10:44:22.843.27-Aug-2021 4957.82 7871.65 86.01 9.00  37.36 3301.29
   10:44:23.042.27-Aug-2021 4957.82 7872.30 86.01 9.00  37.56 3301.29
   10:44:23.242.27-Aug-2021 4957.82 7872.66 86.01 9.00  37.75 3301.29
   10:44:23.442.27-Aug-2021 4957.82 7872.21 86.01 9.00  37.95 3301.29
   10:44:23.642.27-Aug-2021 4957.82 7872.21 86.01 9.00  38.15 3301.29
   10:44:23.841.27-Aug-2021 4957.82 7873.15 86.01 9.00  38.35 3301.29
   10:44:24.041.27-Aug-2021 4957.82 7873.59 86.01 9.00  38.55 3301.29
   10:44:24.241.27-Aug-2021 4957.82 7873.67 86.01 9.00  38.75 3301.29
   10:44:24.441.27-Aug-2021 4957.82 7873.67 86.01 9.00  38.95 3301.29
   10:44:24.641.27-Aug-2021 4957.82 7873.67 86.01 9.00  39.15 3301.29
   10:44:24.840.27-Aug-2021 4957.82 7873.14 86.00 9.00  39.35 3301.29
   10:44:25.040.27-Aug-2021 4957.82 7873.28 86.00 9.00  39.55 3301.29
   10:44:25.240.27-Aug-2021 4957.82 7873.92 86.00 9.00  39.75 3301.29
   10:44:25.440.27-Aug-2021 4957.82 7873.60 86.00 9.00  39.95 3301.29
   10:44:25.639.27-Aug-2021 4957.82 7873.60 86.00 9.00  40.15 3301.29
   10:44:25.839.27-Aug-2021 4957.82 7874.86 86.00 9.00  40.35 3301.29
   10:44:26.039.27-Aug-2021 4957.82 7874.52 86.00 9.00  40.55 3301.29
   10:44:26.239.27-Aug-2021 4957.82 7875.41 86.00 9.00  40.75 3301.29
   10:44:26.438.27-Aug-2021 4957.82 7877.28 86.00 9.00  40.95 3301.29
   10:44:26.638.27-Aug-2021 4957.82 7877.28 86.00 9.00  41.15 3301.29
   10:44:26.838.27-Aug-2021 4957.82 7874.82 86.00 9.00  41.35 3301.29
   10:44:27.038.27-Aug-2021 4957.82 7851.74 86.00 9.00  41.55 3301.29
   10:44:27.237.27-Aug-2021 4957.82 7826.86 86.00 9.00  41.75 3301.29
   10:44:27.437.27-Aug-2021 4957.82 7796.16 86.00 9.00  41.95 3301.29
   10:44:27.637.27-Aug-2021 4957.82 7796.16 86.00 9.00  42.15 3301.29
   10:44:27.837.27-Aug-2021 4957.82 7694.13 86.00 9.00  42.35 3301.29
   10:44:28.036.27-Aug-2021 4957.82 7621.48 86.00 9.00  42.55 3301.29
   10:44:28.236.27-Aug-2021 4957.82 7538.45 86.00 9.00  42.75 3301.29
   10:44:28.436.27-Aug-2021 4957.82 7453.07 86.00 9.00  42.95 3301.29
   10:44:28.636.27-Aug-2021 4957.82 7453.07 86.00 9.00  43.15 3301.29
   10:44:28.836.27-Aug-2021 4957.82 7310.22 86.00 9.00  43.35 3301.29
   10:44:29.035.27-Aug-2021 4957.82 7252.04 86.00 9.00  43.55 3301.29
   10:44:29.235.27-Aug-2021 4957.82 7219.47 86.00 9.00  43.75 3301.29
   10:44:29.435.27-Aug-2021 4957.82 7275.41 86.00 9.00  43.95 3301.29
   10:44:29.635.27-Aug-2021 4957.82 7275.41 86.00 9.00  44.15 3301.29
   10:44:29.834.27-Aug-2021 4957.82 7532.57 86.00 9.00  44.35 3301.29
   10:44:30.034.27-Aug-2021 4957.82 7520.15 86.00 9.00  44.55 3301.29
   10:44:30.234.27-Aug-2021 4957.82 7434.20 86.00 9.00  44.75 3301.29
   10:44:30.434.27-Aug-2021 4957.82 7365.21 86.00 9.00  44.95 3301.29
   10:44:30.633.27-Aug-2021 4957.82 7365.21 86.00 9.00  45.15 3301.29
   10:44:30.833.27-Aug-2021 4957.82 7242.37 86.00 9.00  45.35 3301.29
   10:44:31.033.27-Aug-2021 4957.82 7181.66 86.00 9.00  45.55 3301.29
   10:44:31.233.27-Aug-2021 4957.82 7120.41 86.00 9.00  45.75 3301.29
