~Version Information
 VERS.                  2.0:   CWLS log ASCII Standard -VERSION 2.0
 WRAP.                   NO:   One line per depth step
~Well Information Block
#MNEM.UNIT     VALUE/NAME     DESCRIPTION
#---------     -----------    ---------------------------
 STRT.S             11:48:55 27-Aug-21: START TIME 11:48:55 27-Aug-21
 STOP.S             11:56:03 27-Aug-21: STOP TIME  11:56:03 27-Aug-21
 STEP.S                   0.00: STEP TIME
 NULL.                 -999.25: NULL VALUE
 DFWT.                        :  DIST FWL TEXT
 DFST.                        :  DIST FSL TEXT
 DMF .             Drill Floor:  DRILL MEAS FROM
 STIM.      20.00.00 17-Aug-21:  START TIME
 DATE.      19.00.00 29-Aug-21:  END TIME
 SPUD.               15-Aug-21:  SPUD DATE
 NREF.                    Grid:  NORTH REFERENCE
 HPTY.       Minimum Curvature:  HOLE POS TYPE
 DMOD.             Drill Model:  DRILL MOD DESC
 SVYD.                  Survey:  SURVEY DESC
 ILTD.               Lithology:  INTERP LTH DESC
 FTOP.          Formation Tops:  FORM TOPS DESC
 RIG .              East Azeri:  RIG NAME
 PDAT.          Mean Sea Level:  PERMANENT DATUM
 FLD .                     ACG:  FIELD NAME
 SON .        AZ-XX-0907180857:  JOB NUMBER
 CTRY.              Azerbaijan:  COUNTRY NAME
 WELL.                    D23x:  WELL NAME
 SRVC.     Turan Drilling and Engineering:  CONTRACTOR
 COMP.     BP Exploration (Caspian Sea) Ltd.:  COMPANY
 UWI .            /AZE00000214:  UNIQUE WELL IDENTIFIER
 API .            /AZE00000214:  API NUMBER
 MDS .        Operator Entered:  MAG DATA SOURCE
 BASE.              Azerbaijan:  LOGGING EQUIPMENT BASE LOCATION
 REGN.                   EESSA:  REGION
 PROV.                    Baku:  PROVINCE
 STAT.                    Baku:  STATE NAME
 MWDS.                    Baku:  MWD SHOP
 DOE .                     N/A:  DOE NUMBER
 DCON.         Sperry Drilling:  DIRECTNL CONTR
 UNIT.                     N/A:  LOGGING EQUIPMENT ID
 WTYP.                Deviated:  WELL TYPE
 CNTY.                        :  COUNTY
 LOC .                        :  LOCATION
 LMF .             Drill Floor:  LOG MEASURED FROM
 TVDS.m                  43.60:  TVDSS CORRECTN
 LATI.deg                40.02:  LATITUDE
 LONG.deg                51.45:  LONGITUDE
 WHNS.m                  -7.04:  WELL HEAD N/S
 WHEW.m                  -0.67:  WELL HEAD E/W
 UTMX.m              538762.90:  UTM X
 UTMY.m             4431871.34:  UTM Y
 DFWL.m                   0.00:  DISTANCE FWL
 DFSL.m                   0.00:  DISTANCE FSL
 SDEP.m                4127.00:  START DEPTH
 TDD .m                5084.50:  TOTAL DEPTH (DRILLER)
 VSDR.deg               140.47:  VERT SEC DIRECT
 GVFD.g                   1.00:  GRAVITY FIELD
 MFLD.nT              50362.00:  MAGNETIC FIELD
 MDIP.deg                59.48:  MAGNETIC DIP
 MDEC.deg                 6.47:  MAGNETIC DECL
 GRDC.deg                 0.31:  GRID CORRECTION
 AZTC.deg                 6.16:  AZM TOTAL CORR
 EPD .m                   0.00:  ELEVATION
 EGL .m                   0.00:  GROUND ELEVATION
 WDMS.m                 151.80:  WD ELEV
 APD .m                  43.60:  DEPTH ABOVE PD
 DEP .m                4092.57:  DEPTH
 AGAP.m                  43.60:  AIR GAP
 VSEW.m                  -0.67:  VERT SEC E/W
 VSNS.m                  -7.04:  VERT SEC N/S
 EKB .m                  43.60:  KB ELEVATION
 EDF .m                  43.60:  DF ELEVATION
 TDL .m                 957.50:  TOTAL DEPTH (LOGGER)
 VSC .                       0:  VS TO CLOSURE
 MAGU.                 1851413:  MAGUTM CHECKSUM
~Parameter Information Block
#MNEM.UNIT       Value        Description
#---------     -----------    ---------------------------
 AV  .mps                 1.50:  Ann Velocity 
 AVMX.mps                 2.00:  Max Ann Veloc 
 AZIF.deg               184.66:  Azm, Final 
 BHAT.        Rotary Steerable:  BHA Type 
 BREV.rev               300.00:  Rev Bit Total 
 BROT.°/30m              -0.50:  Build Rotating 
 BS  .in                  8.50:  Bit Size 
 BSZ .in                  8.50:  Bit Size 
 BTPL.psig              370.00:  Bit Press Loss 
 CABU.                      No:  Customer Abuse 
 CGEO.      Behruz Shahbaliyev:  Customer Geo 
 COMM.                     L*e:  Run Comments 1 
 TCS .hr                140.08:  Time Ciculation Ended 
 CV  .mps                 3.00:  Crit Velocity 
 CVMX.mps                 3.20:  Max Crit Veloc 
 DD1 .            Musa Ahmadov:  Direct Drillr 1 
 DD2 .           Hamid Ahmadov:  Direct Drillr 2 
 DDSV.               Geo-Pilot:  DD Service 
 DEFF.%                  98.40:  % Det Eff 
 DLRX.°/30m               3.40:  Dogleg Rot Max 
 DLSO.°/30m               1.45:  Dogleg Oriented 
 DLSX.°/30m               3.40:  Dogleg Str Max 
 DRET.      18.40.00 29-Aug-21:  Drill End Time 
 DRST.      21.00.00 20-Aug-21:  Drill Start Tim 
 DTIM.hr                 69.47:  Time Drilling 
 EDEP.m                5084.50:  End Depth 
 ENG1.      Artemiy Matviyanov:  Engineer 1 
 ENG2.         Almaz Almadatov:  Engineer 2 
 ETIM.      18.40.00 29-Aug-21:  End Time 
 FLOI.gpm               500.00:  Flow In 
 FLON.gpm               400.00:  Flow In Min 
 FLOS.cptm                0.00:  Fluid Loss 
 FLOX.gpm               500.00:  Flow In Max 
 DFT .        Mineral Oil Base:  Mud Type 
 HFLO.                      No:  High Flow 
 HPRE.                      No:  High Pressure 
 HTEM.                      No:  High Temp 
 HYDO.m                   1.80:  Hydro Offset 
 IFIN.deg                25.62:  Inc, Final 
 IMAX.deg                48.69:  Inc Max 
 IMIN.deg                24.01:  Inc Min 
 IMND.m                4962.57:  Inc Min Depth 
 IMXD.m                4119.01:  Inc Max Depth 
 JARR.                      No:  Jarring 
 LETM.      18.40.00 29-Aug-21:  Log End Time 
 LOST.hr                     0:  Lost Rig Time 
 LSTM.      21.00.00 20-Aug-21:  Log Start Time 
 MDCL.ppm             41500.00:  Mud Chlorides 
 MDES.     Inversion Oil/Synthetic:  Mud Desc 
 DFD .sg                  1.56:  Mud Density 
 MDMN.sg                  1.56:  Dens Mud Min 
 MDMX.sg                  1.56:  Dens Mud Max 
 MOIL.                      70:  Run Mud Oil % 
 MOWR.                   70:30:  Run Mud OWR 
 MSND.                     0.2:  Run Mud Sand % 
 MSOL.                    23.3:  Run Mud Solids% 
 DFV .spqt               78.00:  Mud Viscosity 
 MWOD.in                  6.75:  MWD Tool OD 
 MWSI.                      No:  Serv Intrp, MWD 
 OTIM.hr                218.30:  Time Operating 
 PCON.           Look Like New:  Pad Condition 
 PMAX.psia            11015.30:  Press Op, Max 
 PV  .cP                 38.00:  Mud PV 
 RUN .                     300:  Run Number 
 ROPA.m/hr               15.00:  ROP Avg 
 ROPN.m/hr                9.00:  ROP Min 
 ROPX.m/hr               17.00:  ROP Max 
 RPMA.rpm               120.00:  RPM Surface Avg 
 RPMN.rpm                90.00:  RPM Surface Min 
 RPMX.rpm               140.00:  RPM Surface Max 
 RRUN.                     300:  Rig Run Number 
 RTIM.hr                 31.53:  Time Reaming 
 SAZI.deg               331.64:  Azm, Start 
 SDEP.m                4127.00:  Start Depth 
 SIDD.                      No:  Serv Intrp, DD 
 SINC.deg                48.43:  Inc, Start 
 SPPA.psig             5830.00:  SPP Avg 
 SPPN.psig             5600.00:  SPP Min 
 SPPX.psig             5900.00:  SPP Max 
 STIM.      21.00.00 20-Aug-21:  Start Time 
 SVCS.                 DD, MWD:  Services 
 SVER.                    9.20:  Sperry Version 
 TDAT.m                 957.50:  Tot Depth Attmp 
 TDDF.                      No:  Trip for DD 
 TDLG.m                 957.50:  Tot Depth Loggd 
 TFF .                      No:  Trip for Fail 
 TQAA.f-kp               15.00:  Torque Abs Avg 
 TQAN.f-kp               12.00:  Torque Abs Min 
 TQAX.f-kp               19.00:  Torque Abs Max 
 TRRT.°/30m              -3.40:  Turn Rotating 
 MRT .                  EWR-M5:  Maximum Recorded Temperature 
 TTMX.degC              100.00:  Max Tool Temp 
 VS01.                90639251:  Virtual Str1 SN 
 VS02.                90634715:  Virtual Str2 SN 
 VS03.                90652479:  Virtual Str3 SN 
 VS04.                90642262:  Virtual Str4 SN 
 WBMN.klb                 0.00:  WOB Min 
 WITN.           Murad Guliyev:  Customer Rep 
 WITN.          Yashar Gaziyev:  Customer Rep 2 
 WOBA.klb                 9.00:  WOB Avg 
 WOBX.klb                12.00:  WOB Max 
 YP  .lhf2               30.00:  Yield Point 
~Curve Information Block
#MNEM.UNIT                 API CODE     Curve Description
#---------               -----------    ---------------------------
 TIME.HHMMSS            00 000 000 000:  GT Time & Date
 GTDEPTH.m              00 000 000 000:  GT Depth
 GTPQH.psia             00 000 000 000:  GT HR Quartz Pressure
 GTTQ.degC              00 000 000 000:  GT Quartz Temperature
 GTTN.NONE              00 000 000 000:  GT Test Number
 GTET.sec               00 000 000 000:  GT Elapsed Test Time
 GTTVD.m                00 000 000 000:  GT True Vertical Depth
#Other Information
#
#WARRANTY: Halliburton will use its best efforts to furnish customers with 
#accurate information and interpretations that are part of, and incident to, the services 
#provided.  However, Halliburton cannot and does not warrant the accuracy 
#or correctness of such information and interpretations.  Under no circumstances should any 
#such information or interpretation be relied upon as the sole basis for any drilling, 
#completion, production, or financial decision or any procedure involving any risk to the 
#safety of any drilling venture, drilling rig or its crew or any other third party.  The 
#Customer has full responsibility for all drilling, completion and production operation.  
#Halliburton makes no representations or warranties, either expressed or 
#implied, including, but not limited to, the implied warranties of merchantability or fitness 
#for a particular purpose, with respect to the services rendered.  In no event will 
#Halliburton be liable for failure to obtain any particular results or for 
#any damages, including, but not limited to, indirect, special or consequential damages, 
#resulting from the use of any information or interpretation provided by Halliburton.
#
~A           TIME           GTDEPTH  GTPQH  GTTQ  GTTN   GTET   GTTVD  
# ...
   11:53:26.944.27-Aug-2021 4914.00 7810.63 85.27 11.00 271.30 3261.31
   11:53:27.144.27-Aug-2021 4914.00 7807.97 85.27 11.00 271.50 3261.31
   11:53:27.344.27-Aug-2021 4914.00 7807.09 85.27 11.00 271.70 3261.31
   11:53:27.544.27-Aug-2021 4914.00 7806.72 85.27 11.00 271.90 3261.31
   11:53:27.744.27-Aug-2021 4914.00 7806.80 85.27 11.00 272.10 3261.31
   11:53:27.944.27-Aug-2021 4914.00 7806.80 85.27 11.00 272.30 3261.31
   11:53:28.145.27-Aug-2021 4914.00 7806.05 85.27 11.00 272.50 3261.31
   11:53:28.345.27-Aug-2021 4914.00 7806.35 85.27 11.00 272.70 3261.31
   11:53:28.545.27-Aug-2021 4914.00 7806.67 85.27 11.00 272.90 3261.31
   11:53:28.745.27-Aug-2021 4914.00 7806.77 85.27 11.00 273.10 3261.31
   11:53:28.945.27-Aug-2021 4914.00 7806.77 85.27 11.00 273.30 3261.31
   11:53:29.145.27-Aug-2021 4914.00 7807.03 85.27 11.00 273.50 3261.31
   11:53:29.345.27-Aug-2021 4914.00 7808.28 85.27 11.00 273.70 3261.31
   11:53:29.545.27-Aug-2021 4914.00 7808.19 85.27 11.00 273.90 3261.31
   11:53:29.745.27-Aug-2021 4914.00 7808.39 85.27 11.00 274.10 3261.31
   11:53:29.945.27-Aug-2021 4914.00 7808.39 85.27 11.00 274.30 3261.31
   11:53:30.145.27-Aug-2021 4914.00 7805.18 85.27 11.00 274.50 3261.31
   11:53:30.345.27-Aug-2021 4914.00 7809.60 85.27 11.00 274.70 3261.31
   11:53:30.545.27-Aug-2021 4914.00 7808.17 85.27 11.00 274.90 3261.31
   11:53:30.745.27-Aug-2021 4914.00 7807.85 85.27 11.00 275.10 3261.31
   11:53:30.946.27-Aug-2021 4914.00 7807.85 85.27 11.00 275.30 3261.31
   11:53:31.146.27-Aug-2021 4914.00 7807.39 85.27 11.00 275.50 3261.31
   11:53:31.346.27-Aug-2021 4914.00 7807.57 85.27 11.00 275.70 3261.31
   11:53:31.546.27-Aug-2021 4914.00 7807.52 85.27 11.00 275.90 3261.31
   11:53:31.746.27-Aug-2021 4914.00 7807.75 85.27 11.00 276.10 3261.31
   11:53:31.946.27-Aug-2021 4914.00 7807.75 85.27 11.00 276.30 3261.31
   11:53:32.146.27-Aug-2021 4914.00 7808.67 85.27 11.00 276.50 3261.31
   11:53:32.346.27-Aug-2021 4914.00 7808.81 85.27 11.00 276.70 3261.31
   11:53:32.546.27-Aug-2021 4914.00 7808.94 85.27 11.00 276.90 3261.31
   11:53:32.746.27-Aug-2021 4914.00 7808.69 85.27 11.00 277.10 3261.31
   11:53:32.946.27-Aug-2021 4914.00 7808.69 85.27 11.00 277.30 3261.31
   11:53:33.146.27-Aug-2021 4914.00 7808.29 85.27 11.00 277.50 3261.31
   11:53:33.346.27-Aug-2021 4914.00 7814.40 85.27 11.00 277.70 3261.31
   11:53:33.546.27-Aug-2021 4914.00 7804.93 85.27 11.00 277.90 3261.31
   11:53:33.747.27-Aug-2021 4914.00 7809.07 85.27 11.00 278.10 3261.31
   11:53:33.947.27-Aug-2021 4914.00 7809.07 85.27 11.00 278.30 3261.31
   11:53:34.147.27-Aug-2021 4914.00 7807.42 85.27 11.00 278.50 3261.31
   11:53:34.347.27-Aug-2021 4914.00 7810.96 85.27 11.00 278.70 3261.31
   11:53:34.547.27-Aug-2021 4914.00 7806.60 85.27 11.00 278.90 3261.31
   11:53:34.747.27-Aug-2021 4914.00 7809.07 85.27 11.00 279.10 3261.31
   11:53:34.947.27-Aug-2021 4914.00 7809.07 85.27 11.00 279.30 3261.31
   11:53:35.147.27-Aug-2021 4914.00 7807.29 85.27 11.00 279.50 3261.31
   11:53:35.347.27-Aug-2021 4914.00 7807.96 85.27 11.00 279.70 3261.31
   11:53:35.547.27-Aug-2021 4914.00 7807.80 85.27 11.00 279.90 3261.31
   11:53:35.747.27-Aug-2021 4914.00 7808.20 85.27 11.00 280.10 3261.31
   11:53:35.947.27-Aug-2021 4914.00 7808.20 85.27 11.00 280.30 3261.31
   11:53:36.147.27-Aug-2021 4914.00 7808.66 85.27 11.00 280.50 3261.31
   11:53:36.347.27-Aug-2021 4914.00 7808.83 85.27 11.00 280.70 3261.31
   11:53:36.548.27-Aug-2021 4914.00 7808.06 85.27 11.00 280.90 3261.31
   11:53:36.748.27-Aug-2021 4914.00 7807.97 85.27 11.00 281.10 3261.31
   11:53:36.948.27-Aug-2021 4914.00 7807.97 85.27 11.00 281.30 3261.31
   11:53:37.148.27-Aug-2021 4914.00 7811.91 85.27 11.00 281.50 3261.31
   11:53:37.348.27-Aug-2021 4914.00 7805.81 85.27 11.00 281.70 3261.31
   11:53:37.548.27-Aug-2021 4914.00 7808.61 85.27 11.00 281.90 3261.31
   11:53:37.748.27-Aug-2021 4914.00 7807.88 85.27 11.00 282.10 3261.31
   11:53:37.948.27-Aug-2021 4914.00 7807.88 85.27 11.00 282.30 3261.31
   11:53:38.148.27-Aug-2021 4914.00 7808.09 85.27 11.00 282.50 3261.31
   11:53:38.348.27-Aug-2021 4914.00 7807.70 85.27 11.00 282.70 3261.31
   11:53:38.548.27-Aug-2021 4914.00 7807.49 85.27 11.00 282.90 3261.31
   11:53:38.748.27-Aug-2021 4914.00 7807.56 85.27 11.00 283.10 3261.31
   11:53:38.948.27-Aug-2021 4914.00 7807.56 85.27 11.00 283.30 3261.31
   11:53:39.148.27-Aug-2021 4914.00 7808.09 85.27 11.00 283.50 3261.31
   11:53:39.349.27-Aug-2021 4914.00 7808.42 85.27 11.00 283.70 3261.31
   11:53:39.549.27-Aug-2021 4914.00 7808.11 85.27 11.00 283.90 3261.31
   11:53:39.749.27-Aug-2021 4914.00 7808.02 85.27 11.00 284.10 3261.31
   11:53:39.949.27-Aug-2021 4914.00 7808.02 85.27 11.00 284.30 3261.31
   11:53:40.149.27-Aug-2021 4914.00 7807.68 85.27 11.00 284.50 3261.31
   11:53:40.349.27-Aug-2021 4914.00 7813.90 85.27 11.00 284.70 3261.31
   11:53:40.549.27-Aug-2021 4914.00 7804.33 85.27 11.00 284.90 3261.31
   11:53:40.749.27-Aug-2021 4914.00 7808.90 85.27 11.00 285.10 3261.31
   11:53:40.949.27-Aug-2021 4914.00 7808.90 85.27 11.00 285.30 3261.31
   11:53:41.149.27-Aug-2021 4914.00 7807.21 85.27 11.00 285.50 3261.31
   11:53:41.349.27-Aug-2021 4914.00 7807.26 85.27 11.00 285.70 3261.31
   11:53:41.549.27-Aug-2021 4914.00 7807.08 85.27 11.00 285.90 3261.31
   11:53:41.749.27-Aug-2021 4914.00 7807.56 85.27 11.00 286.10 3261.31
   11:53:41.949.27-Aug-2021 4914.00 7807.56 85.27 11.00 286.30 3261.31
   11:53:42.150.27-Aug-2021 4914.00 7807.68 85.27 11.00 286.50 3261.31
   11:53:42.350.27-Aug-2021 4914.00 7808.18 85.27 11.00 286.70 3261.31
   11:53:42.550.27-Aug-2021 4914.00 7808.45 85.27 11.00 286.90 3261.31
   11:53:42.750.27-Aug-2021 4914.00 7808.34 85.27 11.00 287.10 3261.31
   11:53:42.950.27-Aug-2021 4914.00 7808.34 85.27 11.00 287.30 3261.31
   11:53:43.150.27-Aug-2021 4914.00 7808.34 85.27 11.00 287.50 3261.31
   11:53:43.350.27-Aug-2021 4914.00 7807.82 85.27 11.00 287.70 3261.31
   11:53:43.550.27-Aug-2021 4914.00 7807.66 85.27 11.00 287.90 3261.31
   11:53:43.750.27-Aug-2021 4914.00 7813.80 85.27 11.00 288.10 3261.31
   11:53:43.950.27-Aug-2021 4914.00 7813.80 85.27 11.00 288.30 3261.31
   11:53:44.150.27-Aug-2021 4914.00 7808.52 85.27 11.00 288.50 3261.31
   11:53:44.350.27-Aug-2021 4914.00 7807.45 85.27 11.00 288.70 3261.31
   11:53:44.550.27-Aug-2021 4914.00 7807.03 85.27 11.00 288.90 3261.31
   11:53:44.750.27-Aug-2021 4914.00 7807.17 85.27 11.00 289.10 3261.31
   11:53:44.951.27-Aug-2021 4914.00 7807.17 85.27 11.00 289.30 3261.31
   11:53:45.151.27-Aug-2021 4914.00 7808.11 85.27 11.00 289.50 3261.31
   11:53:45.351.27-Aug-2021 4914.00 7807.90 85.27 11.00 289.70 3261.31
   11:53:45.551.27-Aug-2021 4914.00 7810.46 85.27 11.00 289.90 3261.31
   11:53:45.751.27-Aug-2021 4914.00 7807.38 85.27 11.00 290.10 3261.31
   11:53:45.951.27-Aug-2021 4914.00 7807.38 85.27 11.00 290.30 3261.31
   11:53:46.151.27-Aug-2021 4914.00 7808.08 85.27 11.00 290.50 3261.31
   11:53:46.351.27-Aug-2021 4914.00 7806.62 85.27 11.00 290.70 3261.31
   11:53:46.551.27-Aug-2021 4914.00 7806.92 85.27 11.00 290.90 3261.31
   11:53:46.751.27-Aug-2021 4914.00 7813.28 85.27 11.00 291.10 3261.31
   11:53:46.951.27-Aug-2021 4914.00 7813.28 85.27 11.00 291.30 3261.31
   11:53:47.151.27-Aug-2021 4914.00 7808.59 85.27 11.00 291.50 3261.31
   11:53:47.351.27-Aug-2021 4914.00 7807.36 85.27 11.00 291.70 3261.31
   11:53:47.551.27-Aug-2021 4914.00 7807.68 85.27 11.00 291.90 3261.31
   11:53:47.751.27-Aug-2021 4914.00 7807.35 85.27 11.00 292.10 3261.31
   11:53:47.952.27-Aug-2021 4914.00 7807.35 85.27 11.00 292.30 3261.31
   11:53:48.152.27-Aug-2021 4914.00 7807.31 85.27 11.00 292.50 3261.31
   11:53:48.352.27-Aug-2021 4914.00 7807.16 85.27 11.00 292.70 3261.31
   11:53:48.552.27-Aug-2021 4914.00 7807.29 85.27 11.00 292.90 3261.31
   11:53:48.752.27-Aug-2021 4914.00 7807.69 85.27 11.00 293.10 3261.31
   11:53:48.952.27-Aug-2021 4914.00 7807.69 85.27 11.00 293.30 3261.31
   11:53:49.152.27-Aug-2021 4914.00 7807.93 85.27 11.00 293.50 3261.31
   11:53:49.352.27-Aug-2021 4914.00 7807.99 85.27 11.00 293.70 3261.31
