~Version Information
 VERS.                  2.0:   CWLS log ASCII Standard -VERSION 2.0
 WRAP.                   NO:   One line per depth step
~Well Information Block
#MNEM.UNIT     VALUE/NAME     DESCRIPTION
#---------     -----------    ---------------------------
 STRT.S             22:11:58 27-Aug-21: START TIME 22:11:58 27-Aug-21
 STOP.S             22:18:52 27-Aug-21: STOP TIME  22:18:52 27-Aug-21
 STEP.S                   0.00: STEP TIME
 NULL.                 -999.25: NULL VALUE
 DFWT.                        :  DIST FWL TEXT
 DFST.                        :  DIST FSL TEXT
 DMF .             Drill Floor:  DRILL MEAS FROM
 STIM.      20.00.00 17-Aug-21:  START TIME
 DATE.      19.00.00 29-Aug-21:  END TIME
 SPUD.               15-Aug-21:  SPUD DATE
 NREF.                    Grid:  NORTH REFERENCE
 HPTY.       Minimum Curvature:  HOLE POS TYPE
 DMOD.             Drill Model:  DRILL MOD DESC
 SVYD.                  Survey:  SURVEY DESC
 ILTD.               Lithology:  INTERP LTH DESC
 FTOP.          Formation Tops:  FORM TOPS DESC
 RIG .              East Azeri:  RIG NAME
 PDAT.          Mean Sea Level:  PERMANENT DATUM
 FLD .                     ACG:  FIELD NAME
 SON .        AZ-XX-0907180857:  JOB NUMBER
 CTRY.              Azerbaijan:  COUNTRY NAME
 WELL.                    D23x:  WELL NAME
 SRVC.     Turan Drilling and Engineering:  CONTRACTOR
 COMP.     BP Exploration (Caspian Sea) Ltd.:  COMPANY
 UWI .            /AZE00000214:  UNIQUE WELL IDENTIFIER
 API .            /AZE00000214:  API NUMBER
 MDS .        Operator Entered:  MAG DATA SOURCE
 BASE.              Azerbaijan:  LOGGING EQUIPMENT BASE LOCATION
 REGN.                   EESSA:  REGION
 PROV.                    Baku:  PROVINCE
 STAT.                    Baku:  STATE NAME
 MWDS.                    Baku:  MWD SHOP
 DOE .                     N/A:  DOE NUMBER
 DCON.         Sperry Drilling:  DIRECTNL CONTR
 UNIT.                     N/A:  LOGGING EQUIPMENT ID
 WTYP.                Deviated:  WELL TYPE
 CNTY.                        :  COUNTY
 LOC .                        :  LOCATION
 LMF .             Drill Floor:  LOG MEASURED FROM
 TVDS.m                  43.60:  TVDSS CORRECTN
 LATI.deg                40.02:  LATITUDE
 LONG.deg                51.45:  LONGITUDE
 WHNS.m                  -7.04:  WELL HEAD N/S
 WHEW.m                  -0.67:  WELL HEAD E/W
 UTMX.m              538762.90:  UTM X
 UTMY.m             4431871.34:  UTM Y
 DFWL.m                   0.00:  DISTANCE FWL
 DFSL.m                   0.00:  DISTANCE FSL
 SDEP.m                4127.00:  START DEPTH
 TDD .m                5084.50:  TOTAL DEPTH (DRILLER)
 VSDR.deg               140.47:  VERT SEC DIRECT
 GVFD.g                   1.00:  GRAVITY FIELD
 MFLD.nT              50362.00:  MAGNETIC FIELD
 MDIP.deg                59.48:  MAGNETIC DIP
 MDEC.deg                 6.47:  MAGNETIC DECL
 GRDC.deg                 0.31:  GRID CORRECTION
 AZTC.deg                 6.16:  AZM TOTAL CORR
 EPD .m                   0.00:  ELEVATION
 EGL .m                   0.00:  GROUND ELEVATION
 WDMS.m                 151.80:  WD ELEV
 APD .m                  43.60:  DEPTH ABOVE PD
 DEP .m                4092.57:  DEPTH
 AGAP.m                  43.60:  AIR GAP
 VSEW.m                  -0.67:  VERT SEC E/W
 VSNS.m                  -7.04:  VERT SEC N/S
 EKB .m                  43.60:  KB ELEVATION
 EDF .m                  43.60:  DF ELEVATION
 TDL .m                 957.50:  TOTAL DEPTH (LOGGER)
 VSC .                       0:  VS TO CLOSURE
 MAGU.                 1851413:  MAGUTM CHECKSUM
~Parameter Information Block
#MNEM.UNIT       Value        Description
#---------     -----------    ---------------------------
 AV  .mps                 1.50:  Ann Velocity 
 AVMX.mps                 2.00:  Max Ann Veloc 
 AZIF.deg               184.66:  Azm, Final 
 BHAT.        Rotary Steerable:  BHA Type 
 BREV.rev               300.00:  Rev Bit Total 
 BROT.°/30m              -0.50:  Build Rotating 
 BS  .in                  8.50:  Bit Size 
 BSZ .in                  8.50:  Bit Size 
 BTPL.psig              370.00:  Bit Press Loss 
 CABU.                      No:  Customer Abuse 
 CGEO.      Behruz Shahbaliyev:  Customer Geo 
 COMM.                     Tªl:  Run Comments 1 
 TCS .hr                140.08:  Time Ciculation Ended 
 CV  .mps                 3.00:  Crit Velocity 
 CVMX.mps                 3.20:  Max Crit Veloc 
 DD1 .            Musa Ahmadov:  Direct Drillr 1 
 DD2 .           Hamid Ahmadov:  Direct Drillr 2 
 DDSV.               Geo-Pilot:  DD Service 
 DEFF.%                  98.40:  % Det Eff 
 DLRX.°/30m               3.40:  Dogleg Rot Max 
 DLSO.°/30m               1.45:  Dogleg Oriented 
 DLSX.°/30m               3.40:  Dogleg Str Max 
 DRET.      18.40.00 29-Aug-21:  Drill End Time 
 DRST.      21.00.00 20-Aug-21:  Drill Start Tim 
 DTIM.hr                 69.47:  Time Drilling 
 EDEP.m                5084.50:  End Depth 
 ENG1.      Artemiy Matviyanov:  Engineer 1 
 ENG2.         Almaz Almadatov:  Engineer 2 
 ETIM.      18.40.00 29-Aug-21:  End Time 
 FLOI.gpm               500.00:  Flow In 
 FLON.gpm               400.00:  Flow In Min 
 FLOS.cptm                0.00:  Fluid Loss 
 FLOX.gpm               500.00:  Flow In Max 
 DFT .        Mineral Oil Base:  Mud Type 
 HFLO.                      No:  High Flow 
 HPRE.                      No:  High Pressure 
 HTEM.                      No:  High Temp 
 HYDO.m                   1.80:  Hydro Offset 
 IFIN.deg                25.62:  Inc, Final 
 IMAX.deg                48.69:  Inc Max 
 IMIN.deg                24.01:  Inc Min 
 IMND.m                4962.57:  Inc Min Depth 
 IMXD.m                4119.01:  Inc Max Depth 
 JARR.                      No:  Jarring 
 LETM.      18.40.00 29-Aug-21:  Log End Time 
 LOST.hr                     0:  Lost Rig Time 
 LSTM.      21.00.00 20-Aug-21:  Log Start Time 
 MDCL.ppm             41500.00:  Mud Chlorides 
 MDES.     Inversion Oil/Synthetic:  Mud Desc 
 DFD .sg                  1.56:  Mud Density 
 MDMN.sg                  1.56:  Dens Mud Min 
 MDMX.sg                  1.56:  Dens Mud Max 
 MOIL.                      70:  Run Mud Oil % 
 MOWR.                   70:30:  Run Mud OWR 
 MSND.                     0.2:  Run Mud Sand % 
 MSOL.                    23.3:  Run Mud Solids% 
 DFV .spqt               78.00:  Mud Viscosity 
 MWOD.in                  6.75:  MWD Tool OD 
 MWSI.                      No:  Serv Intrp, MWD 
 OTIM.hr                218.30:  Time Operating 
 PCON.           Look Like New:  Pad Condition 
 PMAX.psia            11015.30:  Press Op, Max 
 PV  .cP                 38.00:  Mud PV 
 RUN .                     300:  Run Number 
 ROPA.m/hr               15.00:  ROP Avg 
 ROPN.m/hr                9.00:  ROP Min 
 ROPX.m/hr               17.00:  ROP Max 
 RPMA.rpm               120.00:  RPM Surface Avg 
 RPMN.rpm                90.00:  RPM Surface Min 
 RPMX.rpm               140.00:  RPM Surface Max 
 RRUN.                     300:  Rig Run Number 
 RTIM.hr                 31.53:  Time Reaming 
 SAZI.deg               331.64:  Azm, Start 
 SDEP.m                4127.00:  Start Depth 
 SIDD.                      No:  Serv Intrp, DD 
 SINC.deg                48.43:  Inc, Start 
 SPPA.psig             5830.00:  SPP Avg 
 SPPN.psig             5600.00:  SPP Min 
 SPPX.psig             5900.00:  SPP Max 
 STIM.      21.00.00 20-Aug-21:  Start Time 
 SVCS.                 DD, MWD:  Services 
 SVER.                    9.20:  Sperry Version 
 TDAT.m                 957.50:  Tot Depth Attmp 
 TDDF.                      No:  Trip for DD 
 TDLG.m                 957.50:  Tot Depth Loggd 
 TFF .                      No:  Trip for Fail 
 TQAA.f-kp               15.00:  Torque Abs Avg 
 TQAN.f-kp               12.00:  Torque Abs Min 
 TQAX.f-kp               19.00:  Torque Abs Max 
 TRRT.°/30m              -3.40:  Turn Rotating 
 MRT .                  EWR-M5:  Maximum Recorded Temperature 
 TTMX.degC              100.00:  Max Tool Temp 
 VS01.                90639251:  Virtual Str1 SN 
 VS02.                90634715:  Virtual Str2 SN 
 VS03.                90652479:  Virtual Str3 SN 
 VS04.                90642262:  Virtual Str4 SN 
 WBMN.klb                 0.00:  WOB Min 
 WITN.           Murad Guliyev:  Customer Rep 
 WITN.          Yashar Gaziyev:  Customer Rep 2 
 WOBA.klb                 9.00:  WOB Avg 
 WOBX.klb                12.00:  WOB Max 
 YP  .lhf2               30.00:  Yield Point 
~Curve Information Block
#MNEM.UNIT                 API CODE     Curve Description
#---------               -----------    ---------------------------
 TIME.HHMMSS            00 000 000 000:  GT Time & Date
 GTDEPTH.m              00 000 000 000:  GT Depth
 GTPQH.psia             00 000 000 000:  GT HR Quartz Pressure
 GTTQ.degC              00 000 000 000:  GT Quartz Temperature
 GTTN.NONE              00 000 000 000:  GT Test Number
 GTET.sec               00 000 000 000:  GT Elapsed Test Time
 GTTVD.m                00 000 000 000:  GT True Vertical Depth
#Other Information
#
#WARRANTY: Halliburton will use its best efforts to furnish customers with 
#accurate information and interpretations that are part of, and incident to, the services 
#provided.  However, Halliburton cannot and does not warrant the accuracy 
#or correctness of such information and interpretations.  Under no circumstances should any 
#such information or interpretation be relied upon as the sole basis for any drilling, 
#completion, production, or financial decision or any procedure involving any risk to the 
#safety of any drilling venture, drilling rig or its crew or any other third party.  The 
#Customer has full responsibility for all drilling, completion and production operation.  
#Halliburton makes no representations or warranties, either expressed or 
#implied, including, but not limited to, the implied warranties of merchantability or fitness 
#for a particular purpose, with respect to the services rendered.  In no event will 
#Halliburton be liable for failure to obtain any particular results or for 
#any damages, including, but not limited to, indirect, special or consequential damages, 
#resulting from the use of any information or interpretation provided by Halliburton.
#
~A           TIME           GTDEPTH  GTPQH  GTTQ  GTTN   GTET   GTTVD  
# ...
   22:14:14.160.27-Aug-2021 4635.80 4094.34 82.44 24.00 135.61 3009.39
   22:14:14.360.27-Aug-2021 4635.80 4097.28 82.44 24.00 135.81 3009.39
   22:14:14.560.27-Aug-2021 4635.80 4100.19 82.44 24.00 136.01 3009.39
   22:14:14.760.27-Aug-2021 4635.80 4100.19 82.44 24.00 136.21 3009.39
   22:14:14.960.27-Aug-2021 4635.80 4105.91 82.44 24.00 136.41 3009.39
   22:14:15.160.27-Aug-2021 4635.80 4108.77 82.44 24.00 136.61 3009.39
   22:14:15.360.27-Aug-2021 4635.80 4111.59 82.44 24.00 136.81 3009.39
   22:14:15.560.27-Aug-2021 4635.80 4114.27 82.44 24.00 137.01 3009.39
   22:14:15.760.27-Aug-2021 4635.80 4114.27 82.44 24.00 137.21 3009.39
   22:14:15.960.27-Aug-2021 4635.80 4118.05 82.44 24.00 137.41 3009.39
   22:14:16.160.27-Aug-2021 4635.80 4120.39 82.44 24.00 137.61 3009.39
   22:14:16.360.27-Aug-2021 4635.80 4122.99 82.44 24.00 137.81 3009.39
   22:14:16.560.27-Aug-2021 4635.80 4125.59 82.44 24.00 138.01 3009.39
   22:14:16.760.27-Aug-2021 4635.80 4125.59 82.44 24.00 138.21 3009.39
   22:14:16.960.27-Aug-2021 4635.80 4129.36 82.44 24.00 138.41 3009.39
   22:14:17.160.27-Aug-2021 4635.80 4131.98 82.44 24.00 138.61 3009.39
   22:14:17.360.27-Aug-2021 4635.80 4134.68 82.44 24.00 138.81 3009.39
   22:14:17.560.27-Aug-2021 4635.80 4137.35 82.44 24.00 139.01 3009.39
   22:14:17.760.27-Aug-2021 4635.80 4137.35 82.44 24.00 139.21 3009.39
   22:14:17.960.27-Aug-2021 4635.80 4142.59 82.44 24.00 139.41 3009.39
   22:14:18.160.27-Aug-2021 4635.80 4145.22 82.44 24.00 139.61 3009.39
   22:14:18.360.27-Aug-2021 4635.80 4147.75 82.43 24.00 139.81 3009.39
   22:14:18.560.27-Aug-2021 4635.80 4150.29 82.44 24.00 140.01 3009.39
   22:14:18.760.27-Aug-2021 4635.80 4150.29 82.44 24.00 140.21 3009.39
   22:14:18.960.27-Aug-2021 4635.80 4152.87 82.43 24.00 140.41 3009.39
   22:14:19.160.27-Aug-2021 4635.80 4156.53 82.44 24.00 140.61 3009.39
   22:14:19.360.27-Aug-2021 4635.80 4158.33 82.43 24.00 140.81 3009.39
   22:14:19.560.27-Aug-2021 4635.80 4160.79 82.43 24.00 141.01 3009.39
   22:14:19.760.27-Aug-2021 4635.80 4160.79 82.43 24.00 141.21 3009.39
   22:14:19.960.27-Aug-2021 4635.80 4165.89 82.43 24.00 141.41 3009.39
   22:14:20.160.27-Aug-2021 4635.80 4168.24 82.43 24.00 141.61 3009.39
   22:14:20.360.27-Aug-2021 4635.80 4169.99 82.43 24.00 141.81 3009.39
   22:14:20.560.27-Aug-2021 4635.80 4171.82 82.43 24.00 142.01 3009.39
   22:14:20.760.27-Aug-2021 4635.80 4171.82 82.43 24.00 142.21 3009.39
   22:14:20.960.27-Aug-2021 4635.80 4176.34 82.43 24.00 142.41 3009.39
   22:14:21.160.27-Aug-2021 4635.80 4178.82 82.43 24.00 142.61 3009.39
   22:14:21.360.27-Aug-2021 4635.80 4180.63 82.43 24.00 142.81 3009.39
   22:14:21.560.27-Aug-2021 4635.80 4183.10 82.43 24.00 143.01 3009.39
   22:14:21.760.27-Aug-2021 4635.80 4183.10 82.43 24.00 143.21 3009.39
   22:14:21.960.27-Aug-2021 4635.80 4186.06 82.43 24.00 143.41 3009.39
   22:14:22.160.27-Aug-2021 4635.80 4187.69 82.43 24.00 143.61 3009.39
   22:14:22.360.27-Aug-2021 4635.80 4190.58 82.43 24.00 143.81 3009.39
   22:14:22.560.27-Aug-2021 4635.80 4192.63 82.43 24.00 144.01 3009.39
   22:14:22.761.27-Aug-2021 4635.80 4192.63 82.43 24.00 144.21 3009.39
   22:14:22.961.27-Aug-2021 4635.80 4195.10 82.43 24.00 144.41 3009.39
   22:14:23.161.27-Aug-2021 4635.80 4199.93 82.43 24.00 144.61 3009.39
   22:14:23.361.27-Aug-2021 4635.80 4202.18 82.43 24.00 144.81 3009.39
   22:14:23.561.27-Aug-2021 4635.80 4204.53 82.43 24.00 145.01 3009.39
   22:14:23.761.27-Aug-2021 4635.80 4204.53 82.43 24.00 145.21 3009.39
   22:14:23.961.27-Aug-2021 4635.80 4209.15 82.43 24.00 145.41 3009.39
   22:14:24.161.27-Aug-2021 4635.80 4211.39 82.43 24.00 145.61 3009.39
   22:14:24.361.27-Aug-2021 4635.80 4213.69 82.43 24.00 145.81 3009.39
   22:14:24.561.27-Aug-2021 4635.80 4215.91 82.43 24.00 146.01 3009.39
   22:14:24.761.27-Aug-2021 4635.80 4215.91 82.43 24.00 146.21 3009.39
   22:14:24.961.27-Aug-2021 4635.80 4220.34 82.43 24.00 146.41 3009.39
   22:14:25.161.27-Aug-2021 4635.80 4221.82 82.43 24.00 146.61 3009.39
   22:14:25.361.27-Aug-2021 4635.80 4223.48 82.43 24.00 146.82 3009.39
   22:14:25.561.27-Aug-2021 4635.80 4225.24 82.43 24.00 147.02 3009.39
   22:14:25.761.27-Aug-2021 4635.80 4225.24 82.43 24.00 147.22 3009.39
   22:14:25.961.27-Aug-2021 4635.80 4225.24 82.43 24.00 147.42 3009.39
   22:14:26.161.27-Aug-2021 4635.80 4231.65 82.43 24.00 147.62 3009.39
   22:14:26.361.27-Aug-2021 4635.80 4233.67 82.43 24.00 147.82 3009.39
   22:14:26.561.27-Aug-2021 4635.80 4235.46 82.43 24.00 148.02 3009.39
   22:14:26.761.27-Aug-2021 4635.80 4235.46 82.43 24.00 148.22 3009.39
   22:14:26.961.27-Aug-2021 4635.80 4238.10 82.43 24.00 148.42 3009.39
   22:14:27.161.27-Aug-2021 4635.80 4240.21 82.43 24.00 148.62 3009.39
   22:14:27.361.27-Aug-2021 4635.80 4242.31 82.43 24.00 148.82 3009.39
   22:14:27.561.27-Aug-2021 4635.80 4244.34 82.43 24.00 149.02 3009.39
   22:14:27.761.27-Aug-2021 4635.80 4244.34 82.43 24.00 149.22 3009.39
   22:14:27.961.27-Aug-2021 4635.80 4248.42 82.43 24.00 149.42 3009.39
   22:14:28.161.27-Aug-2021 4635.80 4250.45 82.43 24.00 149.62 3009.39
   22:14:28.361.27-Aug-2021 4635.80 4252.44 82.43 24.00 149.82 3009.39
   22:14:28.561.27-Aug-2021 4635.80 4252.88 82.43 24.00 150.02 3009.39
   22:14:28.761.27-Aug-2021 4635.80 4252.88 82.43 24.00 150.22 3009.39
   22:14:28.961.27-Aug-2021 4635.80 4256.95 82.43 24.00 150.42 3009.39
   22:14:29.161.27-Aug-2021 4635.80 4259.04 82.43 24.00 150.62 3009.39
   22:14:29.361.27-Aug-2021 4635.80 4260.92 82.43 24.00 150.82 3009.39
   22:14:29.561.27-Aug-2021 4635.80 4261.73 82.43 24.00 151.02 3009.39
   22:14:29.761.27-Aug-2021 4635.80 4261.73 82.43 24.00 151.22 3009.39
   22:14:29.961.27-Aug-2021 4635.80 4265.36 82.43 24.00 151.42 3009.39
   22:14:30.161.27-Aug-2021 4635.80 4267.10 82.43 24.00 151.62 3009.39
   22:14:30.361.27-Aug-2021 4635.80 4268.70 82.43 24.00 151.82 3009.39
   22:14:30.561.27-Aug-2021 4635.80 4268.69 82.43 24.00 152.02 3009.39
   22:14:30.761.27-Aug-2021 4635.80 4268.69 82.43 24.00 152.22 3009.39
   22:14:30.961.27-Aug-2021 4635.80 4270.78 82.43 24.00 152.42 3009.39
   22:14:31.161.27-Aug-2021 4635.80 4272.00 82.43 24.00 152.62 3009.39
   22:14:31.361.27-Aug-2021 4635.80 4271.40 82.43 24.00 152.82 3009.39
   22:14:31.561.27-Aug-2021 4635.80 4273.02 82.43 24.00 153.02 3009.39
   22:14:31.761.27-Aug-2021 4635.80 4273.02 82.43 24.00 153.22 3009.39
   22:14:31.961.27-Aug-2021 4635.80 4275.34 82.43 24.00 153.42 3009.39
   22:14:32.161.27-Aug-2021 4635.80 4276.66 82.43 24.00 153.62 3009.39
   22:14:32.361.27-Aug-2021 4635.80 4278.14 82.43 24.00 153.82 3009.39
   22:14:32.562.27-Aug-2021 4635.80 4279.61 82.43 24.00 154.02 3009.39
   22:14:32.762.27-Aug-2021 4635.80 4279.61 82.43 24.00 154.22 3009.39
   22:14:32.962.27-Aug-2021 4635.80 4282.62 82.43 24.00 154.42 3009.39
   22:14:33.162.27-Aug-2021 4635.80 4284.16 82.43 24.00 154.62 3009.39
   22:14:33.362.27-Aug-2021 4635.80 4285.55 82.43 24.00 154.82 3009.39
   22:14:33.562.27-Aug-2021 4635.80 4287.05 82.43 24.00 155.02 3009.39
   22:14:33.762.27-Aug-2021 4635.80 4287.05 82.43 24.00 155.22 3009.39
   22:14:33.962.27-Aug-2021 4635.80 4288.80 82.43 24.00 155.42 3009.39
   22:14:34.162.27-Aug-2021 4635.80 4289.89 82.43 24.00 155.62 3009.39
   22:14:34.362.27-Aug-2021 4635.80 4289.97 82.43 24.00 155.82 3009.39
   22:14:34.562.27-Aug-2021 4635.80 4291.03 82.43 24.00 156.02 3009.39
   22:14:34.762.27-Aug-2021 4635.80 4291.03 82.43 24.00 156.22 3009.39
   22:14:34.962.27-Aug-2021 4635.80 4291.53 82.43 24.00 156.42 3009.39
   22:14:35.162.27-Aug-2021 4635.80 4294.18 82.43 24.00 156.62 3009.39
   22:14:35.362.27-Aug-2021 4635.80 4295.70 82.43 24.00 156.82 3009.39
   22:14:35.562.27-Aug-2021 4635.80 4297.09 82.43 24.00 157.02 3009.39
   22:14:35.762.27-Aug-2021 4635.80 4297.09 82.43 24.00 157.22 3009.39
   22:14:35.962.27-Aug-2021 4635.80 4300.05 82.43 24.00 157.42 3009.39
   22:14:36.162.27-Aug-2021 4635.80 4301.42 82.43 24.00 157.62 3009.39
   22:14:36.362.27-Aug-2021 4635.80 4302.83 82.43 24.00 157.82 3009.39
   22:14:36.562.27-Aug-2021 4635.80 4304.24 82.43 24.00 158.02 3009.39
