~Version Information
 VERS.                  2.0:   CWLS log ASCII Standard -VERSION 2.0
 WRAP.                   NO:   One line per depth step
~Well Information Block
#MNEM.UNIT     VALUE/NAME     DESCRIPTION
#---------     -----------    ---------------------------
 STRT.S             16:56:36 27-Aug-21: START TIME 16:56:36 27-Aug-21
 STOP.S             17:03:52 27-Aug-21: STOP TIME  17:03:52 27-Aug-21
 STEP.S                   0.00: STEP TIME
 NULL.                 -999.25: NULL VALUE
 DFWT.                        :  DIST FWL TEXT
 DFST.                        :  DIST FSL TEXT
 DMF .             Drill Floor:  DRILL MEAS FROM
 STIM.      20.00.00 17-Aug-21:  START TIME
 DATE.      19.00.00 29-Aug-21:  END TIME
 SPUD.               15-Aug-21:  SPUD DATE
 NREF.                    Grid:  NORTH REFERENCE
 HPTY.       Minimum Curvature:  HOLE POS TYPE
 DMOD.             Drill Model:  DRILL MOD DESC
 SVYD.                  Survey:  SURVEY DESC
 ILTD.               Lithology:  INTERP LTH DESC
 FTOP.          Formation Tops:  FORM TOPS DESC
 RIG .              East Azeri:  RIG NAME
 PDAT.          Mean Sea Level:  PERMANENT DATUM
 FLD .                     ACG:  FIELD NAME
 SON .        AZ-XX-0907180857:  JOB NUMBER
 CTRY.              Azerbaijan:  COUNTRY NAME
 WELL.                    D23x:  WELL NAME
 SRVC.     Turan Drilling and Engineering:  CONTRACTOR
 COMP.     BP Exploration (Caspian Sea) Ltd.:  COMPANY
 UWI .            /AZE00000214:  UNIQUE WELL IDENTIFIER
 API .            /AZE00000214:  API NUMBER
 MDS .        Operator Entered:  MAG DATA SOURCE
 BASE.              Azerbaijan:  LOGGING EQUIPMENT BASE LOCATION
 REGN.                   EESSA:  REGION
 PROV.                    Baku:  PROVINCE
 STAT.                    Baku:  STATE NAME
 MWDS.                    Baku:  MWD SHOP
 DOE .                     N/A:  DOE NUMBER
 DCON.         Sperry Drilling:  DIRECTNL CONTR
 UNIT.                     N/A:  LOGGING EQUIPMENT ID
 WTYP.                Deviated:  WELL TYPE
 CNTY.                        :  COUNTY
 LOC .                        :  LOCATION
 LMF .             Drill Floor:  LOG MEASURED FROM
 TVDS.m                  43.60:  TVDSS CORRECTN
 LATI.deg                40.02:  LATITUDE
 LONG.deg                51.45:  LONGITUDE
 WHNS.m                  -7.04:  WELL HEAD N/S
 WHEW.m                  -0.67:  WELL HEAD E/W
 UTMX.m              538762.90:  UTM X
 UTMY.m             4431871.34:  UTM Y
 DFWL.m                   0.00:  DISTANCE FWL
 DFSL.m                   0.00:  DISTANCE FSL
 SDEP.m                4127.00:  START DEPTH
 TDD .m                5084.50:  TOTAL DEPTH (DRILLER)
 VSDR.deg               140.47:  VERT SEC DIRECT
 GVFD.g                   1.00:  GRAVITY FIELD
 MFLD.nT              50362.00:  MAGNETIC FIELD
 MDIP.deg                59.48:  MAGNETIC DIP
 MDEC.deg                 6.47:  MAGNETIC DECL
 GRDC.deg                 0.31:  GRID CORRECTION
 AZTC.deg                 6.16:  AZM TOTAL CORR
 EPD .m                   0.00:  ELEVATION
 EGL .m                   0.00:  GROUND ELEVATION
 WDMS.m                 151.80:  WD ELEV
 APD .m                  43.60:  DEPTH ABOVE PD
 DEP .m                4092.57:  DEPTH
 AGAP.m                  43.60:  AIR GAP
 VSEW.m                  -0.67:  VERT SEC E/W
 VSNS.m                  -7.04:  VERT SEC N/S
 EKB .m                  43.60:  KB ELEVATION
 EDF .m                  43.60:  DF ELEVATION
 TDL .m                 957.50:  TOTAL DEPTH (LOGGER)
 VSC .                       0:  VS TO CLOSURE
 MAGU.                 1851413:  MAGUTM CHECKSUM
~Parameter Information Block
#MNEM.UNIT       Value        Description
#---------     -----------    ---------------------------
 AV  .mps                 1.50:  Ann Velocity 
 AVMX.mps                 2.00:  Max Ann Veloc 
 AZIF.deg               184.66:  Azm, Final 
 BHAT.        Rotary Steerable:  BHA Type 
 BREV.rev               300.00:  Rev Bit Total 
 BROT.°/30m              -0.50:  Build Rotating 
 BS  .in                  8.50:  Bit Size 
 BSZ .in                  8.50:  Bit Size 
 BTPL.psig              370.00:  Bit Press Loss 
 CABU.                      No:  Customer Abuse 
 CGEO.      Behruz Shahbaliyev:  Customer Geo 
 COMM.                     T
k:  Run Comments 1 
 TCS .hr                140.08:  Time Ciculation Ended 
 CV  .mps                 3.00:  Crit Velocity 
 CVMX.mps                 3.20:  Max Crit Veloc 
 DD1 .            Musa Ahmadov:  Direct Drillr 1 
 DD2 .           Hamid Ahmadov:  Direct Drillr 2 
 DDSV.               Geo-Pilot:  DD Service 
 DEFF.%                  98.40:  % Det Eff 
 DLRX.°/30m               3.40:  Dogleg Rot Max 
 DLSO.°/30m               1.45:  Dogleg Oriented 
 DLSX.°/30m               3.40:  Dogleg Str Max 
 DRET.      18.40.00 29-Aug-21:  Drill End Time 
 DRST.      21.00.00 20-Aug-21:  Drill Start Tim 
 DTIM.hr                 69.47:  Time Drilling 
 EDEP.m                5084.50:  End Depth 
 ENG1.      Artemiy Matviyanov:  Engineer 1 
 ENG2.         Almaz Almadatov:  Engineer 2 
 ETIM.      18.40.00 29-Aug-21:  End Time 
 FLOI.gpm               500.00:  Flow In 
 FLON.gpm               400.00:  Flow In Min 
 FLOS.cptm                0.00:  Fluid Loss 
 FLOX.gpm               500.00:  Flow In Max 
 DFT .        Mineral Oil Base:  Mud Type 
 HFLO.                      No:  High Flow 
 HPRE.                      No:  High Pressure 
 HTEM.                      No:  High Temp 
 HYDO.m                   1.80:  Hydro Offset 
 IFIN.deg                25.62:  Inc, Final 
 IMAX.deg                48.69:  Inc Max 
 IMIN.deg                24.01:  Inc Min 
 IMND.m                4962.57:  Inc Min Depth 
 IMXD.m                4119.01:  Inc Max Depth 
 JARR.                      No:  Jarring 
 LETM.      18.40.00 29-Aug-21:  Log End Time 
 LOST.hr                     0:  Lost Rig Time 
 LSTM.      21.00.00 20-Aug-21:  Log Start Time 
 MDCL.ppm             41500.00:  Mud Chlorides 
 MDES.     Inversion Oil/Synthetic:  Mud Desc 
 DFD .sg                  1.56:  Mud Density 
 MDMN.sg                  1.56:  Dens Mud Min 
 MDMX.sg                  1.56:  Dens Mud Max 
 MOIL.                      70:  Run Mud Oil % 
 MOWR.                   70:30:  Run Mud OWR 
 MSND.                     0.2:  Run Mud Sand % 
 MSOL.                    23.3:  Run Mud Solids% 
 DFV .spqt               78.00:  Mud Viscosity 
 MWOD.in                  6.75:  MWD Tool OD 
 MWSI.                      No:  Serv Intrp, MWD 
 OTIM.hr                218.30:  Time Operating 
 PCON.           Look Like New:  Pad Condition 
 PMAX.psia            11015.30:  Press Op, Max 
 PV  .cP                 38.00:  Mud PV 
 RUN .                     300:  Run Number 
 ROPA.m/hr               15.00:  ROP Avg 
 ROPN.m/hr                9.00:  ROP Min 
 ROPX.m/hr               17.00:  ROP Max 
 RPMA.rpm               120.00:  RPM Surface Avg 
 RPMN.rpm                90.00:  RPM Surface Min 
 RPMX.rpm               140.00:  RPM Surface Max 
 RRUN.                     300:  Rig Run Number 
 RTIM.hr                 31.53:  Time Reaming 
 SAZI.deg               331.64:  Azm, Start 
 SDEP.m                4127.00:  Start Depth 
 SIDD.                      No:  Serv Intrp, DD 
 SINC.deg                48.43:  Inc, Start 
 SPPA.psig             5830.00:  SPP Avg 
 SPPN.psig             5600.00:  SPP Min 
 SPPX.psig             5900.00:  SPP Max 
 STIM.      21.00.00 20-Aug-21:  Start Time 
 SVCS.                 DD, MWD:  Services 
 SVER.                    9.20:  Sperry Version 
 TDAT.m                 957.50:  Tot Depth Attmp 
 TDDF.                      No:  Trip for DD 
 TDLG.m                 957.50:  Tot Depth Loggd 
 TFF .                      No:  Trip for Fail 
 TQAA.f-kp               15.00:  Torque Abs Avg 
 TQAN.f-kp               12.00:  Torque Abs Min 
 TQAX.f-kp               19.00:  Torque Abs Max 
 TRRT.°/30m              -3.40:  Turn Rotating 
 MRT .                  EWR-M5:  Maximum Recorded Temperature 
 TTMX.degC              100.00:  Max Tool Temp 
 VS01.                90639251:  Virtual Str1 SN 
 VS02.                90634715:  Virtual Str2 SN 
 VS03.                90652479:  Virtual Str3 SN 
 VS04.                90642262:  Virtual Str4 SN 
 WBMN.klb                 0.00:  WOB Min 
 WITN.           Murad Guliyev:  Customer Rep 
 WITN.          Yashar Gaziyev:  Customer Rep 2 
 WOBA.klb                 9.00:  WOB Avg 
 WOBX.klb                12.00:  WOB Max 
 YP  .lhf2               30.00:  Yield Point 
~Curve Information Block
#MNEM.UNIT                 API CODE     Curve Description
#---------               -----------    ---------------------------
 TIME.HHMMSS            00 000 000 000:  GT Time & Date
 GTDEPTH.m              00 000 000 000:  GT Depth
 GTPQH.psia             00 000 000 000:  GT HR Quartz Pressure
 GTTQ.degC              00 000 000 000:  GT Quartz Temperature
 GTTN.NONE              00 000 000 000:  GT Test Number
 GTET.sec               00 000 000 000:  GT Elapsed Test Time
 GTTVD.m                00 000 000 000:  GT True Vertical Depth
#Other Information
#
#WARRANTY: Halliburton will use its best efforts to furnish customers with 
#accurate information and interpretations that are part of, and incident to, the services 
#provided.  However, Halliburton cannot and does not warrant the accuracy 
#or correctness of such information and interpretations.  Under no circumstances should any 
#such information or interpretation be relied upon as the sole basis for any drilling, 
#completion, production, or financial decision or any procedure involving any risk to the 
#safety of any drilling venture, drilling rig or its crew or any other third party.  The 
#Customer has full responsibility for all drilling, completion and production operation.  
#Halliburton makes no representations or warranties, either expressed or 
#implied, including, but not limited to, the implied warranties of merchantability or fitness 
#for a particular purpose, with respect to the services rendered.  In no event will 
#Halliburton be liable for failure to obtain any particular results or for 
#any damages, including, but not limited to, indirect, special or consequential damages, 
#resulting from the use of any information or interpretation provided by Halliburton.
#
~A           TIME           GTDEPTH  GTPQH  GTTQ  GTTN   GTET   GTTVD  
# ...
   16:56:58.746.27-Aug-2021 4788.50 7659.88 83.20 18.00  22.58 3147.67
   16:56:58.946.27-Aug-2021 4788.50 7660.36 83.20 18.00  22.78 3147.67
   16:56:59.146.27-Aug-2021 4788.50 7660.68 83.20 18.00  22.98 3147.67
   16:56:59.345.27-Aug-2021 4788.50 7660.68 83.20 18.00  23.18 3147.67
   16:56:59.545.27-Aug-2021 4788.50 7661.99 83.20 18.00  23.38 3147.67
   16:56:59.745.27-Aug-2021 4788.50 7662.80 83.20 18.00  23.58 3147.67
   16:56:59.945.27-Aug-2021 4788.50 7663.70 83.20 18.00  23.78 3147.67
   16:57:00.145.27-Aug-2021 4788.50 7664.60 83.20 18.00  23.98 3147.67
   16:57:00.344.27-Aug-2021 4788.50 7664.60 83.20 18.00  24.18 3147.67
   16:57:00.544.27-Aug-2021 4788.50 7666.35 83.20 18.00  24.38 3147.67
   16:57:00.744.27-Aug-2021 4788.50 7669.15 83.20 18.00  24.58 3147.67
   16:57:00.944.27-Aug-2021 4788.50 7674.70 83.20 18.00  24.78 3147.67
   16:57:01.144.27-Aug-2021 4788.50 7674.24 83.20 18.00  24.98 3147.67
   16:57:01.343.27-Aug-2021 4788.50 7674.24 83.20 18.00  25.17 3147.67
   16:57:01.543.27-Aug-2021 4788.50 7675.18 83.20 18.00  25.37 3147.67
   16:57:01.743.27-Aug-2021 4788.50 7675.48 83.20 18.00  25.57 3147.67
   16:57:01.943.27-Aug-2021 4788.50 7675.95 83.20 18.00  25.77 3147.67
   16:57:02.143.27-Aug-2021 4788.50 7677.75 83.20 18.00  25.97 3147.67
   16:57:02.342.27-Aug-2021 4788.50 7677.75 83.20 18.00  26.17 3147.67
   16:57:02.542.27-Aug-2021 4788.50 7681.83 83.20 18.00  26.37 3147.67
   16:57:02.742.27-Aug-2021 4788.50 7681.59 83.20 18.00  26.57 3147.67
   16:57:02.942.27-Aug-2021 4788.50 7681.43 83.20 18.00  26.77 3147.67
   16:57:03.142.27-Aug-2021 4788.50 7681.07 83.20 18.00  26.97 3147.67
   16:57:03.341.27-Aug-2021 4788.50 7681.07 83.20 18.00  27.17 3147.67
   16:57:03.541.27-Aug-2021 4788.50 7684.27 83.20 18.00  27.37 3147.67
   16:57:03.741.27-Aug-2021 4788.50 7684.07 83.20 18.00  27.57 3147.67
   16:57:03.941.27-Aug-2021 4788.50 7683.88 83.20 18.00  27.77 3147.67
   16:57:04.141.27-Aug-2021 4788.50 7683.35 83.20 18.00  27.97 3147.67
   16:57:04.340.27-Aug-2021 4788.50 7683.35 83.20 18.00  28.17 3147.67
   16:57:04.540.27-Aug-2021 4788.50 7686.73 83.20 18.00  28.37 3147.67
   16:57:04.740.27-Aug-2021 4788.50 7686.48 83.20 18.00  28.57 3147.67
   16:57:04.940.27-Aug-2021 4788.50 7686.49 83.20 18.00  28.77 3147.67
   16:57:05.140.27-Aug-2021 4788.50 7686.13 83.20 18.00  28.97 3147.67
   16:57:05.339.27-Aug-2021 4788.50 7686.13 83.20 18.00  29.17 3147.67
   16:57:05.539.27-Aug-2021 4788.50 7685.19 83.20 18.00  29.37 3147.67
   16:57:05.739.27-Aug-2021 4788.50 7684.73 83.20 18.00  29.57 3147.67
   16:57:05.939.27-Aug-2021 4788.50 7684.47 83.20 18.00  29.77 3147.67
   16:57:06.139.27-Aug-2021 4788.50 7684.42 83.20 18.00  29.97 3147.67
   16:57:06.338.27-Aug-2021 4788.50 7684.42 83.20 18.00  30.17 3147.67
   16:57:06.538.27-Aug-2021 4788.50 7684.05 83.20 18.00  30.37 3147.67
   16:57:06.738.27-Aug-2021 4788.50 7683.84 83.20 18.00  30.57 3147.67
   16:57:06.938.27-Aug-2021 4788.50 7683.62 83.20 18.00  30.77 3147.67
   16:57:07.138.27-Aug-2021 4788.50 7684.65 83.20 18.00  30.97 3147.67
   16:57:07.337.27-Aug-2021 4788.50 7684.65 83.20 18.00  31.17 3147.67
   16:57:07.537.27-Aug-2021 4788.50 7724.65 83.20 18.00  31.37 3147.67
   16:57:07.737.27-Aug-2021 4788.50 7729.68 83.20 18.00  31.57 3147.67
   16:57:07.937.27-Aug-2021 4788.50 7683.14 83.20 18.00  31.77 3147.67
   16:57:08.137.27-Aug-2021 4788.50 7685.03 83.20 18.00  31.97 3147.67
   16:57:08.336.27-Aug-2021 4788.50 7685.03 83.20 18.00  32.17 3147.67
   16:57:08.536.27-Aug-2021 4788.50 7688.11 83.20 18.00  32.37 3147.67
   16:57:08.736.27-Aug-2021 4788.50 7689.72 83.20 18.00  32.57 3147.67
   16:57:08.936.27-Aug-2021 4788.50 7690.91 83.20 18.00  32.77 3147.67
   16:57:09.136.27-Aug-2021 4788.50 7692.20 83.20 18.00  32.97 3147.67
   16:57:09.335.27-Aug-2021 4788.50 7692.20 83.20 18.00  33.17 3147.67
   16:57:09.535.27-Aug-2021 4788.50 7694.45 83.20 18.00  33.37 3147.67
   16:57:09.735.27-Aug-2021 4788.50 7695.29 83.20 18.00  33.57 3147.67
   16:57:09.935.27-Aug-2021 4788.50 7695.95 83.20 18.00  33.77 3147.67
   16:57:10.135.27-Aug-2021 4788.50 7696.44 83.20 18.00  33.97 3147.67
   16:57:10.334.27-Aug-2021 4788.50 7696.44 83.20 18.00  34.17 3147.67
   16:57:10.534.27-Aug-2021 4788.50 7697.25 83.20 18.00  34.37 3147.67
   16:57:10.734.27-Aug-2021 4788.50 7697.56 83.20 18.00  34.57 3147.67
   16:57:10.934.27-Aug-2021 4788.50 7697.73 83.20 18.00  34.77 3147.67
   16:57:11.134.27-Aug-2021 4788.50 7702.05 83.20 18.00  34.97 3147.67
   16:57:11.333.27-Aug-2021 4788.50 7702.05 83.20 18.00  35.16 3147.67
   16:57:11.533.27-Aug-2021 4788.50 7706.88 83.20 18.00  35.36 3147.67
   16:57:11.733.27-Aug-2021 4788.50 7706.25 83.20 18.00  35.56 3147.67
   16:57:11.933.27-Aug-2021 4788.50 7564.22 83.20 18.00  35.76 3147.67
   16:57:12.133.27-Aug-2021 4788.50 7554.71 83.20 18.00  35.96 3147.67
   16:57:12.332.27-Aug-2021 4788.50 7554.71 83.20 18.00  36.16 3147.67
   16:57:12.532.27-Aug-2021 4788.50 7547.59 83.20 18.00  36.36 3147.67
   16:57:12.732.27-Aug-2021 4788.50 7544.69 83.20 18.00  36.56 3147.67
   16:57:12.932.27-Aug-2021 4788.50 7542.20 83.20 18.00  36.76 3147.67
   16:57:13.132.27-Aug-2021 4788.50 7542.84 83.20 18.00  36.96 3147.67
   16:57:13.331.27-Aug-2021 4788.50 7542.84 83.20 18.00  37.16 3147.67
   16:57:13.531.27-Aug-2021 4788.50 7543.01 83.20 18.00  37.36 3147.67
   16:57:13.731.27-Aug-2021 4788.50 7543.45 83.20 18.00  37.56 3147.67
   16:57:13.931.27-Aug-2021 4788.50 7547.22 83.19 18.00  37.76 3147.67
   16:57:14.131.27-Aug-2021 4788.50 7546.16 83.19 18.00  37.96 3147.67
   16:57:14.330.27-Aug-2021 4788.50 7546.16 83.19 18.00  38.16 3147.67
   16:57:14.530.27-Aug-2021 4788.50 7547.61 83.19 18.00  38.36 3147.67
   16:57:14.730.27-Aug-2021 4788.50 7547.85 83.19 18.00  38.56 3147.67
   16:57:14.930.27-Aug-2021 4788.50 7551.61 83.19 18.00  38.76 3147.67
   16:57:15.130.27-Aug-2021 4788.50 7550.07 83.19 18.00  38.96 3147.67
   16:57:15.329.27-Aug-2021 4788.50 7550.07 83.19 18.00  39.16 3147.67
   16:57:15.529.27-Aug-2021 4788.50 7551.34 83.19 18.00  39.36 3147.67
   16:57:15.729.27-Aug-2021 4788.50 7551.18 83.19 18.00  39.56 3147.67
   16:57:15.929.27-Aug-2021 4788.50 7551.65 83.19 18.00  39.76 3147.67
   16:57:16.129.27-Aug-2021 4788.50 7551.86 83.19 18.00  39.96 3147.67
   16:57:16.328.27-Aug-2021 4788.50 7551.86 83.19 18.00  40.16 3147.67
   16:57:16.528.27-Aug-2021 4788.50 7552.77 83.19 18.00  40.36 3147.67
   16:57:16.728.27-Aug-2021 4788.50 7553.05 83.19 18.00  40.56 3147.67
   16:57:16.928.27-Aug-2021 4788.50 7553.43 83.19 18.00  40.76 3147.67
   16:57:17.128.27-Aug-2021 4788.50 7553.85 83.19 18.00  40.96 3147.67
   16:57:17.327.27-Aug-2021 4788.50 7553.85 83.19 18.00  41.16 3147.67
   16:57:17.527.27-Aug-2021 4788.50 7554.57 83.19 18.00  41.36 3147.67
   16:57:17.727.27-Aug-2021 4788.50 7554.90 83.19 18.00  41.56 3147.67
   16:57:17.927.27-Aug-2021 4788.50 7555.27 83.19 18.00  41.76 3147.67
   16:57:18.127.27-Aug-2021 4788.50 7555.50 83.19 18.00  41.96 3147.67
   16:57:18.326.27-Aug-2021 4788.50 7555.50 83.19 18.00  42.16 3147.67
   16:57:18.526.27-Aug-2021 4788.50 7557.45 83.19 18.00  42.36 3147.67
   16:57:18.726.27-Aug-2021 4788.50 7561.11 83.19 18.00  42.56 3147.67
   16:57:18.926.27-Aug-2021 4788.50 7558.92 83.19 18.00  42.76 3147.67
   16:57:19.126.27-Aug-2021 4788.50 7559.27 83.19 18.00  42.96 3147.67
   16:57:19.325.27-Aug-2021 4788.50 7559.27 83.19 18.00  43.16 3147.67
   16:57:19.525.27-Aug-2021 4788.50 7559.35 83.19 18.00  43.36 3147.67
   16:57:19.725.27-Aug-2021 4788.50 7560.97 83.19 18.00  43.56 3147.67
   16:57:19.925.27-Aug-2021 4788.50 7561.79 83.19 18.00  43.76 3147.67
   16:57:20.125.27-Aug-2021 4788.50 7562.38 83.19 18.00  43.96 3147.67
   16:57:20.324.27-Aug-2021 4788.50 7562.38 83.19 18.00  44.16 3147.67
   16:57:20.524.27-Aug-2021 4788.50 7563.18 83.19 18.00  44.36 3147.67
   16:57:20.724.27-Aug-2021 4788.50 7563.65 83.19 18.00  44.56 3147.67
   16:57:20.924.27-Aug-2021 4788.50 7563.89 83.19 18.00  44.76 3147.67
   16:57:21.124.27-Aug-2021 4788.50 7564.10 83.19 18.00  44.96 3147.67
