~Version Information
 VERS.                  2.0:   CWLS log ASCII Standard -VERSION 2.0
 WRAP.                   NO:   One line per depth step
~Well Information Block
#MNEM.UNIT     VALUE/NAME     DESCRIPTION
#---------     -----------    ---------------------------
 STRT.S             07:46:52 27-Aug-21: START TIME 07:46:52 27-Aug-21
 STOP.S             07:54:09 27-Aug-21: STOP TIME  07:54:09 27-Aug-21
 STEP.S                   0.00: STEP TIME
 NULL.                 -999.25: NULL VALUE
 DFWT.                        :  DIST FWL TEXT
 DFST.                        :  DIST FSL TEXT
 DMF .             Drill Floor:  DRILL MEAS FROM
 STIM.      20.00.00 17-Aug-21:  START TIME
 DATE.      19.00.00 29-Aug-21:  END TIME
 SPUD.               15-Aug-21:  SPUD DATE
 NREF.                    Grid:  NORTH REFERENCE
 HPTY.       Minimum Curvature:  HOLE POS TYPE
 DMOD.             Drill Model:  DRILL MOD DESC
 SVYD.                  Survey:  SURVEY DESC
 ILTD.               Lithology:  INTERP LTH DESC
 FTOP.          Formation Tops:  FORM TOPS DESC
 RIG .              East Azeri:  RIG NAME
 PDAT.          Mean Sea Level:  PERMANENT DATUM
 FLD .                     ACG:  FIELD NAME
 SON .        AZ-XX-0907180857:  JOB NUMBER
 CTRY.              Azerbaijan:  COUNTRY NAME
 WELL.                    D23x:  WELL NAME
 SRVC.     Turan Drilling and Engineering:  CONTRACTOR
 COMP.     BP Exploration (Caspian Sea) Ltd.:  COMPANY
 UWI .            /AZE00000214:  UNIQUE WELL IDENTIFIER
 API .            /AZE00000214:  API NUMBER
 MDS .        Operator Entered:  MAG DATA SOURCE
 BASE.              Azerbaijan:  LOGGING EQUIPMENT BASE LOCATION
 REGN.                   EESSA:  REGION
 PROV.                    Baku:  PROVINCE
 STAT.                    Baku:  STATE NAME
 MWDS.                    Baku:  MWD SHOP
 DOE .                     N/A:  DOE NUMBER
 DCON.         Sperry Drilling:  DIRECTNL CONTR
 UNIT.                     N/A:  LOGGING EQUIPMENT ID
 WTYP.                Deviated:  WELL TYPE
 CNTY.                        :  COUNTY
 LOC .                        :  LOCATION
 LMF .             Drill Floor:  LOG MEASURED FROM
 TVDS.m                  43.60:  TVDSS CORRECTN
 LATI.deg                40.02:  LATITUDE
 LONG.deg                51.45:  LONGITUDE
 WHNS.m                  -7.04:  WELL HEAD N/S
 WHEW.m                  -0.67:  WELL HEAD E/W
 UTMX.m              538762.90:  UTM X
 UTMY.m             4431871.34:  UTM Y
 DFWL.m                   0.00:  DISTANCE FWL
 DFSL.m                   0.00:  DISTANCE FSL
 SDEP.m                4127.00:  START DEPTH
 TDD .m                5084.50:  TOTAL DEPTH (DRILLER)
 VSDR.deg               140.47:  VERT SEC DIRECT
 GVFD.g                   1.00:  GRAVITY FIELD
 MFLD.nT              50362.00:  MAGNETIC FIELD
 MDIP.deg                59.48:  MAGNETIC DIP
 MDEC.deg                 6.47:  MAGNETIC DECL
 GRDC.deg                 0.31:  GRID CORRECTION
 AZTC.deg                 6.16:  AZM TOTAL CORR
 EPD .m                   0.00:  ELEVATION
 EGL .m                   0.00:  GROUND ELEVATION
 WDMS.m                 151.80:  WD ELEV
 APD .m                  43.60:  DEPTH ABOVE PD
 DEP .m                4092.57:  DEPTH
 AGAP.m                  43.60:  AIR GAP
 VSEW.m                  -0.67:  VERT SEC E/W
 VSNS.m                  -7.04:  VERT SEC N/S
 EKB .m                  43.60:  KB ELEVATION
 EDF .m                  43.60:  DF ELEVATION
 TDL .m                 957.50:  TOTAL DEPTH (LOGGER)
 VSC .                       0:  VS TO CLOSURE
 MAGU.                 1851413:  MAGUTM CHECKSUM
~Parameter Information Block
#MNEM.UNIT       Value        Description
#---------     -----------    ---------------------------
 AV  .mps                 1.50:  Ann Velocity 
 AVMX.mps                 2.00:  Max Ann Veloc 
 AZIF.deg               184.66:  Azm, Final 
 BHAT.        Rotary Steerable:  BHA Type 
 BREV.rev               300.00:  Rev Bit Total 
 BROT.°/30m              -0.50:  Build Rotating 
 BS  .in                  8.50:  Bit Size 
 BSZ .in                  8.50:  Bit Size 
 BTPL.psig              370.00:  Bit Press Loss 
 CABU.                      No:  Customer Abuse 
 CGEO.      Behruz Shahbaliyev:  Customer Geo 
 COMM.                     T\d:  Run Comments 1 
 TCS .hr                140.08:  Time Ciculation Ended 
 CV  .mps                 3.00:  Crit Velocity 
 CVMX.mps                 3.20:  Max Crit Veloc 
 DD1 .            Musa Ahmadov:  Direct Drillr 1 
 DD2 .           Hamid Ahmadov:  Direct Drillr 2 
 DDSV.               Geo-Pilot:  DD Service 
 DEFF.%                  98.40:  % Det Eff 
 DLRX.°/30m               3.40:  Dogleg Rot Max 
 DLSO.°/30m               1.45:  Dogleg Oriented 
 DLSX.°/30m               3.40:  Dogleg Str Max 
 DRET.      18.40.00 29-Aug-21:  Drill End Time 
 DRST.      21.00.00 20-Aug-21:  Drill Start Tim 
 DTIM.hr                 69.47:  Time Drilling 
 EDEP.m                5084.50:  End Depth 
 ENG1.      Artemiy Matviyanov:  Engineer 1 
 ENG2.         Almaz Almadatov:  Engineer 2 
 ETIM.      18.40.00 29-Aug-21:  End Time 
 FLOI.gpm               500.00:  Flow In 
 FLON.gpm               400.00:  Flow In Min 
 FLOS.cptm                0.00:  Fluid Loss 
 FLOX.gpm               500.00:  Flow In Max 
 DFT .        Mineral Oil Base:  Mud Type 
 HFLO.                      No:  High Flow 
 HPRE.                      No:  High Pressure 
 HTEM.                      No:  High Temp 
 HYDO.m                   1.80:  Hydro Offset 
 IFIN.deg                25.62:  Inc, Final 
 IMAX.deg                48.69:  Inc Max 
 IMIN.deg                24.01:  Inc Min 
 IMND.m                4962.57:  Inc Min Depth 
 IMXD.m                4119.01:  Inc Max Depth 
 JARR.                      No:  Jarring 
 LETM.      18.40.00 29-Aug-21:  Log End Time 
 LOST.hr                     0:  Lost Rig Time 
 LSTM.      21.00.00 20-Aug-21:  Log Start Time 
 MDCL.ppm             41500.00:  Mud Chlorides 
 MDES.     Inversion Oil/Synthetic:  Mud Desc 
 DFD .sg                  1.56:  Mud Density 
 MDMN.sg                  1.56:  Dens Mud Min 
 MDMX.sg                  1.56:  Dens Mud Max 
 MOIL.                      70:  Run Mud Oil % 
 MOWR.                   70:30:  Run Mud OWR 
 MSND.                     0.2:  Run Mud Sand % 
 MSOL.                    23.3:  Run Mud Solids% 
 DFV .spqt               78.00:  Mud Viscosity 
 MWOD.in                  6.75:  MWD Tool OD 
 MWSI.                      No:  Serv Intrp, MWD 
 OTIM.hr                218.30:  Time Operating 
 PCON.           Look Like New:  Pad Condition 
 PMAX.psia            11015.30:  Press Op, Max 
 PV  .cP                 38.00:  Mud PV 
 RUN .                     300:  Run Number 
 ROPA.m/hr               15.00:  ROP Avg 
 ROPN.m/hr                9.00:  ROP Min 
 ROPX.m/hr               17.00:  ROP Max 
 RPMA.rpm               120.00:  RPM Surface Avg 
 RPMN.rpm                90.00:  RPM Surface Min 
 RPMX.rpm               140.00:  RPM Surface Max 
 RRUN.                     300:  Rig Run Number 
 RTIM.hr                 31.53:  Time Reaming 
 SAZI.deg               331.64:  Azm, Start 
 SDEP.m                4127.00:  Start Depth 
 SIDD.                      No:  Serv Intrp, DD 
 SINC.deg                48.43:  Inc, Start 
 SPPA.psig             5830.00:  SPP Avg 
 SPPN.psig             5600.00:  SPP Min 
 SPPX.psig             5900.00:  SPP Max 
 STIM.      21.00.00 20-Aug-21:  Start Time 
 SVCS.                 DD, MWD:  Services 
 SVER.                    9.20:  Sperry Version 
 TDAT.m                 957.50:  Tot Depth Attmp 
 TDDF.                      No:  Trip for DD 
 TDLG.m                 957.50:  Tot Depth Loggd 
 TFF .                      No:  Trip for Fail 
 TQAA.f-kp               15.00:  Torque Abs Avg 
 TQAN.f-kp               12.00:  Torque Abs Min 
 TQAX.f-kp               19.00:  Torque Abs Max 
 TRRT.°/30m              -3.40:  Turn Rotating 
 MRT .                  EWR-M5:  Maximum Recorded Temperature 
 TTMX.degC              100.00:  Max Tool Temp 
 VS01.                90639251:  Virtual Str1 SN 
 VS02.                90634715:  Virtual Str2 SN 
 VS03.                90652479:  Virtual Str3 SN 
 VS04.                90642262:  Virtual Str4 SN 
 WBMN.klb                 0.00:  WOB Min 
 WITN.           Murad Guliyev:  Customer Rep 
 WITN.          Yashar Gaziyev:  Customer Rep 2 
 WOBA.klb                 9.00:  WOB Avg 
 WOBX.klb                12.00:  WOB Max 
 YP  .lhf2               30.00:  Yield Point 
~Curve Information Block
#MNEM.UNIT                 API CODE     Curve Description
#---------               -----------    ---------------------------
 TIME.HHMMSS            00 000 000 000:  GT Time & Date
 GTDEPTH.m              00 000 000 000:  GT Depth
 GTPQH.psia             00 000 000 000:  GT HR Quartz Pressure
 GTTQ.degC              00 000 000 000:  GT Quartz Temperature
 GTTN.NONE              00 000 000 000:  GT Test Number
 GTET.sec               00 000 000 000:  GT Elapsed Test Time
 GTTVD.m                00 000 000 000:  GT True Vertical Depth
#Other Information
#
#WARRANTY: Halliburton will use its best efforts to furnish customers with 
#accurate information and interpretations that are part of, and incident to, the services 
#provided.  However, Halliburton cannot and does not warrant the accuracy 
#or correctness of such information and interpretations.  Under no circumstances should any 
#such information or interpretation be relied upon as the sole basis for any drilling, 
#completion, production, or financial decision or any procedure involving any risk to the 
#safety of any drilling venture, drilling rig or its crew or any other third party.  The 
#Customer has full responsibility for all drilling, completion and production operation.  
#Halliburton makes no representations or warranties, either expressed or 
#implied, including, but not limited to, the implied warranties of merchantability or fitness 
#for a particular purpose, with respect to the services rendered.  In no event will 
#Halliburton be liable for failure to obtain any particular results or for 
#any damages, including, but not limited to, indirect, special or consequential damages, 
#resulting from the use of any information or interpretation provided by Halliburton.
#
~A           TIME           GTDEPTH  GTPQH  GTTQ  GTTN  GTET   GTTVD  
# ...
   07:49:33.557.27-Aug-2021 5003.00 4273.57 87.38 4.00 161.03 3342.33
   07:49:33.757.27-Aug-2021 5003.00 4273.57 87.38 4.00 161.23 3342.33
   07:49:33.957.27-Aug-2021 5003.00 4273.59 87.38 4.00 161.43 3342.33
   07:49:34.157.27-Aug-2021 5003.00 4273.60 87.38 4.00 161.63 3342.33
   07:49:34.357.27-Aug-2021 5003.00 4273.62 87.38 4.00 161.83 3342.33
   07:49:34.557.27-Aug-2021 5003.00 4273.62 87.38 4.00 162.03 3342.33
   07:49:34.757.27-Aug-2021 5003.00 4273.62 87.38 4.00 162.23 3342.33
   07:49:34.957.27-Aug-2021 5003.00 4273.65 87.38 4.00 162.43 3342.33
   07:49:35.157.27-Aug-2021 5003.00 4273.66 87.38 4.00 162.63 3342.33
   07:49:35.357.27-Aug-2021 5003.00 4273.67 87.38 4.00 162.83 3342.33
   07:49:35.557.27-Aug-2021 5003.00 4273.69 87.38 4.00 163.03 3342.33
   07:49:35.757.27-Aug-2021 5003.00 4273.69 87.38 4.00 163.23 3342.33
   07:49:35.957.27-Aug-2021 5003.00 4273.60 87.38 4.00 163.43 3342.33
   07:49:36.157.27-Aug-2021 5003.00 4273.57 87.38 4.00 163.63 3342.33
   07:49:36.357.27-Aug-2021 5003.00 4273.55 87.38 4.00 163.83 3342.33
   07:49:36.557.27-Aug-2021 5003.00 4273.56 87.38 4.00 164.03 3342.33
   07:49:36.757.27-Aug-2021 5003.00 4273.56 87.38 4.00 164.23 3342.33
   07:49:36.957.27-Aug-2021 5003.00 4273.57 87.38 4.00 164.43 3342.33
   07:49:37.157.27-Aug-2021 5003.00 4273.60 87.38 4.00 164.63 3342.33
   07:49:37.357.27-Aug-2021 5003.00 4273.52 87.38 4.00 164.83 3342.33
   07:49:37.557.27-Aug-2021 5003.00 4273.50 87.38 4.00 165.03 3342.33
   07:49:37.758.27-Aug-2021 5003.00 4273.50 87.38 4.00 165.23 3342.33
   07:49:37.958.27-Aug-2021 5003.00 4273.53 87.38 4.00 165.43 3342.33
   07:49:38.158.27-Aug-2021 5003.00 4273.53 87.38 4.00 165.63 3342.33
   07:49:38.358.27-Aug-2021 5003.00 4273.51 87.38 4.00 165.83 3342.33
   07:49:38.558.27-Aug-2021 5003.00 4273.48 87.38 4.00 166.03 3342.33
   07:49:38.758.27-Aug-2021 5003.00 4273.48 87.38 4.00 166.23 3342.33
   07:49:38.958.27-Aug-2021 5003.00 4273.51 87.38 4.00 166.43 3342.33
   07:49:39.158.27-Aug-2021 5003.00 4263.90 87.38 4.00 166.63 3342.33
   07:49:39.358.27-Aug-2021 5003.00 4236.29 87.38 4.00 166.83 3342.33
   07:49:39.558.27-Aug-2021 5003.00 4234.39 87.38 4.00 167.03 3342.33
   07:49:39.758.27-Aug-2021 5003.00 4234.39 87.38 4.00 167.23 3342.33
   07:49:39.958.27-Aug-2021 5003.00 4233.19 87.38 4.00 167.43 3342.33
   07:49:40.158.27-Aug-2021 5003.00 4232.43 87.38 4.00 167.63 3342.33
   07:49:40.358.27-Aug-2021 5003.00 4231.56 87.38 4.00 167.83 3342.33
   07:49:40.558.27-Aug-2021 5003.00 4231.08 87.38 4.00 168.03 3342.33
   07:49:40.758.27-Aug-2021 5003.00 4231.08 87.38 4.00 168.23 3342.33
   07:49:40.958.27-Aug-2021 5003.00 4230.80 87.38 4.00 168.43 3342.33
   07:49:41.158.27-Aug-2021 5003.00 4230.39 87.38 4.00 168.63 3342.33
   07:49:41.358.27-Aug-2021 5003.00 4230.45 87.38 4.00 168.83 3342.33
   07:49:41.558.27-Aug-2021 5003.00 4230.07 87.38 4.00 169.03 3342.33
   07:49:41.758.27-Aug-2021 5003.00 4230.07 87.38 4.00 169.23 3342.33
   07:49:41.958.27-Aug-2021 5003.00 4229.96 87.38 4.00 169.43 3342.33
   07:49:42.158.27-Aug-2021 5003.00 4229.28 87.37 4.00 169.63 3342.33
   07:49:42.358.27-Aug-2021 5003.00 4229.89 87.38 4.00 169.83 3342.33
   07:49:42.558.27-Aug-2021 5003.00 4229.39 87.37 4.00 170.03 3342.33
   07:49:42.758.27-Aug-2021 5003.00 4229.39 87.37 4.00 170.23 3342.33
   07:49:42.958.27-Aug-2021 5003.00 4229.13 87.37 4.00 170.43 3342.33
   07:49:43.158.27-Aug-2021 5003.00 4229.20 87.37 4.00 170.63 3342.33
   07:49:43.358.27-Aug-2021 5003.00 4228.78 87.37 4.00 170.83 3342.33
   07:49:43.558.27-Aug-2021 5003.00 4228.95 87.37 4.00 171.03 3342.33
   07:49:43.759.27-Aug-2021 5003.00 4228.95 87.37 4.00 171.23 3342.33
   07:49:43.959.27-Aug-2021 5003.00 4228.93 87.37 4.00 171.43 3342.33
   07:49:44.159.27-Aug-2021 5003.00 4228.81 87.37 4.00 171.63 3342.33
   07:49:44.359.27-Aug-2021 5003.00 4228.79 87.37 4.00 171.83 3342.33
   07:49:44.559.27-Aug-2021 5003.00 4228.98 87.37 4.00 172.03 3342.33
   07:49:44.759.27-Aug-2021 5003.00 4228.98 87.37 4.00 172.23 3342.33
   07:49:44.959.27-Aug-2021 5003.00 4228.71 87.37 4.00 172.43 3342.33
   07:49:45.159.27-Aug-2021 5003.00 4228.78 87.37 4.00 172.63 3342.33
   07:49:45.359.27-Aug-2021 5003.00 4228.55 87.37 4.00 172.83 3342.33
   07:49:45.559.27-Aug-2021 5003.00 4228.61 87.37 4.00 173.03 3342.33
   07:49:45.759.27-Aug-2021 5003.00 4228.61 87.37 4.00 173.23 3342.33
   07:49:45.959.27-Aug-2021 5003.00 4228.27 87.37 4.00 173.43 3342.33
   07:49:46.159.27-Aug-2021 5003.00 4228.29 87.37 4.00 173.63 3342.33
   07:49:46.359.27-Aug-2021 5003.00 4228.41 87.37 4.00 173.83 3342.33
   07:49:46.559.27-Aug-2021 5003.00 4228.71 87.37 4.00 174.03 3342.33
   07:49:46.759.27-Aug-2021 5003.00 4228.71 87.37 4.00 174.23 3342.33
   07:49:46.959.27-Aug-2021 5003.00 4228.17 87.37 4.00 174.43 3342.33
   07:49:47.159.27-Aug-2021 5003.00 4228.22 87.37 4.00 174.63 3342.33
   07:49:47.359.27-Aug-2021 5003.00 4228.25 87.37 4.00 174.83 3342.33
   07:49:47.559.27-Aug-2021 5003.00 4228.52 87.37 4.00 175.03 3342.33
   07:49:47.759.27-Aug-2021 5003.00 4228.52 87.37 4.00 175.23 3342.33
   07:49:47.959.27-Aug-2021 5003.00 4228.17 87.37 4.00 175.43 3342.33
   07:49:48.159.27-Aug-2021 5003.00 4227.97 87.37 4.00 175.63 3342.33
   07:49:48.359.27-Aug-2021 5003.00 4228.03 87.37 4.00 175.83 3342.33
   07:49:48.559.27-Aug-2021 5003.00 4227.44 87.37 4.00 176.03 3342.33
   07:49:48.759.27-Aug-2021 5003.00 4227.44 87.37 4.00 176.23 3342.33
   07:49:48.959.27-Aug-2021 5003.00 4227.76 87.37 4.00 176.43 3342.33
   07:49:49.159.27-Aug-2021 5003.00 4227.76 87.37 4.00 176.63 3342.33
   07:49:49.359.27-Aug-2021 5003.00 4264.89 87.37 4.00 176.83 3342.33
   07:49:49.559.27-Aug-2021 5003.00 4271.26 87.37 4.00 177.03 3342.33
   07:49:49.759.27-Aug-2021 5003.00 4271.26 87.37 4.00 177.23 3342.33
   07:49:49.960.27-Aug-2021 5003.00 4271.75 87.37 4.00 177.43 3342.33
   07:49:50.160.27-Aug-2021 5003.00 4271.74 87.37 4.00 177.63 3342.33
   07:49:50.360.27-Aug-2021 5003.00 4271.73 87.37 4.00 177.83 3342.33
   07:49:50.560.27-Aug-2021 5003.00 4271.73 87.37 4.00 178.03 3342.33
   07:49:50.760.27-Aug-2021 5003.00 4271.73 87.37 4.00 178.23 3342.33
   07:49:50.960.27-Aug-2021 5003.00 4271.76 87.37 4.00 178.43 3342.33
   07:49:51.160.27-Aug-2021 5003.00 4271.77 87.37 4.00 178.63 3342.33
   07:49:51.360.27-Aug-2021 5003.00 4271.77 87.37 4.00 178.83 3342.33
   07:49:51.560.27-Aug-2021 5003.00 4272.07 87.37 4.00 179.03 3342.33
   07:49:51.760.27-Aug-2021 5003.00 4272.07 87.37 4.00 179.23 3342.33
   07:49:51.960.27-Aug-2021 5003.00 4272.36 87.37 4.00 179.43 3342.33
   07:49:52.160.27-Aug-2021 5003.00 4272.36 87.37 4.00 179.63 3342.33
   07:49:52.360.27-Aug-2021 5003.00 4272.35 87.37 4.00 179.83 3342.33
   07:49:52.560.27-Aug-2021 5003.00 4272.35 87.37 4.00 180.03 3342.33
   07:49:52.760.27-Aug-2021 5003.00 4272.35 87.37 4.00 180.23 3342.33
   07:49:52.960.27-Aug-2021 5003.00 4272.35 87.37 4.00 180.43 3342.33
   07:49:53.160.27-Aug-2021 5003.00 4272.36 87.37 4.00 180.63 3342.33
   07:49:53.360.27-Aug-2021 5003.00 4272.35 87.37 4.00 180.83 3342.33
   07:49:53.560.27-Aug-2021 5003.00 4272.36 87.37 4.00 181.03 3342.33
   07:49:53.760.27-Aug-2021 5003.00 4272.36 87.37 4.00 181.23 3342.33
   07:49:53.960.27-Aug-2021 5003.00 4272.36 87.37 4.00 181.43 3342.33
   07:49:54.160.27-Aug-2021 5003.00 4272.37 87.37 4.00 181.63 3342.33
   07:49:54.360.27-Aug-2021 5003.00 4272.37 87.37 4.00 181.83 3342.33
   07:49:54.560.27-Aug-2021 5003.00 4272.38 87.37 4.00 182.03 3342.33
   07:49:54.760.27-Aug-2021 5003.00 4272.38 87.37 4.00 182.23 3342.33
   07:49:54.960.27-Aug-2021 5003.00 4272.49 87.37 4.00 182.43 3342.33
   07:49:55.160.27-Aug-2021 5003.00 4272.55 87.37 4.00 182.63 3342.33
   07:49:55.360.27-Aug-2021 5003.00 4272.55 87.37 4.00 182.83 3342.33
   07:49:55.560.27-Aug-2021 5003.00 4272.56 87.37 4.00 183.03 3342.33
   07:49:55.760.27-Aug-2021 5003.00 4272.56 87.37 4.00 183.23 3342.33
   07:49:55.961.27-Aug-2021 5003.00 4272.52 87.37 4.00 183.43 3342.33
   07:49:56.161.27-Aug-2021 5003.00 4272.65 87.37 4.00 183.63 3342.33
   07:49:56.361.27-Aug-2021 5003.00 4272.64 87.37 4.00 183.83 3342.33
