~Version Information
 VERS.                  2.0:   CWLS log ASCII Standard -VERSION 2.0
 WRAP.                   NO:   One line per depth step
~Well Information Block
#MNEM.UNIT     VALUE/NAME     DESCRIPTION
#---------     -----------    ---------------------------
 STRT.S             02:31:31 28-Aug-21: START TIME 02:31:31 28-Aug-21
 STOP.S             02:38:23 28-Aug-21: STOP TIME  02:38:23 28-Aug-21
 STEP.S                   0.00: STEP TIME
 NULL.                 -999.25: NULL VALUE
 DFWT.                        :  DIST FWL TEXT
 DFST.                        :  DIST FSL TEXT
 DMF .             Drill Floor:  DRILL MEAS FROM
 STIM.      20.00.00 17-Aug-21:  START TIME
 DATE.      19.00.00 29-Aug-21:  END TIME
 SPUD.               15-Aug-21:  SPUD DATE
 NREF.                    Grid:  NORTH REFERENCE
 HPTY.       Minimum Curvature:  HOLE POS TYPE
 DMOD.             Drill Model:  DRILL MOD DESC
 SVYD.                  Survey:  SURVEY DESC
 ILTD.               Lithology:  INTERP LTH DESC
 FTOP.          Formation Tops:  FORM TOPS DESC
 RIG .              East Azeri:  RIG NAME
 PDAT.          Mean Sea Level:  PERMANENT DATUM
 FLD .                     ACG:  FIELD NAME
 SON .        AZ-XX-0907180857:  JOB NUMBER
 CTRY.              Azerbaijan:  COUNTRY NAME
 WELL.                    D23x:  WELL NAME
 SRVC.     Turan Drilling and Engineering:  CONTRACTOR
 COMP.     BP Exploration (Caspian Sea) Ltd.:  COMPANY
 UWI .            /AZE00000214:  UNIQUE WELL IDENTIFIER
 API .            /AZE00000214:  API NUMBER
 MDS .        Operator Entered:  MAG DATA SOURCE
 BASE.              Azerbaijan:  LOGGING EQUIPMENT BASE LOCATION
 REGN.                   EESSA:  REGION
 PROV.                    Baku:  PROVINCE
 STAT.                    Baku:  STATE NAME
 MWDS.                    Baku:  MWD SHOP
 DOE .                     N/A:  DOE NUMBER
 DCON.         Sperry Drilling:  DIRECTNL CONTR
 UNIT.                     N/A:  LOGGING EQUIPMENT ID
 WTYP.                Deviated:  WELL TYPE
 CNTY.                        :  COUNTY
 LOC .                        :  LOCATION
 LMF .             Drill Floor:  LOG MEASURED FROM
 TVDS.m                  43.60:  TVDSS CORRECTN
 LATI.deg                40.02:  LATITUDE
 LONG.deg                51.45:  LONGITUDE
 WHNS.m                  -7.04:  WELL HEAD N/S
 WHEW.m                  -0.67:  WELL HEAD E/W
 UTMX.m              538762.90:  UTM X
 UTMY.m             4431871.34:  UTM Y
 DFWL.m                   0.00:  DISTANCE FWL
 DFSL.m                   0.00:  DISTANCE FSL
 SDEP.m                4127.00:  START DEPTH
 TDD .m                5084.50:  TOTAL DEPTH (DRILLER)
 VSDR.deg               140.47:  VERT SEC DIRECT
 GVFD.g                   1.00:  GRAVITY FIELD
 MFLD.nT              50362.00:  MAGNETIC FIELD
 MDIP.deg                59.48:  MAGNETIC DIP
 MDEC.deg                 6.47:  MAGNETIC DECL
 GRDC.deg                 0.31:  GRID CORRECTION
 AZTC.deg                 6.16:  AZM TOTAL CORR
 EPD .m                   0.00:  ELEVATION
 EGL .m                   0.00:  GROUND ELEVATION
 WDMS.m                 151.80:  WD ELEV
 APD .m                  43.60:  DEPTH ABOVE PD
 DEP .m                4092.57:  DEPTH
 AGAP.m                  43.60:  AIR GAP
 VSEW.m                  -0.67:  VERT SEC E/W
 VSNS.m                  -7.04:  VERT SEC N/S
 EKB .m                  43.60:  KB ELEVATION
 EDF .m                  43.60:  DF ELEVATION
 TDL .m                 957.50:  TOTAL DEPTH (LOGGER)
 VSC .                       0:  VS TO CLOSURE
 MAGU.                 1851413:  MAGUTM CHECKSUM
~Parameter Information Block
#MNEM.UNIT       Value        Description
#---------     -----------    ---------------------------
 AV  .mps                 1.50:  Ann Velocity 
 AVMX.mps                 2.00:  Max Ann Veloc 
 AZIF.deg               184.66:  Azm, Final 
 BHAT.        Rotary Steerable:  BHA Type 
 BREV.rev               300.00:  Rev Bit Total 
 BROT.°/30m              -0.50:  Build Rotating 
 BS  .in                  8.50:  Bit Size 
 BSZ .in                  8.50:  Bit Size 
 BTPL.psig              370.00:  Bit Press Loss 
 CABU.                      No:  Customer Abuse 
 CGEO.      Behruz Shahbaliyev:  Customer Geo 
 COMM.                     Œjp:  Run Comments 1 
 TCS .hr                140.08:  Time Ciculation Ended 
 CV  .mps                 3.00:  Crit Velocity 
 CVMX.mps                 3.20:  Max Crit Veloc 
 DD1 .            Musa Ahmadov:  Direct Drillr 1 
 DD2 .           Hamid Ahmadov:  Direct Drillr 2 
 DDSV.               Geo-Pilot:  DD Service 
 DEFF.%                  98.40:  % Det Eff 
 DLRX.°/30m               3.40:  Dogleg Rot Max 
 DLSO.°/30m               1.45:  Dogleg Oriented 
 DLSX.°/30m               3.40:  Dogleg Str Max 
 DRET.      18.40.00 29-Aug-21:  Drill End Time 
 DRST.      21.00.00 20-Aug-21:  Drill Start Tim 
 DTIM.hr                 69.47:  Time Drilling 
 EDEP.m                5084.50:  End Depth 
 ENG1.      Artemiy Matviyanov:  Engineer 1 
 ENG2.         Almaz Almadatov:  Engineer 2 
 ETIM.      18.40.00 29-Aug-21:  End Time 
 FLOI.gpm               500.00:  Flow In 
 FLON.gpm               400.00:  Flow In Min 
 FLOS.cptm                0.00:  Fluid Loss 
 FLOX.gpm               500.00:  Flow In Max 
 DFT .        Mineral Oil Base:  Mud Type 
 HFLO.                      No:  High Flow 
 HPRE.                      No:  High Pressure 
 HTEM.                      No:  High Temp 
 HYDO.m                   1.80:  Hydro Offset 
 IFIN.deg                25.62:  Inc, Final 
 IMAX.deg                48.69:  Inc Max 
 IMIN.deg                24.01:  Inc Min 
 IMND.m                4962.57:  Inc Min Depth 
 IMXD.m                4119.01:  Inc Max Depth 
 JARR.                      No:  Jarring 
 LETM.      18.40.00 29-Aug-21:  Log End Time 
 LOST.hr                     0:  Lost Rig Time 
 LSTM.      21.00.00 20-Aug-21:  Log Start Time 
 MDCL.ppm             41500.00:  Mud Chlorides 
 MDES.     Inversion Oil/Synthetic:  Mud Desc 
 DFD .sg                  1.56:  Mud Density 
 MDMN.sg                  1.56:  Dens Mud Min 
 MDMX.sg                  1.56:  Dens Mud Max 
 MOIL.                      70:  Run Mud Oil % 
 MOWR.                   70:30:  Run Mud OWR 
 MSND.                     0.2:  Run Mud Sand % 
 MSOL.                    23.3:  Run Mud Solids% 
 DFV .spqt               78.00:  Mud Viscosity 
 MWOD.in                  6.75:  MWD Tool OD 
 MWSI.                      No:  Serv Intrp, MWD 
 OTIM.hr                218.30:  Time Operating 
 PCON.           Look Like New:  Pad Condition 
 PMAX.psia            11015.30:  Press Op, Max 
 PV  .cP                 38.00:  Mud PV 
 RUN .                     300:  Run Number 
 ROPA.m/hr               15.00:  ROP Avg 
 ROPN.m/hr                9.00:  ROP Min 
 ROPX.m/hr               17.00:  ROP Max 
 RPMA.rpm               120.00:  RPM Surface Avg 
 RPMN.rpm                90.00:  RPM Surface Min 
 RPMX.rpm               140.00:  RPM Surface Max 
 RRUN.                     300:  Rig Run Number 
 RTIM.hr                 31.53:  Time Reaming 
 SAZI.deg               331.64:  Azm, Start 
 SDEP.m                4127.00:  Start Depth 
 SIDD.                      No:  Serv Intrp, DD 
 SINC.deg                48.43:  Inc, Start 
 SPPA.psig             5830.00:  SPP Avg 
 SPPN.psig             5600.00:  SPP Min 
 SPPX.psig             5900.00:  SPP Max 
 STIM.      21.00.00 20-Aug-21:  Start Time 
 SVCS.                 DD, MWD:  Services 
 SVER.                    9.20:  Sperry Version 
 TDAT.m                 957.50:  Tot Depth Attmp 
 TDDF.                      No:  Trip for DD 
 TDLG.m                 957.50:  Tot Depth Loggd 
 TFF .                      No:  Trip for Fail 
 TQAA.f-kp               15.00:  Torque Abs Avg 
 TQAN.f-kp               12.00:  Torque Abs Min 
 TQAX.f-kp               19.00:  Torque Abs Max 
 TRRT.°/30m              -3.40:  Turn Rotating 
 MRT .                  EWR-M5:  Maximum Recorded Temperature 
 TTMX.degC              100.00:  Max Tool Temp 
 VS01.                90639251:  Virtual Str1 SN 
 VS02.                90634715:  Virtual Str2 SN 
 VS03.                90652479:  Virtual Str3 SN 
 VS04.                90642262:  Virtual Str4 SN 
 WBMN.klb                 0.00:  WOB Min 
 WITN.           Murad Guliyev:  Customer Rep 
 WITN.          Yashar Gaziyev:  Customer Rep 2 
 WOBA.klb                 9.00:  WOB Avg 
 WOBX.klb                12.00:  WOB Max 
 YP  .lhf2               30.00:  Yield Point 
~Curve Information Block
#MNEM.UNIT                 API CODE     Curve Description
#---------               -----------    ---------------------------
 TIME.HHMMSS            00 000 000 000:  GT Time & Date
 GTDEPTH.m              00 000 000 000:  GT Depth
 GTPQH.psia             00 000 000 000:  GT HR Quartz Pressure
 GTTQ.degC              00 000 000 000:  GT Quartz Temperature
 GTTN.NONE              00 000 000 000:  GT Test Number
 GTET.sec               00 000 000 000:  GT Elapsed Test Time
 GTTVD.m                00 000 000 000:  GT True Vertical Depth
#Other Information
#
#WARRANTY: Halliburton will use its best efforts to furnish customers with 
#accurate information and interpretations that are part of, and incident to, the services 
#provided.  However, Halliburton cannot and does not warrant the accuracy 
#or correctness of such information and interpretations.  Under no circumstances should any 
#such information or interpretation be relied upon as the sole basis for any drilling, 
#completion, production, or financial decision or any procedure involving any risk to the 
#safety of any drilling venture, drilling rig or its crew or any other third party.  The 
#Customer has full responsibility for all drilling, completion and production operation.  
#Halliburton makes no representations or warranties, either expressed or 
#implied, including, but not limited to, the implied warranties of merchantability or fitness 
#for a particular purpose, with respect to the services rendered.  In no event will 
#Halliburton be liable for failure to obtain any particular results or for 
#any damages, including, but not limited to, indirect, special or consequential damages, 
#resulting from the use of any information or interpretation provided by Halliburton.
#
~A           TIME           GTDEPTH  GTPQH  GTTQ  GTTN   GTET   GTTVD  
# ...
   02:37:11.095.28-Aug-2021 4891.00 7790.84 80.66 28.00 339.11 3240.41
   02:37:11.295.28-Aug-2021 4891.00 7790.84 80.66 28.00 339.31 3240.41
   02:37:11.495.28-Aug-2021 4891.00 7791.35 80.66 28.00 339.51 3240.41
   02:37:11.695.28-Aug-2021 4891.00 7791.44 80.66 28.00 339.71 3240.41
   02:37:11.895.28-Aug-2021 4891.00 7791.01 80.66 28.00 339.91 3240.41
   02:37:12.095.28-Aug-2021 4891.00 7790.82 80.66 28.00 340.11 3240.41
   02:37:12.295.28-Aug-2021 4891.00 7790.82 80.66 28.00 340.31 3240.41
   02:37:12.496.28-Aug-2021 4891.00 7793.19 80.66 28.00 340.51 3240.41
   02:37:12.696.28-Aug-2021 4891.00 7790.39 80.66 28.00 340.71 3240.41
   02:37:12.896.28-Aug-2021 4891.00 7791.52 80.66 28.00 340.91 3240.41
   02:37:13.096.28-Aug-2021 4891.00 7790.40 80.66 28.00 341.11 3240.41
   02:37:13.296.28-Aug-2021 4891.00 7790.40 80.66 28.00 341.31 3240.41
   02:37:13.496.28-Aug-2021 4891.00 7790.34 80.66 28.00 341.51 3240.41
   02:37:13.696.28-Aug-2021 4891.00 7793.82 80.66 28.00 341.71 3240.41
   02:37:13.896.28-Aug-2021 4891.00 7790.39 80.66 28.00 341.91 3240.41
   02:37:14.096.28-Aug-2021 4891.00 7791.65 80.66 28.00 342.11 3240.41
   02:37:14.296.28-Aug-2021 4891.00 7791.65 80.66 28.00 342.31 3240.41
   02:37:14.496.28-Aug-2021 4891.00 7791.05 80.66 28.00 342.51 3240.41
   02:37:14.696.28-Aug-2021 4891.00 7791.14 80.66 28.00 342.71 3240.41
   02:37:14.896.28-Aug-2021 4891.00 7790.88 80.66 28.00 342.91 3240.41
   02:37:15.096.28-Aug-2021 4891.00 7790.16 80.66 28.00 343.11 3240.41
   02:37:15.296.28-Aug-2021 4891.00 7790.16 80.66 28.00 343.31 3240.41
   02:37:15.496.28-Aug-2021 4891.00 7790.24 80.66 28.00 343.51 3240.41
   02:37:15.697.28-Aug-2021 4891.00 7790.03 80.66 28.00 343.71 3240.41
   02:37:15.897.28-Aug-2021 4891.00 7790.45 80.66 28.00 343.91 3240.41
   02:37:16.097.28-Aug-2021 4891.00 7790.27 80.66 28.00 344.11 3240.41
   02:37:16.297.28-Aug-2021 4891.00 7790.27 80.66 28.00 344.31 3240.41
   02:37:16.497.28-Aug-2021 4891.00 7790.89 80.66 28.00 344.51 3240.41
   02:37:16.697.28-Aug-2021 4891.00 7790.94 80.66 28.00 344.71 3240.41
   02:37:16.897.28-Aug-2021 4891.00 7790.84 80.66 28.00 344.91 3240.41
   02:37:17.097.28-Aug-2021 4891.00 7790.63 80.66 28.00 345.11 3240.41
   02:37:17.297.28-Aug-2021 4891.00 7790.63 80.66 28.00 345.31 3240.41
   02:37:17.497.28-Aug-2021 4891.00 7790.28 80.66 28.00 345.51 3240.41
   02:37:17.697.28-Aug-2021 4891.00 7793.43 80.66 28.00 345.71 3240.41
   02:37:17.897.28-Aug-2021 4891.00 7790.34 80.66 28.00 345.91 3240.41
   02:37:18.097.28-Aug-2021 4891.00 7791.55 80.66 28.00 346.11 3240.41
   02:37:18.297.28-Aug-2021 4891.00 7791.55 80.66 28.00 346.31 3240.41
   02:37:18.497.28-Aug-2021 4891.00 7790.29 80.66 28.00 346.51 3240.41
   02:37:18.697.28-Aug-2021 4891.00 7789.97 80.66 28.00 346.71 3240.41
   02:37:18.898.28-Aug-2021 4891.00 7790.20 80.66 28.00 346.91 3240.41
   02:37:19.098.28-Aug-2021 4891.00 7789.80 80.66 28.00 347.11 3240.41
   02:37:19.298.28-Aug-2021 4891.00 7789.80 80.66 28.00 347.31 3240.41
   02:37:19.498.28-Aug-2021 4891.00 7790.93 80.66 28.00 347.51 3240.41
   02:37:19.698.28-Aug-2021 4891.00 7790.71 80.66 28.00 347.71 3240.41
   02:37:19.898.28-Aug-2021 4891.00 7791.19 80.66 28.00 347.91 3240.41
   02:37:20.098.28-Aug-2021 4891.00 7790.89 80.66 28.00 348.11 3240.41
   02:37:20.298.28-Aug-2021 4891.00 7790.89 80.66 28.00 348.31 3240.41
   02:37:20.498.28-Aug-2021 4891.00 7790.64 80.66 28.00 348.51 3240.41
   02:37:20.698.28-Aug-2021 4891.00 7790.67 80.66 28.00 348.71 3240.41
   02:37:20.898.28-Aug-2021 4891.00 7790.35 80.66 28.00 348.91 3240.41
   02:37:21.098.28-Aug-2021 4891.00 7793.28 80.66 28.00 349.11 3240.41
   02:37:21.298.28-Aug-2021 4891.00 7793.28 80.66 28.00 349.31 3240.41
   02:37:21.498.28-Aug-2021 4891.00 7791.31 80.66 28.00 349.51 3240.41
   02:37:21.698.28-Aug-2021 4891.00 7790.44 80.66 28.00 349.71 3240.41
   02:37:21.898.28-Aug-2021 4891.00 7789.93 80.66 28.00 349.91 3240.41
   02:37:22.099.28-Aug-2021 4891.00 7794.30 80.66 28.00 350.11 3240.41
   02:37:22.299.28-Aug-2021 4891.00 7794.30 80.66 28.00 350.31 3240.41
   02:37:22.499.28-Aug-2021 4891.00 7791.07 80.66 28.00 350.51 3240.41
   02:37:22.699.28-Aug-2021 4891.00 7790.30 80.66 28.00 350.71 3240.41
   02:37:22.899.28-Aug-2021 4891.00 7790.51 80.66 28.00 350.91 3240.41
   02:37:23.099.28-Aug-2021 4891.00 7790.19 80.66 28.00 351.11 3240.41
   02:37:23.299.28-Aug-2021 4891.00 7790.19 80.66 28.00 351.31 3240.41
   02:37:23.499.28-Aug-2021 4891.00 7788.30 80.66 28.00 351.51 3240.41
   02:37:23.699.28-Aug-2021 4891.00 7791.74 80.66 28.00 351.71 3240.41
   02:37:23.899.28-Aug-2021 4891.00 7791.06 80.66 28.00 351.91 3240.41
   02:37:24.099.28-Aug-2021 4891.00 7793.40 80.66 28.00 352.11 3240.41
   02:37:24.299.28-Aug-2021 4891.00 7793.40 80.66 28.00 352.31 3240.41
   02:37:24.499.28-Aug-2021 4891.00 7791.29 80.66 28.00 352.51 3240.41
   02:37:24.699.28-Aug-2021 4891.00 7790.18 80.66 28.00 352.71 3240.41
   02:37:24.899.28-Aug-2021 4891.00 7789.88 80.66 28.00 352.91 3240.41
   02:37:25.099.28-Aug-2021 4891.00 7790.13 80.66 28.00 353.11 3240.41
   02:37:25.300.28-Aug-2021 4891.00 7790.13 80.66 28.00 353.31 3240.41
   02:37:25.500.28-Aug-2021 4891.00 7790.14 80.66 28.00 353.51 3240.41
   02:37:25.700.28-Aug-2021 4891.00 7790.12 80.66 28.00 353.71 3240.41
   02:37:25.900.28-Aug-2021 4891.00 7790.92 80.66 28.00 353.91 3240.41
   02:37:26.100.28-Aug-2021 4891.00 7790.70 80.66 28.00 354.11 3240.41
   02:37:26.300.28-Aug-2021 4891.00 7790.70 80.66 28.00 354.31 3240.41
   02:37:26.500.28-Aug-2021 4891.00 7789.66 80.66 28.00 354.51 3240.41
   02:37:26.700.28-Aug-2021 4891.00 7791.36 80.66 28.00 354.71 3240.41
   02:37:26.900.28-Aug-2021 4891.00 7791.75 80.66 28.00 354.91 3240.41
   02:37:27.100.28-Aug-2021 4891.00 7790.65 80.66 28.00 355.11 3240.41
   02:37:27.300.28-Aug-2021 4891.00 7790.65 80.66 28.00 355.31 3240.41
   02:37:27.500.28-Aug-2021 4891.00 7789.42 80.66 28.00 355.51 3240.41
   02:37:27.700.28-Aug-2021 4891.00 7792.29 80.66 28.00 355.71 3240.41
   02:37:27.900.28-Aug-2021 4891.00 7791.22 80.66 28.00 355.91 3240.41
   02:37:28.100.28-Aug-2021 4891.00 7791.05 80.66 28.00 356.11 3240.41
   02:37:28.300.28-Aug-2021 4891.00 7791.05 80.66 28.00 356.31 3240.41
   02:37:28.501.28-Aug-2021 4891.00 7790.33 80.66 28.00 356.51 3240.41
   02:37:28.701.28-Aug-2021 4891.00 7789.64 80.66 28.00 356.71 3240.41
   02:37:28.901.28-Aug-2021 4891.00 7790.79 80.66 28.00 356.91 3240.41
   02:37:29.101.28-Aug-2021 4891.00 7791.39 80.66 28.00 357.11 3240.41
   02:37:29.301.28-Aug-2021 4891.00 7791.39 80.66 28.00 357.31 3240.41
   02:37:29.501.28-Aug-2021 4891.00 7791.87 80.66 28.00 357.51 3240.41
   02:37:29.701.28-Aug-2021 4891.00 7791.62 80.66 28.00 357.71 3240.41
   02:37:29.901.28-Aug-2021 4891.00 7791.66 80.66 28.00 357.91 3240.41
   02:37:30.101.28-Aug-2021 4891.00 7791.52 80.66 28.00 358.11 3240.41
   02:37:30.301.28-Aug-2021 4891.00 7791.52 80.66 28.00 358.31 3240.41
   02:37:30.501.28-Aug-2021 4891.00 7791.19 80.67 28.00 358.51 3240.41
   02:37:30.701.28-Aug-2021 4891.00 7795.30 80.66 28.00 358.71 3240.41
   02:37:30.901.28-Aug-2021 4891.00 7788.84 80.66 28.00 358.91 3240.41
   02:37:31.101.28-Aug-2021 4891.00 7792.29 80.67 28.00 359.11 3240.41
   02:37:31.301.28-Aug-2021 4891.00 7792.29 80.67 28.00 359.31 3240.41
   02:37:31.502.28-Aug-2021 4891.00 7790.88 80.67 28.00 359.51 3240.41
   02:37:31.702.28-Aug-2021 4891.00 7795.99 80.67 28.00 359.71 3240.41
   02:37:31.902.28-Aug-2021 4891.00 7787.69 80.67 28.00 359.91 3240.41
   02:37:32.102.28-Aug-2021 4891.00 7791.93 80.67 28.00 360.11 3240.41
   02:37:32.302.28-Aug-2021 4891.00 7791.93 80.67 28.00 360.31 3240.41
   02:37:32.502.28-Aug-2021 4891.00 7790.52 80.67 28.00 360.51 3240.41
   02:37:32.702.28-Aug-2021 4891.00 7790.34 80.67 28.00 360.71 3240.41
   02:37:32.902.28-Aug-2021 4891.00 7796.09 80.67 28.00 360.91 3240.41
   02:37:33.102.28-Aug-2021 4891.00 7787.57 80.66 28.00 361.11 3240.41
   02:37:33.302.28-Aug-2021 4891.00 7787.57 80.66 28.00 361.31 3240.41
   02:37:33.502.28-Aug-2021 4891.00 7790.81 80.67 28.00 361.51 3240.41
