~Version Information
 VERS.                  2.0:   CWLS log ASCII Standard -VERSION 2.0
 WRAP.                   NO:   One line per depth step
~Well Information Block
#MNEM.UNIT     VALUE/NAME     DESCRIPTION
#---------     -----------    ---------------------------
 STRT.S             08:06:40 27-Aug-21: START TIME 08:06:40 27-Aug-21
 STOP.S             08:13:50 27-Aug-21: STOP TIME  08:13:50 27-Aug-21
 STEP.S                   0.00: STEP TIME
 NULL.                 -999.25: NULL VALUE
 DFWT.                        :  DIST FWL TEXT
 DFST.                        :  DIST FSL TEXT
 DMF .             Drill Floor:  DRILL MEAS FROM
 STIM.      20.00.00 17-Aug-21:  START TIME
 DATE.      19.00.00 29-Aug-21:  END TIME
 SPUD.               15-Aug-21:  SPUD DATE
 NREF.                    Grid:  NORTH REFERENCE
 HPTY.       Minimum Curvature:  HOLE POS TYPE
 DMOD.             Drill Model:  DRILL MOD DESC
 SVYD.                  Survey:  SURVEY DESC
 ILTD.               Lithology:  INTERP LTH DESC
 FTOP.          Formation Tops:  FORM TOPS DESC
 RIG .              East Azeri:  RIG NAME
 PDAT.          Mean Sea Level:  PERMANENT DATUM
 FLD .                     ACG:  FIELD NAME
 SON .        AZ-XX-0907180857:  JOB NUMBER
 CTRY.              Azerbaijan:  COUNTRY NAME
 WELL.                    D23x:  WELL NAME
 SRVC.     Turan Drilling and Engineering:  CONTRACTOR
 COMP.     BP Exploration (Caspian Sea) Ltd.:  COMPANY
 UWI .            /AZE00000214:  UNIQUE WELL IDENTIFIER
 API .            /AZE00000214:  API NUMBER
 MDS .        Operator Entered:  MAG DATA SOURCE
 BASE.              Azerbaijan:  LOGGING EQUIPMENT BASE LOCATION
 REGN.                   EESSA:  REGION
 PROV.                    Baku:  PROVINCE
 STAT.                    Baku:  STATE NAME
 MWDS.                    Baku:  MWD SHOP
 DOE .                     N/A:  DOE NUMBER
 DCON.         Sperry Drilling:  DIRECTNL CONTR
 UNIT.                     N/A:  LOGGING EQUIPMENT ID
 WTYP.                Deviated:  WELL TYPE
 CNTY.                        :  COUNTY
 LOC .                        :  LOCATION
 LMF .             Drill Floor:  LOG MEASURED FROM
 TVDS.m                  43.60:  TVDSS CORRECTN
 LATI.deg                40.02:  LATITUDE
 LONG.deg                51.45:  LONGITUDE
 WHNS.m                  -7.04:  WELL HEAD N/S
 WHEW.m                  -0.67:  WELL HEAD E/W
 UTMX.m              538762.90:  UTM X
 UTMY.m             4431871.34:  UTM Y
 DFWL.m                   0.00:  DISTANCE FWL
 DFSL.m                   0.00:  DISTANCE FSL
 SDEP.m                4127.00:  START DEPTH
 TDD .m                5084.50:  TOTAL DEPTH (DRILLER)
 VSDR.deg               140.47:  VERT SEC DIRECT
 GVFD.g                   1.00:  GRAVITY FIELD
 MFLD.nT              50362.00:  MAGNETIC FIELD
 MDIP.deg                59.48:  MAGNETIC DIP
 MDEC.deg                 6.47:  MAGNETIC DECL
 GRDC.deg                 0.31:  GRID CORRECTION
 AZTC.deg                 6.16:  AZM TOTAL CORR
 EPD .m                   0.00:  ELEVATION
 EGL .m                   0.00:  GROUND ELEVATION
 WDMS.m                 151.80:  WD ELEV
 APD .m                  43.60:  DEPTH ABOVE PD
 DEP .m                4092.57:  DEPTH
 AGAP.m                  43.60:  AIR GAP
 VSEW.m                  -0.67:  VERT SEC E/W
 VSNS.m                  -7.04:  VERT SEC N/S
 EKB .m                  43.60:  KB ELEVATION
 EDF .m                  43.60:  DF ELEVATION
 TDL .m                 957.50:  TOTAL DEPTH (LOGGER)
 VSC .                       0:  VS TO CLOSURE
 MAGU.                 1851413:  MAGUTM CHECKSUM
~Parameter Information Block
#MNEM.UNIT       Value        Description
#---------     -----------    ---------------------------
 AV  .mps                 1.50:  Ann Velocity 
 AVMX.mps                 2.00:  Max Ann Veloc 
 AZIF.deg               184.66:  Azm, Final 
 BHAT.        Rotary Steerable:  BHA Type 
 BREV.rev               300.00:  Rev Bit Total 
 BROT.°/30m              -0.50:  Build Rotating 
 BS  .in                  8.50:  Bit Size 
 BSZ .in                  8.50:  Bit Size 
 BTPL.psig              370.00:  Bit Press Loss 
 CABU.                      No:  Customer Abuse 
 CGEO.      Behruz Shahbaliyev:  Customer Geo 
 COMM.                     ü;x:  Run Comments 1 
 TCS .hr                140.08:  Time Ciculation Ended 
 CV  .mps                 3.00:  Crit Velocity 
 CVMX.mps                 3.20:  Max Crit Veloc 
 DD1 .            Musa Ahmadov:  Direct Drillr 1 
 DD2 .           Hamid Ahmadov:  Direct Drillr 2 
 DDSV.               Geo-Pilot:  DD Service 
 DEFF.%                  98.40:  % Det Eff 
 DLRX.°/30m               3.40:  Dogleg Rot Max 
 DLSO.°/30m               1.45:  Dogleg Oriented 
 DLSX.°/30m               3.40:  Dogleg Str Max 
 DRET.      18.40.00 29-Aug-21:  Drill End Time 
 DRST.      21.00.00 20-Aug-21:  Drill Start Tim 
 DTIM.hr                 69.47:  Time Drilling 
 EDEP.m                5084.50:  End Depth 
 ENG1.      Artemiy Matviyanov:  Engineer 1 
 ENG2.         Almaz Almadatov:  Engineer 2 
 ETIM.      18.40.00 29-Aug-21:  End Time 
 FLOI.gpm               500.00:  Flow In 
 FLON.gpm               400.00:  Flow In Min 
 FLOS.cptm                0.00:  Fluid Loss 
 FLOX.gpm               500.00:  Flow In Max 
 DFT .        Mineral Oil Base:  Mud Type 
 HFLO.                      No:  High Flow 
 HPRE.                      No:  High Pressure 
 HTEM.                      No:  High Temp 
 HYDO.m                   1.80:  Hydro Offset 
 IFIN.deg                25.62:  Inc, Final 
 IMAX.deg                48.69:  Inc Max 
 IMIN.deg                24.01:  Inc Min 
 IMND.m                4962.57:  Inc Min Depth 
 IMXD.m                4119.01:  Inc Max Depth 
 JARR.                      No:  Jarring 
 LETM.      18.40.00 29-Aug-21:  Log End Time 
 LOST.hr                     0:  Lost Rig Time 
 LSTM.      21.00.00 20-Aug-21:  Log Start Time 
 MDCL.ppm             41500.00:  Mud Chlorides 
 MDES.     Inversion Oil/Synthetic:  Mud Desc 
 DFD .sg                  1.56:  Mud Density 
 MDMN.sg                  1.56:  Dens Mud Min 
 MDMX.sg                  1.56:  Dens Mud Max 
 MOIL.                      70:  Run Mud Oil % 
 MOWR.                   70:30:  Run Mud OWR 
 MSND.                     0.2:  Run Mud Sand % 
 MSOL.                    23.3:  Run Mud Solids% 
 DFV .spqt               78.00:  Mud Viscosity 
 MWOD.in                  6.75:  MWD Tool OD 
 MWSI.                      No:  Serv Intrp, MWD 
 OTIM.hr                218.30:  Time Operating 
 PCON.           Look Like New:  Pad Condition 
 PMAX.psia            11015.30:  Press Op, Max 
 PV  .cP                 38.00:  Mud PV 
 RUN .                     300:  Run Number 
 ROPA.m/hr               15.00:  ROP Avg 
 ROPN.m/hr                9.00:  ROP Min 
 ROPX.m/hr               17.00:  ROP Max 
 RPMA.rpm               120.00:  RPM Surface Avg 
 RPMN.rpm                90.00:  RPM Surface Min 
 RPMX.rpm               140.00:  RPM Surface Max 
 RRUN.                     300:  Rig Run Number 
 RTIM.hr                 31.53:  Time Reaming 
 SAZI.deg               331.64:  Azm, Start 
 SDEP.m                4127.00:  Start Depth 
 SIDD.                      No:  Serv Intrp, DD 
 SINC.deg                48.43:  Inc, Start 
 SPPA.psig             5830.00:  SPP Avg 
 SPPN.psig             5600.00:  SPP Min 
 SPPX.psig             5900.00:  SPP Max 
 STIM.      21.00.00 20-Aug-21:  Start Time 
 SVCS.                 DD, MWD:  Services 
 SVER.                    9.20:  Sperry Version 
 TDAT.m                 957.50:  Tot Depth Attmp 
 TDDF.                      No:  Trip for DD 
 TDLG.m                 957.50:  Tot Depth Loggd 
 TFF .                      No:  Trip for Fail 
 TQAA.f-kp               15.00:  Torque Abs Avg 
 TQAN.f-kp               12.00:  Torque Abs Min 
 TQAX.f-kp               19.00:  Torque Abs Max 
 TRRT.°/30m              -3.40:  Turn Rotating 
 MRT .                  EWR-M5:  Maximum Recorded Temperature 
 TTMX.degC              100.00:  Max Tool Temp 
 VS01.                90639251:  Virtual Str1 SN 
 VS02.                90634715:  Virtual Str2 SN 
 VS03.                90652479:  Virtual Str3 SN 
 VS04.                90642262:  Virtual Str4 SN 
 WBMN.klb                 0.00:  WOB Min 
 WITN.           Murad Guliyev:  Customer Rep 
 WITN.          Yashar Gaziyev:  Customer Rep 2 
 WOBA.klb                 9.00:  WOB Avg 
 WOBX.klb                12.00:  WOB Max 
 YP  .lhf2               30.00:  Yield Point 
~Curve Information Block
#MNEM.UNIT                 API CODE     Curve Description
#---------               -----------    ---------------------------
 TIME.HHMMSS            00 000 000 000:  GT Time & Date
 GTDEPTH.m              00 000 000 000:  GT Depth
 GTPQH.psia             00 000 000 000:  GT HR Quartz Pressure
 GTTQ.degC              00 000 000 000:  GT Quartz Temperature
 GTTN.NONE              00 000 000 000:  GT Test Number
 GTET.sec               00 000 000 000:  GT Elapsed Test Time
 GTTVD.m                00 000 000 000:  GT True Vertical Depth
#Other Information
#
#WARRANTY: Halliburton will use its best efforts to furnish customers with 
#accurate information and interpretations that are part of, and incident to, the services 
#provided.  However, Halliburton cannot and does not warrant the accuracy 
#or correctness of such information and interpretations.  Under no circumstances should any 
#such information or interpretation be relied upon as the sole basis for any drilling, 
#completion, production, or financial decision or any procedure involving any risk to the 
#safety of any drilling venture, drilling rig or its crew or any other third party.  The 
#Customer has full responsibility for all drilling, completion and production operation.  
#Halliburton makes no representations or warranties, either expressed or 
#implied, including, but not limited to, the implied warranties of merchantability or fitness 
#for a particular purpose, with respect to the services rendered.  In no event will 
#Halliburton be liable for failure to obtain any particular results or for 
#any damages, including, but not limited to, indirect, special or consequential damages, 
#resulting from the use of any information or interpretation provided by Halliburton.
#
~A           TIME           GTDEPTH  GTPQH  GTTQ  GTTN  GTET   GTTVD  
# ...
   08:10:53.767.27-Aug-2021 4992.50 4260.31 86.94 5.00 253.04 3332.84
   08:10:53.967.27-Aug-2021 4992.50 4260.31 86.94 5.00 253.24 3332.84
   08:10:54.167.27-Aug-2021 4992.50 4260.32 86.94 5.00 253.44 3332.84
   08:10:54.367.27-Aug-2021 4992.50 4260.32 86.94 5.00 253.64 3332.84
   08:10:54.567.27-Aug-2021 4992.50 4260.33 86.94 5.00 253.84 3332.84
   08:10:54.767.27-Aug-2021 4992.50 4260.29 86.94 5.00 254.04 3332.84
   08:10:54.967.27-Aug-2021 4992.50 4260.29 86.94 5.00 254.24 3332.84
   08:10:55.167.27-Aug-2021 4992.50 4260.27 86.94 5.00 254.44 3332.84
   08:10:55.367.27-Aug-2021 4992.50 4260.28 86.94 5.00 254.64 3332.84
   08:10:55.567.27-Aug-2021 4992.50 4260.30 86.94 5.00 254.84 3332.84
   08:10:55.767.27-Aug-2021 4992.50 4260.29 86.94 5.00 255.04 3332.84
   08:10:55.967.27-Aug-2021 4992.50 4260.29 86.94 5.00 255.24 3332.84
   08:10:56.167.27-Aug-2021 4992.50 4260.25 86.94 5.00 255.44 3332.84
   08:10:56.368.27-Aug-2021 4992.50 4260.28 86.94 5.00 255.64 3332.84
   08:10:56.568.27-Aug-2021 4992.50 4260.27 86.94 5.00 255.84 3332.84
   08:10:56.768.27-Aug-2021 4992.50 4260.30 86.94 5.00 256.04 3332.84
   08:10:56.968.27-Aug-2021 4992.50 4260.30 86.94 5.00 256.24 3332.84
   08:10:57.168.27-Aug-2021 4992.50 4260.26 86.94 5.00 256.44 3332.84
   08:10:57.368.27-Aug-2021 4992.50 4260.25 86.94 5.00 256.64 3332.84
   08:10:57.568.27-Aug-2021 4992.50 4260.26 86.94 5.00 256.84 3332.84
   08:10:57.768.27-Aug-2021 4992.50 4260.27 86.94 5.00 257.04 3332.84
   08:10:57.968.27-Aug-2021 4992.50 4260.27 86.94 5.00 257.24 3332.84
   08:10:58.168.27-Aug-2021 4992.50 4260.27 86.94 5.00 257.44 3332.84
   08:10:58.368.27-Aug-2021 4992.50 4260.26 86.94 5.00 257.64 3332.84
   08:10:58.568.27-Aug-2021 4992.50 4260.26 86.94 5.00 257.84 3332.84
   08:10:58.768.27-Aug-2021 4992.50 4260.26 86.94 5.00 258.04 3332.84
   08:10:58.968.27-Aug-2021 4992.50 4260.26 86.94 5.00 258.24 3332.84
   08:10:59.168.27-Aug-2021 4992.50 4260.26 86.94 5.00 258.44 3332.84
   08:10:59.368.27-Aug-2021 4992.50 4260.26 86.94 5.00 258.64 3332.84
   08:10:59.568.27-Aug-2021 4992.50 4260.27 86.94 5.00 258.84 3332.84
   08:10:59.768.27-Aug-2021 4992.50 4260.28 86.94 5.00 259.04 3332.84
   08:10:59.968.27-Aug-2021 4992.50 4260.28 86.94 5.00 259.24 3332.84
   08:11:00.168.27-Aug-2021 4992.50 4260.28 86.94 5.00 259.44 3332.84
   08:11:00.368.27-Aug-2021 4992.50 4260.29 86.94 5.00 259.64 3332.84
   08:11:00.568.27-Aug-2021 4992.50 4260.30 86.94 5.00 259.84 3332.84
   08:11:00.768.27-Aug-2021 4992.50 4260.30 86.94 5.00 260.04 3332.84
   08:11:00.968.27-Aug-2021 4992.50 4260.30 86.94 5.00 260.24 3332.84
   08:11:01.168.27-Aug-2021 4992.50 4260.32 86.94 5.00 260.44 3332.84
   08:11:01.368.27-Aug-2021 4992.50 4260.24 86.94 5.00 260.64 3332.84
   08:11:01.568.27-Aug-2021 4992.50 4260.28 86.94 5.00 260.84 3332.84
   08:11:01.768.27-Aug-2021 4992.50 4260.26 86.94 5.00 261.04 3332.84
   08:11:01.968.27-Aug-2021 4992.50 4260.26 86.94 5.00 261.24 3332.84
   08:11:02.168.27-Aug-2021 4992.50 4260.28 86.94 5.00 261.44 3332.84
   08:11:02.368.27-Aug-2021 4992.50 4260.28 86.94 5.00 261.64 3332.84
   08:11:02.569.27-Aug-2021 4992.50 4260.29 86.94 5.00 261.84 3332.84
   08:11:02.769.27-Aug-2021 4992.50 4260.28 86.94 5.00 262.04 3332.84
   08:11:02.969.27-Aug-2021 4992.50 4260.28 86.94 5.00 262.24 3332.84
   08:11:03.169.27-Aug-2021 4992.50 4260.29 86.94 5.00 262.44 3332.84
   08:11:03.369.27-Aug-2021 4992.50 4260.31 86.94 5.00 262.64 3332.84
   08:11:03.569.27-Aug-2021 4992.50 4260.30 86.94 5.00 262.84 3332.84
   08:11:03.769.27-Aug-2021 4992.50 4260.30 86.94 5.00 263.04 3332.84
   08:11:03.969.27-Aug-2021 4992.50 4260.30 86.94 5.00 263.24 3332.84
   08:11:04.169.27-Aug-2021 4992.50 4260.31 86.94 5.00 263.44 3332.84
   08:11:04.369.27-Aug-2021 4992.50 4260.33 86.94 5.00 263.64 3332.84
   08:11:04.569.27-Aug-2021 4992.50 4260.27 86.94 5.00 263.84 3332.84
   08:11:04.769.27-Aug-2021 4992.50 4260.27 86.94 5.00 264.04 3332.84
   08:11:04.969.27-Aug-2021 4992.50 4260.27 86.94 5.00 264.24 3332.84
   08:11:05.169.27-Aug-2021 4992.50 4260.26 86.94 5.00 264.44 3332.84
   08:11:05.369.27-Aug-2021 4992.50 4260.29 86.94 5.00 264.64 3332.84
   08:11:05.569.27-Aug-2021 4992.50 4260.28 86.94 5.00 264.84 3332.84
   08:11:05.769.27-Aug-2021 4992.50 4260.30 86.94 5.00 265.04 3332.84
   08:11:05.969.27-Aug-2021 4992.50 4260.30 86.94 5.00 265.24 3332.84
   08:11:06.169.27-Aug-2021 4992.50 4260.28 86.94 5.00 265.44 3332.84
   08:11:06.369.27-Aug-2021 4992.50 4260.25 86.94 5.00 265.64 3332.84
   08:11:06.569.27-Aug-2021 4992.50 4260.30 86.94 5.00 265.84 3332.84
   08:11:06.769.27-Aug-2021 4992.50 4260.23 86.94 5.00 266.04 3332.84
   08:11:06.969.27-Aug-2021 4992.50 4260.23 86.94 5.00 266.24 3332.84
   08:11:07.169.27-Aug-2021 4992.50 4254.94 86.94 5.00 266.44 3332.84
   08:11:07.369.27-Aug-2021 4992.50 4253.81 86.94 5.00 266.64 3332.84
   08:11:07.569.27-Aug-2021 4992.50 4253.23 86.94 5.00 266.84 3332.84
   08:11:07.769.27-Aug-2021 4992.50 4253.20 86.94 5.00 267.04 3332.84
   08:11:07.969.27-Aug-2021 4992.50 4253.20 86.94 5.00 267.24 3332.84
   08:11:08.169.27-Aug-2021 4992.50 4252.73 86.94 5.00 267.44 3332.84
   08:11:08.369.27-Aug-2021 4992.50 4252.76 86.94 5.00 267.64 3332.84
   08:11:08.570.27-Aug-2021 4992.50 4252.80 86.94 5.00 267.84 3332.84
   08:11:08.770.27-Aug-2021 4992.50 4252.82 86.94 5.00 268.04 3332.84
   08:11:08.970.27-Aug-2021 4992.50 4252.82 86.94 5.00 268.24 3332.84
   08:11:09.170.27-Aug-2021 4992.50 4252.74 86.94 5.00 268.44 3332.84
   08:11:09.370.27-Aug-2021 4992.50 4252.73 86.94 5.00 268.64 3332.84
   08:11:09.570.27-Aug-2021 4992.50 4252.72 86.94 5.00 268.84 3332.84
   08:11:09.770.27-Aug-2021 4992.50 4252.72 86.94 5.00 269.04 3332.84
   08:11:09.970.27-Aug-2021 4992.50 4252.72 86.94 5.00 269.24 3332.84
   08:11:10.170.27-Aug-2021 4992.50 4252.70 86.94 5.00 269.44 3332.84
   08:11:10.370.27-Aug-2021 4992.50 4252.71 86.94 5.00 269.64 3332.84
   08:11:10.570.27-Aug-2021 4992.50 4252.68 86.94 5.00 269.84 3332.84
   08:11:10.770.27-Aug-2021 4992.50 4252.70 86.94 5.00 270.04 3332.84
   08:11:10.970.27-Aug-2021 4992.50 4252.70 86.94 5.00 270.24 3332.84
   08:11:11.170.27-Aug-2021 4992.50 4252.41 86.94 5.00 270.44 3332.84
   08:11:11.370.27-Aug-2021 4992.50 4252.50 86.94 5.00 270.64 3332.84
   08:11:11.570.27-Aug-2021 4992.50 4252.50 86.94 5.00 270.84 3332.84
   08:11:11.770.27-Aug-2021 4992.50 4252.49 86.94 5.00 271.04 3332.84
   08:11:11.970.27-Aug-2021 4992.50 4252.49 86.94 5.00 271.24 3332.84
   08:11:12.170.27-Aug-2021 4992.50 4252.51 86.94 5.00 271.44 3332.84
   08:11:12.370.27-Aug-2021 4992.50 4252.52 86.94 5.00 271.64 3332.84
   08:11:12.570.27-Aug-2021 4992.50 4252.49 86.94 5.00 271.84 3332.84
   08:11:12.770.27-Aug-2021 4992.50 4252.50 86.94 5.00 272.04 3332.84
   08:11:12.970.27-Aug-2021 4992.50 4252.50 86.94 5.00 272.24 3332.84
   08:11:13.170.27-Aug-2021 4992.50 4252.49 86.94 5.00 272.44 3332.84
   08:11:13.370.27-Aug-2021 4992.50 4252.50 86.94 5.00 272.64 3332.84
   08:11:13.570.27-Aug-2021 4992.50 4252.48 86.94 5.00 272.84 3332.84
   08:11:13.770.27-Aug-2021 4992.50 4252.48 86.94 5.00 273.04 3332.84
   08:11:13.970.27-Aug-2021 4992.50 4252.48 86.94 5.00 273.24 3332.84
   08:11:14.170.27-Aug-2021 4992.50 4252.53 86.94 5.00 273.44 3332.84
   08:11:14.370.27-Aug-2021 4992.50 4252.35 86.94 5.00 273.64 3332.84
   08:11:14.570.27-Aug-2021 4992.50 4252.31 86.94 5.00 273.84 3332.84
   08:11:14.771.27-Aug-2021 4992.50 4252.37 86.94 5.00 274.05 3332.84
   08:11:14.971.27-Aug-2021 4992.50 4252.37 86.94 5.00 274.25 3332.84
   08:11:15.171.27-Aug-2021 4992.50 4252.35 86.94 5.00 274.45 3332.84
   08:11:15.371.27-Aug-2021 4992.50 4252.34 86.94 5.00 274.65 3332.84
   08:11:15.571.27-Aug-2021 4992.50 4252.37 86.94 5.00 274.85 3332.84
   08:11:15.771.27-Aug-2021 4992.50 4252.72 86.94 5.00 275.05 3332.84
   08:11:15.971.27-Aug-2021 4992.50 4252.72 86.94 5.00 275.25 3332.84
   08:11:16.171.27-Aug-2021 4992.50 4253.34 86.94 5.00 275.45 3332.84
   08:11:16.371.27-Aug-2021 4992.50 4253.38 86.94 5.00 275.65 3332.84
   08:11:16.571.27-Aug-2021 4992.50 4253.29 86.94 5.00 275.85 3332.84
