~Version Information
 VERS.                  2.0:   CWLS log ASCII Standard -VERSION 2.0
 WRAP.                   NO:   One line per depth step
~Well Information Block
#MNEM.UNIT     VALUE/NAME     DESCRIPTION
#---------     -----------    ---------------------------
 STRT.S             08:51:30 27-Aug-21: START TIME 08:51:30 27-Aug-21
 STOP.S             08:58:20 27-Aug-21: STOP TIME  08:58:20 27-Aug-21
 STEP.S                   0.00: STEP TIME
 NULL.                 -999.25: NULL VALUE
 DFWT.                        :  DIST FWL TEXT
 DFST.                        :  DIST FSL TEXT
 DMF .             Drill Floor:  DRILL MEAS FROM
 STIM.      20.00.00 17-Aug-21:  START TIME
 DATE.      19.00.00 29-Aug-21:  END TIME
 SPUD.               15-Aug-21:  SPUD DATE
 NREF.                    Grid:  NORTH REFERENCE
 HPTY.       Minimum Curvature:  HOLE POS TYPE
 DMOD.             Drill Model:  DRILL MOD DESC
 SVYD.                  Survey:  SURVEY DESC
 ILTD.               Lithology:  INTERP LTH DESC
 FTOP.          Formation Tops:  FORM TOPS DESC
 RIG .              East Azeri:  RIG NAME
 PDAT.          Mean Sea Level:  PERMANENT DATUM
 FLD .                     ACG:  FIELD NAME
 SON .        AZ-XX-0907180857:  JOB NUMBER
 CTRY.              Azerbaijan:  COUNTRY NAME
 WELL.                    D23x:  WELL NAME
 SRVC.     Turan Drilling and Engineering:  CONTRACTOR
 COMP.     BP Exploration (Caspian Sea) Ltd.:  COMPANY
 UWI .            /AZE00000214:  UNIQUE WELL IDENTIFIER
 API .            /AZE00000214:  API NUMBER
 MDS .        Operator Entered:  MAG DATA SOURCE
 BASE.              Azerbaijan:  LOGGING EQUIPMENT BASE LOCATION
 REGN.                   EESSA:  REGION
 PROV.                    Baku:  PROVINCE
 STAT.                    Baku:  STATE NAME
 MWDS.                    Baku:  MWD SHOP
 DOE .                     N/A:  DOE NUMBER
 DCON.         Sperry Drilling:  DIRECTNL CONTR
 UNIT.                     N/A:  LOGGING EQUIPMENT ID
 WTYP.                Deviated:  WELL TYPE
 CNTY.                        :  COUNTY
 LOC .                        :  LOCATION
 LMF .             Drill Floor:  LOG MEASURED FROM
 TVDS.m                  43.60:  TVDSS CORRECTN
 LATI.deg                40.02:  LATITUDE
 LONG.deg                51.45:  LONGITUDE
 WHNS.m                  -7.04:  WELL HEAD N/S
 WHEW.m                  -0.67:  WELL HEAD E/W
 UTMX.m              538762.90:  UTM X
 UTMY.m             4431871.34:  UTM Y
 DFWL.m                   0.00:  DISTANCE FWL
 DFSL.m                   0.00:  DISTANCE FSL
 SDEP.m                4127.00:  START DEPTH
 TDD .m                5084.50:  TOTAL DEPTH (DRILLER)
 VSDR.deg               140.47:  VERT SEC DIRECT
 GVFD.g                   1.00:  GRAVITY FIELD
 MFLD.nT              50362.00:  MAGNETIC FIELD
 MDIP.deg                59.48:  MAGNETIC DIP
 MDEC.deg                 6.47:  MAGNETIC DECL
 GRDC.deg                 0.31:  GRID CORRECTION
 AZTC.deg                 6.16:  AZM TOTAL CORR
 EPD .m                   0.00:  ELEVATION
 EGL .m                   0.00:  GROUND ELEVATION
 WDMS.m                 151.80:  WD ELEV
 APD .m                  43.60:  DEPTH ABOVE PD
 DEP .m                4092.57:  DEPTH
 AGAP.m                  43.60:  AIR GAP
 VSEW.m                  -0.67:  VERT SEC E/W
 VSNS.m                  -7.04:  VERT SEC N/S
 EKB .m                  43.60:  KB ELEVATION
 EDF .m                  43.60:  DF ELEVATION
 TDL .m                 957.50:  TOTAL DEPTH (LOGGER)
 VSC .                       0:  VS TO CLOSURE
 MAGU.                 1851413:  MAGUTM CHECKSUM
~Parameter Information Block
#MNEM.UNIT       Value        Description
#---------     -----------    ---------------------------
 AV  .mps                 1.50:  Ann Velocity 
 AVMX.mps                 2.00:  Max Ann Veloc 
 AZIF.deg               184.66:  Azm, Final 
 BHAT.        Rotary Steerable:  BHA Type 
 BREV.rev               300.00:  Rev Bit Total 
 BROT.°/30m              -0.50:  Build Rotating 
 BS  .in                  8.50:  Bit Size 
 BSZ .in                  8.50:  Bit Size 
 BTPL.psig              370.00:  Bit Press Loss 
 CABU.                      No:  Customer Abuse 
 CGEO.      Behruz Shahbaliyev:  Customer Geo 
 COMM.                     <w:  Run Comments 1 
 TCS .hr                140.08:  Time Ciculation Ended 
 CV  .mps                 3.00:  Crit Velocity 
 CVMX.mps                 3.20:  Max Crit Veloc 
 DD1 .            Musa Ahmadov:  Direct Drillr 1 
 DD2 .           Hamid Ahmadov:  Direct Drillr 2 
 DDSV.               Geo-Pilot:  DD Service 
 DEFF.%                  98.40:  % Det Eff 
 DLRX.°/30m               3.40:  Dogleg Rot Max 
 DLSO.°/30m               1.45:  Dogleg Oriented 
 DLSX.°/30m               3.40:  Dogleg Str Max 
 DRET.      18.40.00 29-Aug-21:  Drill End Time 
 DRST.      21.00.00 20-Aug-21:  Drill Start Tim 
 DTIM.hr                 69.47:  Time Drilling 
 EDEP.m                5084.50:  End Depth 
 ENG1.      Artemiy Matviyanov:  Engineer 1 
 ENG2.         Almaz Almadatov:  Engineer 2 
 ETIM.      18.40.00 29-Aug-21:  End Time 
 FLOI.gpm               500.00:  Flow In 
 FLON.gpm               400.00:  Flow In Min 
 FLOS.cptm                0.00:  Fluid Loss 
 FLOX.gpm               500.00:  Flow In Max 
 DFT .        Mineral Oil Base:  Mud Type 
 HFLO.                      No:  High Flow 
 HPRE.                      No:  High Pressure 
 HTEM.                      No:  High Temp 
 HYDO.m                   1.80:  Hydro Offset 
 IFIN.deg                25.62:  Inc, Final 
 IMAX.deg                48.69:  Inc Max 
 IMIN.deg                24.01:  Inc Min 
 IMND.m                4962.57:  Inc Min Depth 
 IMXD.m                4119.01:  Inc Max Depth 
 JARR.                      No:  Jarring 
 LETM.      18.40.00 29-Aug-21:  Log End Time 
 LOST.hr                     0:  Lost Rig Time 
 LSTM.      21.00.00 20-Aug-21:  Log Start Time 
 MDCL.ppm             41500.00:  Mud Chlorides 
 MDES.     Inversion Oil/Synthetic:  Mud Desc 
 DFD .sg                  1.56:  Mud Density 
 MDMN.sg                  1.56:  Dens Mud Min 
 MDMX.sg                  1.56:  Dens Mud Max 
 MOIL.                      70:  Run Mud Oil % 
 MOWR.                   70:30:  Run Mud OWR 
 MSND.                     0.2:  Run Mud Sand % 
 MSOL.                    23.3:  Run Mud Solids% 
 DFV .spqt               78.00:  Mud Viscosity 
 MWOD.in                  6.75:  MWD Tool OD 
 MWSI.                      No:  Serv Intrp, MWD 
 OTIM.hr                218.30:  Time Operating 
 PCON.           Look Like New:  Pad Condition 
 PMAX.psia            11015.30:  Press Op, Max 
 PV  .cP                 38.00:  Mud PV 
 RUN .                     300:  Run Number 
 ROPA.m/hr               15.00:  ROP Avg 
 ROPN.m/hr                9.00:  ROP Min 
 ROPX.m/hr               17.00:  ROP Max 
 RPMA.rpm               120.00:  RPM Surface Avg 
 RPMN.rpm                90.00:  RPM Surface Min 
 RPMX.rpm               140.00:  RPM Surface Max 
 RRUN.                     300:  Rig Run Number 
 RTIM.hr                 31.53:  Time Reaming 
 SAZI.deg               331.64:  Azm, Start 
 SDEP.m                4127.00:  Start Depth 
 SIDD.                      No:  Serv Intrp, DD 
 SINC.deg                48.43:  Inc, Start 
 SPPA.psig             5830.00:  SPP Avg 
 SPPN.psig             5600.00:  SPP Min 
 SPPX.psig             5900.00:  SPP Max 
 STIM.      21.00.00 20-Aug-21:  Start Time 
 SVCS.                 DD, MWD:  Services 
 SVER.                    9.20:  Sperry Version 
 TDAT.m                 957.50:  Tot Depth Attmp 
 TDDF.                      No:  Trip for DD 
 TDLG.m                 957.50:  Tot Depth Loggd 
 TFF .                      No:  Trip for Fail 
 TQAA.f-kp               15.00:  Torque Abs Avg 
 TQAN.f-kp               12.00:  Torque Abs Min 
 TQAX.f-kp               19.00:  Torque Abs Max 
 TRRT.°/30m              -3.40:  Turn Rotating 
 MRT .                  EWR-M5:  Maximum Recorded Temperature 
 TTMX.degC              100.00:  Max Tool Temp 
 VS01.                90639251:  Virtual Str1 SN 
 VS02.                90634715:  Virtual Str2 SN 
 VS03.                90652479:  Virtual Str3 SN 
 VS04.                90642262:  Virtual Str4 SN 
 WBMN.klb                 0.00:  WOB Min 
 WITN.           Murad Guliyev:  Customer Rep 
 WITN.          Yashar Gaziyev:  Customer Rep 2 
 WOBA.klb                 9.00:  WOB Avg 
 WOBX.klb                12.00:  WOB Max 
 YP  .lhf2               30.00:  Yield Point 
~Curve Information Block
#MNEM.UNIT                 API CODE     Curve Description
#---------               -----------    ---------------------------
 TIME.HHMMSS            00 000 000 000:  GT Time & Date
 GTDEPTH.m              00 000 000 000:  GT Depth
 GTPQH.psia             00 000 000 000:  GT HR Quartz Pressure
 GTTQ.degC              00 000 000 000:  GT Quartz Temperature
 GTTN.NONE              00 000 000 000:  GT Test Number
 GTET.sec               00 000 000 000:  GT Elapsed Test Time
 GTTVD.m                00 000 000 000:  GT True Vertical Depth
#Other Information
#
#WARRANTY: Halliburton will use its best efforts to furnish customers with 
#accurate information and interpretations that are part of, and incident to, the services 
#provided.  However, Halliburton cannot and does not warrant the accuracy 
#or correctness of such information and interpretations.  Under no circumstances should any 
#such information or interpretation be relied upon as the sole basis for any drilling, 
#completion, production, or financial decision or any procedure involving any risk to the 
#safety of any drilling venture, drilling rig or its crew or any other third party.  The 
#Customer has full responsibility for all drilling, completion and production operation.  
#Halliburton makes no representations or warranties, either expressed or 
#implied, including, but not limited to, the implied warranties of merchantability or fitness 
#for a particular purpose, with respect to the services rendered.  In no event will 
#Halliburton be liable for failure to obtain any particular results or for 
#any damages, including, but not limited to, indirect, special or consequential damages, 
#resulting from the use of any information or interpretation provided by Halliburton.
#
~A           TIME           GTDEPTH  GTPQH  GTTQ  GTTN  GTET   GTTVD  
# ...
   08:54:57.510.27-Aug-2021 4965.00 1841.76 86.63 6.00 207.09 3307.85
   08:54:57.710.27-Aug-2021 4965.00 1841.76 86.63 6.00 207.29 3307.85
   08:54:57.910.27-Aug-2021 4965.00 1842.04 86.63 6.00 207.49 3307.85
   08:54:58.110.27-Aug-2021 4965.00 1842.18 86.63 6.00 207.69 3307.85
   08:54:58.310.27-Aug-2021 4965.00 1842.30 86.63 6.00 207.89 3307.85
   08:54:58.510.27-Aug-2021 4965.00 1842.44 86.63 6.00 208.09 3307.85
   08:54:58.710.27-Aug-2021 4965.00 1842.44 86.63 6.00 208.29 3307.85
   08:54:58.910.27-Aug-2021 4965.00 1842.55 86.63 6.00 208.49 3307.85
   08:54:59.110.27-Aug-2021 4965.00 1843.24 86.63 6.00 208.69 3307.85
   08:54:59.311.27-Aug-2021 4965.00 1843.29 86.63 6.00 208.89 3307.85
   08:54:59.511.27-Aug-2021 4965.00 1843.33 86.63 6.00 209.09 3307.85
   08:54:59.711.27-Aug-2021 4965.00 1843.33 86.63 6.00 209.29 3307.85
   08:54:59.911.27-Aug-2021 4965.00 1843.55 86.63 6.00 209.49 3307.85
   08:55:00.111.27-Aug-2021 4965.00 1843.62 86.63 6.00 209.69 3307.85
   08:55:00.311.27-Aug-2021 4965.00 1843.70 86.63 6.00 209.89 3307.85
   08:55:00.511.27-Aug-2021 4965.00 1843.83 86.63 6.00 210.09 3307.85
   08:55:00.711.27-Aug-2021 4965.00 1843.83 86.63 6.00 210.29 3307.85
   08:55:00.911.27-Aug-2021 4965.00 1843.93 86.63 6.00 210.49 3307.85
   08:55:01.111.27-Aug-2021 4965.00 1844.23 86.63 6.00 210.69 3307.85
   08:55:01.311.27-Aug-2021 4965.00 1844.35 86.63 6.00 210.89 3307.85
   08:55:01.511.27-Aug-2021 4965.00 1844.47 86.63 6.00 211.09 3307.85
   08:55:01.712.27-Aug-2021 4965.00 1844.47 86.63 6.00 211.29 3307.85
   08:55:01.912.27-Aug-2021 4965.00 1844.73 86.63 6.00 211.49 3307.85
   08:55:02.112.27-Aug-2021 4965.00 1844.69 86.63 6.00 211.69 3307.85
   08:55:02.312.27-Aug-2021 4965.00 1845.35 86.63 6.00 211.89 3307.85
   08:55:02.512.27-Aug-2021 4965.00 1845.49 86.63 6.00 212.09 3307.85
   08:55:02.712.27-Aug-2021 4965.00 1845.49 86.63 6.00 212.29 3307.85
   08:55:02.912.27-Aug-2021 4965.00 1845.57 86.63 6.00 212.49 3307.85
   08:55:03.112.27-Aug-2021 4965.00 1845.32 86.63 6.00 212.69 3307.85
   08:55:03.312.27-Aug-2021 4965.00 1845.98 86.63 6.00 212.89 3307.85
   08:55:03.512.27-Aug-2021 4965.00 1846.18 86.63 6.00 213.09 3307.85
   08:55:03.712.27-Aug-2021 4965.00 1846.18 86.63 6.00 213.29 3307.85
   08:55:03.912.27-Aug-2021 4965.00 1845.88 86.63 6.00 213.49 3307.85
   08:55:04.113.27-Aug-2021 4965.00 1846.55 86.63 6.00 213.69 3307.85
   08:55:04.313.27-Aug-2021 4965.00 1846.75 86.63 6.00 213.89 3307.85
   08:55:04.513.27-Aug-2021 4965.00 1846.73 86.63 6.00 214.09 3307.85
   08:55:04.713.27-Aug-2021 4965.00 1846.73 86.63 6.00 214.29 3307.85
   08:55:04.913.27-Aug-2021 4965.00 1846.87 86.63 6.00 214.49 3307.85
   08:55:05.113.27-Aug-2021 4965.00 1846.73 86.63 6.00 214.69 3307.85
   08:55:05.313.27-Aug-2021 4965.00 1847.38 86.63 6.00 214.89 3307.85
   08:55:05.513.27-Aug-2021 4965.00 1847.46 86.63 6.00 215.09 3307.85
   08:55:05.713.27-Aug-2021 4965.00 1847.46 86.63 6.00 215.29 3307.85
   08:55:05.913.27-Aug-2021 4965.00 1847.56 86.63 6.00 215.49 3307.85
   08:55:06.113.27-Aug-2021 4965.00 1847.66 86.63 6.00 215.69 3307.85
   08:55:06.313.27-Aug-2021 4965.00 1847.73 86.63 6.00 215.89 3307.85
   08:55:06.514.27-Aug-2021 4965.00 1847.80 86.63 6.00 216.09 3307.85
   08:55:06.714.27-Aug-2021 4965.00 1847.80 86.63 6.00 216.29 3307.85
   08:55:06.914.27-Aug-2021 4965.00 1848.00 86.63 6.00 216.49 3307.85
   08:55:07.114.27-Aug-2021 4965.00 1848.13 86.63 6.00 216.69 3307.85
   08:55:07.314.27-Aug-2021 4965.00 1848.27 86.63 6.00 216.89 3307.85
   08:55:07.514.27-Aug-2021 4965.00 1848.39 86.63 6.00 217.09 3307.85
   08:55:07.714.27-Aug-2021 4965.00 1848.39 86.63 6.00 217.29 3307.85
   08:55:07.914.27-Aug-2021 4965.00 1848.60 86.63 6.00 217.49 3307.85
   08:55:08.114.27-Aug-2021 4965.00 1848.55 86.63 6.00 217.69 3307.85
   08:55:08.314.27-Aug-2021 4965.00 1848.99 86.63 6.00 217.89 3307.85
   08:55:08.514.27-Aug-2021 4965.00 1849.41 86.63 6.00 218.09 3307.85
   08:55:08.714.27-Aug-2021 4965.00 1849.41 86.63 6.00 218.29 3307.85
   08:55:08.915.27-Aug-2021 4965.00 1849.45 86.63 6.00 218.49 3307.85
   08:55:09.115.27-Aug-2021 4965.00 1849.53 86.63 6.00 218.69 3307.85
   08:55:09.315.27-Aug-2021 4965.00 1849.60 86.63 6.00 218.89 3307.85
   08:55:09.515.27-Aug-2021 4965.00 1849.66 86.62 6.00 219.09 3307.85
   08:55:09.715.27-Aug-2021 4965.00 1849.66 86.62 6.00 219.29 3307.85
   08:55:09.915.27-Aug-2021 4965.00 1849.85 86.62 6.00 219.49 3307.85
   08:55:10.115.27-Aug-2021 4965.00 1849.96 86.62 6.00 219.69 3307.85
   08:55:10.315.27-Aug-2021 4965.00 1850.08 86.62 6.00 219.89 3307.85
   08:55:10.515.27-Aug-2021 4965.00 1850.21 86.62 6.00 220.09 3307.85
   08:55:10.715.27-Aug-2021 4965.00 1850.21 86.62 6.00 220.29 3307.85
   08:55:10.915.27-Aug-2021 4965.00 1850.42 86.62 6.00 220.49 3307.85
   08:55:11.115.27-Aug-2021 4965.00 1850.53 86.62 6.00 220.69 3307.85
   08:55:11.316.27-Aug-2021 4965.00 1850.65 86.62 6.00 220.89 3307.85
   08:55:11.516.27-Aug-2021 4965.00 1850.64 86.62 6.00 221.09 3307.85
   08:55:11.716.27-Aug-2021 4965.00 1850.64 86.62 6.00 221.29 3307.85
   08:55:11.916.27-Aug-2021 4965.00 1851.32 86.62 6.00 221.49 3307.85
   08:55:12.116.27-Aug-2021 4965.00 1851.32 86.62 6.00 221.69 3307.85
   08:55:12.316.27-Aug-2021 4965.00 1851.06 86.62 6.00 221.89 3307.85
   08:55:12.516.27-Aug-2021 4965.00 1851.67 86.62 6.00 222.09 3307.85
   08:55:12.716.27-Aug-2021 4965.00 1851.67 86.62 6.00 222.29 3307.85
   08:55:12.916.27-Aug-2021 4965.00 1851.81 86.62 6.00 222.49 3307.85
   08:55:13.116.27-Aug-2021 4965.00 1851.90 86.62 6.00 222.69 3307.85
   08:55:13.316.27-Aug-2021 4965.00 1851.62 86.62 6.00 222.89 3307.85
   08:55:13.516.27-Aug-2021 4965.00 1852.25 86.62 6.00 223.09 3307.85
   08:55:13.717.27-Aug-2021 4965.00 1852.25 86.62 6.00 223.29 3307.85
   08:55:13.917.27-Aug-2021 4965.00 1852.42 86.62 6.00 223.49 3307.85
   08:55:14.117.27-Aug-2021 4965.00 1852.49 86.62 6.00 223.69 3307.85
   08:55:14.317.27-Aug-2021 4965.00 1852.57 86.62 6.00 223.89 3307.85
   08:55:14.517.27-Aug-2021 4965.00 1852.63 86.62 6.00 224.09 3307.85
   08:55:14.717.27-Aug-2021 4965.00 1852.63 86.62 6.00 224.29 3307.85
   08:55:14.917.27-Aug-2021 4965.00 1852.41 86.62 6.00 224.49 3307.85
   08:55:15.117.27-Aug-2021 4965.00 1853.14 86.62 6.00 224.69 3307.85
   08:55:15.317.27-Aug-2021 4965.00 1853.13 86.62 6.00 224.89 3307.85
   08:55:15.517.27-Aug-2021 4965.00 1853.23 86.62 6.00 225.09 3307.85
   08:55:15.717.27-Aug-2021 4965.00 1853.23 86.62 6.00 225.29 3307.85
   08:55:15.917.27-Aug-2021 4965.00 1853.39 86.62 6.00 225.49 3307.85
   08:55:16.118.27-Aug-2021 4965.00 1853.43 86.62 6.00 225.69 3307.85
   08:55:16.318.27-Aug-2021 4965.00 1853.52 86.62 6.00 225.89 3307.85
   08:55:16.518.27-Aug-2021 4965.00 1853.62 86.62 6.00 226.09 3307.85
   08:55:16.718.27-Aug-2021 4965.00 1853.62 86.62 6.00 226.29 3307.85
   08:55:16.918.27-Aug-2021 4965.00 1853.72 86.62 6.00 226.49 3307.85
   08:55:17.118.27-Aug-2021 4965.00 1853.95 86.62 6.00 226.69 3307.85
   08:55:17.318.27-Aug-2021 4965.00 1854.05 86.62 6.00 226.89 3307.85
   08:55:17.518.27-Aug-2021 4965.00 1854.14 86.62 6.00 227.09 3307.85
   08:55:17.718.27-Aug-2021 4965.00 1854.14 86.62 6.00 227.29 3307.85
   08:55:17.918.27-Aug-2021 4965.00 1854.50 86.62 6.00 227.49 3307.85
   08:55:18.118.27-Aug-2021 4965.00 1854.93 86.62 6.00 227.69 3307.85
   08:55:18.318.27-Aug-2021 4965.00 1854.93 86.62 6.00 227.89 3307.85
   08:55:18.519.27-Aug-2021 4965.00 1854.95 86.62 6.00 228.09 3307.85
   08:55:18.719.27-Aug-2021 4965.00 1854.95 86.62 6.00 228.29 3307.85
   08:55:18.919.27-Aug-2021 4965.00 1855.08 86.62 6.00 228.49 3307.85
   08:55:19.119.27-Aug-2021 4965.00 1855.13 86.62 6.00 228.69 3307.85
   08:55:19.319.27-Aug-2021 4965.00 1855.20 86.62 6.00 228.90 3307.85
   08:55:19.519.27-Aug-2021 4965.00 1855.29 86.62 6.00 229.10 3307.85
   08:55:19.719.27-Aug-2021 4965.00 1855.29 86.62 6.00 229.30 3307.85
   08:55:19.919.27-Aug-2021 4965.00 1855.50 86.62 6.00 229.50 3307.85
   08:55:20.119.27-Aug-2021 4965.00 1855.62 86.62 6.00 229.70 3307.85
   08:55:20.319.27-Aug-2021 4965.00 1855.71 86.62 6.00 229.90 3307.85
