~Version Information
 VERS.                  2.0:   CWLS log ASCII Standard -VERSION 2.0
 WRAP.                   NO:   One line per depth step
~Well Information Block
#MNEM.UNIT     VALUE/NAME     DESCRIPTION
#---------     -----------    ---------------------------
 STRT.S             13:52:51 27-Aug-21: START TIME 13:52:51 27-Aug-21
 STOP.S             13:59:42 27-Aug-21: STOP TIME  13:59:42 27-Aug-21
 STEP.S                   0.00: STEP TIME
 NULL.                 -999.25: NULL VALUE
 DFWT.                        :  DIST FWL TEXT
 DFST.                        :  DIST FSL TEXT
 DMF .             Drill Floor:  DRILL MEAS FROM
 STIM.      20.00.00 17-Aug-21:  START TIME
 DATE.      19.00.00 29-Aug-21:  END TIME
 SPUD.               15-Aug-21:  SPUD DATE
 NREF.                    Grid:  NORTH REFERENCE
 HPTY.       Minimum Curvature:  HOLE POS TYPE
 DMOD.             Drill Model:  DRILL MOD DESC
 SVYD.                  Survey:  SURVEY DESC
 ILTD.               Lithology:  INTERP LTH DESC
 FTOP.          Formation Tops:  FORM TOPS DESC
 RIG .              East Azeri:  RIG NAME
 PDAT.          Mean Sea Level:  PERMANENT DATUM
 FLD .                     ACG:  FIELD NAME
 SON .        AZ-XX-0907180857:  JOB NUMBER
 CTRY.              Azerbaijan:  COUNTRY NAME
 WELL.                    D23x:  WELL NAME
 SRVC.     Turan Drilling and Engineering:  CONTRACTOR
 COMP.     BP Exploration (Caspian Sea) Ltd.:  COMPANY
 UWI .            /AZE00000214:  UNIQUE WELL IDENTIFIER
 API .            /AZE00000214:  API NUMBER
 MDS .        Operator Entered:  MAG DATA SOURCE
 BASE.              Azerbaijan:  LOGGING EQUIPMENT BASE LOCATION
 REGN.                   EESSA:  REGION
 PROV.                    Baku:  PROVINCE
 STAT.                    Baku:  STATE NAME
 MWDS.                    Baku:  MWD SHOP
 DOE .                     N/A:  DOE NUMBER
 DCON.         Sperry Drilling:  DIRECTNL CONTR
 UNIT.                     N/A:  LOGGING EQUIPMENT ID
 WTYP.                Deviated:  WELL TYPE
 CNTY.                        :  COUNTY
 LOC .                        :  LOCATION
 LMF .             Drill Floor:  LOG MEASURED FROM
 TVDS.m                  43.60:  TVDSS CORRECTN
 LATI.deg                40.02:  LATITUDE
 LONG.deg                51.45:  LONGITUDE
 WHNS.m                  -7.04:  WELL HEAD N/S
 WHEW.m                  -0.67:  WELL HEAD E/W
 UTMX.m              538762.90:  UTM X
 UTMY.m             4431871.34:  UTM Y
 DFWL.m                   0.00:  DISTANCE FWL
 DFSL.m                   0.00:  DISTANCE FSL
 SDEP.m                4127.00:  START DEPTH
 TDD .m                5084.50:  TOTAL DEPTH (DRILLER)
 VSDR.deg               140.47:  VERT SEC DIRECT
 GVFD.g                   1.00:  GRAVITY FIELD
 MFLD.nT              50362.00:  MAGNETIC FIELD
 MDIP.deg                59.48:  MAGNETIC DIP
 MDEC.deg                 6.47:  MAGNETIC DECL
 GRDC.deg                 0.31:  GRID CORRECTION
 AZTC.deg                 6.16:  AZM TOTAL CORR
 EPD .m                   0.00:  ELEVATION
 EGL .m                   0.00:  GROUND ELEVATION
 WDMS.m                 151.80:  WD ELEV
 APD .m                  43.60:  DEPTH ABOVE PD
 DEP .m                4092.57:  DEPTH
 AGAP.m                  43.60:  AIR GAP
 VSEW.m                  -0.67:  VERT SEC E/W
 VSNS.m                  -7.04:  VERT SEC N/S
 EKB .m                  43.60:  KB ELEVATION
 EDF .m                  43.60:  DF ELEVATION
 TDL .m                 957.50:  TOTAL DEPTH (LOGGER)
 VSC .                       0:  VS TO CLOSURE
 MAGU.                 1851413:  MAGUTM CHECKSUM
~Parameter Information Block
#MNEM.UNIT       Value        Description
#---------     -----------    ---------------------------
 AV  .mps                 1.50:  Ann Velocity 
 AVMX.mps                 2.00:  Max Ann Veloc 
 AZIF.deg               184.66:  Azm, Final 
 BHAT.        Rotary Steerable:  BHA Type 
 BREV.rev               300.00:  Rev Bit Total 
 BROT.°/30m              -0.50:  Build Rotating 
 BS  .in                  8.50:  Bit Size 
 BSZ .in                  8.50:  Bit Size 
 BTPL.psig              370.00:  Bit Press Loss 
 CABU.                      No:  Customer Abuse 
 CGEO.      Behruz Shahbaliyev:  Customer Geo 
 COMM.                     ÄÆy:  Run Comments 1 
 TCS .hr                140.08:  Time Ciculation Ended 
 CV  .mps                 3.00:  Crit Velocity 
 CVMX.mps                 3.20:  Max Crit Veloc 
 DD1 .            Musa Ahmadov:  Direct Drillr 1 
 DD2 .           Hamid Ahmadov:  Direct Drillr 2 
 DDSV.               Geo-Pilot:  DD Service 
 DEFF.%                  98.40:  % Det Eff 
 DLRX.°/30m               3.40:  Dogleg Rot Max 
 DLSO.°/30m               1.45:  Dogleg Oriented 
 DLSX.°/30m               3.40:  Dogleg Str Max 
 DRET.      18.40.00 29-Aug-21:  Drill End Time 
 DRST.      21.00.00 20-Aug-21:  Drill Start Tim 
 DTIM.hr                 69.47:  Time Drilling 
 EDEP.m                5084.50:  End Depth 
 ENG1.      Artemiy Matviyanov:  Engineer 1 
 ENG2.         Almaz Almadatov:  Engineer 2 
 ETIM.      18.40.00 29-Aug-21:  End Time 
 FLOI.gpm               500.00:  Flow In 
 FLON.gpm               400.00:  Flow In Min 
 FLOS.cptm                0.00:  Fluid Loss 
 FLOX.gpm               500.00:  Flow In Max 
 DFT .        Mineral Oil Base:  Mud Type 
 HFLO.                      No:  High Flow 
 HPRE.                      No:  High Pressure 
 HTEM.                      No:  High Temp 
 HYDO.m                   1.80:  Hydro Offset 
 IFIN.deg                25.62:  Inc, Final 
 IMAX.deg                48.69:  Inc Max 
 IMIN.deg                24.01:  Inc Min 
 IMND.m                4962.57:  Inc Min Depth 
 IMXD.m                4119.01:  Inc Max Depth 
 JARR.                      No:  Jarring 
 LETM.      18.40.00 29-Aug-21:  Log End Time 
 LOST.hr                     0:  Lost Rig Time 
 LSTM.      21.00.00 20-Aug-21:  Log Start Time 
 MDCL.ppm             41500.00:  Mud Chlorides 
 MDES.     Inversion Oil/Synthetic:  Mud Desc 
 DFD .sg                  1.56:  Mud Density 
 MDMN.sg                  1.56:  Dens Mud Min 
 MDMX.sg                  1.56:  Dens Mud Max 
 MOIL.                      70:  Run Mud Oil % 
 MOWR.                   70:30:  Run Mud OWR 
 MSND.                     0.2:  Run Mud Sand % 
 MSOL.                    23.3:  Run Mud Solids% 
 DFV .spqt               78.00:  Mud Viscosity 
 MWOD.in                  6.75:  MWD Tool OD 
 MWSI.                      No:  Serv Intrp, MWD 
 OTIM.hr                218.30:  Time Operating 
 PCON.           Look Like New:  Pad Condition 
 PMAX.psia            11015.30:  Press Op, Max 
 PV  .cP                 38.00:  Mud PV 
 RUN .                     300:  Run Number 
 ROPA.m/hr               15.00:  ROP Avg 
 ROPN.m/hr                9.00:  ROP Min 
 ROPX.m/hr               17.00:  ROP Max 
 RPMA.rpm               120.00:  RPM Surface Avg 
 RPMN.rpm                90.00:  RPM Surface Min 
 RPMX.rpm               140.00:  RPM Surface Max 
 RRUN.                     300:  Rig Run Number 
 RTIM.hr                 31.53:  Time Reaming 
 SAZI.deg               331.64:  Azm, Start 
 SDEP.m                4127.00:  Start Depth 
 SIDD.                      No:  Serv Intrp, DD 
 SINC.deg                48.43:  Inc, Start 
 SPPA.psig             5830.00:  SPP Avg 
 SPPN.psig             5600.00:  SPP Min 
 SPPX.psig             5900.00:  SPP Max 
 STIM.      21.00.00 20-Aug-21:  Start Time 
 SVCS.                 DD, MWD:  Services 
 SVER.                    9.20:  Sperry Version 
 TDAT.m                 957.50:  Tot Depth Attmp 
 TDDF.                      No:  Trip for DD 
 TDLG.m                 957.50:  Tot Depth Loggd 
 TFF .                      No:  Trip for Fail 
 TQAA.f-kp               15.00:  Torque Abs Avg 
 TQAN.f-kp               12.00:  Torque Abs Min 
 TQAX.f-kp               19.00:  Torque Abs Max 
 TRRT.°/30m              -3.40:  Turn Rotating 
 MRT .                  EWR-M5:  Maximum Recorded Temperature 
 TTMX.degC              100.00:  Max Tool Temp 
 VS01.                90639251:  Virtual Str1 SN 
 VS02.                90634715:  Virtual Str2 SN 
 VS03.                90652479:  Virtual Str3 SN 
 VS04.                90642262:  Virtual Str4 SN 
 WBMN.klb                 0.00:  WOB Min 
 WITN.           Murad Guliyev:  Customer Rep 
 WITN.          Yashar Gaziyev:  Customer Rep 2 
 WOBA.klb                 9.00:  WOB Avg 
 WOBX.klb                12.00:  WOB Max 
 YP  .lhf2               30.00:  Yield Point 
~Curve Information Block
#MNEM.UNIT                 API CODE     Curve Description
#---------               -----------    ---------------------------
 TIME.HHMMSS            00 000 000 000:  GT Time & Date
 GTDEPTH.m              00 000 000 000:  GT Depth
 GTPQH.psia             00 000 000 000:  GT HR Quartz Pressure
 GTTQ.degC              00 000 000 000:  GT Quartz Temperature
 GTTN.NONE              00 000 000 000:  GT Test Number
 GTET.sec               00 000 000 000:  GT Elapsed Test Time
 GTTVD.m                00 000 000 000:  GT True Vertical Depth
#Other Information
#
#WARRANTY: Halliburton will use its best efforts to furnish customers with 
#accurate information and interpretations that are part of, and incident to, the services 
#provided.  However, Halliburton cannot and does not warrant the accuracy 
#or correctness of such information and interpretations.  Under no circumstances should any 
#such information or interpretation be relied upon as the sole basis for any drilling, 
#completion, production, or financial decision or any procedure involving any risk to the 
#safety of any drilling venture, drilling rig or its crew or any other third party.  The 
#Customer has full responsibility for all drilling, completion and production operation.  
#Halliburton makes no representations or warranties, either expressed or 
#implied, including, but not limited to, the implied warranties of merchantability or fitness 
#for a particular purpose, with respect to the services rendered.  In no event will 
#Halliburton be liable for failure to obtain any particular results or for 
#any damages, including, but not limited to, indirect, special or consequential damages, 
#resulting from the use of any information or interpretation provided by Halliburton.
#
~A           TIME           GTDEPTH  GTPQH  GTTQ  GTTN   GTET   GTTVD  
# ...
   13:56:59.600.27-Aug-2021 4859.00 5208.82 84.54 14.00 248.60 3211.42
   13:56:59.800.27-Aug-2021 4859.00 5210.23 84.54 14.00 248.80 3211.42
   13:57:00.000.27-Aug-2021 4859.00 5211.67 84.54 14.00 249.00 3211.42
   13:57:00.200.27-Aug-2021 4859.00 5211.67 84.54 14.00 249.20 3211.42
   13:57:00.400.27-Aug-2021 4859.00 5215.36 84.54 14.00 249.40 3211.42
   13:57:00.600.27-Aug-2021 4859.00 5216.95 84.54 14.00 249.60 3211.42
   13:57:00.800.27-Aug-2021 4859.00 5218.91 84.54 14.00 249.80 3211.42
   13:57:01.000.27-Aug-2021 4859.00 5220.15 84.54 14.00 250.00 3211.42
   13:57:01.200.27-Aug-2021 4859.00 5220.15 84.54 14.00 250.20 3211.42
   13:57:01.400.27-Aug-2021 4859.00 5223.61 84.54 14.00 250.40 3211.42
   13:57:01.600.27-Aug-2021 4859.00 5224.71 84.54 14.00 250.60 3211.42
   13:57:01.800.27-Aug-2021 4859.00 5226.20 84.54 14.00 250.80 3211.42
   13:57:02.000.27-Aug-2021 4859.00 5228.11 84.54 14.00 251.00 3211.42
   13:57:02.200.27-Aug-2021 4859.00 5228.11 84.54 14.00 251.20 3211.42
   13:57:02.400.27-Aug-2021 4859.00 5231.15 84.54 14.00 251.40 3211.42
   13:57:02.600.27-Aug-2021 4859.00 5232.56 84.54 14.00 251.60 3211.42
   13:57:02.800.27-Aug-2021 4859.00 5234.16 84.54 14.00 251.80 3211.42
   13:57:03.000.27-Aug-2021 4859.00 5235.75 84.54 14.00 252.00 3211.42
   13:57:03.200.27-Aug-2021 4859.00 5235.75 84.54 14.00 252.20 3211.42
   13:57:03.400.27-Aug-2021 4859.00 5238.84 84.54 14.00 252.40 3211.42
   13:57:03.600.27-Aug-2021 4859.00 5240.34 84.54 14.00 252.60 3211.42
   13:57:03.800.27-Aug-2021 4859.00 5241.85 84.54 14.00 252.80 3211.42
   13:57:04.000.27-Aug-2021 4859.00 5242.68 84.54 14.00 253.00 3211.42
   13:57:04.200.27-Aug-2021 4859.00 5242.68 84.54 14.00 253.20 3211.42
   13:57:04.400.27-Aug-2021 4859.00 5246.30 84.54 14.00 253.40 3211.42
   13:57:04.600.27-Aug-2021 4859.00 5247.18 84.54 14.00 253.60 3211.42
   13:57:04.800.27-Aug-2021 4859.00 5249.08 84.54 14.00 253.80 3211.42
   13:57:05.000.27-Aug-2021 4859.00 5250.13 84.54 14.00 254.00 3211.42
   13:57:05.200.27-Aug-2021 4859.00 5250.13 84.54 14.00 254.20 3211.42
   13:57:05.400.27-Aug-2021 4859.00 5253.11 84.54 14.00 254.40 3211.42
   13:57:05.600.27-Aug-2021 4859.00 5254.41 84.54 14.00 254.60 3211.42
   13:57:05.800.27-Aug-2021 4859.00 5255.87 84.54 14.00 254.80 3211.42
   13:57:06.000.27-Aug-2021 4859.00 5256.44 84.54 14.00 255.00 3211.42
   13:57:06.200.27-Aug-2021 4859.00 5256.44 84.54 14.00 255.20 3211.42
   13:57:06.400.27-Aug-2021 4859.00 5258.58 84.54 14.00 255.40 3211.42
   13:57:06.600.27-Aug-2021 4859.00 5259.91 84.54 14.00 255.60 3211.42
   13:57:06.800.27-Aug-2021 4859.00 5261.27 84.54 14.00 255.80 3211.42
   13:57:07.000.27-Aug-2021 4859.00 5262.68 84.54 14.00 256.00 3211.42
   13:57:07.200.27-Aug-2021 4859.00 5262.68 84.54 14.00 256.20 3211.42
   13:57:07.400.27-Aug-2021 4859.00 5264.71 84.54 14.00 256.40 3211.42
   13:57:07.600.27-Aug-2021 4859.00 5266.67 84.54 14.00 256.60 3211.42
   13:57:07.800.27-Aug-2021 4859.00 5267.79 84.54 14.00 256.80 3211.42
   13:57:08.000.27-Aug-2021 4859.00 5268.63 84.54 14.00 257.00 3211.42
   13:57:08.200.27-Aug-2021 4859.00 5268.63 84.54 14.00 257.20 3211.42
   13:57:08.400.27-Aug-2021 4859.00 5271.43 84.54 14.00 257.40 3211.42
   13:57:08.600.27-Aug-2021 4859.00 5272.94 84.54 14.00 257.60 3211.42
   13:57:08.800.27-Aug-2021 4859.00 5273.77 84.54 14.00 257.80 3211.42
   13:57:09.000.27-Aug-2021 4859.00 5275.46 84.54 14.00 258.00 3211.42
   13:57:09.200.27-Aug-2021 4859.00 5275.46 84.54 14.00 258.20 3211.42
   13:57:09.400.27-Aug-2021 4859.00 5277.17 84.54 14.00 258.40 3211.42
   13:57:09.600.27-Aug-2021 4859.00 5279.29 84.54 14.00 258.60 3211.42
   13:57:09.800.27-Aug-2021 4859.00 5280.49 84.54 14.00 258.80 3211.42
   13:57:10.000.27-Aug-2021 4859.00 5281.39 84.54 14.00 259.00 3211.42
   13:57:10.200.27-Aug-2021 4859.00 5281.39 84.54 14.00 259.20 3211.42
   13:57:10.400.27-Aug-2021 4859.00 5282.98 84.54 14.00 259.40 3211.42
   13:57:10.600.27-Aug-2021 4859.00 5285.42 84.54 14.00 259.60 3211.42
   13:57:10.800.27-Aug-2021 4859.00 5285.57 84.54 14.00 259.80 3211.42
   13:57:11.000.27-Aug-2021 4859.00 5286.94 84.54 14.00 260.00 3211.42
   13:57:11.200.27-Aug-2021 4859.00 5286.94 84.54 14.00 260.20 3211.42
   13:57:11.400.27-Aug-2021 4859.00 5288.96 84.54 14.00 260.40 3211.42
   13:57:11.600.27-Aug-2021 4859.00 5290.46 84.54 14.00 260.60 3211.42
   13:57:11.800.27-Aug-2021 4859.00 5291.37 84.54 14.00 260.80 3211.42
   13:57:12.000.27-Aug-2021 4859.00 5292.64 84.54 14.00 261.00 3211.42
   13:57:12.200.27-Aug-2021 4859.00 5292.64 84.54 14.00 261.20 3211.42
   13:57:12.400.27-Aug-2021 4859.00 5294.94 84.54 14.00 261.40 3211.42
   13:57:12.600.27-Aug-2021 4859.00 5296.18 84.54 14.00 261.60 3211.42
   13:57:12.800.27-Aug-2021 4859.00 5297.31 84.54 14.00 261.80 3211.42
   13:57:13.000.27-Aug-2021 4859.00 5298.42 84.54 14.00 262.00 3211.42
   13:57:13.200.27-Aug-2021 4859.00 5298.42 84.54 14.00 262.20 3211.42
   13:57:13.400.27-Aug-2021 4859.00 5300.68 84.54 14.00 262.40 3211.42
   13:57:13.600.27-Aug-2021 4859.00 5301.49 84.54 14.00 262.60 3211.42
   13:57:13.800.27-Aug-2021 4859.00 5302.24 84.54 14.00 262.80 3211.42
   13:57:14.000.27-Aug-2021 4859.00 5304.05 84.54 14.00 263.00 3211.42
   13:57:14.200.27-Aug-2021 4859.00 5304.05 84.54 14.00 263.20 3211.42
   13:57:14.400.27-Aug-2021 4859.00 5305.51 84.54 14.00 263.40 3211.42
   13:57:14.600.27-Aug-2021 4859.00 5306.17 84.54 14.00 263.60 3211.42
   13:57:14.800.27-Aug-2021 4859.00 5306.93 84.54 14.00 263.80 3211.42
   13:57:15.000.27-Aug-2021 4859.00 5308.09 84.54 14.00 264.00 3211.42
   13:57:15.200.27-Aug-2021 4859.00 5308.09 84.54 14.00 264.20 3211.42
   13:57:15.400.27-Aug-2021 4859.00 5310.16 84.54 14.00 264.40 3211.42
   13:57:15.600.27-Aug-2021 4859.00 5311.24 84.54 14.00 264.60 3211.42
   13:57:15.800.27-Aug-2021 4859.00 5312.31 84.54 14.00 264.80 3211.42
   13:57:16.000.27-Aug-2021 4859.00 5313.49 84.54 14.00 265.00 3211.42
   13:57:16.200.27-Aug-2021 4859.00 5313.49 84.54 14.00 265.20 3211.42
   13:57:16.400.27-Aug-2021 4859.00 5315.57 84.54 14.00 265.40 3211.42
   13:57:16.600.27-Aug-2021 4859.00 5316.62 84.54 14.00 265.60 3211.42
   13:57:16.800.27-Aug-2021 4859.00 5317.59 84.54 14.00 265.80 3211.42
   13:57:17.000.27-Aug-2021 4859.00 5318.35 84.54 14.00 266.00 3211.42
   13:57:17.200.27-Aug-2021 4859.00 5318.35 84.54 14.00 266.20 3211.42
   13:57:17.400.27-Aug-2021 4859.00 5320.53 84.54 14.00 266.40 3211.42
   13:57:17.600.27-Aug-2021 4859.00 5320.82 84.54 14.00 266.60 3211.42
   13:57:17.800.27-Aug-2021 4859.00 5322.23 84.54 14.00 266.80 3211.42
   13:57:18.000.27-Aug-2021 4859.00 5323.06 84.54 14.00 267.00 3211.42
   13:57:18.200.27-Aug-2021 4859.00 5323.06 84.54 14.00 267.20 3211.42
   13:57:18.400.27-Aug-2021 4859.00 5325.06 84.54 14.00 267.40 3211.42
   13:57:18.600.27-Aug-2021 4859.00 5325.90 84.54 14.00 267.60 3211.42
   13:57:18.800.27-Aug-2021 4859.00 5326.66 84.54 14.00 267.80 3211.42
   13:57:19.000.27-Aug-2021 4859.00 5327.46 84.54 14.00 268.00 3211.42
   13:57:19.200.27-Aug-2021 4859.00 5327.46 84.54 14.00 268.20 3211.42
   13:57:19.400.27-Aug-2021 4859.00 5330.05 84.54 14.00 268.40 3211.42
   13:57:19.600.27-Aug-2021 4859.00 5330.54 84.54 14.00 268.60 3211.42
   13:57:19.800.27-Aug-2021 4859.00 5331.89 84.54 14.00 268.80 3211.42
   13:57:20.000.27-Aug-2021 4859.00 5330.40 84.54 14.00 269.00 3211.42
   13:57:20.200.27-Aug-2021 4859.00 5330.40 84.54 14.00 269.20 3211.42
   13:57:20.400.27-Aug-2021 4859.00 5333.07 84.54 14.00 269.40 3211.42
   13:57:20.600.27-Aug-2021 4859.00 5333.80 84.54 14.00 269.60 3211.42
   13:57:20.800.27-Aug-2021 4859.00 5190.03 84.54 14.00 269.80 3211.42
   13:57:21.000.27-Aug-2021 4859.00 4256.84 84.54 14.00 270.00 3211.42
   13:57:21.200.27-Aug-2021 4859.00 4256.84 84.54 14.00 270.20 3211.42
   13:57:21.400.27-Aug-2021 4859.00 2556.21 84.54 14.00 270.40 3211.42
   13:57:21.600.27-Aug-2021 4859.00 1909.81 84.54 14.00 270.60 3211.42
   13:57:21.800.27-Aug-2021 4859.00 1706.27 84.54 14.00 270.80 3211.42
   13:57:22.000.27-Aug-2021 4859.00 1673.22 84.54 14.00 271.00 3211.42
