~Version Information
 VERS.                  2.0:   CWLS log ASCII Standard -VERSION 2.0
 WRAP.                   NO:   One line per depth step
~Well Information Block
#MNEM.UNIT     VALUE/NAME     DESCRIPTION
#---------     -----------    ---------------------------
 STRT.S             13:07:39 27-Aug-21: START TIME 13:07:39 27-Aug-21
 STOP.S             13:14:54 27-Aug-21: STOP TIME  13:14:54 27-Aug-21
 STEP.S                   0.00: STEP TIME
 NULL.                 -999.25: NULL VALUE
 DFWT.                        :  DIST FWL TEXT
 DFST.                        :  DIST FSL TEXT
 DMF .             Drill Floor:  DRILL MEAS FROM
 STIM.      20.00.00 17-Aug-21:  START TIME
 DATE.      19.00.00 29-Aug-21:  END TIME
 SPUD.               15-Aug-21:  SPUD DATE
 NREF.                    Grid:  NORTH REFERENCE
 HPTY.       Minimum Curvature:  HOLE POS TYPE
 DMOD.             Drill Model:  DRILL MOD DESC
 SVYD.                  Survey:  SURVEY DESC
 ILTD.               Lithology:  INTERP LTH DESC
 FTOP.          Formation Tops:  FORM TOPS DESC
 RIG .              East Azeri:  RIG NAME
 PDAT.          Mean Sea Level:  PERMANENT DATUM
 FLD .                     ACG:  FIELD NAME
 SON .        AZ-XX-0907180857:  JOB NUMBER
 CTRY.              Azerbaijan:  COUNTRY NAME
 WELL.                    D23x:  WELL NAME
 SRVC.     Turan Drilling and Engineering:  CONTRACTOR
 COMP.     BP Exploration (Caspian Sea) Ltd.:  COMPANY
 UWI .            /AZE00000214:  UNIQUE WELL IDENTIFIER
 API .            /AZE00000214:  API NUMBER
 MDS .        Operator Entered:  MAG DATA SOURCE
 BASE.              Azerbaijan:  LOGGING EQUIPMENT BASE LOCATION
 REGN.                   EESSA:  REGION
 PROV.                    Baku:  PROVINCE
 STAT.                    Baku:  STATE NAME
 MWDS.                    Baku:  MWD SHOP
 DOE .                     N/A:  DOE NUMBER
 DCON.         Sperry Drilling:  DIRECTNL CONTR
 UNIT.                     N/A:  LOGGING EQUIPMENT ID
 WTYP.                Deviated:  WELL TYPE
 CNTY.                        :  COUNTY
 LOC .                        :  LOCATION
 LMF .             Drill Floor:  LOG MEASURED FROM
 TVDS.m                  43.60:  TVDSS CORRECTN
 LATI.deg                40.02:  LATITUDE
 LONG.deg                51.45:  LONGITUDE
 WHNS.m                  -7.04:  WELL HEAD N/S
 WHEW.m                  -0.67:  WELL HEAD E/W
 UTMX.m              538762.90:  UTM X
 UTMY.m             4431871.34:  UTM Y
 DFWL.m                   0.00:  DISTANCE FWL
 DFSL.m                   0.00:  DISTANCE FSL
 SDEP.m                4127.00:  START DEPTH
 TDD .m                5084.50:  TOTAL DEPTH (DRILLER)
 VSDR.deg               140.47:  VERT SEC DIRECT
 GVFD.g                   1.00:  GRAVITY FIELD
 MFLD.nT              50362.00:  MAGNETIC FIELD
 MDIP.deg                59.48:  MAGNETIC DIP
 MDEC.deg                 6.47:  MAGNETIC DECL
 GRDC.deg                 0.31:  GRID CORRECTION
 AZTC.deg                 6.16:  AZM TOTAL CORR
 EPD .m                   0.00:  ELEVATION
 EGL .m                   0.00:  GROUND ELEVATION
 WDMS.m                 151.80:  WD ELEV
 APD .m                  43.60:  DEPTH ABOVE PD
 DEP .m                4092.57:  DEPTH
 AGAP.m                  43.60:  AIR GAP
 VSEW.m                  -0.67:  VERT SEC E/W
 VSNS.m                  -7.04:  VERT SEC N/S
 EKB .m                  43.60:  KB ELEVATION
 EDF .m                  43.60:  DF ELEVATION
 TDL .m                 957.50:  TOTAL DEPTH (LOGGER)
 VSC .                       0:  VS TO CLOSURE
 MAGU.                 1851413:  MAGUTM CHECKSUM
~Parameter Information Block
#MNEM.UNIT       Value        Description
#---------     -----------    ---------------------------
 AV  .mps                 1.50:  Ann Velocity 
 AVMX.mps                 2.00:  Max Ann Veloc 
 AZIF.deg               184.66:  Azm, Final 
 BHAT.        Rotary Steerable:  BHA Type 
 BREV.rev               300.00:  Rev Bit Total 
 BROT.°/30m              -0.50:  Build Rotating 
 BS  .in                  8.50:  Bit Size 
 BSZ .in                  8.50:  Bit Size 
 BTPL.psig              370.00:  Bit Press Loss 
 CABU.                      No:  Customer Abuse 
 CGEO.      Behruz Shahbaliyev:  Customer Geo 
 COMM.                     ¤R:  Run Comments 1 
 TCS .hr                140.08:  Time Ciculation Ended 
 CV  .mps                 3.00:  Crit Velocity 
 CVMX.mps                 3.20:  Max Crit Veloc 
 DD1 .            Musa Ahmadov:  Direct Drillr 1 
 DD2 .           Hamid Ahmadov:  Direct Drillr 2 
 DDSV.               Geo-Pilot:  DD Service 
 DEFF.%                  98.40:  % Det Eff 
 DLRX.°/30m               3.40:  Dogleg Rot Max 
 DLSO.°/30m               1.45:  Dogleg Oriented 
 DLSX.°/30m               3.40:  Dogleg Str Max 
 DRET.      18.40.00 29-Aug-21:  Drill End Time 
 DRST.      21.00.00 20-Aug-21:  Drill Start Tim 
 DTIM.hr                 69.47:  Time Drilling 
 EDEP.m                5084.50:  End Depth 
 ENG1.      Artemiy Matviyanov:  Engineer 1 
 ENG2.         Almaz Almadatov:  Engineer 2 
 ETIM.      18.40.00 29-Aug-21:  End Time 
 FLOI.gpm               500.00:  Flow In 
 FLON.gpm               400.00:  Flow In Min 
 FLOS.cptm                0.00:  Fluid Loss 
 FLOX.gpm               500.00:  Flow In Max 
 DFT .        Mineral Oil Base:  Mud Type 
 HFLO.                      No:  High Flow 
 HPRE.                      No:  High Pressure 
 HTEM.                      No:  High Temp 
 HYDO.m                   1.80:  Hydro Offset 
 IFIN.deg                25.62:  Inc, Final 
 IMAX.deg                48.69:  Inc Max 
 IMIN.deg                24.01:  Inc Min 
 IMND.m                4962.57:  Inc Min Depth 
 IMXD.m                4119.01:  Inc Max Depth 
 JARR.                      No:  Jarring 
 LETM.      18.40.00 29-Aug-21:  Log End Time 
 LOST.hr                     0:  Lost Rig Time 
 LSTM.      21.00.00 20-Aug-21:  Log Start Time 
 MDCL.ppm             41500.00:  Mud Chlorides 
 MDES.     Inversion Oil/Synthetic:  Mud Desc 
 DFD .sg                  1.56:  Mud Density 
 MDMN.sg                  1.56:  Dens Mud Min 
 MDMX.sg                  1.56:  Dens Mud Max 
 MOIL.                      70:  Run Mud Oil % 
 MOWR.                   70:30:  Run Mud OWR 
 MSND.                     0.2:  Run Mud Sand % 
 MSOL.                    23.3:  Run Mud Solids% 
 DFV .spqt               78.00:  Mud Viscosity 
 MWOD.in                  6.75:  MWD Tool OD 
 MWSI.                      No:  Serv Intrp, MWD 
 OTIM.hr                218.30:  Time Operating 
 PCON.           Look Like New:  Pad Condition 
 PMAX.psia            11015.30:  Press Op, Max 
 PV  .cP                 38.00:  Mud PV 
 RUN .                     300:  Run Number 
 ROPA.m/hr               15.00:  ROP Avg 
 ROPN.m/hr                9.00:  ROP Min 
 ROPX.m/hr               17.00:  ROP Max 
 RPMA.rpm               120.00:  RPM Surface Avg 
 RPMN.rpm                90.00:  RPM Surface Min 
 RPMX.rpm               140.00:  RPM Surface Max 
 RRUN.                     300:  Rig Run Number 
 RTIM.hr                 31.53:  Time Reaming 
 SAZI.deg               331.64:  Azm, Start 
 SDEP.m                4127.00:  Start Depth 
 SIDD.                      No:  Serv Intrp, DD 
 SINC.deg                48.43:  Inc, Start 
 SPPA.psig             5830.00:  SPP Avg 
 SPPN.psig             5600.00:  SPP Min 
 SPPX.psig             5900.00:  SPP Max 
 STIM.      21.00.00 20-Aug-21:  Start Time 
 SVCS.                 DD, MWD:  Services 
 SVER.                    9.20:  Sperry Version 
 TDAT.m                 957.50:  Tot Depth Attmp 
 TDDF.                      No:  Trip for DD 
 TDLG.m                 957.50:  Tot Depth Loggd 
 TFF .                      No:  Trip for Fail 
 TQAA.f-kp               15.00:  Torque Abs Avg 
 TQAN.f-kp               12.00:  Torque Abs Min 
 TQAX.f-kp               19.00:  Torque Abs Max 
 TRRT.°/30m              -3.40:  Turn Rotating 
 MRT .                  EWR-M5:  Maximum Recorded Temperature 
 TTMX.degC              100.00:  Max Tool Temp 
 VS01.                90639251:  Virtual Str1 SN 
 VS02.                90634715:  Virtual Str2 SN 
 VS03.                90652479:  Virtual Str3 SN 
 VS04.                90642262:  Virtual Str4 SN 
 WBMN.klb                 0.00:  WOB Min 
 WITN.           Murad Guliyev:  Customer Rep 
 WITN.          Yashar Gaziyev:  Customer Rep 2 
 WOBA.klb                 9.00:  WOB Avg 
 WOBX.klb                12.00:  WOB Max 
 YP  .lhf2               30.00:  Yield Point 
~Curve Information Block
#MNEM.UNIT                 API CODE     Curve Description
#---------               -----------    ---------------------------
 TIME.HHMMSS            00 000 000 000:  GT Time & Date
 GTDEPTH.m              00 000 000 000:  GT Depth
 GTPQH.psia             00 000 000 000:  GT HR Quartz Pressure
 GTTQ.degC              00 000 000 000:  GT Quartz Temperature
 GTTN.NONE              00 000 000 000:  GT Test Number
 GTET.sec               00 000 000 000:  GT Elapsed Test Time
 GTTVD.m                00 000 000 000:  GT True Vertical Depth
#Other Information
#
#WARRANTY: Halliburton will use its best efforts to furnish customers with 
#accurate information and interpretations that are part of, and incident to, the services 
#provided.  However, Halliburton cannot and does not warrant the accuracy 
#or correctness of such information and interpretations.  Under no circumstances should any 
#such information or interpretation be relied upon as the sole basis for any drilling, 
#completion, production, or financial decision or any procedure involving any risk to the 
#safety of any drilling venture, drilling rig or its crew or any other third party.  The 
#Customer has full responsibility for all drilling, completion and production operation.  
#Halliburton makes no representations or warranties, either expressed or 
#implied, including, but not limited to, the implied warranties of merchantability or fitness 
#for a particular purpose, with respect to the services rendered.  In no event will 
#Halliburton be liable for failure to obtain any particular results or for 
#any damages, including, but not limited to, indirect, special or consequential damages, 
#resulting from the use of any information or interpretation provided by Halliburton.
#
~A           TIME           GTDEPTH  GTPQH  GTTQ  GTTN   GTET   GTTVD  
# ...
   13:11:48.784.27-Aug-2021 4901.50 5051.48 84.94 13.00 248.85 3249.95
   13:11:48.984.27-Aug-2021 4901.50 5051.44 84.94 13.00 249.05 3249.95
   13:11:49.184.27-Aug-2021 4901.50 5051.44 84.94 13.00 249.25 3249.95
   13:11:49.385.27-Aug-2021 4901.50 5051.44 84.94 13.00 249.45 3249.95
   13:11:49.585.27-Aug-2021 4901.50 5051.44 84.94 13.00 249.65 3249.95
   13:11:49.785.27-Aug-2021 4901.50 5051.36 84.94 13.00 249.85 3249.95
   13:11:49.985.27-Aug-2021 4901.50 5051.55 84.94 13.00 250.05 3249.95
   13:11:50.185.27-Aug-2021 4901.50 5051.45 84.94 13.00 250.25 3249.95
   13:11:50.386.27-Aug-2021 4901.50 5051.45 84.94 13.00 250.45 3249.95
   13:11:50.586.27-Aug-2021 4901.50 5051.45 84.94 13.00 250.65 3249.95
   13:11:50.786.27-Aug-2021 4901.50 5051.47 84.94 13.00 250.86 3249.95
   13:11:50.986.27-Aug-2021 4901.50 5051.41 84.94 13.00 251.06 3249.95
   13:11:51.186.27-Aug-2021 4901.50 5051.48 84.94 13.00 251.26 3249.95
   13:11:51.387.27-Aug-2021 4901.50 5051.48 84.94 13.00 251.46 3249.95
   13:11:51.587.27-Aug-2021 4901.50 5051.44 84.94 13.00 251.66 3249.95
   13:11:51.787.27-Aug-2021 4901.50 5051.36 84.94 13.00 251.86 3249.95
   13:11:51.987.27-Aug-2021 4901.50 5051.55 84.94 13.00 252.06 3249.95
   13:11:52.187.27-Aug-2021 4901.50 5051.44 84.94 13.00 252.26 3249.95
   13:11:52.388.27-Aug-2021 4901.50 5051.44 84.94 13.00 252.46 3249.95
   13:11:52.588.27-Aug-2021 4901.50 5051.44 84.94 13.00 252.66 3249.95
   13:11:52.788.27-Aug-2021 4901.50 5051.45 84.94 13.00 252.86 3249.95
   13:11:52.988.27-Aug-2021 4901.50 5051.44 84.94 13.00 253.06 3249.95
   13:11:53.189.27-Aug-2021 4901.50 5051.45 84.94 13.00 253.26 3249.95
   13:11:53.389.27-Aug-2021 4901.50 5051.45 84.94 13.00 253.46 3249.95
   13:11:53.589.27-Aug-2021 4901.50 5051.45 84.94 13.00 253.66 3249.95
   13:11:53.789.27-Aug-2021 4901.50 5051.44 84.94 13.00 253.86 3249.95
   13:11:53.989.27-Aug-2021 4901.50 5051.44 84.94 13.00 254.06 3249.95
   13:11:54.190.27-Aug-2021 4901.50 5051.44 84.94 13.00 254.26 3249.95
   13:11:54.390.27-Aug-2021 4901.50 5051.44 84.94 13.00 254.46 3249.95
   13:11:54.590.27-Aug-2021 4901.50 5051.44 84.94 13.00 254.66 3249.95
   13:11:54.790.27-Aug-2021 4901.50 5051.43 84.94 13.00 254.86 3249.95
   13:11:54.990.27-Aug-2021 4901.50 5051.45 84.94 13.00 255.06 3249.95
   13:11:55.191.27-Aug-2021 4901.50 5051.43 84.94 13.00 255.26 3249.95
   13:11:55.391.27-Aug-2021 4901.50 5051.43 84.94 13.00 255.46 3249.95
   13:11:55.591.27-Aug-2021 4901.50 5051.45 84.94 13.00 255.66 3249.95
   13:11:55.791.27-Aug-2021 4901.50 5051.44 84.94 13.00 255.86 3249.95
   13:11:55.991.27-Aug-2021 4901.50 5051.44 84.94 13.00 256.06 3249.95
   13:11:56.192.27-Aug-2021 4901.50 5051.45 84.94 13.00 256.26 3249.95
   13:11:56.392.27-Aug-2021 4901.50 5051.45 84.94 13.00 256.46 3249.95
   13:11:56.592.27-Aug-2021 4901.50 5051.44 84.94 13.00 256.66 3249.95
   13:11:56.792.27-Aug-2021 4901.50 5051.44 84.94 13.00 256.86 3249.95
   13:11:56.992.27-Aug-2021 4901.50 5051.44 84.94 13.00 257.06 3249.95
   13:11:57.193.27-Aug-2021 4901.50 5051.44 84.94 13.00 257.26 3249.95
   13:11:57.393.27-Aug-2021 4901.50 5051.44 84.94 13.00 257.46 3249.95
   13:11:57.593.27-Aug-2021 4901.50 5051.43 84.93 13.00 257.66 3249.95
   13:11:57.793.27-Aug-2021 4901.50 5051.44 84.93 13.00 257.86 3249.95
   13:11:57.993.27-Aug-2021 4901.50 5051.43 84.93 13.00 258.06 3249.95
   13:11:58.194.27-Aug-2021 4901.50 5051.43 84.93 13.00 258.26 3249.95
   13:11:58.394.27-Aug-2021 4901.50 5051.43 84.93 13.00 258.46 3249.95
   13:11:58.594.27-Aug-2021 4901.50 5051.44 84.93 13.00 258.66 3249.95
   13:11:58.794.27-Aug-2021 4901.50 5051.44 84.93 13.00 258.86 3249.95
   13:11:58.994.27-Aug-2021 4901.50 5051.44 84.93 13.00 259.06 3249.95
   13:11:59.195.27-Aug-2021 4901.50 5051.43 84.93 13.00 259.26 3249.95
   13:11:59.395.27-Aug-2021 4901.50 5051.43 84.93 13.00 259.46 3249.95
   13:11:59.595.27-Aug-2021 4901.50 5051.44 84.93 13.00 259.66 3249.95
   13:11:59.795.27-Aug-2021 4901.50 5051.45 84.93 13.00 259.86 3249.95
   13:11:59.995.27-Aug-2021 4901.50 5051.42 84.93 13.00 260.06 3249.95
   13:12:00.196.27-Aug-2021 4901.50 5051.47 84.93 13.00 260.26 3249.95
   13:12:00.396.27-Aug-2021 4901.50 5051.47 84.93 13.00 260.46 3249.95
   13:12:00.596.27-Aug-2021 4901.50 5051.45 84.93 13.00 260.67 3249.95
   13:12:00.796.27-Aug-2021 4901.50 5051.45 84.93 13.00 260.87 3249.95
   13:12:00.996.27-Aug-2021 4901.50 5051.43 84.93 13.00 261.07 3249.95
   13:12:01.197.27-Aug-2021 4901.50 5051.44 84.93 13.00 261.27 3249.95
   13:12:01.397.27-Aug-2021 4901.50 5051.44 84.93 13.00 261.47 3249.95
   13:12:01.597.27-Aug-2021 4901.50 5051.43 84.93 13.00 261.67 3249.95
   13:12:01.797.27-Aug-2021 4901.50 5051.45 84.93 13.00 261.87 3249.95
   13:12:01.997.27-Aug-2021 4901.50 5051.41 84.93 13.00 262.07 3249.95
   13:12:02.198.27-Aug-2021 4901.50 5051.46 84.93 13.00 262.27 3249.95
   13:12:02.398.27-Aug-2021 4901.50 5051.46 84.93 13.00 262.47 3249.95
   13:12:02.598.27-Aug-2021 4901.50 5051.44 84.93 13.00 262.67 3249.95
   13:12:02.798.27-Aug-2021 4901.50 5051.44 84.93 13.00 262.87 3249.95
   13:12:02.998.27-Aug-2021 4901.50 5051.43 84.93 13.00 263.07 3249.95
   13:12:03.199.27-Aug-2021 4901.50 5051.44 84.93 13.00 263.27 3249.95
   13:12:03.399.27-Aug-2021 4901.50 5051.44 84.93 13.00 263.47 3249.95
   13:12:03.599.27-Aug-2021 4901.50 5051.43 84.93 13.00 263.67 3249.95
   13:12:03.799.27-Aug-2021 4901.50 5051.43 84.93 13.00 263.87 3249.95
   13:12:04.000.27-Aug-2021 4901.50 5051.43 84.93 13.00 264.07 3249.95
   13:12:04.200.27-Aug-2021 4901.50 5051.43 84.93 13.00 264.27 3249.95
   13:12:04.400.27-Aug-2021 4901.50 5051.43 84.93 13.00 264.47 3249.95
   13:12:04.600.27-Aug-2021 4901.50 5051.43 84.93 13.00 264.67 3249.95
   13:12:04.800.27-Aug-2021 4901.50 5051.42 84.93 13.00 264.87 3249.95
   13:12:05.001.27-Aug-2021 4901.50 5051.45 84.93 13.00 265.07 3249.95
   13:12:05.201.27-Aug-2021 4901.50 5051.44 84.93 13.00 265.27 3249.95
   13:12:05.401.27-Aug-2021 4901.50 5051.44 84.93 13.00 265.47 3249.95
   13:12:05.601.27-Aug-2021 4901.50 5051.44 84.93 13.00 265.67 3249.95
   13:12:05.801.27-Aug-2021 4901.50 5051.44 84.93 13.00 265.87 3249.95
   13:12:06.002.27-Aug-2021 4901.50 5051.44 84.93 13.00 266.07 3249.95
   13:12:06.202.27-Aug-2021 4901.50 5051.43 84.93 13.00 266.27 3249.95
   13:12:06.402.27-Aug-2021 4901.50 5051.43 84.93 13.00 266.47 3249.95
   13:12:06.602.27-Aug-2021 4901.50 5051.44 84.93 13.00 266.67 3249.95
   13:12:06.802.27-Aug-2021 4901.50 5051.44 84.93 13.00 266.87 3249.95
   13:12:07.003.27-Aug-2021 4901.50 5051.44 84.93 13.00 267.07 3249.95
   13:12:07.203.27-Aug-2021 4901.50 5051.43 84.93 13.00 267.27 3249.95
   13:12:07.403.27-Aug-2021 4901.50 5051.43 84.93 13.00 267.47 3249.95
   13:12:07.603.27-Aug-2021 4901.50 5051.43 84.93 13.00 267.67 3249.95
   13:12:07.803.27-Aug-2021 4901.50 5051.42 84.93 13.00 267.87 3249.95
   13:12:08.004.27-Aug-2021 4901.50 5051.42 84.93 13.00 268.07 3249.95
   13:12:08.204.27-Aug-2021 4901.50 5051.37 84.93 13.00 268.27 3249.95
   13:12:08.404.27-Aug-2021 4901.50 5051.37 84.93 13.00 268.47 3249.95
   13:12:08.604.27-Aug-2021 4901.50 5051.45 84.93 13.00 268.67 3249.95
   13:12:08.804.27-Aug-2021 4901.50 5051.43 84.93 13.00 268.87 3249.95
   13:12:09.005.27-Aug-2021 4901.50 5051.43 84.93 13.00 269.07 3249.95
   13:12:09.205.27-Aug-2021 4901.50 5051.44 84.93 13.00 269.27 3249.95
   13:12:09.405.27-Aug-2021 4901.50 5051.44 84.93 13.00 269.47 3249.95
   13:12:09.605.27-Aug-2021 4901.50 5051.43 84.93 13.00 269.67 3249.95
   13:12:09.805.27-Aug-2021 4901.50 5051.45 84.93 13.00 269.87 3249.95
   13:12:10.006.27-Aug-2021 4901.50 5051.43 84.93 13.00 270.07 3249.95
   13:12:10.206.27-Aug-2021 4901.50 5051.44 84.93 13.00 270.27 3249.95
   13:12:10.406.27-Aug-2021 4901.50 5051.44 84.93 13.00 270.48 3249.95
   13:12:10.606.27-Aug-2021 4901.50 5051.27 84.93 13.00 270.68 3249.95
   13:12:10.806.27-Aug-2021 4901.50 5008.03 84.93 13.00 270.88 3249.95
   13:12:11.007.27-Aug-2021 4901.50 4973.04 84.93 13.00 271.08 3249.95
   13:12:11.207.27-Aug-2021 4901.50 4966.50 84.93 13.00 271.28 3249.95
