~Version Information
 VERS.                  2.0:   CWLS log ASCII Standard -VERSION 2.0
 WRAP.                   NO:   One line per depth step
~Well Information Block
#MNEM.UNIT     VALUE/NAME     DESCRIPTION
#---------     -----------    ---------------------------
 STRT.S             12:21:31 27-Aug-21: START TIME 12:21:31 27-Aug-21
 STOP.S             12:28:48 27-Aug-21: STOP TIME  12:28:48 27-Aug-21
 STEP.S                   0.00: STEP TIME
 NULL.                 -999.25: NULL VALUE
 DFWT.                        :  DIST FWL TEXT
 DFST.                        :  DIST FSL TEXT
 DMF .             Drill Floor:  DRILL MEAS FROM
 STIM.      20.00.00 17-Aug-21:  START TIME
 DATE.      19.00.00 29-Aug-21:  END TIME
 SPUD.               15-Aug-21:  SPUD DATE
 NREF.                    Grid:  NORTH REFERENCE
 HPTY.       Minimum Curvature:  HOLE POS TYPE
 DMOD.             Drill Model:  DRILL MOD DESC
 SVYD.                  Survey:  SURVEY DESC
 ILTD.               Lithology:  INTERP LTH DESC
 FTOP.          Formation Tops:  FORM TOPS DESC
 RIG .              East Azeri:  RIG NAME
 PDAT.          Mean Sea Level:  PERMANENT DATUM
 FLD .                     ACG:  FIELD NAME
 SON .        AZ-XX-0907180857:  JOB NUMBER
 CTRY.              Azerbaijan:  COUNTRY NAME
 WELL.                    D23x:  WELL NAME
 SRVC.     Turan Drilling and Engineering:  CONTRACTOR
 COMP.     BP Exploration (Caspian Sea) Ltd.:  COMPANY
 UWI .            /AZE00000214:  UNIQUE WELL IDENTIFIER
 API .            /AZE00000214:  API NUMBER
 MDS .        Operator Entered:  MAG DATA SOURCE
 BASE.              Azerbaijan:  LOGGING EQUIPMENT BASE LOCATION
 REGN.                   EESSA:  REGION
 PROV.                    Baku:  PROVINCE
 STAT.                    Baku:  STATE NAME
 MWDS.                    Baku:  MWD SHOP
 DOE .                     N/A:  DOE NUMBER
 DCON.         Sperry Drilling:  DIRECTNL CONTR
 UNIT.                     N/A:  LOGGING EQUIPMENT ID
 WTYP.                Deviated:  WELL TYPE
 CNTY.                        :  COUNTY
 LOC .                        :  LOCATION
 LMF .             Drill Floor:  LOG MEASURED FROM
 TVDS.m                  43.60:  TVDSS CORRECTN
 LATI.deg                40.02:  LATITUDE
 LONG.deg                51.45:  LONGITUDE
 WHNS.m                  -7.04:  WELL HEAD N/S
 WHEW.m                  -0.67:  WELL HEAD E/W
 UTMX.m              538762.90:  UTM X
 UTMY.m             4431871.34:  UTM Y
 DFWL.m                   0.00:  DISTANCE FWL
 DFSL.m                   0.00:  DISTANCE FSL
 SDEP.m                4127.00:  START DEPTH
 TDD .m                5084.50:  TOTAL DEPTH (DRILLER)
 VSDR.deg               140.47:  VERT SEC DIRECT
 GVFD.g                   1.00:  GRAVITY FIELD
 MFLD.nT              50362.00:  MAGNETIC FIELD
 MDIP.deg                59.48:  MAGNETIC DIP
 MDEC.deg                 6.47:  MAGNETIC DECL
 GRDC.deg                 0.31:  GRID CORRECTION
 AZTC.deg                 6.16:  AZM TOTAL CORR
 EPD .m                   0.00:  ELEVATION
 EGL .m                   0.00:  GROUND ELEVATION
 WDMS.m                 151.80:  WD ELEV
 APD .m                  43.60:  DEPTH ABOVE PD
 DEP .m                4092.57:  DEPTH
 AGAP.m                  43.60:  AIR GAP
 VSEW.m                  -0.67:  VERT SEC E/W
 VSNS.m                  -7.04:  VERT SEC N/S
 EKB .m                  43.60:  KB ELEVATION
 EDF .m                  43.60:  DF ELEVATION
 TDL .m                 957.50:  TOTAL DEPTH (LOGGER)
 VSC .                       0:  VS TO CLOSURE
 MAGU.                 1851413:  MAGUTM CHECKSUM
~Parameter Information Block
#MNEM.UNIT       Value        Description
#---------     -----------    ---------------------------
 AV  .mps                 1.50:  Ann Velocity 
 AVMX.mps                 2.00:  Max Ann Veloc 
 AZIF.deg               184.66:  Azm, Final 
 BHAT.        Rotary Steerable:  BHA Type 
 BREV.rev               300.00:  Rev Bit Total 
 BROT.°/30m              -0.50:  Build Rotating 
 BS  .in                  8.50:  Bit Size 
 BSZ .in                  8.50:  Bit Size 
 BTPL.psig              370.00:  Bit Press Loss 
 CABU.                      No:  Customer Abuse 
 CGEO.      Behruz Shahbaliyev:  Customer Geo 
 TCS .hr                140.08:  Time Ciculation Ended 
 CV  .mps                 3.00:  Crit Velocity 
 CVMX.mps                 3.20:  Max Crit Veloc 
 DD1 .            Musa Ahmadov:  Direct Drillr 1 
 DD2 .           Hamid Ahmadov:  Direct Drillr 2 
 DDSV.               Geo-Pilot:  DD Service 
 DEFF.%                  98.40:  % Det Eff 
 DLRX.°/30m               3.40:  Dogleg Rot Max 
 DLSO.°/30m               1.45:  Dogleg Oriented 
 DLSX.°/30m               3.40:  Dogleg Str Max 
 DRET.      18.40.00 29-Aug-21:  Drill End Time 
 DRST.      21.00.00 20-Aug-21:  Drill Start Tim 
 DTIM.hr                 69.47:  Time Drilling 
 EDEP.m                5084.50:  End Depth 
 ENG1.      Artemiy Matviyanov:  Engineer 1 
 ENG2.         Almaz Almadatov:  Engineer 2 
 ETIM.      18.40.00 29-Aug-21:  End Time 
 FLOI.gpm               500.00:  Flow In 
 FLON.gpm               400.00:  Flow In Min 
 FLOS.cptm                0.00:  Fluid Loss 
 FLOX.gpm               500.00:  Flow In Max 
 DFT .        Mineral Oil Base:  Mud Type 
 HFLO.                      No:  High Flow 
 HPRE.                      No:  High Pressure 
 HTEM.                      No:  High Temp 
 HYDO.m                   1.80:  Hydro Offset 
 IFIN.deg                25.62:  Inc, Final 
 IMAX.deg                48.69:  Inc Max 
 IMIN.deg                24.01:  Inc Min 
 IMND.m                4962.57:  Inc Min Depth 
 IMXD.m                4119.01:  Inc Max Depth 
 JARR.                      No:  Jarring 
 LETM.      18.40.00 29-Aug-21:  Log End Time 
 LOST.hr                     0:  Lost Rig Time 
 LSTM.      21.00.00 20-Aug-21:  Log Start Time 
 MDCL.ppm             41500.00:  Mud Chlorides 
 MDES.     Inversion Oil/Synthetic:  Mud Desc 
 DFD .sg                  1.56:  Mud Density 
 MDMN.sg                  1.56:  Dens Mud Min 
 MDMX.sg                  1.56:  Dens Mud Max 
 MOIL.                      70:  Run Mud Oil % 
 MOWR.                   70:30:  Run Mud OWR 
 MSND.                     0.2:  Run Mud Sand % 
 MSOL.                    23.3:  Run Mud Solids% 
 DFV .spqt               78.00:  Mud Viscosity 
 MWOD.in                  6.75:  MWD Tool OD 
 MWSI.                      No:  Serv Intrp, MWD 
 OTIM.hr                218.30:  Time Operating 
 PCON.           Look Like New:  Pad Condition 
 PMAX.psia            11015.30:  Press Op, Max 
 PV  .cP                 38.00:  Mud PV 
 RUN .                     300:  Run Number 
 ROPA.m/hr               15.00:  ROP Avg 
 ROPN.m/hr                9.00:  ROP Min 
 ROPX.m/hr               17.00:  ROP Max 
 RPMA.rpm               120.00:  RPM Surface Avg 
 RPMN.rpm                90.00:  RPM Surface Min 
 RPMX.rpm               140.00:  RPM Surface Max 
 RRUN.                     300:  Rig Run Number 
 RTIM.hr                 31.53:  Time Reaming 
 SAZI.deg               331.64:  Azm, Start 
 SDEP.m                4127.00:  Start Depth 
 SIDD.                      No:  Serv Intrp, DD 
 SINC.deg                48.43:  Inc, Start 
 SPPA.psig             5830.00:  SPP Avg 
 SPPN.psig             5600.00:  SPP Min 
 SPPX.psig             5900.00:  SPP Max 
 STIM.      21.00.00 20-Aug-21:  Start Time 
 SVCS.                 DD, MWD:  Services 
 SVER.                    9.20:  Sperry Version 
 TDAT.m                 957.50:  Tot Depth Attmp 
 TDDF.                      No:  Trip for DD 
 TDLG.m                 957.50:  Tot Depth Loggd 
 TFF .                      No:  Trip for Fail 
 TQAA.f-kp               15.00:  Torque Abs Avg 
 TQAN.f-kp               12.00:  Torque Abs Min 
 TQAX.f-kp               19.00:  Torque Abs Max 
 TRRT.°/30m              -3.40:  Turn Rotating 
 MRT .                  EWR-M5:  Maximum Recorded Temperature 
 TTMX.degC              100.00:  Max Tool Temp 
 VS01.                90639251:  Virtual Str1 SN 
 VS02.                90634715:  Virtual Str2 SN 
 VS03.                90652479:  Virtual Str3 SN 
 VS04.                90642262:  Virtual Str4 SN 
 WBMN.klb                 0.00:  WOB Min 
 WITN.           Murad Guliyev:  Customer Rep 
 WITN.          Yashar Gaziyev:  Customer Rep 2 
 WOBA.klb                 9.00:  WOB Avg 
 WOBX.klb                12.00:  WOB Max 
 YP  .lhf2               30.00:  Yield Point 
~Curve Information Block
#MNEM.UNIT                 API CODE     Curve Description
#---------               -----------    ---------------------------
 TIME.HHMMSS            00 000 000 000:  GT Time & Date
 GTDEPTH.m              00 000 000 000:  GT Depth
 GTPQH.psia             00 000 000 000:  GT HR Quartz Pressure
 GTTQ.degC              00 000 000 000:  GT Quartz Temperature
 GTTN.NONE              00 000 000 000:  GT Test Number
 GTET.sec               00 000 000 000:  GT Elapsed Test Time
 GTTVD.m                00 000 000 000:  GT True Vertical Depth
#Other Information
#
#WARRANTY: Halliburton will use its best efforts to furnish customers with 
#accurate information and interpretations that are part of, and incident to, the services 
#provided.  However, Halliburton cannot and does not warrant the accuracy 
#or correctness of such information and interpretations.  Under no circumstances should any 
#such information or interpretation be relied upon as the sole basis for any drilling, 
#completion, production, or financial decision or any procedure involving any risk to the 
#safety of any drilling venture, drilling rig or its crew or any other third party.  The 
#Customer has full responsibility for all drilling, completion and production operation.  
#Halliburton makes no representations or warranties, either expressed or 
#implied, including, but not limited to, the implied warranties of merchantability or fitness 
#for a particular purpose, with respect to the services rendered.  In no event will 
#Halliburton be liable for failure to obtain any particular results or for 
#any damages, including, but not limited to, indirect, special or consequential damages, 
#resulting from the use of any information or interpretation provided by Halliburton.
#
~A           TIME           GTDEPTH  GTPQH  GTTQ  GTTN   GTET   GTTVD  
# ...
   12:25:17.422.27-Aug-2021 4914.80 7805.15 85.33 12.00 226.08 3262.04
   12:25:17.622.27-Aug-2021 4914.80 7805.15 85.33 12.00 226.28 3262.04
   12:25:17.822.27-Aug-2021 4914.80 7805.43 85.33 12.00 226.48 3262.04
   12:25:18.022.27-Aug-2021 4914.80 7804.84 85.33 12.00 226.68 3262.04
   12:25:18.222.27-Aug-2021 4914.80 7805.48 85.33 12.00 226.88 3262.04
   12:25:18.423.27-Aug-2021 4914.80 7805.71 85.33 12.00 227.08 3262.04
   12:25:18.623.27-Aug-2021 4914.80 7805.71 85.33 12.00 227.28 3262.04
   12:25:18.823.27-Aug-2021 4914.80 7806.38 85.33 12.00 227.48 3262.04
   12:25:19.023.27-Aug-2021 4914.80 7806.33 85.33 12.00 227.68 3262.04
   12:25:19.223.27-Aug-2021 4914.80 7806.28 85.33 12.00 227.88 3262.04
   12:25:19.423.27-Aug-2021 4914.80 7805.91 85.33 12.00 228.08 3262.04
   12:25:19.623.27-Aug-2021 4914.80 7805.91 85.33 12.00 228.28 3262.04
   12:25:19.823.27-Aug-2021 4914.80 7806.78 85.33 12.00 228.48 3262.04
   12:25:20.023.27-Aug-2021 4914.80 7807.78 85.33 12.00 228.68 3262.04
   12:25:20.223.27-Aug-2021 4914.80 7806.56 85.33 12.00 228.88 3262.04
   12:25:20.423.27-Aug-2021 4914.80 7805.81 85.33 12.00 229.08 3262.04
   12:25:20.623.27-Aug-2021 4914.80 7805.81 85.33 12.00 229.28 3262.04
   12:25:20.823.27-Aug-2021 4914.80 7806.22 85.33 12.00 229.48 3262.04
   12:25:21.023.27-Aug-2021 4914.80 7807.42 85.33 12.00 229.68 3262.04
   12:25:21.224.27-Aug-2021 4914.80 7806.63 85.33 12.00 229.88 3262.04
   12:25:21.424.27-Aug-2021 4914.80 7805.20 85.33 12.00 230.08 3262.04
   12:25:21.624.27-Aug-2021 4914.80 7805.20 85.33 12.00 230.28 3262.04
   12:25:21.824.27-Aug-2021 4914.80 7805.50 85.33 12.00 230.48 3262.04
   12:25:22.024.27-Aug-2021 4914.80 7805.44 85.33 12.00 230.68 3262.04
   12:25:22.224.27-Aug-2021 4914.80 7805.92 85.33 12.00 230.88 3262.04
   12:25:22.424.27-Aug-2021 4914.80 7808.88 85.33 12.00 231.08 3262.04
   12:25:22.624.27-Aug-2021 4914.80 7808.88 85.33 12.00 231.28 3262.04
   12:25:22.824.27-Aug-2021 4914.80 7807.06 85.33 12.00 231.48 3262.04
   12:25:23.024.27-Aug-2021 4914.80 7805.71 85.33 12.00 231.68 3262.04
   12:25:23.224.27-Aug-2021 4914.80 7805.91 85.33 12.00 231.88 3262.04
   12:25:23.424.27-Aug-2021 4914.80 7805.61 85.33 12.00 232.08 3262.04
   12:25:23.624.27-Aug-2021 4914.80 7805.61 85.33 12.00 232.28 3262.04
   12:25:23.824.27-Aug-2021 4914.80 7810.34 85.33 12.00 232.48 3262.04
   12:25:24.025.27-Aug-2021 4914.80 7802.42 85.33 12.00 232.68 3262.04
   12:25:24.225.27-Aug-2021 4914.80 7806.84 85.33 12.00 232.88 3262.04
   12:25:24.425.27-Aug-2021 4914.80 7805.81 85.33 12.00 233.08 3262.04
   12:25:24.625.27-Aug-2021 4914.80 7805.81 85.33 12.00 233.28 3262.04
   12:25:24.825.27-Aug-2021 4914.80 7805.86 85.33 12.00 233.48 3262.04
   12:25:25.025.27-Aug-2021 4914.80 7805.62 85.33 12.00 233.68 3262.04
   12:25:25.225.27-Aug-2021 4914.80 7805.55 85.33 12.00 233.88 3262.04
   12:25:25.425.27-Aug-2021 4914.80 7805.62 85.33 12.00 234.08 3262.04
   12:25:25.625.27-Aug-2021 4914.80 7805.62 85.33 12.00 234.28 3262.04
   12:25:25.825.27-Aug-2021 4914.80 7806.06 85.33 12.00 234.48 3262.04
   12:25:26.025.27-Aug-2021 4914.80 7806.22 85.33 12.00 234.68 3262.04
   12:25:26.225.27-Aug-2021 4914.80 7806.04 85.33 12.00 234.88 3262.04
   12:25:26.425.27-Aug-2021 4914.80 7806.02 85.33 12.00 235.08 3262.04
   12:25:26.625.27-Aug-2021 4914.80 7806.02 85.33 12.00 235.28 3262.04
   12:25:26.826.27-Aug-2021 4914.80 7805.72 85.33 12.00 235.48 3262.04
   12:25:27.026.27-Aug-2021 4914.80 7810.20 85.33 12.00 235.68 3262.04
   12:25:27.226.27-Aug-2021 4914.80 7803.88 85.33 12.00 235.88 3262.04
   12:25:27.426.27-Aug-2021 4914.80 7807.21 85.33 12.00 236.08 3262.04
   12:25:27.626.27-Aug-2021 4914.80 7807.21 85.33 12.00 236.28 3262.04
   12:25:27.826.27-Aug-2021 4914.80 7805.20 85.33 12.00 236.48 3262.04
   12:25:28.026.27-Aug-2021 4914.80 7805.13 85.33 12.00 236.68 3262.04
   12:25:28.226.27-Aug-2021 4914.80 7805.12 85.33 12.00 236.88 3262.04
   12:25:28.426.27-Aug-2021 4914.80 7805.47 85.33 12.00 237.08 3262.04
   12:25:28.626.27-Aug-2021 4914.80 7805.47 85.33 12.00 237.28 3262.04
   12:25:28.826.27-Aug-2021 4914.80 7805.38 85.33 12.00 237.48 3262.04
   12:25:29.026.27-Aug-2021 4914.80 7806.05 85.33 12.00 237.68 3262.04
   12:25:29.226.27-Aug-2021 4914.80 7806.19 85.33 12.00 237.88 3262.04
   12:25:29.426.27-Aug-2021 4914.80 7806.44 85.33 12.00 238.08 3262.04
   12:25:29.627.27-Aug-2021 4914.80 7806.44 85.33 12.00 238.28 3262.04
   12:25:29.827.27-Aug-2021 4914.80 7806.13 85.33 12.00 238.48 3262.04
   12:25:30.027.27-Aug-2021 4914.80 7806.06 85.33 12.00 238.68 3262.04
   12:25:30.227.27-Aug-2021 4914.80 7805.72 85.33 12.00 238.88 3262.04
   12:25:30.427.27-Aug-2021 4914.80 7810.27 85.33 12.00 239.08 3262.04
   12:25:30.627.27-Aug-2021 4914.80 7810.27 85.33 12.00 239.28 3262.04
   12:25:30.827.27-Aug-2021 4914.80 7807.00 85.33 12.00 239.48 3262.04
   12:25:31.027.27-Aug-2021 4914.80 7805.38 85.33 12.00 239.69 3262.04
   12:25:31.227.27-Aug-2021 4914.80 7805.00 85.33 12.00 239.89 3262.04
   12:25:31.427.27-Aug-2021 4914.80 7809.86 85.33 12.00 240.09 3262.04
   12:25:31.627.27-Aug-2021 4914.80 7809.86 85.33 12.00 240.29 3262.04
   12:25:31.827.27-Aug-2021 4914.80 7806.97 85.33 12.00 240.49 3262.04
   12:25:32.027.27-Aug-2021 4914.80 7805.09 85.33 12.00 240.69 3262.04
   12:25:32.227.27-Aug-2021 4914.80 7805.04 85.33 12.00 240.89 3262.04
   12:25:32.428.27-Aug-2021 4914.80 7805.68 85.33 12.00 241.09 3262.04
   12:25:32.628.27-Aug-2021 4914.80 7805.68 85.33 12.00 241.29 3262.04
   12:25:32.828.27-Aug-2021 4914.80 7806.76 85.33 12.00 241.49 3262.04
   12:25:33.028.27-Aug-2021 4914.80 7807.56 85.33 12.00 241.69 3262.04
   12:25:33.228.27-Aug-2021 4914.80 7806.64 85.33 12.00 241.89 3262.04
   12:25:33.428.27-Aug-2021 4914.80 7806.17 85.33 12.00 242.09 3262.04
   12:25:33.628.27-Aug-2021 4914.80 7806.17 85.33 12.00 242.29 3262.04
   12:25:33.828.27-Aug-2021 4914.80 7805.84 85.33 12.00 242.49 3262.04
   12:25:34.028.27-Aug-2021 4914.80 7805.46 85.33 12.00 242.69 3262.04
   12:25:34.228.27-Aug-2021 4914.80 7805.51 85.33 12.00 242.89 3262.04
   12:25:34.428.27-Aug-2021 4914.80 7808.07 85.33 12.00 243.09 3262.04
   12:25:34.628.27-Aug-2021 4914.80 7808.07 85.33 12.00 243.29 3262.04
   12:25:34.828.27-Aug-2021 4914.80 7806.72 85.33 12.00 243.49 3262.04
   12:25:35.028.27-Aug-2021 4914.80 7805.91 85.33 12.00 243.69 3262.04
   12:25:35.229.27-Aug-2021 4914.80 7805.85 85.33 12.00 243.89 3262.04
   12:25:35.429.27-Aug-2021 4914.80 7805.73 85.33 12.00 244.09 3262.04
   12:25:35.629.27-Aug-2021 4914.80 7805.73 85.33 12.00 244.29 3262.04
   12:25:35.829.27-Aug-2021 4914.80 7805.19 85.33 12.00 244.49 3262.04
   12:25:36.029.27-Aug-2021 4914.80 7805.59 85.33 12.00 244.69 3262.04
   12:25:36.229.27-Aug-2021 4914.80 7805.55 85.33 12.00 244.89 3262.04
   12:25:36.429.27-Aug-2021 4914.80 7806.03 85.33 12.00 245.09 3262.04
   12:25:36.629.27-Aug-2021 4914.80 7806.03 85.33 12.00 245.29 3262.04
   12:25:36.829.27-Aug-2021 4914.80 7806.09 85.33 12.00 245.49 3262.04
   12:25:37.029.27-Aug-2021 4914.80 7805.82 85.33 12.00 245.69 3262.04
   12:25:37.229.27-Aug-2021 4914.80 7805.80 85.33 12.00 245.89 3262.04
   12:25:37.429.27-Aug-2021 4914.80 7805.68 85.33 12.00 246.09 3262.04
   12:25:37.629.27-Aug-2021 4914.80 7805.68 85.33 12.00 246.29 3262.04
   12:25:37.829.27-Aug-2021 4914.80 7803.17 85.33 12.00 246.49 3262.04
   12:25:38.030.27-Aug-2021 4914.80 7806.77 85.33 12.00 246.69 3262.04
   12:25:38.230.27-Aug-2021 4914.80 7805.72 85.33 12.00 246.89 3262.04
   12:25:38.430.27-Aug-2021 4914.80 7805.15 85.33 12.00 247.09 3262.04
   12:25:38.630.27-Aug-2021 4914.80 7805.15 85.33 12.00 247.29 3262.04
   12:25:38.830.27-Aug-2021 4914.80 7805.10 85.33 12.00 247.49 3262.04
   12:25:39.030.27-Aug-2021 4914.80 7805.38 85.33 12.00 247.69 3262.04
   12:25:39.230.27-Aug-2021 4914.80 7805.40 85.33 12.00 247.89 3262.04
   12:25:39.430.27-Aug-2021 4914.80 7805.44 85.33 12.00 248.09 3262.04
   12:25:39.630.27-Aug-2021 4914.80 7805.44 85.33 12.00 248.29 3262.04
   12:25:39.830.27-Aug-2021 4914.80 7806.23 85.33 12.00 248.49 3262.04
