~Version Information
 VERS.                  2.0:   CWLS log ASCII Standard -VERSION 2.0
 WRAP.                   NO:   One line per depth step
~Well Information Block
#MNEM.UNIT     VALUE/NAME     DESCRIPTION
#---------     -----------    ---------------------------
 STRT.S             22:57:07 27-Aug-21: START TIME 22:57:07 27-Aug-21
 STOP.S             23:04:14 27-Aug-21: STOP TIME  23:04:14 27-Aug-21
 STEP.S                   0.00: STEP TIME
 NULL.                 -999.25: NULL VALUE
 DFWT.                        :  DIST FWL TEXT
 DFST.                        :  DIST FSL TEXT
 DMF .             Drill Floor:  DRILL MEAS FROM
 STIM.      20.00.00 17-Aug-21:  START TIME
 DATE.      19.00.00 29-Aug-21:  END TIME
 SPUD.               15-Aug-21:  SPUD DATE
 NREF.                    Grid:  NORTH REFERENCE
 HPTY.       Minimum Curvature:  HOLE POS TYPE
 DMOD.             Drill Model:  DRILL MOD DESC
 SVYD.                  Survey:  SURVEY DESC
 ILTD.               Lithology:  INTERP LTH DESC
 FTOP.          Formation Tops:  FORM TOPS DESC
 RIG .              East Azeri:  RIG NAME
 PDAT.          Mean Sea Level:  PERMANENT DATUM
 FLD .                     ACG:  FIELD NAME
 SON .        AZ-XX-0907180857:  JOB NUMBER
 CTRY.              Azerbaijan:  COUNTRY NAME
 WELL.                    D23x:  WELL NAME
 SRVC.     Turan Drilling and Engineering:  CONTRACTOR
 COMP.     BP Exploration (Caspian Sea) Ltd.:  COMPANY
 UWI .            /AZE00000214:  UNIQUE WELL IDENTIFIER
 API .            /AZE00000214:  API NUMBER
 MDS .        Operator Entered:  MAG DATA SOURCE
 BASE.              Azerbaijan:  LOGGING EQUIPMENT BASE LOCATION
 REGN.                   EESSA:  REGION
 PROV.                    Baku:  PROVINCE
 STAT.                    Baku:  STATE NAME
 MWDS.                    Baku:  MWD SHOP
 DOE .                     N/A:  DOE NUMBER
 DCON.         Sperry Drilling:  DIRECTNL CONTR
 UNIT.                     N/A:  LOGGING EQUIPMENT ID
 WTYP.                Deviated:  WELL TYPE
 CNTY.                        :  COUNTY
 LOC .                        :  LOCATION
 LMF .             Drill Floor:  LOG MEASURED FROM
 TVDS.m                  43.60:  TVDSS CORRECTN
 LATI.deg                40.02:  LATITUDE
 LONG.deg                51.45:  LONGITUDE
 WHNS.m                  -7.04:  WELL HEAD N/S
 WHEW.m                  -0.67:  WELL HEAD E/W
 UTMX.m              538762.90:  UTM X
 UTMY.m             4431871.34:  UTM Y
 DFWL.m                   0.00:  DISTANCE FWL
 DFSL.m                   0.00:  DISTANCE FSL
 SDEP.m                4127.00:  START DEPTH
 TDD .m                5084.50:  TOTAL DEPTH (DRILLER)
 VSDR.deg               140.47:  VERT SEC DIRECT
 GVFD.g                   1.00:  GRAVITY FIELD
 MFLD.nT              50362.00:  MAGNETIC FIELD
 MDIP.deg                59.48:  MAGNETIC DIP
 MDEC.deg                 6.47:  MAGNETIC DECL
 GRDC.deg                 0.31:  GRID CORRECTION
 AZTC.deg                 6.16:  AZM TOTAL CORR
 EPD .m                   0.00:  ELEVATION
 EGL .m                   0.00:  GROUND ELEVATION
 WDMS.m                 151.80:  WD ELEV
 APD .m                  43.60:  DEPTH ABOVE PD
 DEP .m                4092.57:  DEPTH
 AGAP.m                  43.60:  AIR GAP
 VSEW.m                  -0.67:  VERT SEC E/W
 VSNS.m                  -7.04:  VERT SEC N/S
 EKB .m                  43.60:  KB ELEVATION
 EDF .m                  43.60:  DF ELEVATION
 TDL .m                 957.50:  TOTAL DEPTH (LOGGER)
 VSC .                       0:  VS TO CLOSURE
 MAGU.                 1851413:  MAGUTM CHECKSUM
~Parameter Information Block
#MNEM.UNIT       Value        Description
#---------     -----------    ---------------------------
 AV  .mps                 1.50:  Ann Velocity 
 AVMX.mps                 2.00:  Max Ann Veloc 
 AZIF.deg               184.66:  Azm, Final 
 BHAT.        Rotary Steerable:  BHA Type 
 BREV.rev               300.00:  Rev Bit Total 
 BROT.°/30m              -0.50:  Build Rotating 
 BS  .in                  8.50:  Bit Size 
 BSZ .in                  8.50:  Bit Size 
 BTPL.psig              370.00:  Bit Press Loss 
 CABU.                      No:  Customer Abuse 
 CGEO.      Behruz Shahbaliyev:  Customer Geo 
 TCS .hr                140.08:  Time Ciculation Ended 
 CV  .mps                 3.00:  Crit Velocity 
 CVMX.mps                 3.20:  Max Crit Veloc 
 DD1 .            Musa Ahmadov:  Direct Drillr 1 
 DD2 .           Hamid Ahmadov:  Direct Drillr 2 
 DDSV.               Geo-Pilot:  DD Service 
 DEFF.%                  98.40:  % Det Eff 
 DLRX.°/30m               3.40:  Dogleg Rot Max 
 DLSO.°/30m               1.45:  Dogleg Oriented 
 DLSX.°/30m               3.40:  Dogleg Str Max 
 DRET.      18.40.00 29-Aug-21:  Drill End Time 
 DRST.      21.00.00 20-Aug-21:  Drill Start Tim 
 DTIM.hr                 69.47:  Time Drilling 
 EDEP.m                5084.50:  End Depth 
 ENG1.      Artemiy Matviyanov:  Engineer 1 
 ENG2.         Almaz Almadatov:  Engineer 2 
 ETIM.      18.40.00 29-Aug-21:  End Time 
 FLOI.gpm               500.00:  Flow In 
 FLON.gpm               400.00:  Flow In Min 
 FLOS.cptm                0.00:  Fluid Loss 
 FLOX.gpm               500.00:  Flow In Max 
 DFT .        Mineral Oil Base:  Mud Type 
 HFLO.                      No:  High Flow 
 HPRE.                      No:  High Pressure 
 HTEM.                      No:  High Temp 
 HYDO.m                   1.80:  Hydro Offset 
 IFIN.deg                25.62:  Inc, Final 
 IMAX.deg                48.69:  Inc Max 
 IMIN.deg                24.01:  Inc Min 
 IMND.m                4962.57:  Inc Min Depth 
 IMXD.m                4119.01:  Inc Max Depth 
 JARR.                      No:  Jarring 
 LETM.      18.40.00 29-Aug-21:  Log End Time 
 LOST.hr                     0:  Lost Rig Time 
 LSTM.      21.00.00 20-Aug-21:  Log Start Time 
 MDCL.ppm             41500.00:  Mud Chlorides 
 MDES.     Inversion Oil/Synthetic:  Mud Desc 
 DFD .sg                  1.56:  Mud Density 
 MDMN.sg                  1.56:  Dens Mud Min 
 MDMX.sg                  1.56:  Dens Mud Max 
 MOIL.                      70:  Run Mud Oil % 
 MOWR.                   70:30:  Run Mud OWR 
 MSND.                     0.2:  Run Mud Sand % 
 MSOL.                    23.3:  Run Mud Solids% 
 DFV .spqt               78.00:  Mud Viscosity 
 MWOD.in                  6.75:  MWD Tool OD 
 MWSI.                      No:  Serv Intrp, MWD 
 OTIM.hr                218.30:  Time Operating 
 PCON.           Look Like New:  Pad Condition 
 PMAX.psia            11015.30:  Press Op, Max 
 PV  .cP                 38.00:  Mud PV 
 RUN .                     300:  Run Number 
 ROPA.m/hr               15.00:  ROP Avg 
 ROPN.m/hr                9.00:  ROP Min 
 ROPX.m/hr               17.00:  ROP Max 
 RPMA.rpm               120.00:  RPM Surface Avg 
 RPMN.rpm                90.00:  RPM Surface Min 
 RPMX.rpm               140.00:  RPM Surface Max 
 RRUN.                     300:  Rig Run Number 
 RTIM.hr                 31.53:  Time Reaming 
 SAZI.deg               331.64:  Azm, Start 
 SDEP.m                4127.00:  Start Depth 
 SIDD.                      No:  Serv Intrp, DD 
 SINC.deg                48.43:  Inc, Start 
 SPPA.psig             5830.00:  SPP Avg 
 SPPN.psig             5600.00:  SPP Min 
 SPPX.psig             5900.00:  SPP Max 
 STIM.      21.00.00 20-Aug-21:  Start Time 
 SVCS.                 DD, MWD:  Services 
 SVER.                    9.20:  Sperry Version 
 TDAT.m                 957.50:  Tot Depth Attmp 
 TDDF.                      No:  Trip for DD 
 TDLG.m                 957.50:  Tot Depth Loggd 
 TFF .                      No:  Trip for Fail 
 TQAA.f-kp               15.00:  Torque Abs Avg 
 TQAN.f-kp               12.00:  Torque Abs Min 
 TQAX.f-kp               19.00:  Torque Abs Max 
 TRRT.°/30m              -3.40:  Turn Rotating 
 MRT .                  EWR-M5:  Maximum Recorded Temperature 
 TTMX.degC              100.00:  Max Tool Temp 
 VS01.                90639251:  Virtual Str1 SN 
 VS02.                90634715:  Virtual Str2 SN 
 VS03.                90652479:  Virtual Str3 SN 
 VS04.                90642262:  Virtual Str4 SN 
 WBMN.klb                 0.00:  WOB Min 
 WITN.           Murad Guliyev:  Customer Rep 
 WITN.          Yashar Gaziyev:  Customer Rep 2 
 WOBA.klb                 9.00:  WOB Avg 
 WOBX.klb                12.00:  WOB Max 
 YP  .lhf2               30.00:  Yield Point 
~Curve Information Block
#MNEM.UNIT                 API CODE     Curve Description
#---------               -----------    ---------------------------
 TIME.HHMMSS            00 000 000 000:  GT Time & Date
 GTDEPTH.m              00 000 000 000:  GT Depth
 GTPQH.psia             00 000 000 000:  GT HR Quartz Pressure
 GTTQ.degC              00 000 000 000:  GT Quartz Temperature
 GTTN.NONE              00 000 000 000:  GT Test Number
 GTET.sec               00 000 000 000:  GT Elapsed Test Time
 GTTVD.m                00 000 000 000:  GT True Vertical Depth
#Other Information
#
#WARRANTY: Halliburton will use its best efforts to furnish customers with 
#accurate information and interpretations that are part of, and incident to, the services 
#provided.  However, Halliburton cannot and does not warrant the accuracy 
#or correctness of such information and interpretations.  Under no circumstances should any 
#such information or interpretation be relied upon as the sole basis for any drilling, 
#completion, production, or financial decision or any procedure involving any risk to the 
#safety of any drilling venture, drilling rig or its crew or any other third party.  The 
#Customer has full responsibility for all drilling, completion and production operation.  
#Halliburton makes no representations or warranties, either expressed or 
#implied, including, but not limited to, the implied warranties of merchantability or fitness 
#for a particular purpose, with respect to the services rendered.  In no event will 
#Halliburton be liable for failure to obtain any particular results or for 
#any damages, including, but not limited to, indirect, special or consequential damages, 
#resulting from the use of any information or interpretation provided by Halliburton.
#
~A           TIME           GTDEPTH  GTPQH  GTTQ  GTTN   GTET   GTTVD  
# ...
   23:03:32.062.27-Aug-2021 4636.60 7208.66 82.28 25.00 384.24 3010.11
   23:03:32.262.27-Aug-2021 4636.60 7208.21 82.28 25.00 384.44 3010.11
   23:03:32.462.27-Aug-2021 4636.60 7207.94 82.29 25.00 384.64 3010.11
   23:03:32.662.27-Aug-2021 4636.60 7207.98 82.29 25.00 384.84 3010.11
   23:03:32.862.27-Aug-2021 4636.60 7208.01 82.29 25.00 385.04 3010.11
   23:03:33.062.27-Aug-2021 4636.60 7208.01 82.29 25.00 385.24 3010.11
   23:03:33.262.27-Aug-2021 4636.60 7207.82 82.29 25.00 385.44 3010.11
   23:03:33.462.27-Aug-2021 4636.60 7207.74 82.29 25.00 385.64 3010.11
   23:03:33.662.27-Aug-2021 4636.60 7207.68 82.29 25.00 385.84 3010.11
   23:03:33.862.27-Aug-2021 4636.60 7207.60 82.29 25.00 386.04 3010.11
   23:03:34.062.27-Aug-2021 4636.60 7207.60 82.29 25.00 386.24 3010.11
   23:03:34.262.27-Aug-2021 4636.60 7212.77 82.29 25.00 386.44 3010.11
   23:03:34.462.27-Aug-2021 4636.60 7205.72 82.29 25.00 386.64 3010.11
   23:03:34.662.27-Aug-2021 4636.60 7207.81 82.29 25.00 386.84 3010.11
   23:03:34.862.27-Aug-2021 4636.60 7207.66 82.29 25.00 387.04 3010.11
   23:03:35.062.27-Aug-2021 4636.60 7207.66 82.29 25.00 387.24 3010.11
   23:03:35.262.27-Aug-2021 4636.60 7211.85 82.28 25.00 387.44 3010.11
   23:03:35.462.27-Aug-2021 4636.60 7207.35 82.28 25.00 387.64 3010.11
   23:03:35.662.27-Aug-2021 4636.60 7207.94 82.28 25.00 387.84 3010.11
   23:03:35.862.27-Aug-2021 4636.60 7208.04 82.28 25.00 388.04 3010.11
   23:03:36.062.27-Aug-2021 4636.60 7208.04 82.28 25.00 388.24 3010.11
   23:03:36.262.27-Aug-2021 4636.60 7208.53 82.28 25.00 388.44 3010.11
   23:03:36.462.27-Aug-2021 4636.60 7208.45 82.28 25.00 388.64 3010.11
   23:03:36.662.27-Aug-2021 4636.60 7208.06 82.28 25.00 388.84 3010.11
   23:03:36.863.27-Aug-2021 4636.60 7207.77 82.28 25.00 389.04 3010.11
   23:03:37.063.27-Aug-2021 4636.60 7207.77 82.28 25.00 389.24 3010.11
   23:03:37.263.27-Aug-2021 4636.60 7210.05 82.28 25.00 389.44 3010.11
   23:03:37.463.27-Aug-2021 4636.60 7207.96 82.28 25.00 389.64 3010.11
   23:03:37.663.27-Aug-2021 4636.60 7207.69 82.28 25.00 389.84 3010.11
   23:03:37.863.27-Aug-2021 4636.60 7208.51 82.28 25.00 390.04 3010.11
   23:03:38.063.27-Aug-2021 4636.60 7208.51 82.28 25.00 390.24 3010.11
   23:03:38.263.27-Aug-2021 4636.60 7208.30 82.28 25.00 390.44 3010.11
   23:03:38.463.27-Aug-2021 4636.60 7208.31 82.28 25.00 390.64 3010.11
   23:03:38.663.27-Aug-2021 4636.60 7207.85 82.28 25.00 390.84 3010.11
   23:03:38.863.27-Aug-2021 4636.60 7208.01 82.28 25.00 391.04 3010.11
   23:03:39.063.27-Aug-2021 4636.60 7208.01 82.28 25.00 391.24 3010.11
   23:03:39.263.27-Aug-2021 4636.60 7207.92 82.28 25.00 391.44 3010.11
   23:03:39.463.27-Aug-2021 4636.60 7207.86 82.28 25.00 391.64 3010.11
   23:03:39.663.27-Aug-2021 4636.60 7207.75 82.28 25.00 391.84 3010.11
   23:03:39.863.27-Aug-2021 4636.60 7207.86 82.28 25.00 392.04 3010.11
   23:03:40.063.27-Aug-2021 4636.60 7207.86 82.28 25.00 392.24 3010.11
   23:03:40.263.27-Aug-2021 4636.60 7209.33 82.28 25.00 392.44 3010.11
   23:03:40.463.27-Aug-2021 4636.60 7209.78 82.28 25.00 392.64 3010.11
   23:03:40.663.27-Aug-2021 4636.60 7208.22 82.28 25.00 392.84 3010.11
   23:03:40.863.27-Aug-2021 4636.60 7208.07 82.28 25.00 393.04 3010.11
   23:03:41.063.27-Aug-2021 4636.60 7208.07 82.28 25.00 393.24 3010.11
   23:03:41.263.27-Aug-2021 4636.60 7208.11 82.28 25.00 393.44 3010.11
   23:03:41.463.27-Aug-2021 4636.60 7208.69 82.28 25.00 393.64 3010.11
   23:03:41.663.27-Aug-2021 4636.60 7208.71 82.28 25.00 393.84 3010.11
   23:03:41.863.27-Aug-2021 4636.60 7208.24 82.28 25.00 394.04 3010.11
   23:03:42.063.27-Aug-2021 4636.60 7208.24 82.28 25.00 394.24 3010.11
   23:03:42.263.27-Aug-2021 4636.60 7208.53 82.28 25.00 394.44 3010.11
   23:03:42.463.27-Aug-2021 4636.60 7208.42 82.28 25.00 394.64 3010.11
   23:03:42.663.27-Aug-2021 4636.60 7208.33 82.28 25.00 394.84 3010.11
   23:03:42.863.27-Aug-2021 4636.60 7208.13 82.28 25.00 395.04 3010.11
   23:03:43.063.27-Aug-2021 4636.60 7208.13 82.28 25.00 395.24 3010.11
   23:03:43.263.27-Aug-2021 4636.60 7208.04 82.28 25.00 395.44 3010.11
   23:03:43.463.27-Aug-2021 4636.60 7208.00 82.28 25.00 395.64 3010.11
   23:03:43.663.27-Aug-2021 4636.60 7209.32 82.28 25.00 395.84 3010.11
   23:03:43.863.27-Aug-2021 4636.60 7209.99 82.28 25.00 396.04 3010.11
   23:03:44.063.27-Aug-2021 4636.60 7209.99 82.28 25.00 396.24 3010.11
   23:03:44.263.27-Aug-2021 4636.60 7208.06 82.28 25.00 396.44 3010.11
   23:03:44.463.27-Aug-2021 4636.60 7208.63 82.28 25.00 396.64 3010.11
   23:03:44.663.27-Aug-2021 4636.60 7212.97 82.28 25.00 396.84 3010.11
   23:03:44.863.27-Aug-2021 4636.60 7206.75 82.28 25.00 397.04 3010.11
   23:03:45.063.27-Aug-2021 4636.60 7206.75 82.28 25.00 397.24 3010.11
   23:03:45.263.27-Aug-2021 4636.60 7207.68 82.28 25.00 397.44 3010.11
   23:03:45.463.27-Aug-2021 4636.60 7210.10 82.28 25.00 397.64 3010.11
   23:03:45.663.27-Aug-2021 4636.60 7210.55 82.28 25.00 397.84 3010.11
   23:03:45.863.27-Aug-2021 4636.60 7208.48 82.27 25.00 398.04 3010.11
   23:03:46.063.27-Aug-2021 4636.60 7208.48 82.27 25.00 398.24 3010.11
   23:03:46.263.27-Aug-2021 4636.60 7208.42 82.27 25.00 398.44 3010.11
   23:03:46.463.27-Aug-2021 4636.60 7207.85 82.27 25.00 398.64 3010.11
   23:03:46.664.27-Aug-2021 4636.60 7208.68 82.27 25.00 398.84 3010.11
   23:03:46.864.27-Aug-2021 4636.60 7212.02 82.27 25.00 399.04 3010.11
   23:03:47.064.27-Aug-2021 4636.60 7212.02 82.27 25.00 399.24 3010.11
   23:03:47.264.27-Aug-2021 4636.60 7208.03 82.27 25.00 399.44 3010.11
   23:03:47.464.27-Aug-2021 4636.60 7208.51 82.27 25.00 399.64 3010.11
   23:03:47.664.27-Aug-2021 4636.60 7208.06 82.27 25.00 399.84 3010.11
   23:03:47.864.27-Aug-2021 4636.60 7208.99 82.27 25.00 400.04 3010.11
   23:03:48.064.27-Aug-2021 4636.60 7208.99 82.27 25.00 400.24 3010.11
   23:03:48.264.27-Aug-2021 4636.60 7208.20 82.27 25.00 400.44 3010.11
   23:03:48.464.27-Aug-2021 4636.60 7208.44 82.27 25.00 400.64 3010.11
   23:03:48.664.27-Aug-2021 4636.60 7208.44 82.27 25.00 400.84 3010.11
   23:03:48.864.27-Aug-2021 4636.60 7208.44 82.27 25.00 401.04 3010.11
   23:03:49.064.27-Aug-2021 4636.60 7208.44 82.27 25.00 401.24 3010.11
   23:03:49.264.27-Aug-2021 4636.60 7208.27 82.27 25.00 401.44 3010.11
   23:03:49.464.27-Aug-2021 4636.60 7208.20 82.27 25.00 401.64 3010.11
   23:03:49.664.27-Aug-2021 4636.60 7208.13 82.27 25.00 401.84 3010.11
   23:03:49.864.27-Aug-2021 4636.60 7208.57 82.27 25.00 402.04 3010.11
   23:03:50.064.27-Aug-2021 4636.60 7208.57 82.27 25.00 402.24 3010.11
   23:03:50.264.27-Aug-2021 4636.60 7207.85 82.27 25.00 402.44 3010.11
   23:03:50.464.27-Aug-2021 4636.60 7208.12 82.27 25.00 402.64 3010.11
   23:03:50.664.27-Aug-2021 4636.60 7208.26 82.27 25.00 402.84 3010.11
   23:03:50.864.27-Aug-2021 4636.60 7207.71 82.27 25.00 403.04 3010.11
   23:03:51.064.27-Aug-2021 4636.60 7207.71 82.27 25.00 403.24 3010.11
   23:03:51.264.27-Aug-2021 4636.60 7208.36 82.27 25.00 403.44 3010.11
   23:03:51.464.27-Aug-2021 4636.60 7208.12 82.27 25.00 403.64 3010.11
   23:03:51.664.27-Aug-2021 4636.60 7208.24 82.27 25.00 403.84 3010.11
   23:03:51.864.27-Aug-2021 4636.60 7208.42 82.27 25.00 404.04 3010.11
   23:03:52.064.27-Aug-2021 4636.60 7208.42 82.27 25.00 404.24 3010.11
   23:03:52.264.27-Aug-2021 4636.60 7208.30 82.27 25.00 404.44 3010.11
   23:03:52.464.27-Aug-2021 4636.60 7208.14 82.27 25.00 404.64 3010.11
   23:03:52.664.27-Aug-2021 4636.60 7208.25 82.27 25.00 404.84 3010.11
   23:03:52.864.27-Aug-2021 4636.60 7208.17 82.27 25.00 405.04 3010.11
   23:03:53.064.27-Aug-2021 4636.60 7208.17 82.27 25.00 405.24 3010.11
   23:03:53.264.27-Aug-2021 4636.60 7208.14 82.27 25.00 405.44 3010.11
   23:03:53.464.27-Aug-2021 4636.60 7211.53 82.27 25.00 405.64 3010.11
   23:03:53.664.27-Aug-2021 4636.60 7207.69 82.27 25.00 405.84 3010.11
   23:03:53.864.27-Aug-2021 4636.60 7208.06 82.27 25.00 406.04 3010.11
   23:03:54.064.27-Aug-2021 4636.60 7208.06 82.27 25.00 406.24 3010.11
   23:03:54.264.27-Aug-2021 4636.60 7207.82 82.27 25.00 406.44 3010.11
   23:03:54.464.27-Aug-2021 4636.60 7212.13 82.27 25.00 406.64 3010.11
