~Version Information
 VERS.                  2.0:   CWLS log ASCII Standard -VERSION 2.0
 WRAP.                   NO:   One line per depth step
~Well Information Block
#MNEM.UNIT     VALUE/NAME     DESCRIPTION
#---------     -----------    ---------------------------
 STRT.S             05:44:14 27-Aug-21: START TIME 05:44:14 27-Aug-21
 STOP.S             05:51:24 27-Aug-21: STOP TIME  05:51:24 27-Aug-21
 STEP.S                   0.00: STEP TIME
 NULL.                 -999.25: NULL VALUE
 DFWT.                        :  DIST FWL TEXT
 DFST.                        :  DIST FSL TEXT
 DMF .             Drill Floor:  DRILL MEAS FROM
 STIM.      20.00.00 17-Aug-21:  START TIME
 DATE.      19.00.00 29-Aug-21:  END TIME
 SPUD.               15-Aug-21:  SPUD DATE
 NREF.                    Grid:  NORTH REFERENCE
 HPTY.       Minimum Curvature:  HOLE POS TYPE
 DMOD.             Drill Model:  DRILL MOD DESC
 SVYD.                  Survey:  SURVEY DESC
 ILTD.               Lithology:  INTERP LTH DESC
 FTOP.          Formation Tops:  FORM TOPS DESC
 RIG .              East Azeri:  RIG NAME
 PDAT.          Mean Sea Level:  PERMANENT DATUM
 FLD .                     ACG:  FIELD NAME
 SON .        AZ-XX-0907180857:  JOB NUMBER
 CTRY.              Azerbaijan:  COUNTRY NAME
 WELL.                    D23x:  WELL NAME
 SRVC.     Turan Drilling and Engineering:  CONTRACTOR
 COMP.     BP Exploration (Caspian Sea) Ltd.:  COMPANY
 UWI .            /AZE00000214:  UNIQUE WELL IDENTIFIER
 API .            /AZE00000214:  API NUMBER
 MDS .        Operator Entered:  MAG DATA SOURCE
 BASE.              Azerbaijan:  LOGGING EQUIPMENT BASE LOCATION
 REGN.                   EESSA:  REGION
 PROV.                    Baku:  PROVINCE
 STAT.                    Baku:  STATE NAME
 MWDS.                    Baku:  MWD SHOP
 DOE .                     N/A:  DOE NUMBER
 DCON.         Sperry Drilling:  DIRECTNL CONTR
 UNIT.                     N/A:  LOGGING EQUIPMENT ID
 WTYP.                Deviated:  WELL TYPE
 CNTY.                        :  COUNTY
 LOC .                        :  LOCATION
 LMF .             Drill Floor:  LOG MEASURED FROM
 TVDS.m                  43.60:  TVDSS CORRECTN
 LATI.deg                40.02:  LATITUDE
 LONG.deg                51.45:  LONGITUDE
 WHNS.m                  -7.04:  WELL HEAD N/S
 WHEW.m                  -0.67:  WELL HEAD E/W
 UTMX.m              538762.90:  UTM X
 UTMY.m             4431871.34:  UTM Y
 DFWL.m                   0.00:  DISTANCE FWL
 DFSL.m                   0.00:  DISTANCE FSL
 SDEP.m                4127.00:  START DEPTH
 TDD .m                5084.50:  TOTAL DEPTH (DRILLER)
 VSDR.deg               140.47:  VERT SEC DIRECT
 GVFD.g                   1.00:  GRAVITY FIELD
 MFLD.nT              50362.00:  MAGNETIC FIELD
 MDIP.deg                59.48:  MAGNETIC DIP
 MDEC.deg                 6.47:  MAGNETIC DECL
 GRDC.deg                 0.31:  GRID CORRECTION
 AZTC.deg                 6.16:  AZM TOTAL CORR
 EPD .m                   0.00:  ELEVATION
 EGL .m                   0.00:  GROUND ELEVATION
 WDMS.m                 151.80:  WD ELEV
 APD .m                  43.60:  DEPTH ABOVE PD
 DEP .m                4092.57:  DEPTH
 AGAP.m                  43.60:  AIR GAP
 VSEW.m                  -0.67:  VERT SEC E/W
 VSNS.m                  -7.04:  VERT SEC N/S
 EKB .m                  43.60:  KB ELEVATION
 EDF .m                  43.60:  DF ELEVATION
 TDL .m                 957.50:  TOTAL DEPTH (LOGGER)
 VSC .                       0:  VS TO CLOSURE
 MAGU.                 1851413:  MAGUTM CHECKSUM
~Parameter Information Block
#MNEM.UNIT       Value        Description
#---------     -----------    ---------------------------
 AV  .mps                 1.50:  Ann Velocity 
 AVMX.mps                 2.00:  Max Ann Veloc 
 AZIF.deg               184.66:  Azm, Final 
 BHAT.        Rotary Steerable:  BHA Type 
 BREV.rev               300.00:  Rev Bit Total 
 BROT.°/30m              -0.50:  Build Rotating 
 BS  .in                  8.50:  Bit Size 
 BSZ .in                  8.50:  Bit Size 
 BTPL.psig              370.00:  Bit Press Loss 
 CABU.                      No:  Customer Abuse 
 CGEO.      Behruz Shahbaliyev:  Customer Geo 
 COMM.                     ä=U:  Run Comments 1 
 TCS .hr                140.08:  Time Ciculation Ended 
 CV  .mps                 3.00:  Crit Velocity 
 CVMX.mps                 3.20:  Max Crit Veloc 
 DD1 .            Musa Ahmadov:  Direct Drillr 1 
 DD2 .           Hamid Ahmadov:  Direct Drillr 2 
 DDSV.               Geo-Pilot:  DD Service 
 DEFF.%                  98.40:  % Det Eff 
 DLRX.°/30m               3.40:  Dogleg Rot Max 
 DLSO.°/30m               1.45:  Dogleg Oriented 
 DLSX.°/30m               3.40:  Dogleg Str Max 
 DRET.      18.40.00 29-Aug-21:  Drill End Time 
 DRST.      21.00.00 20-Aug-21:  Drill Start Tim 
 DTIM.hr                 69.47:  Time Drilling 
 EDEP.m                5084.50:  End Depth 
 ENG1.      Artemiy Matviyanov:  Engineer 1 
 ENG2.         Almaz Almadatov:  Engineer 2 
 ETIM.      18.40.00 29-Aug-21:  End Time 
 FLOI.gpm               500.00:  Flow In 
 FLON.gpm               400.00:  Flow In Min 
 FLOS.cptm                0.00:  Fluid Loss 
 FLOX.gpm               500.00:  Flow In Max 
 DFT .        Mineral Oil Base:  Mud Type 
 HFLO.                      No:  High Flow 
 HPRE.                      No:  High Pressure 
 HTEM.                      No:  High Temp 
 HYDO.m                   1.80:  Hydro Offset 
 IFIN.deg                25.62:  Inc, Final 
 IMAX.deg                48.69:  Inc Max 
 IMIN.deg                24.01:  Inc Min 
 IMND.m                4962.57:  Inc Min Depth 
 IMXD.m                4119.01:  Inc Max Depth 
 JARR.                      No:  Jarring 
 LETM.      18.40.00 29-Aug-21:  Log End Time 
 LOST.hr                     0:  Lost Rig Time 
 LSTM.      21.00.00 20-Aug-21:  Log Start Time 
 MDCL.ppm             41500.00:  Mud Chlorides 
 MDES.     Inversion Oil/Synthetic:  Mud Desc 
 DFD .sg                  1.56:  Mud Density 
 MDMN.sg                  1.56:  Dens Mud Min 
 MDMX.sg                  1.56:  Dens Mud Max 
 MOIL.                      70:  Run Mud Oil % 
 MOWR.                   70:30:  Run Mud OWR 
 MSND.                     0.2:  Run Mud Sand % 
 MSOL.                    23.3:  Run Mud Solids% 
 DFV .spqt               78.00:  Mud Viscosity 
 MWOD.in                  6.75:  MWD Tool OD 
 MWSI.                      No:  Serv Intrp, MWD 
 OTIM.hr                218.30:  Time Operating 
 PCON.           Look Like New:  Pad Condition 
 PMAX.psia            11015.30:  Press Op, Max 
 PV  .cP                 38.00:  Mud PV 
 RUN .                     300:  Run Number 
 ROPA.m/hr               15.00:  ROP Avg 
 ROPN.m/hr                9.00:  ROP Min 
 ROPX.m/hr               17.00:  ROP Max 
 RPMA.rpm               120.00:  RPM Surface Avg 
 RPMN.rpm                90.00:  RPM Surface Min 
 RPMX.rpm               140.00:  RPM Surface Max 
 RRUN.                     300:  Rig Run Number 
 RTIM.hr                 31.53:  Time Reaming 
 SAZI.deg               331.64:  Azm, Start 
 SDEP.m                4127.00:  Start Depth 
 SIDD.                      No:  Serv Intrp, DD 
 SINC.deg                48.43:  Inc, Start 
 SPPA.psig             5830.00:  SPP Avg 
 SPPN.psig             5600.00:  SPP Min 
 SPPX.psig             5900.00:  SPP Max 
 STIM.      21.00.00 20-Aug-21:  Start Time 
 SVCS.                 DD, MWD:  Services 
 SVER.                    9.20:  Sperry Version 
 TDAT.m                 957.50:  Tot Depth Attmp 
 TDDF.                      No:  Trip for DD 
 TDLG.m                 957.50:  Tot Depth Loggd 
 TFF .                      No:  Trip for Fail 
 TQAA.f-kp               15.00:  Torque Abs Avg 
 TQAN.f-kp               12.00:  Torque Abs Min 
 TQAX.f-kp               19.00:  Torque Abs Max 
 TRRT.°/30m              -3.40:  Turn Rotating 
 MRT .                  EWR-M5:  Maximum Recorded Temperature 
 TTMX.degC              100.00:  Max Tool Temp 
 VS01.                90639251:  Virtual Str1 SN 
 VS02.                90634715:  Virtual Str2 SN 
 VS03.                90652479:  Virtual Str3 SN 
 VS04.                90642262:  Virtual Str4 SN 
 WBMN.klb                 0.00:  WOB Min 
 WITN.           Murad Guliyev:  Customer Rep 
 WITN.          Yashar Gaziyev:  Customer Rep 2 
 WOBA.klb                 9.00:  WOB Avg 
 WOBX.klb                12.00:  WOB Max 
 YP  .lhf2               30.00:  Yield Point 
~Curve Information Block
#MNEM.UNIT                 API CODE     Curve Description
#---------               -----------    ---------------------------
 TIME.HHMMSS            00 000 000 000:  GT Time & Date
 GTDEPTH.m              00 000 000 000:  GT Depth
 GTPQH.psia             00 000 000 000:  GT HR Quartz Pressure
 GTTQ.degC              00 000 000 000:  GT Quartz Temperature
 GTTN.NONE              00 000 000 000:  GT Test Number
 GTET.sec               00 000 000 000:  GT Elapsed Test Time
 GTTVD.m                00 000 000 000:  GT True Vertical Depth
#Other Information
#
#WARRANTY: Halliburton will use its best efforts to furnish customers with 
#accurate information and interpretations that are part of, and incident to, the services 
#provided.  However, Halliburton cannot and does not warrant the accuracy 
#or correctness of such information and interpretations.  Under no circumstances should any 
#such information or interpretation be relied upon as the sole basis for any drilling, 
#completion, production, or financial decision or any procedure involving any risk to the 
#safety of any drilling venture, drilling rig or its crew or any other third party.  The 
#Customer has full responsibility for all drilling, completion and production operation.  
#Halliburton makes no representations or warranties, either expressed or 
#implied, including, but not limited to, the implied warranties of merchantability or fitness 
#for a particular purpose, with respect to the services rendered.  In no event will 
#Halliburton be liable for failure to obtain any particular results or for 
#any damages, including, but not limited to, indirect, special or consequential damages, 
#resulting from the use of any information or interpretation provided by Halliburton.
#
~A           TIME           GTDEPTH  GTPQH  GTTQ  GTTN  GTET   GTTVD  
# ...
   05:48:27.363.27-Aug-2021 5021.00 7999.39 88.54 1.00 253.04 3358.56
   05:48:27.564.27-Aug-2021 5021.00 7999.39 88.54 1.00 253.24 3358.56
   05:48:27.764.27-Aug-2021 5021.00 7998.90 88.54 1.00 253.44 3358.56
   05:48:27.964.27-Aug-2021 5021.00 8000.10 88.54 1.00 253.64 3358.56
   05:48:28.164.27-Aug-2021 5021.00 8000.79 88.54 1.00 253.84 3358.56
   05:48:28.364.27-Aug-2021 5021.00 7997.20 88.54 1.00 254.04 3358.56
   05:48:28.564.27-Aug-2021 5021.00 7997.20 88.54 1.00 254.24 3358.56
   05:48:28.764.27-Aug-2021 5021.00 7996.38 88.54 1.00 254.44 3358.56
   05:48:28.964.27-Aug-2021 5021.00 7997.45 88.54 1.00 254.64 3358.56
   05:48:29.164.27-Aug-2021 5021.00 7997.33 88.54 1.00 254.84 3358.56
   05:48:29.364.27-Aug-2021 5021.00 7997.94 88.54 1.00 255.04 3358.56
   05:48:29.564.27-Aug-2021 5021.00 7997.94 88.54 1.00 255.24 3358.56
   05:48:29.764.27-Aug-2021 5021.00 7997.74 88.54 1.00 255.44 3358.56
   05:48:29.964.27-Aug-2021 5021.00 7998.89 88.54 1.00 255.64 3358.56
   05:48:30.164.27-Aug-2021 5021.00 7999.11 88.54 1.00 255.84 3358.56
   05:48:30.364.27-Aug-2021 5021.00 7999.09 88.54 1.00 256.04 3358.56
   05:48:30.564.27-Aug-2021 5021.00 7999.09 88.54 1.00 256.24 3358.56
   05:48:30.764.27-Aug-2021 5021.00 7998.38 88.54 1.00 256.44 3358.56
   05:48:30.964.27-Aug-2021 5021.00 7998.12 88.54 1.00 256.64 3358.56
   05:48:31.164.27-Aug-2021 5021.00 8002.07 88.54 1.00 256.84 3358.56
   05:48:31.364.27-Aug-2021 5021.00 7999.14 88.54 1.00 257.04 3358.56
   05:48:31.564.27-Aug-2021 5021.00 7999.14 88.54 1.00 257.24 3358.56
   05:48:31.764.27-Aug-2021 5021.00 7997.82 88.54 1.00 257.44 3358.56
   05:48:31.964.27-Aug-2021 5021.00 7997.17 88.54 1.00 257.64 3358.56
   05:48:32.164.27-Aug-2021 5021.00 7997.90 88.54 1.00 257.84 3358.56
   05:48:32.364.27-Aug-2021 5021.00 7997.11 88.54 1.00 258.04 3358.56
   05:48:32.564.27-Aug-2021 5021.00 7997.11 88.54 1.00 258.24 3358.56
   05:48:32.764.27-Aug-2021 5021.00 7997.20 88.54 1.00 258.44 3358.56
   05:48:32.964.27-Aug-2021 5021.00 7997.27 88.54 1.00 258.64 3358.56
   05:48:33.164.27-Aug-2021 5021.00 7998.39 88.54 1.00 258.84 3358.56
   05:48:33.364.27-Aug-2021 5021.00 7998.96 88.54 1.00 259.04 3358.56
   05:48:33.565.27-Aug-2021 5021.00 7998.96 88.54 1.00 259.24 3358.56
   05:48:33.765.27-Aug-2021 5021.00 7998.52 88.54 1.00 259.44 3358.56
   05:48:33.965.27-Aug-2021 5021.00 7998.39 88.54 1.00 259.64 3358.56
   05:48:34.165.27-Aug-2021 5021.00 7998.08 88.54 1.00 259.84 3358.56
   05:48:34.365.27-Aug-2021 5021.00 7998.08 88.54 1.00 260.04 3358.56
   05:48:34.565.27-Aug-2021 5021.00 7998.08 88.54 1.00 260.24 3358.56
   05:48:34.765.27-Aug-2021 5021.00 7995.73 88.54 1.00 260.44 3358.56
   05:48:34.965.27-Aug-2021 5021.00 7997.24 88.54 1.00 260.64 3358.56
   05:48:35.165.27-Aug-2021 5021.00 7997.05 88.54 1.00 260.84 3358.56
   05:48:35.365.27-Aug-2021 5021.00 7997.31 88.54 1.00 261.04 3358.56
   05:48:35.565.27-Aug-2021 5021.00 7997.31 88.54 1.00 261.24 3358.56
   05:48:35.765.27-Aug-2021 5021.00 7996.60 88.54 1.00 261.44 3358.56
   05:48:35.965.27-Aug-2021 5021.00 7997.27 88.54 1.00 261.64 3358.56
   05:48:36.165.27-Aug-2021 5021.00 7996.78 88.54 1.00 261.84 3358.56
   05:48:36.365.27-Aug-2021 5021.00 7997.34 88.54 1.00 262.04 3358.56
   05:48:36.565.27-Aug-2021 5021.00 7997.34 88.54 1.00 262.24 3358.56
   05:48:36.765.27-Aug-2021 5021.00 8001.70 88.54 1.00 262.44 3358.56
   05:48:36.965.27-Aug-2021 5021.00 7999.28 88.54 1.00 262.64 3358.56
   05:48:37.165.27-Aug-2021 5021.00 7997.76 88.54 1.00 262.84 3358.56
   05:48:37.365.27-Aug-2021 5021.00 7998.69 88.54 1.00 263.04 3358.56
   05:48:37.565.27-Aug-2021 5021.00 7998.69 88.54 1.00 263.24 3358.56
   05:48:37.765.27-Aug-2021 5021.00 8000.57 88.54 1.00 263.44 3358.56
   05:48:37.965.27-Aug-2021 5021.00 7997.10 88.54 1.00 263.64 3358.56
   05:48:38.165.27-Aug-2021 5021.00 7997.61 88.54 1.00 263.84 3358.56
   05:48:38.365.27-Aug-2021 5021.00 7996.48 88.54 1.00 264.04 3358.56
   05:48:38.565.27-Aug-2021 5021.00 7996.48 88.54 1.00 264.24 3358.56
   05:48:38.765.27-Aug-2021 5021.00 7997.29 88.54 1.00 264.44 3358.56
   05:48:38.965.27-Aug-2021 5021.00 7998.10 88.54 1.00 264.64 3358.56
   05:48:39.165.27-Aug-2021 5021.00 7997.71 88.54 1.00 264.84 3358.56
   05:48:39.365.27-Aug-2021 5021.00 7997.85 88.54 1.00 265.04 3358.56
   05:48:39.565.27-Aug-2021 5021.00 7997.85 88.54 1.00 265.24 3358.56
   05:48:39.766.27-Aug-2021 5021.00 7999.01 88.54 1.00 265.44 3358.56
   05:48:39.966.27-Aug-2021 5021.00 7997.48 88.53 1.00 265.64 3358.56
   05:48:40.166.27-Aug-2021 5021.00 7996.66 88.53 1.00 265.84 3358.56
   05:48:40.366.27-Aug-2021 5021.00 7996.54 88.53 1.00 266.04 3358.56
   05:48:40.566.27-Aug-2021 5021.00 7996.54 88.53 1.00 266.24 3358.56
   05:48:40.766.27-Aug-2021 5021.00 8000.59 88.53 1.00 266.44 3358.56
   05:48:40.966.27-Aug-2021 5021.00 7997.10 88.53 1.00 266.64 3358.56
   05:48:41.166.27-Aug-2021 5021.00 7995.46 88.53 1.00 266.84 3358.56
   05:48:41.366.27-Aug-2021 5021.00 7996.11 88.53 1.00 267.04 3358.56
   05:48:41.566.27-Aug-2021 5021.00 7996.11 88.53 1.00 267.24 3358.56
   05:48:41.766.27-Aug-2021 5021.00 7996.34 88.53 1.00 267.44 3358.56
   05:48:41.966.27-Aug-2021 5021.00 7995.42 88.53 1.00 267.64 3358.56
   05:48:42.166.27-Aug-2021 5021.00 7995.83 88.53 1.00 267.84 3358.56
   05:48:42.366.27-Aug-2021 5021.00 7995.79 88.53 1.00 268.04 3358.56
   05:48:42.566.27-Aug-2021 5021.00 7995.79 88.53 1.00 268.24 3358.56
   05:48:42.766.27-Aug-2021 5021.00 7997.10 88.53 1.00 268.44 3358.56
   05:48:42.966.27-Aug-2021 5021.00 7997.56 88.53 1.00 268.64 3358.56
   05:48:43.166.27-Aug-2021 5021.00 7997.48 88.53 1.00 268.84 3358.56
   05:48:43.366.27-Aug-2021 5021.00 7996.94 88.53 1.00 269.04 3358.56
   05:48:43.566.27-Aug-2021 5021.00 7996.94 88.53 1.00 269.24 3358.56
   05:48:43.766.27-Aug-2021 5021.00 7996.48 88.53 1.00 269.44 3358.56
   05:48:43.966.27-Aug-2021 5021.00 7996.50 88.53 1.00 269.64 3358.56
   05:48:44.166.27-Aug-2021 5021.00 8004.06 88.53 1.00 269.84 3358.56
   05:48:44.366.27-Aug-2021 5021.00 7993.97 88.53 1.00 270.04 3358.56
   05:48:44.566.27-Aug-2021 5021.00 7993.97 88.53 1.00 270.24 3358.56
   05:48:44.766.27-Aug-2021 5021.00 7995.32 88.53 1.00 270.44 3358.56
   05:48:44.966.27-Aug-2021 5021.00 7995.61 88.53 1.00 270.64 3358.56
   05:48:45.166.27-Aug-2021 5021.00 8001.29 88.53 1.00 270.84 3358.56
   05:48:45.366.27-Aug-2021 5021.00 7995.22 88.53 1.00 271.04 3358.56
   05:48:45.566.27-Aug-2021 5021.00 7995.22 88.53 1.00 271.24 3358.56
   05:48:45.767.27-Aug-2021 5021.00 7995.12 88.53 1.00 271.44 3358.56
   05:48:45.967.27-Aug-2021 5021.00 7995.40 88.53 1.00 271.64 3358.56
   05:48:46.167.27-Aug-2021 5021.00 8001.63 88.53 1.00 271.84 3358.56
   05:48:46.367.27-Aug-2021 5021.00 7996.58 88.53 1.00 272.04 3358.56
   05:48:46.567.27-Aug-2021 5021.00 7996.58 88.53 1.00 272.24 3358.56
   05:48:46.767.27-Aug-2021 5021.00 7995.83 88.53 1.00 272.44 3358.56
   05:48:46.967.27-Aug-2021 5021.00 7999.92 88.53 1.00 272.64 3358.56
   05:48:47.167.27-Aug-2021 5021.00 7996.69 88.53 1.00 272.84 3358.56
   05:48:47.367.27-Aug-2021 5021.00 7996.36 88.53 1.00 273.04 3358.56
   05:48:47.567.27-Aug-2021 5021.00 7996.36 88.53 1.00 273.24 3358.56
   05:48:47.767.27-Aug-2021 5021.00 7995.53 88.53 1.00 273.44 3358.56
   05:48:47.967.27-Aug-2021 5021.00 7995.17 88.53 1.00 273.64 3358.56
   05:48:48.167.27-Aug-2021 5021.00 7995.12 88.53 1.00 273.84 3358.56
   05:48:48.367.27-Aug-2021 5021.00 7995.64 88.53 1.00 274.05 3358.56
   05:48:48.567.27-Aug-2021 5021.00 7995.64 88.53 1.00 274.25 3358.56
   05:48:48.767.27-Aug-2021 5021.00 7995.91 88.53 1.00 274.45 3358.56
   05:48:48.967.27-Aug-2021 5021.00 7996.76 88.53 1.00 274.65 3358.56
   05:48:49.167.27-Aug-2021 5021.00 7997.26 88.53 1.00 274.85 3358.56
   05:48:49.367.27-Aug-2021 5021.00 7996.70 88.53 1.00 275.05 3358.56
   05:48:49.567.27-Aug-2021 5021.00 7996.70 88.53 1.00 275.25 3358.56
   05:48:49.767.27-Aug-2021 5021.00 7996.54 88.53 1.00 275.45 3358.56
   05:48:49.967.27-Aug-2021 5021.00 7996.59 88.53 1.00 275.65 3358.56
   05:48:50.167.27-Aug-2021 5021.00 8005.21 88.53 1.00 275.85 3358.56
