~Version Information
 VERS.                  2.0:   CWLS log ASCII Standard -VERSION 2.0
 WRAP.                   NO:   One line per depth step
~Well Information Block
#MNEM.UNIT     VALUE/NAME     DESCRIPTION
#---------     -----------    ---------------------------
 STRT.S             02:31:31 28-Aug-21: START TIME 02:31:31 28-Aug-21
 STOP.S             02:38:23 28-Aug-21: STOP TIME  02:38:23 28-Aug-21
 STEP.S                   0.00: STEP TIME
 NULL.                 -999.25: NULL VALUE
 DFWT.                        :  DIST FWL TEXT
 DFST.                        :  DIST FSL TEXT
 DMF .             Drill Floor:  DRILL MEAS FROM
 STIM.      20.00.00 17-Aug-21:  START TIME
 DATE.      19.00.00 29-Aug-21:  END TIME
 SPUD.               15-Aug-21:  SPUD DATE
 NREF.                    Grid:  NORTH REFERENCE
 HPTY.       Minimum Curvature:  HOLE POS TYPE
 DMOD.             Drill Model:  DRILL MOD DESC
 SVYD.                  Survey:  SURVEY DESC
 ILTD.               Lithology:  INTERP LTH DESC
 FTOP.          Formation Tops:  FORM TOPS DESC
 RIG .              East Azeri:  RIG NAME
 PDAT.          Mean Sea Level:  PERMANENT DATUM
 FLD .                     ACG:  FIELD NAME
 SON .        AZ-XX-0907180857:  JOB NUMBER
 CTRY.              Azerbaijan:  COUNTRY NAME
 WELL.                    D23x:  WELL NAME
 SRVC.     Turan Drilling and Engineering:  CONTRACTOR
 COMP.     BP Exploration (Caspian Sea) Ltd.:  COMPANY
 UWI .            /AZE00000214:  UNIQUE WELL IDENTIFIER
 API .            /AZE00000214:  API NUMBER
 MDS .        Operator Entered:  MAG DATA SOURCE
 BASE.              Azerbaijan:  LOGGING EQUIPMENT BASE LOCATION
 REGN.                   EESSA:  REGION
 PROV.                    Baku:  PROVINCE
 STAT.                    Baku:  STATE NAME
 MWDS.                    Baku:  MWD SHOP
 DOE .                     N/A:  DOE NUMBER
 DCON.         Sperry Drilling:  DIRECTNL CONTR
 UNIT.                     N/A:  LOGGING EQUIPMENT ID
 WTYP.                Deviated:  WELL TYPE
 CNTY.                        :  COUNTY
 LOC .                        :  LOCATION
 LMF .             Drill Floor:  LOG MEASURED FROM
 TVDS.m                  43.60:  TVDSS CORRECTN
 LATI.deg                40.02:  LATITUDE
 LONG.deg                51.45:  LONGITUDE
 WHNS.m                  -7.04:  WELL HEAD N/S
 WHEW.m                  -0.67:  WELL HEAD E/W
 UTMX.m              538762.90:  UTM X
 UTMY.m             4431871.34:  UTM Y
 DFWL.m                   0.00:  DISTANCE FWL
 DFSL.m                   0.00:  DISTANCE FSL
 SDEP.m                4127.00:  START DEPTH
 TDD .m                5084.50:  TOTAL DEPTH (DRILLER)
 VSDR.deg               140.47:  VERT SEC DIRECT
 GVFD.g                   1.00:  GRAVITY FIELD
 MFLD.nT              50362.00:  MAGNETIC FIELD
 MDIP.deg                59.48:  MAGNETIC DIP
 MDEC.deg                 6.47:  MAGNETIC DECL
 GRDC.deg                 0.31:  GRID CORRECTION
 AZTC.deg                 6.16:  AZM TOTAL CORR
 EPD .m                   0.00:  ELEVATION
 EGL .m                   0.00:  GROUND ELEVATION
 WDMS.m                 151.80:  WD ELEV
 APD .m                  43.60:  DEPTH ABOVE PD
 DEP .m                4092.57:  DEPTH
 AGAP.m                  43.60:  AIR GAP
 VSEW.m                  -0.67:  VERT SEC E/W
 VSNS.m                  -7.04:  VERT SEC N/S
 EKB .m                  43.60:  KB ELEVATION
 EDF .m                  43.60:  DF ELEVATION
 TDL .m                 957.50:  TOTAL DEPTH (LOGGER)
 VSC .                       0:  VS TO CLOSURE
 MAGU.                 1851413:  MAGUTM CHECKSUM
~Parameter Information Block
#MNEM.UNIT       Value        Description
#---------     -----------    ---------------------------
 AV  .mps                 1.50:  Ann Velocity 
 AVMX.mps                 2.00:  Max Ann Veloc 
 AZIF.deg               184.66:  Azm, Final 
 BHAT.        Rotary Steerable:  BHA Type 
 BREV.rev               300.00:  Rev Bit Total 
 BROT.°/30m              -0.50:  Build Rotating 
 BS  .in                  8.50:  Bit Size 
 BSZ .in                  8.50:  Bit Size 
 BTPL.psig              370.00:  Bit Press Loss 
 CABU.                      No:  Customer Abuse 
 CGEO.      Behruz Shahbaliyev:  Customer Geo 
 COMM.                     Œjp:  Run Comments 1 
 TCS .hr                140.08:  Time Ciculation Ended 
 CV  .mps                 3.00:  Crit Velocity 
 CVMX.mps                 3.20:  Max Crit Veloc 
 DD1 .            Musa Ahmadov:  Direct Drillr 1 
 DD2 .           Hamid Ahmadov:  Direct Drillr 2 
 DDSV.               Geo-Pilot:  DD Service 
 DEFF.%                  98.40:  % Det Eff 
 DLRX.°/30m               3.40:  Dogleg Rot Max 
 DLSO.°/30m               1.45:  Dogleg Oriented 
 DLSX.°/30m               3.40:  Dogleg Str Max 
 DRET.      18.40.00 29-Aug-21:  Drill End Time 
 DRST.      21.00.00 20-Aug-21:  Drill Start Tim 
 DTIM.hr                 69.47:  Time Drilling 
 EDEP.m                5084.50:  End Depth 
 ENG1.      Artemiy Matviyanov:  Engineer 1 
 ENG2.         Almaz Almadatov:  Engineer 2 
 ETIM.      18.40.00 29-Aug-21:  End Time 
 FLOI.gpm               500.00:  Flow In 
 FLON.gpm               400.00:  Flow In Min 
 FLOS.cptm                0.00:  Fluid Loss 
 FLOX.gpm               500.00:  Flow In Max 
 DFT .        Mineral Oil Base:  Mud Type 
 HFLO.                      No:  High Flow 
 HPRE.                      No:  High Pressure 
 HTEM.                      No:  High Temp 
 HYDO.m                   1.80:  Hydro Offset 
 IFIN.deg                25.62:  Inc, Final 
 IMAX.deg                48.69:  Inc Max 
 IMIN.deg                24.01:  Inc Min 
 IMND.m                4962.57:  Inc Min Depth 
 IMXD.m                4119.01:  Inc Max Depth 
 JARR.                      No:  Jarring 
 LETM.      18.40.00 29-Aug-21:  Log End Time 
 LOST.hr                     0:  Lost Rig Time 
 LSTM.      21.00.00 20-Aug-21:  Log Start Time 
 MDCL.ppm             41500.00:  Mud Chlorides 
 MDES.     Inversion Oil/Synthetic:  Mud Desc 
 DFD .sg                  1.56:  Mud Density 
 MDMN.sg                  1.56:  Dens Mud Min 
 MDMX.sg                  1.56:  Dens Mud Max 
 MOIL.                      70:  Run Mud Oil % 
 MOWR.                   70:30:  Run Mud OWR 
 MSND.                     0.2:  Run Mud Sand % 
 MSOL.                    23.3:  Run Mud Solids% 
 DFV .spqt               78.00:  Mud Viscosity 
 MWOD.in                  6.75:  MWD Tool OD 
 MWSI.                      No:  Serv Intrp, MWD 
 OTIM.hr                218.30:  Time Operating 
 PCON.           Look Like New:  Pad Condition 
 PMAX.psia            11015.30:  Press Op, Max 
 PV  .cP                 38.00:  Mud PV 
 RUN .                     300:  Run Number 
 ROPA.m/hr               15.00:  ROP Avg 
 ROPN.m/hr                9.00:  ROP Min 
 ROPX.m/hr               17.00:  ROP Max 
 RPMA.rpm               120.00:  RPM Surface Avg 
 RPMN.rpm                90.00:  RPM Surface Min 
 RPMX.rpm               140.00:  RPM Surface Max 
 RRUN.                     300:  Rig Run Number 
 RTIM.hr                 31.53:  Time Reaming 
 SAZI.deg               331.64:  Azm, Start 
 SDEP.m                4127.00:  Start Depth 
 SIDD.                      No:  Serv Intrp, DD 
 SINC.deg                48.43:  Inc, Start 
 SPPA.psig             5830.00:  SPP Avg 
 SPPN.psig             5600.00:  SPP Min 
 SPPX.psig             5900.00:  SPP Max 
 STIM.      21.00.00 20-Aug-21:  Start Time 
 SVCS.                 DD, MWD:  Services 
 SVER.                    9.20:  Sperry Version 
 TDAT.m                 957.50:  Tot Depth Attmp 
 TDDF.                      No:  Trip for DD 
 TDLG.m                 957.50:  Tot Depth Loggd 
 TFF .                      No:  Trip for Fail 
 TQAA.f-kp               15.00:  Torque Abs Avg 
 TQAN.f-kp               12.00:  Torque Abs Min 
 TQAX.f-kp               19.00:  Torque Abs Max 
 TRRT.°/30m              -3.40:  Turn Rotating 
 MRT .                  EWR-M5:  Maximum Recorded Temperature 
 TTMX.degC              100.00:  Max Tool Temp 
 VS01.                90639251:  Virtual Str1 SN 
 VS02.                90634715:  Virtual Str2 SN 
 VS03.                90652479:  Virtual Str3 SN 
 VS04.                90642262:  Virtual Str4 SN 
 WBMN.klb                 0.00:  WOB Min 
 WITN.           Murad Guliyev:  Customer Rep 
 WITN.          Yashar Gaziyev:  Customer Rep 2 
 WOBA.klb                 9.00:  WOB Avg 
 WOBX.klb                12.00:  WOB Max 
 YP  .lhf2               30.00:  Yield Point 
~Curve Information Block
#MNEM.UNIT                 API CODE     Curve Description
#---------               -----------    ---------------------------
 TIME.HHMMSS            00 000 000 000:  GT Time & Date
 GTDEPTH.m              00 000 000 000:  GT Depth
 GTPQH.psia             00 000 000 000:  GT HR Quartz Pressure
 GTTQ.degC              00 000 000 000:  GT Quartz Temperature
 GTTN.NONE              00 000 000 000:  GT Test Number
 GTET.sec               00 000 000 000:  GT Elapsed Test Time
 GTTVD.m                00 000 000 000:  GT True Vertical Depth
#Other Information
#
#WARRANTY: Halliburton will use its best efforts to furnish customers with 
#accurate information and interpretations that are part of, and incident to, the services 
#provided.  However, Halliburton cannot and does not warrant the accuracy 
#or correctness of such information and interpretations.  Under no circumstances should any 
#such information or interpretation be relied upon as the sole basis for any drilling, 
#completion, production, or financial decision or any procedure involving any risk to the 
#safety of any drilling venture, drilling rig or its crew or any other third party.  The 
#Customer has full responsibility for all drilling, completion and production operation.  
#Halliburton makes no representations or warranties, either expressed or 
#implied, including, but not limited to, the implied warranties of merchantability or fitness 
#for a particular purpose, with respect to the services rendered.  In no event will 
#Halliburton be liable for failure to obtain any particular results or for 
#any damages, including, but not limited to, indirect, special or consequential damages, 
#resulting from the use of any information or interpretation provided by Halliburton.
#
~A           TIME           GTDEPTH  GTPQH  GTTQ  GTTN   GTET   GTTVD  
# ...
   02:34:32.845.28-Aug-2021 4891.00 7789.63 80.66 28.00 180.86 3240.41
   02:34:33.045.28-Aug-2021 4891.00 7789.81 80.66 28.00 181.06 3240.41
   02:34:33.245.28-Aug-2021 4891.00 7789.81 80.66 28.00 181.26 3240.41
   02:34:33.445.28-Aug-2021 4891.00 7789.83 80.66 28.00 181.46 3240.41
   02:34:33.646.28-Aug-2021 4891.00 7790.42 80.66 28.00 181.66 3240.41
   02:34:33.846.28-Aug-2021 4891.00 7790.47 80.66 28.00 181.86 3240.41
   02:34:34.046.28-Aug-2021 4891.00 7790.63 80.66 28.00 182.06 3240.41
   02:34:34.246.28-Aug-2021 4891.00 7790.63 80.66 28.00 182.26 3240.41
   02:34:34.446.28-Aug-2021 4891.00 7790.47 80.66 28.00 182.46 3240.41
   02:34:34.646.28-Aug-2021 4891.00 7790.62 80.66 28.00 182.66 3240.41
   02:34:34.846.28-Aug-2021 4891.00 7790.28 80.66 28.00 182.86 3240.41
   02:34:35.046.28-Aug-2021 4891.00 7790.73 80.66 28.00 183.06 3240.41
   02:34:35.246.28-Aug-2021 4891.00 7790.73 80.66 28.00 183.26 3240.41
   02:34:35.446.28-Aug-2021 4891.00 7790.57 80.66 28.00 183.46 3240.41
   02:34:35.646.28-Aug-2021 4891.00 7790.87 80.66 28.00 183.66 3240.41
   02:34:35.846.28-Aug-2021 4891.00 7790.23 80.66 28.00 183.86 3240.41
   02:34:36.046.28-Aug-2021 4891.00 7789.92 80.66 28.00 184.06 3240.41
   02:34:36.246.28-Aug-2021 4891.00 7789.92 80.66 28.00 184.26 3240.41
   02:34:36.446.28-Aug-2021 4891.00 7789.55 80.66 28.00 184.46 3240.41
   02:34:36.646.28-Aug-2021 4891.00 7790.93 80.66 28.00 184.66 3240.41
   02:34:36.847.28-Aug-2021 4891.00 7790.33 80.66 28.00 184.86 3240.41
   02:34:37.047.28-Aug-2021 4891.00 7790.43 80.66 28.00 185.06 3240.41
   02:34:37.247.28-Aug-2021 4891.00 7790.43 80.66 28.00 185.26 3240.41
   02:34:37.447.28-Aug-2021 4891.00 7793.96 80.66 28.00 185.46 3240.41
   02:34:37.647.28-Aug-2021 4891.00 7789.19 80.66 28.00 185.66 3240.41
   02:34:37.847.28-Aug-2021 4891.00 7791.33 80.66 28.00 185.86 3240.41
   02:34:38.047.28-Aug-2021 4891.00 7791.31 80.66 28.00 186.06 3240.41
   02:34:38.247.28-Aug-2021 4891.00 7791.31 80.66 28.00 186.26 3240.41
   02:34:38.447.28-Aug-2021 4891.00 7790.81 80.66 28.00 186.46 3240.41
   02:34:38.647.28-Aug-2021 4891.00 7790.96 80.66 28.00 186.66 3240.41
   02:34:38.847.28-Aug-2021 4891.00 7789.74 80.66 28.00 186.86 3240.41
   02:34:39.047.28-Aug-2021 4891.00 7789.62 80.66 28.00 187.06 3240.41
   02:34:39.247.28-Aug-2021 4891.00 7789.62 80.66 28.00 187.26 3240.41
   02:34:39.447.28-Aug-2021 4891.00 7789.98 80.66 28.00 187.46 3240.41
   02:34:39.647.28-Aug-2021 4891.00 7789.96 80.66 28.00 187.66 3240.41
   02:34:39.847.28-Aug-2021 4891.00 7790.06 80.66 28.00 187.86 3240.41
   02:34:40.048.28-Aug-2021 4891.00 7790.70 80.66 28.00 188.06 3240.41
   02:34:40.248.28-Aug-2021 4891.00 7790.70 80.66 28.00 188.26 3240.41
   02:34:40.448.28-Aug-2021 4891.00 7790.88 80.66 28.00 188.46 3240.41
   02:34:40.648.28-Aug-2021 4891.00 7790.75 80.66 28.00 188.66 3240.41
   02:34:40.848.28-Aug-2021 4891.00 7790.66 80.66 28.00 188.86 3240.41
   02:34:41.048.28-Aug-2021 4891.00 7790.40 80.66 28.00 189.06 3240.41
   02:34:41.248.28-Aug-2021 4891.00 7790.40 80.66 28.00 189.26 3240.41
   02:34:41.448.28-Aug-2021 4891.00 7793.73 80.66 28.00 189.46 3240.41
   02:34:41.648.28-Aug-2021 4891.00 7789.55 80.66 28.00 189.66 3240.41
   02:34:41.848.28-Aug-2021 4891.00 7791.13 80.66 28.00 189.86 3240.41
   02:34:42.048.28-Aug-2021 4891.00 7790.45 80.66 28.00 190.06 3240.41
   02:34:42.248.28-Aug-2021 4891.00 7790.45 80.66 28.00 190.26 3240.41
   02:34:42.448.28-Aug-2021 4891.00 7789.85 80.66 28.00 190.46 3240.41
   02:34:42.648.28-Aug-2021 4891.00 7789.72 80.66 28.00 190.66 3240.41
   02:34:42.848.28-Aug-2021 4891.00 7789.49 80.66 28.00 190.86 3240.41
   02:34:43.048.28-Aug-2021 4891.00 7789.84 80.66 28.00 191.06 3240.41
   02:34:43.249.28-Aug-2021 4891.00 7789.84 80.66 28.00 191.26 3240.41
   02:34:43.449.28-Aug-2021 4891.00 7790.34 80.66 28.00 191.46 3240.41
   02:34:43.649.28-Aug-2021 4891.00 7790.59 80.66 28.00 191.66 3240.41
   02:34:43.849.28-Aug-2021 4891.00 7790.65 80.66 28.00 191.86 3240.41
   02:34:44.049.28-Aug-2021 4891.00 7790.50 80.66 28.00 192.06 3240.41
   02:34:44.249.28-Aug-2021 4891.00 7790.50 80.66 28.00 192.26 3240.41
   02:34:44.449.28-Aug-2021 4891.00 7790.32 80.66 28.00 192.46 3240.41
   02:34:44.649.28-Aug-2021 4891.00 7790.38 80.66 28.00 192.66 3240.41
   02:34:44.849.28-Aug-2021 4891.00 7793.87 80.66 28.00 192.86 3240.41
   02:34:45.049.28-Aug-2021 4891.00 7789.49 80.66 28.00 193.06 3240.41
   02:34:45.249.28-Aug-2021 4891.00 7789.49 80.66 28.00 193.26 3240.41
   02:34:45.449.28-Aug-2021 4891.00 7790.45 80.66 28.00 193.46 3240.41
   02:34:45.649.28-Aug-2021 4891.00 7789.95 80.66 28.00 193.66 3240.41
   02:34:45.849.28-Aug-2021 4891.00 7795.66 80.66 28.00 193.86 3240.41
   02:34:46.049.28-Aug-2021 4891.00 7786.75 80.66 28.00 194.06 3240.41
   02:34:46.249.28-Aug-2021 4891.00 7786.75 80.66 28.00 194.26 3240.41
   02:34:46.450.28-Aug-2021 4891.00 7790.10 80.66 28.00 194.46 3240.41
   02:34:46.650.28-Aug-2021 4891.00 7790.14 80.66 28.00 194.66 3240.41
   02:34:46.850.28-Aug-2021 4891.00 7790.02 80.66 28.00 194.86 3240.41
   02:34:47.050.28-Aug-2021 4891.00 7795.71 80.66 28.00 195.06 3240.41
   02:34:47.250.28-Aug-2021 4891.00 7795.71 80.66 28.00 195.26 3240.41
   02:34:47.450.28-Aug-2021 4891.00 7791.33 80.66 28.00 195.46 3240.41
   02:34:47.650.28-Aug-2021 4891.00 7790.36 80.66 28.00 195.66 3240.41
   02:34:47.850.28-Aug-2021 4891.00 7793.80 80.66 28.00 195.86 3240.41
   02:34:48.050.28-Aug-2021 4891.00 7789.76 80.66 28.00 196.06 3240.41
   02:34:48.250.28-Aug-2021 4891.00 7789.76 80.66 28.00 196.26 3240.41
   02:34:48.450.28-Aug-2021 4891.00 7789.94 80.66 28.00 196.46 3240.41
   02:34:48.650.28-Aug-2021 4891.00 7789.95 80.66 28.00 196.66 3240.41
   02:34:48.850.28-Aug-2021 4891.00 7789.97 80.66 28.00 196.86 3240.41
   02:34:49.050.28-Aug-2021 4891.00 7790.06 80.66 28.00 197.06 3240.41
   02:34:49.250.28-Aug-2021 4891.00 7790.06 80.66 28.00 197.26 3240.41
   02:34:49.450.28-Aug-2021 4891.00 7790.34 80.66 28.00 197.46 3240.41
   02:34:49.651.28-Aug-2021 4891.00 7790.72 80.66 28.00 197.66 3240.41
   02:34:49.851.28-Aug-2021 4891.00 7790.71 80.66 28.00 197.86 3240.41
   02:34:50.051.28-Aug-2021 4891.00 7790.97 80.66 28.00 198.06 3240.41
   02:34:50.251.28-Aug-2021 4891.00 7790.97 80.66 28.00 198.26 3240.41
   02:34:50.451.28-Aug-2021 4891.00 7790.77 80.66 28.00 198.46 3240.41
   02:34:50.651.28-Aug-2021 4891.00 7790.62 80.66 28.00 198.66 3240.41
   02:34:50.851.28-Aug-2021 4891.00 7790.58 80.66 28.00 198.86 3240.41
   02:34:51.051.28-Aug-2021 4891.00 7796.26 80.66 28.00 199.06 3240.41
   02:34:51.251.28-Aug-2021 4891.00 7796.26 80.66 28.00 199.26 3240.41
   02:34:51.451.28-Aug-2021 4891.00 7791.52 80.66 28.00 199.46 3240.41
   02:34:51.651.28-Aug-2021 4891.00 7790.58 80.66 28.00 199.66 3240.41
   02:34:51.851.28-Aug-2021 4891.00 7790.11 80.66 28.00 199.86 3240.41
   02:34:52.051.28-Aug-2021 4891.00 7790.24 80.66 28.00 200.06 3240.41
   02:34:52.251.28-Aug-2021 4891.00 7790.24 80.66 28.00 200.26 3240.41
   02:34:52.451.28-Aug-2021 4891.00 7789.78 80.66 28.00 200.46 3240.41
   02:34:52.651.28-Aug-2021 4891.00 7790.11 80.66 28.00 200.66 3240.41
   02:34:52.852.28-Aug-2021 4891.00 7790.48 80.66 28.00 200.86 3240.41
   02:34:53.052.28-Aug-2021 4891.00 7790.59 80.66 28.00 201.06 3240.41
   02:34:53.252.28-Aug-2021 4891.00 7790.59 80.66 28.00 201.26 3240.41
   02:34:53.452.28-Aug-2021 4891.00 7790.94 80.66 28.00 201.46 3240.41
   02:34:53.652.28-Aug-2021 4891.00 7790.88 80.66 28.00 201.66 3240.41
   02:34:53.852.28-Aug-2021 4891.00 7790.94 80.66 28.00 201.86 3240.41
   02:34:54.052.28-Aug-2021 4891.00 7790.70 80.66 28.00 202.06 3240.41
   02:34:54.252.28-Aug-2021 4891.00 7790.70 80.66 28.00 202.26 3240.41
   02:34:54.452.28-Aug-2021 4891.00 7796.51 80.66 28.00 202.46 3240.41
   02:34:54.652.28-Aug-2021 4891.00 7787.41 80.66 28.00 202.66 3240.41
   02:34:54.852.28-Aug-2021 4891.00 7791.82 80.66 28.00 202.86 3240.41
   02:34:55.052.28-Aug-2021 4891.00 7790.64 80.66 28.00 203.06 3240.41
   02:34:55.252.28-Aug-2021 4891.00 7790.64 80.66 28.00 203.26 3240.41
