~Version Information
 VERS.                  2.0:   CWLS log ASCII Standard -VERSION 2.0
 WRAP.                   NO:   One line per depth step
~Well Information Block
#MNEM.UNIT     VALUE/NAME     DESCRIPTION
#---------     -----------    ---------------------------
 STRT.S             04:10:22 28-Aug-21: START TIME 04:10:22 28-Aug-21
 STOP.S             04:17:14 28-Aug-21: STOP TIME  04:17:14 28-Aug-21
 STEP.S                   0.00: STEP TIME
 NULL.                 -999.25: NULL VALUE
 DFWT.                        :  DIST FWL TEXT
 DFST.                        :  DIST FSL TEXT
 DMF .             Drill Floor:  DRILL MEAS FROM
 STIM.      20.00.00 17-Aug-21:  START TIME
 DATE.      19.00.00 29-Aug-21:  END TIME
 SPUD.               15-Aug-21:  SPUD DATE
 NREF.                    Grid:  NORTH REFERENCE
 HPTY.       Minimum Curvature:  HOLE POS TYPE
 DMOD.             Drill Model:  DRILL MOD DESC
 SVYD.                  Survey:  SURVEY DESC
 ILTD.               Lithology:  INTERP LTH DESC
 FTOP.          Formation Tops:  FORM TOPS DESC
 RIG .              East Azeri:  RIG NAME
 PDAT.          Mean Sea Level:  PERMANENT DATUM
 FLD .                     ACG:  FIELD NAME
 SON .        AZ-XX-0907180857:  JOB NUMBER
 CTRY.              Azerbaijan:  COUNTRY NAME
 WELL.                    D23x:  WELL NAME
 SRVC.     Turan Drilling and Engineering:  CONTRACTOR
 COMP.     BP Exploration (Caspian Sea) Ltd.:  COMPANY
 UWI .            /AZE00000214:  UNIQUE WELL IDENTIFIER
 API .            /AZE00000214:  API NUMBER
 MDS .        Operator Entered:  MAG DATA SOURCE
 BASE.              Azerbaijan:  LOGGING EQUIPMENT BASE LOCATION
 REGN.                   EESSA:  REGION
 PROV.                    Baku:  PROVINCE
 STAT.                    Baku:  STATE NAME
 MWDS.                    Baku:  MWD SHOP
 DOE .                     N/A:  DOE NUMBER
 DCON.         Sperry Drilling:  DIRECTNL CONTR
 UNIT.                     N/A:  LOGGING EQUIPMENT ID
 WTYP.                Deviated:  WELL TYPE
 CNTY.                        :  COUNTY
 LOC .                        :  LOCATION
 LMF .             Drill Floor:  LOG MEASURED FROM
 TVDS.m                  43.60:  TVDSS CORRECTN
 LATI.deg                40.02:  LATITUDE
 LONG.deg                51.45:  LONGITUDE
 WHNS.m                  -7.04:  WELL HEAD N/S
 WHEW.m                  -0.67:  WELL HEAD E/W
 UTMX.m              538762.90:  UTM X
 UTMY.m             4431871.34:  UTM Y
 DFWL.m                   0.00:  DISTANCE FWL
 DFSL.m                   0.00:  DISTANCE FSL
 SDEP.m                4127.00:  START DEPTH
 TDD .m                5084.50:  TOTAL DEPTH (DRILLER)
 VSDR.deg               140.47:  VERT SEC DIRECT
 GVFD.g                   1.00:  GRAVITY FIELD
 MFLD.nT              50362.00:  MAGNETIC FIELD
 MDIP.deg                59.48:  MAGNETIC DIP
 MDEC.deg                 6.47:  MAGNETIC DECL
 GRDC.deg                 0.31:  GRID CORRECTION
 AZTC.deg                 6.16:  AZM TOTAL CORR
 EPD .m                   0.00:  ELEVATION
 EGL .m                   0.00:  GROUND ELEVATION
 WDMS.m                 151.80:  WD ELEV
 APD .m                  43.60:  DEPTH ABOVE PD
 DEP .m                4092.57:  DEPTH
 AGAP.m                  43.60:  AIR GAP
 VSEW.m                  -0.67:  VERT SEC E/W
 VSNS.m                  -7.04:  VERT SEC N/S
 EKB .m                  43.60:  KB ELEVATION
 EDF .m                  43.60:  DF ELEVATION
 TDL .m                 957.50:  TOTAL DEPTH (LOGGER)
 VSC .                       0:  VS TO CLOSURE
 MAGU.                 1851413:  MAGUTM CHECKSUM
~Parameter Information Block
#MNEM.UNIT       Value        Description
#---------     -----------    ---------------------------
 AV  .mps                 1.50:  Ann Velocity 
 AVMX.mps                 2.00:  Max Ann Veloc 
 AZIF.deg               184.66:  Azm, Final 
 BHAT.        Rotary Steerable:  BHA Type 
 BREV.rev               300.00:  Rev Bit Total 
 BROT.°/30m              -0.50:  Build Rotating 
 BS  .in                  8.50:  Bit Size 
 BSZ .in                  8.50:  Bit Size 
 BTPL.psig              370.00:  Bit Press Loss 
 CABU.                      No:  Customer Abuse 
 CGEO.      Behruz Shahbaliyev:  Customer Geo 
 COMM.                     LÁp:  Run Comments 1 
 TCS .hr                140.08:  Time Ciculation Ended 
 CV  .mps                 3.00:  Crit Velocity 
 CVMX.mps                 3.20:  Max Crit Veloc 
 DD1 .            Musa Ahmadov:  Direct Drillr 1 
 DD2 .           Hamid Ahmadov:  Direct Drillr 2 
 DDSV.               Geo-Pilot:  DD Service 
 DEFF.%                  98.40:  % Det Eff 
 DLRX.°/30m               3.40:  Dogleg Rot Max 
 DLSO.°/30m               1.45:  Dogleg Oriented 
 DLSX.°/30m               3.40:  Dogleg Str Max 
 DRET.      18.40.00 29-Aug-21:  Drill End Time 
 DRST.      21.00.00 20-Aug-21:  Drill Start Tim 
 DTIM.hr                 69.47:  Time Drilling 
 EDEP.m                5084.50:  End Depth 
 ENG1.      Artemiy Matviyanov:  Engineer 1 
 ENG2.         Almaz Almadatov:  Engineer 2 
 ETIM.      18.40.00 29-Aug-21:  End Time 
 FLOI.gpm               500.00:  Flow In 
 FLON.gpm               400.00:  Flow In Min 
 FLOS.cptm                0.00:  Fluid Loss 
 FLOX.gpm               500.00:  Flow In Max 
 DFT .        Mineral Oil Base:  Mud Type 
 HFLO.                      No:  High Flow 
 HPRE.                      No:  High Pressure 
 HTEM.                      No:  High Temp 
 HYDO.m                   1.80:  Hydro Offset 
 IFIN.deg                25.62:  Inc, Final 
 IMAX.deg                48.69:  Inc Max 
 IMIN.deg                24.01:  Inc Min 
 IMND.m                4962.57:  Inc Min Depth 
 IMXD.m                4119.01:  Inc Max Depth 
 JARR.                      No:  Jarring 
 LETM.      18.40.00 29-Aug-21:  Log End Time 
 LOST.hr                     0:  Lost Rig Time 
 LSTM.      21.00.00 20-Aug-21:  Log Start Time 
 MDCL.ppm             41500.00:  Mud Chlorides 
 MDES.     Inversion Oil/Synthetic:  Mud Desc 
 DFD .sg                  1.56:  Mud Density 
 MDMN.sg                  1.56:  Dens Mud Min 
 MDMX.sg                  1.56:  Dens Mud Max 
 MOIL.                      70:  Run Mud Oil % 
 MOWR.                   70:30:  Run Mud OWR 
 MSND.                     0.2:  Run Mud Sand % 
 MSOL.                    23.3:  Run Mud Solids% 
 DFV .spqt               78.00:  Mud Viscosity 
 MWOD.in                  6.75:  MWD Tool OD 
 MWSI.                      No:  Serv Intrp, MWD 
 OTIM.hr                218.30:  Time Operating 
 PCON.           Look Like New:  Pad Condition 
 PMAX.psia            11015.30:  Press Op, Max 
 PV  .cP                 38.00:  Mud PV 
 RUN .                     300:  Run Number 
 ROPA.m/hr               15.00:  ROP Avg 
 ROPN.m/hr                9.00:  ROP Min 
 ROPX.m/hr               17.00:  ROP Max 
 RPMA.rpm               120.00:  RPM Surface Avg 
 RPMN.rpm                90.00:  RPM Surface Min 
 RPMX.rpm               140.00:  RPM Surface Max 
 RRUN.                     300:  Rig Run Number 
 RTIM.hr                 31.53:  Time Reaming 
 SAZI.deg               331.64:  Azm, Start 
 SDEP.m                4127.00:  Start Depth 
 SIDD.                      No:  Serv Intrp, DD 
 SINC.deg                48.43:  Inc, Start 
 SPPA.psig             5830.00:  SPP Avg 
 SPPN.psig             5600.00:  SPP Min 
 SPPX.psig             5900.00:  SPP Max 
 STIM.      21.00.00 20-Aug-21:  Start Time 
 SVCS.                 DD, MWD:  Services 
 SVER.                    9.20:  Sperry Version 
 TDAT.m                 957.50:  Tot Depth Attmp 
 TDDF.                      No:  Trip for DD 
 TDLG.m                 957.50:  Tot Depth Loggd 
 TFF .                      No:  Trip for Fail 
 TQAA.f-kp               15.00:  Torque Abs Avg 
 TQAN.f-kp               12.00:  Torque Abs Min 
 TQAX.f-kp               19.00:  Torque Abs Max 
 TRRT.°/30m              -3.40:  Turn Rotating 
 MRT .                  EWR-M5:  Maximum Recorded Temperature 
 TTMX.degC              100.00:  Max Tool Temp 
 VS01.                90639251:  Virtual Str1 SN 
 VS02.                90634715:  Virtual Str2 SN 
 VS03.                90652479:  Virtual Str3 SN 
 VS04.                90642262:  Virtual Str4 SN 
 WBMN.klb                 0.00:  WOB Min 
 WITN.           Murad Guliyev:  Customer Rep 
 WITN.          Yashar Gaziyev:  Customer Rep 2 
 WOBA.klb                 9.00:  WOB Avg 
 WOBX.klb                12.00:  WOB Max 
 YP  .lhf2               30.00:  Yield Point 
~Curve Information Block
#MNEM.UNIT                 API CODE     Curve Description
#---------               -----------    ---------------------------
 TIME.HHMMSS            00 000 000 000:  GT Time & Date
 GTDEPTH.m              00 000 000 000:  GT Depth
 GTPQH.psia             00 000 000 000:  GT HR Quartz Pressure
 GTTQ.degC              00 000 000 000:  GT Quartz Temperature
 GTTN.NONE              00 000 000 000:  GT Test Number
 GTET.sec               00 000 000 000:  GT Elapsed Test Time
 GTTVD.m                00 000 000 000:  GT True Vertical Depth
#Other Information
#
#WARRANTY: Halliburton will use its best efforts to furnish customers with 
#accurate information and interpretations that are part of, and incident to, the services 
#provided.  However, Halliburton cannot and does not warrant the accuracy 
#or correctness of such information and interpretations.  Under no circumstances should any 
#such information or interpretation be relied upon as the sole basis for any drilling, 
#completion, production, or financial decision or any procedure involving any risk to the 
#safety of any drilling venture, drilling rig or its crew or any other third party.  The 
#Customer has full responsibility for all drilling, completion and production operation.  
#Halliburton makes no representations or warranties, either expressed or 
#implied, including, but not limited to, the implied warranties of merchantability or fitness 
#for a particular purpose, with respect to the services rendered.  In no event will 
#Halliburton be liable for failure to obtain any particular results or for 
#any damages, including, but not limited to, indirect, special or consequential damages, 
#resulting from the use of any information or interpretation provided by Halliburton.
#
~A           TIME           GTDEPTH  GTPQH  GTTQ  GTTN   GTET   GTTVD  
# ...
   04:16:02.298.28-Aug-2021 4978.00 7972.15 80.42 29.00 339.48 3319.69
   04:16:02.498.28-Aug-2021 4978.00 7972.15 80.42 29.00 339.68 3319.69
   04:16:02.698.28-Aug-2021 4978.00 7972.97 80.42 29.00 339.88 3319.69
   04:16:02.899.28-Aug-2021 4978.00 7972.68 80.42 29.00 340.08 3319.69
   04:16:03.099.28-Aug-2021 4978.00 7972.61 80.42 29.00 340.28 3319.69
   04:16:03.299.28-Aug-2021 4978.00 7972.37 80.42 29.00 340.48 3319.69
   04:16:03.500.28-Aug-2021 4978.00 7972.37 80.42 29.00 340.68 3319.69
   04:16:03.700.28-Aug-2021 4978.00 7972.24 80.42 29.00 340.88 3319.69
   04:16:03.900.28-Aug-2021 4978.00 7975.41 80.42 29.00 341.08 3319.69
   04:16:04.100.28-Aug-2021 4978.00 7973.19 80.42 29.00 341.28 3319.69
   04:16:04.301.28-Aug-2021 4978.00 7971.92 80.42 29.00 341.48 3319.69
   04:16:04.501.28-Aug-2021 4978.00 7971.92 80.42 29.00 341.68 3319.69
   04:16:04.701.28-Aug-2021 4978.00 7977.17 80.42 29.00 341.88 3319.69
   04:16:04.902.28-Aug-2021 4978.00 7970.57 80.42 29.00 342.08 3319.69
   04:16:05.102.28-Aug-2021 4978.00 7972.08 80.42 29.00 342.28 3319.69
   04:16:05.302.28-Aug-2021 4978.00 7971.01 80.42 29.00 342.48 3319.69
   04:16:05.502.28-Aug-2021 4978.00 7971.01 80.42 29.00 342.68 3319.69
   04:16:05.703.28-Aug-2021 4978.00 7970.38 80.42 29.00 342.88 3319.69
   04:16:05.903.28-Aug-2021 4978.00 7973.00 80.42 29.00 343.08 3319.69
   04:16:06.103.28-Aug-2021 4978.00 7971.90 80.42 29.00 343.28 3319.69
   04:16:06.304.28-Aug-2021 4978.00 7971.40 80.42 29.00 343.48 3319.69
   04:16:06.504.28-Aug-2021 4978.00 7971.40 80.42 29.00 343.68 3319.69
   04:16:06.704.28-Aug-2021 4978.00 7973.56 80.42 29.00 343.88 3319.69
   04:16:06.904.28-Aug-2021 4978.00 7972.17 80.42 29.00 344.08 3319.69
   04:16:07.105.28-Aug-2021 4978.00 7971.65 80.42 29.00 344.28 3319.69
   04:16:07.305.28-Aug-2021 4978.00 7971.56 80.42 29.00 344.48 3319.69
   04:16:07.505.28-Aug-2021 4978.00 7971.56 80.42 29.00 344.68 3319.69
   04:16:07.705.28-Aug-2021 4978.00 7972.17 80.42 29.00 344.88 3319.69
   04:16:07.906.28-Aug-2021 4978.00 7971.88 80.42 29.00 345.09 3319.69
   04:16:08.106.28-Aug-2021 4978.00 7971.75 80.42 29.00 345.29 3319.69
   04:16:08.306.28-Aug-2021 4978.00 7971.91 80.42 29.00 345.49 3319.69
   04:16:08.507.28-Aug-2021 4978.00 7971.91 80.42 29.00 345.69 3319.69
   04:16:08.707.28-Aug-2021 4978.00 7972.87 80.42 29.00 345.89 3319.69
   04:16:08.907.28-Aug-2021 4978.00 7972.67 80.42 29.00 346.09 3319.69
   04:16:09.107.28-Aug-2021 4978.00 7972.55 80.42 29.00 346.29 3319.69
   04:16:09.308.28-Aug-2021 4978.00 7972.50 80.42 29.00 346.49 3319.69
   04:16:09.508.28-Aug-2021 4978.00 7972.50 80.42 29.00 346.69 3319.69
   04:16:09.708.28-Aug-2021 4978.00 7977.06 80.42 29.00 346.89 3319.69
   04:16:09.909.28-Aug-2021 4978.00 7972.08 80.42 29.00 347.09 3319.69
   04:16:10.109.28-Aug-2021 4978.00 7972.40 80.42 29.00 347.29 3319.69
   04:16:10.309.28-Aug-2021 4978.00 7972.11 80.42 29.00 347.49 3319.69
   04:16:10.509.28-Aug-2021 4978.00 7972.11 80.42 29.00 347.69 3319.69
   04:16:10.710.28-Aug-2021 4978.00 7972.20 80.42 29.00 347.89 3319.69
   04:16:10.910.28-Aug-2021 4978.00 7971.91 80.42 29.00 348.09 3319.69
   04:16:11.110.28-Aug-2021 4978.00 7971.53 80.42 29.00 348.29 3319.69
   04:16:11.311.28-Aug-2021 4978.00 7971.39 80.42 29.00 348.49 3319.69
   04:16:11.511.28-Aug-2021 4978.00 7971.39 80.42 29.00 348.69 3319.69
   04:16:11.711.28-Aug-2021 4978.00 7972.72 80.42 29.00 348.89 3319.69
   04:16:11.911.28-Aug-2021 4978.00 7973.00 80.42 29.00 349.09 3319.69
   04:16:12.112.28-Aug-2021 4978.00 7972.85 80.42 29.00 349.29 3319.69
   04:16:12.312.28-Aug-2021 4978.00 7972.74 80.42 29.00 349.49 3319.69
   04:16:12.512.28-Aug-2021 4978.00 7972.74 80.42 29.00 349.69 3319.69
   04:16:12.713.28-Aug-2021 4978.00 7972.62 80.42 29.00 349.89 3319.69
   04:16:12.913.28-Aug-2021 4978.00 7972.39 80.42 29.00 350.09 3319.69
   04:16:13.113.28-Aug-2021 4978.00 7977.63 80.42 29.00 350.29 3319.69
   04:16:13.313.28-Aug-2021 4978.00 7970.75 80.42 29.00 350.49 3319.69
   04:16:13.514.28-Aug-2021 4978.00 7970.75 80.42 29.00 350.69 3319.69
   04:16:13.714.28-Aug-2021 4978.00 7971.95 80.42 29.00 350.89 3319.69
   04:16:13.914.28-Aug-2021 4978.00 7972.20 80.42 29.00 351.09 3319.69
   04:16:14.114.28-Aug-2021 4978.00 7975.65 80.42 29.00 351.29 3319.69
   04:16:14.315.28-Aug-2021 4978.00 7973.43 80.42 29.00 351.49 3319.69
   04:16:14.515.28-Aug-2021 4978.00 7973.43 80.42 29.00 351.69 3319.69
   04:16:14.715.28-Aug-2021 4978.00 7971.25 80.42 29.00 351.89 3319.69
   04:16:14.916.28-Aug-2021 4978.00 7975.06 80.42 29.00 352.09 3319.69
   04:16:15.116.28-Aug-2021 4978.00 7974.01 80.42 29.00 352.30 3319.69
   04:16:15.316.28-Aug-2021 4978.00 7972.79 80.42 29.00 352.50 3319.69
   04:16:15.516.28-Aug-2021 4978.00 7972.79 80.42 29.00 352.70 3319.69
   04:16:15.717.28-Aug-2021 4978.00 7977.26 80.42 29.00 352.90 3319.69
   04:16:15.917.28-Aug-2021 4978.00 7970.90 80.42 29.00 353.10 3319.69
   04:16:16.117.28-Aug-2021 4978.00 7973.31 80.42 29.00 353.30 3319.69
   04:16:16.318.28-Aug-2021 4978.00 7972.38 80.42 29.00 353.50 3319.69
   04:16:16.518.28-Aug-2021 4978.00 7972.38 80.42 29.00 353.70 3319.69
   04:16:16.718.28-Aug-2021 4978.00 7972.26 80.42 29.00 353.90 3319.69
   04:16:16.918.28-Aug-2021 4978.00 7972.74 80.42 29.00 354.10 3319.69
   04:16:17.119.28-Aug-2021 4978.00 7972.60 80.42 29.00 354.30 3319.69
   04:16:17.319.28-Aug-2021 4978.00 7971.80 80.42 29.00 354.50 3319.69
   04:16:17.519.28-Aug-2021 4978.00 7971.80 80.42 29.00 354.70 3319.69
   04:16:17.720.28-Aug-2021 4978.00 7974.96 80.42 29.00 354.90 3319.69
   04:16:17.920.28-Aug-2021 4978.00 7973.48 80.42 29.00 355.10 3319.69
   04:16:18.120.28-Aug-2021 4978.00 7973.60 80.42 29.00 355.30 3319.69
   04:16:18.320.28-Aug-2021 4978.00 7974.26 80.42 29.00 355.50 3319.69
   04:16:18.521.28-Aug-2021 4978.00 7974.26 80.42 29.00 355.70 3319.69
   04:16:18.721.28-Aug-2021 4978.00 7973.73 80.42 29.00 355.90 3319.69
   04:16:18.921.28-Aug-2021 4978.00 7975.61 80.42 29.00 356.10 3319.69
   04:16:19.122.28-Aug-2021 4978.00 7974.79 80.42 29.00 356.30 3319.69
   04:16:19.322.28-Aug-2021 4978.00 7974.24 80.42 29.00 356.50 3319.69
   04:16:19.522.28-Aug-2021 4978.00 7974.24 80.42 29.00 356.70 3319.69
   04:16:19.722.28-Aug-2021 4978.00 7973.41 80.42 29.00 356.90 3319.69
   04:16:19.923.28-Aug-2021 4978.00 7973.27 80.42 29.00 357.10 3319.69
   04:16:20.123.28-Aug-2021 4978.00 7973.53 80.42 29.00 357.30 3319.69
   04:16:20.323.28-Aug-2021 4978.00 7972.82 80.42 29.00 357.50 3319.69
   04:16:20.523.28-Aug-2021 4978.00 7972.82 80.42 29.00 357.70 3319.69
   04:16:20.724.28-Aug-2021 4978.00 7972.97 80.42 29.00 357.90 3319.69
   04:16:20.924.28-Aug-2021 4978.00 7973.45 80.42 29.00 358.10 3319.69
   04:16:21.124.28-Aug-2021 4978.00 7974.07 80.42 29.00 358.30 3319.69
   04:16:21.325.28-Aug-2021 4978.00 7973.82 80.42 29.00 358.50 3319.69
   04:16:21.525.28-Aug-2021 4978.00 7973.82 80.42 29.00 358.70 3319.69
   04:16:21.725.28-Aug-2021 4978.00 7973.45 80.42 29.00 358.90 3319.69
   04:16:21.925.28-Aug-2021 4978.00 7973.37 80.42 29.00 359.10 3319.69
   04:16:22.126.28-Aug-2021 4978.00 7973.43 80.42 29.00 359.30 3319.69
   04:16:22.326.28-Aug-2021 4978.00 7973.31 80.42 29.00 359.51 3319.69
   04:16:22.526.28-Aug-2021 4978.00 7973.31 80.42 29.00 359.71 3319.69
   04:16:22.727.28-Aug-2021 4978.00 7974.08 80.42 29.00 359.91 3319.69
   04:16:22.927.28-Aug-2021 4978.00 7973.02 80.42 29.00 360.11 3319.69
   04:16:23.127.28-Aug-2021 4978.00 7972.45 80.42 29.00 360.31 3319.69
   04:16:23.327.28-Aug-2021 4978.00 7977.30 80.42 29.00 360.51 3319.69
   04:16:23.528.28-Aug-2021 4978.00 7977.30 80.42 29.00 360.71 3319.69
   04:16:23.728.28-Aug-2021 4978.00 7972.68 80.42 29.00 360.91 3319.69
   04:16:23.928.28-Aug-2021 4978.00 7971.42 80.42 29.00 361.11 3319.69
   04:16:24.129.28-Aug-2021 4978.00 7977.13 80.42 29.00 361.31 3319.69
   04:16:24.329.28-Aug-2021 4978.00 7970.65 80.42 29.00 361.51 3319.69
   04:16:24.529.28-Aug-2021 4978.00 7970.65 80.42 29.00 361.71 3319.69
   04:16:24.729.28-Aug-2021 4978.00 7972.29 80.42 29.00 361.91 3319.69
