~Version Information
 VERS.                  2.0:   CWLS log ASCII Standard -VERSION 2.0
 WRAP.                   NO:   One line per depth step
~Well Information Block
#MNEM.UNIT     VALUE/NAME     DESCRIPTION
#---------     -----------    ---------------------------
 STRT.S             06:14:43 27-Aug-21: START TIME 06:14:43 27-Aug-21
 STOP.S             06:21:54 27-Aug-21: STOP TIME  06:21:54 27-Aug-21
 STEP.S                   0.00: STEP TIME
 NULL.                 -999.25: NULL VALUE
 DFWT.                        :  DIST FWL TEXT
 DFST.                        :  DIST FSL TEXT
 DMF .             Drill Floor:  DRILL MEAS FROM
 STIM.      20.00.00 17-Aug-21:  START TIME
 DATE.      19.00.00 29-Aug-21:  END TIME
 SPUD.               15-Aug-21:  SPUD DATE
 NREF.                    Grid:  NORTH REFERENCE
 HPTY.       Minimum Curvature:  HOLE POS TYPE
 DMOD.             Drill Model:  DRILL MOD DESC
 SVYD.                  Survey:  SURVEY DESC
 ILTD.               Lithology:  INTERP LTH DESC
 FTOP.          Formation Tops:  FORM TOPS DESC
 RIG .              East Azeri:  RIG NAME
 PDAT.          Mean Sea Level:  PERMANENT DATUM
 FLD .                     ACG:  FIELD NAME
 SON .        AZ-XX-0907180857:  JOB NUMBER
 CTRY.              Azerbaijan:  COUNTRY NAME
 WELL.                    D23x:  WELL NAME
 SRVC.     Turan Drilling and Engineering:  CONTRACTOR
 COMP.     BP Exploration (Caspian Sea) Ltd.:  COMPANY
 UWI .            /AZE00000214:  UNIQUE WELL IDENTIFIER
 API .            /AZE00000214:  API NUMBER
 MDS .        Operator Entered:  MAG DATA SOURCE
 BASE.              Azerbaijan:  LOGGING EQUIPMENT BASE LOCATION
 REGN.                   EESSA:  REGION
 PROV.                    Baku:  PROVINCE
 STAT.                    Baku:  STATE NAME
 MWDS.                    Baku:  MWD SHOP
 DOE .                     N/A:  DOE NUMBER
 DCON.         Sperry Drilling:  DIRECTNL CONTR
 UNIT.                     N/A:  LOGGING EQUIPMENT ID
 WTYP.                Deviated:  WELL TYPE
 CNTY.                        :  COUNTY
 LOC .                        :  LOCATION
 LMF .             Drill Floor:  LOG MEASURED FROM
 TVDS.m                  43.60:  TVDSS CORRECTN
 LATI.deg                40.02:  LATITUDE
 LONG.deg                51.45:  LONGITUDE
 WHNS.m                  -7.04:  WELL HEAD N/S
 WHEW.m                  -0.67:  WELL HEAD E/W
 UTMX.m              538762.90:  UTM X
 UTMY.m             4431871.34:  UTM Y
 DFWL.m                   0.00:  DISTANCE FWL
 DFSL.m                   0.00:  DISTANCE FSL
 SDEP.m                4127.00:  START DEPTH
 TDD .m                5084.50:  TOTAL DEPTH (DRILLER)
 VSDR.deg               140.47:  VERT SEC DIRECT
 GVFD.g                   1.00:  GRAVITY FIELD
 MFLD.nT              50362.00:  MAGNETIC FIELD
 MDIP.deg                59.48:  MAGNETIC DIP
 MDEC.deg                 6.47:  MAGNETIC DECL
 GRDC.deg                 0.31:  GRID CORRECTION
 AZTC.deg                 6.16:  AZM TOTAL CORR
 EPD .m                   0.00:  ELEVATION
 EGL .m                   0.00:  GROUND ELEVATION
 WDMS.m                 151.80:  WD ELEV
 APD .m                  43.60:  DEPTH ABOVE PD
 DEP .m                4092.57:  DEPTH
 AGAP.m                  43.60:  AIR GAP
 VSEW.m                  -0.67:  VERT SEC E/W
 VSNS.m                  -7.04:  VERT SEC N/S
 EKB .m                  43.60:  KB ELEVATION
 EDF .m                  43.60:  DF ELEVATION
 TDL .m                 957.50:  TOTAL DEPTH (LOGGER)
 VSC .                       0:  VS TO CLOSURE
 MAGU.                 1851413:  MAGUTM CHECKSUM
~Parameter Information Block
#MNEM.UNIT       Value        Description
#---------     -----------    ---------------------------
 AV  .mps                 1.50:  Ann Velocity 
 AVMX.mps                 2.00:  Max Ann Veloc 
 AZIF.deg               184.66:  Azm, Final 
 BHAT.        Rotary Steerable:  BHA Type 
 BREV.rev               300.00:  Rev Bit Total 
 BROT.°/30m              -0.50:  Build Rotating 
 BS  .in                  8.50:  Bit Size 
 BSZ .in                  8.50:  Bit Size 
 BTPL.psig              370.00:  Bit Press Loss 
 CABU.                      No:  Customer Abuse 
 CGEO.      Behruz Shahbaliyev:  Customer Geo 
 COMM.                     4V:  Run Comments 1 
 TCS .hr                140.08:  Time Ciculation Ended 
 CV  .mps                 3.00:  Crit Velocity 
 CVMX.mps                 3.20:  Max Crit Veloc 
 DD1 .            Musa Ahmadov:  Direct Drillr 1 
 DD2 .           Hamid Ahmadov:  Direct Drillr 2 
 DDSV.               Geo-Pilot:  DD Service 
 DEFF.%                  98.40:  % Det Eff 
 DLRX.°/30m               3.40:  Dogleg Rot Max 
 DLSO.°/30m               1.45:  Dogleg Oriented 
 DLSX.°/30m               3.40:  Dogleg Str Max 
 DRET.      18.40.00 29-Aug-21:  Drill End Time 
 DRST.      21.00.00 20-Aug-21:  Drill Start Tim 
 DTIM.hr                 69.47:  Time Drilling 
 EDEP.m                5084.50:  End Depth 
 ENG1.      Artemiy Matviyanov:  Engineer 1 
 ENG2.         Almaz Almadatov:  Engineer 2 
 ETIM.      18.40.00 29-Aug-21:  End Time 
 FLOI.gpm               500.00:  Flow In 
 FLON.gpm               400.00:  Flow In Min 
 FLOS.cptm                0.00:  Fluid Loss 
 FLOX.gpm               500.00:  Flow In Max 
 DFT .        Mineral Oil Base:  Mud Type 
 HFLO.                      No:  High Flow 
 HPRE.                      No:  High Pressure 
 HTEM.                      No:  High Temp 
 HYDO.m                   1.80:  Hydro Offset 
 IFIN.deg                25.62:  Inc, Final 
 IMAX.deg                48.69:  Inc Max 
 IMIN.deg                24.01:  Inc Min 
 IMND.m                4962.57:  Inc Min Depth 
 IMXD.m                4119.01:  Inc Max Depth 
 JARR.                      No:  Jarring 
 LETM.      18.40.00 29-Aug-21:  Log End Time 
 LOST.hr                     0:  Lost Rig Time 
 LSTM.      21.00.00 20-Aug-21:  Log Start Time 
 MDCL.ppm             41500.00:  Mud Chlorides 
 MDES.     Inversion Oil/Synthetic:  Mud Desc 
 DFD .sg                  1.56:  Mud Density 
 MDMN.sg                  1.56:  Dens Mud Min 
 MDMX.sg                  1.56:  Dens Mud Max 
 MOIL.                      70:  Run Mud Oil % 
 MOWR.                   70:30:  Run Mud OWR 
 MSND.                     0.2:  Run Mud Sand % 
 MSOL.                    23.3:  Run Mud Solids% 
 DFV .spqt               78.00:  Mud Viscosity 
 MWOD.in                  6.75:  MWD Tool OD 
 MWSI.                      No:  Serv Intrp, MWD 
 OTIM.hr                218.30:  Time Operating 
 PCON.           Look Like New:  Pad Condition 
 PMAX.psia            11015.30:  Press Op, Max 
 PV  .cP                 38.00:  Mud PV 
 RUN .                     300:  Run Number 
 ROPA.m/hr               15.00:  ROP Avg 
 ROPN.m/hr                9.00:  ROP Min 
 ROPX.m/hr               17.00:  ROP Max 
 RPMA.rpm               120.00:  RPM Surface Avg 
 RPMN.rpm                90.00:  RPM Surface Min 
 RPMX.rpm               140.00:  RPM Surface Max 
 RRUN.                     300:  Rig Run Number 
 RTIM.hr                 31.53:  Time Reaming 
 SAZI.deg               331.64:  Azm, Start 
 SDEP.m                4127.00:  Start Depth 
 SIDD.                      No:  Serv Intrp, DD 
 SINC.deg                48.43:  Inc, Start 
 SPPA.psig             5830.00:  SPP Avg 
 SPPN.psig             5600.00:  SPP Min 
 SPPX.psig             5900.00:  SPP Max 
 STIM.      21.00.00 20-Aug-21:  Start Time 
 SVCS.                 DD, MWD:  Services 
 SVER.                    9.20:  Sperry Version 
 TDAT.m                 957.50:  Tot Depth Attmp 
 TDDF.                      No:  Trip for DD 
 TDLG.m                 957.50:  Tot Depth Loggd 
 TFF .                      No:  Trip for Fail 
 TQAA.f-kp               15.00:  Torque Abs Avg 
 TQAN.f-kp               12.00:  Torque Abs Min 
 TQAX.f-kp               19.00:  Torque Abs Max 
 TRRT.°/30m              -3.40:  Turn Rotating 
 MRT .                  EWR-M5:  Maximum Recorded Temperature 
 TTMX.degC              100.00:  Max Tool Temp 
 VS01.                90639251:  Virtual Str1 SN 
 VS02.                90634715:  Virtual Str2 SN 
 VS03.                90652479:  Virtual Str3 SN 
 VS04.                90642262:  Virtual Str4 SN 
 WBMN.klb                 0.00:  WOB Min 
 WITN.           Murad Guliyev:  Customer Rep 
 WITN.          Yashar Gaziyev:  Customer Rep 2 
 WOBA.klb                 9.00:  WOB Avg 
 WOBX.klb                12.00:  WOB Max 
 YP  .lhf2               30.00:  Yield Point 
~Curve Information Block
#MNEM.UNIT                 API CODE     Curve Description
#---------               -----------    ---------------------------
 TIME.HHMMSS            00 000 000 000:  GT Time & Date
 GTDEPTH.m              00 000 000 000:  GT Depth
 GTPQH.psia             00 000 000 000:  GT HR Quartz Pressure
 GTTQ.degC              00 000 000 000:  GT Quartz Temperature
 GTTN.NONE              00 000 000 000:  GT Test Number
 GTET.sec               00 000 000 000:  GT Elapsed Test Time
 GTTVD.m                00 000 000 000:  GT True Vertical Depth
#Other Information
#
#WARRANTY: Halliburton will use its best efforts to furnish customers with 
#accurate information and interpretations that are part of, and incident to, the services 
#provided.  However, Halliburton cannot and does not warrant the accuracy 
#or correctness of such information and interpretations.  Under no circumstances should any 
#such information or interpretation be relied upon as the sole basis for any drilling, 
#completion, production, or financial decision or any procedure involving any risk to the 
#safety of any drilling venture, drilling rig or its crew or any other third party.  The 
#Customer has full responsibility for all drilling, completion and production operation.  
#Halliburton makes no representations or warranties, either expressed or 
#implied, including, but not limited to, the implied warranties of merchantability or fitness 
#for a particular purpose, with respect to the services rendered.  In no event will 
#Halliburton be liable for failure to obtain any particular results or for 
#any damages, including, but not limited to, indirect, special or consequential damages, 
#resulting from the use of any information or interpretation provided by Halliburton.
#
~A           TIME           GTDEPTH  GTPQH  GTTQ  GTTN  GTET   GTTVD  
# ...
   06:19:42.671.27-Aug-2021 5020.50 8000.77 88.14 2.00 299.05 3358.11
   06:19:42.872.27-Aug-2021 5020.50 8000.77 88.14 2.00 299.25 3358.11
   06:19:43.072.27-Aug-2021 5020.50 8002.14 88.14 2.00 299.45 3358.11
   06:19:43.272.27-Aug-2021 5020.50 8002.33 88.14 2.00 299.65 3358.11
   06:19:43.472.27-Aug-2021 5020.50 8001.89 88.14 2.00 299.85 3358.11
   06:19:43.672.27-Aug-2021 5020.50 8001.72 88.14 2.00 300.05 3358.11
   06:19:43.872.27-Aug-2021 5020.50 8001.72 88.14 2.00 300.25 3358.11
   06:19:44.072.27-Aug-2021 5020.50 8007.33 88.14 2.00 300.45 3358.11
   06:19:44.272.27-Aug-2021 5020.50 8001.08 88.14 2.00 300.65 3358.11
   06:19:44.472.27-Aug-2021 5020.50 8000.52 88.14 2.00 300.85 3358.11
   06:19:44.672.27-Aug-2021 5020.50 8001.16 88.14 2.00 301.05 3358.11
   06:19:44.872.27-Aug-2021 5020.50 8001.16 88.14 2.00 301.25 3358.11
   06:19:45.072.27-Aug-2021 5020.50 8001.08 88.14 2.00 301.45 3358.11
   06:19:45.272.27-Aug-2021 5020.50 8000.65 88.14 2.00 301.65 3358.11
   06:19:45.472.27-Aug-2021 5020.50 8000.66 88.14 2.00 301.85 3358.11
   06:19:45.672.27-Aug-2021 5020.50 8000.56 88.14 2.00 302.05 3358.11
   06:19:45.872.27-Aug-2021 5020.50 8000.56 88.14 2.00 302.25 3358.11
   06:19:46.072.27-Aug-2021 5020.50 8001.63 88.14 2.00 302.45 3358.11
   06:19:46.272.27-Aug-2021 5020.50 8002.23 88.14 2.00 302.65 3358.11
   06:19:46.472.27-Aug-2021 5020.50 8002.57 88.14 2.00 302.85 3358.11
   06:19:46.672.27-Aug-2021 5020.50 8001.94 88.14 2.00 303.05 3358.11
   06:19:46.872.27-Aug-2021 5020.50 8001.94 88.14 2.00 303.25 3358.11
   06:19:47.072.27-Aug-2021 5020.50 8001.47 88.14 2.00 303.45 3358.11
   06:19:47.272.27-Aug-2021 5020.50 8001.46 88.14 2.00 303.65 3358.11
   06:19:47.472.27-Aug-2021 5020.50 8009.27 88.14 2.00 303.85 3358.11
   06:19:47.672.27-Aug-2021 5020.50 7999.15 88.14 2.00 304.05 3358.11
   06:19:47.872.27-Aug-2021 5020.50 7999.15 88.14 2.00 304.25 3358.11
   06:19:48.072.27-Aug-2021 5020.50 8000.40 88.14 2.00 304.45 3358.11
   06:19:48.272.27-Aug-2021 5020.50 8004.52 88.14 2.00 304.65 3358.11
   06:19:48.472.27-Aug-2021 5020.50 8002.49 88.14 2.00 304.85 3358.11
   06:19:48.672.27-Aug-2021 5020.50 8000.99 88.14 2.00 305.05 3358.11
   06:19:48.872.27-Aug-2021 5020.50 8000.99 88.14 2.00 305.25 3358.11
   06:19:49.073.27-Aug-2021 5020.50 8000.38 88.14 2.00 305.45 3358.11
   06:19:49.273.27-Aug-2021 5020.50 8004.07 88.14 2.00 305.65 3358.11
   06:19:49.473.27-Aug-2021 5020.50 8001.99 88.14 2.00 305.85 3358.11
   06:19:49.673.27-Aug-2021 5020.50 8002.70 88.14 2.00 306.05 3358.11
   06:19:49.873.27-Aug-2021 5020.50 8002.70 88.14 2.00 306.25 3358.11
   06:19:50.073.27-Aug-2021 5020.50 8000.92 88.14 2.00 306.45 3358.11
   06:19:50.273.27-Aug-2021 5020.50 8003.68 88.14 2.00 306.65 3358.11
   06:19:50.473.27-Aug-2021 5020.50 8003.65 88.14 2.00 306.85 3358.11
   06:19:50.673.27-Aug-2021 5020.50 8001.00 88.14 2.00 307.05 3358.11
   06:19:50.873.27-Aug-2021 5020.50 8001.00 88.14 2.00 307.25 3358.11
   06:19:51.073.27-Aug-2021 5020.50 8000.58 88.14 2.00 307.45 3358.11
   06:19:51.273.27-Aug-2021 5020.50 8000.92 88.14 2.00 307.65 3358.11
   06:19:51.473.27-Aug-2021 5020.50 8001.07 88.14 2.00 307.85 3358.11
   06:19:51.673.27-Aug-2021 5020.50 8001.03 88.14 2.00 308.05 3358.11
   06:19:51.873.27-Aug-2021 5020.50 8001.03 88.14 2.00 308.25 3358.11
   06:19:52.073.27-Aug-2021 5020.50 8000.96 88.14 2.00 308.45 3358.11
   06:19:52.273.27-Aug-2021 5020.50 8001.93 88.14 2.00 308.65 3358.11
   06:19:52.473.27-Aug-2021 5020.50 8002.30 88.14 2.00 308.85 3358.11
   06:19:52.673.27-Aug-2021 5020.50 8001.97 88.14 2.00 309.05 3358.11
   06:19:52.873.27-Aug-2021 5020.50 8001.97 88.14 2.00 309.25 3358.11
   06:19:53.073.27-Aug-2021 5020.50 8001.43 88.14 2.00 309.45 3358.11
   06:19:53.273.27-Aug-2021 5020.50 8001.62 88.14 2.00 309.65 3358.11
   06:19:53.473.27-Aug-2021 5020.50 8004.82 88.14 2.00 309.85 3358.11
   06:19:53.673.27-Aug-2021 5020.50 8003.55 88.14 2.00 310.05 3358.11
   06:19:53.873.27-Aug-2021 5020.50 8003.55 88.14 2.00 310.25 3358.11
   06:19:54.073.27-Aug-2021 5020.50 8001.23 88.14 2.00 310.45 3358.11
   06:19:54.273.27-Aug-2021 5020.50 8000.95 88.14 2.00 310.65 3358.11
   06:19:54.473.27-Aug-2021 5020.50 8001.20 88.14 2.00 310.85 3358.11
   06:19:54.673.27-Aug-2021 5020.50 8000.84 88.14 2.00 311.05 3358.11
   06:19:54.873.27-Aug-2021 5020.50 8000.84 88.14 2.00 311.25 3358.11
   06:19:55.074.27-Aug-2021 5020.50 8000.99 88.14 2.00 311.45 3358.11
   06:19:55.274.27-Aug-2021 5020.50 8000.92 88.14 2.00 311.65 3358.11
   06:19:55.474.27-Aug-2021 5020.50 8002.10 88.14 2.00 311.85 3358.11
   06:19:55.674.27-Aug-2021 5020.50 8002.65 88.14 2.00 312.05 3358.11
   06:19:55.874.27-Aug-2021 5020.50 8002.65 88.14 2.00 312.25 3358.11
   06:19:56.074.27-Aug-2021 5020.50 8002.55 88.14 2.00 312.45 3358.11
   06:19:56.274.27-Aug-2021 5020.50 8002.03 88.14 2.00 312.65 3358.11
   06:19:56.474.27-Aug-2021 5020.50 8002.22 88.14 2.00 312.85 3358.11
   06:19:56.674.27-Aug-2021 5020.50 8001.64 88.14 2.00 313.05 3358.11
   06:19:56.874.27-Aug-2021 5020.50 8001.64 88.14 2.00 313.25 3358.11
   06:19:57.074.27-Aug-2021 5020.50 8000.92 88.14 2.00 313.45 3358.11
   06:19:57.274.27-Aug-2021 5020.50 8000.84 88.14 2.00 313.65 3358.11
   06:19:57.474.27-Aug-2021 5020.50 8004.11 88.14 2.00 313.85 3358.11
   06:19:57.674.27-Aug-2021 5020.50 8002.45 88.14 2.00 314.05 3358.11
   06:19:57.874.27-Aug-2021 5020.50 8002.45 88.14 2.00 314.25 3358.11
   06:19:58.074.27-Aug-2021 5020.50 8002.27 88.14 2.00 314.45 3358.11
   06:19:58.274.27-Aug-2021 5020.50 8000.75 88.13 2.00 314.65 3358.11
   06:19:58.474.27-Aug-2021 5020.50 7999.92 88.13 2.00 314.85 3358.11
   06:19:58.674.27-Aug-2021 5020.50 8008.49 88.14 2.00 315.05 3358.11
   06:19:58.874.27-Aug-2021 5020.50 8008.49 88.14 2.00 315.25 3358.11
   06:19:59.074.27-Aug-2021 5020.50 8001.47 88.13 2.00 315.45 3358.11
   06:19:59.274.27-Aug-2021 5020.50 8001.23 88.13 2.00 315.65 3358.11
   06:19:59.474.27-Aug-2021 5020.50 8008.98 88.13 2.00 315.85 3358.11
   06:19:59.674.27-Aug-2021 5020.50 8000.37 88.13 2.00 316.05 3358.11
   06:19:59.874.27-Aug-2021 5020.50 8000.37 88.13 2.00 316.25 3358.11
   06:20:00.074.27-Aug-2021 5020.50 8001.43 88.13 2.00 316.45 3358.11
   06:20:00.274.27-Aug-2021 5020.50 8001.04 88.13 2.00 316.65 3358.11
   06:20:00.474.27-Aug-2021 5020.50 8000.63 88.13 2.00 316.85 3358.11
   06:20:00.674.27-Aug-2021 5020.50 8001.16 88.13 2.00 317.05 3358.11
   06:20:00.874.27-Aug-2021 5020.50 8001.16 88.13 2.00 317.25 3358.11
   06:20:01.075.27-Aug-2021 5020.50 8001.24 88.13 2.00 317.45 3358.11
   06:20:01.275.27-Aug-2021 5020.50 8000.58 88.13 2.00 317.65 3358.11
   06:20:01.475.27-Aug-2021 5020.50 8001.39 88.13 2.00 317.85 3358.11
   06:20:01.675.27-Aug-2021 5020.50 8001.81 88.13 2.00 318.05 3358.11
   06:20:01.875.27-Aug-2021 5020.50 8001.81 88.13 2.00 318.25 3358.11
   06:20:02.075.27-Aug-2021 5020.50 8002.43 88.13 2.00 318.45 3358.11
   06:20:02.275.27-Aug-2021 5020.50 8002.15 88.13 2.00 318.65 3358.11
   06:20:02.475.27-Aug-2021 5020.50 8001.77 88.13 2.00 318.85 3358.11
   06:20:02.675.27-Aug-2021 5020.50 8004.47 88.13 2.00 319.05 3358.11
   06:20:02.875.27-Aug-2021 5020.50 8004.47 88.13 2.00 319.25 3358.11
   06:20:03.075.27-Aug-2021 5020.50 8002.31 88.13 2.00 319.45 3358.11
   06:20:03.275.27-Aug-2021 5020.50 8001.31 88.13 2.00 319.65 3358.11
   06:20:03.475.27-Aug-2021 5020.50 8000.99 88.13 2.00 319.85 3358.11
   06:20:03.675.27-Aug-2021 5020.50 8000.96 88.13 2.00 320.05 3358.11
   06:20:03.875.27-Aug-2021 5020.50 8000.96 88.13 2.00 320.25 3358.11
   06:20:04.075.27-Aug-2021 5020.50 8000.62 88.13 2.00 320.45 3358.11
   06:20:04.275.27-Aug-2021 5020.50 8001.00 88.13 2.00 320.65 3358.11
   06:20:04.475.27-Aug-2021 5020.50 8000.60 88.13 2.00 320.85 3358.11
   06:20:04.675.27-Aug-2021 5020.50 8001.26 88.13 2.00 321.05 3358.11
   06:20:04.875.27-Aug-2021 5020.50 8001.26 88.13 2.00 321.25 3358.11
   06:20:05.075.27-Aug-2021 5020.50 8002.85 88.13 2.00 321.45 3358.11
   06:20:05.275.27-Aug-2021 5020.50 8002.22 88.13 2.00 321.65 3358.11
   06:20:05.475.27-Aug-2021 5020.50 8002.14 88.13 2.00 321.85 3358.11
