~Version Information
 VERS.                  2.0:   CWLS log ASCII Standard -VERSION 2.0
 WRAP.                   NO:   One line per depth step
~Well Information Block
#MNEM.UNIT     VALUE/NAME     DESCRIPTION
#---------     -----------    ---------------------------
 STRT.S             21:24:04 27-Aug-21: START TIME 21:24:04 27-Aug-21
 STOP.S             21:30:54 27-Aug-21: STOP TIME  21:30:54 27-Aug-21
 STEP.S                   0.00: STEP TIME
 NULL.                 -999.25: NULL VALUE
 DFWT.                        :  DIST FWL TEXT
 DFST.                        :  DIST FSL TEXT
 DMF .             Drill Floor:  DRILL MEAS FROM
 STIM.      20.00.00 17-Aug-21:  START TIME
 DATE.      19.00.00 29-Aug-21:  END TIME
 SPUD.               15-Aug-21:  SPUD DATE
 NREF.                    Grid:  NORTH REFERENCE
 HPTY.       Minimum Curvature:  HOLE POS TYPE
 DMOD.             Drill Model:  DRILL MOD DESC
 SVYD.                  Survey:  SURVEY DESC
 ILTD.               Lithology:  INTERP LTH DESC
 FTOP.          Formation Tops:  FORM TOPS DESC
 RIG .              East Azeri:  RIG NAME
 PDAT.          Mean Sea Level:  PERMANENT DATUM
 FLD .                     ACG:  FIELD NAME
 SON .        AZ-XX-0907180857:  JOB NUMBER
 CTRY.              Azerbaijan:  COUNTRY NAME
 WELL.                    D23x:  WELL NAME
 SRVC.     Turan Drilling and Engineering:  CONTRACTOR
 COMP.     BP Exploration (Caspian Sea) Ltd.:  COMPANY
 UWI .            /AZE00000214:  UNIQUE WELL IDENTIFIER
 API .            /AZE00000214:  API NUMBER
 MDS .        Operator Entered:  MAG DATA SOURCE
 BASE.              Azerbaijan:  LOGGING EQUIPMENT BASE LOCATION
 REGN.                   EESSA:  REGION
 PROV.                    Baku:  PROVINCE
 STAT.                    Baku:  STATE NAME
 MWDS.                    Baku:  MWD SHOP
 DOE .                     N/A:  DOE NUMBER
 DCON.         Sperry Drilling:  DIRECTNL CONTR
 UNIT.                     N/A:  LOGGING EQUIPMENT ID
 WTYP.                Deviated:  WELL TYPE
 CNTY.                        :  COUNTY
 LOC .                        :  LOCATION
 LMF .             Drill Floor:  LOG MEASURED FROM
 TVDS.m                  43.60:  TVDSS CORRECTN
 LATI.deg                40.02:  LATITUDE
 LONG.deg                51.45:  LONGITUDE
 WHNS.m                  -7.04:  WELL HEAD N/S
 WHEW.m                  -0.67:  WELL HEAD E/W
 UTMX.m              538762.90:  UTM X
 UTMY.m             4431871.34:  UTM Y
 DFWL.m                   0.00:  DISTANCE FWL
 DFSL.m                   0.00:  DISTANCE FSL
 SDEP.m                4127.00:  START DEPTH
 TDD .m                5084.50:  TOTAL DEPTH (DRILLER)
 VSDR.deg               140.47:  VERT SEC DIRECT
 GVFD.g                   1.00:  GRAVITY FIELD
 MFLD.nT              50362.00:  MAGNETIC FIELD
 MDIP.deg                59.48:  MAGNETIC DIP
 MDEC.deg                 6.47:  MAGNETIC DECL
 GRDC.deg                 0.31:  GRID CORRECTION
 AZTC.deg                 6.16:  AZM TOTAL CORR
 EPD .m                   0.00:  ELEVATION
 EGL .m                   0.00:  GROUND ELEVATION
 WDMS.m                 151.80:  WD ELEV
 APD .m                  43.60:  DEPTH ABOVE PD
 DEP .m                4092.57:  DEPTH
 AGAP.m                  43.60:  AIR GAP
 VSEW.m                  -0.67:  VERT SEC E/W
 VSNS.m                  -7.04:  VERT SEC N/S
 EKB .m                  43.60:  KB ELEVATION
 EDF .m                  43.60:  DF ELEVATION
 TDL .m                 957.50:  TOTAL DEPTH (LOGGER)
 VSC .                       0:  VS TO CLOSURE
 MAGU.                 1851413:  MAGUTM CHECKSUM
~Parameter Information Block
#MNEM.UNIT       Value        Description
#---------     -----------    ---------------------------
 AV  .mps                 1.50:  Ann Velocity 
 AVMX.mps                 2.00:  Max Ann Veloc 
 AZIF.deg               184.66:  Azm, Final 
 BHAT.        Rotary Steerable:  BHA Type 
 BREV.rev               300.00:  Rev Bit Total 
 BROT.°/30m              -0.50:  Build Rotating 
 BS  .in                  8.50:  Bit Size 
 BSZ .in                  8.50:  Bit Size 
 BTPL.psig              370.00:  Bit Press Loss 
 CABU.                      No:  Customer Abuse 
 CGEO.      Behruz Shahbaliyev:  Customer Geo 
 COMM.                     tºv:  Run Comments 1 
 TCS .hr                140.08:  Time Ciculation Ended 
 CV  .mps                 3.00:  Crit Velocity 
 CVMX.mps                 3.20:  Max Crit Veloc 
 DD1 .            Musa Ahmadov:  Direct Drillr 1 
 DD2 .           Hamid Ahmadov:  Direct Drillr 2 
 DDSV.               Geo-Pilot:  DD Service 
 DEFF.%                  98.40:  % Det Eff 
 DLRX.°/30m               3.40:  Dogleg Rot Max 
 DLSO.°/30m               1.45:  Dogleg Oriented 
 DLSX.°/30m               3.40:  Dogleg Str Max 
 DRET.      18.40.00 29-Aug-21:  Drill End Time 
 DRST.      21.00.00 20-Aug-21:  Drill Start Tim 
 DTIM.hr                 69.47:  Time Drilling 
 EDEP.m                5084.50:  End Depth 
 ENG1.      Artemiy Matviyanov:  Engineer 1 
 ENG2.         Almaz Almadatov:  Engineer 2 
 ETIM.      18.40.00 29-Aug-21:  End Time 
 FLOI.gpm               500.00:  Flow In 
 FLON.gpm               400.00:  Flow In Min 
 FLOS.cptm                0.00:  Fluid Loss 
 FLOX.gpm               500.00:  Flow In Max 
 DFT .        Mineral Oil Base:  Mud Type 
 HFLO.                      No:  High Flow 
 HPRE.                      No:  High Pressure 
 HTEM.                      No:  High Temp 
 HYDO.m                   1.80:  Hydro Offset 
 IFIN.deg                25.62:  Inc, Final 
 IMAX.deg                48.69:  Inc Max 
 IMIN.deg                24.01:  Inc Min 
 IMND.m                4962.57:  Inc Min Depth 
 IMXD.m                4119.01:  Inc Max Depth 
 JARR.                      No:  Jarring 
 LETM.      18.40.00 29-Aug-21:  Log End Time 
 LOST.hr                     0:  Lost Rig Time 
 LSTM.      21.00.00 20-Aug-21:  Log Start Time 
 MDCL.ppm             41500.00:  Mud Chlorides 
 MDES.     Inversion Oil/Synthetic:  Mud Desc 
 DFD .sg                  1.56:  Mud Density 
 MDMN.sg                  1.56:  Dens Mud Min 
 MDMX.sg                  1.56:  Dens Mud Max 
 MOIL.                      70:  Run Mud Oil % 
 MOWR.                   70:30:  Run Mud OWR 
 MSND.                     0.2:  Run Mud Sand % 
 MSOL.                    23.3:  Run Mud Solids% 
 DFV .spqt               78.00:  Mud Viscosity 
 MWOD.in                  6.75:  MWD Tool OD 
 MWSI.                      No:  Serv Intrp, MWD 
 OTIM.hr                218.30:  Time Operating 
 PCON.           Look Like New:  Pad Condition 
 PMAX.psia            11015.30:  Press Op, Max 
 PV  .cP                 38.00:  Mud PV 
 RUN .                     300:  Run Number 
 ROPA.m/hr               15.00:  ROP Avg 
 ROPN.m/hr                9.00:  ROP Min 
 ROPX.m/hr               17.00:  ROP Max 
 RPMA.rpm               120.00:  RPM Surface Avg 
 RPMN.rpm                90.00:  RPM Surface Min 
 RPMX.rpm               140.00:  RPM Surface Max 
 RRUN.                     300:  Rig Run Number 
 RTIM.hr                 31.53:  Time Reaming 
 SAZI.deg               331.64:  Azm, Start 
 SDEP.m                4127.00:  Start Depth 
 SIDD.                      No:  Serv Intrp, DD 
 SINC.deg                48.43:  Inc, Start 
 SPPA.psig             5830.00:  SPP Avg 
 SPPN.psig             5600.00:  SPP Min 
 SPPX.psig             5900.00:  SPP Max 
 STIM.      21.00.00 20-Aug-21:  Start Time 
 SVCS.                 DD, MWD:  Services 
 SVER.                    9.20:  Sperry Version 
 TDAT.m                 957.50:  Tot Depth Attmp 
 TDDF.                      No:  Trip for DD 
 TDLG.m                 957.50:  Tot Depth Loggd 
 TFF .                      No:  Trip for Fail 
 TQAA.f-kp               15.00:  Torque Abs Avg 
 TQAN.f-kp               12.00:  Torque Abs Min 
 TQAX.f-kp               19.00:  Torque Abs Max 
 TRRT.°/30m              -3.40:  Turn Rotating 
 MRT .                  EWR-M5:  Maximum Recorded Temperature 
 TTMX.degC              100.00:  Max Tool Temp 
 VS01.                90639251:  Virtual Str1 SN 
 VS02.                90634715:  Virtual Str2 SN 
 VS03.                90652479:  Virtual Str3 SN 
 VS04.                90642262:  Virtual Str4 SN 
 WBMN.klb                 0.00:  WOB Min 
 WITN.           Murad Guliyev:  Customer Rep 
 WITN.          Yashar Gaziyev:  Customer Rep 2 
 WOBA.klb                 9.00:  WOB Avg 
 WOBX.klb                12.00:  WOB Max 
 YP  .lhf2               30.00:  Yield Point 
~Curve Information Block
#MNEM.UNIT                 API CODE     Curve Description
#---------               -----------    ---------------------------
 TIME.HHMMSS            00 000 000 000:  GT Time & Date
 GTDEPTH.m              00 000 000 000:  GT Depth
 GTPQH.psia             00 000 000 000:  GT HR Quartz Pressure
 GTTQ.degC              00 000 000 000:  GT Quartz Temperature
 GTTN.NONE              00 000 000 000:  GT Test Number
 GTET.sec               00 000 000 000:  GT Elapsed Test Time
 GTTVD.m                00 000 000 000:  GT True Vertical Depth
#Other Information
#
#WARRANTY: Halliburton will use its best efforts to furnish customers with 
#accurate information and interpretations that are part of, and incident to, the services 
#provided.  However, Halliburton cannot and does not warrant the accuracy 
#or correctness of such information and interpretations.  Under no circumstances should any 
#such information or interpretation be relied upon as the sole basis for any drilling, 
#completion, production, or financial decision or any procedure involving any risk to the 
#safety of any drilling venture, drilling rig or its crew or any other third party.  The 
#Customer has full responsibility for all drilling, completion and production operation.  
#Halliburton makes no representations or warranties, either expressed or 
#implied, including, but not limited to, the implied warranties of merchantability or fitness 
#for a particular purpose, with respect to the services rendered.  In no event will 
#Halliburton be liable for failure to obtain any particular results or for 
#any damages, including, but not limited to, indirect, special or consequential damages, 
#resulting from the use of any information or interpretation provided by Halliburton.
#
~A           TIME           GTDEPTH  GTPQH  GTTQ  GTTN   GTET   GTTVD  
# ...
   21:29:43.287.27-Aug-2021 4641.00 1233.07 82.45 23.00 339.03 3014.10
   21:29:43.487.27-Aug-2021 4641.00 1233.07 82.45 23.00 339.23 3014.10
   21:29:43.687.27-Aug-2021 4641.00 1232.83 82.45 23.00 339.43 3014.10
   21:29:43.887.27-Aug-2021 4641.00 1232.46 82.45 23.00 339.63 3014.10
   21:29:44.087.27-Aug-2021 4641.00 1232.70 82.45 23.00 339.83 3014.10
   21:29:44.287.27-Aug-2021 4641.00 1232.75 82.45 23.00 340.03 3014.10
   21:29:44.487.27-Aug-2021 4641.00 1232.75 82.45 23.00 340.23 3014.10
   21:29:44.687.27-Aug-2021 4641.00 1232.92 82.45 23.00 340.43 3014.10
   21:29:44.887.27-Aug-2021 4641.00 1232.32 82.45 23.00 340.63 3014.10
   21:29:45.087.27-Aug-2021 4641.00 1233.03 82.45 23.00 340.83 3014.10
   21:29:45.287.27-Aug-2021 4641.00 1233.11 82.45 23.00 341.03 3014.10
   21:29:45.487.27-Aug-2021 4641.00 1233.11 82.45 23.00 341.23 3014.10
   21:29:45.687.27-Aug-2021 4641.00 1233.22 82.45 23.00 341.43 3014.10
   21:29:45.887.27-Aug-2021 4641.00 1233.34 82.45 23.00 341.63 3014.10
   21:29:46.087.27-Aug-2021 4641.00 1233.39 82.45 23.00 341.83 3014.10
   21:29:46.287.27-Aug-2021 4641.00 1233.45 82.45 23.00 342.03 3014.10
   21:29:46.487.27-Aug-2021 4641.00 1233.45 82.45 23.00 342.23 3014.10
   21:29:46.687.27-Aug-2021 4641.00 1233.59 82.45 23.00 342.44 3014.10
   21:29:46.887.27-Aug-2021 4641.00 1233.66 82.45 23.00 342.64 3014.10
   21:29:47.087.27-Aug-2021 4641.00 1233.73 82.45 23.00 342.84 3014.10
   21:29:47.287.27-Aug-2021 4641.00 1233.79 82.45 23.00 343.04 3014.10
   21:29:47.487.27-Aug-2021 4641.00 1233.79 82.45 23.00 343.24 3014.10
   21:29:47.687.27-Aug-2021 4641.00 1233.95 82.45 23.00 343.44 3014.10
   21:29:47.887.27-Aug-2021 4641.00 1233.31 82.45 23.00 343.64 3014.10
   21:29:48.087.27-Aug-2021 4641.00 1234.41 82.45 23.00 343.84 3014.10
   21:29:48.287.27-Aug-2021 4641.00 1234.33 82.45 23.00 344.04 3014.10
   21:29:48.487.27-Aug-2021 4641.00 1234.33 82.45 23.00 344.24 3014.10
   21:29:48.687.27-Aug-2021 4641.00 1234.45 82.45 23.00 344.44 3014.10
   21:29:48.887.27-Aug-2021 4641.00 1234.51 82.45 23.00 344.64 3014.10
   21:29:49.087.27-Aug-2021 4641.00 1234.58 82.45 23.00 344.84 3014.10
   21:29:49.287.27-Aug-2021 4641.00 1234.64 82.45 23.00 345.04 3014.10
   21:29:49.487.27-Aug-2021 4641.00 1234.64 82.45 23.00 345.24 3014.10
   21:29:49.687.27-Aug-2021 4641.00 1234.76 82.45 23.00 345.44 3014.10
   21:29:49.887.27-Aug-2021 4641.00 1234.82 82.45 23.00 345.64 3014.10
   21:29:50.087.27-Aug-2021 4641.00 1234.91 82.45 23.00 345.84 3014.10
   21:29:50.287.27-Aug-2021 4641.00 1234.97 82.45 23.00 346.04 3014.10
   21:29:50.487.27-Aug-2021 4641.00 1234.97 82.45 23.00 346.24 3014.10
   21:29:50.687.27-Aug-2021 4641.00 1235.11 82.45 23.00 346.44 3014.10
   21:29:50.887.27-Aug-2021 4641.00 1235.19 82.45 23.00 346.64 3014.10
   21:29:51.087.27-Aug-2021 4641.00 1234.59 82.45 23.00 346.84 3014.10
   21:29:51.287.27-Aug-2021 4641.00 1235.71 82.45 23.00 347.04 3014.10
   21:29:51.487.27-Aug-2021 4641.00 1235.71 82.45 23.00 347.24 3014.10
   21:29:51.687.27-Aug-2021 4641.00 1235.70 82.45 23.00 347.44 3014.10
   21:29:51.887.27-Aug-2021 4641.00 1235.77 82.45 23.00 347.64 3014.10
   21:29:52.087.27-Aug-2021 4641.00 1235.85 82.45 23.00 347.84 3014.10
   21:29:52.288.27-Aug-2021 4641.00 1235.52 82.45 23.00 348.04 3014.10
   21:29:52.488.27-Aug-2021 4641.00 1235.52 82.45 23.00 348.24 3014.10
   21:29:52.688.27-Aug-2021 4641.00 1236.11 82.45 23.00 348.44 3014.10
   21:29:52.888.27-Aug-2021 4641.00 1236.15 82.45 23.00 348.64 3014.10
   21:29:53.088.27-Aug-2021 4641.00 1236.20 82.45 23.00 348.84 3014.10
   21:29:53.288.27-Aug-2021 4641.00 1236.27 82.45 23.00 349.04 3014.10
   21:29:53.488.27-Aug-2021 4641.00 1236.27 82.45 23.00 349.24 3014.10
   21:29:53.688.27-Aug-2021 4641.00 1235.57 82.45 23.00 349.44 3014.10
   21:29:53.888.27-Aug-2021 4641.00 1236.16 82.45 23.00 349.64 3014.10
   21:29:54.088.27-Aug-2021 4641.00 1236.23 82.45 23.00 349.84 3014.10
   21:29:54.288.27-Aug-2021 4641.00 1235.89 82.45 23.00 350.04 3014.10
   21:29:54.488.27-Aug-2021 4641.00 1235.89 82.45 23.00 350.24 3014.10
   21:29:54.688.27-Aug-2021 4641.00 1236.43 82.45 23.00 350.44 3014.10
   21:29:54.888.27-Aug-2021 4641.00 1236.45 82.45 23.00 350.64 3014.10
   21:29:55.088.27-Aug-2021 4641.00 1236.50 82.45 23.00 350.84 3014.10
   21:29:55.288.27-Aug-2021 4641.00 1236.58 82.45 23.00 351.04 3014.10
   21:29:55.488.27-Aug-2021 4641.00 1236.58 82.45 23.00 351.24 3014.10
   21:29:55.688.27-Aug-2021 4641.00 1236.72 82.45 23.00 351.44 3014.10
   21:29:55.888.27-Aug-2021 4641.00 1236.78 82.45 23.00 351.64 3014.10
   21:29:56.088.27-Aug-2021 4641.00 1236.83 82.45 23.00 351.84 3014.10
   21:29:56.288.27-Aug-2021 4641.00 1236.91 82.45 23.00 352.04 3014.10
   21:29:56.488.27-Aug-2021 4641.00 1236.91 82.45 23.00 352.24 3014.10
   21:29:56.688.27-Aug-2021 4641.00 1237.04 82.45 23.00 352.44 3014.10
   21:29:56.888.27-Aug-2021 4641.00 1237.11 82.45 23.00 352.64 3014.10
   21:29:57.088.27-Aug-2021 4641.00 1237.17 82.45 23.00 352.84 3014.10
   21:29:57.288.27-Aug-2021 4641.00 1237.24 82.45 23.00 353.04 3014.10
   21:29:57.488.27-Aug-2021 4641.00 1237.24 82.45 23.00 353.24 3014.10
   21:29:57.688.27-Aug-2021 4641.00 1237.61 82.45 23.00 353.44 3014.10
   21:29:57.888.27-Aug-2021 4641.00 1237.62 82.45 23.00 353.64 3014.10
   21:29:58.088.27-Aug-2021 4641.00 1237.67 82.45 23.00 353.84 3014.10
   21:29:58.288.27-Aug-2021 4641.00 1237.73 82.45 23.00 354.04 3014.10
   21:29:58.488.27-Aug-2021 4641.00 1237.73 82.45 23.00 354.24 3014.10
   21:29:58.688.27-Aug-2021 4641.00 1237.87 82.45 23.00 354.44 3014.10
   21:29:58.888.27-Aug-2021 4641.00 1237.95 82.45 23.00 354.64 3014.10
   21:29:59.088.27-Aug-2021 4641.00 1237.99 82.45 23.00 354.84 3014.10
   21:29:59.288.27-Aug-2021 4641.00 1238.06 82.45 23.00 355.04 3014.10
   21:29:59.488.27-Aug-2021 4641.00 1238.06 82.45 23.00 355.24 3014.10
   21:29:59.688.27-Aug-2021 4641.00 1238.18 82.45 23.00 355.44 3014.10
   21:29:59.888.27-Aug-2021 4641.00 1238.24 82.45 23.00 355.64 3014.10
   21:30:00.088.27-Aug-2021 4641.00 1238.31 82.45 23.00 355.84 3014.10
   21:30:00.288.27-Aug-2021 4641.00 1238.39 82.45 23.00 356.04 3014.10
   21:30:00.488.27-Aug-2021 4641.00 1238.39 82.45 23.00 356.24 3014.10
   21:30:00.688.27-Aug-2021 4641.00 1237.96 82.45 23.00 356.44 3014.10
   21:30:00.888.27-Aug-2021 4641.00 1238.89 82.45 23.00 356.64 3014.10
   21:30:01.088.27-Aug-2021 4641.00 1238.86 82.45 23.00 356.84 3014.10
   21:30:01.288.27-Aug-2021 4641.00 1238.93 82.45 23.00 357.04 3014.10
   21:30:01.488.27-Aug-2021 4641.00 1238.93 82.45 23.00 357.24 3014.10
   21:30:01.688.27-Aug-2021 4641.00 1239.06 82.45 23.00 357.44 3014.10
   21:30:01.888.27-Aug-2021 4641.00 1238.52 82.45 23.00 357.64 3014.10
   21:30:02.089.27-Aug-2021 4641.00 1239.24 82.45 23.00 357.84 3014.10
   21:30:02.289.27-Aug-2021 4641.00 1239.31 82.45 23.00 358.04 3014.10
   21:30:02.489.27-Aug-2021 4641.00 1239.31 82.45 23.00 358.24 3014.10
   21:30:02.689.27-Aug-2021 4641.00 1239.40 82.45 23.00 358.44 3014.10
   21:30:02.889.27-Aug-2021 4641.00 1239.53 82.45 23.00 358.64 3014.10
   21:30:03.089.27-Aug-2021 4641.00 1239.20 82.45 23.00 358.84 3014.10
   21:30:03.289.27-Aug-2021 4641.00 1239.17 82.45 23.00 359.04 3014.10
   21:30:03.489.27-Aug-2021 4641.00 1239.17 82.45 23.00 359.24 3014.10
   21:30:03.689.27-Aug-2021 4641.00 1239.49 82.45 23.00 359.44 3014.10
   21:30:03.889.27-Aug-2021 4641.00 1239.54 82.45 23.00 359.64 3014.10
   21:30:04.089.27-Aug-2021 4641.00 1238.86 82.45 23.00 359.84 3014.10
   21:30:04.289.27-Aug-2021 4641.00 1239.74 82.45 23.00 360.04 3014.10
   21:30:04.489.27-Aug-2021 4641.00 1239.74 82.45 23.00 360.24 3014.10
   21:30:04.689.27-Aug-2021 4641.00 1239.74 82.45 23.00 360.44 3014.10
   21:30:04.889.27-Aug-2021 4641.00 1239.82 82.45 23.00 360.64 3014.10
   21:30:05.089.27-Aug-2021 4641.00 1239.91 82.45 23.00 360.84 3014.10
   21:30:05.289.27-Aug-2021 4641.00 1239.96 82.45 23.00 361.04 3014.10
   21:30:05.489.27-Aug-2021 4641.00 1239.96 82.45 23.00 361.24 3014.10
   21:30:05.689.27-Aug-2021 4641.00 1240.09 82.45 23.00 361.44 3014.10
