~Version Information
 VERS.                  2.0:   CWLS log ASCII Standard -VERSION 2.0
 WRAP.                   NO:   One line per depth step
~Well Information Block
#MNEM.UNIT     VALUE/NAME     DESCRIPTION
#---------     -----------    ---------------------------
 STRT.S             02:31:31 28-Aug-21: START TIME 02:31:31 28-Aug-21
 STOP.S             02:38:23 28-Aug-21: STOP TIME  02:38:23 28-Aug-21
 STEP.S                   0.00: STEP TIME
 NULL.                 -999.25: NULL VALUE
 DFWT.                        :  DIST FWL TEXT
 DFST.                        :  DIST FSL TEXT
 DMF .             Drill Floor:  DRILL MEAS FROM
 STIM.      20.00.00 17-Aug-21:  START TIME
 DATE.      19.00.00 29-Aug-21:  END TIME
 SPUD.               15-Aug-21:  SPUD DATE
 NREF.                    Grid:  NORTH REFERENCE
 HPTY.       Minimum Curvature:  HOLE POS TYPE
 DMOD.             Drill Model:  DRILL MOD DESC
 SVYD.                  Survey:  SURVEY DESC
 ILTD.               Lithology:  INTERP LTH DESC
 FTOP.          Formation Tops:  FORM TOPS DESC
 RIG .              East Azeri:  RIG NAME
 PDAT.          Mean Sea Level:  PERMANENT DATUM
 FLD .                     ACG:  FIELD NAME
 SON .        AZ-XX-0907180857:  JOB NUMBER
 CTRY.              Azerbaijan:  COUNTRY NAME
 WELL.                    D23x:  WELL NAME
 SRVC.     Turan Drilling and Engineering:  CONTRACTOR
 COMP.     BP Exploration (Caspian Sea) Ltd.:  COMPANY
 UWI .            /AZE00000214:  UNIQUE WELL IDENTIFIER
 API .            /AZE00000214:  API NUMBER
 MDS .        Operator Entered:  MAG DATA SOURCE
 BASE.              Azerbaijan:  LOGGING EQUIPMENT BASE LOCATION
 REGN.                   EESSA:  REGION
 PROV.                    Baku:  PROVINCE
 STAT.                    Baku:  STATE NAME
 MWDS.                    Baku:  MWD SHOP
 DOE .                     N/A:  DOE NUMBER
 DCON.         Sperry Drilling:  DIRECTNL CONTR
 UNIT.                     N/A:  LOGGING EQUIPMENT ID
 WTYP.                Deviated:  WELL TYPE
 CNTY.                        :  COUNTY
 LOC .                        :  LOCATION
 LMF .             Drill Floor:  LOG MEASURED FROM
 TVDS.m                  43.60:  TVDSS CORRECTN
 LATI.deg                40.02:  LATITUDE
 LONG.deg                51.45:  LONGITUDE
 WHNS.m                  -7.04:  WELL HEAD N/S
 WHEW.m                  -0.67:  WELL HEAD E/W
 UTMX.m              538762.90:  UTM X
 UTMY.m             4431871.34:  UTM Y
 DFWL.m                   0.00:  DISTANCE FWL
 DFSL.m                   0.00:  DISTANCE FSL
 SDEP.m                4127.00:  START DEPTH
 TDD .m                5084.50:  TOTAL DEPTH (DRILLER)
 VSDR.deg               140.47:  VERT SEC DIRECT
 GVFD.g                   1.00:  GRAVITY FIELD
 MFLD.nT              50362.00:  MAGNETIC FIELD
 MDIP.deg                59.48:  MAGNETIC DIP
 MDEC.deg                 6.47:  MAGNETIC DECL
 GRDC.deg                 0.31:  GRID CORRECTION
 AZTC.deg                 6.16:  AZM TOTAL CORR
 EPD .m                   0.00:  ELEVATION
 EGL .m                   0.00:  GROUND ELEVATION
 WDMS.m                 151.80:  WD ELEV
 APD .m                  43.60:  DEPTH ABOVE PD
 DEP .m                4092.57:  DEPTH
 AGAP.m                  43.60:  AIR GAP
 VSEW.m                  -0.67:  VERT SEC E/W
 VSNS.m                  -7.04:  VERT SEC N/S
 EKB .m                  43.60:  KB ELEVATION
 EDF .m                  43.60:  DF ELEVATION
 TDL .m                 957.50:  TOTAL DEPTH (LOGGER)
 VSC .                       0:  VS TO CLOSURE
 MAGU.                 1851413:  MAGUTM CHECKSUM
~Parameter Information Block
#MNEM.UNIT       Value        Description
#---------     -----------    ---------------------------
 AV  .mps                 1.50:  Ann Velocity 
 AVMX.mps                 2.00:  Max Ann Veloc 
 AZIF.deg               184.66:  Azm, Final 
 BHAT.        Rotary Steerable:  BHA Type 
 BREV.rev               300.00:  Rev Bit Total 
 BROT.°/30m              -0.50:  Build Rotating 
 BS  .in                  8.50:  Bit Size 
 BSZ .in                  8.50:  Bit Size 
 BTPL.psig              370.00:  Bit Press Loss 
 CABU.                      No:  Customer Abuse 
 CGEO.      Behruz Shahbaliyev:  Customer Geo 
 COMM.                     Œjp:  Run Comments 1 
 TCS .hr                140.08:  Time Ciculation Ended 
 CV  .mps                 3.00:  Crit Velocity 
 CVMX.mps                 3.20:  Max Crit Veloc 
 DD1 .            Musa Ahmadov:  Direct Drillr 1 
 DD2 .           Hamid Ahmadov:  Direct Drillr 2 
 DDSV.               Geo-Pilot:  DD Service 
 DEFF.%                  98.40:  % Det Eff 
 DLRX.°/30m               3.40:  Dogleg Rot Max 
 DLSO.°/30m               1.45:  Dogleg Oriented 
 DLSX.°/30m               3.40:  Dogleg Str Max 
 DRET.      18.40.00 29-Aug-21:  Drill End Time 
 DRST.      21.00.00 20-Aug-21:  Drill Start Tim 
 DTIM.hr                 69.47:  Time Drilling 
 EDEP.m                5084.50:  End Depth 
 ENG1.      Artemiy Matviyanov:  Engineer 1 
 ENG2.         Almaz Almadatov:  Engineer 2 
 ETIM.      18.40.00 29-Aug-21:  End Time 
 FLOI.gpm               500.00:  Flow In 
 FLON.gpm               400.00:  Flow In Min 
 FLOS.cptm                0.00:  Fluid Loss 
 FLOX.gpm               500.00:  Flow In Max 
 DFT .        Mineral Oil Base:  Mud Type 
 HFLO.                      No:  High Flow 
 HPRE.                      No:  High Pressure 
 HTEM.                      No:  High Temp 
 HYDO.m                   1.80:  Hydro Offset 
 IFIN.deg                25.62:  Inc, Final 
 IMAX.deg                48.69:  Inc Max 
 IMIN.deg                24.01:  Inc Min 
 IMND.m                4962.57:  Inc Min Depth 
 IMXD.m                4119.01:  Inc Max Depth 
 JARR.                      No:  Jarring 
 LETM.      18.40.00 29-Aug-21:  Log End Time 
 LOST.hr                     0:  Lost Rig Time 
 LSTM.      21.00.00 20-Aug-21:  Log Start Time 
 MDCL.ppm             41500.00:  Mud Chlorides 
 MDES.     Inversion Oil/Synthetic:  Mud Desc 
 DFD .sg                  1.56:  Mud Density 
 MDMN.sg                  1.56:  Dens Mud Min 
 MDMX.sg                  1.56:  Dens Mud Max 
 MOIL.                      70:  Run Mud Oil % 
 MOWR.                   70:30:  Run Mud OWR 
 MSND.                     0.2:  Run Mud Sand % 
 MSOL.                    23.3:  Run Mud Solids% 
 DFV .spqt               78.00:  Mud Viscosity 
 MWOD.in                  6.75:  MWD Tool OD 
 MWSI.                      No:  Serv Intrp, MWD 
 OTIM.hr                218.30:  Time Operating 
 PCON.           Look Like New:  Pad Condition 
 PMAX.psia            11015.30:  Press Op, Max 
 PV  .cP                 38.00:  Mud PV 
 RUN .                     300:  Run Number 
 ROPA.m/hr               15.00:  ROP Avg 
 ROPN.m/hr                9.00:  ROP Min 
 ROPX.m/hr               17.00:  ROP Max 
 RPMA.rpm               120.00:  RPM Surface Avg 
 RPMN.rpm                90.00:  RPM Surface Min 
 RPMX.rpm               140.00:  RPM Surface Max 
 RRUN.                     300:  Rig Run Number 
 RTIM.hr                 31.53:  Time Reaming 
 SAZI.deg               331.64:  Azm, Start 
 SDEP.m                4127.00:  Start Depth 
 SIDD.                      No:  Serv Intrp, DD 
 SINC.deg                48.43:  Inc, Start 
 SPPA.psig             5830.00:  SPP Avg 
 SPPN.psig             5600.00:  SPP Min 
 SPPX.psig             5900.00:  SPP Max 
 STIM.      21.00.00 20-Aug-21:  Start Time 
 SVCS.                 DD, MWD:  Services 
 SVER.                    9.20:  Sperry Version 
 TDAT.m                 957.50:  Tot Depth Attmp 
 TDDF.                      No:  Trip for DD 
 TDLG.m                 957.50:  Tot Depth Loggd 
 TFF .                      No:  Trip for Fail 
 TQAA.f-kp               15.00:  Torque Abs Avg 
 TQAN.f-kp               12.00:  Torque Abs Min 
 TQAX.f-kp               19.00:  Torque Abs Max 
 TRRT.°/30m              -3.40:  Turn Rotating 
 MRT .                  EWR-M5:  Maximum Recorded Temperature 
 TTMX.degC              100.00:  Max Tool Temp 
 VS01.                90639251:  Virtual Str1 SN 
 VS02.                90634715:  Virtual Str2 SN 
 VS03.                90652479:  Virtual Str3 SN 
 VS04.                90642262:  Virtual Str4 SN 
 WBMN.klb                 0.00:  WOB Min 
 WITN.           Murad Guliyev:  Customer Rep 
 WITN.          Yashar Gaziyev:  Customer Rep 2 
 WOBA.klb                 9.00:  WOB Avg 
 WOBX.klb                12.00:  WOB Max 
 YP  .lhf2               30.00:  Yield Point 
~Curve Information Block
#MNEM.UNIT                 API CODE     Curve Description
#---------               -----------    ---------------------------
 TIME.HHMMSS            00 000 000 000:  GT Time & Date
 GTDEPTH.m              00 000 000 000:  GT Depth
 GTPQH.psia             00 000 000 000:  GT HR Quartz Pressure
 GTTQ.degC              00 000 000 000:  GT Quartz Temperature
 GTTN.NONE              00 000 000 000:  GT Test Number
 GTET.sec               00 000 000 000:  GT Elapsed Test Time
 GTTVD.m                00 000 000 000:  GT True Vertical Depth
#Other Information
#
#WARRANTY: Halliburton will use its best efforts to furnish customers with 
#accurate information and interpretations that are part of, and incident to, the services 
#provided.  However, Halliburton cannot and does not warrant the accuracy 
#or correctness of such information and interpretations.  Under no circumstances should any 
#such information or interpretation be relied upon as the sole basis for any drilling, 
#completion, production, or financial decision or any procedure involving any risk to the 
#safety of any drilling venture, drilling rig or its crew or any other third party.  The 
#Customer has full responsibility for all drilling, completion and production operation.  
#Halliburton makes no representations or warranties, either expressed or 
#implied, including, but not limited to, the implied warranties of merchantability or fitness 
#for a particular purpose, with respect to the services rendered.  In no event will 
#Halliburton be liable for failure to obtain any particular results or for 
#any damages, including, but not limited to, indirect, special or consequential damages, 
#resulting from the use of any information or interpretation provided by Halliburton.
#
~A           TIME           GTDEPTH  GTPQH  GTTQ  GTTN   GTET   GTTVD  
# ...
   02:33:25.024.28-Aug-2021 4891.00 7787.20 80.67 28.00 113.04 3240.41
   02:33:25.224.28-Aug-2021 4891.00 7787.20 80.67 28.00 113.24 3240.41
   02:33:25.424.28-Aug-2021 4891.00 7787.83 80.67 28.00 113.44 3240.41
   02:33:25.624.28-Aug-2021 4891.00 7788.01 80.67 28.00 113.64 3240.41
   02:33:25.824.28-Aug-2021 4891.00 7787.88 80.67 28.00 113.84 3240.41
   02:33:26.024.28-Aug-2021 4891.00 7787.87 80.67 28.00 114.04 3240.41
   02:33:26.224.28-Aug-2021 4891.00 7787.87 80.67 28.00 114.24 3240.41
   02:33:26.424.28-Aug-2021 4891.00 7787.69 80.67 28.00 114.44 3240.41
   02:33:26.624.28-Aug-2021 4891.00 7788.72 80.67 28.00 114.64 3240.41
   02:33:26.824.28-Aug-2021 4891.00 7789.70 80.67 28.00 114.84 3240.41
   02:33:27.025.28-Aug-2021 4891.00 7787.96 80.67 28.00 115.04 3240.41
   02:33:27.225.28-Aug-2021 4891.00 7787.96 80.67 28.00 115.24 3240.41
   02:33:27.425.28-Aug-2021 4891.00 7787.78 80.67 28.00 115.44 3240.41
   02:33:27.625.28-Aug-2021 4891.00 7788.73 80.67 28.00 115.64 3240.41
   02:33:27.825.28-Aug-2021 4891.00 7789.24 80.67 28.00 115.84 3240.41
   02:33:28.025.28-Aug-2021 4891.00 7788.30 80.67 28.00 116.04 3240.41
   02:33:28.225.28-Aug-2021 4891.00 7788.30 80.67 28.00 116.24 3240.41
   02:33:28.425.28-Aug-2021 4891.00 7787.75 80.67 28.00 116.44 3240.41
   02:33:28.625.28-Aug-2021 4891.00 7788.01 80.67 28.00 116.64 3240.41
   02:33:28.825.28-Aug-2021 4891.00 7792.80 80.67 28.00 116.84 3240.41
   02:33:29.025.28-Aug-2021 4891.00 7785.87 80.67 28.00 117.04 3240.41
   02:33:29.225.28-Aug-2021 4891.00 7785.87 80.67 28.00 117.24 3240.41
   02:33:29.425.28-Aug-2021 4891.00 7788.15 80.67 28.00 117.44 3240.41
   02:33:29.625.28-Aug-2021 4891.00 7791.44 80.67 28.00 117.64 3240.41
   02:33:29.825.28-Aug-2021 4891.00 7787.80 80.67 28.00 117.84 3240.41
   02:33:30.025.28-Aug-2021 4891.00 7788.96 80.67 28.00 118.04 3240.41
   02:33:30.226.28-Aug-2021 4891.00 7788.96 80.67 28.00 118.24 3240.41
   02:33:30.426.28-Aug-2021 4891.00 7787.69 80.67 28.00 118.44 3240.41
   02:33:30.626.28-Aug-2021 4891.00 7787.67 80.67 28.00 118.64 3240.41
   02:33:30.826.28-Aug-2021 4891.00 7787.84 80.67 28.00 118.84 3240.41
   02:33:31.026.28-Aug-2021 4891.00 7787.67 80.67 28.00 119.04 3240.41
   02:33:31.226.28-Aug-2021 4891.00 7787.67 80.67 28.00 119.24 3240.41
   02:33:31.426.28-Aug-2021 4891.00 7788.38 80.67 28.00 119.44 3240.41
   02:33:31.626.28-Aug-2021 4891.00 7788.32 80.67 28.00 119.64 3240.41
   02:33:31.826.28-Aug-2021 4891.00 7788.56 80.67 28.00 119.84 3240.41
   02:33:32.026.28-Aug-2021 4891.00 7788.56 80.67 28.00 120.04 3240.41
   02:33:32.226.28-Aug-2021 4891.00 7788.56 80.67 28.00 120.24 3240.41
   02:33:32.426.28-Aug-2021 4891.00 7788.34 80.67 28.00 120.44 3240.41
   02:33:32.626.28-Aug-2021 4891.00 7788.14 80.67 28.00 120.64 3240.41
   02:33:32.826.28-Aug-2021 4891.00 7793.33 80.67 28.00 120.84 3240.41
   02:33:33.026.28-Aug-2021 4891.00 7785.66 80.67 28.00 121.04 3240.41
   02:33:33.226.28-Aug-2021 4891.00 7785.66 80.67 28.00 121.24 3240.41
   02:33:33.427.28-Aug-2021 4891.00 7788.53 80.67 28.00 121.44 3240.41
   02:33:33.627.28-Aug-2021 4891.00 7788.22 80.67 28.00 121.64 3240.41
   02:33:33.827.28-Aug-2021 4891.00 7788.21 80.67 28.00 121.84 3240.41
   02:33:34.027.28-Aug-2021 4891.00 7787.78 80.67 28.00 122.04 3240.41
   02:33:34.227.28-Aug-2021 4891.00 7787.78 80.67 28.00 122.24 3240.41
   02:33:34.427.28-Aug-2021 4891.00 7787.97 80.67 28.00 122.44 3240.41
   02:33:34.627.28-Aug-2021 4891.00 7788.51 80.67 28.00 122.64 3240.41
   02:33:34.827.28-Aug-2021 4891.00 7788.41 80.67 28.00 122.84 3240.41
   02:33:35.027.28-Aug-2021 4891.00 7788.89 80.67 28.00 123.04 3240.41
   02:33:35.227.28-Aug-2021 4891.00 7788.89 80.67 28.00 123.24 3240.41
   02:33:35.427.28-Aug-2021 4891.00 7788.77 80.67 28.00 123.44 3240.41
   02:33:35.627.28-Aug-2021 4891.00 7788.70 80.67 28.00 123.64 3240.41
   02:33:35.827.28-Aug-2021 4891.00 7788.59 80.67 28.00 123.84 3240.41
   02:33:36.027.28-Aug-2021 4891.00 7788.54 80.67 28.00 124.04 3240.41
   02:33:36.227.28-Aug-2021 4891.00 7788.54 80.67 28.00 124.24 3240.41
   02:33:36.427.28-Aug-2021 4891.00 7785.96 80.67 28.00 124.44 3240.41
   02:33:36.628.28-Aug-2021 4891.00 7789.64 80.67 28.00 124.64 3240.41
   02:33:36.828.28-Aug-2021 4891.00 7788.70 80.67 28.00 124.84 3240.41
   02:33:37.028.28-Aug-2021 4891.00 7788.30 80.67 28.00 125.04 3240.41
   02:33:37.228.28-Aug-2021 4891.00 7788.30 80.67 28.00 125.24 3240.41
   02:33:37.428.28-Aug-2021 4891.00 7786.22 80.67 28.00 125.44 3240.41
   02:33:37.628.28-Aug-2021 4891.00 7789.16 80.67 28.00 125.64 3240.41
   02:33:37.828.28-Aug-2021 4891.00 7788.39 80.67 28.00 125.84 3240.41
   02:33:38.028.28-Aug-2021 4891.00 7788.63 80.67 28.00 126.04 3240.41
   02:33:38.228.28-Aug-2021 4891.00 7788.63 80.67 28.00 126.24 3240.41
   02:33:38.428.28-Aug-2021 4891.00 7793.88 80.67 28.00 126.44 3240.41
   02:33:38.628.28-Aug-2021 4891.00 7785.92 80.67 28.00 126.64 3240.41
   02:33:38.828.28-Aug-2021 4891.00 7789.87 80.67 28.00 126.84 3240.41
   02:33:39.028.28-Aug-2021 4891.00 7788.91 80.67 28.00 127.04 3240.41
   02:33:39.228.28-Aug-2021 4891.00 7788.91 80.67 28.00 127.24 3240.41
   02:33:39.428.28-Aug-2021 4891.00 7793.49 80.67 28.00 127.44 3240.41
   02:33:39.629.28-Aug-2021 4891.00 7786.51 80.67 28.00 127.64 3240.41
   02:33:39.829.28-Aug-2021 4891.00 7789.26 80.67 28.00 127.84 3240.41
   02:33:40.029.28-Aug-2021 4891.00 7788.46 80.67 28.00 128.04 3240.41
   02:33:40.229.28-Aug-2021 4891.00 7788.46 80.67 28.00 128.24 3240.41
   02:33:40.429.28-Aug-2021 4891.00 7788.17 80.67 28.00 128.44 3240.41
   02:33:40.629.28-Aug-2021 4891.00 7788.18 80.67 28.00 128.64 3240.41
   02:33:40.829.28-Aug-2021 4891.00 7787.96 80.67 28.00 128.84 3240.41
   02:33:41.029.28-Aug-2021 4891.00 7788.23 80.67 28.00 129.04 3240.41
   02:33:41.229.28-Aug-2021 4891.00 7788.23 80.67 28.00 129.24 3240.41
   02:33:41.429.28-Aug-2021 4891.00 7788.65 80.67 28.00 129.44 3240.41
   02:33:41.629.28-Aug-2021 4891.00 7788.90 80.67 28.00 129.64 3240.41
   02:33:41.829.28-Aug-2021 4891.00 7788.74 80.67 28.00 129.84 3240.41
   02:33:42.029.28-Aug-2021 4891.00 7788.80 80.67 28.00 130.04 3240.41
   02:33:42.229.28-Aug-2021 4891.00 7788.80 80.67 28.00 130.24 3240.41
   02:33:42.429.28-Aug-2021 4891.00 7788.69 80.67 28.00 130.44 3240.41
   02:33:42.629.28-Aug-2021 4891.00 7789.43 80.67 28.00 130.64 3240.41
   02:33:42.830.28-Aug-2021 4891.00 7790.81 80.67 28.00 130.84 3240.41
   02:33:43.030.28-Aug-2021 4891.00 7789.01 80.67 28.00 131.04 3240.41
   02:33:43.230.28-Aug-2021 4891.00 7789.01 80.67 28.00 131.24 3240.41
   02:33:43.430.28-Aug-2021 4891.00 7788.65 80.67 28.00 131.44 3240.41
   02:33:43.630.28-Aug-2021 4891.00 7788.22 80.67 28.00 131.64 3240.41
   02:33:43.830.28-Aug-2021 4891.00 7788.17 80.67 28.00 131.84 3240.41
   02:33:44.030.28-Aug-2021 4891.00 7788.30 80.67 28.00 132.04 3240.41
   02:33:44.230.28-Aug-2021 4891.00 7788.30 80.67 28.00 132.24 3240.41
   02:33:44.430.28-Aug-2021 4891.00 7788.40 80.67 28.00 132.44 3240.41
   02:33:44.630.28-Aug-2021 4891.00 7789.22 80.67 28.00 132.64 3240.41
   02:33:44.830.28-Aug-2021 4891.00 7789.05 80.67 28.00 132.84 3240.41
   02:33:45.030.28-Aug-2021 4891.00 7789.41 80.67 28.00 133.04 3240.41
   02:33:45.230.28-Aug-2021 4891.00 7789.41 80.67 28.00 133.24 3240.41
   02:33:45.430.28-Aug-2021 4891.00 7789.13 80.67 28.00 133.44 3240.41
   02:33:45.630.28-Aug-2021 4891.00 7789.09 80.67 28.00 133.64 3240.41
   02:33:45.830.28-Aug-2021 4891.00 7788.95 80.67 28.00 133.84 3240.41
   02:33:46.031.28-Aug-2021 4891.00 7789.73 80.67 28.00 134.04 3240.41
   02:33:46.231.28-Aug-2021 4891.00 7789.73 80.67 28.00 134.24 3240.41
   02:33:46.431.28-Aug-2021 4891.00 7789.34 80.67 28.00 134.44 3240.41
   02:33:46.631.28-Aug-2021 4891.00 7789.40 80.67 28.00 134.64 3240.41
   02:33:46.831.28-Aug-2021 4891.00 7788.99 80.67 28.00 134.84 3240.41
   02:33:47.031.28-Aug-2021 4891.00 7789.34 80.67 28.00 135.04 3240.41
   02:33:47.231.28-Aug-2021 4891.00 7789.34 80.67 28.00 135.24 3240.41
   02:33:47.431.28-Aug-2021 4891.00 7789.31 80.67 28.00 135.44 3240.41
