~Version Information
 VERS.                  2.0:   CWLS log ASCII Standard -VERSION 2.0
 WRAP.                   NO:   One line per depth step
~Well Information Block
#MNEM.UNIT     VALUE/NAME     DESCRIPTION
#---------     -----------    ---------------------------
 STRT.S             21:24:04 27-Aug-21: START TIME 21:24:04 27-Aug-21
 STOP.S             21:30:54 27-Aug-21: STOP TIME  21:30:54 27-Aug-21
 STEP.S                   0.00: STEP TIME
 NULL.                 -999.25: NULL VALUE
 DFWT.                        :  DIST FWL TEXT
 DFST.                        :  DIST FSL TEXT
 DMF .             Drill Floor:  DRILL MEAS FROM
 STIM.      20.00.00 17-Aug-21:  START TIME
 DATE.      19.00.00 29-Aug-21:  END TIME
 SPUD.               15-Aug-21:  SPUD DATE
 NREF.                    Grid:  NORTH REFERENCE
 HPTY.       Minimum Curvature:  HOLE POS TYPE
 DMOD.             Drill Model:  DRILL MOD DESC
 SVYD.                  Survey:  SURVEY DESC
 ILTD.               Lithology:  INTERP LTH DESC
 FTOP.          Formation Tops:  FORM TOPS DESC
 RIG .              East Azeri:  RIG NAME
 PDAT.          Mean Sea Level:  PERMANENT DATUM
 FLD .                     ACG:  FIELD NAME
 SON .        AZ-XX-0907180857:  JOB NUMBER
 CTRY.              Azerbaijan:  COUNTRY NAME
 WELL.                    D23x:  WELL NAME
 SRVC.     Turan Drilling and Engineering:  CONTRACTOR
 COMP.     BP Exploration (Caspian Sea) Ltd.:  COMPANY
 UWI .            /AZE00000214:  UNIQUE WELL IDENTIFIER
 API .            /AZE00000214:  API NUMBER
 MDS .        Operator Entered:  MAG DATA SOURCE
 BASE.              Azerbaijan:  LOGGING EQUIPMENT BASE LOCATION
 REGN.                   EESSA:  REGION
 PROV.                    Baku:  PROVINCE
 STAT.                    Baku:  STATE NAME
 MWDS.                    Baku:  MWD SHOP
 DOE .                     N/A:  DOE NUMBER
 DCON.         Sperry Drilling:  DIRECTNL CONTR
 UNIT.                     N/A:  LOGGING EQUIPMENT ID
 WTYP.                Deviated:  WELL TYPE
 CNTY.                        :  COUNTY
 LOC .                        :  LOCATION
 LMF .             Drill Floor:  LOG MEASURED FROM
 TVDS.m                  43.60:  TVDSS CORRECTN
 LATI.deg                40.02:  LATITUDE
 LONG.deg                51.45:  LONGITUDE
 WHNS.m                  -7.04:  WELL HEAD N/S
 WHEW.m                  -0.67:  WELL HEAD E/W
 UTMX.m              538762.90:  UTM X
 UTMY.m             4431871.34:  UTM Y
 DFWL.m                   0.00:  DISTANCE FWL
 DFSL.m                   0.00:  DISTANCE FSL
 SDEP.m                4127.00:  START DEPTH
 TDD .m                5084.50:  TOTAL DEPTH (DRILLER)
 VSDR.deg               140.47:  VERT SEC DIRECT
 GVFD.g                   1.00:  GRAVITY FIELD
 MFLD.nT              50362.00:  MAGNETIC FIELD
 MDIP.deg                59.48:  MAGNETIC DIP
 MDEC.deg                 6.47:  MAGNETIC DECL
 GRDC.deg                 0.31:  GRID CORRECTION
 AZTC.deg                 6.16:  AZM TOTAL CORR
 EPD .m                   0.00:  ELEVATION
 EGL .m                   0.00:  GROUND ELEVATION
 WDMS.m                 151.80:  WD ELEV
 APD .m                  43.60:  DEPTH ABOVE PD
 DEP .m                4092.57:  DEPTH
 AGAP.m                  43.60:  AIR GAP
 VSEW.m                  -0.67:  VERT SEC E/W
 VSNS.m                  -7.04:  VERT SEC N/S
 EKB .m                  43.60:  KB ELEVATION
 EDF .m                  43.60:  DF ELEVATION
 TDL .m                 957.50:  TOTAL DEPTH (LOGGER)
 VSC .                       0:  VS TO CLOSURE
 MAGU.                 1851413:  MAGUTM CHECKSUM
~Parameter Information Block
#MNEM.UNIT       Value        Description
#---------     -----------    ---------------------------
 AV  .mps                 1.50:  Ann Velocity 
 AVMX.mps                 2.00:  Max Ann Veloc 
 AZIF.deg               184.66:  Azm, Final 
 BHAT.        Rotary Steerable:  BHA Type 
 BREV.rev               300.00:  Rev Bit Total 
 BROT.°/30m              -0.50:  Build Rotating 
 BS  .in                  8.50:  Bit Size 
 BSZ .in                  8.50:  Bit Size 
 BTPL.psig              370.00:  Bit Press Loss 
 CABU.                      No:  Customer Abuse 
 CGEO.      Behruz Shahbaliyev:  Customer Geo 
 COMM.                     tºv:  Run Comments 1 
 TCS .hr                140.08:  Time Ciculation Ended 
 CV  .mps                 3.00:  Crit Velocity 
 CVMX.mps                 3.20:  Max Crit Veloc 
 DD1 .            Musa Ahmadov:  Direct Drillr 1 
 DD2 .           Hamid Ahmadov:  Direct Drillr 2 
 DDSV.               Geo-Pilot:  DD Service 
 DEFF.%                  98.40:  % Det Eff 
 DLRX.°/30m               3.40:  Dogleg Rot Max 
 DLSO.°/30m               1.45:  Dogleg Oriented 
 DLSX.°/30m               3.40:  Dogleg Str Max 
 DRET.      18.40.00 29-Aug-21:  Drill End Time 
 DRST.      21.00.00 20-Aug-21:  Drill Start Tim 
 DTIM.hr                 69.47:  Time Drilling 
 EDEP.m                5084.50:  End Depth 
 ENG1.      Artemiy Matviyanov:  Engineer 1 
 ENG2.         Almaz Almadatov:  Engineer 2 
 ETIM.      18.40.00 29-Aug-21:  End Time 
 FLOI.gpm               500.00:  Flow In 
 FLON.gpm               400.00:  Flow In Min 
 FLOS.cptm                0.00:  Fluid Loss 
 FLOX.gpm               500.00:  Flow In Max 
 DFT .        Mineral Oil Base:  Mud Type 
 HFLO.                      No:  High Flow 
 HPRE.                      No:  High Pressure 
 HTEM.                      No:  High Temp 
 HYDO.m                   1.80:  Hydro Offset 
 IFIN.deg                25.62:  Inc, Final 
 IMAX.deg                48.69:  Inc Max 
 IMIN.deg                24.01:  Inc Min 
 IMND.m                4962.57:  Inc Min Depth 
 IMXD.m                4119.01:  Inc Max Depth 
 JARR.                      No:  Jarring 
 LETM.      18.40.00 29-Aug-21:  Log End Time 
 LOST.hr                     0:  Lost Rig Time 
 LSTM.      21.00.00 20-Aug-21:  Log Start Time 
 MDCL.ppm             41500.00:  Mud Chlorides 
 MDES.     Inversion Oil/Synthetic:  Mud Desc 
 DFD .sg                  1.56:  Mud Density 
 MDMN.sg                  1.56:  Dens Mud Min 
 MDMX.sg                  1.56:  Dens Mud Max 
 MOIL.                      70:  Run Mud Oil % 
 MOWR.                   70:30:  Run Mud OWR 
 MSND.                     0.2:  Run Mud Sand % 
 MSOL.                    23.3:  Run Mud Solids% 
 DFV .spqt               78.00:  Mud Viscosity 
 MWOD.in                  6.75:  MWD Tool OD 
 MWSI.                      No:  Serv Intrp, MWD 
 OTIM.hr                218.30:  Time Operating 
 PCON.           Look Like New:  Pad Condition 
 PMAX.psia            11015.30:  Press Op, Max 
 PV  .cP                 38.00:  Mud PV 
 RUN .                     300:  Run Number 
 ROPA.m/hr               15.00:  ROP Avg 
 ROPN.m/hr                9.00:  ROP Min 
 ROPX.m/hr               17.00:  ROP Max 
 RPMA.rpm               120.00:  RPM Surface Avg 
 RPMN.rpm                90.00:  RPM Surface Min 
 RPMX.rpm               140.00:  RPM Surface Max 
 RRUN.                     300:  Rig Run Number 
 RTIM.hr                 31.53:  Time Reaming 
 SAZI.deg               331.64:  Azm, Start 
 SDEP.m                4127.00:  Start Depth 
 SIDD.                      No:  Serv Intrp, DD 
 SINC.deg                48.43:  Inc, Start 
 SPPA.psig             5830.00:  SPP Avg 
 SPPN.psig             5600.00:  SPP Min 
 SPPX.psig             5900.00:  SPP Max 
 STIM.      21.00.00 20-Aug-21:  Start Time 
 SVCS.                 DD, MWD:  Services 
 SVER.                    9.20:  Sperry Version 
 TDAT.m                 957.50:  Tot Depth Attmp 
 TDDF.                      No:  Trip for DD 
 TDLG.m                 957.50:  Tot Depth Loggd 
 TFF .                      No:  Trip for Fail 
 TQAA.f-kp               15.00:  Torque Abs Avg 
 TQAN.f-kp               12.00:  Torque Abs Min 
 TQAX.f-kp               19.00:  Torque Abs Max 
 TRRT.°/30m              -3.40:  Turn Rotating 
 MRT .                  EWR-M5:  Maximum Recorded Temperature 
 TTMX.degC              100.00:  Max Tool Temp 
 VS01.                90639251:  Virtual Str1 SN 
 VS02.                90634715:  Virtual Str2 SN 
 VS03.                90652479:  Virtual Str3 SN 
 VS04.                90642262:  Virtual Str4 SN 
 WBMN.klb                 0.00:  WOB Min 
 WITN.           Murad Guliyev:  Customer Rep 
 WITN.          Yashar Gaziyev:  Customer Rep 2 
 WOBA.klb                 9.00:  WOB Avg 
 WOBX.klb                12.00:  WOB Max 
 YP  .lhf2               30.00:  Yield Point 
~Curve Information Block
#MNEM.UNIT                 API CODE     Curve Description
#---------               -----------    ---------------------------
 TIME.HHMMSS            00 000 000 000:  GT Time & Date
 GTDEPTH.m              00 000 000 000:  GT Depth
 GTPQH.psia             00 000 000 000:  GT HR Quartz Pressure
 GTTQ.degC              00 000 000 000:  GT Quartz Temperature
 GTTN.NONE              00 000 000 000:  GT Test Number
 GTET.sec               00 000 000 000:  GT Elapsed Test Time
 GTTVD.m                00 000 000 000:  GT True Vertical Depth
#Other Information
#
#WARRANTY: Halliburton will use its best efforts to furnish customers with 
#accurate information and interpretations that are part of, and incident to, the services 
#provided.  However, Halliburton cannot and does not warrant the accuracy 
#or correctness of such information and interpretations.  Under no circumstances should any 
#such information or interpretation be relied upon as the sole basis for any drilling, 
#completion, production, or financial decision or any procedure involving any risk to the 
#safety of any drilling venture, drilling rig or its crew or any other third party.  The 
#Customer has full responsibility for all drilling, completion and production operation.  
#Halliburton makes no representations or warranties, either expressed or 
#implied, including, but not limited to, the implied warranties of merchantability or fitness 
#for a particular purpose, with respect to the services rendered.  In no event will 
#Halliburton be liable for failure to obtain any particular results or for 
#any damages, including, but not limited to, indirect, special or consequential damages, 
#resulting from the use of any information or interpretation provided by Halliburton.
#
~A           TIME           GTDEPTH  GTPQH  GTTQ  GTTN   GTET   GTTVD  
# ...
   21:28:35.480.27-Aug-2021 4641.00 1233.66 82.43 23.00 271.23 3014.10
   21:28:35.680.27-Aug-2021 4641.00 1233.99 82.43 23.00 271.43 3014.10
   21:28:35.880.27-Aug-2021 4641.00 1232.74 82.43 23.00 271.63 3014.10
   21:28:36.080.27-Aug-2021 4641.00 1232.49 82.43 23.00 271.83 3014.10
   21:28:36.280.27-Aug-2021 4641.00 1232.76 82.43 23.00 272.03 3014.10
   21:28:36.480.27-Aug-2021 4641.00 1232.76 82.43 23.00 272.23 3014.10
   21:28:36.680.27-Aug-2021 4641.00 1231.06 82.43 23.00 272.43 3014.10
   21:28:36.880.27-Aug-2021 4641.00 1231.03 82.43 23.00 272.63 3014.10
   21:28:37.080.27-Aug-2021 4641.00 1230.03 82.43 23.00 272.83 3014.10
   21:28:37.280.27-Aug-2021 4641.00 1228.90 82.43 23.00 273.03 3014.10
   21:28:37.480.27-Aug-2021 4641.00 1228.90 82.43 23.00 273.23 3014.10
   21:28:37.680.27-Aug-2021 4641.00 1226.01 82.43 23.00 273.43 3014.10
   21:28:37.880.27-Aug-2021 4641.00 1224.90 82.43 23.00 273.63 3014.10
   21:28:38.080.27-Aug-2021 4641.00 1223.99 82.43 23.00 273.83 3014.10
   21:28:38.280.27-Aug-2021 4641.00 1223.26 82.43 23.00 274.03 3014.10
   21:28:38.480.27-Aug-2021 4641.00 1223.26 82.43 23.00 274.23 3014.10
   21:28:38.680.27-Aug-2021 4641.00 1221.94 82.43 23.00 274.43 3014.10
   21:28:38.880.27-Aug-2021 4641.00 1221.51 82.43 23.00 274.63 3014.10
   21:28:39.080.27-Aug-2021 4641.00 1221.12 82.43 23.00 274.83 3014.10
   21:28:39.280.27-Aug-2021 4641.00 1220.80 82.43 23.00 275.03 3014.10
   21:28:39.480.27-Aug-2021 4641.00 1220.80 82.43 23.00 275.23 3014.10
   21:28:39.680.27-Aug-2021 4641.00 1217.25 82.43 23.00 275.43 3014.10
   21:28:39.880.27-Aug-2021 4641.00 1216.30 82.43 23.00 275.63 3014.10
   21:28:40.080.27-Aug-2021 4641.00 1216.38 82.43 23.00 275.83 3014.10
   21:28:40.280.27-Aug-2021 4641.00 1216.29 82.43 23.00 276.03 3014.10
   21:28:40.480.27-Aug-2021 4641.00 1216.29 82.43 23.00 276.23 3014.10
   21:28:40.680.27-Aug-2021 4641.00 1215.74 82.43 23.00 276.43 3014.10
   21:28:40.880.27-Aug-2021 4641.00 1215.42 82.43 23.00 276.63 3014.10
   21:28:41.080.27-Aug-2021 4641.00 1215.21 82.43 23.00 276.83 3014.10
   21:28:41.280.27-Aug-2021 4641.00 1215.03 82.43 23.00 277.03 3014.10
   21:28:41.480.27-Aug-2021 4641.00 1215.03 82.43 23.00 277.23 3014.10
   21:28:41.680.27-Aug-2021 4641.00 1214.97 82.43 23.00 277.43 3014.10
   21:28:41.880.27-Aug-2021 4641.00 1214.88 82.43 23.00 277.63 3014.10
   21:28:42.080.27-Aug-2021 4641.00 1213.71 82.43 23.00 277.83 3014.10
   21:28:42.280.27-Aug-2021 4641.00 1212.78 82.43 23.00 278.03 3014.10
   21:28:42.480.27-Aug-2021 4641.00 1212.78 82.43 23.00 278.23 3014.10
   21:28:42.680.27-Aug-2021 4641.00 1218.23 82.43 23.00 278.43 3014.10
   21:28:42.880.27-Aug-2021 4641.00 1216.49 82.43 23.00 278.63 3014.10
   21:28:43.080.27-Aug-2021 4641.00 1216.00 82.43 23.00 278.83 3014.10
   21:28:43.280.27-Aug-2021 4641.00 1216.13 82.43 23.00 279.03 3014.10
   21:28:43.480.27-Aug-2021 4641.00 1216.13 82.43 23.00 279.23 3014.10
   21:28:43.680.27-Aug-2021 4641.00 1216.49 82.43 23.00 279.43 3014.10
   21:28:43.881.27-Aug-2021 4641.00 1215.54 82.43 23.00 279.63 3014.10
   21:28:44.081.27-Aug-2021 4641.00 1215.52 82.43 23.00 279.83 3014.10
   21:28:44.281.27-Aug-2021 4641.00 1215.27 82.43 23.00 280.03 3014.10
   21:28:44.481.27-Aug-2021 4641.00 1215.27 82.43 23.00 280.23 3014.10
   21:28:44.681.27-Aug-2021 4641.00 1215.60 82.43 23.00 280.43 3014.10
   21:28:44.881.27-Aug-2021 4641.00 1215.78 82.43 23.00 280.63 3014.10
   21:28:45.081.27-Aug-2021 4641.00 1215.94 82.43 23.00 280.83 3014.10
   21:28:45.281.27-Aug-2021 4641.00 1215.05 82.43 23.00 281.03 3014.10
   21:28:45.481.27-Aug-2021 4641.00 1215.05 82.43 23.00 281.23 3014.10
   21:28:45.681.27-Aug-2021 4641.00 1215.29 82.43 23.00 281.43 3014.10
   21:28:45.881.27-Aug-2021 4641.00 1215.41 82.43 23.00 281.63 3014.10
   21:28:46.081.27-Aug-2021 4641.00 1215.56 82.43 23.00 281.83 3014.10
   21:28:46.281.27-Aug-2021 4641.00 1215.10 82.43 23.00 282.03 3014.10
   21:28:46.481.27-Aug-2021 4641.00 1215.10 82.43 23.00 282.23 3014.10
   21:28:46.681.27-Aug-2021 4641.00 1214.81 82.43 23.00 282.43 3014.10
   21:28:46.881.27-Aug-2021 4641.00 1214.91 82.43 23.00 282.63 3014.10
   21:28:47.081.27-Aug-2021 4641.00 1215.05 82.43 23.00 282.83 3014.10
   21:28:47.281.27-Aug-2021 4641.00 1215.24 82.43 23.00 283.03 3014.10
   21:28:47.481.27-Aug-2021 4641.00 1215.24 82.43 23.00 283.23 3014.10
   21:28:47.681.27-Aug-2021 4641.00 1215.54 82.43 23.00 283.43 3014.10
   21:28:47.881.27-Aug-2021 4641.00 1215.67 82.43 23.00 283.63 3014.10
   21:28:48.081.27-Aug-2021 4641.00 1215.84 82.43 23.00 283.83 3014.10
   21:28:48.281.27-Aug-2021 4641.00 1215.99 82.43 23.00 284.03 3014.10
   21:28:48.481.27-Aug-2021 4641.00 1215.99 82.43 23.00 284.23 3014.10
   21:28:48.681.27-Aug-2021 4641.00 1216.30 82.43 23.00 284.43 3014.10
   21:28:48.881.27-Aug-2021 4641.00 1216.45 82.43 23.00 284.63 3014.10
   21:28:49.081.27-Aug-2021 4641.00 1216.62 82.43 23.00 284.83 3014.10
   21:28:49.281.27-Aug-2021 4641.00 1216.76 82.43 23.00 285.03 3014.10
   21:28:49.481.27-Aug-2021 4641.00 1216.76 82.43 23.00 285.23 3014.10
   21:28:49.681.27-Aug-2021 4641.00 1216.10 82.43 23.00 285.43 3014.10
   21:28:49.881.27-Aug-2021 4641.00 1216.14 82.43 23.00 285.63 3014.10
   21:28:50.081.27-Aug-2021 4641.00 1216.26 82.43 23.00 285.83 3014.10
   21:28:50.281.27-Aug-2021 4641.00 1216.36 82.43 23.00 286.03 3014.10
   21:28:50.481.27-Aug-2021 4641.00 1216.36 82.43 23.00 286.23 3014.10
   21:28:50.681.27-Aug-2021 4641.00 1216.62 82.43 23.00 286.43 3014.10
   21:28:50.881.27-Aug-2021 4641.00 1216.75 82.43 23.00 286.63 3014.10
   21:28:51.081.27-Aug-2021 4641.00 1216.87 82.43 23.00 286.83 3014.10
   21:28:51.281.27-Aug-2021 4641.00 1216.99 82.43 23.00 287.03 3014.10
   21:28:51.481.27-Aug-2021 4641.00 1216.99 82.43 23.00 287.23 3014.10
   21:28:51.681.27-Aug-2021 4641.00 1217.26 82.43 23.00 287.43 3014.10
   21:28:51.881.27-Aug-2021 4641.00 1217.39 82.43 23.00 287.63 3014.10
   21:28:52.081.27-Aug-2021 4641.00 1217.51 82.43 23.00 287.83 3014.10
   21:28:52.281.27-Aug-2021 4641.00 1217.63 82.43 23.00 288.03 3014.10
   21:28:52.481.27-Aug-2021 4641.00 1217.63 82.43 23.00 288.23 3014.10
   21:28:52.681.27-Aug-2021 4641.00 1216.79 82.43 23.00 288.43 3014.10
   21:28:52.881.27-Aug-2021 4641.00 1217.18 82.43 23.00 288.63 3014.10
   21:28:53.081.27-Aug-2021 4641.00 1217.21 82.43 23.00 288.83 3014.10
   21:28:53.281.27-Aug-2021 4641.00 1217.29 82.43 23.00 289.03 3014.10
   21:28:53.481.27-Aug-2021 4641.00 1217.29 82.43 23.00 289.23 3014.10
   21:28:53.682.27-Aug-2021 4641.00 1216.93 82.43 23.00 289.43 3014.10
   21:28:53.882.27-Aug-2021 4641.00 1216.65 82.43 23.00 289.63 3014.10
   21:28:54.082.27-Aug-2021 4641.00 1216.84 82.43 23.00 289.83 3014.10
   21:28:54.282.27-Aug-2021 4641.00 1216.90 82.43 23.00 290.03 3014.10
   21:28:54.482.27-Aug-2021 4641.00 1216.90 82.43 23.00 290.23 3014.10
   21:28:54.682.27-Aug-2021 4641.00 1217.14 82.43 23.00 290.43 3014.10
   21:28:54.882.27-Aug-2021 4641.00 1216.16 82.43 23.00 290.63 3014.10
   21:28:55.082.27-Aug-2021 4641.00 1216.62 82.43 23.00 290.83 3014.10
   21:28:55.282.27-Aug-2021 4641.00 1216.64 82.43 23.00 291.03 3014.10
   21:28:55.482.27-Aug-2021 4641.00 1216.64 82.43 23.00 291.23 3014.10
   21:28:55.682.27-Aug-2021 4641.00 1216.86 82.43 23.00 291.43 3014.10
   21:28:55.882.27-Aug-2021 4641.00 1217.04 82.43 23.00 291.63 3014.10
   21:28:56.082.27-Aug-2021 4641.00 1216.26 82.43 23.00 291.83 3014.10
   21:28:56.282.27-Aug-2021 4641.00 1216.93 82.43 23.00 292.03 3014.10
   21:28:56.482.27-Aug-2021 4641.00 1216.93 82.43 23.00 292.23 3014.10
   21:28:56.682.27-Aug-2021 4641.00 1216.92 82.43 23.00 292.43 3014.10
   21:28:56.882.27-Aug-2021 4641.00 1217.04 82.43 23.00 292.63 3014.10
   21:28:57.082.27-Aug-2021 4641.00 1217.17 82.43 23.00 292.83 3014.10
   21:28:57.282.27-Aug-2021 4641.00 1217.27 82.43 23.00 293.03 3014.10
   21:28:57.482.27-Aug-2021 4641.00 1217.27 82.43 23.00 293.23 3014.10
   21:28:57.682.27-Aug-2021 4641.00 1217.46 82.43 23.00 293.43 3014.10
   21:28:57.882.27-Aug-2021 4641.00 1217.59 82.43 23.00 293.63 3014.10
