~Version Information
 VERS.                  2.0:   CWLS log ASCII Standard -VERSION 2.0
 WRAP.                   NO:   One line per depth step
~Well Information Block
#MNEM.UNIT     VALUE/NAME     DESCRIPTION
#---------     -----------    ---------------------------
 STRT.S             04:10:22 28-Aug-21: START TIME 04:10:22 28-Aug-21
 STOP.S             04:17:14 28-Aug-21: STOP TIME  04:17:14 28-Aug-21
 STEP.S                   0.00: STEP TIME
 NULL.                 -999.25: NULL VALUE
 DFWT.                        :  DIST FWL TEXT
 DFST.                        :  DIST FSL TEXT
 DMF .             Drill Floor:  DRILL MEAS FROM
 STIM.      20.00.00 17-Aug-21:  START TIME
 DATE.      19.00.00 29-Aug-21:  END TIME
 SPUD.               15-Aug-21:  SPUD DATE
 NREF.                    Grid:  NORTH REFERENCE
 HPTY.       Minimum Curvature:  HOLE POS TYPE
 DMOD.             Drill Model:  DRILL MOD DESC
 SVYD.                  Survey:  SURVEY DESC
 ILTD.               Lithology:  INTERP LTH DESC
 FTOP.          Formation Tops:  FORM TOPS DESC
 RIG .              East Azeri:  RIG NAME
 PDAT.          Mean Sea Level:  PERMANENT DATUM
 FLD .                     ACG:  FIELD NAME
 SON .        AZ-XX-0907180857:  JOB NUMBER
 CTRY.              Azerbaijan:  COUNTRY NAME
 WELL.                    D23x:  WELL NAME
 SRVC.     Turan Drilling and Engineering:  CONTRACTOR
 COMP.     BP Exploration (Caspian Sea) Ltd.:  COMPANY
 UWI .            /AZE00000214:  UNIQUE WELL IDENTIFIER
 API .            /AZE00000214:  API NUMBER
 MDS .        Operator Entered:  MAG DATA SOURCE
 BASE.              Azerbaijan:  LOGGING EQUIPMENT BASE LOCATION
 REGN.                   EESSA:  REGION
 PROV.                    Baku:  PROVINCE
 STAT.                    Baku:  STATE NAME
 MWDS.                    Baku:  MWD SHOP
 DOE .                     N/A:  DOE NUMBER
 DCON.         Sperry Drilling:  DIRECTNL CONTR
 UNIT.                     N/A:  LOGGING EQUIPMENT ID
 WTYP.                Deviated:  WELL TYPE
 CNTY.                        :  COUNTY
 LOC .                        :  LOCATION
 LMF .             Drill Floor:  LOG MEASURED FROM
 TVDS.m                  43.60:  TVDSS CORRECTN
 LATI.deg                40.02:  LATITUDE
 LONG.deg                51.45:  LONGITUDE
 WHNS.m                  -7.04:  WELL HEAD N/S
 WHEW.m                  -0.67:  WELL HEAD E/W
 UTMX.m              538762.90:  UTM X
 UTMY.m             4431871.34:  UTM Y
 DFWL.m                   0.00:  DISTANCE FWL
 DFSL.m                   0.00:  DISTANCE FSL
 SDEP.m                4127.00:  START DEPTH
 TDD .m                5084.50:  TOTAL DEPTH (DRILLER)
 VSDR.deg               140.47:  VERT SEC DIRECT
 GVFD.g                   1.00:  GRAVITY FIELD
 MFLD.nT              50362.00:  MAGNETIC FIELD
 MDIP.deg                59.48:  MAGNETIC DIP
 MDEC.deg                 6.47:  MAGNETIC DECL
 GRDC.deg                 0.31:  GRID CORRECTION
 AZTC.deg                 6.16:  AZM TOTAL CORR
 EPD .m                   0.00:  ELEVATION
 EGL .m                   0.00:  GROUND ELEVATION
 WDMS.m                 151.80:  WD ELEV
 APD .m                  43.60:  DEPTH ABOVE PD
 DEP .m                4092.57:  DEPTH
 AGAP.m                  43.60:  AIR GAP
 VSEW.m                  -0.67:  VERT SEC E/W
 VSNS.m                  -7.04:  VERT SEC N/S
 EKB .m                  43.60:  KB ELEVATION
 EDF .m                  43.60:  DF ELEVATION
 TDL .m                 957.50:  TOTAL DEPTH (LOGGER)
 VSC .                       0:  VS TO CLOSURE
 MAGU.                 1851413:  MAGUTM CHECKSUM
~Parameter Information Block
#MNEM.UNIT       Value        Description
#---------     -----------    ---------------------------
 AV  .mps                 1.50:  Ann Velocity 
 AVMX.mps                 2.00:  Max Ann Veloc 
 AZIF.deg               184.66:  Azm, Final 
 BHAT.        Rotary Steerable:  BHA Type 
 BREV.rev               300.00:  Rev Bit Total 
 BROT.°/30m              -0.50:  Build Rotating 
 BS  .in                  8.50:  Bit Size 
 BSZ .in                  8.50:  Bit Size 
 BTPL.psig              370.00:  Bit Press Loss 
 CABU.                      No:  Customer Abuse 
 CGEO.      Behruz Shahbaliyev:  Customer Geo 
 COMM.                     LÁp:  Run Comments 1 
 TCS .hr                140.08:  Time Ciculation Ended 
 CV  .mps                 3.00:  Crit Velocity 
 CVMX.mps                 3.20:  Max Crit Veloc 
 DD1 .            Musa Ahmadov:  Direct Drillr 1 
 DD2 .           Hamid Ahmadov:  Direct Drillr 2 
 DDSV.               Geo-Pilot:  DD Service 
 DEFF.%                  98.40:  % Det Eff 
 DLRX.°/30m               3.40:  Dogleg Rot Max 
 DLSO.°/30m               1.45:  Dogleg Oriented 
 DLSX.°/30m               3.40:  Dogleg Str Max 
 DRET.      18.40.00 29-Aug-21:  Drill End Time 
 DRST.      21.00.00 20-Aug-21:  Drill Start Tim 
 DTIM.hr                 69.47:  Time Drilling 
 EDEP.m                5084.50:  End Depth 
 ENG1.      Artemiy Matviyanov:  Engineer 1 
 ENG2.         Almaz Almadatov:  Engineer 2 
 ETIM.      18.40.00 29-Aug-21:  End Time 
 FLOI.gpm               500.00:  Flow In 
 FLON.gpm               400.00:  Flow In Min 
 FLOS.cptm                0.00:  Fluid Loss 
 FLOX.gpm               500.00:  Flow In Max 
 DFT .        Mineral Oil Base:  Mud Type 
 HFLO.                      No:  High Flow 
 HPRE.                      No:  High Pressure 
 HTEM.                      No:  High Temp 
 HYDO.m                   1.80:  Hydro Offset 
 IFIN.deg                25.62:  Inc, Final 
 IMAX.deg                48.69:  Inc Max 
 IMIN.deg                24.01:  Inc Min 
 IMND.m                4962.57:  Inc Min Depth 
 IMXD.m                4119.01:  Inc Max Depth 
 JARR.                      No:  Jarring 
 LETM.      18.40.00 29-Aug-21:  Log End Time 
 LOST.hr                     0:  Lost Rig Time 
 LSTM.      21.00.00 20-Aug-21:  Log Start Time 
 MDCL.ppm             41500.00:  Mud Chlorides 
 MDES.     Inversion Oil/Synthetic:  Mud Desc 
 DFD .sg                  1.56:  Mud Density 
 MDMN.sg                  1.56:  Dens Mud Min 
 MDMX.sg                  1.56:  Dens Mud Max 
 MOIL.                      70:  Run Mud Oil % 
 MOWR.                   70:30:  Run Mud OWR 
 MSND.                     0.2:  Run Mud Sand % 
 MSOL.                    23.3:  Run Mud Solids% 
 DFV .spqt               78.00:  Mud Viscosity 
 MWOD.in                  6.75:  MWD Tool OD 
 MWSI.                      No:  Serv Intrp, MWD 
 OTIM.hr                218.30:  Time Operating 
 PCON.           Look Like New:  Pad Condition 
 PMAX.psia            11015.30:  Press Op, Max 
 PV  .cP                 38.00:  Mud PV 
 RUN .                     300:  Run Number 
 ROPA.m/hr               15.00:  ROP Avg 
 ROPN.m/hr                9.00:  ROP Min 
 ROPX.m/hr               17.00:  ROP Max 
 RPMA.rpm               120.00:  RPM Surface Avg 
 RPMN.rpm                90.00:  RPM Surface Min 
 RPMX.rpm               140.00:  RPM Surface Max 
 RRUN.                     300:  Rig Run Number 
 RTIM.hr                 31.53:  Time Reaming 
 SAZI.deg               331.64:  Azm, Start 
 SDEP.m                4127.00:  Start Depth 
 SIDD.                      No:  Serv Intrp, DD 
 SINC.deg                48.43:  Inc, Start 
 SPPA.psig             5830.00:  SPP Avg 
 SPPN.psig             5600.00:  SPP Min 
 SPPX.psig             5900.00:  SPP Max 
 STIM.      21.00.00 20-Aug-21:  Start Time 
 SVCS.                 DD, MWD:  Services 
 SVER.                    9.20:  Sperry Version 
 TDAT.m                 957.50:  Tot Depth Attmp 
 TDDF.                      No:  Trip for DD 
 TDLG.m                 957.50:  Tot Depth Loggd 
 TFF .                      No:  Trip for Fail 
 TQAA.f-kp               15.00:  Torque Abs Avg 
 TQAN.f-kp               12.00:  Torque Abs Min 
 TQAX.f-kp               19.00:  Torque Abs Max 
 TRRT.°/30m              -3.40:  Turn Rotating 
 MRT .                  EWR-M5:  Maximum Recorded Temperature 
 TTMX.degC              100.00:  Max Tool Temp 
 VS01.                90639251:  Virtual Str1 SN 
 VS02.                90634715:  Virtual Str2 SN 
 VS03.                90652479:  Virtual Str3 SN 
 VS04.                90642262:  Virtual Str4 SN 
 WBMN.klb                 0.00:  WOB Min 
 WITN.           Murad Guliyev:  Customer Rep 
 WITN.          Yashar Gaziyev:  Customer Rep 2 
 WOBA.klb                 9.00:  WOB Avg 
 WOBX.klb                12.00:  WOB Max 
 YP  .lhf2               30.00:  Yield Point 
~Curve Information Block
#MNEM.UNIT                 API CODE     Curve Description
#---------               -----------    ---------------------------
 TIME.HHMMSS            00 000 000 000:  GT Time & Date
 GTDEPTH.m              00 000 000 000:  GT Depth
 GTPQH.psia             00 000 000 000:  GT HR Quartz Pressure
 GTTQ.degC              00 000 000 000:  GT Quartz Temperature
 GTTN.NONE              00 000 000 000:  GT Test Number
 GTET.sec               00 000 000 000:  GT Elapsed Test Time
 GTTVD.m                00 000 000 000:  GT True Vertical Depth
#Other Information
#
#WARRANTY: Halliburton will use its best efforts to furnish customers with 
#accurate information and interpretations that are part of, and incident to, the services 
#provided.  However, Halliburton cannot and does not warrant the accuracy 
#or correctness of such information and interpretations.  Under no circumstances should any 
#such information or interpretation be relied upon as the sole basis for any drilling, 
#completion, production, or financial decision or any procedure involving any risk to the 
#safety of any drilling venture, drilling rig or its crew or any other third party.  The 
#Customer has full responsibility for all drilling, completion and production operation.  
#Halliburton makes no representations or warranties, either expressed or 
#implied, including, but not limited to, the implied warranties of merchantability or fitness 
#for a particular purpose, with respect to the services rendered.  In no event will 
#Halliburton be liable for failure to obtain any particular results or for 
#any damages, including, but not limited to, indirect, special or consequential damages, 
#resulting from the use of any information or interpretation provided by Halliburton.
#
~A           TIME           GTDEPTH  GTPQH  GTTQ  GTTN   GTET   GTTVD  
# ...
   04:14:09.139.28-Aug-2021 4978.00 7972.03 80.44 29.00 226.32 3319.69
   04:14:09.339.28-Aug-2021 4978.00 7972.03 80.44 29.00 226.52 3319.69
   04:14:09.539.28-Aug-2021 4978.00 7971.70 80.44 29.00 226.72 3319.69
   04:14:09.740.28-Aug-2021 4978.00 7971.17 80.44 29.00 226.92 3319.69
   04:14:09.940.28-Aug-2021 4978.00 7970.98 80.44 29.00 227.12 3319.69
   04:14:10.140.28-Aug-2021 4978.00 7971.27 80.44 29.00 227.32 3319.69
   04:14:10.341.28-Aug-2021 4978.00 7971.27 80.44 29.00 227.52 3319.69
   04:14:10.541.28-Aug-2021 4978.00 7972.44 80.44 29.00 227.72 3319.69
   04:14:10.741.28-Aug-2021 4978.00 7972.38 80.44 29.00 227.92 3319.69
   04:14:10.941.28-Aug-2021 4978.00 7972.04 80.44 29.00 228.12 3319.69
   04:14:11.142.28-Aug-2021 4978.00 7971.94 80.44 29.00 228.32 3319.69
   04:14:11.342.28-Aug-2021 4978.00 7971.94 80.44 29.00 228.52 3319.69
   04:14:11.542.28-Aug-2021 4978.00 7971.90 80.44 29.00 228.72 3319.69
   04:14:11.742.28-Aug-2021 4978.00 7975.03 80.44 29.00 228.92 3319.69
   04:14:11.943.28-Aug-2021 4978.00 7972.32 80.44 29.00 229.12 3319.69
   04:14:12.143.28-Aug-2021 4978.00 7972.65 80.44 29.00 229.32 3319.69
   04:14:12.343.28-Aug-2021 4978.00 7972.65 80.44 29.00 229.52 3319.69
   04:14:12.544.28-Aug-2021 4978.00 7971.69 80.44 29.00 229.72 3319.69
   04:14:12.744.28-Aug-2021 4978.00 7975.93 80.44 29.00 229.92 3319.69
   04:14:12.944.28-Aug-2021 4978.00 7972.25 80.44 29.00 230.12 3319.69
   04:14:13.144.28-Aug-2021 4978.00 7971.20 80.44 29.00 230.32 3319.69
   04:14:13.345.28-Aug-2021 4978.00 7971.20 80.44 29.00 230.52 3319.69
   04:14:13.545.28-Aug-2021 4978.00 7975.55 80.44 29.00 230.72 3319.69
   04:14:13.745.28-Aug-2021 4978.00 7972.58 80.44 29.00 230.92 3319.69
   04:14:13.946.28-Aug-2021 4978.00 7972.47 80.44 29.00 231.12 3319.69
   04:14:14.146.28-Aug-2021 4978.00 7971.93 80.44 29.00 231.33 3319.69
   04:14:14.346.28-Aug-2021 4978.00 7971.93 80.44 29.00 231.53 3319.69
   04:14:14.546.28-Aug-2021 4978.00 7972.40 80.44 29.00 231.73 3319.69
   04:14:14.747.28-Aug-2021 4978.00 7973.34 80.44 29.00 231.93 3319.69
   04:14:14.947.28-Aug-2021 4978.00 7972.07 80.44 29.00 232.13 3319.69
   04:14:15.147.28-Aug-2021 4978.00 7971.89 80.44 29.00 232.33 3319.69
   04:14:15.348.28-Aug-2021 4978.00 7971.89 80.44 29.00 232.53 3319.69
   04:14:15.548.28-Aug-2021 4978.00 7972.48 80.44 29.00 232.73 3319.69
   04:14:15.748.28-Aug-2021 4978.00 7971.95 80.44 29.00 232.93 3319.69
   04:14:15.948.28-Aug-2021 4978.00 7971.41 80.44 29.00 233.13 3319.69
   04:14:16.149.28-Aug-2021 4978.00 7971.70 80.44 29.00 233.33 3319.69
   04:14:16.349.28-Aug-2021 4978.00 7971.70 80.44 29.00 233.53 3319.69
   04:14:16.549.28-Aug-2021 4978.00 7972.47 80.44 29.00 233.73 3319.69
   04:14:16.750.28-Aug-2021 4978.00 7972.49 80.44 29.00 233.93 3319.69
   04:14:16.950.28-Aug-2021 4978.00 7972.32 80.44 29.00 234.13 3319.69
   04:14:17.150.28-Aug-2021 4978.00 7972.12 80.44 29.00 234.33 3319.69
   04:14:17.350.28-Aug-2021 4978.00 7972.12 80.44 29.00 234.53 3319.69
   04:14:17.551.28-Aug-2021 4978.00 7971.82 80.44 29.00 234.73 3319.69
   04:14:17.751.28-Aug-2021 4978.00 7975.27 80.43 29.00 234.93 3319.69
   04:14:17.951.28-Aug-2021 4978.00 7973.02 80.43 29.00 235.13 3319.69
   04:14:18.152.28-Aug-2021 4978.00 7971.65 80.43 29.00 235.33 3319.69
   04:14:18.352.28-Aug-2021 4978.00 7971.65 80.43 29.00 235.53 3319.69
   04:14:18.552.28-Aug-2021 4978.00 7971.43 80.43 29.00 235.73 3319.69
   04:14:18.752.28-Aug-2021 4978.00 7971.64 80.43 29.00 235.93 3319.69
   04:14:18.953.28-Aug-2021 4978.00 7971.36 80.43 29.00 236.13 3319.69
   04:14:19.153.28-Aug-2021 4978.00 7971.04 80.43 29.00 236.33 3319.69
   04:14:19.353.28-Aug-2021 4978.00 7971.04 80.43 29.00 236.53 3319.69
   04:14:19.553.28-Aug-2021 4978.00 7971.71 80.43 29.00 236.73 3319.69
   04:14:19.754.28-Aug-2021 4978.00 7972.63 80.43 29.00 236.93 3319.69
   04:14:19.954.28-Aug-2021 4978.00 7972.88 80.43 29.00 237.13 3319.69
   04:14:20.154.28-Aug-2021 4978.00 7972.57 80.43 29.00 237.33 3319.69
   04:14:20.355.28-Aug-2021 4978.00 7972.57 80.43 29.00 237.53 3319.69
   04:14:20.555.28-Aug-2021 4978.00 7972.43 80.43 29.00 237.73 3319.69
   04:14:20.755.28-Aug-2021 4978.00 7972.38 80.43 29.00 237.93 3319.69
   04:14:20.955.28-Aug-2021 4978.00 7972.32 80.43 29.00 238.13 3319.69
   04:14:21.156.28-Aug-2021 4978.00 7976.38 80.43 29.00 238.33 3319.69
   04:14:21.356.28-Aug-2021 4978.00 7976.38 80.43 29.00 238.54 3319.69
   04:14:21.556.28-Aug-2021 4978.00 7971.89 80.43 29.00 238.74 3319.69
   04:14:21.757.28-Aug-2021 4978.00 7972.00 80.43 29.00 238.94 3319.69
   04:14:21.957.28-Aug-2021 4978.00 7975.15 80.43 29.00 239.14 3319.69
   04:14:22.157.28-Aug-2021 4978.00 7972.88 80.43 29.00 239.34 3319.69
   04:14:22.357.28-Aug-2021 4978.00 7972.88 80.43 29.00 239.54 3319.69
   04:14:22.558.28-Aug-2021 4978.00 7971.33 80.43 29.00 239.74 3319.69
   04:14:22.758.28-Aug-2021 4978.00 7974.36 80.43 29.00 239.94 3319.69
   04:14:22.958.28-Aug-2021 4978.00 7972.30 80.43 29.00 240.14 3319.69
   04:14:23.159.28-Aug-2021 4978.00 7973.55 80.43 29.00 240.34 3319.69
   04:14:23.359.28-Aug-2021 4978.00 7973.55 80.43 29.00 240.54 3319.69
   04:14:23.559.28-Aug-2021 4978.00 7971.37 80.43 29.00 240.74 3319.69
   04:14:23.759.28-Aug-2021 4978.00 7975.70 80.43 29.00 240.94 3319.69
   04:14:23.960.28-Aug-2021 4978.00 7972.73 80.43 29.00 241.14 3319.69
   04:14:24.160.28-Aug-2021 4978.00 7972.09 80.43 29.00 241.34 3319.69
   04:14:24.360.28-Aug-2021 4978.00 7972.09 80.43 29.00 241.54 3319.69
   04:14:24.561.28-Aug-2021 4978.00 7971.78 80.43 29.00 241.74 3319.69
   04:14:24.761.28-Aug-2021 4978.00 7972.34 80.43 29.00 241.94 3319.69
   04:14:24.961.28-Aug-2021 4978.00 7972.12 80.43 29.00 242.14 3319.69
   04:14:25.161.28-Aug-2021 4978.00 7971.92 80.43 29.00 242.34 3319.69
   04:14:25.362.28-Aug-2021 4978.00 7971.92 80.43 29.00 242.54 3319.69
   04:14:25.562.28-Aug-2021 4978.00 7971.69 80.43 29.00 242.74 3319.69
   04:14:25.762.28-Aug-2021 4978.00 7972.59 80.43 29.00 242.94 3319.69
   04:14:25.962.28-Aug-2021 4978.00 7972.74 80.43 29.00 243.14 3319.69
   04:14:26.163.28-Aug-2021 4978.00 7972.54 80.43 29.00 243.34 3319.69
   04:14:26.363.28-Aug-2021 4978.00 7972.54 80.43 29.00 243.54 3319.69
   04:14:26.563.28-Aug-2021 4978.00 7972.16 80.43 29.00 243.74 3319.69
   04:14:26.764.28-Aug-2021 4978.00 7972.09 80.43 29.00 243.94 3319.69
   04:14:26.964.28-Aug-2021 4978.00 7977.97 80.43 29.00 244.14 3319.69
   04:14:27.164.28-Aug-2021 4978.00 7970.50 80.43 29.00 244.34 3319.69
   04:14:27.364.28-Aug-2021 4978.00 7970.50 80.43 29.00 244.54 3319.69
   04:14:27.565.28-Aug-2021 4978.00 7971.89 80.43 29.00 244.74 3319.69
   04:14:27.765.28-Aug-2021 4978.00 7972.15 80.43 29.00 244.94 3319.69
   04:14:27.965.28-Aug-2021 4978.00 7972.00 80.43 29.00 245.14 3319.69
   04:14:28.166.28-Aug-2021 4978.00 7971.92 80.43 29.00 245.34 3319.69
   04:14:28.366.28-Aug-2021 4978.00 7971.92 80.43 29.00 245.55 3319.69
   04:14:28.566.28-Aug-2021 4978.00 7971.35 80.43 29.00 245.75 3319.69
   04:14:28.766.28-Aug-2021 4978.00 7971.90 80.43 29.00 245.95 3319.69
   04:14:28.967.28-Aug-2021 4978.00 7972.78 80.43 29.00 246.15 3319.69
   04:14:29.167.28-Aug-2021 4978.00 7973.24 80.43 29.00 246.35 3319.69
   04:14:29.367.28-Aug-2021 4978.00 7973.24 80.43 29.00 246.55 3319.69
   04:14:29.568.28-Aug-2021 4978.00 7972.92 80.43 29.00 246.75 3319.69
   04:14:29.768.28-Aug-2021 4978.00 7972.79 80.43 29.00 246.95 3319.69
   04:14:29.968.28-Aug-2021 4978.00 7972.74 80.43 29.00 247.15 3319.69
   04:14:30.168.28-Aug-2021 4978.00 7972.43 80.43 29.00 247.35 3319.69
   04:14:30.369.28-Aug-2021 4978.00 7972.43 80.43 29.00 247.55 3319.69
   04:14:30.569.28-Aug-2021 4978.00 7971.32 80.43 29.00 247.75 3319.69
   04:14:30.769.28-Aug-2021 4978.00 7971.41 80.43 29.00 247.95 3319.69
   04:14:30.970.28-Aug-2021 4978.00 7970.26 80.43 29.00 248.15 3319.69
   04:14:31.170.28-Aug-2021 4978.00 7970.47 80.43 29.00 248.35 3319.69
   04:14:31.370.28-Aug-2021 4978.00 7970.47 80.43 29.00 248.55 3319.69
   04:14:31.570.28-Aug-2021 4978.00 7970.92 80.43 29.00 248.75 3319.69
