~Version Information
 VERS.                  2.0:   CWLS log ASCII Standard -VERSION 2.0
 WRAP.                   NO:   One line per depth step
~Well Information Block
#MNEM.UNIT     VALUE/NAME     DESCRIPTION
#---------     -----------    ---------------------------
 STRT.S             02:31:31 28-Aug-21: START TIME 02:31:31 28-Aug-21
 STOP.S             02:38:23 28-Aug-21: STOP TIME  02:38:23 28-Aug-21
 STEP.S                   0.00: STEP TIME
 NULL.                 -999.25: NULL VALUE
 DFWT.                        :  DIST FWL TEXT
 DFST.                        :  DIST FSL TEXT
 DMF .             Drill Floor:  DRILL MEAS FROM
 STIM.      20.00.00 17-Aug-21:  START TIME
 DATE.      19.00.00 29-Aug-21:  END TIME
 SPUD.               15-Aug-21:  SPUD DATE
 NREF.                    Grid:  NORTH REFERENCE
 HPTY.       Minimum Curvature:  HOLE POS TYPE
 DMOD.             Drill Model:  DRILL MOD DESC
 SVYD.                  Survey:  SURVEY DESC
 ILTD.               Lithology:  INTERP LTH DESC
 FTOP.          Formation Tops:  FORM TOPS DESC
 RIG .              East Azeri:  RIG NAME
 PDAT.          Mean Sea Level:  PERMANENT DATUM
 FLD .                     ACG:  FIELD NAME
 SON .        AZ-XX-0907180857:  JOB NUMBER
 CTRY.              Azerbaijan:  COUNTRY NAME
 WELL.                    D23x:  WELL NAME
 SRVC.     Turan Drilling and Engineering:  CONTRACTOR
 COMP.     BP Exploration (Caspian Sea) Ltd.:  COMPANY
 UWI .            /AZE00000214:  UNIQUE WELL IDENTIFIER
 API .            /AZE00000214:  API NUMBER
 MDS .        Operator Entered:  MAG DATA SOURCE
 BASE.              Azerbaijan:  LOGGING EQUIPMENT BASE LOCATION
 REGN.                   EESSA:  REGION
 PROV.                    Baku:  PROVINCE
 STAT.                    Baku:  STATE NAME
 MWDS.                    Baku:  MWD SHOP
 DOE .                     N/A:  DOE NUMBER
 DCON.         Sperry Drilling:  DIRECTNL CONTR
 UNIT.                     N/A:  LOGGING EQUIPMENT ID
 WTYP.                Deviated:  WELL TYPE
 CNTY.                        :  COUNTY
 LOC .                        :  LOCATION
 LMF .             Drill Floor:  LOG MEASURED FROM
 TVDS.m                  43.60:  TVDSS CORRECTN
 LATI.deg                40.02:  LATITUDE
 LONG.deg                51.45:  LONGITUDE
 WHNS.m                  -7.04:  WELL HEAD N/S
 WHEW.m                  -0.67:  WELL HEAD E/W
 UTMX.m              538762.90:  UTM X
 UTMY.m             4431871.34:  UTM Y
 DFWL.m                   0.00:  DISTANCE FWL
 DFSL.m                   0.00:  DISTANCE FSL
 SDEP.m                4127.00:  START DEPTH
 TDD .m                5084.50:  TOTAL DEPTH (DRILLER)
 VSDR.deg               140.47:  VERT SEC DIRECT
 GVFD.g                   1.00:  GRAVITY FIELD
 MFLD.nT              50362.00:  MAGNETIC FIELD
 MDIP.deg                59.48:  MAGNETIC DIP
 MDEC.deg                 6.47:  MAGNETIC DECL
 GRDC.deg                 0.31:  GRID CORRECTION
 AZTC.deg                 6.16:  AZM TOTAL CORR
 EPD .m                   0.00:  ELEVATION
 EGL .m                   0.00:  GROUND ELEVATION
 WDMS.m                 151.80:  WD ELEV
 APD .m                  43.60:  DEPTH ABOVE PD
 DEP .m                4092.57:  DEPTH
 AGAP.m                  43.60:  AIR GAP
 VSEW.m                  -0.67:  VERT SEC E/W
 VSNS.m                  -7.04:  VERT SEC N/S
 EKB .m                  43.60:  KB ELEVATION
 EDF .m                  43.60:  DF ELEVATION
 TDL .m                 957.50:  TOTAL DEPTH (LOGGER)
 VSC .                       0:  VS TO CLOSURE
 MAGU.                 1851413:  MAGUTM CHECKSUM
~Parameter Information Block
#MNEM.UNIT       Value        Description
#---------     -----------    ---------------------------
 AV  .mps                 1.50:  Ann Velocity 
 AVMX.mps                 2.00:  Max Ann Veloc 
 AZIF.deg               184.66:  Azm, Final 
 BHAT.        Rotary Steerable:  BHA Type 
 BREV.rev               300.00:  Rev Bit Total 
 BROT.°/30m              -0.50:  Build Rotating 
 BS  .in                  8.50:  Bit Size 
 BSZ .in                  8.50:  Bit Size 
 BTPL.psig              370.00:  Bit Press Loss 
 CABU.                      No:  Customer Abuse 
 CGEO.      Behruz Shahbaliyev:  Customer Geo 
 COMM.                     Œjp:  Run Comments 1 
 TCS .hr                140.08:  Time Ciculation Ended 
 CV  .mps                 3.00:  Crit Velocity 
 CVMX.mps                 3.20:  Max Crit Veloc 
 DD1 .            Musa Ahmadov:  Direct Drillr 1 
 DD2 .           Hamid Ahmadov:  Direct Drillr 2 
 DDSV.               Geo-Pilot:  DD Service 
 DEFF.%                  98.40:  % Det Eff 
 DLRX.°/30m               3.40:  Dogleg Rot Max 
 DLSO.°/30m               1.45:  Dogleg Oriented 
 DLSX.°/30m               3.40:  Dogleg Str Max 
 DRET.      18.40.00 29-Aug-21:  Drill End Time 
 DRST.      21.00.00 20-Aug-21:  Drill Start Tim 
 DTIM.hr                 69.47:  Time Drilling 
 EDEP.m                5084.50:  End Depth 
 ENG1.      Artemiy Matviyanov:  Engineer 1 
 ENG2.         Almaz Almadatov:  Engineer 2 
 ETIM.      18.40.00 29-Aug-21:  End Time 
 FLOI.gpm               500.00:  Flow In 
 FLON.gpm               400.00:  Flow In Min 
 FLOS.cptm                0.00:  Fluid Loss 
 FLOX.gpm               500.00:  Flow In Max 
 DFT .        Mineral Oil Base:  Mud Type 
 HFLO.                      No:  High Flow 
 HPRE.                      No:  High Pressure 
 HTEM.                      No:  High Temp 
 HYDO.m                   1.80:  Hydro Offset 
 IFIN.deg                25.62:  Inc, Final 
 IMAX.deg                48.69:  Inc Max 
 IMIN.deg                24.01:  Inc Min 
 IMND.m                4962.57:  Inc Min Depth 
 IMXD.m                4119.01:  Inc Max Depth 
 JARR.                      No:  Jarring 
 LETM.      18.40.00 29-Aug-21:  Log End Time 
 LOST.hr                     0:  Lost Rig Time 
 LSTM.      21.00.00 20-Aug-21:  Log Start Time 
 MDCL.ppm             41500.00:  Mud Chlorides 
 MDES.     Inversion Oil/Synthetic:  Mud Desc 
 DFD .sg                  1.56:  Mud Density 
 MDMN.sg                  1.56:  Dens Mud Min 
 MDMX.sg                  1.56:  Dens Mud Max 
 MOIL.                      70:  Run Mud Oil % 
 MOWR.                   70:30:  Run Mud OWR 
 MSND.                     0.2:  Run Mud Sand % 
 MSOL.                    23.3:  Run Mud Solids% 
 DFV .spqt               78.00:  Mud Viscosity 
 MWOD.in                  6.75:  MWD Tool OD 
 MWSI.                      No:  Serv Intrp, MWD 
 OTIM.hr                218.30:  Time Operating 
 PCON.           Look Like New:  Pad Condition 
 PMAX.psia            11015.30:  Press Op, Max 
 PV  .cP                 38.00:  Mud PV 
 RUN .                     300:  Run Number 
 ROPA.m/hr               15.00:  ROP Avg 
 ROPN.m/hr                9.00:  ROP Min 
 ROPX.m/hr               17.00:  ROP Max 
 RPMA.rpm               120.00:  RPM Surface Avg 
 RPMN.rpm                90.00:  RPM Surface Min 
 RPMX.rpm               140.00:  RPM Surface Max 
 RRUN.                     300:  Rig Run Number 
 RTIM.hr                 31.53:  Time Reaming 
 SAZI.deg               331.64:  Azm, Start 
 SDEP.m                4127.00:  Start Depth 
 SIDD.                      No:  Serv Intrp, DD 
 SINC.deg                48.43:  Inc, Start 
 SPPA.psig             5830.00:  SPP Avg 
 SPPN.psig             5600.00:  SPP Min 
 SPPX.psig             5900.00:  SPP Max 
 STIM.      21.00.00 20-Aug-21:  Start Time 
 SVCS.                 DD, MWD:  Services 
 SVER.                    9.20:  Sperry Version 
 TDAT.m                 957.50:  Tot Depth Attmp 
 TDDF.                      No:  Trip for DD 
 TDLG.m                 957.50:  Tot Depth Loggd 
 TFF .                      No:  Trip for Fail 
 TQAA.f-kp               15.00:  Torque Abs Avg 
 TQAN.f-kp               12.00:  Torque Abs Min 
 TQAX.f-kp               19.00:  Torque Abs Max 
 TRRT.°/30m              -3.40:  Turn Rotating 
 MRT .                  EWR-M5:  Maximum Recorded Temperature 
 TTMX.degC              100.00:  Max Tool Temp 
 VS01.                90639251:  Virtual Str1 SN 
 VS02.                90634715:  Virtual Str2 SN 
 VS03.                90652479:  Virtual Str3 SN 
 VS04.                90642262:  Virtual Str4 SN 
 WBMN.klb                 0.00:  WOB Min 
 WITN.           Murad Guliyev:  Customer Rep 
 WITN.          Yashar Gaziyev:  Customer Rep 2 
 WOBA.klb                 9.00:  WOB Avg 
 WOBX.klb                12.00:  WOB Max 
 YP  .lhf2               30.00:  Yield Point 
~Curve Information Block
#MNEM.UNIT                 API CODE     Curve Description
#---------               -----------    ---------------------------
 TIME.HHMMSS            00 000 000 000:  GT Time & Date
 GTDEPTH.m              00 000 000 000:  GT Depth
 GTPQH.psia             00 000 000 000:  GT HR Quartz Pressure
 GTTQ.degC              00 000 000 000:  GT Quartz Temperature
 GTTN.NONE              00 000 000 000:  GT Test Number
 GTET.sec               00 000 000 000:  GT Elapsed Test Time
 GTTVD.m                00 000 000 000:  GT True Vertical Depth
#Other Information
#
#WARRANTY: Halliburton will use its best efforts to furnish customers with 
#accurate information and interpretations that are part of, and incident to, the services 
#provided.  However, Halliburton cannot and does not warrant the accuracy 
#or correctness of such information and interpretations.  Under no circumstances should any 
#such information or interpretation be relied upon as the sole basis for any drilling, 
#completion, production, or financial decision or any procedure involving any risk to the 
#safety of any drilling venture, drilling rig or its crew or any other third party.  The 
#Customer has full responsibility for all drilling, completion and production operation.  
#Halliburton makes no representations or warranties, either expressed or 
#implied, including, but not limited to, the implied warranties of merchantability or fitness 
#for a particular purpose, with respect to the services rendered.  In no event will 
#Halliburton be liable for failure to obtain any particular results or for 
#any damages, including, but not limited to, indirect, special or consequential damages, 
#resulting from the use of any information or interpretation provided by Halliburton.
#
~A           TIME           GTDEPTH  GTPQH  GTTQ  GTTN   GTET   GTTVD  
# ...
   02:37:56.309.28-Aug-2021 4891.00 7790.38 80.67 28.00 384.32 3240.41
   02:37:56.509.28-Aug-2021 4891.00 7791.30 80.67 28.00 384.52 3240.41
   02:37:56.709.28-Aug-2021 4891.00 7790.80 80.67 28.00 384.72 3240.41
   02:37:56.909.28-Aug-2021 4891.00 7790.84 80.67 28.00 384.92 3240.41
   02:37:57.110.28-Aug-2021 4891.00 7790.17 80.67 28.00 385.12 3240.41
   02:37:57.310.28-Aug-2021 4891.00 7790.17 80.67 28.00 385.32 3240.41
   02:37:57.510.28-Aug-2021 4891.00 7789.58 80.67 28.00 385.52 3240.41
   02:37:57.710.28-Aug-2021 4891.00 7789.92 80.67 28.00 385.72 3240.41
   02:37:57.910.28-Aug-2021 4891.00 7789.71 80.67 28.00 385.92 3240.41
   02:37:58.110.28-Aug-2021 4891.00 7791.02 80.67 28.00 386.12 3240.41
   02:37:58.310.28-Aug-2021 4891.00 7791.02 80.67 28.00 386.32 3240.41
   02:37:58.510.28-Aug-2021 4891.00 7791.71 80.67 28.00 386.52 3240.41
   02:37:58.710.28-Aug-2021 4891.00 7791.87 80.67 28.00 386.72 3240.41
   02:37:58.910.28-Aug-2021 4891.00 7791.75 80.67 28.00 386.92 3240.41
   02:37:59.110.28-Aug-2021 4891.00 7791.69 80.67 28.00 387.12 3240.41
   02:37:59.310.28-Aug-2021 4891.00 7791.69 80.67 28.00 387.32 3240.41
   02:37:59.510.28-Aug-2021 4891.00 7791.43 80.67 28.00 387.52 3240.41
   02:37:59.710.28-Aug-2021 4891.00 7793.16 80.67 28.00 387.72 3240.41
   02:37:59.910.28-Aug-2021 4891.00 7792.67 80.67 28.00 387.92 3240.41
   02:38:00.111.28-Aug-2021 4891.00 7792.16 80.67 28.00 388.12 3240.41
   02:38:00.311.28-Aug-2021 4891.00 7792.16 80.67 28.00 388.32 3240.41
   02:38:00.511.28-Aug-2021 4891.00 7791.67 80.67 28.00 388.52 3240.41
   02:38:00.711.28-Aug-2021 4891.00 7791.50 80.67 28.00 388.72 3240.41
   02:38:00.911.28-Aug-2021 4891.00 7793.96 80.67 28.00 388.92 3240.41
   02:38:01.111.28-Aug-2021 4891.00 7791.21 80.67 28.00 389.12 3240.41
   02:38:01.311.28-Aug-2021 4891.00 7791.21 80.67 28.00 389.32 3240.41
   02:38:01.511.28-Aug-2021 4891.00 7791.24 80.67 28.00 389.52 3240.41
   02:38:01.711.28-Aug-2021 4891.00 7791.42 80.67 28.00 389.72 3240.41
   02:38:01.911.28-Aug-2021 4891.00 7791.07 80.67 28.00 389.92 3240.41
   02:38:02.111.28-Aug-2021 4891.00 7794.44 80.67 28.00 390.12 3240.41
   02:38:02.311.28-Aug-2021 4891.00 7794.44 80.67 28.00 390.32 3240.41
   02:38:02.511.28-Aug-2021 4891.00 7792.58 80.67 28.00 390.52 3240.41
   02:38:02.711.28-Aug-2021 4891.00 7794.02 80.67 28.00 390.72 3240.41
   02:38:02.911.28-Aug-2021 4891.00 7792.59 80.67 28.00 390.92 3240.41
   02:38:03.111.28-Aug-2021 4891.00 7792.15 80.67 28.00 391.12 3240.41
   02:38:03.312.28-Aug-2021 4891.00 7792.15 80.67 28.00 391.32 3240.41
   02:38:03.512.28-Aug-2021 4891.00 7791.41 80.67 28.00 391.52 3240.41
   02:38:03.712.28-Aug-2021 4891.00 7791.16 80.67 28.00 391.72 3240.41
   02:38:03.912.28-Aug-2021 4891.00 7791.62 80.67 28.00 391.92 3240.41
   02:38:04.112.28-Aug-2021 4891.00 7791.38 80.67 28.00 392.12 3240.41
   02:38:04.312.28-Aug-2021 4891.00 7791.38 80.67 28.00 392.32 3240.41
   02:38:04.512.28-Aug-2021 4891.00 7791.51 80.67 28.00 392.52 3240.41
   02:38:04.712.28-Aug-2021 4891.00 7792.28 80.67 28.00 392.72 3240.41
   02:38:04.912.28-Aug-2021 4891.00 7792.13 80.67 28.00 392.92 3240.41
   02:38:05.112.28-Aug-2021 4891.00 7792.29 80.67 28.00 393.12 3240.41
   02:38:05.312.28-Aug-2021 4891.00 7792.29 80.67 28.00 393.32 3240.41
   02:38:05.512.28-Aug-2021 4891.00 7792.13 80.67 28.00 393.52 3240.41
   02:38:05.712.28-Aug-2021 4891.00 7791.98 80.67 28.00 393.72 3240.41
   02:38:05.912.28-Aug-2021 4891.00 7791.94 80.67 28.00 393.92 3240.41
   02:38:06.112.28-Aug-2021 4891.00 7794.54 80.67 28.00 394.12 3240.41
   02:38:06.312.28-Aug-2021 4891.00 7794.54 80.67 28.00 394.32 3240.41
   02:38:06.513.28-Aug-2021 4891.00 7792.67 80.67 28.00 394.52 3240.41
   02:38:06.713.28-Aug-2021 4891.00 7791.82 80.67 28.00 394.72 3240.41
   02:38:06.913.28-Aug-2021 4891.00 7791.63 80.67 28.00 394.92 3240.41
   02:38:07.113.28-Aug-2021 4891.00 7791.36 80.67 28.00 395.12 3240.41
   02:38:07.313.28-Aug-2021 4891.00 7791.36 80.67 28.00 395.32 3240.41
   02:38:07.513.28-Aug-2021 4891.00 7791.34 80.67 28.00 395.52 3240.41
   02:38:07.713.28-Aug-2021 4891.00 7791.86 80.67 28.00 395.72 3240.41
   02:38:07.913.28-Aug-2021 4891.00 7792.28 80.67 28.00 395.92 3240.41
   02:38:08.113.28-Aug-2021 4891.00 7792.33 80.67 28.00 396.12 3240.41
   02:38:08.313.28-Aug-2021 4891.00 7792.33 80.67 28.00 396.32 3240.41
   02:38:08.513.28-Aug-2021 4891.00 7792.40 80.67 28.00 396.52 3240.41
   02:38:08.713.28-Aug-2021 4891.00 7792.21 80.67 28.00 396.72 3240.41
   02:38:08.913.28-Aug-2021 4891.00 7792.13 80.67 28.00 396.92 3240.41
   02:38:09.113.28-Aug-2021 4891.00 7791.99 80.67 28.00 397.13 3240.41
   02:38:09.313.28-Aug-2021 4891.00 7791.99 80.67 28.00 397.33 3240.41
   02:38:09.513.28-Aug-2021 4891.00 7794.68 80.67 28.00 397.53 3240.41
   02:38:09.714.28-Aug-2021 4891.00 7791.49 80.67 28.00 397.73 3240.41
   02:38:09.914.28-Aug-2021 4891.00 7792.94 80.67 28.00 397.93 3240.41
   02:38:10.114.28-Aug-2021 4891.00 7791.79 80.67 28.00 398.13 3240.41
   02:38:10.314.28-Aug-2021 4891.00 7791.79 80.67 28.00 398.33 3240.41
   02:38:10.514.28-Aug-2021 4891.00 7795.88 80.67 28.00 398.53 3240.41
   02:38:10.714.28-Aug-2021 4891.00 7789.47 80.67 28.00 398.73 3240.41
   02:38:10.914.28-Aug-2021 4891.00 7792.30 80.67 28.00 398.93 3240.41
   02:38:11.114.28-Aug-2021 4891.00 7791.73 80.67 28.00 399.13 3240.41
   02:38:11.314.28-Aug-2021 4891.00 7791.73 80.67 28.00 399.33 3240.41
   02:38:11.514.28-Aug-2021 4891.00 7791.69 80.67 28.00 399.53 3240.41
   02:38:11.714.28-Aug-2021 4891.00 7796.82 80.67 28.00 399.73 3240.41
   02:38:11.914.28-Aug-2021 4891.00 7788.65 80.67 28.00 399.93 3240.41
   02:38:12.114.28-Aug-2021 4891.00 7793.19 80.67 28.00 400.13 3240.41
   02:38:12.314.28-Aug-2021 4891.00 7793.19 80.67 28.00 400.33 3240.41
   02:38:12.514.28-Aug-2021 4891.00 7793.72 80.67 28.00 400.53 3240.41
   02:38:12.714.28-Aug-2021 4891.00 7793.08 80.67 28.00 400.73 3240.41
   02:38:12.915.28-Aug-2021 4891.00 7792.11 80.67 28.00 400.93 3240.41
   02:38:13.115.28-Aug-2021 4891.00 7791.66 80.67 28.00 401.13 3240.41
   02:38:13.315.28-Aug-2021 4891.00 7791.66 80.67 28.00 401.33 3240.41
   02:38:13.515.28-Aug-2021 4891.00 7791.21 80.67 28.00 401.53 3240.41
   02:38:13.715.28-Aug-2021 4891.00 7791.29 80.67 28.00 401.73 3240.41
   02:38:13.915.28-Aug-2021 4891.00 7791.69 80.67 28.00 401.93 3240.41
   02:38:14.115.28-Aug-2021 4891.00 7791.47 80.67 28.00 402.13 3240.41
   02:38:14.315.28-Aug-2021 4891.00 7791.47 80.67 28.00 402.33 3240.41
   02:38:14.515.28-Aug-2021 4891.00 7792.10 80.67 28.00 402.53 3240.41
   02:38:14.715.28-Aug-2021 4891.00 7792.07 80.67 28.00 402.73 3240.41
   02:38:14.915.28-Aug-2021 4891.00 7792.03 80.67 28.00 402.93 3240.41
   02:38:15.115.28-Aug-2021 4891.00 7791.92 80.67 28.00 403.13 3240.41
   02:38:15.315.28-Aug-2021 4891.00 7791.92 80.67 28.00 403.33 3240.41
   02:38:15.515.28-Aug-2021 4891.00 7791.74 80.67 28.00 403.53 3240.41
   02:38:15.715.28-Aug-2021 4891.00 7791.47 80.67 28.00 403.73 3240.41
   02:38:15.915.28-Aug-2021 4891.00 7794.41 80.67 28.00 403.93 3240.41
   02:38:16.116.28-Aug-2021 4891.00 7791.51 80.67 28.00 404.13 3240.41
   02:38:16.316.28-Aug-2021 4891.00 7791.51 80.67 28.00 404.33 3240.41
   02:38:16.516.28-Aug-2021 4891.00 7791.71 80.67 28.00 404.53 3240.41
   02:38:16.716.28-Aug-2021 4891.00 7791.30 80.67 28.00 404.73 3240.41
   02:38:16.916.28-Aug-2021 4891.00 7791.16 80.67 28.00 404.93 3240.41
   02:38:17.116.28-Aug-2021 4891.00 7791.37 80.67 28.00 405.13 3240.41
   02:38:17.316.28-Aug-2021 4891.00 7791.37 80.67 28.00 405.33 3240.41
   02:38:17.516.28-Aug-2021 4891.00 7791.55 80.67 28.00 405.53 3240.41
   02:38:17.716.28-Aug-2021 4891.00 7792.42 80.67 28.00 405.73 3240.41
   02:38:17.916.28-Aug-2021 4891.00 7792.10 80.67 28.00 405.93 3240.41
   02:38:18.116.28-Aug-2021 4891.00 7792.57 80.67 28.00 406.13 3240.41
   02:38:18.316.28-Aug-2021 4891.00 7792.57 80.67 28.00 406.33 3240.41
   02:38:18.516.28-Aug-2021 4891.00 7792.33 80.67 28.00 406.53 3240.41
   02:38:18.716.28-Aug-2021 4891.00 7792.13 80.67 28.00 406.73 3240.41
