~Version Information
 VERS.                  2.0:   CWLS log ASCII Standard -VERSION 2.0
 WRAP.                   NO:   One line per depth step
~Well Information Block
#MNEM.UNIT     VALUE/NAME     DESCRIPTION
#---------     -----------    ---------------------------
 STRT.S             21:24:04 27-Aug-21: START TIME 21:24:04 27-Aug-21
 STOP.S             21:30:54 27-Aug-21: STOP TIME  21:30:54 27-Aug-21
 STEP.S                   0.00: STEP TIME
 NULL.                 -999.25: NULL VALUE
 DFWT.                        :  DIST FWL TEXT
 DFST.                        :  DIST FSL TEXT
 DMF .             Drill Floor:  DRILL MEAS FROM
 STIM.      20.00.00 17-Aug-21:  START TIME
 DATE.      19.00.00 29-Aug-21:  END TIME
 SPUD.               15-Aug-21:  SPUD DATE
 NREF.                    Grid:  NORTH REFERENCE
 HPTY.       Minimum Curvature:  HOLE POS TYPE
 DMOD.             Drill Model:  DRILL MOD DESC
 SVYD.                  Survey:  SURVEY DESC
 ILTD.               Lithology:  INTERP LTH DESC
 FTOP.          Formation Tops:  FORM TOPS DESC
 RIG .              East Azeri:  RIG NAME
 PDAT.          Mean Sea Level:  PERMANENT DATUM
 FLD .                     ACG:  FIELD NAME
 SON .        AZ-XX-0907180857:  JOB NUMBER
 CTRY.              Azerbaijan:  COUNTRY NAME
 WELL.                    D23x:  WELL NAME
 SRVC.     Turan Drilling and Engineering:  CONTRACTOR
 COMP.     BP Exploration (Caspian Sea) Ltd.:  COMPANY
 UWI .            /AZE00000214:  UNIQUE WELL IDENTIFIER
 API .            /AZE00000214:  API NUMBER
 MDS .        Operator Entered:  MAG DATA SOURCE
 BASE.              Azerbaijan:  LOGGING EQUIPMENT BASE LOCATION
 REGN.                   EESSA:  REGION
 PROV.                    Baku:  PROVINCE
 STAT.                    Baku:  STATE NAME
 MWDS.                    Baku:  MWD SHOP
 DOE .                     N/A:  DOE NUMBER
 DCON.         Sperry Drilling:  DIRECTNL CONTR
 UNIT.                     N/A:  LOGGING EQUIPMENT ID
 WTYP.                Deviated:  WELL TYPE
 CNTY.                        :  COUNTY
 LOC .                        :  LOCATION
 LMF .             Drill Floor:  LOG MEASURED FROM
 TVDS.m                  43.60:  TVDSS CORRECTN
 LATI.deg                40.02:  LATITUDE
 LONG.deg                51.45:  LONGITUDE
 WHNS.m                  -7.04:  WELL HEAD N/S
 WHEW.m                  -0.67:  WELL HEAD E/W
 UTMX.m              538762.90:  UTM X
 UTMY.m             4431871.34:  UTM Y
 DFWL.m                   0.00:  DISTANCE FWL
 DFSL.m                   0.00:  DISTANCE FSL
 SDEP.m                4127.00:  START DEPTH
 TDD .m                5084.50:  TOTAL DEPTH (DRILLER)
 VSDR.deg               140.47:  VERT SEC DIRECT
 GVFD.g                   1.00:  GRAVITY FIELD
 MFLD.nT              50362.00:  MAGNETIC FIELD
 MDIP.deg                59.48:  MAGNETIC DIP
 MDEC.deg                 6.47:  MAGNETIC DECL
 GRDC.deg                 0.31:  GRID CORRECTION
 AZTC.deg                 6.16:  AZM TOTAL CORR
 EPD .m                   0.00:  ELEVATION
 EGL .m                   0.00:  GROUND ELEVATION
 WDMS.m                 151.80:  WD ELEV
 APD .m                  43.60:  DEPTH ABOVE PD
 DEP .m                4092.57:  DEPTH
 AGAP.m                  43.60:  AIR GAP
 VSEW.m                  -0.67:  VERT SEC E/W
 VSNS.m                  -7.04:  VERT SEC N/S
 EKB .m                  43.60:  KB ELEVATION
 EDF .m                  43.60:  DF ELEVATION
 TDL .m                 957.50:  TOTAL DEPTH (LOGGER)
 VSC .                       0:  VS TO CLOSURE
 MAGU.                 1851413:  MAGUTM CHECKSUM
~Parameter Information Block
#MNEM.UNIT       Value        Description
#---------     -----------    ---------------------------
 AV  .mps                 1.50:  Ann Velocity 
 AVMX.mps                 2.00:  Max Ann Veloc 
 AZIF.deg               184.66:  Azm, Final 
 BHAT.        Rotary Steerable:  BHA Type 
 BREV.rev               300.00:  Rev Bit Total 
 BROT.°/30m              -0.50:  Build Rotating 
 BS  .in                  8.50:  Bit Size 
 BSZ .in                  8.50:  Bit Size 
 BTPL.psig              370.00:  Bit Press Loss 
 CABU.                      No:  Customer Abuse 
 CGEO.      Behruz Shahbaliyev:  Customer Geo 
 COMM.                     tºv:  Run Comments 1 
 TCS .hr                140.08:  Time Ciculation Ended 
 CV  .mps                 3.00:  Crit Velocity 
 CVMX.mps                 3.20:  Max Crit Veloc 
 DD1 .            Musa Ahmadov:  Direct Drillr 1 
 DD2 .           Hamid Ahmadov:  Direct Drillr 2 
 DDSV.               Geo-Pilot:  DD Service 
 DEFF.%                  98.40:  % Det Eff 
 DLRX.°/30m               3.40:  Dogleg Rot Max 
 DLSO.°/30m               1.45:  Dogleg Oriented 
 DLSX.°/30m               3.40:  Dogleg Str Max 
 DRET.      18.40.00 29-Aug-21:  Drill End Time 
 DRST.      21.00.00 20-Aug-21:  Drill Start Tim 
 DTIM.hr                 69.47:  Time Drilling 
 EDEP.m                5084.50:  End Depth 
 ENG1.      Artemiy Matviyanov:  Engineer 1 
 ENG2.         Almaz Almadatov:  Engineer 2 
 ETIM.      18.40.00 29-Aug-21:  End Time 
 FLOI.gpm               500.00:  Flow In 
 FLON.gpm               400.00:  Flow In Min 
 FLOS.cptm                0.00:  Fluid Loss 
 FLOX.gpm               500.00:  Flow In Max 
 DFT .        Mineral Oil Base:  Mud Type 
 HFLO.                      No:  High Flow 
 HPRE.                      No:  High Pressure 
 HTEM.                      No:  High Temp 
 HYDO.m                   1.80:  Hydro Offset 
 IFIN.deg                25.62:  Inc, Final 
 IMAX.deg                48.69:  Inc Max 
 IMIN.deg                24.01:  Inc Min 
 IMND.m                4962.57:  Inc Min Depth 
 IMXD.m                4119.01:  Inc Max Depth 
 JARR.                      No:  Jarring 
 LETM.      18.40.00 29-Aug-21:  Log End Time 
 LOST.hr                     0:  Lost Rig Time 
 LSTM.      21.00.00 20-Aug-21:  Log Start Time 
 MDCL.ppm             41500.00:  Mud Chlorides 
 MDES.     Inversion Oil/Synthetic:  Mud Desc 
 DFD .sg                  1.56:  Mud Density 
 MDMN.sg                  1.56:  Dens Mud Min 
 MDMX.sg                  1.56:  Dens Mud Max 
 MOIL.                      70:  Run Mud Oil % 
 MOWR.                   70:30:  Run Mud OWR 
 MSND.                     0.2:  Run Mud Sand % 
 MSOL.                    23.3:  Run Mud Solids% 
 DFV .spqt               78.00:  Mud Viscosity 
 MWOD.in                  6.75:  MWD Tool OD 
 MWSI.                      No:  Serv Intrp, MWD 
 OTIM.hr                218.30:  Time Operating 
 PCON.           Look Like New:  Pad Condition 
 PMAX.psia            11015.30:  Press Op, Max 
 PV  .cP                 38.00:  Mud PV 
 RUN .                     300:  Run Number 
 ROPA.m/hr               15.00:  ROP Avg 
 ROPN.m/hr                9.00:  ROP Min 
 ROPX.m/hr               17.00:  ROP Max 
 RPMA.rpm               120.00:  RPM Surface Avg 
 RPMN.rpm                90.00:  RPM Surface Min 
 RPMX.rpm               140.00:  RPM Surface Max 
 RRUN.                     300:  Rig Run Number 
 RTIM.hr                 31.53:  Time Reaming 
 SAZI.deg               331.64:  Azm, Start 
 SDEP.m                4127.00:  Start Depth 
 SIDD.                      No:  Serv Intrp, DD 
 SINC.deg                48.43:  Inc, Start 
 SPPA.psig             5830.00:  SPP Avg 
 SPPN.psig             5600.00:  SPP Min 
 SPPX.psig             5900.00:  SPP Max 
 STIM.      21.00.00 20-Aug-21:  Start Time 
 SVCS.                 DD, MWD:  Services 
 SVER.                    9.20:  Sperry Version 
 TDAT.m                 957.50:  Tot Depth Attmp 
 TDDF.                      No:  Trip for DD 
 TDLG.m                 957.50:  Tot Depth Loggd 
 TFF .                      No:  Trip for Fail 
 TQAA.f-kp               15.00:  Torque Abs Avg 
 TQAN.f-kp               12.00:  Torque Abs Min 
 TQAX.f-kp               19.00:  Torque Abs Max 
 TRRT.°/30m              -3.40:  Turn Rotating 
 MRT .                  EWR-M5:  Maximum Recorded Temperature 
 TTMX.degC              100.00:  Max Tool Temp 
 VS01.                90639251:  Virtual Str1 SN 
 VS02.                90634715:  Virtual Str2 SN 
 VS03.                90652479:  Virtual Str3 SN 
 VS04.                90642262:  Virtual Str4 SN 
 WBMN.klb                 0.00:  WOB Min 
 WITN.           Murad Guliyev:  Customer Rep 
 WITN.          Yashar Gaziyev:  Customer Rep 2 
 WOBA.klb                 9.00:  WOB Avg 
 WOBX.klb                12.00:  WOB Max 
 YP  .lhf2               30.00:  Yield Point 
~Curve Information Block
#MNEM.UNIT                 API CODE     Curve Description
#---------               -----------    ---------------------------
 TIME.HHMMSS            00 000 000 000:  GT Time & Date
 GTDEPTH.m              00 000 000 000:  GT Depth
 GTPQH.psia             00 000 000 000:  GT HR Quartz Pressure
 GTTQ.degC              00 000 000 000:  GT Quartz Temperature
 GTTN.NONE              00 000 000 000:  GT Test Number
 GTET.sec               00 000 000 000:  GT Elapsed Test Time
 GTTVD.m                00 000 000 000:  GT True Vertical Depth
#Other Information
#
#WARRANTY: Halliburton will use its best efforts to furnish customers with 
#accurate information and interpretations that are part of, and incident to, the services 
#provided.  However, Halliburton cannot and does not warrant the accuracy 
#or correctness of such information and interpretations.  Under no circumstances should any 
#such information or interpretation be relied upon as the sole basis for any drilling, 
#completion, production, or financial decision or any procedure involving any risk to the 
#safety of any drilling venture, drilling rig or its crew or any other third party.  The 
#Customer has full responsibility for all drilling, completion and production operation.  
#Halliburton makes no representations or warranties, either expressed or 
#implied, including, but not limited to, the implied warranties of merchantability or fitness 
#for a particular purpose, with respect to the services rendered.  In no event will 
#Halliburton be liable for failure to obtain any particular results or for 
#any damages, including, but not limited to, indirect, special or consequential damages, 
#resulting from the use of any information or interpretation provided by Halliburton.
#
~A           TIME           GTDEPTH  GTPQH  GTTQ  GTTN   GTET   GTTVD  
# ...
   21:27:50.275.27-Aug-2021 4641.00 1246.13 82.42 23.00 226.02 3014.10
   21:27:50.475.27-Aug-2021 4641.00 1246.13 82.42 23.00 226.22 3014.10
   21:27:50.675.27-Aug-2021 4641.00 1246.31 82.42 23.00 226.42 3014.10
   21:27:50.875.27-Aug-2021 4641.00 1246.45 82.42 23.00 226.62 3014.10
   21:27:51.075.27-Aug-2021 4641.00 1246.56 82.42 23.00 226.82 3014.10
   21:27:51.275.27-Aug-2021 4641.00 1246.65 82.42 23.00 227.02 3014.10
   21:27:51.475.27-Aug-2021 4641.00 1246.65 82.42 23.00 227.22 3014.10
   21:27:51.675.27-Aug-2021 4641.00 1246.81 82.42 23.00 227.42 3014.10
   21:27:51.875.27-Aug-2021 4641.00 1246.91 82.42 23.00 227.62 3014.10
   21:27:52.075.27-Aug-2021 4641.00 1247.01 82.42 23.00 227.82 3014.10
   21:27:52.275.27-Aug-2021 4641.00 1247.13 82.42 23.00 228.02 3014.10
   21:27:52.475.27-Aug-2021 4641.00 1247.13 82.42 23.00 228.22 3014.10
   21:27:52.675.27-Aug-2021 4641.00 1247.34 82.42 23.00 228.42 3014.10
   21:27:52.875.27-Aug-2021 4641.00 1247.46 82.42 23.00 228.62 3014.10
   21:27:53.075.27-Aug-2021 4641.00 1247.16 82.42 23.00 228.82 3014.10
   21:27:53.275.27-Aug-2021 4641.00 1248.03 82.42 23.00 229.02 3014.10
   21:27:53.475.27-Aug-2021 4641.00 1248.03 82.42 23.00 229.22 3014.10
   21:27:53.675.27-Aug-2021 4641.00 1248.18 82.42 23.00 229.42 3014.10
   21:27:53.875.27-Aug-2021 4641.00 1248.25 82.42 23.00 229.62 3014.10
   21:27:54.075.27-Aug-2021 4641.00 1248.40 82.42 23.00 229.82 3014.10
   21:27:54.275.27-Aug-2021 4641.00 1247.76 82.42 23.00 230.02 3014.10
   21:27:54.475.27-Aug-2021 4641.00 1247.76 82.42 23.00 230.22 3014.10
   21:27:54.675.27-Aug-2021 4641.00 1248.79 82.42 23.00 230.42 3014.10
   21:27:54.876.27-Aug-2021 4641.00 1248.88 82.42 23.00 230.62 3014.10
   21:27:55.076.27-Aug-2021 4641.00 1248.98 82.42 23.00 230.82 3014.10
   21:27:55.276.27-Aug-2021 4641.00 1249.09 82.42 23.00 231.02 3014.10
   21:27:55.476.27-Aug-2021 4641.00 1249.09 82.42 23.00 231.22 3014.10
   21:27:55.676.27-Aug-2021 4641.00 1248.84 82.42 23.00 231.42 3014.10
   21:27:55.876.27-Aug-2021 4641.00 1249.49 82.42 23.00 231.62 3014.10
   21:27:56.076.27-Aug-2021 4641.00 1249.56 82.42 23.00 231.82 3014.10
   21:27:56.276.27-Aug-2021 4641.00 1249.65 82.42 23.00 232.02 3014.10
   21:27:56.476.27-Aug-2021 4641.00 1249.65 82.42 23.00 232.22 3014.10
   21:27:56.676.27-Aug-2021 4641.00 1249.88 82.42 23.00 232.42 3014.10
   21:27:56.876.27-Aug-2021 4641.00 1249.96 82.42 23.00 232.62 3014.10
   21:27:57.076.27-Aug-2021 4641.00 1249.53 82.42 23.00 232.82 3014.10
   21:27:57.276.27-Aug-2021 4641.00 1250.36 82.42 23.00 233.02 3014.10
   21:27:57.476.27-Aug-2021 4641.00 1250.36 82.42 23.00 233.22 3014.10
   21:27:57.676.27-Aug-2021 4641.00 1250.51 82.42 23.00 233.42 3014.10
   21:27:57.876.27-Aug-2021 4641.00 1250.62 82.42 23.00 233.62 3014.10
   21:27:58.076.27-Aug-2021 4641.00 1250.73 82.42 23.00 233.82 3014.10
   21:27:58.276.27-Aug-2021 4641.00 1250.81 82.42 23.00 234.02 3014.10
   21:27:58.476.27-Aug-2021 4641.00 1250.81 82.42 23.00 234.22 3014.10
   21:27:58.676.27-Aug-2021 4641.00 1250.99 82.42 23.00 234.42 3014.10
   21:27:58.876.27-Aug-2021 4641.00 1251.09 82.42 23.00 234.62 3014.10
   21:27:59.076.27-Aug-2021 4641.00 1251.18 82.42 23.00 234.82 3014.10
   21:27:59.276.27-Aug-2021 4641.00 1251.29 82.42 23.00 235.02 3014.10
   21:27:59.476.27-Aug-2021 4641.00 1251.29 82.42 23.00 235.22 3014.10
   21:27:59.676.27-Aug-2021 4641.00 1251.50 82.42 23.00 235.42 3014.10
   21:27:59.876.27-Aug-2021 4641.00 1251.62 82.42 23.00 235.62 3014.10
   21:28:00.076.27-Aug-2021 4641.00 1251.27 82.42 23.00 235.82 3014.10
   21:28:00.276.27-Aug-2021 4641.00 1251.94 82.42 23.00 236.02 3014.10
   21:28:00.476.27-Aug-2021 4641.00 1251.94 82.42 23.00 236.22 3014.10
   21:28:00.676.27-Aug-2021 4641.00 1252.23 82.42 23.00 236.42 3014.10
   21:28:00.876.27-Aug-2021 4641.00 1252.33 82.42 23.00 236.62 3014.10
   21:28:01.076.27-Aug-2021 4641.00 1252.43 82.42 23.00 236.82 3014.10
   21:28:01.276.27-Aug-2021 4641.00 1252.52 82.42 23.00 237.02 3014.10
   21:28:01.476.27-Aug-2021 4641.00 1252.52 82.42 23.00 237.22 3014.10
   21:28:01.676.27-Aug-2021 4641.00 1252.70 82.42 23.00 237.42 3014.10
   21:28:01.876.27-Aug-2021 4641.00 1252.79 82.42 23.00 237.62 3014.10
   21:28:02.076.27-Aug-2021 4641.00 1252.88 82.42 23.00 237.82 3014.10
   21:28:02.276.27-Aug-2021 4641.00 1253.00 82.42 23.00 238.02 3014.10
   21:28:02.476.27-Aug-2021 4641.00 1253.00 82.42 23.00 238.22 3014.10
   21:28:02.676.27-Aug-2021 4641.00 1253.18 82.42 23.00 238.42 3014.10
   21:28:02.876.27-Aug-2021 4641.00 1253.29 82.42 23.00 238.62 3014.10
   21:28:03.076.27-Aug-2021 4641.00 1253.39 82.42 23.00 238.82 3014.10
   21:28:03.276.27-Aug-2021 4641.00 1253.06 82.42 23.00 239.02 3014.10
   21:28:03.476.27-Aug-2021 4641.00 1253.06 82.42 23.00 239.22 3014.10
   21:28:03.676.27-Aug-2021 4641.00 1254.00 82.42 23.00 239.42 3014.10
   21:28:03.876.27-Aug-2021 4641.00 1254.06 82.42 23.00 239.62 3014.10
   21:28:04.076.27-Aug-2021 4641.00 1254.15 82.42 23.00 239.82 3014.10
   21:28:04.276.27-Aug-2021 4641.00 1254.26 82.42 23.00 240.02 3014.10
   21:28:04.476.27-Aug-2021 4641.00 1254.26 82.42 23.00 240.22 3014.10
   21:28:04.677.27-Aug-2021 4641.00 1253.79 82.42 23.00 240.42 3014.10
   21:28:04.877.27-Aug-2021 4641.00 1254.46 82.42 23.00 240.62 3014.10
   21:28:05.077.27-Aug-2021 4641.00 1254.50 82.42 23.00 240.82 3014.10
   21:28:05.277.27-Aug-2021 4641.00 1254.58 82.42 23.00 241.02 3014.10
   21:28:05.477.27-Aug-2021 4641.00 1254.58 82.42 23.00 241.22 3014.10
   21:28:05.677.27-Aug-2021 4641.00 1254.25 82.42 23.00 241.42 3014.10
   21:28:05.877.27-Aug-2021 4641.00 1254.70 82.42 23.00 241.62 3014.10
   21:28:06.077.27-Aug-2021 4641.00 1254.95 82.42 23.00 241.82 3014.10
   21:28:06.277.27-Aug-2021 4641.00 1255.02 82.42 23.00 242.02 3014.10
   21:28:06.477.27-Aug-2021 4641.00 1255.02 82.42 23.00 242.22 3014.10
   21:28:06.677.27-Aug-2021 4641.00 1255.23 82.42 23.00 242.42 3014.10
   21:28:06.877.27-Aug-2021 4641.00 1254.80 82.42 23.00 242.62 3014.10
   21:28:07.077.27-Aug-2021 4641.00 1255.43 82.42 23.00 242.82 3014.10
   21:28:07.277.27-Aug-2021 4641.00 1255.67 82.42 23.00 243.02 3014.10
   21:28:07.477.27-Aug-2021 4641.00 1255.67 82.42 23.00 243.22 3014.10
   21:28:07.677.27-Aug-2021 4641.00 1255.83 82.42 23.00 243.42 3014.10
   21:28:07.877.27-Aug-2021 4641.00 1255.95 82.42 23.00 243.62 3014.10
   21:28:08.077.27-Aug-2021 4641.00 1256.04 82.42 23.00 243.82 3014.10
   21:28:08.277.27-Aug-2021 4641.00 1256.11 82.42 23.00 244.02 3014.10
   21:28:08.477.27-Aug-2021 4641.00 1256.11 82.42 23.00 244.22 3014.10
   21:28:08.677.27-Aug-2021 4641.00 1256.30 82.42 23.00 244.42 3014.10
   21:28:08.877.27-Aug-2021 4641.00 1256.39 82.42 23.00 244.63 3014.10
   21:28:09.077.27-Aug-2021 4641.00 1256.52 82.42 23.00 244.83 3014.10
   21:28:09.277.27-Aug-2021 4641.00 1256.60 82.42 23.00 245.03 3014.10
   21:28:09.477.27-Aug-2021 4641.00 1256.60 82.42 23.00 245.23 3014.10
   21:28:09.677.27-Aug-2021 4641.00 1256.80 82.42 23.00 245.43 3014.10
   21:28:09.877.27-Aug-2021 4641.00 1256.92 82.42 23.00 245.63 3014.10
   21:28:10.077.27-Aug-2021 4641.00 1256.61 82.42 23.00 245.83 3014.10
   21:28:10.277.27-Aug-2021 4641.00 1257.51 82.42 23.00 246.03 3014.10
   21:28:10.477.27-Aug-2021 4641.00 1257.51 82.42 23.00 246.23 3014.10
   21:28:10.677.27-Aug-2021 4641.00 1257.66 82.42 23.00 246.43 3014.10
   21:28:10.877.27-Aug-2021 4641.00 1257.73 82.42 23.00 246.63 3014.10
   21:28:11.077.27-Aug-2021 4641.00 1257.87 82.42 23.00 246.83 3014.10
   21:28:11.277.27-Aug-2021 4641.00 1257.94 82.42 23.00 247.03 3014.10
   21:28:11.477.27-Aug-2021 4641.00 1257.94 82.42 23.00 247.23 3014.10
   21:28:11.677.27-Aug-2021 4641.00 1258.11 82.42 23.00 247.43 3014.10
   21:28:11.877.27-Aug-2021 4641.00 1258.22 82.42 23.00 247.63 3014.10
   21:28:12.077.27-Aug-2021 4641.00 1258.31 82.42 23.00 247.83 3014.10
   21:28:12.277.27-Aug-2021 4641.00 1258.40 82.42 23.00 248.03 3014.10
   21:28:12.477.27-Aug-2021 4641.00 1258.40 82.42 23.00 248.23 3014.10
   21:28:12.677.27-Aug-2021 4641.00 1258.60 82.42 23.00 248.43 3014.10
