~Version Information
 VERS.                  2.0:   CWLS log ASCII Standard -VERSION 2.0
 WRAP.                   NO:   One line per depth step
~Well Information Block
#MNEM.UNIT     VALUE/NAME     DESCRIPTION
#---------     -----------    ---------------------------
 STRT.S             10:43:45 27-Aug-21: START TIME 10:43:45 27-Aug-21
 STOP.S             10:50:54 27-Aug-21: STOP TIME  10:50:54 27-Aug-21
 STEP.S                   0.00: STEP TIME
 NULL.                 -999.25: NULL VALUE
 DFWT.                        :  DIST FWL TEXT
 DFST.                        :  DIST FSL TEXT
 DMF .             Drill Floor:  DRILL MEAS FROM
 STIM.      20.00.00 17-Aug-21:  START TIME
 DATE.      19.00.00 29-Aug-21:  END TIME
 SPUD.               15-Aug-21:  SPUD DATE
 NREF.                    Grid:  NORTH REFERENCE
 HPTY.       Minimum Curvature:  HOLE POS TYPE
 DMOD.             Drill Model:  DRILL MOD DESC
 SVYD.                  Survey:  SURVEY DESC
 ILTD.               Lithology:  INTERP LTH DESC
 FTOP.          Formation Tops:  FORM TOPS DESC
 RIG .              East Azeri:  RIG NAME
 PDAT.          Mean Sea Level:  PERMANENT DATUM
 FLD .                     ACG:  FIELD NAME
 SON .        AZ-XX-0907180857:  JOB NUMBER
 CTRY.              Azerbaijan:  COUNTRY NAME
 WELL.                    D23x:  WELL NAME
 SRVC.     Turan Drilling and Engineering:  CONTRACTOR
 COMP.     BP Exploration (Caspian Sea) Ltd.:  COMPANY
 UWI .            /AZE00000214:  UNIQUE WELL IDENTIFIER
 API .            /AZE00000214:  API NUMBER
 MDS .        Operator Entered:  MAG DATA SOURCE
 BASE.              Azerbaijan:  LOGGING EQUIPMENT BASE LOCATION
 REGN.                   EESSA:  REGION
 PROV.                    Baku:  PROVINCE
 STAT.                    Baku:  STATE NAME
 MWDS.                    Baku:  MWD SHOP
 DOE .                     N/A:  DOE NUMBER
 DCON.         Sperry Drilling:  DIRECTNL CONTR
 UNIT.                     N/A:  LOGGING EQUIPMENT ID
 WTYP.                Deviated:  WELL TYPE
 CNTY.                        :  COUNTY
 LOC .                        :  LOCATION
 LMF .             Drill Floor:  LOG MEASURED FROM
 TVDS.m                  43.60:  TVDSS CORRECTN
 LATI.deg                40.02:  LATITUDE
 LONG.deg                51.45:  LONGITUDE
 WHNS.m                  -7.04:  WELL HEAD N/S
 WHEW.m                  -0.67:  WELL HEAD E/W
 UTMX.m              538762.90:  UTM X
 UTMY.m             4431871.34:  UTM Y
 DFWL.m                   0.00:  DISTANCE FWL
 DFSL.m                   0.00:  DISTANCE FSL
 SDEP.m                4127.00:  START DEPTH
 TDD .m                5084.50:  TOTAL DEPTH (DRILLER)
 VSDR.deg               140.47:  VERT SEC DIRECT
 GVFD.g                   1.00:  GRAVITY FIELD
 MFLD.nT              50362.00:  MAGNETIC FIELD
 MDIP.deg                59.48:  MAGNETIC DIP
 MDEC.deg                 6.47:  MAGNETIC DECL
 GRDC.deg                 0.31:  GRID CORRECTION
 AZTC.deg                 6.16:  AZM TOTAL CORR
 EPD .m                   0.00:  ELEVATION
 EGL .m                   0.00:  GROUND ELEVATION
 WDMS.m                 151.80:  WD ELEV
 APD .m                  43.60:  DEPTH ABOVE PD
 DEP .m                4092.57:  DEPTH
 AGAP.m                  43.60:  AIR GAP
 VSEW.m                  -0.67:  VERT SEC E/W
 VSNS.m                  -7.04:  VERT SEC N/S
 EKB .m                  43.60:  KB ELEVATION
 EDF .m                  43.60:  DF ELEVATION
 TDL .m                 957.50:  TOTAL DEPTH (LOGGER)
 VSC .                       0:  VS TO CLOSURE
 MAGU.                 1851413:  MAGUTM CHECKSUM
~Parameter Information Block
#MNEM.UNIT       Value        Description
#---------     -----------    ---------------------------
 AV  .mps                 1.50:  Ann Velocity 
 AVMX.mps                 2.00:  Max Ann Veloc 
 AZIF.deg               184.66:  Azm, Final 
 BHAT.        Rotary Steerable:  BHA Type 
 BREV.rev               300.00:  Rev Bit Total 
 BROT.°/30m              -0.50:  Build Rotating 
 BS  .in                  8.50:  Bit Size 
 BSZ .in                  8.50:  Bit Size 
 BTPL.psig              370.00:  Bit Press Loss 
 CABU.                      No:  Customer Abuse 
 CGEO.      Behruz Shahbaliyev:  Customer Geo 
 COMM.                     $K:  Run Comments 1 
 TCS .hr                140.08:  Time Ciculation Ended 
 CV  .mps                 3.00:  Crit Velocity 
 CVMX.mps                 3.20:  Max Crit Veloc 
 DD1 .            Musa Ahmadov:  Direct Drillr 1 
 DD2 .           Hamid Ahmadov:  Direct Drillr 2 
 DDSV.               Geo-Pilot:  DD Service 
 DEFF.%                  98.40:  % Det Eff 
 DLRX.°/30m               3.40:  Dogleg Rot Max 
 DLSO.°/30m               1.45:  Dogleg Oriented 
 DLSX.°/30m               3.40:  Dogleg Str Max 
 DRET.      18.40.00 29-Aug-21:  Drill End Time 
 DRST.      21.00.00 20-Aug-21:  Drill Start Tim 
 DTIM.hr                 69.47:  Time Drilling 
 EDEP.m                5084.50:  End Depth 
 ENG1.      Artemiy Matviyanov:  Engineer 1 
 ENG2.         Almaz Almadatov:  Engineer 2 
 ETIM.      18.40.00 29-Aug-21:  End Time 
 FLOI.gpm               500.00:  Flow In 
 FLON.gpm               400.00:  Flow In Min 
 FLOS.cptm                0.00:  Fluid Loss 
 FLOX.gpm               500.00:  Flow In Max 
 DFT .        Mineral Oil Base:  Mud Type 
 HFLO.                      No:  High Flow 
 HPRE.                      No:  High Pressure 
 HTEM.                      No:  High Temp 
 HYDO.m                   1.80:  Hydro Offset 
 IFIN.deg                25.62:  Inc, Final 
 IMAX.deg                48.69:  Inc Max 
 IMIN.deg                24.01:  Inc Min 
 IMND.m                4962.57:  Inc Min Depth 
 IMXD.m                4119.01:  Inc Max Depth 
 JARR.                      No:  Jarring 
 LETM.      18.40.00 29-Aug-21:  Log End Time 
 LOST.hr                     0:  Lost Rig Time 
 LSTM.      21.00.00 20-Aug-21:  Log Start Time 
 MDCL.ppm             41500.00:  Mud Chlorides 
 MDES.     Inversion Oil/Synthetic:  Mud Desc 
 DFD .sg                  1.56:  Mud Density 
 MDMN.sg                  1.56:  Dens Mud Min 
 MDMX.sg                  1.56:  Dens Mud Max 
 MOIL.                      70:  Run Mud Oil % 
 MOWR.                   70:30:  Run Mud OWR 
 MSND.                     0.2:  Run Mud Sand % 
 MSOL.                    23.3:  Run Mud Solids% 
 DFV .spqt               78.00:  Mud Viscosity 
 MWOD.in                  6.75:  MWD Tool OD 
 MWSI.                      No:  Serv Intrp, MWD 
 OTIM.hr                218.30:  Time Operating 
 PCON.           Look Like New:  Pad Condition 
 PMAX.psia            11015.30:  Press Op, Max 
 PV  .cP                 38.00:  Mud PV 
 RUN .                     300:  Run Number 
 ROPA.m/hr               15.00:  ROP Avg 
 ROPN.m/hr                9.00:  ROP Min 
 ROPX.m/hr               17.00:  ROP Max 
 RPMA.rpm               120.00:  RPM Surface Avg 
 RPMN.rpm                90.00:  RPM Surface Min 
 RPMX.rpm               140.00:  RPM Surface Max 
 RRUN.                     300:  Rig Run Number 
 RTIM.hr                 31.53:  Time Reaming 
 SAZI.deg               331.64:  Azm, Start 
 SDEP.m                4127.00:  Start Depth 
 SIDD.                      No:  Serv Intrp, DD 
 SINC.deg                48.43:  Inc, Start 
 SPPA.psig             5830.00:  SPP Avg 
 SPPN.psig             5600.00:  SPP Min 
 SPPX.psig             5900.00:  SPP Max 
 STIM.      21.00.00 20-Aug-21:  Start Time 
 SVCS.                 DD, MWD:  Services 
 SVER.                    9.20:  Sperry Version 
 TDAT.m                 957.50:  Tot Depth Attmp 
 TDDF.                      No:  Trip for DD 
 TDLG.m                 957.50:  Tot Depth Loggd 
 TFF .                      No:  Trip for Fail 
 TQAA.f-kp               15.00:  Torque Abs Avg 
 TQAN.f-kp               12.00:  Torque Abs Min 
 TQAX.f-kp               19.00:  Torque Abs Max 
 TRRT.°/30m              -3.40:  Turn Rotating 
 MRT .                  EWR-M5:  Maximum Recorded Temperature 
 TTMX.degC              100.00:  Max Tool Temp 
 VS01.                90639251:  Virtual Str1 SN 
 VS02.                90634715:  Virtual Str2 SN 
 VS03.                90652479:  Virtual Str3 SN 
 VS04.                90642262:  Virtual Str4 SN 
 WBMN.klb                 0.00:  WOB Min 
 WITN.           Murad Guliyev:  Customer Rep 
 WITN.          Yashar Gaziyev:  Customer Rep 2 
 WOBA.klb                 9.00:  WOB Avg 
 WOBX.klb                12.00:  WOB Max 
 YP  .lhf2               30.00:  Yield Point 
~Curve Information Block
#MNEM.UNIT                 API CODE     Curve Description
#---------               -----------    ---------------------------
 TIME.HHMMSS            00 000 000 000:  GT Time & Date
 GTDEPTH.m              00 000 000 000:  GT Depth
 GTPQH.psia             00 000 000 000:  GT HR Quartz Pressure
 GTTQ.degC              00 000 000 000:  GT Quartz Temperature
 GTTN.NONE              00 000 000 000:  GT Test Number
 GTET.sec               00 000 000 000:  GT Elapsed Test Time
 GTTVD.m                00 000 000 000:  GT True Vertical Depth
#Other Information
#
#WARRANTY: Halliburton will use its best efforts to furnish customers with 
#accurate information and interpretations that are part of, and incident to, the services 
#provided.  However, Halliburton cannot and does not warrant the accuracy 
#or correctness of such information and interpretations.  Under no circumstances should any 
#such information or interpretation be relied upon as the sole basis for any drilling, 
#completion, production, or financial decision or any procedure involving any risk to the 
#safety of any drilling venture, drilling rig or its crew or any other third party.  The 
#Customer has full responsibility for all drilling, completion and production operation.  
#Halliburton makes no representations or warranties, either expressed or 
#implied, including, but not limited to, the implied warranties of merchantability or fitness 
#for a particular purpose, with respect to the services rendered.  In no event will 
#Halliburton be liable for failure to obtain any particular results or for 
#any damages, including, but not limited to, indirect, special or consequential damages, 
#resulting from the use of any information or interpretation provided by Halliburton.
#
~A           TIME           GTDEPTH  GTPQH  GTTQ  GTTN  GTET   GTTVD  
# ...
   10:49:07.103.27-Aug-2021 4957.82 5167.44 85.91 9.00 321.62 3301.29
   10:49:07.303.27-Aug-2021 4957.82 5167.44 85.91 9.00 321.82 3301.29
   10:49:07.503.27-Aug-2021 4957.82 5167.45 85.91 9.00 322.02 3301.29
   10:49:07.703.27-Aug-2021 4957.82 5167.45 85.91 9.00 322.22 3301.29
   10:49:07.902.27-Aug-2021 4957.82 5167.45 85.91 9.00 322.42 3301.29
   10:49:08.102.27-Aug-2021 4957.82 5167.44 85.91 9.00 322.61 3301.29
   10:49:08.302.27-Aug-2021 4957.82 5167.44 85.91 9.00 322.81 3301.29
   10:49:08.502.27-Aug-2021 4957.82 5167.47 85.91 9.00 323.01 3301.29
   10:49:08.701.27-Aug-2021 4957.82 5167.47 85.91 9.00 323.21 3301.29
   10:49:08.901.27-Aug-2021 4957.82 5167.47 85.91 9.00 323.41 3301.29
   10:49:09.101.27-Aug-2021 4957.82 5167.47 85.91 9.00 323.61 3301.29
   10:49:09.301.27-Aug-2021 4957.82 5167.47 85.91 9.00 323.81 3301.29
   10:49:09.500.27-Aug-2021 4957.82 5167.47 85.91 9.00 324.01 3301.29
   10:49:09.700.27-Aug-2021 4957.82 5167.46 85.91 9.00 324.21 3301.29
   10:49:09.900.27-Aug-2021 4957.82 5167.44 85.91 9.00 324.41 3301.29
   10:49:10.100.27-Aug-2021 4957.82 5167.53 85.91 9.00 324.61 3301.29
   10:49:10.299.27-Aug-2021 4957.82 5167.53 85.91 9.00 324.81 3301.29
   10:49:10.499.27-Aug-2021 4957.82 5167.47 85.91 9.00 325.01 3301.29
   10:49:10.699.27-Aug-2021 4957.82 5167.47 85.91 9.00 325.21 3301.29
   10:49:10.899.27-Aug-2021 4957.82 5167.49 85.91 9.00 325.41 3301.29
   10:49:11.098.27-Aug-2021 4957.82 5167.51 85.91 9.00 325.61 3301.29
   10:49:11.298.27-Aug-2021 4957.82 5167.51 85.91 9.00 325.81 3301.29
   10:49:11.498.27-Aug-2021 4957.82 5167.46 85.91 9.00 326.01 3301.29
   10:49:11.698.27-Aug-2021 4957.82 5167.47 85.91 9.00 326.21 3301.29
   10:49:11.898.27-Aug-2021 4957.82 5167.56 85.91 9.00 326.41 3301.29
   10:49:12.097.27-Aug-2021 4957.82 5167.50 85.91 9.00 326.61 3301.29
   10:49:12.297.27-Aug-2021 4957.82 5167.50 85.91 9.00 326.81 3301.29
   10:49:12.497.27-Aug-2021 4957.82 5167.47 85.91 9.00 327.01 3301.29
   10:49:12.697.27-Aug-2021 4957.82 5167.54 85.91 9.00 327.21 3301.29
   10:49:12.896.27-Aug-2021 4957.82 5167.50 85.91 9.00 327.41 3301.29
   10:49:13.096.27-Aug-2021 4957.82 5167.50 85.91 9.00 327.61 3301.29
   10:49:13.296.27-Aug-2021 4957.82 5167.50 85.91 9.00 327.81 3301.29
   10:49:13.496.27-Aug-2021 4957.82 5167.48 85.91 9.00 328.01 3301.29
   10:49:13.695.27-Aug-2021 4957.82 5167.49 85.91 9.00 328.21 3301.29
   10:49:13.895.27-Aug-2021 4957.82 5167.50 85.91 9.00 328.41 3301.29
   10:49:14.095.27-Aug-2021 4957.82 5167.50 85.91 9.00 328.61 3301.29
   10:49:14.295.27-Aug-2021 4957.82 5167.50 85.91 9.00 328.81 3301.29
   10:49:14.494.27-Aug-2021 4957.82 5167.50 85.91 9.00 329.01 3301.29
   10:49:14.694.27-Aug-2021 4957.82 5167.52 85.91 9.00 329.21 3301.29
   10:49:14.894.27-Aug-2021 4957.82 5167.50 85.91 9.00 329.41 3301.29
   10:49:15.094.27-Aug-2021 4957.82 5167.50 85.91 9.00 329.61 3301.29
   10:49:15.293.27-Aug-2021 4957.82 5167.50 85.91 9.00 329.81 3301.29
   10:49:15.493.27-Aug-2021 4957.82 5167.50 85.91 9.00 330.01 3301.29
   10:49:15.693.27-Aug-2021 4957.82 5167.50 85.91 9.00 330.21 3301.29
   10:49:15.893.27-Aug-2021 4957.82 5167.53 85.91 9.00 330.41 3301.29
   10:49:16.093.27-Aug-2021 4957.82 5167.54 85.91 9.00 330.61 3301.29
   10:49:16.292.27-Aug-2021 4957.82 5167.54 85.91 9.00 330.81 3301.29
   10:49:16.492.27-Aug-2021 4957.82 5167.50 85.91 9.00 331.00 3301.29
   10:49:16.692.27-Aug-2021 4957.82 5167.52 85.91 9.00 331.20 3301.29
   10:49:16.892.27-Aug-2021 4957.82 5167.51 85.91 9.00 331.40 3301.29
   10:49:17.091.27-Aug-2021 4957.82 5167.50 85.91 9.00 331.60 3301.29
   10:49:17.291.27-Aug-2021 4957.82 5167.50 85.91 9.00 331.80 3301.29
   10:49:17.491.27-Aug-2021 4957.82 5167.52 85.91 9.00 332.00 3301.29
   10:49:17.691.27-Aug-2021 4957.82 5167.52 85.91 9.00 332.20 3301.29
   10:49:17.890.27-Aug-2021 4957.82 5167.53 85.91 9.00 332.40 3301.29
   10:49:18.090.27-Aug-2021 4957.82 5167.53 85.91 9.00 332.60 3301.29
   10:49:18.290.27-Aug-2021 4957.82 5167.53 85.91 9.00 332.80 3301.29
   10:49:18.490.27-Aug-2021 4957.82 5167.52 85.91 9.00 333.00 3301.29
   10:49:18.689.27-Aug-2021 4957.82 5167.53 85.91 9.00 333.20 3301.29
   10:49:18.889.27-Aug-2021 4957.82 5167.52 85.91 9.00 333.40 3301.29
   10:49:19.089.27-Aug-2021 4957.82 5167.52 85.91 9.00 333.60 3301.29
   10:49:19.289.27-Aug-2021 4957.82 5167.52 85.91 9.00 333.80 3301.29
   10:49:19.488.27-Aug-2021 4957.82 5167.55 85.91 9.00 334.00 3301.29
   10:49:19.688.27-Aug-2021 4957.82 5167.51 85.91 9.00 334.20 3301.29
   10:49:19.888.27-Aug-2021 4957.82 5167.52 85.91 9.00 334.40 3301.29
   10:49:20.088.27-Aug-2021 4957.82 5167.51 85.91 9.00 334.60 3301.29
   10:49:20.288.27-Aug-2021 4957.82 5167.51 85.91 9.00 334.80 3301.29
   10:49:20.487.27-Aug-2021 4957.82 5167.54 85.91 9.00 335.00 3301.29
   10:49:20.687.27-Aug-2021 4957.82 5167.51 85.91 9.00 335.20 3301.29
   10:49:20.887.27-Aug-2021 4957.82 5167.52 85.91 9.00 335.40 3301.29
   10:49:21.087.27-Aug-2021 4957.82 5167.60 85.91 9.00 335.60 3301.29
   10:49:21.286.27-Aug-2021 4957.82 5167.60 85.91 9.00 335.80 3301.29
   10:49:21.486.27-Aug-2021 4957.82 5167.52 85.91 9.00 336.00 3301.29
   10:49:21.686.27-Aug-2021 4957.82 5167.48 85.91 9.00 336.20 3301.29
   10:49:21.886.27-Aug-2021 4957.82 5167.60 85.91 9.00 336.40 3301.29
   10:49:22.085.27-Aug-2021 4957.82 5167.56 85.91 9.00 336.60 3301.29
   10:49:22.285.27-Aug-2021 4957.82 5167.56 85.91 9.00 336.80 3301.29
   10:49:22.485.27-Aug-2021 4957.82 5167.53 85.91 9.00 337.00 3301.29
   10:49:22.685.27-Aug-2021 4957.82 5167.53 85.91 9.00 337.20 3301.29
   10:49:22.884.27-Aug-2021 4957.82 5167.53 85.91 9.00 337.40 3301.29
   10:49:23.084.27-Aug-2021 4957.82 5167.53 85.91 9.00 337.60 3301.29
   10:49:23.284.27-Aug-2021 4957.82 5167.53 85.91 9.00 337.80 3301.29
   10:49:23.484.27-Aug-2021 4957.82 5167.54 85.91 9.00 338.00 3301.29
   10:49:23.683.27-Aug-2021 4957.82 5167.55 85.91 9.00 338.20 3301.29
   10:49:23.883.27-Aug-2021 4957.82 5167.55 85.91 9.00 338.40 3301.29
   10:49:24.083.27-Aug-2021 4957.82 5167.54 85.91 9.00 338.60 3301.29
   10:49:24.283.27-Aug-2021 4957.82 5167.54 85.91 9.00 338.80 3301.29
   10:49:24.483.27-Aug-2021 4957.82 5167.54 85.91 9.00 339.00 3301.29
   10:49:24.682.27-Aug-2021 4957.82 5167.54 85.91 9.00 339.19 3301.29
   10:49:24.882.27-Aug-2021 4957.82 5167.61 85.91 9.00 339.39 3301.29
   10:49:25.082.27-Aug-2021 4957.82 5167.54 85.91 9.00 339.59 3301.29
   10:49:25.282.27-Aug-2021 4957.82 5167.54 85.91 9.00 339.79 3301.29
   10:49:25.481.27-Aug-2021 4957.82 5167.55 85.91 9.00 339.99 3301.29
   10:49:25.681.27-Aug-2021 4957.82 5167.53 85.91 9.00 340.19 3301.29
   10:49:25.881.27-Aug-2021 4957.82 5167.56 85.91 9.00 340.39 3301.29
   10:49:26.081.27-Aug-2021 4957.82 5167.54 85.91 9.00 340.59 3301.29
   10:49:26.280.27-Aug-2021 4957.82 5167.54 85.91 9.00 340.79 3301.29
   10:49:26.480.27-Aug-2021 4957.82 5167.54 85.91 9.00 340.99 3301.29
   10:49:26.680.27-Aug-2021 4957.82 5167.55 85.91 9.00 341.19 3301.29
   10:49:26.880.27-Aug-2021 4957.82 5167.56 85.91 9.00 341.39 3301.29
   10:49:27.079.27-Aug-2021 4957.82 5167.56 85.91 9.00 341.59 3301.29
   10:49:27.279.27-Aug-2021 4957.82 5167.56 85.91 9.00 341.79 3301.29
   10:49:27.479.27-Aug-2021 4957.82 5167.55 85.91 9.00 341.99 3301.29
   10:49:27.679.27-Aug-2021 4957.82 5167.56 85.91 9.00 342.19 3301.29
   10:49:27.878.27-Aug-2021 4957.82 5167.55 85.91 9.00 342.39 3301.29
   10:49:28.078.27-Aug-2021 4957.82 5167.56 85.91 9.00 342.59 3301.29
   10:49:28.278.27-Aug-2021 4957.82 5167.56 85.91 9.00 342.79 3301.29
   10:49:28.478.27-Aug-2021 4957.82 5167.56 85.91 9.00 342.99 3301.29
   10:49:28.677.27-Aug-2021 4957.82 5167.56 85.91 9.00 343.19 3301.29
   10:49:28.877.27-Aug-2021 4957.82 5167.55 85.91 9.00 343.39 3301.29
   10:49:29.077.27-Aug-2021 4957.82 5167.56 85.91 9.00 343.59 3301.29
   10:49:29.277.27-Aug-2021 4957.82 5167.56 85.91 9.00 343.79 3301.29
   10:49:29.477.27-Aug-2021 4957.82 5167.60 85.91 9.00 343.99 3301.29
   10:49:29.676.27-Aug-2021 4957.82 5167.58 85.91 9.00 344.19 3301.29
   10:49:29.876.27-Aug-2021 4957.82 5167.55 85.91 9.00 344.39 3301.29
