~Version Information
 VERS.                  2.0:   CWLS log ASCII Standard -VERSION 2.0
 WRAP.                   NO:   One line per depth step
~Well Information Block
#MNEM.UNIT     VALUE/NAME     DESCRIPTION
#---------     -----------    ---------------------------
 STRT.S             12:21:31 27-Aug-21: START TIME 12:21:31 27-Aug-21
 STOP.S             12:28:48 27-Aug-21: STOP TIME  12:28:48 27-Aug-21
 STEP.S                   0.00: STEP TIME
 NULL.                 -999.25: NULL VALUE
 DFWT.                        :  DIST FWL TEXT
 DFST.                        :  DIST FSL TEXT
 DMF .             Drill Floor:  DRILL MEAS FROM
 STIM.      20.00.00 17-Aug-21:  START TIME
 DATE.      19.00.00 29-Aug-21:  END TIME
 SPUD.               15-Aug-21:  SPUD DATE
 NREF.                    Grid:  NORTH REFERENCE
 HPTY.       Minimum Curvature:  HOLE POS TYPE
 DMOD.             Drill Model:  DRILL MOD DESC
 SVYD.                  Survey:  SURVEY DESC
 ILTD.               Lithology:  INTERP LTH DESC
 FTOP.          Formation Tops:  FORM TOPS DESC
 RIG .              East Azeri:  RIG NAME
 PDAT.          Mean Sea Level:  PERMANENT DATUM
 FLD .                     ACG:  FIELD NAME
 SON .        AZ-XX-0907180857:  JOB NUMBER
 CTRY.              Azerbaijan:  COUNTRY NAME
 WELL.                    D23x:  WELL NAME
 SRVC.     Turan Drilling and Engineering:  CONTRACTOR
 COMP.     BP Exploration (Caspian Sea) Ltd.:  COMPANY
 UWI .            /AZE00000214:  UNIQUE WELL IDENTIFIER
 API .            /AZE00000214:  API NUMBER
 MDS .        Operator Entered:  MAG DATA SOURCE
 BASE.              Azerbaijan:  LOGGING EQUIPMENT BASE LOCATION
 REGN.                   EESSA:  REGION
 PROV.                    Baku:  PROVINCE
 STAT.                    Baku:  STATE NAME
 MWDS.                    Baku:  MWD SHOP
 DOE .                     N/A:  DOE NUMBER
 DCON.         Sperry Drilling:  DIRECTNL CONTR
 UNIT.                     N/A:  LOGGING EQUIPMENT ID
 WTYP.                Deviated:  WELL TYPE
 CNTY.                        :  COUNTY
 LOC .                        :  LOCATION
 LMF .             Drill Floor:  LOG MEASURED FROM
 TVDS.m                  43.60:  TVDSS CORRECTN
 LATI.deg                40.02:  LATITUDE
 LONG.deg                51.45:  LONGITUDE
 WHNS.m                  -7.04:  WELL HEAD N/S
 WHEW.m                  -0.67:  WELL HEAD E/W
 UTMX.m              538762.90:  UTM X
 UTMY.m             4431871.34:  UTM Y
 DFWL.m                   0.00:  DISTANCE FWL
 DFSL.m                   0.00:  DISTANCE FSL
 SDEP.m                4127.00:  START DEPTH
 TDD .m                5084.50:  TOTAL DEPTH (DRILLER)
 VSDR.deg               140.47:  VERT SEC DIRECT
 GVFD.g                   1.00:  GRAVITY FIELD
 MFLD.nT              50362.00:  MAGNETIC FIELD
 MDIP.deg                59.48:  MAGNETIC DIP
 MDEC.deg                 6.47:  MAGNETIC DECL
 GRDC.deg                 0.31:  GRID CORRECTION
 AZTC.deg                 6.16:  AZM TOTAL CORR
 EPD .m                   0.00:  ELEVATION
 EGL .m                   0.00:  GROUND ELEVATION
 WDMS.m                 151.80:  WD ELEV
 APD .m                  43.60:  DEPTH ABOVE PD
 DEP .m                4092.57:  DEPTH
 AGAP.m                  43.60:  AIR GAP
 VSEW.m                  -0.67:  VERT SEC E/W
 VSNS.m                  -7.04:  VERT SEC N/S
 EKB .m                  43.60:  KB ELEVATION
 EDF .m                  43.60:  DF ELEVATION
 TDL .m                 957.50:  TOTAL DEPTH (LOGGER)
 VSC .                       0:  VS TO CLOSURE
 MAGU.                 1851413:  MAGUTM CHECKSUM
~Parameter Information Block
#MNEM.UNIT       Value        Description
#---------     -----------    ---------------------------
 AV  .mps                 1.50:  Ann Velocity 
 AVMX.mps                 2.00:  Max Ann Veloc 
 AZIF.deg               184.66:  Azm, Final 
 BHAT.        Rotary Steerable:  BHA Type 
 BREV.rev               300.00:  Rev Bit Total 
 BROT.°/30m              -0.50:  Build Rotating 
 BS  .in                  8.50:  Bit Size 
 BSZ .in                  8.50:  Bit Size 
 BTPL.psig              370.00:  Bit Press Loss 
 CABU.                      No:  Customer Abuse 
 CGEO.      Behruz Shahbaliyev:  Customer Geo 
 TCS .hr                140.08:  Time Ciculation Ended 
 CV  .mps                 3.00:  Crit Velocity 
 CVMX.mps                 3.20:  Max Crit Veloc 
 DD1 .            Musa Ahmadov:  Direct Drillr 1 
 DD2 .           Hamid Ahmadov:  Direct Drillr 2 
 DDSV.               Geo-Pilot:  DD Service 
 DEFF.%                  98.40:  % Det Eff 
 DLRX.°/30m               3.40:  Dogleg Rot Max 
 DLSO.°/30m               1.45:  Dogleg Oriented 
 DLSX.°/30m               3.40:  Dogleg Str Max 
 DRET.      18.40.00 29-Aug-21:  Drill End Time 
 DRST.      21.00.00 20-Aug-21:  Drill Start Tim 
 DTIM.hr                 69.47:  Time Drilling 
 EDEP.m                5084.50:  End Depth 
 ENG1.      Artemiy Matviyanov:  Engineer 1 
 ENG2.         Almaz Almadatov:  Engineer 2 
 ETIM.      18.40.00 29-Aug-21:  End Time 
 FLOI.gpm               500.00:  Flow In 
 FLON.gpm               400.00:  Flow In Min 
 FLOS.cptm                0.00:  Fluid Loss 
 FLOX.gpm               500.00:  Flow In Max 
 DFT .        Mineral Oil Base:  Mud Type 
 HFLO.                      No:  High Flow 
 HPRE.                      No:  High Pressure 
 HTEM.                      No:  High Temp 
 HYDO.m                   1.80:  Hydro Offset 
 IFIN.deg                25.62:  Inc, Final 
 IMAX.deg                48.69:  Inc Max 
 IMIN.deg                24.01:  Inc Min 
 IMND.m                4962.57:  Inc Min Depth 
 IMXD.m                4119.01:  Inc Max Depth 
 JARR.                      No:  Jarring 
 LETM.      18.40.00 29-Aug-21:  Log End Time 
 LOST.hr                     0:  Lost Rig Time 
 LSTM.      21.00.00 20-Aug-21:  Log Start Time 
 MDCL.ppm             41500.00:  Mud Chlorides 
 MDES.     Inversion Oil/Synthetic:  Mud Desc 
 DFD .sg                  1.56:  Mud Density 
 MDMN.sg                  1.56:  Dens Mud Min 
 MDMX.sg                  1.56:  Dens Mud Max 
 MOIL.                      70:  Run Mud Oil % 
 MOWR.                   70:30:  Run Mud OWR 
 MSND.                     0.2:  Run Mud Sand % 
 MSOL.                    23.3:  Run Mud Solids% 
 DFV .spqt               78.00:  Mud Viscosity 
 MWOD.in                  6.75:  MWD Tool OD 
 MWSI.                      No:  Serv Intrp, MWD 
 OTIM.hr                218.30:  Time Operating 
 PCON.           Look Like New:  Pad Condition 
 PMAX.psia            11015.30:  Press Op, Max 
 PV  .cP                 38.00:  Mud PV 
 RUN .                     300:  Run Number 
 ROPA.m/hr               15.00:  ROP Avg 
 ROPN.m/hr                9.00:  ROP Min 
 ROPX.m/hr               17.00:  ROP Max 
 RPMA.rpm               120.00:  RPM Surface Avg 
 RPMN.rpm                90.00:  RPM Surface Min 
 RPMX.rpm               140.00:  RPM Surface Max 
 RRUN.                     300:  Rig Run Number 
 RTIM.hr                 31.53:  Time Reaming 
 SAZI.deg               331.64:  Azm, Start 
 SDEP.m                4127.00:  Start Depth 
 SIDD.                      No:  Serv Intrp, DD 
 SINC.deg                48.43:  Inc, Start 
 SPPA.psig             5830.00:  SPP Avg 
 SPPN.psig             5600.00:  SPP Min 
 SPPX.psig             5900.00:  SPP Max 
 STIM.      21.00.00 20-Aug-21:  Start Time 
 SVCS.                 DD, MWD:  Services 
 SVER.                    9.20:  Sperry Version 
 TDAT.m                 957.50:  Tot Depth Attmp 
 TDDF.                      No:  Trip for DD 
 TDLG.m                 957.50:  Tot Depth Loggd 
 TFF .                      No:  Trip for Fail 
 TQAA.f-kp               15.00:  Torque Abs Avg 
 TQAN.f-kp               12.00:  Torque Abs Min 
 TQAX.f-kp               19.00:  Torque Abs Max 
 TRRT.°/30m              -3.40:  Turn Rotating 
 MRT .                  EWR-M5:  Maximum Recorded Temperature 
 TTMX.degC              100.00:  Max Tool Temp 
 VS01.                90639251:  Virtual Str1 SN 
 VS02.                90634715:  Virtual Str2 SN 
 VS03.                90652479:  Virtual Str3 SN 
 VS04.                90642262:  Virtual Str4 SN 
 WBMN.klb                 0.00:  WOB Min 
 WITN.           Murad Guliyev:  Customer Rep 
 WITN.          Yashar Gaziyev:  Customer Rep 2 
 WOBA.klb                 9.00:  WOB Avg 
 WOBX.klb                12.00:  WOB Max 
 YP  .lhf2               30.00:  Yield Point 
~Curve Information Block
#MNEM.UNIT                 API CODE     Curve Description
#---------               -----------    ---------------------------
 TIME.HHMMSS            00 000 000 000:  GT Time & Date
 GTDEPTH.m              00 000 000 000:  GT Depth
 GTPQH.psia             00 000 000 000:  GT HR Quartz Pressure
 GTTQ.degC              00 000 000 000:  GT Quartz Temperature
 GTTN.NONE              00 000 000 000:  GT Test Number
 GTET.sec               00 000 000 000:  GT Elapsed Test Time
 GTTVD.m                00 000 000 000:  GT True Vertical Depth
#Other Information
#
#WARRANTY: Halliburton will use its best efforts to furnish customers with 
#accurate information and interpretations that are part of, and incident to, the services 
#provided.  However, Halliburton cannot and does not warrant the accuracy 
#or correctness of such information and interpretations.  Under no circumstances should any 
#such information or interpretation be relied upon as the sole basis for any drilling, 
#completion, production, or financial decision or any procedure involving any risk to the 
#safety of any drilling venture, drilling rig or its crew or any other third party.  The 
#Customer has full responsibility for all drilling, completion and production operation.  
#Halliburton makes no representations or warranties, either expressed or 
#implied, including, but not limited to, the implied warranties of merchantability or fitness 
#for a particular purpose, with respect to the services rendered.  In no event will 
#Halliburton be liable for failure to obtain any particular results or for 
#any damages, including, but not limited to, indirect, special or consequential damages, 
#resulting from the use of any information or interpretation provided by Halliburton.
#
~A           TIME           GTDEPTH  GTPQH  GTTQ  GTTN   GTET   GTTVD  
# ...
   12:23:24.382.27-Aug-2021 4914.80 7804.53 85.35 12.00 113.04 3262.04
   12:23:24.582.27-Aug-2021 4914.80 7804.53 85.35 12.00 113.24 3262.04
   12:23:24.782.27-Aug-2021 4914.80 7804.87 85.35 12.00 113.44 3262.04
   12:23:24.982.27-Aug-2021 4914.80 7804.54 85.35 12.00 113.64 3262.04
   12:23:25.182.27-Aug-2021 4914.80 7804.94 85.35 12.00 113.84 3262.04
   12:23:25.382.27-Aug-2021 4914.80 7805.46 85.35 12.00 114.04 3262.04
   12:23:25.582.27-Aug-2021 4914.80 7805.46 85.35 12.00 114.24 3262.04
   12:23:25.783.27-Aug-2021 4914.80 7805.92 85.35 12.00 114.44 3262.04
   12:23:25.983.27-Aug-2021 4914.80 7805.97 85.35 12.00 114.64 3262.04
   12:23:26.183.27-Aug-2021 4914.80 7805.69 85.35 12.00 114.84 3262.04
   12:23:26.383.27-Aug-2021 4914.80 7805.52 85.35 12.00 115.04 3262.04
   12:23:26.583.27-Aug-2021 4914.80 7805.52 85.35 12.00 115.24 3262.04
   12:23:26.783.27-Aug-2021 4914.80 7807.50 85.35 12.00 115.44 3262.04
   12:23:26.983.27-Aug-2021 4914.80 7805.68 85.35 12.00 115.64 3262.04
   12:23:27.183.27-Aug-2021 4914.80 7806.39 85.35 12.00 115.84 3262.04
   12:23:27.383.27-Aug-2021 4914.80 7804.90 85.35 12.00 116.04 3262.04
   12:23:27.583.27-Aug-2021 4914.80 7804.90 85.35 12.00 116.24 3262.04
   12:23:27.783.27-Aug-2021 4914.80 7804.68 85.35 12.00 116.44 3262.04
   12:23:27.983.27-Aug-2021 4914.80 7809.13 85.35 12.00 116.64 3262.04
   12:23:28.183.27-Aug-2021 4914.80 7803.35 85.35 12.00 116.84 3262.04
   12:23:28.383.27-Aug-2021 4914.80 7805.73 85.35 12.00 117.04 3262.04
   12:23:28.584.27-Aug-2021 4914.80 7805.73 85.35 12.00 117.24 3262.04
   12:23:28.784.27-Aug-2021 4914.80 7808.47 85.35 12.00 117.44 3262.04
   12:23:28.984.27-Aug-2021 4914.80 7806.40 85.35 12.00 117.64 3262.04
   12:23:29.184.27-Aug-2021 4914.80 7806.60 85.35 12.00 117.84 3262.04
   12:23:29.384.27-Aug-2021 4914.80 7805.15 85.35 12.00 118.04 3262.04
   12:23:29.584.27-Aug-2021 4914.80 7805.15 85.35 12.00 118.24 3262.04
   12:23:29.784.27-Aug-2021 4914.80 7807.24 85.35 12.00 118.44 3262.04
   12:23:29.984.27-Aug-2021 4914.80 7806.11 85.35 12.00 118.64 3262.04
   12:23:30.184.27-Aug-2021 4914.80 7806.40 85.35 12.00 118.84 3262.04
   12:23:30.384.27-Aug-2021 4914.80 7805.51 85.35 12.00 119.04 3262.04
   12:23:30.584.27-Aug-2021 4914.80 7805.51 85.35 12.00 119.24 3262.04
   12:23:30.784.27-Aug-2021 4914.80 7805.18 85.35 12.00 119.44 3262.04
   12:23:30.984.27-Aug-2021 4914.80 7805.42 85.35 12.00 119.64 3262.04
   12:23:31.184.27-Aug-2021 4914.80 7805.34 85.35 12.00 119.84 3262.04
   12:23:31.385.27-Aug-2021 4914.80 7804.87 85.35 12.00 120.04 3262.04
   12:23:31.585.27-Aug-2021 4914.80 7804.87 85.35 12.00 120.24 3262.04
   12:23:31.785.27-Aug-2021 4914.80 7805.63 85.35 12.00 120.44 3262.04
   12:23:31.985.27-Aug-2021 4914.80 7805.51 85.35 12.00 120.64 3262.04
   12:23:32.185.27-Aug-2021 4914.80 7805.87 85.35 12.00 120.84 3262.04
   12:23:32.385.27-Aug-2021 4914.80 7805.80 85.35 12.00 121.04 3262.04
   12:23:32.585.27-Aug-2021 4914.80 7805.80 85.35 12.00 121.24 3262.04
   12:23:32.785.27-Aug-2021 4914.80 7805.81 85.35 12.00 121.44 3262.04
   12:23:32.985.27-Aug-2021 4914.80 7805.62 85.35 12.00 121.64 3262.04
   12:23:33.185.27-Aug-2021 4914.80 7808.76 85.35 12.00 121.84 3262.04
   12:23:33.385.27-Aug-2021 4914.80 7806.32 85.35 12.00 122.04 3262.04
   12:23:33.585.27-Aug-2021 4914.80 7806.32 85.35 12.00 122.24 3262.04
   12:23:33.785.27-Aug-2021 4914.80 7805.46 85.35 12.00 122.44 3262.04
   12:23:33.985.27-Aug-2021 4914.80 7805.23 85.35 12.00 122.64 3262.04
   12:23:34.186.27-Aug-2021 4914.80 7805.25 85.35 12.00 122.84 3262.04
   12:23:34.386.27-Aug-2021 4914.80 7805.17 85.35 12.00 123.04 3262.04
   12:23:34.586.27-Aug-2021 4914.80 7805.17 85.35 12.00 123.24 3262.04
   12:23:34.786.27-Aug-2021 4914.80 7805.02 85.35 12.00 123.44 3262.04
   12:23:34.986.27-Aug-2021 4914.80 7805.53 85.35 12.00 123.64 3262.04
   12:23:35.186.27-Aug-2021 4914.80 7805.76 85.35 12.00 123.84 3262.04
   12:23:35.386.27-Aug-2021 4914.80 7806.24 85.35 12.00 124.04 3262.04
   12:23:35.586.27-Aug-2021 4914.80 7806.24 85.35 12.00 124.24 3262.04
   12:23:35.786.27-Aug-2021 4914.80 7806.22 85.35 12.00 124.44 3262.04
   12:23:35.986.27-Aug-2021 4914.80 7806.16 85.35 12.00 124.64 3262.04
   12:23:36.186.27-Aug-2021 4914.80 7805.86 85.35 12.00 124.84 3262.04
   12:23:36.386.27-Aug-2021 4914.80 7805.99 85.35 12.00 125.04 3262.04
   12:23:36.586.27-Aug-2021 4914.80 7805.99 85.35 12.00 125.24 3262.04
   12:23:36.786.27-Aug-2021 4914.80 7806.50 85.35 12.00 125.44 3262.04
   12:23:36.987.27-Aug-2021 4914.80 7806.51 85.35 12.00 125.64 3262.04
   12:23:37.187.27-Aug-2021 4914.80 7805.46 85.35 12.00 125.84 3262.04
   12:23:37.387.27-Aug-2021 4914.80 7805.25 85.35 12.00 126.04 3262.04
   12:23:37.587.27-Aug-2021 4914.80 7805.25 85.35 12.00 126.24 3262.04
   12:23:37.787.27-Aug-2021 4914.80 7806.09 85.35 12.00 126.44 3262.04
   12:23:37.987.27-Aug-2021 4914.80 7805.41 85.35 12.00 126.64 3262.04
   12:23:38.187.27-Aug-2021 4914.80 7805.18 85.35 12.00 126.85 3262.04
   12:23:38.387.27-Aug-2021 4914.80 7805.21 85.35 12.00 127.05 3262.04
   12:23:38.587.27-Aug-2021 4914.80 7805.21 85.35 12.00 127.25 3262.04
   12:23:38.787.27-Aug-2021 4914.80 7805.21 85.35 12.00 127.45 3262.04
   12:23:38.987.27-Aug-2021 4914.80 7809.94 85.35 12.00 127.65 3262.04
   12:23:39.187.27-Aug-2021 4914.80 7803.89 85.35 12.00 127.85 3262.04
   12:23:39.387.27-Aug-2021 4914.80 7807.02 85.35 12.00 128.05 3262.04
   12:23:39.587.27-Aug-2021 4914.80 7807.02 85.35 12.00 128.25 3262.04
   12:23:39.788.27-Aug-2021 4914.80 7805.72 85.35 12.00 128.45 3262.04
   12:23:39.988.27-Aug-2021 4914.80 7805.66 85.35 12.00 128.65 3262.04
   12:23:40.188.27-Aug-2021 4914.80 7805.14 85.35 12.00 128.85 3262.04
   12:23:40.388.27-Aug-2021 4914.80 7810.66 85.35 12.00 129.05 3262.04
   12:23:40.588.27-Aug-2021 4914.80 7810.66 85.35 12.00 129.25 3262.04
   12:23:40.788.27-Aug-2021 4914.80 7806.63 85.35 12.00 129.45 3262.04
   12:23:40.988.27-Aug-2021 4914.80 7805.85 85.35 12.00 129.65 3262.04
   12:23:41.188.27-Aug-2021 4914.80 7805.74 85.35 12.00 129.85 3262.04
   12:23:41.388.27-Aug-2021 4914.80 7805.79 85.35 12.00 130.05 3262.04
   12:23:41.588.27-Aug-2021 4914.80 7805.79 85.35 12.00 130.25 3262.04
   12:23:41.788.27-Aug-2021 4914.80 7805.57 85.35 12.00 130.45 3262.04
   12:23:41.988.27-Aug-2021 4914.80 7805.20 85.35 12.00 130.65 3262.04
   12:23:42.188.27-Aug-2021 4914.80 7805.43 85.35 12.00 130.85 3262.04
   12:23:42.388.27-Aug-2021 4914.80 7806.03 85.35 12.00 131.05 3262.04
   12:23:42.589.27-Aug-2021 4914.80 7806.03 85.35 12.00 131.25 3262.04
   12:23:42.789.27-Aug-2021 4914.80 7806.24 85.35 12.00 131.45 3262.04
   12:23:42.989.27-Aug-2021 4914.80 7805.85 85.35 12.00 131.65 3262.04
   12:23:43.189.27-Aug-2021 4914.80 7805.95 85.35 12.00 131.85 3262.04
   12:23:43.389.27-Aug-2021 4914.80 7805.75 85.35 12.00 132.05 3262.04
   12:23:43.589.27-Aug-2021 4914.80 7805.75 85.35 12.00 132.25 3262.04
   12:23:43.789.27-Aug-2021 4914.80 7806.54 85.35 12.00 132.45 3262.04
   12:23:43.989.27-Aug-2021 4914.80 7806.85 85.35 12.00 132.65 3262.04
   12:23:44.189.27-Aug-2021 4914.80 7805.56 85.35 12.00 132.85 3262.04
   12:23:44.389.27-Aug-2021 4914.80 7805.10 85.35 12.00 133.05 3262.04
   12:23:44.589.27-Aug-2021 4914.80 7805.10 85.35 12.00 133.25 3262.04
   12:23:44.789.27-Aug-2021 4914.80 7805.16 85.35 12.00 133.45 3262.04
   12:23:44.989.27-Aug-2021 4914.80 7805.56 85.35 12.00 133.65 3262.04
   12:23:45.189.27-Aug-2021 4914.80 7805.09 85.35 12.00 133.85 3262.04
   12:23:45.390.27-Aug-2021 4914.80 7805.67 85.35 12.00 134.05 3262.04
   12:23:45.590.27-Aug-2021 4914.80 7805.67 85.35 12.00 134.25 3262.04
   12:23:45.790.27-Aug-2021 4914.80 7806.34 85.35 12.00 134.45 3262.04
   12:23:45.990.27-Aug-2021 4914.80 7806.73 85.35 12.00 134.65 3262.04
   12:23:46.190.27-Aug-2021 4914.80 7806.49 85.35 12.00 134.85 3262.04
   12:23:46.390.27-Aug-2021 4914.80 7806.58 85.35 12.00 135.05 3262.04
   12:23:46.590.27-Aug-2021 4914.80 7806.58 85.35 12.00 135.25 3262.04
   12:23:46.790.27-Aug-2021 4914.80 7806.19 85.35 12.00 135.45 3262.04
