~Version Information
 VERS.                  2.0:   CWLS log ASCII Standard -VERSION 2.0
 WRAP.                   NO:   One line per depth step
~Well Information Block
#MNEM.UNIT     VALUE/NAME     DESCRIPTION
#---------     -----------    ---------------------------
 STRT.S             06:14:43 27-Aug-21: START TIME 06:14:43 27-Aug-21
 STOP.S             06:21:54 27-Aug-21: STOP TIME  06:21:54 27-Aug-21
 STEP.S                   0.00: STEP TIME
 NULL.                 -999.25: NULL VALUE
 DFWT.                        :  DIST FWL TEXT
 DFST.                        :  DIST FSL TEXT
 DMF .             Drill Floor:  DRILL MEAS FROM
 STIM.      20.00.00 17-Aug-21:  START TIME
 DATE.      19.00.00 29-Aug-21:  END TIME
 SPUD.               15-Aug-21:  SPUD DATE
 NREF.                    Grid:  NORTH REFERENCE
 HPTY.       Minimum Curvature:  HOLE POS TYPE
 DMOD.             Drill Model:  DRILL MOD DESC
 SVYD.                  Survey:  SURVEY DESC
 ILTD.               Lithology:  INTERP LTH DESC
 FTOP.          Formation Tops:  FORM TOPS DESC
 RIG .              East Azeri:  RIG NAME
 PDAT.          Mean Sea Level:  PERMANENT DATUM
 FLD .                     ACG:  FIELD NAME
 SON .        AZ-XX-0907180857:  JOB NUMBER
 CTRY.              Azerbaijan:  COUNTRY NAME
 WELL.                    D23x:  WELL NAME
 SRVC.     Turan Drilling and Engineering:  CONTRACTOR
 COMP.     BP Exploration (Caspian Sea) Ltd.:  COMPANY
 UWI .            /AZE00000214:  UNIQUE WELL IDENTIFIER
 API .            /AZE00000214:  API NUMBER
 MDS .        Operator Entered:  MAG DATA SOURCE
 BASE.              Azerbaijan:  LOGGING EQUIPMENT BASE LOCATION
 REGN.                   EESSA:  REGION
 PROV.                    Baku:  PROVINCE
 STAT.                    Baku:  STATE NAME
 MWDS.                    Baku:  MWD SHOP
 DOE .                     N/A:  DOE NUMBER
 DCON.         Sperry Drilling:  DIRECTNL CONTR
 UNIT.                     N/A:  LOGGING EQUIPMENT ID
 WTYP.                Deviated:  WELL TYPE
 CNTY.                        :  COUNTY
 LOC .                        :  LOCATION
 LMF .             Drill Floor:  LOG MEASURED FROM
 TVDS.m                  43.60:  TVDSS CORRECTN
 LATI.deg                40.02:  LATITUDE
 LONG.deg                51.45:  LONGITUDE
 WHNS.m                  -7.04:  WELL HEAD N/S
 WHEW.m                  -0.67:  WELL HEAD E/W
 UTMX.m              538762.90:  UTM X
 UTMY.m             4431871.34:  UTM Y
 DFWL.m                   0.00:  DISTANCE FWL
 DFSL.m                   0.00:  DISTANCE FSL
 SDEP.m                4127.00:  START DEPTH
 TDD .m                5084.50:  TOTAL DEPTH (DRILLER)
 VSDR.deg               140.47:  VERT SEC DIRECT
 GVFD.g                   1.00:  GRAVITY FIELD
 MFLD.nT              50362.00:  MAGNETIC FIELD
 MDIP.deg                59.48:  MAGNETIC DIP
 MDEC.deg                 6.47:  MAGNETIC DECL
 GRDC.deg                 0.31:  GRID CORRECTION
 AZTC.deg                 6.16:  AZM TOTAL CORR
 EPD .m                   0.00:  ELEVATION
 EGL .m                   0.00:  GROUND ELEVATION
 WDMS.m                 151.80:  WD ELEV
 APD .m                  43.60:  DEPTH ABOVE PD
 DEP .m                4092.57:  DEPTH
 AGAP.m                  43.60:  AIR GAP
 VSEW.m                  -0.67:  VERT SEC E/W
 VSNS.m                  -7.04:  VERT SEC N/S
 EKB .m                  43.60:  KB ELEVATION
 EDF .m                  43.60:  DF ELEVATION
 TDL .m                 957.50:  TOTAL DEPTH (LOGGER)
 VSC .                       0:  VS TO CLOSURE
 MAGU.                 1851413:  MAGUTM CHECKSUM
~Parameter Information Block
#MNEM.UNIT       Value        Description
#---------     -----------    ---------------------------
 AV  .mps                 1.50:  Ann Velocity 
 AVMX.mps                 2.00:  Max Ann Veloc 
 AZIF.deg               184.66:  Azm, Final 
 BHAT.        Rotary Steerable:  BHA Type 
 BREV.rev               300.00:  Rev Bit Total 
 BROT.°/30m              -0.50:  Build Rotating 
 BS  .in                  8.50:  Bit Size 
 BSZ .in                  8.50:  Bit Size 
 BTPL.psig              370.00:  Bit Press Loss 
 CABU.                      No:  Customer Abuse 
 CGEO.      Behruz Shahbaliyev:  Customer Geo 
 COMM.                     4V:  Run Comments 1 
 TCS .hr                140.08:  Time Ciculation Ended 
 CV  .mps                 3.00:  Crit Velocity 
 CVMX.mps                 3.20:  Max Crit Veloc 
 DD1 .            Musa Ahmadov:  Direct Drillr 1 
 DD2 .           Hamid Ahmadov:  Direct Drillr 2 
 DDSV.               Geo-Pilot:  DD Service 
 DEFF.%                  98.40:  % Det Eff 
 DLRX.°/30m               3.40:  Dogleg Rot Max 
 DLSO.°/30m               1.45:  Dogleg Oriented 
 DLSX.°/30m               3.40:  Dogleg Str Max 
 DRET.      18.40.00 29-Aug-21:  Drill End Time 
 DRST.      21.00.00 20-Aug-21:  Drill Start Tim 
 DTIM.hr                 69.47:  Time Drilling 
 EDEP.m                5084.50:  End Depth 
 ENG1.      Artemiy Matviyanov:  Engineer 1 
 ENG2.         Almaz Almadatov:  Engineer 2 
 ETIM.      18.40.00 29-Aug-21:  End Time 
 FLOI.gpm               500.00:  Flow In 
 FLON.gpm               400.00:  Flow In Min 
 FLOS.cptm                0.00:  Fluid Loss 
 FLOX.gpm               500.00:  Flow In Max 
 DFT .        Mineral Oil Base:  Mud Type 
 HFLO.                      No:  High Flow 
 HPRE.                      No:  High Pressure 
 HTEM.                      No:  High Temp 
 HYDO.m                   1.80:  Hydro Offset 
 IFIN.deg                25.62:  Inc, Final 
 IMAX.deg                48.69:  Inc Max 
 IMIN.deg                24.01:  Inc Min 
 IMND.m                4962.57:  Inc Min Depth 
 IMXD.m                4119.01:  Inc Max Depth 
 JARR.                      No:  Jarring 
 LETM.      18.40.00 29-Aug-21:  Log End Time 
 LOST.hr                     0:  Lost Rig Time 
 LSTM.      21.00.00 20-Aug-21:  Log Start Time 
 MDCL.ppm             41500.00:  Mud Chlorides 
 MDES.     Inversion Oil/Synthetic:  Mud Desc 
 DFD .sg                  1.56:  Mud Density 
 MDMN.sg                  1.56:  Dens Mud Min 
 MDMX.sg                  1.56:  Dens Mud Max 
 MOIL.                      70:  Run Mud Oil % 
 MOWR.                   70:30:  Run Mud OWR 
 MSND.                     0.2:  Run Mud Sand % 
 MSOL.                    23.3:  Run Mud Solids% 
 DFV .spqt               78.00:  Mud Viscosity 
 MWOD.in                  6.75:  MWD Tool OD 
 MWSI.                      No:  Serv Intrp, MWD 
 OTIM.hr                218.30:  Time Operating 
 PCON.           Look Like New:  Pad Condition 
 PMAX.psia            11015.30:  Press Op, Max 
 PV  .cP                 38.00:  Mud PV 
 RUN .                     300:  Run Number 
 ROPA.m/hr               15.00:  ROP Avg 
 ROPN.m/hr                9.00:  ROP Min 
 ROPX.m/hr               17.00:  ROP Max 
 RPMA.rpm               120.00:  RPM Surface Avg 
 RPMN.rpm                90.00:  RPM Surface Min 
 RPMX.rpm               140.00:  RPM Surface Max 
 RRUN.                     300:  Rig Run Number 
 RTIM.hr                 31.53:  Time Reaming 
 SAZI.deg               331.64:  Azm, Start 
 SDEP.m                4127.00:  Start Depth 
 SIDD.                      No:  Serv Intrp, DD 
 SINC.deg                48.43:  Inc, Start 
 SPPA.psig             5830.00:  SPP Avg 
 SPPN.psig             5600.00:  SPP Min 
 SPPX.psig             5900.00:  SPP Max 
 STIM.      21.00.00 20-Aug-21:  Start Time 
 SVCS.                 DD, MWD:  Services 
 SVER.                    9.20:  Sperry Version 
 TDAT.m                 957.50:  Tot Depth Attmp 
 TDDF.                      No:  Trip for DD 
 TDLG.m                 957.50:  Tot Depth Loggd 
 TFF .                      No:  Trip for Fail 
 TQAA.f-kp               15.00:  Torque Abs Avg 
 TQAN.f-kp               12.00:  Torque Abs Min 
 TQAX.f-kp               19.00:  Torque Abs Max 
 TRRT.°/30m              -3.40:  Turn Rotating 
 MRT .                  EWR-M5:  Maximum Recorded Temperature 
 TTMX.degC              100.00:  Max Tool Temp 
 VS01.                90639251:  Virtual Str1 SN 
 VS02.                90634715:  Virtual Str2 SN 
 VS03.                90652479:  Virtual Str3 SN 
 VS04.                90642262:  Virtual Str4 SN 
 WBMN.klb                 0.00:  WOB Min 
 WITN.           Murad Guliyev:  Customer Rep 
 WITN.          Yashar Gaziyev:  Customer Rep 2 
 WOBA.klb                 9.00:  WOB Avg 
 WOBX.klb                12.00:  WOB Max 
 YP  .lhf2               30.00:  Yield Point 
~Curve Information Block
#MNEM.UNIT                 API CODE     Curve Description
#---------               -----------    ---------------------------
 TIME.HHMMSS            00 000 000 000:  GT Time & Date
 GTDEPTH.m              00 000 000 000:  GT Depth
 GTPQH.psia             00 000 000 000:  GT HR Quartz Pressure
 GTTQ.degC              00 000 000 000:  GT Quartz Temperature
 GTTN.NONE              00 000 000 000:  GT Test Number
 GTET.sec               00 000 000 000:  GT Elapsed Test Time
 GTTVD.m                00 000 000 000:  GT True Vertical Depth
#Other Information
#
#WARRANTY: Halliburton will use its best efforts to furnish customers with 
#accurate information and interpretations that are part of, and incident to, the services 
#provided.  However, Halliburton cannot and does not warrant the accuracy 
#or correctness of such information and interpretations.  Under no circumstances should any 
#such information or interpretation be relied upon as the sole basis for any drilling, 
#completion, production, or financial decision or any procedure involving any risk to the 
#safety of any drilling venture, drilling rig or its crew or any other third party.  The 
#Customer has full responsibility for all drilling, completion and production operation.  
#Halliburton makes no representations or warranties, either expressed or 
#implied, including, but not limited to, the implied warranties of merchantability or fitness 
#for a particular purpose, with respect to the services rendered.  In no event will 
#Halliburton be liable for failure to obtain any particular results or for 
#any damages, including, but not limited to, indirect, special or consequential damages, 
#resulting from the use of any information or interpretation provided by Halliburton.
#
~A           TIME           GTDEPTH  GTPQH  GTTQ  GTTN  GTET   GTTVD  
# ...
   06:17:47.653.27-Aug-2021 5020.50 8000.54 88.16 2.00 184.03 3358.11
   06:17:47.853.27-Aug-2021 5020.50 8000.54 88.16 2.00 184.23 3358.11
   06:17:48.053.27-Aug-2021 5020.50 8001.67 88.16 2.00 184.43 3358.11
   06:17:48.253.27-Aug-2021 5020.50 8001.57 88.16 2.00 184.63 3358.11
   06:17:48.453.27-Aug-2021 5020.50 8000.19 88.16 2.00 184.83 3358.11
   06:17:48.653.27-Aug-2021 5020.50 8000.10 88.16 2.00 185.03 3358.11
   06:17:48.853.27-Aug-2021 5020.50 8000.10 88.16 2.00 185.23 3358.11
   06:17:49.053.27-Aug-2021 5020.50 8000.76 88.16 2.00 185.43 3358.11
   06:17:49.253.27-Aug-2021 5020.50 8000.56 88.16 2.00 185.63 3358.11
   06:17:49.453.27-Aug-2021 5020.50 8000.35 88.16 2.00 185.83 3358.11
   06:17:49.653.27-Aug-2021 5020.50 8000.36 88.16 2.00 186.03 3358.11
   06:17:49.853.27-Aug-2021 5020.50 8000.36 88.16 2.00 186.23 3358.11
   06:17:50.053.27-Aug-2021 5020.50 8000.41 88.16 2.00 186.43 3358.11
   06:17:50.253.27-Aug-2021 5020.50 8001.81 88.16 2.00 186.63 3358.11
   06:17:50.453.27-Aug-2021 5020.50 8001.83 88.16 2.00 186.83 3358.11
   06:17:50.653.27-Aug-2021 5020.50 8001.66 88.16 2.00 187.03 3358.11
   06:17:50.853.27-Aug-2021 5020.50 8001.66 88.16 2.00 187.23 3358.11
   06:17:51.053.27-Aug-2021 5020.50 8001.75 88.16 2.00 187.43 3358.11
   06:17:51.253.27-Aug-2021 5020.50 8004.19 88.16 2.00 187.63 3358.11
   06:17:51.453.27-Aug-2021 5020.50 8003.23 88.16 2.00 187.83 3358.11
   06:17:51.653.27-Aug-2021 5020.50 8000.51 88.16 2.00 188.03 3358.11
   06:17:51.853.27-Aug-2021 5020.50 8000.51 88.16 2.00 188.23 3358.11
   06:17:52.053.27-Aug-2021 5020.50 8000.40 88.16 2.00 188.43 3358.11
   06:17:52.253.27-Aug-2021 5020.50 8001.00 88.16 2.00 188.63 3358.11
   06:17:52.453.27-Aug-2021 5020.50 8000.37 88.16 2.00 188.83 3358.11
   06:17:52.653.27-Aug-2021 5020.50 8000.32 88.16 2.00 189.03 3358.11
   06:17:52.853.27-Aug-2021 5020.50 8000.32 88.16 2.00 189.23 3358.11
   06:17:53.053.27-Aug-2021 5020.50 8000.65 88.16 2.00 189.43 3358.11
   06:17:53.254.27-Aug-2021 5020.50 8001.88 88.16 2.00 189.63 3358.11
   06:17:53.454.27-Aug-2021 5020.50 8002.13 88.16 2.00 189.83 3358.11
   06:17:53.654.27-Aug-2021 5020.50 8002.28 88.16 2.00 190.03 3358.11
   06:17:53.854.27-Aug-2021 5020.50 8002.28 88.16 2.00 190.23 3358.11
   06:17:54.054.27-Aug-2021 5020.50 8001.62 88.16 2.00 190.43 3358.11
   06:17:54.254.27-Aug-2021 5020.50 8001.59 88.16 2.00 190.63 3358.11
   06:17:54.454.27-Aug-2021 5020.50 8001.11 88.16 2.00 190.83 3358.11
   06:17:54.654.27-Aug-2021 5020.50 8006.57 88.16 2.00 191.03 3358.11
   06:17:54.854.27-Aug-2021 5020.50 8006.57 88.16 2.00 191.23 3358.11
   06:17:55.054.27-Aug-2021 5020.50 8000.46 88.16 2.00 191.43 3358.11
   06:17:55.254.27-Aug-2021 5020.50 8005.26 88.16 2.00 191.63 3358.11
   06:17:55.454.27-Aug-2021 5020.50 8000.81 88.16 2.00 191.83 3358.11
   06:17:55.654.27-Aug-2021 5020.50 8001.44 88.16 2.00 192.03 3358.11
   06:17:55.854.27-Aug-2021 5020.50 8001.44 88.16 2.00 192.23 3358.11
   06:17:56.054.27-Aug-2021 5020.50 8000.44 88.16 2.00 192.43 3358.11
   06:17:56.254.27-Aug-2021 5020.50 7999.57 88.16 2.00 192.63 3358.11
   06:17:56.454.27-Aug-2021 5020.50 8008.89 88.16 2.00 192.83 3358.11
   06:17:56.654.27-Aug-2021 5020.50 7998.08 88.16 2.00 193.03 3358.11
   06:17:56.854.27-Aug-2021 5020.50 7998.08 88.16 2.00 193.23 3358.11
   06:17:57.054.27-Aug-2021 5020.50 8000.82 88.16 2.00 193.43 3358.11
   06:17:57.254.27-Aug-2021 5020.50 8009.30 88.16 2.00 193.63 3358.11
   06:17:57.454.27-Aug-2021 5020.50 7999.63 88.16 2.00 193.83 3358.11
   06:17:57.654.27-Aug-2021 5020.50 8001.18 88.16 2.00 194.03 3358.11
   06:17:57.854.27-Aug-2021 5020.50 8001.18 88.16 2.00 194.23 3358.11
   06:17:58.054.27-Aug-2021 5020.50 8000.91 88.16 2.00 194.43 3358.11
   06:17:58.254.27-Aug-2021 5020.50 8000.32 88.16 2.00 194.63 3358.11
   06:17:58.454.27-Aug-2021 5020.50 8000.55 88.16 2.00 194.83 3358.11
   06:17:58.654.27-Aug-2021 5020.50 8000.63 88.16 2.00 195.03 3358.11
   06:17:58.854.27-Aug-2021 5020.50 8000.63 88.16 2.00 195.23 3358.11
   06:17:59.054.27-Aug-2021 5020.50 8000.45 88.16 2.00 195.43 3358.11
   06:17:59.254.27-Aug-2021 5020.50 8001.22 88.16 2.00 195.63 3358.11
   06:17:59.455.27-Aug-2021 5020.50 8001.73 88.16 2.00 195.83 3358.11
   06:17:59.655.27-Aug-2021 5020.50 8002.19 88.16 2.00 196.03 3358.11
   06:17:59.855.27-Aug-2021 5020.50 8002.19 88.16 2.00 196.23 3358.11
   06:18:00.055.27-Aug-2021 5020.50 8001.90 88.16 2.00 196.43 3358.11
   06:18:00.255.27-Aug-2021 5020.50 8001.33 88.16 2.00 196.63 3358.11
   06:18:00.455.27-Aug-2021 5020.50 8006.00 88.16 2.00 196.83 3358.11
   06:18:00.655.27-Aug-2021 5020.50 8001.81 88.16 2.00 197.03 3358.11
   06:18:00.855.27-Aug-2021 5020.50 8001.81 88.16 2.00 197.23 3358.11
   06:18:01.055.27-Aug-2021 5020.50 8001.02 88.16 2.00 197.43 3358.11
   06:18:01.255.27-Aug-2021 5020.50 8000.73 88.16 2.00 197.63 3358.11
   06:18:01.455.27-Aug-2021 5020.50 8000.83 88.16 2.00 197.83 3358.11
   06:18:01.655.27-Aug-2021 5020.50 8001.15 88.16 2.00 198.03 3358.11
   06:18:01.855.27-Aug-2021 5020.50 8001.15 88.16 2.00 198.23 3358.11
   06:18:02.055.27-Aug-2021 5020.50 8000.75 88.16 2.00 198.43 3358.11
   06:18:02.255.27-Aug-2021 5020.50 8000.79 88.16 2.00 198.63 3358.11
   06:18:02.455.27-Aug-2021 5020.50 8001.40 88.16 2.00 198.83 3358.11
   06:18:02.655.27-Aug-2021 5020.50 8002.17 88.16 2.00 199.03 3358.11
   06:18:02.855.27-Aug-2021 5020.50 8002.17 88.16 2.00 199.23 3358.11
   06:18:03.055.27-Aug-2021 5020.50 8002.14 88.16 2.00 199.43 3358.11
   06:18:03.255.27-Aug-2021 5020.50 8002.18 88.16 2.00 199.63 3358.11
   06:18:03.455.27-Aug-2021 5020.50 8001.59 88.16 2.00 199.83 3358.11
   06:18:03.655.27-Aug-2021 5020.50 8001.66 88.16 2.00 200.03 3358.11
   06:18:03.855.27-Aug-2021 5020.50 8001.66 88.16 2.00 200.23 3358.11
   06:18:04.055.27-Aug-2021 5020.50 8004.83 88.16 2.00 200.43 3358.11
   06:18:04.255.27-Aug-2021 5020.50 8003.06 88.16 2.00 200.63 3358.11
   06:18:04.455.27-Aug-2021 5020.50 8000.46 88.16 2.00 200.83 3358.11
   06:18:04.655.27-Aug-2021 5020.50 8005.54 88.16 2.00 201.03 3358.11
   06:18:04.855.27-Aug-2021 5020.50 8005.54 88.16 2.00 201.23 3358.11
   06:18:05.055.27-Aug-2021 5020.50 8001.82 88.16 2.00 201.43 3358.11
   06:18:05.255.27-Aug-2021 5020.50 7999.99 88.16 2.00 201.63 3358.11
   06:18:05.456.27-Aug-2021 5020.50 8000.42 88.16 2.00 201.83 3358.11
   06:18:05.656.27-Aug-2021 5020.50 7999.88 88.16 2.00 202.03 3358.11
   06:18:05.856.27-Aug-2021 5020.50 7999.88 88.16 2.00 202.23 3358.11
   06:18:06.056.27-Aug-2021 5020.50 8001.23 88.16 2.00 202.43 3358.11
   06:18:06.256.27-Aug-2021 5020.50 8000.80 88.16 2.00 202.63 3358.11
   06:18:06.456.27-Aug-2021 5020.50 8001.14 88.16 2.00 202.83 3358.11
   06:18:06.656.27-Aug-2021 5020.50 8005.49 88.16 2.00 203.03 3358.11
   06:18:06.856.27-Aug-2021 5020.50 8005.49 88.16 2.00 203.23 3358.11
   06:18:07.056.27-Aug-2021 5020.50 8001.81 88.16 2.00 203.43 3358.11
   06:18:07.256.27-Aug-2021 5020.50 8000.71 88.16 2.00 203.63 3358.11
   06:18:07.456.27-Aug-2021 5020.50 8000.43 88.16 2.00 203.83 3358.11
   06:18:07.656.27-Aug-2021 5020.50 7999.96 88.16 2.00 204.03 3358.11
   06:18:07.856.27-Aug-2021 5020.50 7999.96 88.16 2.00 204.23 3358.11
   06:18:08.056.27-Aug-2021 5020.50 8001.31 88.16 2.00 204.43 3358.11
   06:18:08.256.27-Aug-2021 5020.50 8000.92 88.16 2.00 204.63 3358.11
   06:18:08.456.27-Aug-2021 5020.50 8000.23 88.16 2.00 204.83 3358.11
   06:18:08.656.27-Aug-2021 5020.50 8000.86 88.16 2.00 205.03 3358.11
   06:18:08.856.27-Aug-2021 5020.50 8000.86 88.16 2.00 205.23 3358.11
   06:18:09.056.27-Aug-2021 5020.50 8001.99 88.16 2.00 205.43 3358.11
   06:18:09.256.27-Aug-2021 5020.50 8001.81 88.16 2.00 205.63 3358.11
   06:18:09.456.27-Aug-2021 5020.50 8001.42 88.16 2.00 205.83 3358.11
   06:18:09.656.27-Aug-2021 5020.50 8001.46 88.16 2.00 206.03 3358.11
   06:18:09.856.27-Aug-2021 5020.50 8001.46 88.16 2.00 206.23 3358.11
   06:18:10.056.27-Aug-2021 5020.50 8001.10 88.15 2.00 206.43 3358.11
   06:18:10.256.27-Aug-2021 5020.50 8002.87 88.15 2.00 206.63 3358.11
   06:18:10.456.27-Aug-2021 5020.50 8000.70 88.15 2.00 206.83 3358.11
