~Version Information
 VERS.                  2.0:   CWLS log ASCII Standard -VERSION 2.0
 WRAP.                   NO:   One line per depth step
~Well Information Block
#MNEM.UNIT     VALUE/NAME     DESCRIPTION
#---------     -----------    ---------------------------
 STRT.S             04:10:22 28-Aug-21: START TIME 04:10:22 28-Aug-21
 STOP.S             04:17:14 28-Aug-21: STOP TIME  04:17:14 28-Aug-21
 STEP.S                   0.00: STEP TIME
 NULL.                 -999.25: NULL VALUE
 DFWT.                        :  DIST FWL TEXT
 DFST.                        :  DIST FSL TEXT
 DMF .             Drill Floor:  DRILL MEAS FROM
 STIM.      20.00.00 17-Aug-21:  START TIME
 DATE.      19.00.00 29-Aug-21:  END TIME
 SPUD.               15-Aug-21:  SPUD DATE
 NREF.                    Grid:  NORTH REFERENCE
 HPTY.       Minimum Curvature:  HOLE POS TYPE
 DMOD.             Drill Model:  DRILL MOD DESC
 SVYD.                  Survey:  SURVEY DESC
 ILTD.               Lithology:  INTERP LTH DESC
 FTOP.          Formation Tops:  FORM TOPS DESC
 RIG .              East Azeri:  RIG NAME
 PDAT.          Mean Sea Level:  PERMANENT DATUM
 FLD .                     ACG:  FIELD NAME
 SON .        AZ-XX-0907180857:  JOB NUMBER
 CTRY.              Azerbaijan:  COUNTRY NAME
 WELL.                    D23x:  WELL NAME
 SRVC.     Turan Drilling and Engineering:  CONTRACTOR
 COMP.     BP Exploration (Caspian Sea) Ltd.:  COMPANY
 UWI .            /AZE00000214:  UNIQUE WELL IDENTIFIER
 API .            /AZE00000214:  API NUMBER
 MDS .        Operator Entered:  MAG DATA SOURCE
 BASE.              Azerbaijan:  LOGGING EQUIPMENT BASE LOCATION
 REGN.                   EESSA:  REGION
 PROV.                    Baku:  PROVINCE
 STAT.                    Baku:  STATE NAME
 MWDS.                    Baku:  MWD SHOP
 DOE .                     N/A:  DOE NUMBER
 DCON.         Sperry Drilling:  DIRECTNL CONTR
 UNIT.                     N/A:  LOGGING EQUIPMENT ID
 WTYP.                Deviated:  WELL TYPE
 CNTY.                        :  COUNTY
 LOC .                        :  LOCATION
 LMF .             Drill Floor:  LOG MEASURED FROM
 TVDS.m                  43.60:  TVDSS CORRECTN
 LATI.deg                40.02:  LATITUDE
 LONG.deg                51.45:  LONGITUDE
 WHNS.m                  -7.04:  WELL HEAD N/S
 WHEW.m                  -0.67:  WELL HEAD E/W
 UTMX.m              538762.90:  UTM X
 UTMY.m             4431871.34:  UTM Y
 DFWL.m                   0.00:  DISTANCE FWL
 DFSL.m                   0.00:  DISTANCE FSL
 SDEP.m                4127.00:  START DEPTH
 TDD .m                5084.50:  TOTAL DEPTH (DRILLER)
 VSDR.deg               140.47:  VERT SEC DIRECT
 GVFD.g                   1.00:  GRAVITY FIELD
 MFLD.nT              50362.00:  MAGNETIC FIELD
 MDIP.deg                59.48:  MAGNETIC DIP
 MDEC.deg                 6.47:  MAGNETIC DECL
 GRDC.deg                 0.31:  GRID CORRECTION
 AZTC.deg                 6.16:  AZM TOTAL CORR
 EPD .m                   0.00:  ELEVATION
 EGL .m                   0.00:  GROUND ELEVATION
 WDMS.m                 151.80:  WD ELEV
 APD .m                  43.60:  DEPTH ABOVE PD
 DEP .m                4092.57:  DEPTH
 AGAP.m                  43.60:  AIR GAP
 VSEW.m                  -0.67:  VERT SEC E/W
 VSNS.m                  -7.04:  VERT SEC N/S
 EKB .m                  43.60:  KB ELEVATION
 EDF .m                  43.60:  DF ELEVATION
 TDL .m                 957.50:  TOTAL DEPTH (LOGGER)
 VSC .                       0:  VS TO CLOSURE
 MAGU.                 1851413:  MAGUTM CHECKSUM
~Parameter Information Block
#MNEM.UNIT       Value        Description
#---------     -----------    ---------------------------
 AV  .mps                 1.50:  Ann Velocity 
 AVMX.mps                 2.00:  Max Ann Veloc 
 AZIF.deg               184.66:  Azm, Final 
 BHAT.        Rotary Steerable:  BHA Type 
 BREV.rev               300.00:  Rev Bit Total 
 BROT.°/30m              -0.50:  Build Rotating 
 BS  .in                  8.50:  Bit Size 
 BSZ .in                  8.50:  Bit Size 
 BTPL.psig              370.00:  Bit Press Loss 
 CABU.                      No:  Customer Abuse 
 CGEO.      Behruz Shahbaliyev:  Customer Geo 
 COMM.                     LÁp:  Run Comments 1 
 TCS .hr                140.08:  Time Ciculation Ended 
 CV  .mps                 3.00:  Crit Velocity 
 CVMX.mps                 3.20:  Max Crit Veloc 
 DD1 .            Musa Ahmadov:  Direct Drillr 1 
 DD2 .           Hamid Ahmadov:  Direct Drillr 2 
 DDSV.               Geo-Pilot:  DD Service 
 DEFF.%                  98.40:  % Det Eff 
 DLRX.°/30m               3.40:  Dogleg Rot Max 
 DLSO.°/30m               1.45:  Dogleg Oriented 
 DLSX.°/30m               3.40:  Dogleg Str Max 
 DRET.      18.40.00 29-Aug-21:  Drill End Time 
 DRST.      21.00.00 20-Aug-21:  Drill Start Tim 
 DTIM.hr                 69.47:  Time Drilling 
 EDEP.m                5084.50:  End Depth 
 ENG1.      Artemiy Matviyanov:  Engineer 1 
 ENG2.         Almaz Almadatov:  Engineer 2 
 ETIM.      18.40.00 29-Aug-21:  End Time 
 FLOI.gpm               500.00:  Flow In 
 FLON.gpm               400.00:  Flow In Min 
 FLOS.cptm                0.00:  Fluid Loss 
 FLOX.gpm               500.00:  Flow In Max 
 DFT .        Mineral Oil Base:  Mud Type 
 HFLO.                      No:  High Flow 
 HPRE.                      No:  High Pressure 
 HTEM.                      No:  High Temp 
 HYDO.m                   1.80:  Hydro Offset 
 IFIN.deg                25.62:  Inc, Final 
 IMAX.deg                48.69:  Inc Max 
 IMIN.deg                24.01:  Inc Min 
 IMND.m                4962.57:  Inc Min Depth 
 IMXD.m                4119.01:  Inc Max Depth 
 JARR.                      No:  Jarring 
 LETM.      18.40.00 29-Aug-21:  Log End Time 
 LOST.hr                     0:  Lost Rig Time 
 LSTM.      21.00.00 20-Aug-21:  Log Start Time 
 MDCL.ppm             41500.00:  Mud Chlorides 
 MDES.     Inversion Oil/Synthetic:  Mud Desc 
 DFD .sg                  1.56:  Mud Density 
 MDMN.sg                  1.56:  Dens Mud Min 
 MDMX.sg                  1.56:  Dens Mud Max 
 MOIL.                      70:  Run Mud Oil % 
 MOWR.                   70:30:  Run Mud OWR 
 MSND.                     0.2:  Run Mud Sand % 
 MSOL.                    23.3:  Run Mud Solids% 
 DFV .spqt               78.00:  Mud Viscosity 
 MWOD.in                  6.75:  MWD Tool OD 
 MWSI.                      No:  Serv Intrp, MWD 
 OTIM.hr                218.30:  Time Operating 
 PCON.           Look Like New:  Pad Condition 
 PMAX.psia            11015.30:  Press Op, Max 
 PV  .cP                 38.00:  Mud PV 
 RUN .                     300:  Run Number 
 ROPA.m/hr               15.00:  ROP Avg 
 ROPN.m/hr                9.00:  ROP Min 
 ROPX.m/hr               17.00:  ROP Max 
 RPMA.rpm               120.00:  RPM Surface Avg 
 RPMN.rpm                90.00:  RPM Surface Min 
 RPMX.rpm               140.00:  RPM Surface Max 
 RRUN.                     300:  Rig Run Number 
 RTIM.hr                 31.53:  Time Reaming 
 SAZI.deg               331.64:  Azm, Start 
 SDEP.m                4127.00:  Start Depth 
 SIDD.                      No:  Serv Intrp, DD 
 SINC.deg                48.43:  Inc, Start 
 SPPA.psig             5830.00:  SPP Avg 
 SPPN.psig             5600.00:  SPP Min 
 SPPX.psig             5900.00:  SPP Max 
 STIM.      21.00.00 20-Aug-21:  Start Time 
 SVCS.                 DD, MWD:  Services 
 SVER.                    9.20:  Sperry Version 
 TDAT.m                 957.50:  Tot Depth Attmp 
 TDDF.                      No:  Trip for DD 
 TDLG.m                 957.50:  Tot Depth Loggd 
 TFF .                      No:  Trip for Fail 
 TQAA.f-kp               15.00:  Torque Abs Avg 
 TQAN.f-kp               12.00:  Torque Abs Min 
 TQAX.f-kp               19.00:  Torque Abs Max 
 TRRT.°/30m              -3.40:  Turn Rotating 
 MRT .                  EWR-M5:  Maximum Recorded Temperature 
 TTMX.degC              100.00:  Max Tool Temp 
 VS01.                90639251:  Virtual Str1 SN 
 VS02.                90634715:  Virtual Str2 SN 
 VS03.                90652479:  Virtual Str3 SN 
 VS04.                90642262:  Virtual Str4 SN 
 WBMN.klb                 0.00:  WOB Min 
 WITN.           Murad Guliyev:  Customer Rep 
 WITN.          Yashar Gaziyev:  Customer Rep 2 
 WOBA.klb                 9.00:  WOB Avg 
 WOBX.klb                12.00:  WOB Max 
 YP  .lhf2               30.00:  Yield Point 
~Curve Information Block
#MNEM.UNIT                 API CODE     Curve Description
#---------               -----------    ---------------------------
 TIME.HHMMSS            00 000 000 000:  GT Time & Date
 GTDEPTH.m              00 000 000 000:  GT Depth
 GTPQH.psia             00 000 000 000:  GT HR Quartz Pressure
 GTTQ.degC              00 000 000 000:  GT Quartz Temperature
 GTTN.NONE              00 000 000 000:  GT Test Number
 GTET.sec               00 000 000 000:  GT Elapsed Test Time
 GTTVD.m                00 000 000 000:  GT True Vertical Depth
#Other Information
#
#WARRANTY: Halliburton will use its best efforts to furnish customers with 
#accurate information and interpretations that are part of, and incident to, the services 
#provided.  However, Halliburton cannot and does not warrant the accuracy 
#or correctness of such information and interpretations.  Under no circumstances should any 
#such information or interpretation be relied upon as the sole basis for any drilling, 
#completion, production, or financial decision or any procedure involving any risk to the 
#safety of any drilling venture, drilling rig or its crew or any other third party.  The 
#Customer has full responsibility for all drilling, completion and production operation.  
#Halliburton makes no representations or warranties, either expressed or 
#implied, including, but not limited to, the implied warranties of merchantability or fitness 
#for a particular purpose, with respect to the services rendered.  In no event will 
#Halliburton be liable for failure to obtain any particular results or for 
#any damages, including, but not limited to, indirect, special or consequential damages, 
#resulting from the use of any information or interpretation provided by Halliburton.
#
~A           TIME           GTDEPTH  GTPQH  GTTQ  GTTN   GTET   GTTVD  
# ...
   04:11:08.084.28-Aug-2021 4978.00 7952.70 80.50 29.00  45.26 3319.69
   04:11:08.285.28-Aug-2021 4978.00 7949.79 80.50 29.00  45.46 3319.69
   04:11:08.485.28-Aug-2021 4978.00 7949.83 80.50 29.00  45.66 3319.69
   04:11:08.685.28-Aug-2021 4978.00 7949.92 80.50 29.00  45.86 3319.69
   04:11:08.885.28-Aug-2021 4978.00 7950.49 80.50 29.00  46.06 3319.69
   04:11:09.086.28-Aug-2021 4978.00 7950.49 80.50 29.00  46.27 3319.69
   04:11:09.286.28-Aug-2021 4978.00 7950.14 80.50 29.00  46.47 3319.69
   04:11:09.486.28-Aug-2021 4978.00 7950.03 80.50 29.00  46.67 3319.69
   04:11:09.687.28-Aug-2021 4978.00 7950.29 80.50 29.00  46.87 3319.69
   04:11:09.887.28-Aug-2021 4978.00 7950.95 80.50 29.00  47.07 3319.69
   04:11:10.087.28-Aug-2021 4978.00 7950.95 80.50 29.00  47.27 3319.69
   04:11:10.287.28-Aug-2021 4978.00 7950.97 80.50 29.00  47.47 3319.69
   04:11:10.488.28-Aug-2021 4978.00 7950.98 80.50 29.00  47.67 3319.69
   04:11:10.688.28-Aug-2021 4978.00 7950.98 80.50 29.00  47.87 3319.69
   04:11:10.888.28-Aug-2021 4978.00 7951.13 80.50 29.00  48.07 3319.69
   04:11:11.089.28-Aug-2021 4978.00 7951.13 80.50 29.00  48.27 3319.69
   04:11:11.289.28-Aug-2021 4978.00 7951.03 80.50 29.00  48.47 3319.69
   04:11:11.489.28-Aug-2021 4978.00 7951.86 80.50 29.00  48.67 3319.69
   04:11:11.689.28-Aug-2021 4978.00 7951.69 80.50 29.00  48.87 3319.69
   04:11:11.890.28-Aug-2021 4978.00 7951.90 80.50 29.00  49.07 3319.69
   04:11:12.090.28-Aug-2021 4978.00 7951.90 80.50 29.00  49.27 3319.69
   04:11:12.290.28-Aug-2021 4978.00 7951.92 80.50 29.00  49.47 3319.69
   04:11:12.491.28-Aug-2021 4978.00 7951.85 80.50 29.00  49.67 3319.69
   04:11:12.691.28-Aug-2021 4978.00 7951.74 80.50 29.00  49.87 3319.69
   04:11:12.891.28-Aug-2021 4978.00 7952.09 80.50 29.00  50.07 3319.69
   04:11:13.091.28-Aug-2021 4978.00 7952.09 80.50 29.00  50.27 3319.69
   04:11:13.292.28-Aug-2021 4978.00 7953.45 80.50 29.00  50.47 3319.69
   04:11:13.492.28-Aug-2021 4978.00 7953.30 80.50 29.00  50.67 3319.69
   04:11:13.692.28-Aug-2021 4978.00 7953.25 80.50 29.00  50.87 3319.69
   04:11:13.893.28-Aug-2021 4978.00 7953.09 80.50 29.00  51.07 3319.69
   04:11:14.093.28-Aug-2021 4978.00 7953.09 80.50 29.00  51.27 3319.69
   04:11:14.293.28-Aug-2021 4978.00 7953.21 80.50 29.00  51.47 3319.69
   04:11:14.493.28-Aug-2021 4978.00 7958.25 80.50 29.00  51.67 3319.69
   04:11:14.694.28-Aug-2021 4978.00 7952.28 80.50 29.00  51.87 3319.69
   04:11:14.894.28-Aug-2021 4978.00 7954.24 80.50 29.00  52.07 3319.69
   04:11:15.094.28-Aug-2021 4978.00 7954.24 80.50 29.00  52.27 3319.69
   04:11:15.295.28-Aug-2021 4978.00 7955.36 80.50 29.00  52.47 3319.69
   04:11:15.495.28-Aug-2021 4978.00 7956.05 80.50 29.00  52.67 3319.69
   04:11:15.695.28-Aug-2021 4978.00 7955.14 80.50 29.00  52.87 3319.69
   04:11:15.895.28-Aug-2021 4978.00 7953.47 80.50 29.00  53.07 3319.69
   04:11:16.096.28-Aug-2021 4978.00 7953.47 80.50 29.00  53.27 3319.69
   04:11:16.296.28-Aug-2021 4978.00 7953.19 80.50 29.00  53.48 3319.69
   04:11:16.496.28-Aug-2021 4978.00 7954.77 80.50 29.00  53.68 3319.69
   04:11:16.696.28-Aug-2021 4978.00 7954.71 80.50 29.00  53.88 3319.69
   04:11:16.897.28-Aug-2021 4978.00 7954.13 80.50 29.00  54.08 3319.69
   04:11:17.097.28-Aug-2021 4978.00 7954.13 80.50 29.00  54.28 3319.69
   04:11:17.297.28-Aug-2021 4978.00 7954.48 80.50 29.00  54.48 3319.69
   04:11:17.498.28-Aug-2021 4978.00 7958.20 80.50 29.00  54.68 3319.69
   04:11:17.698.28-Aug-2021 4978.00 7955.97 80.50 29.00  54.88 3319.69
   04:11:17.898.28-Aug-2021 4978.00 7954.92 80.50 29.00  55.08 3319.69
   04:11:18.098.28-Aug-2021 4978.00 7954.92 80.50 29.00  55.28 3319.69
   04:11:18.299.28-Aug-2021 4978.00 7955.60 80.50 29.00  55.48 3319.69
   04:11:18.499.28-Aug-2021 4978.00 7955.35 80.50 29.00  55.68 3319.69
   04:11:18.699.28-Aug-2021 4978.00 7954.78 80.50 29.00  55.88 3319.69
   04:11:18.900.28-Aug-2021 4978.00 7954.53 80.50 29.00  56.08 3319.69
   04:11:19.100.28-Aug-2021 4978.00 7954.53 80.50 29.00  56.28 3319.69
   04:11:19.300.28-Aug-2021 4978.00 7954.91 80.50 29.00  56.48 3319.69
   04:11:19.500.28-Aug-2021 4978.00 7955.67 80.50 29.00  56.68 3319.69
   04:11:19.701.28-Aug-2021 4978.00 7956.00 80.49 29.00  56.88 3319.69
   04:11:19.901.28-Aug-2021 4978.00 7955.83 80.49 29.00  57.08 3319.69
   04:11:20.101.28-Aug-2021 4978.00 7955.83 80.49 29.00  57.28 3319.69
   04:11:20.302.28-Aug-2021 4978.00 7955.83 80.49 29.00  57.48 3319.69
   04:11:20.502.28-Aug-2021 4978.00 7956.03 80.49 29.00  57.68 3319.69
   04:11:20.702.28-Aug-2021 4978.00 7961.09 80.49 29.00  57.88 3319.69
   04:11:20.902.28-Aug-2021 4978.00 7955.42 80.49 29.00  58.08 3319.69
   04:11:21.103.28-Aug-2021 4978.00 7955.42 80.49 29.00  58.28 3319.69
   04:11:21.303.28-Aug-2021 4978.00 7955.94 80.49 29.00  58.48 3319.69
   04:11:21.503.28-Aug-2021 4978.00 7956.00 80.49 29.00  58.68 3319.69
   04:11:21.704.28-Aug-2021 4978.00 7956.04 80.49 29.00  58.88 3319.69
   04:11:21.904.28-Aug-2021 4978.00 7955.83 80.49 29.00  59.08 3319.69
   04:11:22.104.28-Aug-2021 4978.00 7955.83 80.49 29.00  59.28 3319.69
   04:11:22.304.28-Aug-2021 4978.00 7955.44 80.49 29.00  59.48 3319.69
   04:11:22.505.28-Aug-2021 4978.00 7955.87 80.49 29.00  59.68 3319.69
   04:11:22.705.28-Aug-2021 4978.00 7957.02 80.49 29.00  59.88 3319.69
   04:11:22.905.28-Aug-2021 4978.00 7957.37 80.49 29.00  60.08 3319.69
   04:11:23.105.28-Aug-2021 4978.00 7957.37 80.49 29.00  60.28 3319.69
   04:11:23.306.28-Aug-2021 4978.00 7957.13 80.49 29.00  60.49 3319.69
   04:11:23.506.28-Aug-2021 4978.00 7957.02 80.49 29.00  60.69 3319.69
   04:11:23.706.28-Aug-2021 4978.00 7957.07 80.49 29.00  60.89 3319.69
   04:11:23.907.28-Aug-2021 4978.00 7956.97 80.49 29.00  61.09 3319.69
   04:11:24.107.28-Aug-2021 4978.00 7956.97 80.49 29.00  61.29 3319.69
   04:11:24.307.28-Aug-2021 4978.00 7955.86 80.49 29.00  61.49 3319.69
   04:11:24.507.28-Aug-2021 4978.00 7957.55 80.49 29.00  61.69 3319.69
   04:11:24.708.28-Aug-2021 4978.00 7956.69 80.49 29.00  61.89 3319.69
   04:11:24.908.28-Aug-2021 4978.00 7960.47 80.49 29.00  62.09 3319.69
   04:11:25.108.28-Aug-2021 4978.00 7960.47 80.49 29.00  62.29 3319.69
   04:11:25.309.28-Aug-2021 4978.00 7957.22 80.49 29.00  62.49 3319.69
   04:11:25.509.28-Aug-2021 4978.00 7956.52 80.49 29.00  62.69 3319.69
   04:11:25.709.28-Aug-2021 4978.00 7961.16 80.49 29.00  62.89 3319.69
   04:11:25.909.28-Aug-2021 4978.00 7956.03 80.49 29.00  63.09 3319.69
   04:11:26.110.28-Aug-2021 4978.00 7956.03 80.49 29.00  63.29 3319.69
   04:11:26.310.28-Aug-2021 4978.00 7957.46 80.49 29.00  63.49 3319.69
   04:11:26.510.28-Aug-2021 4978.00 7957.75 80.49 29.00  63.69 3319.69
   04:11:26.711.28-Aug-2021 4978.00 7957.68 80.49 29.00  63.89 3319.69
   04:11:26.911.28-Aug-2021 4978.00 7963.40 80.49 29.00  64.09 3319.69
   04:11:27.111.28-Aug-2021 4978.00 7963.40 80.49 29.00  64.29 3319.69
   04:11:27.311.28-Aug-2021 4978.00 7957.70 80.49 29.00  64.49 3319.69
   04:11:27.512.28-Aug-2021 4978.00 7958.00 80.49 29.00  64.69 3319.69
   04:11:27.712.28-Aug-2021 4978.00 7958.64 80.49 29.00  64.89 3319.69
   04:11:27.912.28-Aug-2021 4978.00 7958.82 80.49 29.00  65.09 3319.69
   04:11:28.113.28-Aug-2021 4978.00 7958.82 80.49 29.00  65.29 3319.69
   04:11:28.313.28-Aug-2021 4978.00 7957.88 80.49 29.00  65.49 3319.69
   04:11:28.513.28-Aug-2021 4978.00 7957.81 80.49 29.00  65.69 3319.69
   04:11:28.713.28-Aug-2021 4978.00 7958.18 80.49 29.00  65.89 3319.69
   04:11:28.914.28-Aug-2021 4978.00 7959.36 80.49 29.00  66.09 3319.69
   04:11:29.114.28-Aug-2021 4978.00 7959.36 80.49 29.00  66.29 3319.69
   04:11:29.314.28-Aug-2021 4978.00 7959.57 80.49 29.00  66.49 3319.69
   04:11:29.514.28-Aug-2021 4978.00 7959.26 80.49 29.00  66.69 3319.69
   04:11:29.715.28-Aug-2021 4978.00 7959.24 80.49 29.00  66.89 3319.69
   04:11:29.915.28-Aug-2021 4978.00 7959.27 80.49 29.00  67.09 3319.69
   04:11:30.115.28-Aug-2021 4978.00 7959.27 80.49 29.00  67.29 3319.69
   04:11:30.316.28-Aug-2021 4978.00 7958.61 80.49 29.00  67.49 3319.69
   04:11:30.516.28-Aug-2021 4978.00 7960.22 80.49 29.00  67.70 3319.69
