~Version Information
 VERS.                  2.0:   CWLS log ASCII Standard -VERSION 2.0
 WRAP.                   NO:   One line per depth step
~Well Information Block
#MNEM.UNIT     VALUE/NAME     DESCRIPTION
#---------     -----------    ---------------------------
 STRT.S             10:43:45 27-Aug-21: START TIME 10:43:45 27-Aug-21
 STOP.S             10:50:54 27-Aug-21: STOP TIME  10:50:54 27-Aug-21
 STEP.S                   0.00: STEP TIME
 NULL.                 -999.25: NULL VALUE
 DFWT.                        :  DIST FWL TEXT
 DFST.                        :  DIST FSL TEXT
 DMF .             Drill Floor:  DRILL MEAS FROM
 STIM.      20.00.00 17-Aug-21:  START TIME
 DATE.      19.00.00 29-Aug-21:  END TIME
 SPUD.               15-Aug-21:  SPUD DATE
 NREF.                    Grid:  NORTH REFERENCE
 HPTY.       Minimum Curvature:  HOLE POS TYPE
 DMOD.             Drill Model:  DRILL MOD DESC
 SVYD.                  Survey:  SURVEY DESC
 ILTD.               Lithology:  INTERP LTH DESC
 FTOP.          Formation Tops:  FORM TOPS DESC
 RIG .              East Azeri:  RIG NAME
 PDAT.          Mean Sea Level:  PERMANENT DATUM
 FLD .                     ACG:  FIELD NAME
 SON .        AZ-XX-0907180857:  JOB NUMBER
 CTRY.              Azerbaijan:  COUNTRY NAME
 WELL.                    D23x:  WELL NAME
 SRVC.     Turan Drilling and Engineering:  CONTRACTOR
 COMP.     BP Exploration (Caspian Sea) Ltd.:  COMPANY
 UWI .            /AZE00000214:  UNIQUE WELL IDENTIFIER
 API .            /AZE00000214:  API NUMBER
 MDS .        Operator Entered:  MAG DATA SOURCE
 BASE.              Azerbaijan:  LOGGING EQUIPMENT BASE LOCATION
 REGN.                   EESSA:  REGION
 PROV.                    Baku:  PROVINCE
 STAT.                    Baku:  STATE NAME
 MWDS.                    Baku:  MWD SHOP
 DOE .                     N/A:  DOE NUMBER
 DCON.         Sperry Drilling:  DIRECTNL CONTR
 UNIT.                     N/A:  LOGGING EQUIPMENT ID
 WTYP.                Deviated:  WELL TYPE
 CNTY.                        :  COUNTY
 LOC .                        :  LOCATION
 LMF .             Drill Floor:  LOG MEASURED FROM
 TVDS.m                  43.60:  TVDSS CORRECTN
 LATI.deg                40.02:  LATITUDE
 LONG.deg                51.45:  LONGITUDE
 WHNS.m                  -7.04:  WELL HEAD N/S
 WHEW.m                  -0.67:  WELL HEAD E/W
 UTMX.m              538762.90:  UTM X
 UTMY.m             4431871.34:  UTM Y
 DFWL.m                   0.00:  DISTANCE FWL
 DFSL.m                   0.00:  DISTANCE FSL
 SDEP.m                4127.00:  START DEPTH
 TDD .m                5084.50:  TOTAL DEPTH (DRILLER)
 VSDR.deg               140.47:  VERT SEC DIRECT
 GVFD.g                   1.00:  GRAVITY FIELD
 MFLD.nT              50362.00:  MAGNETIC FIELD
 MDIP.deg                59.48:  MAGNETIC DIP
 MDEC.deg                 6.47:  MAGNETIC DECL
 GRDC.deg                 0.31:  GRID CORRECTION
 AZTC.deg                 6.16:  AZM TOTAL CORR
 EPD .m                   0.00:  ELEVATION
 EGL .m                   0.00:  GROUND ELEVATION
 WDMS.m                 151.80:  WD ELEV
 APD .m                  43.60:  DEPTH ABOVE PD
 DEP .m                4092.57:  DEPTH
 AGAP.m                  43.60:  AIR GAP
 VSEW.m                  -0.67:  VERT SEC E/W
 VSNS.m                  -7.04:  VERT SEC N/S
 EKB .m                  43.60:  KB ELEVATION
 EDF .m                  43.60:  DF ELEVATION
 TDL .m                 957.50:  TOTAL DEPTH (LOGGER)
 VSC .                       0:  VS TO CLOSURE
 MAGU.                 1851413:  MAGUTM CHECKSUM
~Parameter Information Block
#MNEM.UNIT       Value        Description
#---------     -----------    ---------------------------
 AV  .mps                 1.50:  Ann Velocity 
 AVMX.mps                 2.00:  Max Ann Veloc 
 AZIF.deg               184.66:  Azm, Final 
 BHAT.        Rotary Steerable:  BHA Type 
 BREV.rev               300.00:  Rev Bit Total 
 BROT.°/30m              -0.50:  Build Rotating 
 BS  .in                  8.50:  Bit Size 
 BSZ .in                  8.50:  Bit Size 
 BTPL.psig              370.00:  Bit Press Loss 
 CABU.                      No:  Customer Abuse 
 CGEO.      Behruz Shahbaliyev:  Customer Geo 
 COMM.                     $K:  Run Comments 1 
 TCS .hr                140.08:  Time Ciculation Ended 
 CV  .mps                 3.00:  Crit Velocity 
 CVMX.mps                 3.20:  Max Crit Veloc 
 DD1 .            Musa Ahmadov:  Direct Drillr 1 
 DD2 .           Hamid Ahmadov:  Direct Drillr 2 
 DDSV.               Geo-Pilot:  DD Service 
 DEFF.%                  98.40:  % Det Eff 
 DLRX.°/30m               3.40:  Dogleg Rot Max 
 DLSO.°/30m               1.45:  Dogleg Oriented 
 DLSX.°/30m               3.40:  Dogleg Str Max 
 DRET.      18.40.00 29-Aug-21:  Drill End Time 
 DRST.      21.00.00 20-Aug-21:  Drill Start Tim 
 DTIM.hr                 69.47:  Time Drilling 
 EDEP.m                5084.50:  End Depth 
 ENG1.      Artemiy Matviyanov:  Engineer 1 
 ENG2.         Almaz Almadatov:  Engineer 2 
 ETIM.      18.40.00 29-Aug-21:  End Time 
 FLOI.gpm               500.00:  Flow In 
 FLON.gpm               400.00:  Flow In Min 
 FLOS.cptm                0.00:  Fluid Loss 
 FLOX.gpm               500.00:  Flow In Max 
 DFT .        Mineral Oil Base:  Mud Type 
 HFLO.                      No:  High Flow 
 HPRE.                      No:  High Pressure 
 HTEM.                      No:  High Temp 
 HYDO.m                   1.80:  Hydro Offset 
 IFIN.deg                25.62:  Inc, Final 
 IMAX.deg                48.69:  Inc Max 
 IMIN.deg                24.01:  Inc Min 
 IMND.m                4962.57:  Inc Min Depth 
 IMXD.m                4119.01:  Inc Max Depth 
 JARR.                      No:  Jarring 
 LETM.      18.40.00 29-Aug-21:  Log End Time 
 LOST.hr                     0:  Lost Rig Time 
 LSTM.      21.00.00 20-Aug-21:  Log Start Time 
 MDCL.ppm             41500.00:  Mud Chlorides 
 MDES.     Inversion Oil/Synthetic:  Mud Desc 
 DFD .sg                  1.56:  Mud Density 
 MDMN.sg                  1.56:  Dens Mud Min 
 MDMX.sg                  1.56:  Dens Mud Max 
 MOIL.                      70:  Run Mud Oil % 
 MOWR.                   70:30:  Run Mud OWR 
 MSND.                     0.2:  Run Mud Sand % 
 MSOL.                    23.3:  Run Mud Solids% 
 DFV .spqt               78.00:  Mud Viscosity 
 MWOD.in                  6.75:  MWD Tool OD 
 MWSI.                      No:  Serv Intrp, MWD 
 OTIM.hr                218.30:  Time Operating 
 PCON.           Look Like New:  Pad Condition 
 PMAX.psia            11015.30:  Press Op, Max 
 PV  .cP                 38.00:  Mud PV 
 RUN .                     300:  Run Number 
 ROPA.m/hr               15.00:  ROP Avg 
 ROPN.m/hr                9.00:  ROP Min 
 ROPX.m/hr               17.00:  ROP Max 
 RPMA.rpm               120.00:  RPM Surface Avg 
 RPMN.rpm                90.00:  RPM Surface Min 
 RPMX.rpm               140.00:  RPM Surface Max 
 RRUN.                     300:  Rig Run Number 
 RTIM.hr                 31.53:  Time Reaming 
 SAZI.deg               331.64:  Azm, Start 
 SDEP.m                4127.00:  Start Depth 
 SIDD.                      No:  Serv Intrp, DD 
 SINC.deg                48.43:  Inc, Start 
 SPPA.psig             5830.00:  SPP Avg 
 SPPN.psig             5600.00:  SPP Min 
 SPPX.psig             5900.00:  SPP Max 
 STIM.      21.00.00 20-Aug-21:  Start Time 
 SVCS.                 DD, MWD:  Services 
 SVER.                    9.20:  Sperry Version 
 TDAT.m                 957.50:  Tot Depth Attmp 
 TDDF.                      No:  Trip for DD 
 TDLG.m                 957.50:  Tot Depth Loggd 
 TFF .                      No:  Trip for Fail 
 TQAA.f-kp               15.00:  Torque Abs Avg 
 TQAN.f-kp               12.00:  Torque Abs Min 
 TQAX.f-kp               19.00:  Torque Abs Max 
 TRRT.°/30m              -3.40:  Turn Rotating 
 MRT .                  EWR-M5:  Maximum Recorded Temperature 
 TTMX.degC              100.00:  Max Tool Temp 
 VS01.                90639251:  Virtual Str1 SN 
 VS02.                90634715:  Virtual Str2 SN 
 VS03.                90652479:  Virtual Str3 SN 
 VS04.                90642262:  Virtual Str4 SN 
 WBMN.klb                 0.00:  WOB Min 
 WITN.           Murad Guliyev:  Customer Rep 
 WITN.          Yashar Gaziyev:  Customer Rep 2 
 WOBA.klb                 9.00:  WOB Avg 
 WOBX.klb                12.00:  WOB Max 
 YP  .lhf2               30.00:  Yield Point 
~Curve Information Block
#MNEM.UNIT                 API CODE     Curve Description
#---------               -----------    ---------------------------
 TIME.HHMMSS            00 000 000 000:  GT Time & Date
 GTDEPTH.m              00 000 000 000:  GT Depth
 GTPQH.psia             00 000 000 000:  GT HR Quartz Pressure
 GTTQ.degC              00 000 000 000:  GT Quartz Temperature
 GTTN.NONE              00 000 000 000:  GT Test Number
 GTET.sec               00 000 000 000:  GT Elapsed Test Time
 GTTVD.m                00 000 000 000:  GT True Vertical Depth
#Other Information
#
#WARRANTY: Halliburton will use its best efforts to furnish customers with 
#accurate information and interpretations that are part of, and incident to, the services 
#provided.  However, Halliburton cannot and does not warrant the accuracy 
#or correctness of such information and interpretations.  Under no circumstances should any 
#such information or interpretation be relied upon as the sole basis for any drilling, 
#completion, production, or financial decision or any procedure involving any risk to the 
#safety of any drilling venture, drilling rig or its crew or any other third party.  The 
#Customer has full responsibility for all drilling, completion and production operation.  
#Halliburton makes no representations or warranties, either expressed or 
#implied, including, but not limited to, the implied warranties of merchantability or fitness 
#for a particular purpose, with respect to the services rendered.  In no event will 
#Halliburton be liable for failure to obtain any particular results or for 
#any damages, including, but not limited to, indirect, special or consequential damages, 
#resulting from the use of any information or interpretation provided by Halliburton.
#
~A           TIME           GTDEPTH  GTPQH  GTTQ  GTTN  GTET   GTTVD  
# ...
   10:46:49.268.27-Aug-2021 4957.82 5166.55 85.93 9.00 183.78 3301.29
   10:46:49.468.27-Aug-2021 4957.82 5166.55 85.93 9.00 183.98 3301.29
   10:46:49.667.27-Aug-2021 4957.82 5166.59 85.93 9.00 184.18 3301.29
   10:46:49.867.27-Aug-2021 4957.82 5166.61 85.93 9.00 184.38 3301.29
   10:46:50.067.27-Aug-2021 4957.82 5166.61 85.93 9.00 184.58 3301.29
   10:46:50.267.27-Aug-2021 4957.82 5166.63 85.93 9.00 184.78 3301.29
   10:46:50.466.27-Aug-2021 4957.82 5166.63 85.93 9.00 184.98 3301.29
   10:46:50.666.27-Aug-2021 4957.82 5166.66 85.93 9.00 185.18 3301.29
   10:46:50.866.27-Aug-2021 4957.82 5166.66 85.93 9.00 185.38 3301.29
   10:46:51.066.27-Aug-2021 4957.82 5166.77 85.93 9.00 185.58 3301.29
   10:46:51.265.27-Aug-2021 4957.82 5166.86 85.93 9.00 185.78 3301.29
   10:46:51.465.27-Aug-2021 4957.82 5166.86 85.93 9.00 185.98 3301.29
   10:46:51.665.27-Aug-2021 4957.82 5166.81 85.93 9.00 186.18 3301.29
   10:46:51.865.27-Aug-2021 4957.82 5166.83 85.93 9.00 186.38 3301.29
   10:46:52.064.27-Aug-2021 4957.82 5166.91 85.93 9.00 186.58 3301.29
   10:46:52.264.27-Aug-2021 4957.82 5166.97 85.93 9.00 186.78 3301.29
   10:46:52.464.27-Aug-2021 4957.82 5166.97 85.93 9.00 186.98 3301.29
   10:46:52.664.27-Aug-2021 4957.82 5166.90 85.93 9.00 187.18 3301.29
   10:46:52.864.27-Aug-2021 4957.82 5166.98 85.93 9.00 187.38 3301.29
   10:46:53.063.27-Aug-2021 4957.82 5167.04 85.93 9.00 187.58 3301.29
   10:46:53.263.27-Aug-2021 4957.82 5166.97 85.93 9.00 187.78 3301.29
   10:46:53.463.27-Aug-2021 4957.82 5166.97 85.93 9.00 187.98 3301.29
   10:46:53.663.27-Aug-2021 4957.82 5166.98 85.93 9.00 188.18 3301.29
   10:46:53.862.27-Aug-2021 4957.82 5167.03 85.93 9.00 188.38 3301.29
   10:46:54.062.27-Aug-2021 4957.82 5167.11 85.93 9.00 188.57 3301.29
   10:46:54.262.27-Aug-2021 4957.82 5167.03 85.93 9.00 188.77 3301.29
   10:46:54.462.27-Aug-2021 4957.82 5167.03 85.93 9.00 188.97 3301.29
   10:46:54.661.27-Aug-2021 4957.82 5167.05 85.93 9.00 189.17 3301.29
   10:46:54.861.27-Aug-2021 4957.82 5167.06 85.93 9.00 189.37 3301.29
   10:46:55.061.27-Aug-2021 4957.82 5167.06 85.93 9.00 189.57 3301.29
   10:46:55.261.27-Aug-2021 4957.82 5167.06 85.93 9.00 189.77 3301.29
   10:46:55.460.27-Aug-2021 4957.82 5167.06 85.93 9.00 189.97 3301.29
   10:46:55.660.27-Aug-2021 4957.82 5167.08 85.93 9.00 190.17 3301.29
   10:46:55.860.27-Aug-2021 4957.82 5167.09 85.93 9.00 190.37 3301.29
   10:46:56.060.27-Aug-2021 4957.82 5167.10 85.93 9.00 190.57 3301.29
   10:46:56.259.27-Aug-2021 4957.82 5167.10 85.93 9.00 190.77 3301.29
   10:46:56.459.27-Aug-2021 4957.82 5167.10 85.93 9.00 190.97 3301.29
   10:46:56.659.27-Aug-2021 4957.82 5167.10 85.93 9.00 191.17 3301.29
   10:46:56.859.27-Aug-2021 4957.82 5167.06 85.93 9.00 191.37 3301.29
   10:46:57.059.27-Aug-2021 4957.82 5167.26 85.93 9.00 191.57 3301.29
   10:46:57.258.27-Aug-2021 4957.82 5167.19 85.93 9.00 191.77 3301.29
   10:46:57.458.27-Aug-2021 4957.82 5167.19 85.93 9.00 191.97 3301.29
   10:46:57.658.27-Aug-2021 4957.82 5167.18 85.93 9.00 192.17 3301.29
   10:46:57.858.27-Aug-2021 4957.82 5167.18 85.93 9.00 192.37 3301.29
   10:46:58.057.27-Aug-2021 4957.82 5167.16 85.93 9.00 192.57 3301.29
   10:46:58.257.27-Aug-2021 4957.82 5167.18 85.93 9.00 192.77 3301.29
   10:46:58.457.27-Aug-2021 4957.82 5167.18 85.93 9.00 192.97 3301.29
   10:46:58.657.27-Aug-2021 4957.82 5167.20 85.93 9.00 193.17 3301.29
   10:46:58.856.27-Aug-2021 4957.82 5167.20 85.93 9.00 193.37 3301.29
   10:46:59.056.27-Aug-2021 4957.82 5167.22 85.93 9.00 193.57 3301.29
   10:46:59.256.27-Aug-2021 4957.82 5167.22 85.93 9.00 193.77 3301.29
   10:46:59.456.27-Aug-2021 4957.82 5167.22 85.93 9.00 193.97 3301.29
   10:46:59.655.27-Aug-2021 4957.82 5167.22 85.93 9.00 194.17 3301.29
   10:46:59.855.27-Aug-2021 4957.82 5167.23 85.93 9.00 194.37 3301.29
   10:47:00.055.27-Aug-2021 4957.82 5167.22 85.93 9.00 194.57 3301.29
   10:47:00.255.27-Aug-2021 4957.82 5167.19 85.93 9.00 194.77 3301.29
   10:47:00.454.27-Aug-2021 4957.82 5167.19 85.93 9.00 194.97 3301.29
   10:47:00.654.27-Aug-2021 4957.82 5167.30 85.93 9.00 195.17 3301.29
   10:47:00.854.27-Aug-2021 4957.82 5167.28 85.93 9.00 195.37 3301.29
   10:47:01.054.27-Aug-2021 4957.82 5167.29 85.93 9.00 195.57 3301.29
   10:47:01.254.27-Aug-2021 4957.82 5167.29 85.93 9.00 195.77 3301.29
   10:47:01.453.27-Aug-2021 4957.82 5167.29 85.93 9.00 195.97 3301.29
   10:47:01.653.27-Aug-2021 4957.82 5167.36 85.93 9.00 196.17 3301.29
   10:47:01.853.27-Aug-2021 4957.82 5167.29 85.93 9.00 196.37 3301.29
   10:47:02.053.27-Aug-2021 4957.82 5167.30 85.93 9.00 196.57 3301.29
   10:47:02.252.27-Aug-2021 4957.82 5167.42 85.93 9.00 196.77 3301.29
   10:47:02.452.27-Aug-2021 4957.82 5167.42 85.93 9.00 196.96 3301.29
   10:47:02.652.27-Aug-2021 4957.82 5167.34 85.93 9.00 197.16 3301.29
   10:47:02.852.27-Aug-2021 4957.82 5167.34 85.93 9.00 197.36 3301.29
   10:47:03.051.27-Aug-2021 4957.82 5167.35 85.93 9.00 197.56 3301.29
   10:47:03.251.27-Aug-2021 4957.82 5167.46 85.93 9.00 197.76 3301.29
   10:47:03.451.27-Aug-2021 4957.82 5167.46 85.93 9.00 197.96 3301.29
   10:47:03.651.27-Aug-2021 4957.82 5167.37 85.93 9.00 198.16 3301.29
   10:47:03.850.27-Aug-2021 4957.82 5167.36 85.93 9.00 198.36 3301.29
   10:47:04.050.27-Aug-2021 4957.82 5167.40 85.93 9.00 198.56 3301.29
   10:47:04.250.27-Aug-2021 4957.82 5167.38 85.93 9.00 198.76 3301.29
   10:47:04.450.27-Aug-2021 4957.82 5167.38 85.93 9.00 198.96 3301.29
   10:47:04.649.27-Aug-2021 4957.82 5167.38 85.93 9.00 199.16 3301.29
   10:47:04.849.27-Aug-2021 4957.82 5167.38 85.93 9.00 199.36 3301.29
   10:47:05.049.27-Aug-2021 4957.82 5167.40 85.93 9.00 199.56 3301.29
   10:47:05.249.27-Aug-2021 4957.82 5167.40 85.93 9.00 199.76 3301.29
   10:47:05.449.27-Aug-2021 4957.82 5167.40 85.93 9.00 199.96 3301.29
   10:47:05.648.27-Aug-2021 4957.82 5167.39 85.93 9.00 200.16 3301.29
   10:47:05.848.27-Aug-2021 4957.82 5167.40 85.93 9.00 200.36 3301.29
   10:47:06.048.27-Aug-2021 4957.82 5167.37 85.93 9.00 200.56 3301.29
   10:47:06.248.27-Aug-2021 4957.82 5167.53 85.93 9.00 200.76 3301.29
   10:47:06.447.27-Aug-2021 4957.82 5167.53 85.93 9.00 200.96 3301.29
   10:47:06.647.27-Aug-2021 4957.82 5167.43 85.93 9.00 201.16 3301.29
   10:47:06.847.27-Aug-2021 4957.82 5167.45 85.93 9.00 201.36 3301.29
   10:47:07.047.27-Aug-2021 4957.82 5167.44 85.93 9.00 201.56 3301.29
   10:47:07.246.27-Aug-2021 4957.82 5167.42 85.93 9.00 201.76 3301.29
   10:47:07.446.27-Aug-2021 4957.82 5167.42 85.93 9.00 201.96 3301.29
   10:47:07.646.27-Aug-2021 4957.82 5167.41 85.93 9.00 202.16 3301.29
   10:47:07.846.27-Aug-2021 4957.82 5167.44 85.93 9.00 202.36 3301.29
   10:47:08.045.27-Aug-2021 4957.82 5167.45 85.93 9.00 202.56 3301.29
   10:47:08.245.27-Aug-2021 4957.82 5167.45 85.93 9.00 202.76 3301.29
   10:47:08.445.27-Aug-2021 4957.82 5167.45 85.93 9.00 202.96 3301.29
   10:47:08.645.27-Aug-2021 4957.82 5167.45 85.93 9.00 203.16 3301.29
   10:47:08.844.27-Aug-2021 4957.82 5167.45 85.93 9.00 203.36 3301.29
   10:47:09.044.27-Aug-2021 4957.82 5167.44 85.93 9.00 203.56 3301.29
   10:47:09.244.27-Aug-2021 4957.82 5167.46 85.93 9.00 203.76 3301.29
   10:47:09.444.27-Aug-2021 4957.82 5167.46 85.93 9.00 203.96 3301.29
   10:47:09.644.27-Aug-2021 4957.82 5167.57 85.93 9.00 204.16 3301.29
   10:47:09.843.27-Aug-2021 4957.82 5167.48 85.93 9.00 204.36 3301.29
   10:47:10.043.27-Aug-2021 4957.82 5167.47 85.93 9.00 204.56 3301.29
   10:47:10.243.27-Aug-2021 4957.82 5167.48 85.92 9.00 204.76 3301.29
   10:47:10.443.27-Aug-2021 4957.82 5167.48 85.92 9.00 204.96 3301.29
   10:47:10.642.27-Aug-2021 4957.82 5167.52 85.92 9.00 205.16 3301.29
   10:47:10.842.27-Aug-2021 4957.82 5167.55 85.93 9.00 205.35 3301.29
   10:47:11.042.27-Aug-2021 4957.82 5167.48 85.93 9.00 205.55 3301.29
   10:47:11.242.27-Aug-2021 4957.82 5167.46 85.93 9.00 205.75 3301.29
   10:47:11.441.27-Aug-2021 4957.82 5167.46 85.93 9.00 205.95 3301.29
   10:47:11.641.27-Aug-2021 4957.82 5167.60 85.93 9.00 206.15 3301.29
   10:47:11.841.27-Aug-2021 4957.82 5167.52 85.92 9.00 206.35 3301.29
   10:47:12.041.27-Aug-2021 4957.82 5167.51 85.92 9.00 206.55 3301.29
