~Version Information
 VERS.                  2.0:   CWLS log ASCII Standard -VERSION 2.0
 WRAP.                   NO:   One line per depth step
~Well Information Block
#MNEM.UNIT     VALUE/NAME     DESCRIPTION
#---------     -----------    ---------------------------
 STRT.S             16:35:30 27-Aug-21: START TIME 16:35:30 27-Aug-21
 STOP.S             16:42:43 27-Aug-21: STOP TIME  16:42:43 27-Aug-21
 STEP.S                   0.00: STEP TIME
 NULL.                 -999.25: NULL VALUE
 DFWT.                        :  DIST FWL TEXT
 DFST.                        :  DIST FSL TEXT
 DMF .             Drill Floor:  DRILL MEAS FROM
 STIM.      20.00.00 17-Aug-21:  START TIME
 DATE.      19.00.00 29-Aug-21:  END TIME
 SPUD.               15-Aug-21:  SPUD DATE
 NREF.                    Grid:  NORTH REFERENCE
 HPTY.       Minimum Curvature:  HOLE POS TYPE
 DMOD.             Drill Model:  DRILL MOD DESC
 SVYD.                  Survey:  SURVEY DESC
 ILTD.               Lithology:  INTERP LTH DESC
 FTOP.          Formation Tops:  FORM TOPS DESC
 RIG .              East Azeri:  RIG NAME
 PDAT.          Mean Sea Level:  PERMANENT DATUM
 FLD .                     ACG:  FIELD NAME
 SON .        AZ-XX-0907180857:  JOB NUMBER
 CTRY.              Azerbaijan:  COUNTRY NAME
 WELL.                    D23x:  WELL NAME
 SRVC.     Turan Drilling and Engineering:  CONTRACTOR
 COMP.     BP Exploration (Caspian Sea) Ltd.:  COMPANY
 UWI .            /AZE00000214:  UNIQUE WELL IDENTIFIER
 API .            /AZE00000214:  API NUMBER
 MDS .        Operator Entered:  MAG DATA SOURCE
 BASE.              Azerbaijan:  LOGGING EQUIPMENT BASE LOCATION
 REGN.                   EESSA:  REGION
 PROV.                    Baku:  PROVINCE
 STAT.                    Baku:  STATE NAME
 MWDS.                    Baku:  MWD SHOP
 DOE .                     N/A:  DOE NUMBER
 DCON.         Sperry Drilling:  DIRECTNL CONTR
 UNIT.                     N/A:  LOGGING EQUIPMENT ID
 WTYP.                Deviated:  WELL TYPE
 CNTY.                        :  COUNTY
 LOC .                        :  LOCATION
 LMF .             Drill Floor:  LOG MEASURED FROM
 TVDS.m                  43.60:  TVDSS CORRECTN
 LATI.deg                40.02:  LATITUDE
 LONG.deg                51.45:  LONGITUDE
 WHNS.m                  -7.04:  WELL HEAD N/S
 WHEW.m                  -0.67:  WELL HEAD E/W
 UTMX.m              538762.90:  UTM X
 UTMY.m             4431871.34:  UTM Y
 DFWL.m                   0.00:  DISTANCE FWL
 DFSL.m                   0.00:  DISTANCE FSL
 SDEP.m                4127.00:  START DEPTH
 TDD .m                5084.50:  TOTAL DEPTH (DRILLER)
 VSDR.deg               140.47:  VERT SEC DIRECT
 GVFD.g                   1.00:  GRAVITY FIELD
 MFLD.nT              50362.00:  MAGNETIC FIELD
 MDIP.deg                59.48:  MAGNETIC DIP
 MDEC.deg                 6.47:  MAGNETIC DECL
 GRDC.deg                 0.31:  GRID CORRECTION
 AZTC.deg                 6.16:  AZM TOTAL CORR
 EPD .m                   0.00:  ELEVATION
 EGL .m                   0.00:  GROUND ELEVATION
 WDMS.m                 151.80:  WD ELEV
 APD .m                  43.60:  DEPTH ABOVE PD
 DEP .m                4092.57:  DEPTH
 AGAP.m                  43.60:  AIR GAP
 VSEW.m                  -0.67:  VERT SEC E/W
 VSNS.m                  -7.04:  VERT SEC N/S
 EKB .m                  43.60:  KB ELEVATION
 EDF .m                  43.60:  DF ELEVATION
 TDL .m                 957.50:  TOTAL DEPTH (LOGGER)
 VSC .                       0:  VS TO CLOSURE
 MAGU.                 1851413:  MAGUTM CHECKSUM
~Parameter Information Block
#MNEM.UNIT       Value        Description
#---------     -----------    ---------------------------
 AV  .mps                 1.50:  Ann Velocity 
 AVMX.mps                 2.00:  Max Ann Veloc 
 AZIF.deg               184.66:  Azm, Final 
 BHAT.        Rotary Steerable:  BHA Type 
 BREV.rev               300.00:  Rev Bit Total 
 BROT.°/30m              -0.50:  Build Rotating 
 BS  .in                  8.50:  Bit Size 
 BSZ .in                  8.50:  Bit Size 
 BTPL.psig              370.00:  Bit Press Loss 
 CABU.                      No:  Customer Abuse 
 CGEO.      Behruz Shahbaliyev:  Customer Geo 
 COMM.                     äU:  Run Comments 1 
 TCS .hr                140.08:  Time Ciculation Ended 
 CV  .mps                 3.00:  Crit Velocity 
 CVMX.mps                 3.20:  Max Crit Veloc 
 DD1 .            Musa Ahmadov:  Direct Drillr 1 
 DD2 .           Hamid Ahmadov:  Direct Drillr 2 
 DDSV.               Geo-Pilot:  DD Service 
 DEFF.%                  98.40:  % Det Eff 
 DLRX.°/30m               3.40:  Dogleg Rot Max 
 DLSO.°/30m               1.45:  Dogleg Oriented 
 DLSX.°/30m               3.40:  Dogleg Str Max 
 DRET.      18.40.00 29-Aug-21:  Drill End Time 
 DRST.      21.00.00 20-Aug-21:  Drill Start Tim 
 DTIM.hr                 69.47:  Time Drilling 
 EDEP.m                5084.50:  End Depth 
 ENG1.      Artemiy Matviyanov:  Engineer 1 
 ENG2.         Almaz Almadatov:  Engineer 2 
 ETIM.      18.40.00 29-Aug-21:  End Time 
 FLOI.gpm               500.00:  Flow In 
 FLON.gpm               400.00:  Flow In Min 
 FLOS.cptm                0.00:  Fluid Loss 
 FLOX.gpm               500.00:  Flow In Max 
 DFT .        Mineral Oil Base:  Mud Type 
 HFLO.                      No:  High Flow 
 HPRE.                      No:  High Pressure 
 HTEM.                      No:  High Temp 
 HYDO.m                   1.80:  Hydro Offset 
 IFIN.deg                25.62:  Inc, Final 
 IMAX.deg                48.69:  Inc Max 
 IMIN.deg                24.01:  Inc Min 
 IMND.m                4962.57:  Inc Min Depth 
 IMXD.m                4119.01:  Inc Max Depth 
 JARR.                      No:  Jarring 
 LETM.      18.40.00 29-Aug-21:  Log End Time 
 LOST.hr                     0:  Lost Rig Time 
 LSTM.      21.00.00 20-Aug-21:  Log Start Time 
 MDCL.ppm             41500.00:  Mud Chlorides 
 MDES.     Inversion Oil/Synthetic:  Mud Desc 
 DFD .sg                  1.56:  Mud Density 
 MDMN.sg                  1.56:  Dens Mud Min 
 MDMX.sg                  1.56:  Dens Mud Max 
 MOIL.                      70:  Run Mud Oil % 
 MOWR.                   70:30:  Run Mud OWR 
 MSND.                     0.2:  Run Mud Sand % 
 MSOL.                    23.3:  Run Mud Solids% 
 DFV .spqt               78.00:  Mud Viscosity 
 MWOD.in                  6.75:  MWD Tool OD 
 MWSI.                      No:  Serv Intrp, MWD 
 OTIM.hr                218.30:  Time Operating 
 PCON.           Look Like New:  Pad Condition 
 PMAX.psia            11015.30:  Press Op, Max 
 PV  .cP                 38.00:  Mud PV 
 RUN .                     300:  Run Number 
 ROPA.m/hr               15.00:  ROP Avg 
 ROPN.m/hr                9.00:  ROP Min 
 ROPX.m/hr               17.00:  ROP Max 
 RPMA.rpm               120.00:  RPM Surface Avg 
 RPMN.rpm                90.00:  RPM Surface Min 
 RPMX.rpm               140.00:  RPM Surface Max 
 RRUN.                     300:  Rig Run Number 
 RTIM.hr                 31.53:  Time Reaming 
 SAZI.deg               331.64:  Azm, Start 
 SDEP.m                4127.00:  Start Depth 
 SIDD.                      No:  Serv Intrp, DD 
 SINC.deg                48.43:  Inc, Start 
 SPPA.psig             5830.00:  SPP Avg 
 SPPN.psig             5600.00:  SPP Min 
 SPPX.psig             5900.00:  SPP Max 
 STIM.      21.00.00 20-Aug-21:  Start Time 
 SVCS.                 DD, MWD:  Services 
 SVER.                    9.20:  Sperry Version 
 TDAT.m                 957.50:  Tot Depth Attmp 
 TDDF.                      No:  Trip for DD 
 TDLG.m                 957.50:  Tot Depth Loggd 
 TFF .                      No:  Trip for Fail 
 TQAA.f-kp               15.00:  Torque Abs Avg 
 TQAN.f-kp               12.00:  Torque Abs Min 
 TQAX.f-kp               19.00:  Torque Abs Max 
 TRRT.°/30m              -3.40:  Turn Rotating 
 MRT .                  EWR-M5:  Maximum Recorded Temperature 
 TTMX.degC              100.00:  Max Tool Temp 
 VS01.                90639251:  Virtual Str1 SN 
 VS02.                90634715:  Virtual Str2 SN 
 VS03.                90652479:  Virtual Str3 SN 
 VS04.                90642262:  Virtual Str4 SN 
 WBMN.klb                 0.00:  WOB Min 
 WITN.           Murad Guliyev:  Customer Rep 
 WITN.          Yashar Gaziyev:  Customer Rep 2 
 WOBA.klb                 9.00:  WOB Avg 
 WOBX.klb                12.00:  WOB Max 
 YP  .lhf2               30.00:  Yield Point 
~Curve Information Block
#MNEM.UNIT                 API CODE     Curve Description
#---------               -----------    ---------------------------
 TIME.HHMMSS            00 000 000 000:  GT Time & Date
 GTDEPTH.m              00 000 000 000:  GT Depth
 GTPQH.psia             00 000 000 000:  GT HR Quartz Pressure
 GTTQ.degC              00 000 000 000:  GT Quartz Temperature
 GTTN.NONE              00 000 000 000:  GT Test Number
 GTET.sec               00 000 000 000:  GT Elapsed Test Time
 GTTVD.m                00 000 000 000:  GT True Vertical Depth
#Other Information
#
#WARRANTY: Halliburton will use its best efforts to furnish customers with 
#accurate information and interpretations that are part of, and incident to, the services 
#provided.  However, Halliburton cannot and does not warrant the accuracy 
#or correctness of such information and interpretations.  Under no circumstances should any 
#such information or interpretation be relied upon as the sole basis for any drilling, 
#completion, production, or financial decision or any procedure involving any risk to the 
#safety of any drilling venture, drilling rig or its crew or any other third party.  The 
#Customer has full responsibility for all drilling, completion and production operation.  
#Halliburton makes no representations or warranties, either expressed or 
#implied, including, but not limited to, the implied warranties of merchantability or fitness 
#for a particular purpose, with respect to the services rendered.  In no event will 
#Halliburton be liable for failure to obtain any particular results or for 
#any damages, including, but not limited to, indirect, special or consequential damages, 
#resulting from the use of any information or interpretation provided by Halliburton.
#
~A           TIME           GTDEPTH  GTPQH  GTTQ  GTTN   GTET   GTTVD  
# ...
   16:39:38.784.27-Aug-2021 4788.00 7522.17 83.19 17.00 248.35 3147.22
   16:39:38.984.27-Aug-2021 4788.00 7524.90 83.19 17.00 248.55 3147.22
   16:39:39.184.27-Aug-2021 4788.00 7525.82 83.19 17.00 248.75 3147.22
   16:39:39.384.27-Aug-2021 4788.00 7525.82 83.19 17.00 248.95 3147.22
   16:39:39.583.27-Aug-2021 4788.00 7528.76 83.19 17.00 249.15 3147.22
   16:39:39.783.27-Aug-2021 4788.00 7522.93 83.19 17.00 249.35 3147.22
   16:39:39.983.27-Aug-2021 4788.00 7524.43 83.19 17.00 249.55 3147.22
   16:39:40.183.27-Aug-2021 4788.00 7526.11 83.19 17.00 249.75 3147.22
   16:39:40.383.27-Aug-2021 4788.00 7526.11 83.19 17.00 249.95 3147.22
   16:39:40.582.27-Aug-2021 4788.00 7525.23 83.19 17.00 250.15 3147.22
   16:39:40.782.27-Aug-2021 4788.00 7526.94 83.19 17.00 250.35 3147.22
   16:39:40.982.27-Aug-2021 4788.00 7524.20 83.19 17.00 250.55 3147.22
   16:39:41.182.27-Aug-2021 4788.00 7525.44 83.19 17.00 250.75 3147.22
   16:39:41.382.27-Aug-2021 4788.00 7525.44 83.19 17.00 250.95 3147.22
   16:39:41.581.27-Aug-2021 4788.00 7524.54 83.19 17.00 251.15 3147.22
   16:39:41.781.27-Aug-2021 4788.00 7527.72 83.19 17.00 251.35 3147.22
   16:39:41.981.27-Aug-2021 4788.00 7523.78 83.19 17.00 251.55 3147.22
   16:39:42.181.27-Aug-2021 4788.00 7524.70 83.19 17.00 251.75 3147.22
   16:39:42.381.27-Aug-2021 4788.00 7524.70 83.19 17.00 251.95 3147.22
   16:39:42.580.27-Aug-2021 4788.00 7523.71 83.19 17.00 252.15 3147.22
   16:39:42.780.27-Aug-2021 4788.00 7524.62 83.19 17.00 252.35 3147.22
   16:39:42.980.27-Aug-2021 4788.00 7524.12 83.19 17.00 252.55 3147.22
   16:39:43.180.27-Aug-2021 4788.00 7524.32 83.19 17.00 252.75 3147.22
   16:39:43.380.27-Aug-2021 4788.00 7524.32 83.19 17.00 252.95 3147.22
   16:39:43.579.27-Aug-2021 4788.00 7524.53 83.19 17.00 253.15 3147.22
   16:39:43.779.27-Aug-2021 4788.00 7524.81 83.19 17.00 253.35 3147.22
   16:39:43.979.27-Aug-2021 4788.00 7524.94 83.19 17.00 253.55 3147.22
   16:39:44.179.27-Aug-2021 4788.00 7524.72 83.19 17.00 253.75 3147.22
   16:39:44.379.27-Aug-2021 4788.00 7524.72 83.19 17.00 253.95 3147.22
   16:39:44.578.27-Aug-2021 4788.00 7524.75 83.19 17.00 254.15 3147.22
   16:39:44.778.27-Aug-2021 4788.00 7525.03 83.19 17.00 254.35 3147.22
   16:39:44.978.27-Aug-2021 4788.00 7527.43 83.19 17.00 254.55 3147.22
   16:39:45.178.27-Aug-2021 4788.00 7524.40 83.19 17.00 254.75 3147.22
   16:39:45.378.27-Aug-2021 4788.00 7524.40 83.19 17.00 254.95 3147.22
   16:39:45.577.27-Aug-2021 4788.00 7525.21 83.19 17.00 255.15 3147.22
   16:39:45.777.27-Aug-2021 4788.00 7523.72 83.19 17.00 255.35 3147.22
   16:39:45.977.27-Aug-2021 4788.00 7524.39 83.19 17.00 255.54 3147.22
   16:39:46.177.27-Aug-2021 4788.00 7523.75 83.19 17.00 255.74 3147.22
   16:39:46.377.27-Aug-2021 4788.00 7523.75 83.19 17.00 255.94 3147.22
   16:39:46.576.27-Aug-2021 4788.00 7524.66 83.19 17.00 256.14 3147.22
   16:39:46.776.27-Aug-2021 4788.00 7524.41 83.19 17.00 256.34 3147.22
   16:39:46.976.27-Aug-2021 4788.00 7524.77 83.19 17.00 256.54 3147.22
   16:39:47.176.27-Aug-2021 4788.00 7524.90 83.19 17.00 256.74 3147.22
   16:39:47.376.27-Aug-2021 4788.00 7524.90 83.19 17.00 256.94 3147.22
   16:39:47.575.27-Aug-2021 4788.00 7524.81 83.19 17.00 257.14 3147.22
   16:39:47.775.27-Aug-2021 4788.00 7524.68 83.19 17.00 257.34 3147.22
   16:39:47.975.27-Aug-2021 4788.00 7524.61 83.19 17.00 257.54 3147.22
   16:39:48.175.27-Aug-2021 4788.00 7524.48 83.19 17.00 257.74 3147.22
   16:39:48.375.27-Aug-2021 4788.00 7524.48 83.19 17.00 257.94 3147.22
   16:39:48.574.27-Aug-2021 4788.00 7523.42 83.19 17.00 258.14 3147.22
   16:39:48.774.27-Aug-2021 4788.00 7524.44 83.19 17.00 258.34 3147.22
   16:39:48.974.27-Aug-2021 4788.00 7525.37 83.19 17.00 258.54 3147.22
   16:39:49.174.27-Aug-2021 4788.00 7527.71 83.19 17.00 258.74 3147.22
   16:39:49.374.27-Aug-2021 4788.00 7527.71 83.19 17.00 258.94 3147.22
   16:39:49.573.27-Aug-2021 4788.00 7523.50 83.19 17.00 259.14 3147.22
   16:39:49.773.27-Aug-2021 4788.00 7524.71 83.19 17.00 259.34 3147.22
   16:39:49.973.27-Aug-2021 4788.00 7525.19 83.19 17.00 259.54 3147.22
   16:39:50.173.27-Aug-2021 4788.00 7523.80 83.19 17.00 259.74 3147.22
   16:39:50.373.27-Aug-2021 4788.00 7523.80 83.19 17.00 259.94 3147.22
   16:39:50.572.27-Aug-2021 4788.00 7524.06 83.19 17.00 260.14 3147.22
   16:39:50.772.27-Aug-2021 4788.00 7524.61 83.19 17.00 260.34 3147.22
   16:39:50.972.27-Aug-2021 4788.00 7525.24 83.19 17.00 260.54 3147.22
   16:39:51.172.27-Aug-2021 4788.00 7524.77 83.19 17.00 260.74 3147.22
   16:39:51.372.27-Aug-2021 4788.00 7524.77 83.19 17.00 260.94 3147.22
   16:39:51.571.27-Aug-2021 4788.00 7523.11 83.19 17.00 261.14 3147.22
   16:39:51.771.27-Aug-2021 4788.00 7524.22 83.19 17.00 261.34 3147.22
   16:39:51.971.27-Aug-2021 4788.00 7525.57 83.19 17.00 261.54 3147.22
   16:39:52.171.27-Aug-2021 4788.00 7523.81 83.19 17.00 261.74 3147.22
   16:39:52.371.27-Aug-2021 4788.00 7523.81 83.19 17.00 261.94 3147.22
   16:39:52.570.27-Aug-2021 4788.00 7523.65 83.19 17.00 262.14 3147.22
   16:39:52.770.27-Aug-2021 4788.00 7524.14 83.19 17.00 262.34 3147.22
   16:39:52.970.27-Aug-2021 4788.00 7524.76 83.19 17.00 262.54 3147.22
   16:39:53.170.27-Aug-2021 4788.00 7524.31 83.19 17.00 262.74 3147.22
   16:39:53.370.27-Aug-2021 4788.00 7524.31 83.19 17.00 262.94 3147.22
   16:39:53.569.27-Aug-2021 4788.00 7524.69 83.19 17.00 263.14 3147.22
   16:39:53.769.27-Aug-2021 4788.00 7524.44 83.19 17.00 263.34 3147.22
   16:39:53.969.27-Aug-2021 4788.00 7524.42 83.19 17.00 263.54 3147.22
   16:39:54.169.27-Aug-2021 4788.00 7524.42 83.19 17.00 263.74 3147.22
   16:39:54.369.27-Aug-2021 4788.00 7524.42 83.19 17.00 263.94 3147.22
   16:39:54.568.27-Aug-2021 4788.00 7528.22 83.19 17.00 264.14 3147.22
   16:39:54.768.27-Aug-2021 4788.00 7523.19 83.19 17.00 264.34 3147.22
   16:39:54.968.27-Aug-2021 4788.00 7524.44 83.19 17.00 264.54 3147.22
   16:39:55.168.27-Aug-2021 4788.00 7525.32 83.19 17.00 264.74 3147.22
   16:39:55.368.27-Aug-2021 4788.00 7525.32 83.19 17.00 264.94 3147.22
   16:39:55.567.27-Aug-2021 4788.00 7524.42 83.19 17.00 265.14 3147.22
   16:39:55.767.27-Aug-2021 4788.00 7523.59 83.19 17.00 265.34 3147.22
   16:39:55.967.27-Aug-2021 4788.00 7524.05 83.19 17.00 265.53 3147.22
   16:39:56.167.27-Aug-2021 4788.00 7524.74 83.19 17.00 265.73 3147.22
   16:39:56.367.27-Aug-2021 4788.00 7524.74 83.19 17.00 265.93 3147.22
   16:39:56.566.27-Aug-2021 4788.00 7524.62 83.19 17.00 266.13 3147.22
   16:39:56.766.27-Aug-2021 4788.00 7524.69 83.19 17.00 266.33 3147.22
   16:39:56.966.27-Aug-2021 4788.00 7524.60 83.19 17.00 266.53 3147.22
   16:39:57.166.27-Aug-2021 4788.00 7524.64 83.19 17.00 266.73 3147.22
   16:39:57.366.27-Aug-2021 4788.00 7524.64 83.19 17.00 266.93 3147.22
   16:39:57.565.27-Aug-2021 4788.00 7524.54 83.19 17.00 267.13 3147.22
   16:39:57.765.27-Aug-2021 4788.00 7524.30 83.19 17.00 267.33 3147.22
   16:39:57.965.27-Aug-2021 4788.00 7530.23 83.19 17.00 267.53 3147.22
   16:39:58.165.27-Aug-2021 4788.00 7521.52 83.19 17.00 267.73 3147.22
   16:39:58.365.27-Aug-2021 4788.00 7521.52 83.19 17.00 267.93 3147.22
   16:39:58.564.27-Aug-2021 4788.00 7525.38 83.19 17.00 268.13 3147.22
   16:39:58.764.27-Aug-2021 4788.00 7524.39 83.19 17.00 268.33 3147.22
   16:39:58.964.27-Aug-2021 4788.00 7525.20 83.19 17.00 268.53 3147.22
   16:39:59.164.27-Aug-2021 4788.00 7521.11 83.19 17.00 268.73 3147.22
   16:39:59.364.27-Aug-2021 4788.00 7521.11 83.19 17.00 268.93 3147.22
   16:39:59.563.27-Aug-2021 4788.00 7522.88 83.19 17.00 269.13 3147.22
   16:39:59.763.27-Aug-2021 4788.00 7520.93 83.19 17.00 269.33 3147.22
   16:39:59.963.27-Aug-2021 4788.00 7522.19 83.19 17.00 269.53 3147.22
   16:40:00.163.27-Aug-2021 4788.00 7524.59 83.19 17.00 269.73 3147.22
   16:40:00.363.27-Aug-2021 4788.00 7524.59 83.19 17.00 269.93 3147.22
   16:40:00.562.27-Aug-2021 4788.00 7520.68 83.19 17.00 270.13 3147.22
   16:40:00.762.27-Aug-2021 4788.00 7521.47 83.19 17.00 270.33 3147.22
   16:40:00.962.27-Aug-2021 4788.00 7526.27 83.19 17.00 270.53 3147.22
   16:40:01.162.27-Aug-2021 4788.00 7518.34 83.19 17.00 270.73 3147.22
