~Version Information
 VERS.                  2.0:   CWLS log ASCII Standard -VERSION 2.0
 WRAP.                   NO:   One line per depth step
~Well Information Block
#MNEM.UNIT     VALUE/NAME     DESCRIPTION
#---------     -----------    ---------------------------
 STRT.S             09:25:17 27-Aug-21: START TIME 09:25:17 27-Aug-21
 STOP.S             09:32:27 27-Aug-21: STOP TIME  09:32:27 27-Aug-21
 STEP.S                   0.00: STEP TIME
 NULL.                 -999.25: NULL VALUE
 DFWT.                        :  DIST FWL TEXT
 DFST.                        :  DIST FSL TEXT
 DMF .             Drill Floor:  DRILL MEAS FROM
 STIM.      20.00.00 17-Aug-21:  START TIME
 DATE.      19.00.00 29-Aug-21:  END TIME
 SPUD.               15-Aug-21:  SPUD DATE
 NREF.                    Grid:  NORTH REFERENCE
 HPTY.       Minimum Curvature:  HOLE POS TYPE
 DMOD.             Drill Model:  DRILL MOD DESC
 SVYD.                  Survey:  SURVEY DESC
 ILTD.               Lithology:  INTERP LTH DESC
 FTOP.          Formation Tops:  FORM TOPS DESC
 RIG .              East Azeri:  RIG NAME
 PDAT.          Mean Sea Level:  PERMANENT DATUM
 FLD .                     ACG:  FIELD NAME
 SON .        AZ-XX-0907180857:  JOB NUMBER
 CTRY.              Azerbaijan:  COUNTRY NAME
 WELL.                    D23x:  WELL NAME
 SRVC.     Turan Drilling and Engineering:  CONTRACTOR
 COMP.     BP Exploration (Caspian Sea) Ltd.:  COMPANY
 UWI .            /AZE00000214:  UNIQUE WELL IDENTIFIER
 API .            /AZE00000214:  API NUMBER
 MDS .        Operator Entered:  MAG DATA SOURCE
 BASE.              Azerbaijan:  LOGGING EQUIPMENT BASE LOCATION
 REGN.                   EESSA:  REGION
 PROV.                    Baku:  PROVINCE
 STAT.                    Baku:  STATE NAME
 MWDS.                    Baku:  MWD SHOP
 DOE .                     N/A:  DOE NUMBER
 DCON.         Sperry Drilling:  DIRECTNL CONTR
 UNIT.                     N/A:  LOGGING EQUIPMENT ID
 WTYP.                Deviated:  WELL TYPE
 CNTY.                        :  COUNTY
 LOC .                        :  LOCATION
 LMF .             Drill Floor:  LOG MEASURED FROM
 TVDS.m                  43.60:  TVDSS CORRECTN
 LATI.deg                40.02:  LATITUDE
 LONG.deg                51.45:  LONGITUDE
 WHNS.m                  -7.04:  WELL HEAD N/S
 WHEW.m                  -0.67:  WELL HEAD E/W
 UTMX.m              538762.90:  UTM X
 UTMY.m             4431871.34:  UTM Y
 DFWL.m                   0.00:  DISTANCE FWL
 DFSL.m                   0.00:  DISTANCE FSL
 SDEP.m                4127.00:  START DEPTH
 TDD .m                5084.50:  TOTAL DEPTH (DRILLER)
 VSDR.deg               140.47:  VERT SEC DIRECT
 GVFD.g                   1.00:  GRAVITY FIELD
 MFLD.nT              50362.00:  MAGNETIC FIELD
 MDIP.deg                59.48:  MAGNETIC DIP
 MDEC.deg                 6.47:  MAGNETIC DECL
 GRDC.deg                 0.31:  GRID CORRECTION
 AZTC.deg                 6.16:  AZM TOTAL CORR
 EPD .m                   0.00:  ELEVATION
 EGL .m                   0.00:  GROUND ELEVATION
 WDMS.m                 151.80:  WD ELEV
 APD .m                  43.60:  DEPTH ABOVE PD
 DEP .m                4092.57:  DEPTH
 AGAP.m                  43.60:  AIR GAP
 VSEW.m                  -0.67:  VERT SEC E/W
 VSNS.m                  -7.04:  VERT SEC N/S
 EKB .m                  43.60:  KB ELEVATION
 EDF .m                  43.60:  DF ELEVATION
 TDL .m                 957.50:  TOTAL DEPTH (LOGGER)
 VSC .                       0:  VS TO CLOSURE
 MAGU.                 1851413:  MAGUTM CHECKSUM
~Parameter Information Block
#MNEM.UNIT       Value        Description
#---------     -----------    ---------------------------
 AV  .mps                 1.50:  Ann Velocity 
 AVMX.mps                 2.00:  Max Ann Veloc 
 AZIF.deg               184.66:  Azm, Final 
 BHAT.        Rotary Steerable:  BHA Type 
 BREV.rev               300.00:  Rev Bit Total 
 BROT.°/30m              -0.50:  Build Rotating 
 BS  .in                  8.50:  Bit Size 
 BSZ .in                  8.50:  Bit Size 
 BTPL.psig              370.00:  Bit Press Loss 
 CABU.                      No:  Customer Abuse 
 CGEO.      Behruz Shahbaliyev:  Customer Geo 
 COMM.                     TD\:  Run Comments 1 
 TCS .hr                140.08:  Time Ciculation Ended 
 CV  .mps                 3.00:  Crit Velocity 
 CVMX.mps                 3.20:  Max Crit Veloc 
 DD1 .            Musa Ahmadov:  Direct Drillr 1 
 DD2 .           Hamid Ahmadov:  Direct Drillr 2 
 DDSV.               Geo-Pilot:  DD Service 
 DEFF.%                  98.40:  % Det Eff 
 DLRX.°/30m               3.40:  Dogleg Rot Max 
 DLSO.°/30m               1.45:  Dogleg Oriented 
 DLSX.°/30m               3.40:  Dogleg Str Max 
 DRET.      18.40.00 29-Aug-21:  Drill End Time 
 DRST.      21.00.00 20-Aug-21:  Drill Start Tim 
 DTIM.hr                 69.47:  Time Drilling 
 EDEP.m                5084.50:  End Depth 
 ENG1.      Artemiy Matviyanov:  Engineer 1 
 ENG2.         Almaz Almadatov:  Engineer 2 
 ETIM.      18.40.00 29-Aug-21:  End Time 
 FLOI.gpm               500.00:  Flow In 
 FLON.gpm               400.00:  Flow In Min 
 FLOS.cptm                0.00:  Fluid Loss 
 FLOX.gpm               500.00:  Flow In Max 
 DFT .        Mineral Oil Base:  Mud Type 
 HFLO.                      No:  High Flow 
 HPRE.                      No:  High Pressure 
 HTEM.                      No:  High Temp 
 HYDO.m                   1.80:  Hydro Offset 
 IFIN.deg                25.62:  Inc, Final 
 IMAX.deg                48.69:  Inc Max 
 IMIN.deg                24.01:  Inc Min 
 IMND.m                4962.57:  Inc Min Depth 
 IMXD.m                4119.01:  Inc Max Depth 
 JARR.                      No:  Jarring 
 LETM.      18.40.00 29-Aug-21:  Log End Time 
 LOST.hr                     0:  Lost Rig Time 
 LSTM.      21.00.00 20-Aug-21:  Log Start Time 
 MDCL.ppm             41500.00:  Mud Chlorides 
 MDES.     Inversion Oil/Synthetic:  Mud Desc 
 DFD .sg                  1.56:  Mud Density 
 MDMN.sg                  1.56:  Dens Mud Min 
 MDMX.sg                  1.56:  Dens Mud Max 
 MOIL.                      70:  Run Mud Oil % 
 MOWR.                   70:30:  Run Mud OWR 
 MSND.                     0.2:  Run Mud Sand % 
 MSOL.                    23.3:  Run Mud Solids% 
 DFV .spqt               78.00:  Mud Viscosity 
 MWOD.in                  6.75:  MWD Tool OD 
 MWSI.                      No:  Serv Intrp, MWD 
 OTIM.hr                218.30:  Time Operating 
 PCON.           Look Like New:  Pad Condition 
 PMAX.psia            11015.30:  Press Op, Max 
 PV  .cP                 38.00:  Mud PV 
 RUN .                     300:  Run Number 
 ROPA.m/hr               15.00:  ROP Avg 
 ROPN.m/hr                9.00:  ROP Min 
 ROPX.m/hr               17.00:  ROP Max 
 RPMA.rpm               120.00:  RPM Surface Avg 
 RPMN.rpm                90.00:  RPM Surface Min 
 RPMX.rpm               140.00:  RPM Surface Max 
 RRUN.                     300:  Rig Run Number 
 RTIM.hr                 31.53:  Time Reaming 
 SAZI.deg               331.64:  Azm, Start 
 SDEP.m                4127.00:  Start Depth 
 SIDD.                      No:  Serv Intrp, DD 
 SINC.deg                48.43:  Inc, Start 
 SPPA.psig             5830.00:  SPP Avg 
 SPPN.psig             5600.00:  SPP Min 
 SPPX.psig             5900.00:  SPP Max 
 STIM.      21.00.00 20-Aug-21:  Start Time 
 SVCS.                 DD, MWD:  Services 
 SVER.                    9.20:  Sperry Version 
 TDAT.m                 957.50:  Tot Depth Attmp 
 TDDF.                      No:  Trip for DD 
 TDLG.m                 957.50:  Tot Depth Loggd 
 TFF .                      No:  Trip for Fail 
 TQAA.f-kp               15.00:  Torque Abs Avg 
 TQAN.f-kp               12.00:  Torque Abs Min 
 TQAX.f-kp               19.00:  Torque Abs Max 
 TRRT.°/30m              -3.40:  Turn Rotating 
 MRT .                  EWR-M5:  Maximum Recorded Temperature 
 TTMX.degC              100.00:  Max Tool Temp 
 VS01.                90639251:  Virtual Str1 SN 
 VS02.                90634715:  Virtual Str2 SN 
 VS03.                90652479:  Virtual Str3 SN 
 VS04.                90642262:  Virtual Str4 SN 
 WBMN.klb                 0.00:  WOB Min 
 WITN.           Murad Guliyev:  Customer Rep 
 WITN.          Yashar Gaziyev:  Customer Rep 2 
 WOBA.klb                 9.00:  WOB Avg 
 WOBX.klb                12.00:  WOB Max 
 YP  .lhf2               30.00:  Yield Point 
~Curve Information Block
#MNEM.UNIT                 API CODE     Curve Description
#---------               -----------    ---------------------------
 TIME.HHMMSS            00 000 000 000:  GT Time & Date
 GTDEPTH.m              00 000 000 000:  GT Depth
 GTPQH.psia             00 000 000 000:  GT HR Quartz Pressure
 GTTQ.degC              00 000 000 000:  GT Quartz Temperature
 GTTN.NONE              00 000 000 000:  GT Test Number
 GTET.sec               00 000 000 000:  GT Elapsed Test Time
 GTTVD.m                00 000 000 000:  GT True Vertical Depth
#Other Information
#
#WARRANTY: Halliburton will use its best efforts to furnish customers with 
#accurate information and interpretations that are part of, and incident to, the services 
#provided.  However, Halliburton cannot and does not warrant the accuracy 
#or correctness of such information and interpretations.  Under no circumstances should any 
#such information or interpretation be relied upon as the sole basis for any drilling, 
#completion, production, or financial decision or any procedure involving any risk to the 
#safety of any drilling venture, drilling rig or its crew or any other third party.  The 
#Customer has full responsibility for all drilling, completion and production operation.  
#Halliburton makes no representations or warranties, either expressed or 
#implied, including, but not limited to, the implied warranties of merchantability or fitness 
#for a particular purpose, with respect to the services rendered.  In no event will 
#Halliburton be liable for failure to obtain any particular results or for 
#any damages, including, but not limited to, indirect, special or consequential damages, 
#resulting from the use of any information or interpretation provided by Halliburton.
#
~A           TIME           GTDEPTH  GTPQH  GTTQ  GTTN  GTET   GTTVD  
# ...
   09:29:07.361.27-Aug-2021 4964.50 5198.35 86.32 7.00 230.10 3307.39
   09:29:07.561.27-Aug-2021 4964.50 5198.35 86.32 7.00 230.30 3307.39
   09:29:07.761.27-Aug-2021 4964.50 5198.32 86.32 7.00 230.50 3307.39
   09:29:07.961.27-Aug-2021 4964.50 5198.34 86.32 7.00 230.70 3307.39
   09:29:08.162.27-Aug-2021 4964.50 5198.36 86.32 7.00 230.90 3307.39
   09:29:08.362.27-Aug-2021 4964.50 5198.33 86.32 7.00 231.10 3307.39
   09:29:08.562.27-Aug-2021 4964.50 5198.33 86.32 7.00 231.30 3307.39
   09:29:08.762.27-Aug-2021 4964.50 5198.33 86.32 7.00 231.50 3307.39
   09:29:08.962.27-Aug-2021 4964.50 5198.35 86.32 7.00 231.70 3307.39
   09:29:09.162.27-Aug-2021 4964.50 5198.34 86.32 7.00 231.90 3307.39
   09:29:09.362.27-Aug-2021 4964.50 5198.36 86.32 7.00 232.10 3307.39
   09:29:09.562.27-Aug-2021 4964.50 5198.36 86.32 7.00 232.30 3307.39
   09:29:09.762.27-Aug-2021 4964.50 5198.33 86.32 7.00 232.50 3307.39
   09:29:09.962.27-Aug-2021 4964.50 5198.36 86.32 7.00 232.70 3307.39
   09:29:10.162.27-Aug-2021 4964.50 5198.36 86.32 7.00 232.90 3307.39
   09:29:10.362.27-Aug-2021 4964.50 5198.33 86.32 7.00 233.10 3307.39
   09:29:10.563.27-Aug-2021 4964.50 5198.33 86.32 7.00 233.30 3307.39
   09:29:10.763.27-Aug-2021 4964.50 5198.33 86.32 7.00 233.50 3307.39
   09:29:10.963.27-Aug-2021 4964.50 5198.35 86.32 7.00 233.70 3307.39
   09:29:11.163.27-Aug-2021 4964.50 5198.34 86.32 7.00 233.90 3307.39
   09:29:11.363.27-Aug-2021 4964.50 5198.33 86.32 7.00 234.10 3307.39
   09:29:11.563.27-Aug-2021 4964.50 5198.33 86.32 7.00 234.30 3307.39
   09:29:11.763.27-Aug-2021 4964.50 5198.35 86.32 7.00 234.50 3307.39
   09:29:11.963.27-Aug-2021 4964.50 5198.34 86.32 7.00 234.70 3307.39
   09:29:12.163.27-Aug-2021 4964.50 5198.35 86.32 7.00 234.90 3307.39
   09:29:12.363.27-Aug-2021 4964.50 5198.35 86.32 7.00 235.10 3307.39
   09:29:12.563.27-Aug-2021 4964.50 5198.35 86.32 7.00 235.30 3307.39
   09:29:12.763.27-Aug-2021 4964.50 5198.34 86.32 7.00 235.50 3307.39
   09:29:12.964.27-Aug-2021 4964.50 5198.34 86.32 7.00 235.70 3307.39
   09:29:13.164.27-Aug-2021 4964.50 5198.35 86.32 7.00 235.90 3307.39
   09:29:13.364.27-Aug-2021 4964.50 5198.34 86.32 7.00 236.10 3307.39
   09:29:13.564.27-Aug-2021 4964.50 5198.34 86.32 7.00 236.30 3307.39
   09:29:13.764.27-Aug-2021 4964.50 5198.33 86.32 7.00 236.50 3307.39
   09:29:13.964.27-Aug-2021 4964.50 5198.33 86.32 7.00 236.70 3307.39
   09:29:14.164.27-Aug-2021 4964.50 5198.33 86.32 7.00 236.90 3307.39
   09:29:14.364.27-Aug-2021 4964.50 5198.33 86.32 7.00 237.10 3307.39
   09:29:14.564.27-Aug-2021 4964.50 5198.33 86.32 7.00 237.30 3307.39
   09:29:14.764.27-Aug-2021 4964.50 5198.34 86.32 7.00 237.50 3307.39
   09:29:14.964.27-Aug-2021 4964.50 5198.33 86.32 7.00 237.70 3307.39
   09:29:15.164.27-Aug-2021 4964.50 5198.34 86.32 7.00 237.90 3307.39
   09:29:15.365.27-Aug-2021 4964.50 5198.35 86.32 7.00 238.10 3307.39
   09:29:15.565.27-Aug-2021 4964.50 5198.35 86.32 7.00 238.30 3307.39
   09:29:15.765.27-Aug-2021 4964.50 5198.34 86.32 7.00 238.50 3307.39
   09:29:15.965.27-Aug-2021 4964.50 5198.35 86.32 7.00 238.70 3307.39
   09:29:16.165.27-Aug-2021 4964.50 5198.34 86.32 7.00 238.90 3307.39
   09:29:16.365.27-Aug-2021 4964.50 5198.35 86.32 7.00 239.10 3307.39
   09:29:16.565.27-Aug-2021 4964.50 5198.35 86.32 7.00 239.30 3307.39
   09:29:16.765.27-Aug-2021 4964.50 5198.35 86.32 7.00 239.50 3307.39
   09:29:16.965.27-Aug-2021 4964.50 5198.34 86.32 7.00 239.70 3307.39
   09:29:17.165.27-Aug-2021 4964.50 5198.33 86.32 7.00 239.90 3307.39
   09:29:17.365.27-Aug-2021 4964.50 5198.34 86.32 7.00 240.10 3307.39
   09:29:17.565.27-Aug-2021 4964.50 5198.34 86.32 7.00 240.30 3307.39
   09:29:17.766.27-Aug-2021 4964.50 5198.32 86.32 7.00 240.50 3307.39
   09:29:17.966.27-Aug-2021 4964.50 5198.34 86.32 7.00 240.70 3307.39
   09:29:18.166.27-Aug-2021 4964.50 5198.33 86.32 7.00 240.90 3307.39
   09:29:18.366.27-Aug-2021 4964.50 5198.34 86.32 7.00 241.10 3307.39
   09:29:18.566.27-Aug-2021 4964.50 5198.34 86.32 7.00 241.30 3307.39
   09:29:18.766.27-Aug-2021 4964.50 5198.35 86.32 7.00 241.50 3307.39
   09:29:18.966.27-Aug-2021 4964.50 5198.33 86.32 7.00 241.70 3307.39
   09:29:19.166.27-Aug-2021 4964.50 5198.34 86.32 7.00 241.90 3307.39
   09:29:19.366.27-Aug-2021 4964.50 5198.34 86.32 7.00 242.10 3307.39
   09:29:19.566.27-Aug-2021 4964.50 5198.34 86.32 7.00 242.30 3307.39
   09:29:19.766.27-Aug-2021 4964.50 5198.32 86.32 7.00 242.50 3307.39
   09:29:19.966.27-Aug-2021 4964.50 5198.32 86.32 7.00 242.70 3307.39
   09:29:20.167.27-Aug-2021 4964.50 5198.33 86.32 7.00 242.90 3307.39
   09:29:20.367.27-Aug-2021 4964.50 5198.32 86.32 7.00 243.10 3307.39
   09:29:20.567.27-Aug-2021 4964.50 5198.32 86.32 7.00 243.30 3307.39
   09:29:20.767.27-Aug-2021 4964.50 5198.33 86.32 7.00 243.50 3307.39
   09:29:20.967.27-Aug-2021 4964.50 5198.33 86.32 7.00 243.70 3307.39
   09:29:21.167.27-Aug-2021 4964.50 5198.33 86.32 7.00 243.90 3307.39
   09:29:21.367.27-Aug-2021 4964.50 5198.35 86.32 7.00 244.10 3307.39
   09:29:21.567.27-Aug-2021 4964.50 5198.35 86.32 7.00 244.30 3307.39
   09:29:21.767.27-Aug-2021 4964.50 5198.35 86.32 7.00 244.50 3307.39
   09:29:21.967.27-Aug-2021 4964.50 5198.33 86.32 7.00 244.70 3307.39
   09:29:22.167.27-Aug-2021 4964.50 5198.35 86.32 7.00 244.90 3307.39
   09:29:22.367.27-Aug-2021 4964.50 5198.33 86.32 7.00 245.10 3307.39
   09:29:22.568.27-Aug-2021 4964.50 5198.33 86.32 7.00 245.30 3307.39
   09:29:22.768.27-Aug-2021 4964.50 5198.35 86.32 7.00 245.50 3307.39
   09:29:22.968.27-Aug-2021 4964.50 5198.35 86.32 7.00 245.70 3307.39
   09:29:23.168.27-Aug-2021 4964.50 5198.34 86.32 7.00 245.90 3307.39
   09:29:23.368.27-Aug-2021 4964.50 5198.33 86.32 7.00 246.10 3307.39
   09:29:23.568.27-Aug-2021 4964.50 5198.33 86.32 7.00 246.30 3307.39
   09:29:23.768.27-Aug-2021 4964.50 5198.34 86.32 7.00 246.50 3307.39
   09:29:23.968.27-Aug-2021 4964.50 5198.34 86.32 7.00 246.70 3307.39
   09:29:24.168.27-Aug-2021 4964.50 5198.34 86.32 7.00 246.90 3307.39
   09:29:24.368.27-Aug-2021 4964.50 5198.34 86.32 7.00 247.10 3307.39
   09:29:24.568.27-Aug-2021 4964.50 5198.34 86.32 7.00 247.30 3307.39
   09:29:24.768.27-Aug-2021 4964.50 5198.34 86.32 7.00 247.50 3307.39
   09:29:24.969.27-Aug-2021 4964.50 5198.34 86.32 7.00 247.70 3307.39
   09:29:25.169.27-Aug-2021 4964.50 5198.34 86.32 7.00 247.90 3307.39
   09:29:25.369.27-Aug-2021 4964.50 5198.35 86.32 7.00 248.10 3307.39
   09:29:25.569.27-Aug-2021 4964.50 5198.35 86.32 7.00 248.30 3307.39
   09:29:25.769.27-Aug-2021 4964.50 5198.35 86.32 7.00 248.50 3307.39
   09:29:25.969.27-Aug-2021 4964.50 5198.34 86.32 7.00 248.70 3307.39
   09:29:26.169.27-Aug-2021 4964.50 5198.36 86.32 7.00 248.90 3307.39
   09:29:26.369.27-Aug-2021 4964.50 5198.34 86.32 7.00 249.10 3307.39
   09:29:26.569.27-Aug-2021 4964.50 5198.34 86.32 7.00 249.30 3307.39
   09:29:26.769.27-Aug-2021 4964.50 5198.36 86.32 7.00 249.50 3307.39
   09:29:26.969.27-Aug-2021 4964.50 5198.35 86.32 7.00 249.70 3307.39
   09:29:27.169.27-Aug-2021 4964.50 5198.32 86.32 7.00 249.90 3307.39
   09:29:27.370.27-Aug-2021 4964.50 5198.34 86.32 7.00 250.10 3307.39
   09:29:27.570.27-Aug-2021 4964.50 5198.34 86.32 7.00 250.30 3307.39
   09:29:27.770.27-Aug-2021 4964.50 5198.33 86.32 7.00 250.50 3307.39
   09:29:27.970.27-Aug-2021 4964.50 5198.35 86.32 7.00 250.70 3307.39
   09:29:28.170.27-Aug-2021 4964.50 5198.36 86.32 7.00 250.90 3307.39
   09:29:28.370.27-Aug-2021 4964.50 5198.33 86.32 7.00 251.10 3307.39
   09:29:28.570.27-Aug-2021 4964.50 5198.33 86.32 7.00 251.30 3307.39
   09:29:28.770.27-Aug-2021 4964.50 5198.34 86.32 7.00 251.50 3307.39
   09:29:28.970.27-Aug-2021 4964.50 5198.37 86.32 7.00 251.70 3307.39
   09:29:29.170.27-Aug-2021 4964.50 5198.32 86.32 7.00 251.90 3307.39
   09:29:29.370.27-Aug-2021 4964.50 5198.33 86.32 7.00 252.10 3307.39
   09:29:29.570.27-Aug-2021 4964.50 5198.33 86.32 7.00 252.30 3307.39
   09:29:29.771.27-Aug-2021 4964.50 5198.33 86.32 7.00 252.50 3307.39
   09:29:29.971.27-Aug-2021 4964.50 5198.35 86.32 7.00 252.70 3307.39
   09:29:30.171.27-Aug-2021 4964.50 5198.33 86.32 7.00 252.91 3307.39
