~Version Information
 VERS.                  2.0:   CWLS log ASCII Standard -VERSION 2.0
 WRAP.                   NO:   One line per depth step
~Well Information Block
#MNEM.UNIT     VALUE/NAME     DESCRIPTION
#---------     -----------    ---------------------------
 STRT.S             11:48:55 27-Aug-21: START TIME 11:48:55 27-Aug-21
 STOP.S             11:56:03 27-Aug-21: STOP TIME  11:56:03 27-Aug-21
 STEP.S                   0.00: STEP TIME
 NULL.                 -999.25: NULL VALUE
 DFWT.                        :  DIST FWL TEXT
 DFST.                        :  DIST FSL TEXT
 DMF .             Drill Floor:  DRILL MEAS FROM
 STIM.      20.00.00 17-Aug-21:  START TIME
 DATE.      19.00.00 29-Aug-21:  END TIME
 SPUD.               15-Aug-21:  SPUD DATE
 NREF.                    Grid:  NORTH REFERENCE
 HPTY.       Minimum Curvature:  HOLE POS TYPE
 DMOD.             Drill Model:  DRILL MOD DESC
 SVYD.                  Survey:  SURVEY DESC
 ILTD.               Lithology:  INTERP LTH DESC
 FTOP.          Formation Tops:  FORM TOPS DESC
 RIG .              East Azeri:  RIG NAME
 PDAT.          Mean Sea Level:  PERMANENT DATUM
 FLD .                     ACG:  FIELD NAME
 SON .        AZ-XX-0907180857:  JOB NUMBER
 CTRY.              Azerbaijan:  COUNTRY NAME
 WELL.                    D23x:  WELL NAME
 SRVC.     Turan Drilling and Engineering:  CONTRACTOR
 COMP.     BP Exploration (Caspian Sea) Ltd.:  COMPANY
 UWI .            /AZE00000214:  UNIQUE WELL IDENTIFIER
 API .            /AZE00000214:  API NUMBER
 MDS .        Operator Entered:  MAG DATA SOURCE
 BASE.              Azerbaijan:  LOGGING EQUIPMENT BASE LOCATION
 REGN.                   EESSA:  REGION
 PROV.                    Baku:  PROVINCE
 STAT.                    Baku:  STATE NAME
 MWDS.                    Baku:  MWD SHOP
 DOE .                     N/A:  DOE NUMBER
 DCON.         Sperry Drilling:  DIRECTNL CONTR
 UNIT.                     N/A:  LOGGING EQUIPMENT ID
 WTYP.                Deviated:  WELL TYPE
 CNTY.                        :  COUNTY
 LOC .                        :  LOCATION
 LMF .             Drill Floor:  LOG MEASURED FROM
 TVDS.m                  43.60:  TVDSS CORRECTN
 LATI.deg                40.02:  LATITUDE
 LONG.deg                51.45:  LONGITUDE
 WHNS.m                  -7.04:  WELL HEAD N/S
 WHEW.m                  -0.67:  WELL HEAD E/W
 UTMX.m              538762.90:  UTM X
 UTMY.m             4431871.34:  UTM Y
 DFWL.m                   0.00:  DISTANCE FWL
 DFSL.m                   0.00:  DISTANCE FSL
 SDEP.m                4127.00:  START DEPTH
 TDD .m                5084.50:  TOTAL DEPTH (DRILLER)
 VSDR.deg               140.47:  VERT SEC DIRECT
 GVFD.g                   1.00:  GRAVITY FIELD
 MFLD.nT              50362.00:  MAGNETIC FIELD
 MDIP.deg                59.48:  MAGNETIC DIP
 MDEC.deg                 6.47:  MAGNETIC DECL
 GRDC.deg                 0.31:  GRID CORRECTION
 AZTC.deg                 6.16:  AZM TOTAL CORR
 EPD .m                   0.00:  ELEVATION
 EGL .m                   0.00:  GROUND ELEVATION
 WDMS.m                 151.80:  WD ELEV
 APD .m                  43.60:  DEPTH ABOVE PD
 DEP .m                4092.57:  DEPTH
 AGAP.m                  43.60:  AIR GAP
 VSEW.m                  -0.67:  VERT SEC E/W
 VSNS.m                  -7.04:  VERT SEC N/S
 EKB .m                  43.60:  KB ELEVATION
 EDF .m                  43.60:  DF ELEVATION
 TDL .m                 957.50:  TOTAL DEPTH (LOGGER)
 VSC .                       0:  VS TO CLOSURE
 MAGU.                 1851413:  MAGUTM CHECKSUM
~Parameter Information Block
#MNEM.UNIT       Value        Description
#---------     -----------    ---------------------------
 AV  .mps                 1.50:  Ann Velocity 
 AVMX.mps                 2.00:  Max Ann Veloc 
 AZIF.deg               184.66:  Azm, Final 
 BHAT.        Rotary Steerable:  BHA Type 
 BREV.rev               300.00:  Rev Bit Total 
 BROT.°/30m              -0.50:  Build Rotating 
 BS  .in                  8.50:  Bit Size 
 BSZ .in                  8.50:  Bit Size 
 BTPL.psig              370.00:  Bit Press Loss 
 CABU.                      No:  Customer Abuse 
 CGEO.      Behruz Shahbaliyev:  Customer Geo 
 COMM.                     L*e:  Run Comments 1 
 TCS .hr                140.08:  Time Ciculation Ended 
 CV  .mps                 3.00:  Crit Velocity 
 CVMX.mps                 3.20:  Max Crit Veloc 
 DD1 .            Musa Ahmadov:  Direct Drillr 1 
 DD2 .           Hamid Ahmadov:  Direct Drillr 2 
 DDSV.               Geo-Pilot:  DD Service 
 DEFF.%                  98.40:  % Det Eff 
 DLRX.°/30m               3.40:  Dogleg Rot Max 
 DLSO.°/30m               1.45:  Dogleg Oriented 
 DLSX.°/30m               3.40:  Dogleg Str Max 
 DRET.      18.40.00 29-Aug-21:  Drill End Time 
 DRST.      21.00.00 20-Aug-21:  Drill Start Tim 
 DTIM.hr                 69.47:  Time Drilling 
 EDEP.m                5084.50:  End Depth 
 ENG1.      Artemiy Matviyanov:  Engineer 1 
 ENG2.         Almaz Almadatov:  Engineer 2 
 ETIM.      18.40.00 29-Aug-21:  End Time 
 FLOI.gpm               500.00:  Flow In 
 FLON.gpm               400.00:  Flow In Min 
 FLOS.cptm                0.00:  Fluid Loss 
 FLOX.gpm               500.00:  Flow In Max 
 DFT .        Mineral Oil Base:  Mud Type 
 HFLO.                      No:  High Flow 
 HPRE.                      No:  High Pressure 
 HTEM.                      No:  High Temp 
 HYDO.m                   1.80:  Hydro Offset 
 IFIN.deg                25.62:  Inc, Final 
 IMAX.deg                48.69:  Inc Max 
 IMIN.deg                24.01:  Inc Min 
 IMND.m                4962.57:  Inc Min Depth 
 IMXD.m                4119.01:  Inc Max Depth 
 JARR.                      No:  Jarring 
 LETM.      18.40.00 29-Aug-21:  Log End Time 
 LOST.hr                     0:  Lost Rig Time 
 LSTM.      21.00.00 20-Aug-21:  Log Start Time 
 MDCL.ppm             41500.00:  Mud Chlorides 
 MDES.     Inversion Oil/Synthetic:  Mud Desc 
 DFD .sg                  1.56:  Mud Density 
 MDMN.sg                  1.56:  Dens Mud Min 
 MDMX.sg                  1.56:  Dens Mud Max 
 MOIL.                      70:  Run Mud Oil % 
 MOWR.                   70:30:  Run Mud OWR 
 MSND.                     0.2:  Run Mud Sand % 
 MSOL.                    23.3:  Run Mud Solids% 
 DFV .spqt               78.00:  Mud Viscosity 
 MWOD.in                  6.75:  MWD Tool OD 
 MWSI.                      No:  Serv Intrp, MWD 
 OTIM.hr                218.30:  Time Operating 
 PCON.           Look Like New:  Pad Condition 
 PMAX.psia            11015.30:  Press Op, Max 
 PV  .cP                 38.00:  Mud PV 
 RUN .                     300:  Run Number 
 ROPA.m/hr               15.00:  ROP Avg 
 ROPN.m/hr                9.00:  ROP Min 
 ROPX.m/hr               17.00:  ROP Max 
 RPMA.rpm               120.00:  RPM Surface Avg 
 RPMN.rpm                90.00:  RPM Surface Min 
 RPMX.rpm               140.00:  RPM Surface Max 
 RRUN.                     300:  Rig Run Number 
 RTIM.hr                 31.53:  Time Reaming 
 SAZI.deg               331.64:  Azm, Start 
 SDEP.m                4127.00:  Start Depth 
 SIDD.                      No:  Serv Intrp, DD 
 SINC.deg                48.43:  Inc, Start 
 SPPA.psig             5830.00:  SPP Avg 
 SPPN.psig             5600.00:  SPP Min 
 SPPX.psig             5900.00:  SPP Max 
 STIM.      21.00.00 20-Aug-21:  Start Time 
 SVCS.                 DD, MWD:  Services 
 SVER.                    9.20:  Sperry Version 
 TDAT.m                 957.50:  Tot Depth Attmp 
 TDDF.                      No:  Trip for DD 
 TDLG.m                 957.50:  Tot Depth Loggd 
 TFF .                      No:  Trip for Fail 
 TQAA.f-kp               15.00:  Torque Abs Avg 
 TQAN.f-kp               12.00:  Torque Abs Min 
 TQAX.f-kp               19.00:  Torque Abs Max 
 TRRT.°/30m              -3.40:  Turn Rotating 
 MRT .                  EWR-M5:  Maximum Recorded Temperature 
 TTMX.degC              100.00:  Max Tool Temp 
 VS01.                90639251:  Virtual Str1 SN 
 VS02.                90634715:  Virtual Str2 SN 
 VS03.                90652479:  Virtual Str3 SN 
 VS04.                90642262:  Virtual Str4 SN 
 WBMN.klb                 0.00:  WOB Min 
 WITN.           Murad Guliyev:  Customer Rep 
 WITN.          Yashar Gaziyev:  Customer Rep 2 
 WOBA.klb                 9.00:  WOB Avg 
 WOBX.klb                12.00:  WOB Max 
 YP  .lhf2               30.00:  Yield Point 
~Curve Information Block
#MNEM.UNIT                 API CODE     Curve Description
#---------               -----------    ---------------------------
 TIME.HHMMSS            00 000 000 000:  GT Time & Date
 GTDEPTH.m              00 000 000 000:  GT Depth
 GTPQH.psia             00 000 000 000:  GT HR Quartz Pressure
 GTTQ.degC              00 000 000 000:  GT Quartz Temperature
 GTTN.NONE              00 000 000 000:  GT Test Number
 GTET.sec               00 000 000 000:  GT Elapsed Test Time
 GTTVD.m                00 000 000 000:  GT True Vertical Depth
#Other Information
#
#WARRANTY: Halliburton will use its best efforts to furnish customers with 
#accurate information and interpretations that are part of, and incident to, the services 
#provided.  However, Halliburton cannot and does not warrant the accuracy 
#or correctness of such information and interpretations.  Under no circumstances should any 
#such information or interpretation be relied upon as the sole basis for any drilling, 
#completion, production, or financial decision or any procedure involving any risk to the 
#safety of any drilling venture, drilling rig or its crew or any other third party.  The 
#Customer has full responsibility for all drilling, completion and production operation.  
#Halliburton makes no representations or warranties, either expressed or 
#implied, including, but not limited to, the implied warranties of merchantability or fitness 
#for a particular purpose, with respect to the services rendered.  In no event will 
#Halliburton be liable for failure to obtain any particular results or for 
#any damages, including, but not limited to, indirect, special or consequential damages, 
#resulting from the use of any information or interpretation provided by Halliburton.
#
~A           TIME           GTDEPTH  GTPQH  GTTQ  GTTN   GTET   GTTVD  
   11:48:55.648.27-Aug-2021 4914.00 7760.18 85.35 11.00   0.00 3261.31
   11:48:55.848.27-Aug-2021 4914.00 7760.18 85.35 11.00   0.20 3261.31
   11:48:56.048.27-Aug-2021 4914.00 7763.93 85.35 11.00   0.40 3261.31
   11:48:56.248.27-Aug-2021 4914.00 7761.92 85.35 11.00   0.60 3261.31
   11:48:56.448.27-Aug-2021 4914.00 7761.91 85.35 11.00   0.80 3261.31
   11:48:56.648.27-Aug-2021 4914.00 7760.84 85.35 11.00   1.00 3261.31
   11:48:56.848.27-Aug-2021 4914.00 7760.84 85.35 11.00   1.20 3261.31
   11:48:57.048.27-Aug-2021 4914.00 7759.71 85.35 11.00   1.40 3261.31
   11:48:57.248.27-Aug-2021 4914.00 7759.15 85.35 11.00   1.60 3261.31
   11:48:57.448.27-Aug-2021 4914.00 7758.40 85.35 11.00   1.80 3261.31
   11:48:57.649.27-Aug-2021 4914.00 7758.57 85.35 11.00   2.00 3261.31
   11:48:57.849.27-Aug-2021 4914.00 7758.57 85.35 11.00   2.20 3261.31
   11:48:58.049.27-Aug-2021 4914.00 7759.06 85.35 11.00   2.40 3261.31
   11:48:58.249.27-Aug-2021 4914.00 7759.82 85.35 11.00   2.60 3261.31
   11:48:58.449.27-Aug-2021 4914.00 7760.06 85.35 11.00   2.80 3261.31
   11:48:58.649.27-Aug-2021 4914.00 7763.09 85.35 11.00   3.00 3261.31
   11:48:58.849.27-Aug-2021 4914.00 7763.09 85.35 11.00   3.20 3261.31
   11:48:59.049.27-Aug-2021 4914.00 7761.70 85.35 11.00   3.40 3261.31
   11:48:59.249.27-Aug-2021 4914.00 7761.32 85.35 11.00   3.60 3261.31
   11:48:59.449.27-Aug-2021 4914.00 7763.72 85.35 11.00   3.80 3261.31
   11:48:59.649.27-Aug-2021 4914.00 7761.73 85.35 11.00   4.00 3261.31
   11:48:59.849.27-Aug-2021 4914.00 7761.73 85.35 11.00   4.20 3261.31
   11:49:00.049.27-Aug-2021 4914.00 7760.98 85.35 11.00   4.40 3261.31
   11:49:00.249.27-Aug-2021 4914.00 7761.45 85.35 11.00   4.60 3261.31
   11:49:00.450.27-Aug-2021 4914.00 7762.00 85.35 11.00   4.80 3261.31
   11:49:00.650.27-Aug-2021 4914.00 7762.36 85.35 11.00   5.00 3261.31
   11:49:00.850.27-Aug-2021 4914.00 7762.36 85.35 11.00   5.20 3261.31
   11:49:01.050.27-Aug-2021 4914.00 7761.75 85.35 11.00   5.40 3261.31
   11:49:01.250.27-Aug-2021 4914.00 7764.66 85.35 11.00   5.60 3261.31
   11:49:01.450.27-Aug-2021 4914.00 7767.16 85.35 11.00   5.80 3261.31
   11:49:01.650.27-Aug-2021 4914.00 7761.73 85.35 11.00   6.00 3261.31
   11:49:01.850.27-Aug-2021 4914.00 7764.85 85.35 11.00   6.20 3261.31
   11:49:02.050.27-Aug-2021 4914.00 7764.85 85.35 11.00   6.40 3261.31
   11:49:02.250.27-Aug-2021 4914.00 7764.85 85.35 11.00   6.60 3261.31
   11:49:02.450.27-Aug-2021 4914.00 7764.85 85.35 11.00   6.80 3261.31
   11:49:02.650.27-Aug-2021 4914.00 7766.22 85.35 11.00   7.00 3261.31
   11:49:02.850.27-Aug-2021 4914.00 7766.22 85.35 11.00   7.20 3261.31
   11:49:03.050.27-Aug-2021 4914.00 7766.04 85.34 11.00   7.40 3261.31
   11:49:03.251.27-Aug-2021 4914.00 7767.34 85.35 11.00   7.60 3261.31
   11:49:03.451.27-Aug-2021 4914.00 7766.62 85.34 11.00   7.80 3261.31
   11:49:03.651.27-Aug-2021 4914.00 7770.61 85.34 11.00   8.00 3261.31
   11:49:03.851.27-Aug-2021 4914.00 7770.61 85.34 11.00   8.20 3261.31
   11:49:04.051.27-Aug-2021 4914.00 7768.56 85.34 11.00   8.40 3261.31
   11:49:04.251.27-Aug-2021 4914.00 7768.37 85.34 11.00   8.60 3261.31
   11:49:04.451.27-Aug-2021 4914.00 7767.92 85.34 11.00   8.80 3261.31
   11:49:04.651.27-Aug-2021 4914.00 7768.45 85.34 11.00   9.00 3261.31
   11:49:04.851.27-Aug-2021 4914.00 7768.45 85.34 11.00   9.20 3261.31
   11:49:05.051.27-Aug-2021 4914.00 7769.43 85.34 11.00   9.40 3261.31
   11:49:05.251.27-Aug-2021 4914.00 7770.92 85.34 11.00   9.60 3261.31
   11:49:05.451.27-Aug-2021 4914.00 7769.72 85.34 11.00   9.80 3261.31
   11:49:05.651.27-Aug-2021 4914.00 7769.92 85.34 11.00  10.00 3261.31
   11:49:05.851.27-Aug-2021 4914.00 7769.92 85.34 11.00  10.20 3261.31
   11:49:06.052.27-Aug-2021 4914.00 7769.94 85.34 11.00  10.40 3261.31
   11:49:06.252.27-Aug-2021 4914.00 7769.93 85.34 11.00  10.60 3261.31
   11:49:06.452.27-Aug-2021 4914.00 7769.28 85.34 11.00  10.80 3261.31
   11:49:06.652.27-Aug-2021 4914.00 7769.53 85.34 11.00  11.00 3261.31
   11:49:06.852.27-Aug-2021 4914.00 7769.53 85.34 11.00  11.20 3261.31
   11:49:07.052.27-Aug-2021 4914.00 7770.07 85.34 11.00  11.40 3261.31
   11:49:07.252.27-Aug-2021 4914.00 7770.42 85.34 11.00  11.60 3261.31
   11:49:07.452.27-Aug-2021 4914.00 7770.51 85.34 11.00  11.80 3261.31
   11:49:07.652.27-Aug-2021 4914.00 7770.54 85.34 11.00  12.00 3261.31
   11:49:07.852.27-Aug-2021 4914.00 7770.54 85.34 11.00  12.20 3261.31
   11:49:08.052.27-Aug-2021 4914.00 7771.05 85.34 11.00  12.40 3261.31
   11:49:08.252.27-Aug-2021 4914.00 7771.46 85.34 11.00  12.60 3261.31
   11:49:08.452.27-Aug-2021 4914.00 7771.65 85.34 11.00  12.80 3261.31
   11:49:08.652.27-Aug-2021 4914.00 7776.20 85.34 11.00  13.00 3261.31
   11:49:08.853.27-Aug-2021 4914.00 7776.20 85.34 11.00  13.20 3261.31
   11:49:09.053.27-Aug-2021 4914.00 7773.34 85.34 11.00  13.40 3261.31
   11:49:09.253.27-Aug-2021 4914.00 7772.82 85.34 11.00  13.60 3261.31
   11:49:09.453.27-Aug-2021 4914.00 7772.63 85.34 11.00  13.80 3261.31
   11:49:09.653.27-Aug-2021 4914.00 7772.88 85.34 11.00  14.00 3261.31
   11:49:09.853.27-Aug-2021 4914.00 7772.88 85.34 11.00  14.21 3261.31
   11:49:10.053.27-Aug-2021 4914.00 7772.83 85.34 11.00  14.41 3261.31
   11:49:10.253.27-Aug-2021 4914.00 7773.28 85.34 11.00  14.61 3261.31
   11:49:10.453.27-Aug-2021 4914.00 7773.65 85.34 11.00  14.81 3261.31
   11:49:10.653.27-Aug-2021 4914.00 7774.46 85.34 11.00  15.01 3261.31
   11:49:10.853.27-Aug-2021 4914.00 7774.46 85.34 11.00  15.21 3261.31
   11:49:11.053.27-Aug-2021 4914.00 7775.24 85.34 11.00  15.41 3261.31
   11:49:11.253.27-Aug-2021 4914.00 7775.19 85.34 11.00  15.61 3261.31
   11:49:11.453.27-Aug-2021 4914.00 7775.45 85.34 11.00  15.81 3261.31
   11:49:11.654.27-Aug-2021 4914.00 7775.38 85.34 11.00  16.01 3261.31
   11:49:11.854.27-Aug-2021 4914.00 7775.38 85.34 11.00  16.21 3261.31
   11:49:12.054.27-Aug-2021 4914.00 7774.25 85.34 11.00  16.41 3261.31
   11:49:12.254.27-Aug-2021 4914.00 7776.63 85.34 11.00  16.61 3261.31
   11:49:12.454.27-Aug-2021 4914.00 7775.97 85.34 11.00  16.81 3261.31
   11:49:12.654.27-Aug-2021 4914.00 7775.33 85.34 11.00  17.01 3261.31
   11:49:12.854.27-Aug-2021 4914.00 7775.33 85.34 11.00  17.21 3261.31
   11:49:13.054.27-Aug-2021 4914.00 7779.94 85.34 11.00  17.41 3261.31
   11:49:13.254.27-Aug-2021 4914.00 7774.42 85.34 11.00  17.61 3261.31
   11:49:13.454.27-Aug-2021 4914.00 7777.60 85.34 11.00  17.81 3261.31
   11:49:13.654.27-Aug-2021 4914.00 7776.92 85.34 11.00  18.01 3261.31
   11:49:13.854.27-Aug-2021 4914.00 7776.92 85.34 11.00  18.21 3261.31
   11:49:14.054.27-Aug-2021 4914.00 7777.24 85.34 11.00  18.41 3261.31
   11:49:14.254.27-Aug-2021 4914.00 7780.15 85.34 11.00  18.61 3261.31
   11:49:14.454.27-Aug-2021 4914.00 7777.89 85.34 11.00  18.81 3261.31
   11:49:14.655.27-Aug-2021 4914.00 7778.29 85.34 11.00  19.01 3261.31
   11:49:14.855.27-Aug-2021 4914.00 7778.29 85.34 11.00  19.21 3261.31
   11:49:15.055.27-Aug-2021 4914.00 7777.77 85.34 11.00  19.41 3261.31
   11:49:15.255.27-Aug-2021 4914.00 7783.74 85.34 11.00  19.61 3261.31
   11:49:15.455.27-Aug-2021 4914.00 7775.59 85.34 11.00  19.81 3261.31
   11:49:15.655.27-Aug-2021 4914.00 7778.93 85.34 11.00  20.01 3261.31
   11:49:15.855.27-Aug-2021 4914.00 7778.93 85.34 11.00  20.21 3261.31
   11:49:16.055.27-Aug-2021 4914.00 7782.98 85.34 11.00  20.41 3261.31
   11:49:16.255.27-Aug-2021 4914.00 7777.48 85.34 11.00  20.61 3261.31
   11:49:16.455.27-Aug-2021 4914.00 7780.25 85.34 11.00  20.81 3261.31
   11:49:16.655.27-Aug-2021 4914.00 7779.55 85.34 11.00  21.01 3261.31
   11:49:16.855.27-Aug-2021 4914.00 7779.55 85.34 11.00  21.21 3261.31
   11:49:17.055.27-Aug-2021 4914.00 7785.00 85.34 11.00  21.41 3261.31
   11:49:17.255.27-Aug-2021 4914.00 7777.05 85.34 11.00  21.61 3261.31
   11:49:17.456.27-Aug-2021 4914.00 7781.52 85.34 11.00  21.81 3261.31
   11:49:17.656.27-Aug-2021 4914.00 7781.01 85.34 11.00  22.01 3261.31
   11:49:17.856.27-Aug-2021 4914.00 7781.01 85.34 11.00  22.21 3261.31
   11:49:18.056.27-Aug-2021 4914.00 7780.89 85.34 11.00  22.41 3261.31
