~Version Information
 VERS.                  2.0:   CWLS log ASCII Standard -VERSION 2.0
 WRAP.                   NO:   One line per depth step
~Well Information Block
#MNEM.UNIT     VALUE/NAME     DESCRIPTION
#---------     -----------    ---------------------------
 STRT.S             10:06:49 27-Aug-21: START TIME 10:06:49 27-Aug-21
 STOP.S             10:13:57 27-Aug-21: STOP TIME  10:13:57 27-Aug-21
 STEP.S                   0.00: STEP TIME
 NULL.                 -999.25: NULL VALUE
 DFWT.                        :  DIST FWL TEXT
 DFST.                        :  DIST FSL TEXT
 DMF .             Drill Floor:  DRILL MEAS FROM
 STIM.      20.00.00 17-Aug-21:  START TIME
 DATE.      19.00.00 29-Aug-21:  END TIME
 SPUD.               15-Aug-21:  SPUD DATE
 NREF.                    Grid:  NORTH REFERENCE
 HPTY.       Minimum Curvature:  HOLE POS TYPE
 DMOD.             Drill Model:  DRILL MOD DESC
 SVYD.                  Survey:  SURVEY DESC
 ILTD.               Lithology:  INTERP LTH DESC
 FTOP.          Formation Tops:  FORM TOPS DESC
 RIG .              East Azeri:  RIG NAME
 PDAT.          Mean Sea Level:  PERMANENT DATUM
 FLD .                     ACG:  FIELD NAME
 SON .        AZ-XX-0907180857:  JOB NUMBER
 CTRY.              Azerbaijan:  COUNTRY NAME
 WELL.                    D23x:  WELL NAME
 SRVC.     Turan Drilling and Engineering:  CONTRACTOR
 COMP.     BP Exploration (Caspian Sea) Ltd.:  COMPANY
 UWI .            /AZE00000214:  UNIQUE WELL IDENTIFIER
 API .            /AZE00000214:  API NUMBER
 MDS .        Operator Entered:  MAG DATA SOURCE
 BASE.              Azerbaijan:  LOGGING EQUIPMENT BASE LOCATION
 REGN.                   EESSA:  REGION
 PROV.                    Baku:  PROVINCE
 STAT.                    Baku:  STATE NAME
 MWDS.                    Baku:  MWD SHOP
 DOE .                     N/A:  DOE NUMBER
 DCON.         Sperry Drilling:  DIRECTNL CONTR
 UNIT.                     N/A:  LOGGING EQUIPMENT ID
 WTYP.                Deviated:  WELL TYPE
 CNTY.                        :  COUNTY
 LOC .                        :  LOCATION
 LMF .             Drill Floor:  LOG MEASURED FROM
 TVDS.m                  43.60:  TVDSS CORRECTN
 LATI.deg                40.02:  LATITUDE
 LONG.deg                51.45:  LONGITUDE
 WHNS.m                  -7.04:  WELL HEAD N/S
 WHEW.m                  -0.67:  WELL HEAD E/W
 UTMX.m              538762.90:  UTM X
 UTMY.m             4431871.34:  UTM Y
 DFWL.m                   0.00:  DISTANCE FWL
 DFSL.m                   0.00:  DISTANCE FSL
 SDEP.m                4127.00:  START DEPTH
 TDD .m                5084.50:  TOTAL DEPTH (DRILLER)
 VSDR.deg               140.47:  VERT SEC DIRECT
 GVFD.g                   1.00:  GRAVITY FIELD
 MFLD.nT              50362.00:  MAGNETIC FIELD
 MDIP.deg                59.48:  MAGNETIC DIP
 MDEC.deg                 6.47:  MAGNETIC DECL
 GRDC.deg                 0.31:  GRID CORRECTION
 AZTC.deg                 6.16:  AZM TOTAL CORR
 EPD .m                   0.00:  ELEVATION
 EGL .m                   0.00:  GROUND ELEVATION
 WDMS.m                 151.80:  WD ELEV
 APD .m                  43.60:  DEPTH ABOVE PD
 DEP .m                4092.57:  DEPTH
 AGAP.m                  43.60:  AIR GAP
 VSEW.m                  -0.67:  VERT SEC E/W
 VSNS.m                  -7.04:  VERT SEC N/S
 EKB .m                  43.60:  KB ELEVATION
 EDF .m                  43.60:  DF ELEVATION
 TDL .m                 957.50:  TOTAL DEPTH (LOGGER)
 VSC .                       0:  VS TO CLOSURE
 MAGU.                 1851413:  MAGUTM CHECKSUM
~Parameter Information Block
#MNEM.UNIT       Value        Description
#---------     -----------    ---------------------------
 AV  .mps                 1.50:  Ann Velocity 
 AVMX.mps                 2.00:  Max Ann Veloc 
 AZIF.deg               184.66:  Azm, Final 
 BHAT.        Rotary Steerable:  BHA Type 
 BREV.rev               300.00:  Rev Bit Total 
 BROT.°/30m              -0.50:  Build Rotating 
 BS  .in                  8.50:  Bit Size 
 BSZ .in                  8.50:  Bit Size 
 BTPL.psig              370.00:  Bit Press Loss 
 CABU.                      No:  Customer Abuse 
 CGEO.      Behruz Shahbaliyev:  Customer Geo 
 COMM.                     Ììg:  Run Comments 1 
 TCS .hr                140.08:  Time Ciculation Ended 
 CV  .mps                 3.00:  Crit Velocity 
 CVMX.mps                 3.20:  Max Crit Veloc 
 DD1 .            Musa Ahmadov:  Direct Drillr 1 
 DD2 .           Hamid Ahmadov:  Direct Drillr 2 
 DDSV.               Geo-Pilot:  DD Service 
 DEFF.%                  98.40:  % Det Eff 
 DLRX.°/30m               3.40:  Dogleg Rot Max 
 DLSO.°/30m               1.45:  Dogleg Oriented 
 DLSX.°/30m               3.40:  Dogleg Str Max 
 DRET.      18.40.00 29-Aug-21:  Drill End Time 
 DRST.      21.00.00 20-Aug-21:  Drill Start Tim 
 DTIM.hr                 69.47:  Time Drilling 
 EDEP.m                5084.50:  End Depth 
 ENG1.      Artemiy Matviyanov:  Engineer 1 
 ENG2.         Almaz Almadatov:  Engineer 2 
 ETIM.      18.40.00 29-Aug-21:  End Time 
 FLOI.gpm               500.00:  Flow In 
 FLON.gpm               400.00:  Flow In Min 
 FLOS.cptm                0.00:  Fluid Loss 
 FLOX.gpm               500.00:  Flow In Max 
 DFT .        Mineral Oil Base:  Mud Type 
 HFLO.                      No:  High Flow 
 HPRE.                      No:  High Pressure 
 HTEM.                      No:  High Temp 
 HYDO.m                   1.80:  Hydro Offset 
 IFIN.deg                25.62:  Inc, Final 
 IMAX.deg                48.69:  Inc Max 
 IMIN.deg                24.01:  Inc Min 
 IMND.m                4962.57:  Inc Min Depth 
 IMXD.m                4119.01:  Inc Max Depth 
 JARR.                      No:  Jarring 
 LETM.      18.40.00 29-Aug-21:  Log End Time 
 LOST.hr                     0:  Lost Rig Time 
 LSTM.      21.00.00 20-Aug-21:  Log Start Time 
 MDCL.ppm             41500.00:  Mud Chlorides 
 MDES.     Inversion Oil/Synthetic:  Mud Desc 
 DFD .sg                  1.56:  Mud Density 
 MDMN.sg                  1.56:  Dens Mud Min 
 MDMX.sg                  1.56:  Dens Mud Max 
 MOIL.                      70:  Run Mud Oil % 
 MOWR.                   70:30:  Run Mud OWR 
 MSND.                     0.2:  Run Mud Sand % 
 MSOL.                    23.3:  Run Mud Solids% 
 DFV .spqt               78.00:  Mud Viscosity 
 MWOD.in                  6.75:  MWD Tool OD 
 MWSI.                      No:  Serv Intrp, MWD 
 OTIM.hr                218.30:  Time Operating 
 PCON.           Look Like New:  Pad Condition 
 PMAX.psia            11015.30:  Press Op, Max 
 PV  .cP                 38.00:  Mud PV 
 RUN .                     300:  Run Number 
 ROPA.m/hr               15.00:  ROP Avg 
 ROPN.m/hr                9.00:  ROP Min 
 ROPX.m/hr               17.00:  ROP Max 
 RPMA.rpm               120.00:  RPM Surface Avg 
 RPMN.rpm                90.00:  RPM Surface Min 
 RPMX.rpm               140.00:  RPM Surface Max 
 RRUN.                     300:  Rig Run Number 
 RTIM.hr                 31.53:  Time Reaming 
 SAZI.deg               331.64:  Azm, Start 
 SDEP.m                4127.00:  Start Depth 
 SIDD.                      No:  Serv Intrp, DD 
 SINC.deg                48.43:  Inc, Start 
 SPPA.psig             5830.00:  SPP Avg 
 SPPN.psig             5600.00:  SPP Min 
 SPPX.psig             5900.00:  SPP Max 
 STIM.      21.00.00 20-Aug-21:  Start Time 
 SVCS.                 DD, MWD:  Services 
 SVER.                    9.20:  Sperry Version 
 TDAT.m                 957.50:  Tot Depth Attmp 
 TDDF.                      No:  Trip for DD 
 TDLG.m                 957.50:  Tot Depth Loggd 
 TFF .                      No:  Trip for Fail 
 TQAA.f-kp               15.00:  Torque Abs Avg 
 TQAN.f-kp               12.00:  Torque Abs Min 
 TQAX.f-kp               19.00:  Torque Abs Max 
 TRRT.°/30m              -3.40:  Turn Rotating 
 MRT .                  EWR-M5:  Maximum Recorded Temperature 
 TTMX.degC              100.00:  Max Tool Temp 
 VS01.                90639251:  Virtual Str1 SN 
 VS02.                90634715:  Virtual Str2 SN 
 VS03.                90652479:  Virtual Str3 SN 
 VS04.                90642262:  Virtual Str4 SN 
 WBMN.klb                 0.00:  WOB Min 
 WITN.           Murad Guliyev:  Customer Rep 
 WITN.          Yashar Gaziyev:  Customer Rep 2 
 WOBA.klb                 9.00:  WOB Avg 
 WOBX.klb                12.00:  WOB Max 
 YP  .lhf2               30.00:  Yield Point 
~Curve Information Block
#MNEM.UNIT                 API CODE     Curve Description
#---------               -----------    ---------------------------
 TIME.HHMMSS            00 000 000 000:  GT Time & Date
 GTDEPTH.m              00 000 000 000:  GT Depth
 GTPQH.psia             00 000 000 000:  GT HR Quartz Pressure
 GTTQ.degC              00 000 000 000:  GT Quartz Temperature
 GTTN.NONE              00 000 000 000:  GT Test Number
 GTET.sec               00 000 000 000:  GT Elapsed Test Time
 GTTVD.m                00 000 000 000:  GT True Vertical Depth
#Other Information
#
#WARRANTY: Halliburton will use its best efforts to furnish customers with 
#accurate information and interpretations that are part of, and incident to, the services 
#provided.  However, Halliburton cannot and does not warrant the accuracy 
#or correctness of such information and interpretations.  Under no circumstances should any 
#such information or interpretation be relied upon as the sole basis for any drilling, 
#completion, production, or financial decision or any procedure involving any risk to the 
#safety of any drilling venture, drilling rig or its crew or any other third party.  The 
#Customer has full responsibility for all drilling, completion and production operation.  
#Halliburton makes no representations or warranties, either expressed or 
#implied, including, but not limited to, the implied warranties of merchantability or fitness 
#for a particular purpose, with respect to the services rendered.  In no event will 
#Halliburton be liable for failure to obtain any particular results or for 
#any damages, including, but not limited to, indirect, special or consequential damages, 
#resulting from the use of any information or interpretation provided by Halliburton.
#
~A           TIME           GTDEPTH  GTPQH  GTTQ  GTTN  GTET   GTTVD  
# ...
   10:13:19.667.27-Aug-2021 4958.50 7889.16 86.02 8.00 390.53 3301.91
   10:13:19.867.27-Aug-2021 4958.50 7889.16 86.02 8.00 390.73 3301.91
   10:13:20.067.27-Aug-2021 4958.50 7888.79 86.02 8.00 390.93 3301.91
   10:13:20.267.27-Aug-2021 4958.50 7888.45 86.02 8.00 391.13 3301.91
   10:13:20.466.27-Aug-2021 4958.50 7888.23 86.02 8.00 391.33 3301.91
   10:13:20.666.27-Aug-2021 4958.50 7893.35 86.02 8.00 391.53 3301.91
   10:13:20.866.27-Aug-2021 4958.50 7893.35 86.02 8.00 391.73 3301.91
   10:13:21.066.27-Aug-2021 4958.50 7888.53 86.02 8.00 391.93 3301.91
   10:13:21.265.27-Aug-2021 4958.50 7887.41 86.02 8.00 392.13 3301.91
   10:13:21.465.27-Aug-2021 4958.50 7887.33 86.02 8.00 392.33 3301.91
   10:13:21.665.27-Aug-2021 4958.50 7889.58 86.02 8.00 392.53 3301.91
   10:13:21.865.27-Aug-2021 4958.50 7889.58 86.02 8.00 392.73 3301.91
   10:13:22.064.27-Aug-2021 4958.50 7889.07 86.02 8.00 392.93 3301.91
   10:13:22.264.27-Aug-2021 4958.50 7887.67 86.02 8.00 393.13 3301.91
   10:13:22.464.27-Aug-2021 4958.50 7887.59 86.02 8.00 393.33 3301.91
   10:13:22.664.27-Aug-2021 4958.50 7888.02 86.02 8.00 393.53 3301.91
   10:13:22.864.27-Aug-2021 4958.50 7888.02 86.02 8.00 393.73 3301.91
   10:13:23.063.27-Aug-2021 4958.50 7894.01 86.02 8.00 393.93 3301.91
   10:13:23.263.27-Aug-2021 4958.50 7885.83 86.02 8.00 394.13 3301.91
   10:13:23.463.27-Aug-2021 4958.50 7889.38 86.02 8.00 394.33 3301.91
   10:13:23.663.27-Aug-2021 4958.50 7888.19 86.02 8.00 394.53 3301.91
   10:13:23.862.27-Aug-2021 4958.50 7888.19 86.02 8.00 394.73 3301.91
   10:13:24.062.27-Aug-2021 4958.50 7890.07 86.02 8.00 394.93 3301.91
   10:13:24.262.27-Aug-2021 4958.50 7888.50 86.02 8.00 395.13 3301.91
   10:13:24.462.27-Aug-2021 4958.50 7887.74 86.02 8.00 395.33 3301.91
   10:13:24.661.27-Aug-2021 4958.50 7886.73 86.02 8.00 395.53 3301.91
   10:13:24.861.27-Aug-2021 4958.50 7886.73 86.02 8.00 395.73 3301.91
   10:13:25.061.27-Aug-2021 4958.50 7887.64 86.02 8.00 395.93 3301.91
   10:13:25.261.27-Aug-2021 4958.50 7887.88 86.02 8.00 396.13 3301.91
   10:13:25.460.27-Aug-2021 4958.50 7888.30 86.02 8.00 396.33 3301.91
   10:13:25.660.27-Aug-2021 4958.50 7888.32 86.02 8.00 396.53 3301.91
   10:13:25.860.27-Aug-2021 4958.50 7888.32 86.02 8.00 396.73 3301.91
   10:13:26.060.27-Aug-2021 4958.50 7889.05 86.02 8.00 396.93 3301.91
   10:13:26.259.27-Aug-2021 4958.50 7889.20 86.02 8.00 397.13 3301.91
   10:13:26.459.27-Aug-2021 4958.50 7888.90 86.02 8.00 397.33 3301.91
   10:13:26.659.27-Aug-2021 4958.50 7889.01 86.02 8.00 397.53 3301.91
   10:13:26.859.27-Aug-2021 4958.50 7889.01 86.02 8.00 397.73 3301.91
   10:13:27.059.27-Aug-2021 4958.50 7893.36 86.02 8.00 397.92 3301.91
   10:13:27.258.27-Aug-2021 4958.50 7887.28 86.02 8.00 398.12 3301.91
   10:13:27.458.27-Aug-2021 4958.50 7888.83 86.02 8.00 398.32 3301.91
   10:13:27.658.27-Aug-2021 4958.50 7887.98 86.02 8.00 398.52 3301.91
   10:13:27.858.27-Aug-2021 4958.50 7887.98 86.02 8.00 398.72 3301.91
   10:13:28.057.27-Aug-2021 4958.50 7887.96 86.02 8.00 398.92 3301.91
   10:13:28.257.27-Aug-2021 4958.50 7887.71 86.02 8.00 399.12 3301.91
   10:13:28.457.27-Aug-2021 4958.50 7887.55 86.02 8.00 399.32 3301.91
   10:13:28.657.27-Aug-2021 4958.50 7887.41 86.02 8.00 399.52 3301.91
   10:13:28.856.27-Aug-2021 4958.50 7887.41 86.02 8.00 399.72 3301.91
   10:13:29.056.27-Aug-2021 4958.50 7888.70 86.02 8.00 399.92 3301.91
   10:13:29.256.27-Aug-2021 4958.50 7888.94 86.02 8.00 400.12 3301.91
   10:13:29.456.27-Aug-2021 4958.50 7889.11 86.02 8.00 400.32 3301.91
   10:13:29.655.27-Aug-2021 4958.50 7888.96 86.02 8.00 400.52 3301.91
   10:13:29.855.27-Aug-2021 4958.50 7888.96 86.02 8.00 400.72 3301.91
   10:13:30.055.27-Aug-2021 4958.50 7888.66 86.02 8.00 400.92 3301.91
   10:13:30.255.27-Aug-2021 4958.50 7888.40 86.02 8.00 401.12 3301.91
   10:13:30.454.27-Aug-2021 4958.50 7893.56 86.02 8.00 401.32 3301.91
   10:13:30.654.27-Aug-2021 4958.50 7887.25 86.02 8.00 401.52 3301.91
   10:13:30.854.27-Aug-2021 4958.50 7887.25 86.02 8.00 401.72 3301.91
   10:13:31.054.27-Aug-2021 4958.50 7889.18 86.02 8.00 401.92 3301.91
   10:13:31.254.27-Aug-2021 4958.50 7888.58 86.02 8.00 402.12 3301.91
   10:13:31.453.27-Aug-2021 4958.50 7890.46 86.02 8.00 402.32 3301.91
   10:13:31.653.27-Aug-2021 4958.50 7889.77 86.02 8.00 402.52 3301.91
   10:13:31.853.27-Aug-2021 4958.50 7889.77 86.02 8.00 402.72 3301.91
   10:13:32.053.27-Aug-2021 4958.50 7888.49 86.02 8.00 402.92 3301.91
   10:13:32.252.27-Aug-2021 4958.50 7888.37 86.02 8.00 403.12 3301.91
   10:13:32.452.27-Aug-2021 4958.50 7888.75 86.02 8.00 403.32 3301.91
   10:13:32.652.27-Aug-2021 4958.50 7889.25 86.02 8.00 403.52 3301.91
   10:13:32.852.27-Aug-2021 4958.50 7889.25 86.02 8.00 403.72 3301.91
   10:13:33.051.27-Aug-2021 4958.50 7887.67 86.02 8.00 403.92 3301.91
   10:13:33.251.27-Aug-2021 4958.50 7889.59 86.02 8.00 404.12 3301.91
   10:13:33.451.27-Aug-2021 4958.50 7888.92 86.02 8.00 404.32 3301.91
   10:13:33.651.27-Aug-2021 4958.50 7894.07 86.02 8.00 404.52 3301.91
   10:13:33.850.27-Aug-2021 4958.50 7894.07 86.02 8.00 404.72 3301.91
   10:13:34.050.27-Aug-2021 4958.50 7888.32 86.02 8.00 404.92 3301.91
   10:13:34.250.27-Aug-2021 4958.50 7888.06 86.02 8.00 405.12 3301.91
   10:13:34.450.27-Aug-2021 4958.50 7887.55 86.02 8.00 405.32 3301.91
   10:13:34.649.27-Aug-2021 4958.50 7887.51 86.02 8.00 405.52 3301.91
   10:13:34.849.27-Aug-2021 4958.50 7887.51 86.02 8.00 405.72 3301.91
   10:13:35.049.27-Aug-2021 4958.50 7888.49 86.02 8.00 405.92 3301.91
   10:13:35.249.27-Aug-2021 4958.50 7888.45 86.02 8.00 406.12 3301.91
   10:13:35.449.27-Aug-2021 4958.50 7888.52 86.02 8.00 406.31 3301.91
   10:13:35.648.27-Aug-2021 4958.50 7889.16 86.02 8.00 406.51 3301.91
   10:13:35.848.27-Aug-2021 4958.50 7889.16 86.02 8.00 406.71 3301.91
   10:13:36.048.27-Aug-2021 4958.50 7889.79 86.02 8.00 406.91 3301.91
   10:13:36.248.27-Aug-2021 4958.50 7889.57 86.02 8.00 407.11 3301.91
   10:13:36.447.27-Aug-2021 4958.50 7889.32 86.02 8.00 407.31 3301.91
   10:13:36.647.27-Aug-2021 4958.50 7889.05 86.02 8.00 407.51 3301.91
   10:13:36.847.27-Aug-2021 4958.50 7889.05 86.02 8.00 407.71 3301.91
   10:13:37.047.27-Aug-2021 4958.50 7886.69 86.02 8.00 407.91 3301.91
   10:13:37.246.27-Aug-2021 4958.50 7890.10 86.02 8.00 408.11 3301.91
   10:13:37.446.27-Aug-2021 4958.50 7888.68 86.02 8.00 408.31 3301.91
   10:13:37.646.27-Aug-2021 4958.50 7888.31 86.02 8.00 408.51 3301.91
   10:13:37.846.27-Aug-2021 4958.50 7888.31 86.02 8.00 408.71 3301.91
   10:13:38.045.27-Aug-2021 4958.50 7888.46 86.02 8.00 408.91 3301.91
   10:13:38.245.27-Aug-2021 4958.50 7888.22 86.02 8.00 409.11 3301.91
   10:13:38.445.27-Aug-2021 4958.50 7887.99 86.02 8.00 409.31 3301.91
   10:13:38.645.27-Aug-2021 4958.50 7888.48 86.02 8.00 409.51 3301.91
   10:13:38.844.27-Aug-2021 4958.50 7888.48 86.02 8.00 409.71 3301.91
   10:13:39.044.27-Aug-2021 4958.50 7889.74 86.02 8.00 409.91 3301.91
   10:13:39.244.27-Aug-2021 4958.50 7889.92 86.02 8.00 410.11 3301.91
   10:13:39.444.27-Aug-2021 4958.50 7889.73 86.02 8.00 410.31 3301.91
   10:13:39.644.27-Aug-2021 4958.50 7889.43 86.02 8.00 410.51 3301.91
   10:13:39.843.27-Aug-2021 4958.50 7889.43 86.02 8.00 410.71 3301.91
   10:13:40.043.27-Aug-2021 4958.50 7888.99 86.02 8.00 410.91 3301.91
   10:13:40.243.27-Aug-2021 4958.50 7894.25 86.02 8.00 411.11 3301.91
   10:13:40.443.27-Aug-2021 4958.50 7886.97 86.02 8.00 411.31 3301.91
   10:13:40.642.27-Aug-2021 4958.50 7889.96 86.02 8.00 411.51 3301.91
   10:13:40.842.27-Aug-2021 4958.50 7889.96 86.02 8.00 411.71 3301.91
   10:13:41.042.27-Aug-2021 4958.50 7888.17 86.02 8.00 411.91 3301.91
   10:13:41.242.27-Aug-2021 4958.50 7888.17 86.02 8.00 412.11 3301.91
   10:13:41.441.27-Aug-2021 4958.50 7890.01 86.02 8.00 412.31 3301.91
   10:13:41.641.27-Aug-2021 4958.50 7889.95 86.02 8.00 412.51 3301.91
   10:13:41.841.27-Aug-2021 4958.50 7889.95 86.02 8.00 412.71 3301.91
   10:13:42.041.27-Aug-2021 4958.50 7888.77 86.02 8.00 412.91 3301.91
   10:13:42.240.27-Aug-2021 4958.50 7889.28 86.02 8.00 413.11 3301.91
   10:13:42.440.27-Aug-2021 4958.50 7889.26 86.02 8.00 413.31 3301.91
