~Version Information
 VERS.                  2.0:   CWLS log ASCII Standard -VERSION 2.0
 WRAP.                   NO:   One line per depth step
~Well Information Block
#MNEM.UNIT     VALUE/NAME     DESCRIPTION
#---------     -----------    ---------------------------
 STRT.S             04:10:22 28-Aug-21: START TIME 04:10:22 28-Aug-21
 STOP.S             04:17:14 28-Aug-21: STOP TIME  04:17:14 28-Aug-21
 STEP.S                   0.00: STEP TIME
 NULL.                 -999.25: NULL VALUE
 DFWT.                        :  DIST FWL TEXT
 DFST.                        :  DIST FSL TEXT
 DMF .             Drill Floor:  DRILL MEAS FROM
 STIM.      20.00.00 17-Aug-21:  START TIME
 DATE.      19.00.00 29-Aug-21:  END TIME
 SPUD.               15-Aug-21:  SPUD DATE
 NREF.                    Grid:  NORTH REFERENCE
 HPTY.       Minimum Curvature:  HOLE POS TYPE
 DMOD.             Drill Model:  DRILL MOD DESC
 SVYD.                  Survey:  SURVEY DESC
 ILTD.               Lithology:  INTERP LTH DESC
 FTOP.          Formation Tops:  FORM TOPS DESC
 RIG .              East Azeri:  RIG NAME
 PDAT.          Mean Sea Level:  PERMANENT DATUM
 FLD .                     ACG:  FIELD NAME
 SON .        AZ-XX-0907180857:  JOB NUMBER
 CTRY.              Azerbaijan:  COUNTRY NAME
 WELL.                    D23x:  WELL NAME
 SRVC.     Turan Drilling and Engineering:  CONTRACTOR
 COMP.     BP Exploration (Caspian Sea) Ltd.:  COMPANY
 UWI .            /AZE00000214:  UNIQUE WELL IDENTIFIER
 API .            /AZE00000214:  API NUMBER
 MDS .        Operator Entered:  MAG DATA SOURCE
 BASE.              Azerbaijan:  LOGGING EQUIPMENT BASE LOCATION
 REGN.                   EESSA:  REGION
 PROV.                    Baku:  PROVINCE
 STAT.                    Baku:  STATE NAME
 MWDS.                    Baku:  MWD SHOP
 DOE .                     N/A:  DOE NUMBER
 DCON.         Sperry Drilling:  DIRECTNL CONTR
 UNIT.                     N/A:  LOGGING EQUIPMENT ID
 WTYP.                Deviated:  WELL TYPE
 CNTY.                        :  COUNTY
 LOC .                        :  LOCATION
 LMF .             Drill Floor:  LOG MEASURED FROM
 TVDS.m                  43.60:  TVDSS CORRECTN
 LATI.deg                40.02:  LATITUDE
 LONG.deg                51.45:  LONGITUDE
 WHNS.m                  -7.04:  WELL HEAD N/S
 WHEW.m                  -0.67:  WELL HEAD E/W
 UTMX.m              538762.90:  UTM X
 UTMY.m             4431871.34:  UTM Y
 DFWL.m                   0.00:  DISTANCE FWL
 DFSL.m                   0.00:  DISTANCE FSL
 SDEP.m                4127.00:  START DEPTH
 TDD .m                5084.50:  TOTAL DEPTH (DRILLER)
 VSDR.deg               140.47:  VERT SEC DIRECT
 GVFD.g                   1.00:  GRAVITY FIELD
 MFLD.nT              50362.00:  MAGNETIC FIELD
 MDIP.deg                59.48:  MAGNETIC DIP
 MDEC.deg                 6.47:  MAGNETIC DECL
 GRDC.deg                 0.31:  GRID CORRECTION
 AZTC.deg                 6.16:  AZM TOTAL CORR
 EPD .m                   0.00:  ELEVATION
 EGL .m                   0.00:  GROUND ELEVATION
 WDMS.m                 151.80:  WD ELEV
 APD .m                  43.60:  DEPTH ABOVE PD
 DEP .m                4092.57:  DEPTH
 AGAP.m                  43.60:  AIR GAP
 VSEW.m                  -0.67:  VERT SEC E/W
 VSNS.m                  -7.04:  VERT SEC N/S
 EKB .m                  43.60:  KB ELEVATION
 EDF .m                  43.60:  DF ELEVATION
 TDL .m                 957.50:  TOTAL DEPTH (LOGGER)
 VSC .                       0:  VS TO CLOSURE
 MAGU.                 1851413:  MAGUTM CHECKSUM
~Parameter Information Block
#MNEM.UNIT       Value        Description
#---------     -----------    ---------------------------
 AV  .mps                 1.50:  Ann Velocity 
 AVMX.mps                 2.00:  Max Ann Veloc 
 AZIF.deg               184.66:  Azm, Final 
 BHAT.        Rotary Steerable:  BHA Type 
 BREV.rev               300.00:  Rev Bit Total 
 BROT.°/30m              -0.50:  Build Rotating 
 BS  .in                  8.50:  Bit Size 
 BSZ .in                  8.50:  Bit Size 
 BTPL.psig              370.00:  Bit Press Loss 
 CABU.                      No:  Customer Abuse 
 CGEO.      Behruz Shahbaliyev:  Customer Geo 
 COMM.                     LÁp:  Run Comments 1 
 TCS .hr                140.08:  Time Ciculation Ended 
 CV  .mps                 3.00:  Crit Velocity 
 CVMX.mps                 3.20:  Max Crit Veloc 
 DD1 .            Musa Ahmadov:  Direct Drillr 1 
 DD2 .           Hamid Ahmadov:  Direct Drillr 2 
 DDSV.               Geo-Pilot:  DD Service 
 DEFF.%                  98.40:  % Det Eff 
 DLRX.°/30m               3.40:  Dogleg Rot Max 
 DLSO.°/30m               1.45:  Dogleg Oriented 
 DLSX.°/30m               3.40:  Dogleg Str Max 
 DRET.      18.40.00 29-Aug-21:  Drill End Time 
 DRST.      21.00.00 20-Aug-21:  Drill Start Tim 
 DTIM.hr                 69.47:  Time Drilling 
 EDEP.m                5084.50:  End Depth 
 ENG1.      Artemiy Matviyanov:  Engineer 1 
 ENG2.         Almaz Almadatov:  Engineer 2 
 ETIM.      18.40.00 29-Aug-21:  End Time 
 FLOI.gpm               500.00:  Flow In 
 FLON.gpm               400.00:  Flow In Min 
 FLOS.cptm                0.00:  Fluid Loss 
 FLOX.gpm               500.00:  Flow In Max 
 DFT .        Mineral Oil Base:  Mud Type 
 HFLO.                      No:  High Flow 
 HPRE.                      No:  High Pressure 
 HTEM.                      No:  High Temp 
 HYDO.m                   1.80:  Hydro Offset 
 IFIN.deg                25.62:  Inc, Final 
 IMAX.deg                48.69:  Inc Max 
 IMIN.deg                24.01:  Inc Min 
 IMND.m                4962.57:  Inc Min Depth 
 IMXD.m                4119.01:  Inc Max Depth 
 JARR.                      No:  Jarring 
 LETM.      18.40.00 29-Aug-21:  Log End Time 
 LOST.hr                     0:  Lost Rig Time 
 LSTM.      21.00.00 20-Aug-21:  Log Start Time 
 MDCL.ppm             41500.00:  Mud Chlorides 
 MDES.     Inversion Oil/Synthetic:  Mud Desc 
 DFD .sg                  1.56:  Mud Density 
 MDMN.sg                  1.56:  Dens Mud Min 
 MDMX.sg                  1.56:  Dens Mud Max 
 MOIL.                      70:  Run Mud Oil % 
 MOWR.                   70:30:  Run Mud OWR 
 MSND.                     0.2:  Run Mud Sand % 
 MSOL.                    23.3:  Run Mud Solids% 
 DFV .spqt               78.00:  Mud Viscosity 
 MWOD.in                  6.75:  MWD Tool OD 
 MWSI.                      No:  Serv Intrp, MWD 
 OTIM.hr                218.30:  Time Operating 
 PCON.           Look Like New:  Pad Condition 
 PMAX.psia            11015.30:  Press Op, Max 
 PV  .cP                 38.00:  Mud PV 
 RUN .                     300:  Run Number 
 ROPA.m/hr               15.00:  ROP Avg 
 ROPN.m/hr                9.00:  ROP Min 
 ROPX.m/hr               17.00:  ROP Max 
 RPMA.rpm               120.00:  RPM Surface Avg 
 RPMN.rpm                90.00:  RPM Surface Min 
 RPMX.rpm               140.00:  RPM Surface Max 
 RRUN.                     300:  Rig Run Number 
 RTIM.hr                 31.53:  Time Reaming 
 SAZI.deg               331.64:  Azm, Start 
 SDEP.m                4127.00:  Start Depth 
 SIDD.                      No:  Serv Intrp, DD 
 SINC.deg                48.43:  Inc, Start 
 SPPA.psig             5830.00:  SPP Avg 
 SPPN.psig             5600.00:  SPP Min 
 SPPX.psig             5900.00:  SPP Max 
 STIM.      21.00.00 20-Aug-21:  Start Time 
 SVCS.                 DD, MWD:  Services 
 SVER.                    9.20:  Sperry Version 
 TDAT.m                 957.50:  Tot Depth Attmp 
 TDDF.                      No:  Trip for DD 
 TDLG.m                 957.50:  Tot Depth Loggd 
 TFF .                      No:  Trip for Fail 
 TQAA.f-kp               15.00:  Torque Abs Avg 
 TQAN.f-kp               12.00:  Torque Abs Min 
 TQAX.f-kp               19.00:  Torque Abs Max 
 TRRT.°/30m              -3.40:  Turn Rotating 
 MRT .                  EWR-M5:  Maximum Recorded Temperature 
 TTMX.degC              100.00:  Max Tool Temp 
 VS01.                90639251:  Virtual Str1 SN 
 VS02.                90634715:  Virtual Str2 SN 
 VS03.                90652479:  Virtual Str3 SN 
 VS04.                90642262:  Virtual Str4 SN 
 WBMN.klb                 0.00:  WOB Min 
 WITN.           Murad Guliyev:  Customer Rep 
 WITN.          Yashar Gaziyev:  Customer Rep 2 
 WOBA.klb                 9.00:  WOB Avg 
 WOBX.klb                12.00:  WOB Max 
 YP  .lhf2               30.00:  Yield Point 
~Curve Information Block
#MNEM.UNIT                 API CODE     Curve Description
#---------               -----------    ---------------------------
 TIME.HHMMSS            00 000 000 000:  GT Time & Date
 GTDEPTH.m              00 000 000 000:  GT Depth
 GTPQH.psia             00 000 000 000:  GT HR Quartz Pressure
 GTTQ.degC              00 000 000 000:  GT Quartz Temperature
 GTTN.NONE              00 000 000 000:  GT Test Number
 GTET.sec               00 000 000 000:  GT Elapsed Test Time
 GTTVD.m                00 000 000 000:  GT True Vertical Depth
#Other Information
#
#WARRANTY: Halliburton will use its best efforts to furnish customers with 
#accurate information and interpretations that are part of, and incident to, the services 
#provided.  However, Halliburton cannot and does not warrant the accuracy 
#or correctness of such information and interpretations.  Under no circumstances should any 
#such information or interpretation be relied upon as the sole basis for any drilling, 
#completion, production, or financial decision or any procedure involving any risk to the 
#safety of any drilling venture, drilling rig or its crew or any other third party.  The 
#Customer has full responsibility for all drilling, completion and production operation.  
#Halliburton makes no representations or warranties, either expressed or 
#implied, including, but not limited to, the implied warranties of merchantability or fitness 
#for a particular purpose, with respect to the services rendered.  In no event will 
#Halliburton be liable for failure to obtain any particular results or for 
#any damages, including, but not limited to, indirect, special or consequential damages, 
#resulting from the use of any information or interpretation provided by Halliburton.
#
~A           TIME           GTDEPTH  GTPQH  GTTQ  GTTN   GTET   GTTVD  
# ...
   04:13:46.507.28-Aug-2021 4978.00 7975.52 80.44 29.00 203.69 3319.69
   04:13:46.707.28-Aug-2021 4978.00 7972.63 80.44 29.00 203.89 3319.69
   04:13:46.908.28-Aug-2021 4978.00 7972.04 80.44 29.00 204.09 3319.69
   04:13:47.108.28-Aug-2021 4978.00 7971.62 80.44 29.00 204.29 3319.69
   04:13:47.308.28-Aug-2021 4978.00 7971.62 80.44 29.00 204.49 3319.69
   04:13:47.508.28-Aug-2021 4978.00 7972.16 80.44 29.00 204.69 3319.69
   04:13:47.709.28-Aug-2021 4978.00 7972.09 80.44 29.00 204.89 3319.69
   04:13:47.909.28-Aug-2021 4978.00 7971.75 80.44 29.00 205.09 3319.69
   04:13:48.109.28-Aug-2021 4978.00 7971.55 80.44 29.00 205.29 3319.69
   04:13:48.310.28-Aug-2021 4978.00 7971.55 80.44 29.00 205.49 3319.69
   04:13:48.510.28-Aug-2021 4978.00 7972.57 80.44 29.00 205.69 3319.69
   04:13:48.710.28-Aug-2021 4978.00 7972.72 80.44 29.00 205.89 3319.69
   04:13:48.910.28-Aug-2021 4978.00 7972.50 80.44 29.00 206.09 3319.69
   04:13:49.111.28-Aug-2021 4978.00 7972.49 80.44 29.00 206.29 3319.69
   04:13:49.311.28-Aug-2021 4978.00 7972.49 80.44 29.00 206.49 3319.69
   04:13:49.511.28-Aug-2021 4978.00 7972.21 80.44 29.00 206.69 3319.69
   04:13:49.712.28-Aug-2021 4978.00 7978.08 80.44 29.00 206.89 3319.69
   04:13:49.912.28-Aug-2021 4978.00 7970.52 80.44 29.00 207.09 3319.69
   04:13:50.112.28-Aug-2021 4978.00 7972.13 80.44 29.00 207.29 3319.69
   04:13:50.312.28-Aug-2021 4978.00 7972.13 80.44 29.00 207.49 3319.69
   04:13:50.513.28-Aug-2021 4978.00 7971.87 80.44 29.00 207.69 3319.69
   04:13:50.713.28-Aug-2021 4978.00 7971.86 80.44 29.00 207.89 3319.69
   04:13:50.913.28-Aug-2021 4978.00 7971.65 80.44 29.00 208.09 3319.69
   04:13:51.114.28-Aug-2021 4978.00 7971.24 80.44 29.00 208.29 3319.69
   04:13:51.314.28-Aug-2021 4978.00 7971.24 80.44 29.00 208.49 3319.69
   04:13:51.514.28-Aug-2021 4978.00 7971.34 80.44 29.00 208.69 3319.69
   04:13:51.714.28-Aug-2021 4978.00 7972.35 80.44 29.00 208.89 3319.69
   04:13:51.915.28-Aug-2021 4978.00 7972.62 80.44 29.00 209.09 3319.69
   04:13:52.115.28-Aug-2021 4978.00 7972.59 80.44 29.00 209.29 3319.69
   04:13:52.315.28-Aug-2021 4978.00 7972.59 80.44 29.00 209.49 3319.69
   04:13:52.515.28-Aug-2021 4978.00 7972.27 80.44 29.00 209.69 3319.69
   04:13:52.716.28-Aug-2021 4978.00 7972.18 80.44 29.00 209.90 3319.69
   04:13:52.916.28-Aug-2021 4978.00 7972.17 80.44 29.00 210.10 3319.69
   04:13:53.116.28-Aug-2021 4978.00 7975.44 80.44 29.00 210.30 3319.69
   04:13:53.317.28-Aug-2021 4978.00 7975.44 80.44 29.00 210.50 3319.69
   04:13:53.517.28-Aug-2021 4978.00 7972.80 80.44 29.00 210.70 3319.69
   04:13:53.717.28-Aug-2021 4978.00 7971.53 80.44 29.00 210.90 3319.69
   04:13:53.917.28-Aug-2021 4978.00 7971.72 80.44 29.00 211.10 3319.69
   04:13:54.118.28-Aug-2021 4978.00 7975.85 80.44 29.00 211.30 3319.69
   04:13:54.318.28-Aug-2021 4978.00 7975.85 80.44 29.00 211.50 3319.69
   04:13:54.518.28-Aug-2021 4978.00 7971.18 80.44 29.00 211.70 3319.69
   04:13:54.719.28-Aug-2021 4978.00 7970.94 80.44 29.00 211.90 3319.69
   04:13:54.919.28-Aug-2021 4978.00 7975.49 80.44 29.00 212.10 3319.69
   04:13:55.119.28-Aug-2021 4978.00 7972.66 80.44 29.00 212.30 3319.69
   04:13:55.319.28-Aug-2021 4978.00 7972.66 80.44 29.00 212.50 3319.69
   04:13:55.520.28-Aug-2021 4978.00 7971.91 80.44 29.00 212.70 3319.69
   04:13:55.720.28-Aug-2021 4978.00 7974.73 80.44 29.00 212.90 3319.69
   04:13:55.920.28-Aug-2021 4978.00 7972.06 80.44 29.00 213.10 3319.69
   04:13:56.121.28-Aug-2021 4978.00 7973.34 80.44 29.00 213.30 3319.69
   04:13:56.321.28-Aug-2021 4978.00 7973.34 80.44 29.00 213.50 3319.69
   04:13:56.521.28-Aug-2021 4978.00 7971.79 80.44 29.00 213.70 3319.69
   04:13:56.721.28-Aug-2021 4978.00 7971.53 80.44 29.00 213.90 3319.69
   04:13:56.922.28-Aug-2021 4978.00 7972.36 80.44 29.00 214.10 3319.69
   04:13:57.122.28-Aug-2021 4978.00 7971.77 80.44 29.00 214.30 3319.69
   04:13:57.322.28-Aug-2021 4978.00 7971.77 80.44 29.00 214.50 3319.69
   04:13:57.523.28-Aug-2021 4978.00 7971.60 80.44 29.00 214.70 3319.69
   04:13:57.723.28-Aug-2021 4978.00 7972.15 80.44 29.00 214.90 3319.69
   04:13:57.923.28-Aug-2021 4978.00 7972.43 80.44 29.00 215.10 3319.69
   04:13:58.123.28-Aug-2021 4978.00 7972.43 80.44 29.00 215.30 3319.69
   04:13:58.324.28-Aug-2021 4978.00 7972.43 80.44 29.00 215.50 3319.69
   04:13:58.524.28-Aug-2021 4978.00 7972.12 80.44 29.00 215.70 3319.69
   04:13:58.724.28-Aug-2021 4978.00 7971.96 80.44 29.00 215.90 3319.69
   04:13:58.924.28-Aug-2021 4978.00 7971.96 80.44 29.00 216.10 3319.69
   04:13:59.125.28-Aug-2021 4978.00 7975.45 80.44 29.00 216.30 3319.69
   04:13:59.325.28-Aug-2021 4978.00 7975.45 80.44 29.00 216.50 3319.69
   04:13:59.525.28-Aug-2021 4978.00 7971.91 80.44 29.00 216.70 3319.69
   04:13:59.726.28-Aug-2021 4978.00 7971.60 80.44 29.00 216.90 3319.69
   04:13:59.926.28-Aug-2021 4978.00 7971.54 80.44 29.00 217.11 3319.69
   04:14:00.126.28-Aug-2021 4978.00 7971.67 80.44 29.00 217.31 3319.69
   04:14:00.326.28-Aug-2021 4978.00 7971.67 80.44 29.00 217.51 3319.69
   04:14:00.527.28-Aug-2021 4978.00 7971.06 80.44 29.00 217.71 3319.69
   04:14:00.727.28-Aug-2021 4978.00 7971.43 80.44 29.00 217.91 3319.69
   04:14:00.927.28-Aug-2021 4978.00 7971.84 80.44 29.00 218.11 3319.69
   04:14:01.128.28-Aug-2021 4978.00 7972.66 80.44 29.00 218.31 3319.69
   04:14:01.328.28-Aug-2021 4978.00 7972.66 80.44 29.00 218.51 3319.69
   04:14:01.528.28-Aug-2021 4978.00 7972.59 80.44 29.00 218.71 3319.69
   04:14:01.728.28-Aug-2021 4978.00 7972.49 80.44 29.00 218.91 3319.69
   04:14:01.929.28-Aug-2021 4978.00 7972.43 80.44 29.00 219.11 3319.69
   04:14:02.129.28-Aug-2021 4978.00 7972.53 80.44 29.00 219.31 3319.69
   04:14:02.329.28-Aug-2021 4978.00 7972.53 80.44 29.00 219.51 3319.69
   04:14:02.530.28-Aug-2021 4978.00 7976.33 80.44 29.00 219.71 3319.69
   04:14:02.730.28-Aug-2021 4978.00 7972.34 80.44 29.00 219.91 3319.69
   04:14:02.930.28-Aug-2021 4978.00 7971.89 80.44 29.00 220.11 3319.69
   04:14:03.130.28-Aug-2021 4978.00 7971.75 80.44 29.00 220.31 3319.69
   04:14:03.331.28-Aug-2021 4978.00 7971.75 80.44 29.00 220.51 3319.69
   04:14:03.531.28-Aug-2021 4978.00 7972.60 80.44 29.00 220.71 3319.69
   04:14:03.731.28-Aug-2021 4978.00 7972.72 80.44 29.00 220.91 3319.69
   04:14:03.932.28-Aug-2021 4978.00 7971.19 80.44 29.00 221.11 3319.69
   04:14:04.132.28-Aug-2021 4978.00 7974.64 80.44 29.00 221.31 3319.69
   04:14:04.332.28-Aug-2021 4978.00 7974.64 80.44 29.00 221.51 3319.69
   04:14:04.532.28-Aug-2021 4978.00 7973.46 80.44 29.00 221.71 3319.69
   04:14:04.733.28-Aug-2021 4978.00 7971.79 80.44 29.00 221.91 3319.69
   04:14:04.933.28-Aug-2021 4978.00 7971.33 80.44 29.00 222.11 3319.69
   04:14:05.133.28-Aug-2021 4978.00 7975.62 80.44 29.00 222.31 3319.69
   04:14:05.333.28-Aug-2021 4978.00 7975.62 80.44 29.00 222.51 3319.69
   04:14:05.534.28-Aug-2021 4978.00 7972.08 80.44 29.00 222.71 3319.69
   04:14:05.734.28-Aug-2021 4978.00 7971.74 80.44 29.00 222.91 3319.69
   04:14:05.934.28-Aug-2021 4978.00 7971.76 80.44 29.00 223.11 3319.69
   04:14:06.135.28-Aug-2021 4978.00 7972.28 80.44 29.00 223.31 3319.69
   04:14:06.335.28-Aug-2021 4978.00 7972.28 80.44 29.00 223.51 3319.69
   04:14:06.535.28-Aug-2021 4978.00 7971.99 80.44 29.00 223.71 3319.69
   04:14:06.735.28-Aug-2021 4978.00 7971.53 80.44 29.00 223.91 3319.69
   04:14:06.936.28-Aug-2021 4978.00 7971.75 80.44 29.00 224.11 3319.69
   04:14:07.136.28-Aug-2021 4978.00 7972.60 80.44 29.00 224.32 3319.69
   04:14:07.336.28-Aug-2021 4978.00 7972.60 80.44 29.00 224.52 3319.69
   04:14:07.537.28-Aug-2021 4978.00 7972.43 80.44 29.00 224.72 3319.69
   04:14:07.737.28-Aug-2021 4978.00 7972.32 80.44 29.00 224.92 3319.69
   04:14:07.937.28-Aug-2021 4978.00 7972.18 80.44 29.00 225.12 3319.69
   04:14:08.137.28-Aug-2021 4978.00 7972.05 80.44 29.00 225.32 3319.69
   04:14:08.338.28-Aug-2021 4978.00 7972.05 80.44 29.00 225.52 3319.69
   04:14:08.538.28-Aug-2021 4978.00 7970.39 80.44 29.00 225.72 3319.69
   04:14:08.738.28-Aug-2021 4978.00 7972.29 80.44 29.00 225.92 3319.69
   04:14:08.939.28-Aug-2021 4978.00 7971.83 80.44 29.00 226.12 3319.69
