~Version Information
 VERS.                  2.0:   CWLS log ASCII Standard -VERSION 2.0
 WRAP.                   NO:   One line per depth step
~Well Information Block
#MNEM.UNIT     VALUE/NAME     DESCRIPTION
#---------     -----------    ---------------------------
 STRT.S             23:43:00 27-Aug-21: START TIME 23:43:00 27-Aug-21
 STOP.S             23:50:14 27-Aug-21: STOP TIME  23:50:14 27-Aug-21
 STEP.S                   0.00: STEP TIME
 NULL.                 -999.25: NULL VALUE
 DFWT.                        :  DIST FWL TEXT
 DFST.                        :  DIST FSL TEXT
 DMF .             Drill Floor:  DRILL MEAS FROM
 STIM.      20.00.00 17-Aug-21:  START TIME
 DATE.      19.00.00 29-Aug-21:  END TIME
 SPUD.               15-Aug-21:  SPUD DATE
 NREF.                    Grid:  NORTH REFERENCE
 HPTY.       Minimum Curvature:  HOLE POS TYPE
 DMOD.             Drill Model:  DRILL MOD DESC
 SVYD.                  Survey:  SURVEY DESC
 ILTD.               Lithology:  INTERP LTH DESC
 FTOP.          Formation Tops:  FORM TOPS DESC
 RIG .              East Azeri:  RIG NAME
 PDAT.          Mean Sea Level:  PERMANENT DATUM
 FLD .                     ACG:  FIELD NAME
 SON .        AZ-XX-0907180857:  JOB NUMBER
 CTRY.              Azerbaijan:  COUNTRY NAME
 WELL.                    D23x:  WELL NAME
 SRVC.     Turan Drilling and Engineering:  CONTRACTOR
 COMP.     BP Exploration (Caspian Sea) Ltd.:  COMPANY
 UWI .            /AZE00000214:  UNIQUE WELL IDENTIFIER
 API .            /AZE00000214:  API NUMBER
 MDS .        Operator Entered:  MAG DATA SOURCE
 BASE.              Azerbaijan:  LOGGING EQUIPMENT BASE LOCATION
 REGN.                   EESSA:  REGION
 PROV.                    Baku:  PROVINCE
 STAT.                    Baku:  STATE NAME
 MWDS.                    Baku:  MWD SHOP
 DOE .                     N/A:  DOE NUMBER
 DCON.         Sperry Drilling:  DIRECTNL CONTR
 UNIT.                     N/A:  LOGGING EQUIPMENT ID
 WTYP.                Deviated:  WELL TYPE
 CNTY.                        :  COUNTY
 LOC .                        :  LOCATION
 LMF .             Drill Floor:  LOG MEASURED FROM
 TVDS.m                  43.60:  TVDSS CORRECTN
 LATI.deg                40.02:  LATITUDE
 LONG.deg                51.45:  LONGITUDE
 WHNS.m                  -7.04:  WELL HEAD N/S
 WHEW.m                  -0.67:  WELL HEAD E/W
 UTMX.m              538762.90:  UTM X
 UTMY.m             4431871.34:  UTM Y
 DFWL.m                   0.00:  DISTANCE FWL
 DFSL.m                   0.00:  DISTANCE FSL
 SDEP.m                4127.00:  START DEPTH
 TDD .m                5084.50:  TOTAL DEPTH (DRILLER)
 VSDR.deg               140.47:  VERT SEC DIRECT
 GVFD.g                   1.00:  GRAVITY FIELD
 MFLD.nT              50362.00:  MAGNETIC FIELD
 MDIP.deg                59.48:  MAGNETIC DIP
 MDEC.deg                 6.47:  MAGNETIC DECL
 GRDC.deg                 0.31:  GRID CORRECTION
 AZTC.deg                 6.16:  AZM TOTAL CORR
 EPD .m                   0.00:  ELEVATION
 EGL .m                   0.00:  GROUND ELEVATION
 WDMS.m                 151.80:  WD ELEV
 APD .m                  43.60:  DEPTH ABOVE PD
 DEP .m                4092.57:  DEPTH
 AGAP.m                  43.60:  AIR GAP
 VSEW.m                  -0.67:  VERT SEC E/W
 VSNS.m                  -7.04:  VERT SEC N/S
 EKB .m                  43.60:  KB ELEVATION
 EDF .m                  43.60:  DF ELEVATION
 TDL .m                 957.50:  TOTAL DEPTH (LOGGER)
 VSC .                       0:  VS TO CLOSURE
 MAGU.                 1851413:  MAGUTM CHECKSUM
~Parameter Information Block
#MNEM.UNIT       Value        Description
#---------     -----------    ---------------------------
 AV  .mps                 1.50:  Ann Velocity 
 AVMX.mps                 2.00:  Max Ann Veloc 
 AZIF.deg               184.66:  Azm, Final 
 BHAT.        Rotary Steerable:  BHA Type 
 BREV.rev               300.00:  Rev Bit Total 
 BROT.°/30m              -0.50:  Build Rotating 
 BS  .in                  8.50:  Bit Size 
 BSZ .in                  8.50:  Bit Size 
 BTPL.psig              370.00:  Bit Press Loss 
 CABU.                      No:  Customer Abuse 
 CGEO.      Behruz Shahbaliyev:  Customer Geo 
 COMM.                     Ì™‡:  Run Comments 1 
 TCS .hr                140.08:  Time Ciculation Ended 
 CV  .mps                 3.00:  Crit Velocity 
 CVMX.mps                 3.20:  Max Crit Veloc 
 DD1 .            Musa Ahmadov:  Direct Drillr 1 
 DD2 .           Hamid Ahmadov:  Direct Drillr 2 
 DDSV.               Geo-Pilot:  DD Service 
 DEFF.%                  98.40:  % Det Eff 
 DLRX.°/30m               3.40:  Dogleg Rot Max 
 DLSO.°/30m               1.45:  Dogleg Oriented 
 DLSX.°/30m               3.40:  Dogleg Str Max 
 DRET.      18.40.00 29-Aug-21:  Drill End Time 
 DRST.      21.00.00 20-Aug-21:  Drill Start Tim 
 DTIM.hr                 69.47:  Time Drilling 
 EDEP.m                5084.50:  End Depth 
 ENG1.      Artemiy Matviyanov:  Engineer 1 
 ENG2.         Almaz Almadatov:  Engineer 2 
 ETIM.      18.40.00 29-Aug-21:  End Time 
 FLOI.gpm               500.00:  Flow In 
 FLON.gpm               400.00:  Flow In Min 
 FLOS.cptm                0.00:  Fluid Loss 
 FLOX.gpm               500.00:  Flow In Max 
 DFT .        Mineral Oil Base:  Mud Type 
 HFLO.                      No:  High Flow 
 HPRE.                      No:  High Pressure 
 HTEM.                      No:  High Temp 
 HYDO.m                   1.80:  Hydro Offset 
 IFIN.deg                25.62:  Inc, Final 
 IMAX.deg                48.69:  Inc Max 
 IMIN.deg                24.01:  Inc Min 
 IMND.m                4962.57:  Inc Min Depth 
 IMXD.m                4119.01:  Inc Max Depth 
 JARR.                      No:  Jarring 
 LETM.      18.40.00 29-Aug-21:  Log End Time 
 LOST.hr                     0:  Lost Rig Time 
 LSTM.      21.00.00 20-Aug-21:  Log Start Time 
 MDCL.ppm             41500.00:  Mud Chlorides 
 MDES.     Inversion Oil/Synthetic:  Mud Desc 
 DFD .sg                  1.56:  Mud Density 
 MDMN.sg                  1.56:  Dens Mud Min 
 MDMX.sg                  1.56:  Dens Mud Max 
 MOIL.                      70:  Run Mud Oil % 
 MOWR.                   70:30:  Run Mud OWR 
 MSND.                     0.2:  Run Mud Sand % 
 MSOL.                    23.3:  Run Mud Solids% 
 DFV .spqt               78.00:  Mud Viscosity 
 MWOD.in                  6.75:  MWD Tool OD 
 MWSI.                      No:  Serv Intrp, MWD 
 OTIM.hr                218.30:  Time Operating 
 PCON.           Look Like New:  Pad Condition 
 PMAX.psia            11015.30:  Press Op, Max 
 PV  .cP                 38.00:  Mud PV 
 RUN .                     300:  Run Number 
 ROPA.m/hr               15.00:  ROP Avg 
 ROPN.m/hr                9.00:  ROP Min 
 ROPX.m/hr               17.00:  ROP Max 
 RPMA.rpm               120.00:  RPM Surface Avg 
 RPMN.rpm                90.00:  RPM Surface Min 
 RPMX.rpm               140.00:  RPM Surface Max 
 RRUN.                     300:  Rig Run Number 
 RTIM.hr                 31.53:  Time Reaming 
 SAZI.deg               331.64:  Azm, Start 
 SDEP.m                4127.00:  Start Depth 
 SIDD.                      No:  Serv Intrp, DD 
 SINC.deg                48.43:  Inc, Start 
 SPPA.psig             5830.00:  SPP Avg 
 SPPN.psig             5600.00:  SPP Min 
 SPPX.psig             5900.00:  SPP Max 
 STIM.      21.00.00 20-Aug-21:  Start Time 
 SVCS.                 DD, MWD:  Services 
 SVER.                    9.20:  Sperry Version 
 TDAT.m                 957.50:  Tot Depth Attmp 
 TDDF.                      No:  Trip for DD 
 TDLG.m                 957.50:  Tot Depth Loggd 
 TFF .                      No:  Trip for Fail 
 TQAA.f-kp               15.00:  Torque Abs Avg 
 TQAN.f-kp               12.00:  Torque Abs Min 
 TQAX.f-kp               19.00:  Torque Abs Max 
 TRRT.°/30m              -3.40:  Turn Rotating 
 MRT .                  EWR-M5:  Maximum Recorded Temperature 
 TTMX.degC              100.00:  Max Tool Temp 
 VS01.                90639251:  Virtual Str1 SN 
 VS02.                90634715:  Virtual Str2 SN 
 VS03.                90652479:  Virtual Str3 SN 
 VS04.                90642262:  Virtual Str4 SN 
 WBMN.klb                 0.00:  WOB Min 
 WITN.           Murad Guliyev:  Customer Rep 
 WITN.          Yashar Gaziyev:  Customer Rep 2 
 WOBA.klb                 9.00:  WOB Avg 
 WOBX.klb                12.00:  WOB Max 
 YP  .lhf2               30.00:  Yield Point 
~Curve Information Block
#MNEM.UNIT                 API CODE     Curve Description
#---------               -----------    ---------------------------
 TIME.HHMMSS            00 000 000 000:  GT Time & Date
 GTDEPTH.m              00 000 000 000:  GT Depth
 GTPQH.psia             00 000 000 000:  GT HR Quartz Pressure
 GTTQ.degC              00 000 000 000:  GT Quartz Temperature
 GTTN.NONE              00 000 000 000:  GT Test Number
 GTET.sec               00 000 000 000:  GT Elapsed Test Time
 GTTVD.m                00 000 000 000:  GT True Vertical Depth
#Other Information
#
#WARRANTY: Halliburton will use its best efforts to furnish customers with 
#accurate information and interpretations that are part of, and incident to, the services 
#provided.  However, Halliburton cannot and does not warrant the accuracy 
#or correctness of such information and interpretations.  Under no circumstances should any 
#such information or interpretation be relied upon as the sole basis for any drilling, 
#completion, production, or financial decision or any procedure involving any risk to the 
#safety of any drilling venture, drilling rig or its crew or any other third party.  The 
#Customer has full responsibility for all drilling, completion and production operation.  
#Halliburton makes no representations or warranties, either expressed or 
#implied, including, but not limited to, the implied warranties of merchantability or fitness 
#for a particular purpose, with respect to the services rendered.  In no event will 
#Halliburton be liable for failure to obtain any particular results or for 
#any damages, including, but not limited to, indirect, special or consequential damages, 
#resulting from the use of any information or interpretation provided by Halliburton.
#
~A           TIME           GTDEPTH  GTPQH  GTTQ  GTTN   GTET   GTTVD  
# ...
   23:44:30.539.27-Aug-2021 4669.00 4465.98 82.08 26.00  90.41 3039.49
   23:44:30.739.27-Aug-2021 4669.00 4466.05 82.08 26.00  90.61 3039.49
   23:44:30.939.27-Aug-2021 4669.00 4465.93 82.08 26.00  90.81 3039.49
   23:44:31.139.27-Aug-2021 4669.00 4466.42 82.08 26.00  91.01 3039.49
   23:44:31.339.27-Aug-2021 4669.00 4466.42 82.08 26.00  91.21 3039.49
   23:44:31.539.27-Aug-2021 4669.00 4466.34 82.08 26.00  91.41 3039.49
   23:44:31.739.27-Aug-2021 4669.00 4466.31 82.08 26.00  91.61 3039.49
   23:44:31.939.27-Aug-2021 4669.00 4466.29 82.08 26.00  91.81 3039.49
   23:44:32.139.27-Aug-2021 4669.00 4466.65 82.08 26.00  92.01 3039.49
   23:44:32.339.27-Aug-2021 4669.00 4466.65 82.08 26.00  92.21 3039.49
   23:44:32.539.27-Aug-2021 4669.00 4466.61 82.08 26.00  92.41 3039.49
   23:44:32.739.27-Aug-2021 4669.00 4466.62 82.08 26.00  92.61 3039.49
   23:44:32.939.27-Aug-2021 4669.00 4466.72 82.08 26.00  92.81 3039.49
   23:44:33.139.27-Aug-2021 4669.00 4466.59 82.08 26.00  93.01 3039.49
   23:44:33.339.27-Aug-2021 4669.00 4466.59 82.08 26.00  93.21 3039.49
   23:44:33.539.27-Aug-2021 4669.00 4467.18 82.08 26.00  93.41 3039.49
   23:44:33.739.27-Aug-2021 4669.00 4466.84 82.08 26.00  93.61 3039.49
   23:44:33.939.27-Aug-2021 4669.00 4467.08 82.08 26.00  93.81 3039.49
   23:44:34.139.27-Aug-2021 4669.00 4467.02 82.08 26.00  94.01 3039.49
   23:44:34.339.27-Aug-2021 4669.00 4467.02 82.08 26.00  94.21 3039.49
   23:44:34.539.27-Aug-2021 4669.00 4467.02 82.08 26.00  94.41 3039.49
   23:44:34.739.27-Aug-2021 4669.00 4467.50 82.08 26.00  94.61 3039.49
   23:44:34.939.27-Aug-2021 4669.00 4467.24 82.08 26.00  94.81 3039.49
   23:44:35.139.27-Aug-2021 4669.00 4467.36 82.08 26.00  95.01 3039.49
   23:44:35.339.27-Aug-2021 4669.00 4467.36 82.08 26.00  95.21 3039.49
   23:44:35.539.27-Aug-2021 4669.00 4467.44 82.08 26.00  95.41 3039.49
   23:44:35.739.27-Aug-2021 4669.00 4467.42 82.08 26.00  95.61 3039.49
   23:44:35.939.27-Aug-2021 4669.00 4467.55 82.08 26.00  95.81 3039.49
   23:44:36.139.27-Aug-2021 4669.00 4467.54 82.08 26.00  96.01 3039.49
   23:44:36.340.27-Aug-2021 4669.00 4467.54 82.08 26.00  96.21 3039.49
   23:44:36.540.27-Aug-2021 4669.00 4467.65 82.08 26.00  96.41 3039.49
   23:44:36.740.27-Aug-2021 4669.00 4467.73 82.08 26.00  96.61 3039.49
   23:44:36.940.27-Aug-2021 4669.00 4467.75 82.08 26.00  96.81 3039.49
   23:44:37.140.27-Aug-2021 4669.00 4467.83 82.08 26.00  97.01 3039.49
   23:44:37.340.27-Aug-2021 4669.00 4467.83 82.08 26.00  97.21 3039.49
   23:44:37.540.27-Aug-2021 4669.00 4467.94 82.08 26.00  97.41 3039.49
   23:44:37.740.27-Aug-2021 4669.00 4467.58 82.08 26.00  97.61 3039.49
   23:44:37.940.27-Aug-2021 4669.00 4468.26 82.08 26.00  97.81 3039.49
   23:44:38.140.27-Aug-2021 4669.00 4467.84 82.08 26.00  98.01 3039.49
   23:44:38.340.27-Aug-2021 4669.00 4467.84 82.08 26.00  98.21 3039.49
   23:44:38.540.27-Aug-2021 4669.00 4467.97 82.08 26.00  98.41 3039.49
   23:44:38.740.27-Aug-2021 4669.00 4468.16 82.08 26.00  98.61 3039.49
   23:44:38.940.27-Aug-2021 4669.00 4468.09 82.08 26.00  98.81 3039.49
   23:44:39.140.27-Aug-2021 4669.00 4468.23 82.08 26.00  99.01 3039.49
   23:44:39.340.27-Aug-2021 4669.00 4468.23 82.08 26.00  99.21 3039.49
   23:44:39.540.27-Aug-2021 4669.00 4468.29 82.08 26.00  99.41 3039.49
   23:44:39.740.27-Aug-2021 4669.00 4468.30 82.08 26.00  99.61 3039.49
   23:44:39.940.27-Aug-2021 4669.00 4468.39 82.08 26.00  99.81 3039.49
   23:44:40.140.27-Aug-2021 4669.00 4468.40 82.08 26.00 100.01 3039.49
   23:44:40.340.27-Aug-2021 4669.00 4468.40 82.08 26.00 100.21 3039.49
   23:44:40.540.27-Aug-2021 4669.00 4468.47 82.08 26.00 100.41 3039.49
   23:44:40.740.27-Aug-2021 4669.00 4468.54 82.08 26.00 100.61 3039.49
   23:44:40.940.27-Aug-2021 4669.00 4468.42 82.08 26.00 100.81 3039.49
   23:44:41.140.27-Aug-2021 4669.00 4468.66 82.08 26.00 101.01 3039.49
   23:44:41.340.27-Aug-2021 4669.00 4468.66 82.08 26.00 101.21 3039.49
   23:44:41.540.27-Aug-2021 4669.00 4468.58 82.08 26.00 101.41 3039.49
   23:44:41.740.27-Aug-2021 4669.00 4468.69 82.08 26.00 101.61 3039.49
   23:44:41.940.27-Aug-2021 4669.00 4468.49 82.08 26.00 101.81 3039.49
   23:44:42.140.27-Aug-2021 4669.00 4469.02 82.08 26.00 102.01 3039.49
   23:44:42.340.27-Aug-2021 4669.00 4469.02 82.08 26.00 102.21 3039.49
   23:44:42.540.27-Aug-2021 4669.00 4468.89 82.08 26.00 102.41 3039.49
   23:44:42.740.27-Aug-2021 4669.00 4468.76 82.08 26.00 102.61 3039.49
   23:44:42.940.27-Aug-2021 4669.00 4468.88 82.08 26.00 102.81 3039.49
   23:44:43.140.27-Aug-2021 4669.00 4468.83 82.08 26.00 103.01 3039.49
   23:44:43.340.27-Aug-2021 4669.00 4468.83 82.08 26.00 103.21 3039.49
   23:44:43.540.27-Aug-2021 4669.00 4469.15 82.08 26.00 103.41 3039.49
   23:44:43.740.27-Aug-2021 4669.00 4468.88 82.08 26.00 103.61 3039.49
   23:44:43.940.27-Aug-2021 4669.00 4469.01 82.08 26.00 103.81 3039.49
   23:44:44.140.27-Aug-2021 4669.00 4468.96 82.08 26.00 104.01 3039.49
   23:44:44.341.27-Aug-2021 4669.00 4468.96 82.08 26.00 104.21 3039.49
   23:44:44.541.27-Aug-2021 4669.00 4468.94 82.08 26.00 104.41 3039.49
   23:44:44.741.27-Aug-2021 4669.00 4469.36 82.08 26.00 104.61 3039.49
   23:44:44.941.27-Aug-2021 4669.00 4468.95 82.08 26.00 104.81 3039.49
   23:44:45.141.27-Aug-2021 4669.00 4469.24 82.08 26.00 105.01 3039.49
   23:44:45.341.27-Aug-2021 4669.00 4469.24 82.08 26.00 105.21 3039.49
   23:44:45.541.27-Aug-2021 4669.00 4469.21 82.08 26.00 105.41 3039.49
   23:44:45.741.27-Aug-2021 4669.00 4469.15 82.08 26.00 105.61 3039.49
   23:44:45.941.27-Aug-2021 4669.00 4469.26 82.08 26.00 105.81 3039.49
   23:44:46.141.27-Aug-2021 4669.00 4469.23 82.08 26.00 106.01 3039.49
   23:44:46.341.27-Aug-2021 4669.00 4469.23 82.08 26.00 106.21 3039.49
   23:44:46.541.27-Aug-2021 4669.00 4469.31 82.08 26.00 106.41 3039.49
   23:44:46.741.27-Aug-2021 4669.00 4469.35 82.08 26.00 106.61 3039.49
   23:44:46.941.27-Aug-2021 4669.00 4469.38 82.08 26.00 106.81 3039.49
   23:44:47.141.27-Aug-2021 4669.00 4469.39 82.08 26.00 107.01 3039.49
   23:44:47.341.27-Aug-2021 4669.00 4469.39 82.08 26.00 107.21 3039.49
   23:44:47.541.27-Aug-2021 4669.00 4469.39 82.08 26.00 107.41 3039.49
   23:44:47.741.27-Aug-2021 4669.00 4469.74 82.08 26.00 107.61 3039.49
   23:44:47.941.27-Aug-2021 4669.00 4469.37 82.08 26.00 107.81 3039.49
   23:44:48.141.27-Aug-2021 4669.00 4469.60 82.08 26.00 108.01 3039.49
   23:44:48.341.27-Aug-2021 4669.00 4469.60 82.08 26.00 108.21 3039.49
   23:44:48.541.27-Aug-2021 4669.00 4469.60 82.08 26.00 108.41 3039.49
   23:44:48.741.27-Aug-2021 4669.00 4469.49 82.08 26.00 108.61 3039.49
   23:44:48.941.27-Aug-2021 4669.00 4469.64 82.08 26.00 108.81 3039.49
   23:44:49.141.27-Aug-2021 4669.00 4469.57 82.08 26.00 109.01 3039.49
   23:44:49.341.27-Aug-2021 4669.00 4469.57 82.08 26.00 109.21 3039.49
   23:44:49.541.27-Aug-2021 4669.00 4469.65 82.08 26.00 109.41 3039.49
   23:44:49.741.27-Aug-2021 4669.00 4469.70 82.08 26.00 109.61 3039.49
   23:44:49.941.27-Aug-2021 4669.00 4469.70 82.08 26.00 109.81 3039.49
   23:44:50.141.27-Aug-2021 4669.00 4469.74 82.08 26.00 110.01 3039.49
   23:44:50.341.27-Aug-2021 4669.00 4469.74 82.08 26.00 110.21 3039.49
   23:44:50.541.27-Aug-2021 4669.00 4469.80 82.08 26.00 110.41 3039.49
   23:44:50.741.27-Aug-2021 4669.00 4469.83 82.08 26.00 110.61 3039.49
   23:44:50.941.27-Aug-2021 4669.00 4469.59 82.08 26.00 110.81 3039.49
   23:44:51.141.27-Aug-2021 4669.00 4470.22 82.08 26.00 111.01 3039.49
   23:44:51.341.27-Aug-2021 4669.00 4470.22 82.08 26.00 111.21 3039.49
   23:44:51.541.27-Aug-2021 4669.00 4470.01 82.08 26.00 111.41 3039.49
   23:44:51.741.27-Aug-2021 4669.00 4469.57 82.08 26.00 111.61 3039.49
   23:44:51.941.27-Aug-2021 4669.00 4470.26 82.08 26.00 111.81 3039.49
   23:44:52.141.27-Aug-2021 4669.00 4469.91 82.08 26.00 112.01 3039.49
   23:44:52.342.27-Aug-2021 4669.00 4469.91 82.08 26.00 112.21 3039.49
   23:44:52.542.27-Aug-2021 4669.00 4469.92 82.08 26.00 112.41 3039.49
   23:44:52.742.27-Aug-2021 4669.00 4470.01 82.08 26.00 112.61 3039.49
   23:44:52.942.27-Aug-2021 4669.00 4469.96 82.08 26.00 112.81 3039.49
