~Version Information
 VERS.                  2.0:   CWLS log ASCII Standard -VERSION 2.0
 WRAP.                   NO:   One line per depth step
~Well Information Block
#MNEM.UNIT     VALUE/NAME     DESCRIPTION
#---------     -----------    ---------------------------
 STRT.S             08:51:30 27-Aug-21: START TIME 08:51:30 27-Aug-21
 STOP.S             08:58:20 27-Aug-21: STOP TIME  08:58:20 27-Aug-21
 STEP.S                   0.00: STEP TIME
 NULL.                 -999.25: NULL VALUE
 DFWT.                        :  DIST FWL TEXT
 DFST.                        :  DIST FSL TEXT
 DMF .             Drill Floor:  DRILL MEAS FROM
 STIM.      20.00.00 17-Aug-21:  START TIME
 DATE.      19.00.00 29-Aug-21:  END TIME
 SPUD.               15-Aug-21:  SPUD DATE
 NREF.                    Grid:  NORTH REFERENCE
 HPTY.       Minimum Curvature:  HOLE POS TYPE
 DMOD.             Drill Model:  DRILL MOD DESC
 SVYD.                  Survey:  SURVEY DESC
 ILTD.               Lithology:  INTERP LTH DESC
 FTOP.          Formation Tops:  FORM TOPS DESC
 RIG .              East Azeri:  RIG NAME
 PDAT.          Mean Sea Level:  PERMANENT DATUM
 FLD .                     ACG:  FIELD NAME
 SON .        AZ-XX-0907180857:  JOB NUMBER
 CTRY.              Azerbaijan:  COUNTRY NAME
 WELL.                    D23x:  WELL NAME
 SRVC.     Turan Drilling and Engineering:  CONTRACTOR
 COMP.     BP Exploration (Caspian Sea) Ltd.:  COMPANY
 UWI .            /AZE00000214:  UNIQUE WELL IDENTIFIER
 API .            /AZE00000214:  API NUMBER
 MDS .        Operator Entered:  MAG DATA SOURCE
 BASE.              Azerbaijan:  LOGGING EQUIPMENT BASE LOCATION
 REGN.                   EESSA:  REGION
 PROV.                    Baku:  PROVINCE
 STAT.                    Baku:  STATE NAME
 MWDS.                    Baku:  MWD SHOP
 DOE .                     N/A:  DOE NUMBER
 DCON.         Sperry Drilling:  DIRECTNL CONTR
 UNIT.                     N/A:  LOGGING EQUIPMENT ID
 WTYP.                Deviated:  WELL TYPE
 CNTY.                        :  COUNTY
 LOC .                        :  LOCATION
 LMF .             Drill Floor:  LOG MEASURED FROM
 TVDS.m                  43.60:  TVDSS CORRECTN
 LATI.deg                40.02:  LATITUDE
 LONG.deg                51.45:  LONGITUDE
 WHNS.m                  -7.04:  WELL HEAD N/S
 WHEW.m                  -0.67:  WELL HEAD E/W
 UTMX.m              538762.90:  UTM X
 UTMY.m             4431871.34:  UTM Y
 DFWL.m                   0.00:  DISTANCE FWL
 DFSL.m                   0.00:  DISTANCE FSL
 SDEP.m                4127.00:  START DEPTH
 TDD .m                5084.50:  TOTAL DEPTH (DRILLER)
 VSDR.deg               140.47:  VERT SEC DIRECT
 GVFD.g                   1.00:  GRAVITY FIELD
 MFLD.nT              50362.00:  MAGNETIC FIELD
 MDIP.deg                59.48:  MAGNETIC DIP
 MDEC.deg                 6.47:  MAGNETIC DECL
 GRDC.deg                 0.31:  GRID CORRECTION
 AZTC.deg                 6.16:  AZM TOTAL CORR
 EPD .m                   0.00:  ELEVATION
 EGL .m                   0.00:  GROUND ELEVATION
 WDMS.m                 151.80:  WD ELEV
 APD .m                  43.60:  DEPTH ABOVE PD
 DEP .m                4092.57:  DEPTH
 AGAP.m                  43.60:  AIR GAP
 VSEW.m                  -0.67:  VERT SEC E/W
 VSNS.m                  -7.04:  VERT SEC N/S
 EKB .m                  43.60:  KB ELEVATION
 EDF .m                  43.60:  DF ELEVATION
 TDL .m                 957.50:  TOTAL DEPTH (LOGGER)
 VSC .                       0:  VS TO CLOSURE
 MAGU.                 1851413:  MAGUTM CHECKSUM
~Parameter Information Block
#MNEM.UNIT       Value        Description
#---------     -----------    ---------------------------
 AV  .mps                 1.50:  Ann Velocity 
 AVMX.mps                 2.00:  Max Ann Veloc 
 AZIF.deg               184.66:  Azm, Final 
 BHAT.        Rotary Steerable:  BHA Type 
 BREV.rev               300.00:  Rev Bit Total 
 BROT.°/30m              -0.50:  Build Rotating 
 BS  .in                  8.50:  Bit Size 
 BSZ .in                  8.50:  Bit Size 
 BTPL.psig              370.00:  Bit Press Loss 
 CABU.                      No:  Customer Abuse 
 CGEO.      Behruz Shahbaliyev:  Customer Geo 
 COMM.                     <w:  Run Comments 1 
 TCS .hr                140.08:  Time Ciculation Ended 
 CV  .mps                 3.00:  Crit Velocity 
 CVMX.mps                 3.20:  Max Crit Veloc 
 DD1 .            Musa Ahmadov:  Direct Drillr 1 
 DD2 .           Hamid Ahmadov:  Direct Drillr 2 
 DDSV.               Geo-Pilot:  DD Service 
 DEFF.%                  98.40:  % Det Eff 
 DLRX.°/30m               3.40:  Dogleg Rot Max 
 DLSO.°/30m               1.45:  Dogleg Oriented 
 DLSX.°/30m               3.40:  Dogleg Str Max 
 DRET.      18.40.00 29-Aug-21:  Drill End Time 
 DRST.      21.00.00 20-Aug-21:  Drill Start Tim 
 DTIM.hr                 69.47:  Time Drilling 
 EDEP.m                5084.50:  End Depth 
 ENG1.      Artemiy Matviyanov:  Engineer 1 
 ENG2.         Almaz Almadatov:  Engineer 2 
 ETIM.      18.40.00 29-Aug-21:  End Time 
 FLOI.gpm               500.00:  Flow In 
 FLON.gpm               400.00:  Flow In Min 
 FLOS.cptm                0.00:  Fluid Loss 
 FLOX.gpm               500.00:  Flow In Max 
 DFT .        Mineral Oil Base:  Mud Type 
 HFLO.                      No:  High Flow 
 HPRE.                      No:  High Pressure 
 HTEM.                      No:  High Temp 
 HYDO.m                   1.80:  Hydro Offset 
 IFIN.deg                25.62:  Inc, Final 
 IMAX.deg                48.69:  Inc Max 
 IMIN.deg                24.01:  Inc Min 
 IMND.m                4962.57:  Inc Min Depth 
 IMXD.m                4119.01:  Inc Max Depth 
 JARR.                      No:  Jarring 
 LETM.      18.40.00 29-Aug-21:  Log End Time 
 LOST.hr                     0:  Lost Rig Time 
 LSTM.      21.00.00 20-Aug-21:  Log Start Time 
 MDCL.ppm             41500.00:  Mud Chlorides 
 MDES.     Inversion Oil/Synthetic:  Mud Desc 
 DFD .sg                  1.56:  Mud Density 
 MDMN.sg                  1.56:  Dens Mud Min 
 MDMX.sg                  1.56:  Dens Mud Max 
 MOIL.                      70:  Run Mud Oil % 
 MOWR.                   70:30:  Run Mud OWR 
 MSND.                     0.2:  Run Mud Sand % 
 MSOL.                    23.3:  Run Mud Solids% 
 DFV .spqt               78.00:  Mud Viscosity 
 MWOD.in                  6.75:  MWD Tool OD 
 MWSI.                      No:  Serv Intrp, MWD 
 OTIM.hr                218.30:  Time Operating 
 PCON.           Look Like New:  Pad Condition 
 PMAX.psia            11015.30:  Press Op, Max 
 PV  .cP                 38.00:  Mud PV 
 RUN .                     300:  Run Number 
 ROPA.m/hr               15.00:  ROP Avg 
 ROPN.m/hr                9.00:  ROP Min 
 ROPX.m/hr               17.00:  ROP Max 
 RPMA.rpm               120.00:  RPM Surface Avg 
 RPMN.rpm                90.00:  RPM Surface Min 
 RPMX.rpm               140.00:  RPM Surface Max 
 RRUN.                     300:  Rig Run Number 
 RTIM.hr                 31.53:  Time Reaming 
 SAZI.deg               331.64:  Azm, Start 
 SDEP.m                4127.00:  Start Depth 
 SIDD.                      No:  Serv Intrp, DD 
 SINC.deg                48.43:  Inc, Start 
 SPPA.psig             5830.00:  SPP Avg 
 SPPN.psig             5600.00:  SPP Min 
 SPPX.psig             5900.00:  SPP Max 
 STIM.      21.00.00 20-Aug-21:  Start Time 
 SVCS.                 DD, MWD:  Services 
 SVER.                    9.20:  Sperry Version 
 TDAT.m                 957.50:  Tot Depth Attmp 
 TDDF.                      No:  Trip for DD 
 TDLG.m                 957.50:  Tot Depth Loggd 
 TFF .                      No:  Trip for Fail 
 TQAA.f-kp               15.00:  Torque Abs Avg 
 TQAN.f-kp               12.00:  Torque Abs Min 
 TQAX.f-kp               19.00:  Torque Abs Max 
 TRRT.°/30m              -3.40:  Turn Rotating 
 MRT .                  EWR-M5:  Maximum Recorded Temperature 
 TTMX.degC              100.00:  Max Tool Temp 
 VS01.                90639251:  Virtual Str1 SN 
 VS02.                90634715:  Virtual Str2 SN 
 VS03.                90652479:  Virtual Str3 SN 
 VS04.                90642262:  Virtual Str4 SN 
 WBMN.klb                 0.00:  WOB Min 
 WITN.           Murad Guliyev:  Customer Rep 
 WITN.          Yashar Gaziyev:  Customer Rep 2 
 WOBA.klb                 9.00:  WOB Avg 
 WOBX.klb                12.00:  WOB Max 
 YP  .lhf2               30.00:  Yield Point 
~Curve Information Block
#MNEM.UNIT                 API CODE     Curve Description
#---------               -----------    ---------------------------
 TIME.HHMMSS            00 000 000 000:  GT Time & Date
 GTDEPTH.m              00 000 000 000:  GT Depth
 GTPQH.psia             00 000 000 000:  GT HR Quartz Pressure
 GTTQ.degC              00 000 000 000:  GT Quartz Temperature
 GTTN.NONE              00 000 000 000:  GT Test Number
 GTET.sec               00 000 000 000:  GT Elapsed Test Time
 GTTVD.m                00 000 000 000:  GT True Vertical Depth
#Other Information
#
#WARRANTY: Halliburton will use its best efforts to furnish customers with 
#accurate information and interpretations that are part of, and incident to, the services 
#provided.  However, Halliburton cannot and does not warrant the accuracy 
#or correctness of such information and interpretations.  Under no circumstances should any 
#such information or interpretation be relied upon as the sole basis for any drilling, 
#completion, production, or financial decision or any procedure involving any risk to the 
#safety of any drilling venture, drilling rig or its crew or any other third party.  The 
#Customer has full responsibility for all drilling, completion and production operation.  
#Halliburton makes no representations or warranties, either expressed or 
#implied, including, but not limited to, the implied warranties of merchantability or fitness 
#for a particular purpose, with respect to the services rendered.  In no event will 
#Halliburton be liable for failure to obtain any particular results or for 
#any damages, including, but not limited to, indirect, special or consequential damages, 
#resulting from the use of any information or interpretation provided by Halliburton.
#
~A           TIME           GTDEPTH  GTPQH  GTTQ  GTTN  GTET   GTTVD  
# ...
   08:55:20.519.27-Aug-2021 4965.00 1855.81 86.62 6.00 230.10 3307.85
   08:55:20.719.27-Aug-2021 4965.00 1855.81 86.62 6.00 230.30 3307.85
   08:55:20.920.27-Aug-2021 4965.00 1856.00 86.62 6.00 230.50 3307.85
   08:55:21.120.27-Aug-2021 4965.00 1855.94 86.62 6.00 230.70 3307.85
   08:55:21.320.27-Aug-2021 4965.00 1856.60 86.62 6.00 230.90 3307.85
   08:55:21.520.27-Aug-2021 4965.00 1856.62 86.62 6.00 231.10 3307.85
   08:55:21.720.27-Aug-2021 4965.00 1856.62 86.62 6.00 231.30 3307.85
   08:55:21.920.27-Aug-2021 4965.00 1856.69 86.62 6.00 231.50 3307.85
   08:55:22.120.27-Aug-2021 4965.00 1856.46 86.62 6.00 231.70 3307.85
   08:55:22.320.27-Aug-2021 4965.00 1856.99 86.62 6.00 231.90 3307.85
   08:55:22.520.27-Aug-2021 4965.00 1857.10 86.62 6.00 232.10 3307.85
   08:55:22.720.27-Aug-2021 4965.00 1857.10 86.62 6.00 232.30 3307.85
   08:55:22.920.27-Aug-2021 4965.00 1856.94 86.62 6.00 232.50 3307.85
   08:55:23.120.27-Aug-2021 4965.00 1857.23 86.62 6.00 232.70 3307.85
   08:55:23.321.27-Aug-2021 4965.00 1857.61 86.62 6.00 232.90 3307.85
   08:55:23.521.27-Aug-2021 4965.00 1857.59 86.62 6.00 233.10 3307.85
   08:55:23.721.27-Aug-2021 4965.00 1857.59 86.62 6.00 233.30 3307.85
   08:55:23.921.27-Aug-2021 4965.00 1857.36 86.62 6.00 233.50 3307.85
   08:55:24.121.27-Aug-2021 4965.00 1857.90 86.62 6.00 233.70 3307.85
   08:55:24.321.27-Aug-2021 4965.00 1858.05 86.62 6.00 233.90 3307.85
   08:55:24.521.27-Aug-2021 4965.00 1858.03 86.62 6.00 234.10 3307.85
   08:55:24.721.27-Aug-2021 4965.00 1858.03 86.62 6.00 234.30 3307.85
   08:55:24.921.27-Aug-2021 4965.00 1858.19 86.62 6.00 234.50 3307.85
   08:55:25.121.27-Aug-2021 4965.00 1858.23 86.62 6.00 234.70 3307.85
   08:55:25.321.27-Aug-2021 4965.00 1858.28 86.62 6.00 234.90 3307.85
   08:55:25.521.27-Aug-2021 4965.00 1858.35 86.62 6.00 235.10 3307.85
   08:55:25.722.27-Aug-2021 4965.00 1858.35 86.62 6.00 235.30 3307.85
   08:55:25.922.27-Aug-2021 4965.00 1858.50 86.62 6.00 235.50 3307.85
   08:55:26.122.27-Aug-2021 4965.00 1858.60 86.62 6.00 235.70 3307.85
   08:55:26.322.27-Aug-2021 4965.00 1858.68 86.62 6.00 235.90 3307.85
   08:55:26.522.27-Aug-2021 4965.00 1858.77 86.62 6.00 236.10 3307.85
   08:55:26.722.27-Aug-2021 4965.00 1858.77 86.62 6.00 236.30 3307.85
   08:55:26.922.27-Aug-2021 4965.00 1858.93 86.62 6.00 236.50 3307.85
   08:55:27.122.27-Aug-2021 4965.00 1858.87 86.62 6.00 236.70 3307.85
   08:55:27.322.27-Aug-2021 4965.00 1859.57 86.62 6.00 236.90 3307.85
   08:55:27.522.27-Aug-2021 4965.00 1859.62 86.62 6.00 237.10 3307.85
   08:55:27.722.27-Aug-2021 4965.00 1859.62 86.62 6.00 237.30 3307.85
   08:55:27.922.27-Aug-2021 4965.00 1859.67 86.62 6.00 237.50 3307.85
   08:55:28.123.27-Aug-2021 4965.00 1859.75 86.62 6.00 237.70 3307.85
   08:55:28.323.27-Aug-2021 4965.00 1859.78 86.62 6.00 237.90 3307.85
   08:55:28.523.27-Aug-2021 4965.00 1859.83 86.62 6.00 238.10 3307.85
   08:55:28.723.27-Aug-2021 4965.00 1859.83 86.62 6.00 238.30 3307.85
   08:55:28.923.27-Aug-2021 4965.00 1859.98 86.62 6.00 238.50 3307.85
   08:55:29.123.27-Aug-2021 4965.00 1860.09 86.62 6.00 238.70 3307.85
   08:55:29.323.27-Aug-2021 4965.00 1860.19 86.62 6.00 238.90 3307.85
   08:55:29.523.27-Aug-2021 4965.00 1860.29 86.62 6.00 239.10 3307.85
   08:55:29.723.27-Aug-2021 4965.00 1860.29 86.62 6.00 239.30 3307.85
   08:55:29.923.27-Aug-2021 4965.00 1860.45 86.62 6.00 239.50 3307.85
   08:55:30.123.27-Aug-2021 4965.00 1860.54 86.62 6.00 239.70 3307.85
   08:55:30.323.27-Aug-2021 4965.00 1860.43 86.62 6.00 239.90 3307.85
   08:55:30.523.27-Aug-2021 4965.00 1861.05 86.62 6.00 240.10 3307.85
   08:55:30.724.27-Aug-2021 4965.00 1861.05 86.62 6.00 240.30 3307.85
   08:55:30.924.27-Aug-2021 4965.00 1861.16 86.62 6.00 240.50 3307.85
   08:55:31.124.27-Aug-2021 4965.00 1861.20 86.62 6.00 240.70 3307.85
   08:55:31.324.27-Aug-2021 4965.00 1860.93 86.62 6.00 240.90 3307.85
   08:55:31.524.27-Aug-2021 4965.00 1861.52 86.62 6.00 241.10 3307.85
   08:55:31.724.27-Aug-2021 4965.00 1861.52 86.62 6.00 241.30 3307.85
   08:55:31.924.27-Aug-2021 4965.00 1861.65 86.62 6.00 241.50 3307.85
   08:55:32.124.27-Aug-2021 4965.00 1861.71 86.62 6.00 241.70 3307.85
   08:55:32.324.27-Aug-2021 4965.00 1861.57 86.62 6.00 241.90 3307.85
   08:55:32.524.27-Aug-2021 4965.00 1861.83 86.62 6.00 242.10 3307.85
   08:55:32.724.27-Aug-2021 4965.00 1861.83 86.62 6.00 242.30 3307.85
   08:55:32.924.27-Aug-2021 4965.00 1862.21 86.62 6.00 242.50 3307.85
   08:55:33.125.27-Aug-2021 4965.00 1862.01 86.62 6.00 242.70 3307.85
   08:55:33.325.27-Aug-2021 4965.00 1862.23 86.62 6.00 242.90 3307.85
   08:55:33.525.27-Aug-2021 4965.00 1862.64 86.62 6.00 243.10 3307.85
   08:55:33.725.27-Aug-2021 4965.00 1862.64 86.62 6.00 243.30 3307.85
   08:55:33.925.27-Aug-2021 4965.00 1862.65 86.62 6.00 243.50 3307.85
   08:55:34.125.27-Aug-2021 4965.00 1862.73 86.62 6.00 243.70 3307.85
   08:55:34.325.27-Aug-2021 4965.00 1862.77 86.62 6.00 243.90 3307.85
   08:55:34.525.27-Aug-2021 4965.00 1862.83 86.62 6.00 244.10 3307.85
   08:55:34.725.27-Aug-2021 4965.00 1862.83 86.62 6.00 244.30 3307.85
   08:55:34.925.27-Aug-2021 4965.00 1862.96 86.62 6.00 244.50 3307.85
   08:55:35.125.27-Aug-2021 4965.00 1863.03 86.62 6.00 244.70 3307.85
   08:55:35.325.27-Aug-2021 4965.00 1863.10 86.62 6.00 244.90 3307.85
   08:55:35.526.27-Aug-2021 4965.00 1863.19 86.62 6.00 245.10 3307.85
   08:55:35.726.27-Aug-2021 4965.00 1863.19 86.62 6.00 245.30 3307.85
   08:55:35.926.27-Aug-2021 4965.00 1863.37 86.62 6.00 245.50 3307.85
   08:55:36.126.27-Aug-2021 4965.00 1863.44 86.62 6.00 245.70 3307.85
   08:55:36.326.27-Aug-2021 4965.00 1863.22 86.62 6.00 245.90 3307.85
   08:55:36.526.27-Aug-2021 4965.00 1863.92 86.62 6.00 246.10 3307.85
   08:55:36.726.27-Aug-2021 4965.00 1863.92 86.62 6.00 246.30 3307.85
   08:55:36.926.27-Aug-2021 4965.00 1864.07 86.62 6.00 246.50 3307.85
   08:55:37.126.27-Aug-2021 4965.00 1864.11 86.62 6.00 246.70 3307.85
   08:55:37.326.27-Aug-2021 4965.00 1864.16 86.62 6.00 246.90 3307.85
   08:55:37.526.27-Aug-2021 4965.00 1864.21 86.62 6.00 247.10 3307.85
   08:55:37.726.27-Aug-2021 4965.00 1864.21 86.62 6.00 247.30 3307.85
   08:55:37.927.27-Aug-2021 4965.00 1864.30 86.62 6.00 247.50 3307.85
   08:55:38.127.27-Aug-2021 4965.00 1864.37 86.62 6.00 247.70 3307.85
   08:55:38.327.27-Aug-2021 4965.00 1864.45 86.62 6.00 247.90 3307.85
   08:55:38.527.27-Aug-2021 4965.00 1864.54 86.62 6.00 248.10 3307.85
   08:55:38.727.27-Aug-2021 4965.00 1864.54 86.62 6.00 248.30 3307.85
   08:55:38.927.27-Aug-2021 4965.00 1864.70 86.62 6.00 248.50 3307.85
   08:55:39.127.27-Aug-2021 4965.00 1864.79 86.62 6.00 248.70 3307.85
   08:55:39.327.27-Aug-2021 4965.00 1864.87 86.62 6.00 248.90 3307.85
   08:55:39.527.27-Aug-2021 4965.00 1864.78 86.62 6.00 249.10 3307.85
   08:55:39.727.27-Aug-2021 4965.00 1864.78 86.62 6.00 249.30 3307.85
   08:55:39.927.27-Aug-2021 4965.00 1865.54 86.62 6.00 249.50 3307.85
   08:55:40.127.27-Aug-2021 4965.00 1865.54 86.62 6.00 249.70 3307.85
   08:55:40.328.27-Aug-2021 4965.00 1865.17 86.62 6.00 249.90 3307.85
   08:55:40.528.27-Aug-2021 4965.00 1865.77 86.62 6.00 250.10 3307.85
   08:55:40.728.27-Aug-2021 4965.00 1865.77 86.62 6.00 250.30 3307.85
   08:55:40.928.27-Aug-2021 4965.00 1865.84 86.62 6.00 250.50 3307.85
   08:55:41.128.27-Aug-2021 4965.00 1865.90 86.62 6.00 250.70 3307.85
   08:55:41.328.27-Aug-2021 4965.00 1865.97 86.62 6.00 250.90 3307.85
   08:55:41.528.27-Aug-2021 4965.00 1865.69 86.62 6.00 251.10 3307.85
   08:55:41.728.27-Aug-2021 4965.00 1865.69 86.62 6.00 251.30 3307.85
   08:55:41.928.27-Aug-2021 4965.00 1866.32 86.62 6.00 251.50 3307.85
   08:55:42.128.27-Aug-2021 4965.00 1866.29 86.62 6.00 251.70 3307.85
   08:55:42.328.27-Aug-2021 4965.00 1866.13 86.62 6.00 251.90 3307.85
   08:55:42.528.27-Aug-2021 4965.00 1866.35 86.62 6.00 252.10 3307.85
   08:55:42.729.27-Aug-2021 4965.00 1866.35 86.62 6.00 252.30 3307.85
   08:55:42.929.27-Aug-2021 4965.00 1866.68 86.62 6.00 252.50 3307.85
   08:55:43.129.27-Aug-2021 4965.00 1866.69 86.62 6.00 252.70 3307.85
   08:55:43.329.27-Aug-2021 4965.00 1866.77 86.62 6.00 252.91 3307.85
