~Version Information
 VERS.                  2.0:   CWLS log ASCII Standard -VERSION 2.0
 WRAP.                   NO:   One line per depth step
~Well Information Block
#MNEM.UNIT     VALUE/NAME     DESCRIPTION
#---------     -----------    ---------------------------
 STRT.S             12:21:31 27-Aug-21: START TIME 12:21:31 27-Aug-21
 STOP.S             12:28:48 27-Aug-21: STOP TIME  12:28:48 27-Aug-21
 STEP.S                   0.00: STEP TIME
 NULL.                 -999.25: NULL VALUE
 DFWT.                        :  DIST FWL TEXT
 DFST.                        :  DIST FSL TEXT
 DMF .             Drill Floor:  DRILL MEAS FROM
 STIM.      20.00.00 17-Aug-21:  START TIME
 DATE.      19.00.00 29-Aug-21:  END TIME
 SPUD.               15-Aug-21:  SPUD DATE
 NREF.                    Grid:  NORTH REFERENCE
 HPTY.       Minimum Curvature:  HOLE POS TYPE
 DMOD.             Drill Model:  DRILL MOD DESC
 SVYD.                  Survey:  SURVEY DESC
 ILTD.               Lithology:  INTERP LTH DESC
 FTOP.          Formation Tops:  FORM TOPS DESC
 RIG .              East Azeri:  RIG NAME
 PDAT.          Mean Sea Level:  PERMANENT DATUM
 FLD .                     ACG:  FIELD NAME
 SON .        AZ-XX-0907180857:  JOB NUMBER
 CTRY.              Azerbaijan:  COUNTRY NAME
 WELL.                    D23x:  WELL NAME
 SRVC.     Turan Drilling and Engineering:  CONTRACTOR
 COMP.     BP Exploration (Caspian Sea) Ltd.:  COMPANY
 UWI .            /AZE00000214:  UNIQUE WELL IDENTIFIER
 API .            /AZE00000214:  API NUMBER
 MDS .        Operator Entered:  MAG DATA SOURCE
 BASE.              Azerbaijan:  LOGGING EQUIPMENT BASE LOCATION
 REGN.                   EESSA:  REGION
 PROV.                    Baku:  PROVINCE
 STAT.                    Baku:  STATE NAME
 MWDS.                    Baku:  MWD SHOP
 DOE .                     N/A:  DOE NUMBER
 DCON.         Sperry Drilling:  DIRECTNL CONTR
 UNIT.                     N/A:  LOGGING EQUIPMENT ID
 WTYP.                Deviated:  WELL TYPE
 CNTY.                        :  COUNTY
 LOC .                        :  LOCATION
 LMF .             Drill Floor:  LOG MEASURED FROM
 TVDS.m                  43.60:  TVDSS CORRECTN
 LATI.deg                40.02:  LATITUDE
 LONG.deg                51.45:  LONGITUDE
 WHNS.m                  -7.04:  WELL HEAD N/S
 WHEW.m                  -0.67:  WELL HEAD E/W
 UTMX.m              538762.90:  UTM X
 UTMY.m             4431871.34:  UTM Y
 DFWL.m                   0.00:  DISTANCE FWL
 DFSL.m                   0.00:  DISTANCE FSL
 SDEP.m                4127.00:  START DEPTH
 TDD .m                5084.50:  TOTAL DEPTH (DRILLER)
 VSDR.deg               140.47:  VERT SEC DIRECT
 GVFD.g                   1.00:  GRAVITY FIELD
 MFLD.nT              50362.00:  MAGNETIC FIELD
 MDIP.deg                59.48:  MAGNETIC DIP
 MDEC.deg                 6.47:  MAGNETIC DECL
 GRDC.deg                 0.31:  GRID CORRECTION
 AZTC.deg                 6.16:  AZM TOTAL CORR
 EPD .m                   0.00:  ELEVATION
 EGL .m                   0.00:  GROUND ELEVATION
 WDMS.m                 151.80:  WD ELEV
 APD .m                  43.60:  DEPTH ABOVE PD
 DEP .m                4092.57:  DEPTH
 AGAP.m                  43.60:  AIR GAP
 VSEW.m                  -0.67:  VERT SEC E/W
 VSNS.m                  -7.04:  VERT SEC N/S
 EKB .m                  43.60:  KB ELEVATION
 EDF .m                  43.60:  DF ELEVATION
 TDL .m                 957.50:  TOTAL DEPTH (LOGGER)
 VSC .                       0:  VS TO CLOSURE
 MAGU.                 1851413:  MAGUTM CHECKSUM
~Parameter Information Block
#MNEM.UNIT       Value        Description
#---------     -----------    ---------------------------
 AV  .mps                 1.50:  Ann Velocity 
 AVMX.mps                 2.00:  Max Ann Veloc 
 AZIF.deg               184.66:  Azm, Final 
 BHAT.        Rotary Steerable:  BHA Type 
 BREV.rev               300.00:  Rev Bit Total 
 BROT.°/30m              -0.50:  Build Rotating 
 BS  .in                  8.50:  Bit Size 
 BSZ .in                  8.50:  Bit Size 
 BTPL.psig              370.00:  Bit Press Loss 
 CABU.                      No:  Customer Abuse 
 CGEO.      Behruz Shahbaliyev:  Customer Geo 
 TCS .hr                140.08:  Time Ciculation Ended 
 CV  .mps                 3.00:  Crit Velocity 
 CVMX.mps                 3.20:  Max Crit Veloc 
 DD1 .            Musa Ahmadov:  Direct Drillr 1 
 DD2 .           Hamid Ahmadov:  Direct Drillr 2 
 DDSV.               Geo-Pilot:  DD Service 
 DEFF.%                  98.40:  % Det Eff 
 DLRX.°/30m               3.40:  Dogleg Rot Max 
 DLSO.°/30m               1.45:  Dogleg Oriented 
 DLSX.°/30m               3.40:  Dogleg Str Max 
 DRET.      18.40.00 29-Aug-21:  Drill End Time 
 DRST.      21.00.00 20-Aug-21:  Drill Start Tim 
 DTIM.hr                 69.47:  Time Drilling 
 EDEP.m                5084.50:  End Depth 
 ENG1.      Artemiy Matviyanov:  Engineer 1 
 ENG2.         Almaz Almadatov:  Engineer 2 
 ETIM.      18.40.00 29-Aug-21:  End Time 
 FLOI.gpm               500.00:  Flow In 
 FLON.gpm               400.00:  Flow In Min 
 FLOS.cptm                0.00:  Fluid Loss 
 FLOX.gpm               500.00:  Flow In Max 
 DFT .        Mineral Oil Base:  Mud Type 
 HFLO.                      No:  High Flow 
 HPRE.                      No:  High Pressure 
 HTEM.                      No:  High Temp 
 HYDO.m                   1.80:  Hydro Offset 
 IFIN.deg                25.62:  Inc, Final 
 IMAX.deg                48.69:  Inc Max 
 IMIN.deg                24.01:  Inc Min 
 IMND.m                4962.57:  Inc Min Depth 
 IMXD.m                4119.01:  Inc Max Depth 
 JARR.                      No:  Jarring 
 LETM.      18.40.00 29-Aug-21:  Log End Time 
 LOST.hr                     0:  Lost Rig Time 
 LSTM.      21.00.00 20-Aug-21:  Log Start Time 
 MDCL.ppm             41500.00:  Mud Chlorides 
 MDES.     Inversion Oil/Synthetic:  Mud Desc 
 DFD .sg                  1.56:  Mud Density 
 MDMN.sg                  1.56:  Dens Mud Min 
 MDMX.sg                  1.56:  Dens Mud Max 
 MOIL.                      70:  Run Mud Oil % 
 MOWR.                   70:30:  Run Mud OWR 
 MSND.                     0.2:  Run Mud Sand % 
 MSOL.                    23.3:  Run Mud Solids% 
 DFV .spqt               78.00:  Mud Viscosity 
 MWOD.in                  6.75:  MWD Tool OD 
 MWSI.                      No:  Serv Intrp, MWD 
 OTIM.hr                218.30:  Time Operating 
 PCON.           Look Like New:  Pad Condition 
 PMAX.psia            11015.30:  Press Op, Max 
 PV  .cP                 38.00:  Mud PV 
 RUN .                     300:  Run Number 
 ROPA.m/hr               15.00:  ROP Avg 
 ROPN.m/hr                9.00:  ROP Min 
 ROPX.m/hr               17.00:  ROP Max 
 RPMA.rpm               120.00:  RPM Surface Avg 
 RPMN.rpm                90.00:  RPM Surface Min 
 RPMX.rpm               140.00:  RPM Surface Max 
 RRUN.                     300:  Rig Run Number 
 RTIM.hr                 31.53:  Time Reaming 
 SAZI.deg               331.64:  Azm, Start 
 SDEP.m                4127.00:  Start Depth 
 SIDD.                      No:  Serv Intrp, DD 
 SINC.deg                48.43:  Inc, Start 
 SPPA.psig             5830.00:  SPP Avg 
 SPPN.psig             5600.00:  SPP Min 
 SPPX.psig             5900.00:  SPP Max 
 STIM.      21.00.00 20-Aug-21:  Start Time 
 SVCS.                 DD, MWD:  Services 
 SVER.                    9.20:  Sperry Version 
 TDAT.m                 957.50:  Tot Depth Attmp 
 TDDF.                      No:  Trip for DD 
 TDLG.m                 957.50:  Tot Depth Loggd 
 TFF .                      No:  Trip for Fail 
 TQAA.f-kp               15.00:  Torque Abs Avg 
 TQAN.f-kp               12.00:  Torque Abs Min 
 TQAX.f-kp               19.00:  Torque Abs Max 
 TRRT.°/30m              -3.40:  Turn Rotating 
 MRT .                  EWR-M5:  Maximum Recorded Temperature 
 TTMX.degC              100.00:  Max Tool Temp 
 VS01.                90639251:  Virtual Str1 SN 
 VS02.                90634715:  Virtual Str2 SN 
 VS03.                90652479:  Virtual Str3 SN 
 VS04.                90642262:  Virtual Str4 SN 
 WBMN.klb                 0.00:  WOB Min 
 WITN.           Murad Guliyev:  Customer Rep 
 WITN.          Yashar Gaziyev:  Customer Rep 2 
 WOBA.klb                 9.00:  WOB Avg 
 WOBX.klb                12.00:  WOB Max 
 YP  .lhf2               30.00:  Yield Point 
~Curve Information Block
#MNEM.UNIT                 API CODE     Curve Description
#---------               -----------    ---------------------------
 TIME.HHMMSS            00 000 000 000:  GT Time & Date
 GTDEPTH.m              00 000 000 000:  GT Depth
 GTPQH.psia             00 000 000 000:  GT HR Quartz Pressure
 GTTQ.degC              00 000 000 000:  GT Quartz Temperature
 GTTN.NONE              00 000 000 000:  GT Test Number
 GTET.sec               00 000 000 000:  GT Elapsed Test Time
 GTTVD.m                00 000 000 000:  GT True Vertical Depth
#Other Information
#
#WARRANTY: Halliburton will use its best efforts to furnish customers with 
#accurate information and interpretations that are part of, and incident to, the services 
#provided.  However, Halliburton cannot and does not warrant the accuracy 
#or correctness of such information and interpretations.  Under no circumstances should any 
#such information or interpretation be relied upon as the sole basis for any drilling, 
#completion, production, or financial decision or any procedure involving any risk to the 
#safety of any drilling venture, drilling rig or its crew or any other third party.  The 
#Customer has full responsibility for all drilling, completion and production operation.  
#Halliburton makes no representations or warranties, either expressed or 
#implied, including, but not limited to, the implied warranties of merchantability or fitness 
#for a particular purpose, with respect to the services rendered.  In no event will 
#Halliburton be liable for failure to obtain any particular results or for 
#any damages, including, but not limited to, indirect, special or consequential damages, 
#resulting from the use of any information or interpretation provided by Halliburton.
#
~A           TIME           GTDEPTH  GTPQH  GTTQ  GTTN   GTET   GTTVD  
# ...
   12:25:40.030.27-Aug-2021 4914.80 7806.57 85.33 12.00 248.69 3262.04
   12:25:40.230.27-Aug-2021 4914.80 7806.29 85.33 12.00 248.89 3262.04
   12:25:40.430.27-Aug-2021 4914.80 7806.22 85.33 12.00 249.09 3262.04
   12:25:40.630.27-Aug-2021 4914.80 7806.22 85.33 12.00 249.29 3262.04
   12:25:40.830.27-Aug-2021 4914.80 7805.80 85.33 12.00 249.49 3262.04
   12:25:41.031.27-Aug-2021 4914.80 7811.40 85.33 12.00 249.69 3262.04
   12:25:41.231.27-Aug-2021 4914.80 7802.62 85.33 12.00 249.89 3262.04
   12:25:41.431.27-Aug-2021 4914.80 7806.85 85.33 12.00 250.09 3262.04
   12:25:41.631.27-Aug-2021 4914.80 7806.85 85.33 12.00 250.29 3262.04
   12:25:41.831.27-Aug-2021 4914.80 7805.15 85.33 12.00 250.49 3262.04
   12:25:42.031.27-Aug-2021 4914.80 7810.91 85.33 12.00 250.69 3262.04
   12:25:42.231.27-Aug-2021 4914.80 7802.03 85.33 12.00 250.89 3262.04
   12:25:42.431.27-Aug-2021 4914.80 7806.46 85.33 12.00 251.09 3262.04
   12:25:42.631.27-Aug-2021 4914.80 7806.46 85.33 12.00 251.29 3262.04
   12:25:42.831.27-Aug-2021 4914.80 7805.14 85.33 12.00 251.49 3262.04
   12:25:43.031.27-Aug-2021 4914.80 7805.58 85.33 12.00 251.69 3262.04
   12:25:43.231.27-Aug-2021 4914.80 7805.62 85.33 12.00 251.89 3262.04
   12:25:43.431.27-Aug-2021 4914.80 7810.27 85.33 12.00 252.09 3262.04
   12:25:43.631.27-Aug-2021 4914.80 7810.27 85.33 12.00 252.29 3262.04
   12:25:43.832.27-Aug-2021 4914.80 7807.17 85.33 12.00 252.49 3262.04
   12:25:44.032.27-Aug-2021 4914.80 7805.85 85.33 12.00 252.69 3262.04
   12:25:44.232.27-Aug-2021 4914.80 7805.86 85.33 12.00 252.89 3262.04
   12:25:44.432.27-Aug-2021 4914.80 7805.62 85.33 12.00 253.09 3262.04
   12:25:44.632.27-Aug-2021 4914.80 7805.62 85.33 12.00 253.29 3262.04
   12:25:44.832.27-Aug-2021 4914.80 7805.99 85.33 12.00 253.49 3262.04
   12:25:45.032.27-Aug-2021 4914.80 7807.07 85.33 12.00 253.69 3262.04
   12:25:45.232.27-Aug-2021 4914.80 7805.94 85.33 12.00 253.89 3262.04
   12:25:45.432.27-Aug-2021 4914.80 7805.93 85.33 12.00 254.09 3262.04
   12:25:45.632.27-Aug-2021 4914.80 7805.93 85.33 12.00 254.29 3262.04
   12:25:45.832.27-Aug-2021 4914.80 7805.50 85.33 12.00 254.49 3262.04
   12:25:46.032.27-Aug-2021 4914.80 7805.37 85.33 12.00 254.69 3262.04
   12:25:46.232.27-Aug-2021 4914.80 7805.27 85.33 12.00 254.89 3262.04
   12:25:46.432.27-Aug-2021 4914.80 7804.81 85.33 12.00 255.09 3262.04
   12:25:46.633.27-Aug-2021 4914.80 7804.81 85.33 12.00 255.29 3262.04
   12:25:46.833.27-Aug-2021 4914.80 7805.64 85.33 12.00 255.49 3262.04
   12:25:47.033.27-Aug-2021 4914.80 7805.71 85.33 12.00 255.69 3262.04
   12:25:47.233.27-Aug-2021 4914.80 7806.00 85.33 12.00 255.89 3262.04
   12:25:47.433.27-Aug-2021 4914.80 7805.84 85.33 12.00 256.09 3262.04
   12:25:47.633.27-Aug-2021 4914.80 7805.84 85.33 12.00 256.29 3262.04
   12:25:47.833.27-Aug-2021 4914.80 7805.69 85.33 12.00 256.49 3262.04
   12:25:48.033.27-Aug-2021 4914.80 7805.51 85.33 12.00 256.69 3262.04
   12:25:48.233.27-Aug-2021 4914.80 7809.26 85.33 12.00 256.89 3262.04
   12:25:48.433.27-Aug-2021 4914.80 7805.05 85.33 12.00 257.09 3262.04
   12:25:48.633.27-Aug-2021 4914.80 7805.05 85.33 12.00 257.29 3262.04
   12:25:48.833.27-Aug-2021 4914.80 7805.21 85.33 12.00 257.49 3262.04
   12:25:49.033.27-Aug-2021 4914.80 7804.98 85.33 12.00 257.69 3262.04
   12:25:49.233.27-Aug-2021 4914.80 7805.06 85.33 12.00 257.89 3262.04
   12:25:49.434.27-Aug-2021 4914.80 7805.00 85.33 12.00 258.09 3262.04
   12:25:49.634.27-Aug-2021 4914.80 7805.00 85.33 12.00 258.29 3262.04
   12:25:49.834.27-Aug-2021 4914.80 7805.24 85.33 12.00 258.49 3262.04
   12:25:50.034.27-Aug-2021 4914.80 7805.66 85.33 12.00 258.69 3262.04
   12:25:50.234.27-Aug-2021 4914.80 7805.93 85.33 12.00 258.89 3262.04
   12:25:50.434.27-Aug-2021 4914.80 7806.36 85.33 12.00 259.09 3262.04
   12:25:50.634.27-Aug-2021 4914.80 7806.36 85.33 12.00 259.29 3262.04
   12:25:50.834.27-Aug-2021 4914.80 7806.26 85.33 12.00 259.49 3262.04
   12:25:51.034.27-Aug-2021 4914.80 7806.11 85.33 12.00 259.69 3262.04
   12:25:51.234.27-Aug-2021 4914.80 7805.79 85.33 12.00 259.89 3262.04
   12:25:51.434.27-Aug-2021 4914.80 7805.79 85.33 12.00 260.09 3262.04
   12:25:51.634.27-Aug-2021 4914.80 7805.79 85.33 12.00 260.29 3262.04
   12:25:51.834.27-Aug-2021 4914.80 7805.38 85.33 12.00 260.49 3262.04
   12:25:52.034.27-Aug-2021 4914.80 7806.50 85.33 12.00 260.69 3262.04
   12:25:52.235.27-Aug-2021 4914.80 7805.40 85.33 12.00 260.89 3262.04
   12:25:52.435.27-Aug-2021 4914.80 7805.19 85.33 12.00 261.09 3262.04
   12:25:52.635.27-Aug-2021 4914.80 7805.19 85.33 12.00 261.29 3262.04
   12:25:52.835.27-Aug-2021 4914.80 7802.59 85.33 12.00 261.49 3262.04
   12:25:53.035.27-Aug-2021 4914.80 7806.14 85.33 12.00 261.69 3262.04
   12:25:53.235.27-Aug-2021 4914.80 7805.47 85.33 12.00 261.89 3262.04
   12:25:53.435.27-Aug-2021 4914.80 7805.24 85.33 12.00 262.09 3262.04
   12:25:53.635.27-Aug-2021 4914.80 7805.24 85.33 12.00 262.29 3262.04
   12:25:53.835.27-Aug-2021 4914.80 7805.44 85.33 12.00 262.49 3262.04
   12:25:54.035.27-Aug-2021 4914.80 7811.31 85.33 12.00 262.69 3262.04
   12:25:54.235.27-Aug-2021 4914.80 7802.53 85.33 12.00 262.89 3262.04
   12:25:54.435.27-Aug-2021 4914.80 7806.53 85.33 12.00 263.09 3262.04
   12:25:54.635.27-Aug-2021 4914.80 7806.53 85.33 12.00 263.29 3262.04
   12:25:54.835.27-Aug-2021 4914.80 7805.48 85.33 12.00 263.49 3262.04
   12:25:55.036.27-Aug-2021 4914.80 7805.60 85.33 12.00 263.69 3262.04
   12:25:55.236.27-Aug-2021 4914.80 7808.66 85.33 12.00 263.89 3262.04
   12:25:55.436.27-Aug-2021 4914.80 7804.73 85.33 12.00 264.09 3262.04
   12:25:55.636.27-Aug-2021 4914.80 7804.73 85.33 12.00 264.29 3262.04
   12:25:55.836.27-Aug-2021 4914.80 7805.06 85.33 12.00 264.49 3262.04
   12:25:56.036.27-Aug-2021 4914.80 7805.29 85.33 12.00 264.69 3262.04
   12:25:56.236.27-Aug-2021 4914.80 7805.52 85.33 12.00 264.89 3262.04
   12:25:56.436.27-Aug-2021 4914.80 7805.54 85.33 12.00 265.09 3262.04
   12:25:56.636.27-Aug-2021 4914.80 7805.54 85.33 12.00 265.29 3262.04
   12:25:56.836.27-Aug-2021 4914.80 7805.30 85.33 12.00 265.49 3262.04
   12:25:57.036.27-Aug-2021 4914.80 7805.51 85.33 12.00 265.69 3262.04
   12:25:57.236.27-Aug-2021 4914.80 7805.95 85.33 12.00 265.89 3262.04
   12:25:57.436.27-Aug-2021 4914.80 7806.03 85.33 12.00 266.09 3262.04
   12:25:57.636.27-Aug-2021 4914.80 7806.03 85.33 12.00 266.29 3262.04
   12:25:57.837.27-Aug-2021 4914.80 7805.83 85.33 12.00 266.49 3262.04
   12:25:58.037.27-Aug-2021 4914.80 7805.41 85.33 12.00 266.69 3262.04
   12:25:58.237.27-Aug-2021 4914.80 7805.53 85.33 12.00 266.89 3262.04
   12:25:58.437.27-Aug-2021 4914.80 7811.32 85.33 12.00 267.09 3262.04
   12:25:58.637.27-Aug-2021 4914.80 7811.32 85.33 12.00 267.29 3262.04
   12:25:58.837.27-Aug-2021 4914.80 7811.32 85.33 12.00 267.49 3262.04
   12:25:59.037.27-Aug-2021 4914.80 7805.31 85.33 12.00 267.70 3262.04
   12:25:59.237.27-Aug-2021 4914.80 7804.97 85.33 12.00 267.90 3262.04
   12:25:59.437.27-Aug-2021 4914.80 7804.79 85.33 12.00 268.10 3262.04
   12:25:59.637.27-Aug-2021 4914.80 7804.79 85.33 12.00 268.30 3262.04
   12:25:59.837.27-Aug-2021 4914.80 7804.83 85.33 12.00 268.50 3262.04
   12:26:00.037.27-Aug-2021 4914.80 7804.95 85.33 12.00 268.70 3262.04
   12:26:00.237.27-Aug-2021 4914.80 7805.04 85.33 12.00 268.90 3262.04
   12:26:00.437.27-Aug-2021 4914.80 7805.77 85.33 12.00 269.10 3262.04
   12:26:00.638.27-Aug-2021 4914.80 7805.77 85.33 12.00 269.30 3262.04
   12:26:00.838.27-Aug-2021 4914.80 7806.09 85.33 12.00 269.50 3262.04
   12:26:01.038.27-Aug-2021 4914.80 7806.09 85.33 12.00 269.70 3262.04
   12:26:01.238.27-Aug-2021 4914.80 7805.83 85.33 12.00 269.90 3262.04
   12:26:01.438.27-Aug-2021 4914.80 7805.77 85.33 12.00 270.10 3262.04
   12:26:01.638.27-Aug-2021 4914.80 7805.77 85.33 12.00 270.30 3262.04
   12:26:01.838.27-Aug-2021 4914.80 7811.42 85.33 12.00 270.50 3262.04
   12:26:02.038.27-Aug-2021 4914.80 7802.23 85.33 12.00 270.70 3262.04
   12:26:02.238.27-Aug-2021 4914.80 7806.51 85.33 12.00 270.90 3262.04
   12:26:02.438.27-Aug-2021 4914.80 7805.19 85.33 12.00 271.10 3262.04
