~Version Information
 VERS.                  2.0:   CWLS log ASCII Standard -VERSION 2.0
 WRAP.                   NO:   One line per depth step
~Well Information Block
#MNEM.UNIT     VALUE/NAME     DESCRIPTION
#---------     -----------    ---------------------------
 STRT.S             21:02:56 27-Aug-21: START TIME 21:02:56 27-Aug-21
 STOP.S             21:10:06 27-Aug-21: STOP TIME  21:10:06 27-Aug-21
 STEP.S                   0.00: STEP TIME
 NULL.                 -999.25: NULL VALUE
 DFWT.                        :  DIST FWL TEXT
 DFST.                        :  DIST FSL TEXT
 DMF .             Drill Floor:  DRILL MEAS FROM
 STIM.      20.00.00 17-Aug-21:  START TIME
 DATE.      19.00.00 29-Aug-21:  END TIME
 SPUD.               15-Aug-21:  SPUD DATE
 NREF.                    Grid:  NORTH REFERENCE
 HPTY.       Minimum Curvature:  HOLE POS TYPE
 DMOD.             Drill Model:  DRILL MOD DESC
 SVYD.                  Survey:  SURVEY DESC
 ILTD.               Lithology:  INTERP LTH DESC
 FTOP.          Formation Tops:  FORM TOPS DESC
 RIG .              East Azeri:  RIG NAME
 PDAT.          Mean Sea Level:  PERMANENT DATUM
 FLD .                     ACG:  FIELD NAME
 SON .        AZ-XX-0907180857:  JOB NUMBER
 CTRY.              Azerbaijan:  COUNTRY NAME
 WELL.                    D23x:  WELL NAME
 SRVC.     Turan Drilling and Engineering:  CONTRACTOR
 COMP.     BP Exploration (Caspian Sea) Ltd.:  COMPANY
 UWI .            /AZE00000214:  UNIQUE WELL IDENTIFIER
 API .            /AZE00000214:  API NUMBER
 MDS .        Operator Entered:  MAG DATA SOURCE
 BASE.              Azerbaijan:  LOGGING EQUIPMENT BASE LOCATION
 REGN.                   EESSA:  REGION
 PROV.                    Baku:  PROVINCE
 STAT.                    Baku:  STATE NAME
 MWDS.                    Baku:  MWD SHOP
 DOE .                     N/A:  DOE NUMBER
 DCON.         Sperry Drilling:  DIRECTNL CONTR
 UNIT.                     N/A:  LOGGING EQUIPMENT ID
 WTYP.                Deviated:  WELL TYPE
 CNTY.                        :  COUNTY
 LOC .                        :  LOCATION
 LMF .             Drill Floor:  LOG MEASURED FROM
 TVDS.m                  43.60:  TVDSS CORRECTN
 LATI.deg                40.02:  LATITUDE
 LONG.deg                51.45:  LONGITUDE
 WHNS.m                  -7.04:  WELL HEAD N/S
 WHEW.m                  -0.67:  WELL HEAD E/W
 UTMX.m              538762.90:  UTM X
 UTMY.m             4431871.34:  UTM Y
 DFWL.m                   0.00:  DISTANCE FWL
 DFSL.m                   0.00:  DISTANCE FSL
 SDEP.m                4127.00:  START DEPTH
 TDD .m                5084.50:  TOTAL DEPTH (DRILLER)
 VSDR.deg               140.47:  VERT SEC DIRECT
 GVFD.g                   1.00:  GRAVITY FIELD
 MFLD.nT              50362.00:  MAGNETIC FIELD
 MDIP.deg                59.48:  MAGNETIC DIP
 MDEC.deg                 6.47:  MAGNETIC DECL
 GRDC.deg                 0.31:  GRID CORRECTION
 AZTC.deg                 6.16:  AZM TOTAL CORR
 EPD .m                   0.00:  ELEVATION
 EGL .m                   0.00:  GROUND ELEVATION
 WDMS.m                 151.80:  WD ELEV
 APD .m                  43.60:  DEPTH ABOVE PD
 DEP .m                4092.57:  DEPTH
 AGAP.m                  43.60:  AIR GAP
 VSEW.m                  -0.67:  VERT SEC E/W
 VSNS.m                  -7.04:  VERT SEC N/S
 EKB .m                  43.60:  KB ELEVATION
 EDF .m                  43.60:  DF ELEVATION
 TDL .m                 957.50:  TOTAL DEPTH (LOGGER)
 VSC .                       0:  VS TO CLOSURE
 MAGU.                 1851413:  MAGUTM CHECKSUM
~Parameter Information Block
#MNEM.UNIT       Value        Description
#---------     -----------    ---------------------------
 AV  .mps                 1.50:  Ann Velocity 
 AVMX.mps                 2.00:  Max Ann Veloc 
 AZIF.deg               184.66:  Azm, Final 
 BHAT.        Rotary Steerable:  BHA Type 
 BREV.rev               300.00:  Rev Bit Total 
 BROT.°/30m              -0.50:  Build Rotating 
 BS  .in                  8.50:  Bit Size 
 BSZ .in                  8.50:  Bit Size 
 BTPL.psig              370.00:  Bit Press Loss 
 CABU.                      No:  Customer Abuse 
 CGEO.      Behruz Shahbaliyev:  Customer Geo 
 COMM.                     <]h:  Run Comments 1 
 TCS .hr                140.08:  Time Ciculation Ended 
 CV  .mps                 3.00:  Crit Velocity 
 CVMX.mps                 3.20:  Max Crit Veloc 
 DD1 .            Musa Ahmadov:  Direct Drillr 1 
 DD2 .           Hamid Ahmadov:  Direct Drillr 2 
 DDSV.               Geo-Pilot:  DD Service 
 DEFF.%                  98.40:  % Det Eff 
 DLRX.°/30m               3.40:  Dogleg Rot Max 
 DLSO.°/30m               1.45:  Dogleg Oriented 
 DLSX.°/30m               3.40:  Dogleg Str Max 
 DRET.      18.40.00 29-Aug-21:  Drill End Time 
 DRST.      21.00.00 20-Aug-21:  Drill Start Tim 
 DTIM.hr                 69.47:  Time Drilling 
 EDEP.m                5084.50:  End Depth 
 ENG1.      Artemiy Matviyanov:  Engineer 1 
 ENG2.         Almaz Almadatov:  Engineer 2 
 ETIM.      18.40.00 29-Aug-21:  End Time 
 FLOI.gpm               500.00:  Flow In 
 FLON.gpm               400.00:  Flow In Min 
 FLOS.cptm                0.00:  Fluid Loss 
 FLOX.gpm               500.00:  Flow In Max 
 DFT .        Mineral Oil Base:  Mud Type 
 HFLO.                      No:  High Flow 
 HPRE.                      No:  High Pressure 
 HTEM.                      No:  High Temp 
 HYDO.m                   1.80:  Hydro Offset 
 IFIN.deg                25.62:  Inc, Final 
 IMAX.deg                48.69:  Inc Max 
 IMIN.deg                24.01:  Inc Min 
 IMND.m                4962.57:  Inc Min Depth 
 IMXD.m                4119.01:  Inc Max Depth 
 JARR.                      No:  Jarring 
 LETM.      18.40.00 29-Aug-21:  Log End Time 
 LOST.hr                     0:  Lost Rig Time 
 LSTM.      21.00.00 20-Aug-21:  Log Start Time 
 MDCL.ppm             41500.00:  Mud Chlorides 
 MDES.     Inversion Oil/Synthetic:  Mud Desc 
 DFD .sg                  1.56:  Mud Density 
 MDMN.sg                  1.56:  Dens Mud Min 
 MDMX.sg                  1.56:  Dens Mud Max 
 MOIL.                      70:  Run Mud Oil % 
 MOWR.                   70:30:  Run Mud OWR 
 MSND.                     0.2:  Run Mud Sand % 
 MSOL.                    23.3:  Run Mud Solids% 
 DFV .spqt               78.00:  Mud Viscosity 
 MWOD.in                  6.75:  MWD Tool OD 
 MWSI.                      No:  Serv Intrp, MWD 
 OTIM.hr                218.30:  Time Operating 
 PCON.           Look Like New:  Pad Condition 
 PMAX.psia            11015.30:  Press Op, Max 
 PV  .cP                 38.00:  Mud PV 
 RUN .                     300:  Run Number 
 ROPA.m/hr               15.00:  ROP Avg 
 ROPN.m/hr                9.00:  ROP Min 
 ROPX.m/hr               17.00:  ROP Max 
 RPMA.rpm               120.00:  RPM Surface Avg 
 RPMN.rpm                90.00:  RPM Surface Min 
 RPMX.rpm               140.00:  RPM Surface Max 
 RRUN.                     300:  Rig Run Number 
 RTIM.hr                 31.53:  Time Reaming 
 SAZI.deg               331.64:  Azm, Start 
 SDEP.m                4127.00:  Start Depth 
 SIDD.                      No:  Serv Intrp, DD 
 SINC.deg                48.43:  Inc, Start 
 SPPA.psig             5830.00:  SPP Avg 
 SPPN.psig             5600.00:  SPP Min 
 SPPX.psig             5900.00:  SPP Max 
 STIM.      21.00.00 20-Aug-21:  Start Time 
 SVCS.                 DD, MWD:  Services 
 SVER.                    9.20:  Sperry Version 
 TDAT.m                 957.50:  Tot Depth Attmp 
 TDDF.                      No:  Trip for DD 
 TDLG.m                 957.50:  Tot Depth Loggd 
 TFF .                      No:  Trip for Fail 
 TQAA.f-kp               15.00:  Torque Abs Avg 
 TQAN.f-kp               12.00:  Torque Abs Min 
 TQAX.f-kp               19.00:  Torque Abs Max 
 TRRT.°/30m              -3.40:  Turn Rotating 
 MRT .                  EWR-M5:  Maximum Recorded Temperature 
 TTMX.degC              100.00:  Max Tool Temp 
 VS01.                90639251:  Virtual Str1 SN 
 VS02.                90634715:  Virtual Str2 SN 
 VS03.                90652479:  Virtual Str3 SN 
 VS04.                90642262:  Virtual Str4 SN 
 WBMN.klb                 0.00:  WOB Min 
 WITN.           Murad Guliyev:  Customer Rep 
 WITN.          Yashar Gaziyev:  Customer Rep 2 
 WOBA.klb                 9.00:  WOB Avg 
 WOBX.klb                12.00:  WOB Max 
 YP  .lhf2               30.00:  Yield Point 
~Curve Information Block
#MNEM.UNIT                 API CODE     Curve Description
#---------               -----------    ---------------------------
 TIME.HHMMSS            00 000 000 000:  GT Time & Date
 GTDEPTH.m              00 000 000 000:  GT Depth
 GTPQH.psia             00 000 000 000:  GT HR Quartz Pressure
 GTTQ.degC              00 000 000 000:  GT Quartz Temperature
 GTTN.NONE              00 000 000 000:  GT Test Number
 GTET.sec               00 000 000 000:  GT Elapsed Test Time
 GTTVD.m                00 000 000 000:  GT True Vertical Depth
#Other Information
#
#WARRANTY: Halliburton will use its best efforts to furnish customers with 
#accurate information and interpretations that are part of, and incident to, the services 
#provided.  However, Halliburton cannot and does not warrant the accuracy 
#or correctness of such information and interpretations.  Under no circumstances should any 
#such information or interpretation be relied upon as the sole basis for any drilling, 
#completion, production, or financial decision or any procedure involving any risk to the 
#safety of any drilling venture, drilling rig or its crew or any other third party.  The 
#Customer has full responsibility for all drilling, completion and production operation.  
#Halliburton makes no representations or warranties, either expressed or 
#implied, including, but not limited to, the implied warranties of merchantability or fitness 
#for a particular purpose, with respect to the services rendered.  In no event will 
#Halliburton be liable for failure to obtain any particular results or for 
#any damages, including, but not limited to, indirect, special or consequential damages, 
#resulting from the use of any information or interpretation provided by Halliburton.
#
~A           TIME           GTDEPTH  GTPQH  GTTQ  GTTN   GTET   GTTVD  
# ...
   21:09:20.362.27-Aug-2021 4647.50 7270.80 82.42 22.00 384.24 3019.99
   21:09:20.562.27-Aug-2021 4647.50 7270.72 82.42 22.00 384.44 3019.99
   21:09:20.762.27-Aug-2021 4647.50 7270.57 82.43 22.00 384.64 3019.99
   21:09:20.962.27-Aug-2021 4647.50 7272.61 82.43 22.00 384.84 3019.99
   21:09:21.162.27-Aug-2021 4647.50 7272.06 82.43 22.00 385.04 3019.99
   21:09:21.362.27-Aug-2021 4647.50 7272.06 82.43 22.00 385.24 3019.99
   21:09:21.562.27-Aug-2021 4647.50 7270.81 82.43 22.00 385.44 3019.99
   21:09:21.762.27-Aug-2021 4647.50 7271.31 82.43 22.00 385.64 3019.99
   21:09:21.962.27-Aug-2021 4647.50 7270.84 82.43 22.00 385.84 3019.99
   21:09:22.162.27-Aug-2021 4647.50 7271.25 82.43 22.00 386.04 3019.99
   21:09:22.362.27-Aug-2021 4647.50 7271.25 82.43 22.00 386.24 3019.99
   21:09:22.562.27-Aug-2021 4647.50 7270.98 82.43 22.00 386.44 3019.99
   21:09:22.762.27-Aug-2021 4647.50 7270.95 82.43 22.00 386.64 3019.99
   21:09:22.962.27-Aug-2021 4647.50 7271.25 82.43 22.00 386.84 3019.99
   21:09:23.162.27-Aug-2021 4647.50 7271.16 82.43 22.00 387.04 3019.99
   21:09:23.362.27-Aug-2021 4647.50 7271.16 82.43 22.00 387.24 3019.99
   21:09:23.562.27-Aug-2021 4647.50 7270.93 82.43 22.00 387.44 3019.99
   21:09:23.762.27-Aug-2021 4647.50 7270.91 82.43 22.00 387.64 3019.99
   21:09:23.962.27-Aug-2021 4647.50 7270.85 82.43 22.00 387.84 3019.99
   21:09:24.162.27-Aug-2021 4647.50 7270.74 82.43 22.00 388.04 3019.99
   21:09:24.362.27-Aug-2021 4647.50 7270.74 82.43 22.00 388.24 3019.99
   21:09:24.562.27-Aug-2021 4647.50 7272.31 82.43 22.00 388.44 3019.99
   21:09:24.762.27-Aug-2021 4647.50 7270.95 82.43 22.00 388.64 3019.99
   21:09:24.962.27-Aug-2021 4647.50 7270.88 82.43 22.00 388.84 3019.99
   21:09:25.162.27-Aug-2021 4647.50 7271.34 82.43 22.00 389.04 3019.99
   21:09:25.362.27-Aug-2021 4647.50 7271.34 82.43 22.00 389.24 3019.99
   21:09:25.562.27-Aug-2021 4647.50 7268.98 82.43 22.00 389.44 3019.99
   21:09:25.762.27-Aug-2021 4647.50 7271.44 82.43 22.00 389.64 3019.99
   21:09:25.962.27-Aug-2021 4647.50 7270.74 82.43 22.00 389.84 3019.99
   21:09:26.162.27-Aug-2021 4647.50 7271.46 82.43 22.00 390.04 3019.99
   21:09:26.362.27-Aug-2021 4647.50 7271.46 82.43 22.00 390.24 3019.99
   21:09:26.562.27-Aug-2021 4647.50 7276.23 82.43 22.00 390.44 3019.99
   21:09:26.762.27-Aug-2021 4647.50 7268.98 82.43 22.00 390.64 3019.99
   21:09:26.962.27-Aug-2021 4647.50 7270.90 82.43 22.00 390.84 3019.99
   21:09:27.162.27-Aug-2021 4647.50 7270.72 82.43 22.00 391.04 3019.99
   21:09:27.362.27-Aug-2021 4647.50 7270.72 82.43 22.00 391.24 3019.99
   21:09:27.562.27-Aug-2021 4647.50 7271.85 82.43 22.00 391.44 3019.99
   21:09:27.762.27-Aug-2021 4647.50 7272.52 82.43 22.00 391.64 3019.99
   21:09:27.962.27-Aug-2021 4647.50 7272.37 82.43 22.00 391.84 3019.99
   21:09:28.162.27-Aug-2021 4647.50 7270.79 82.43 22.00 392.04 3019.99
   21:09:28.362.27-Aug-2021 4647.50 7270.79 82.43 22.00 392.24 3019.99
   21:09:28.562.27-Aug-2021 4647.50 7271.43 82.43 22.00 392.44 3019.99
   21:09:28.762.27-Aug-2021 4647.50 7271.06 82.43 22.00 392.64 3019.99
   21:09:28.962.27-Aug-2021 4647.50 7271.22 82.43 22.00 392.84 3019.99
   21:09:29.162.27-Aug-2021 4647.50 7271.42 82.43 22.00 393.04 3019.99
   21:09:29.362.27-Aug-2021 4647.50 7271.42 82.43 22.00 393.24 3019.99
   21:09:29.563.27-Aug-2021 4647.50 7270.94 82.43 22.00 393.44 3019.99
   21:09:29.763.27-Aug-2021 4647.50 7270.99 82.43 22.00 393.64 3019.99
   21:09:29.963.27-Aug-2021 4647.50 7270.90 82.43 22.00 393.84 3019.99
   21:09:30.163.27-Aug-2021 4647.50 7270.88 82.43 22.00 394.04 3019.99
   21:09:30.363.27-Aug-2021 4647.50 7270.88 82.43 22.00 394.24 3019.99
   21:09:30.563.27-Aug-2021 4647.50 7270.64 82.43 22.00 394.44 3019.99
   21:09:30.763.27-Aug-2021 4647.50 7270.62 82.43 22.00 394.64 3019.99
   21:09:30.963.27-Aug-2021 4647.50 7272.44 82.43 22.00 394.84 3019.99
   21:09:31.163.27-Aug-2021 4647.50 7271.96 82.43 22.00 395.04 3019.99
   21:09:31.363.27-Aug-2021 4647.50 7271.96 82.43 22.00 395.24 3019.99
   21:09:31.563.27-Aug-2021 4647.50 7270.67 82.43 22.00 395.44 3019.99
   21:09:31.763.27-Aug-2021 4647.50 7271.12 82.43 22.00 395.64 3019.99
   21:09:31.963.27-Aug-2021 4647.50 7270.61 82.43 22.00 395.84 3019.99
   21:09:32.163.27-Aug-2021 4647.50 7271.02 82.43 22.00 396.04 3019.99
   21:09:32.363.27-Aug-2021 4647.50 7271.02 82.43 22.00 396.24 3019.99
   21:09:32.563.27-Aug-2021 4647.50 7270.99 82.43 22.00 396.44 3019.99
   21:09:32.763.27-Aug-2021 4647.50 7270.93 82.43 22.00 396.64 3019.99
   21:09:32.963.27-Aug-2021 4647.50 7271.07 82.43 22.00 396.84 3019.99
   21:09:33.163.27-Aug-2021 4647.50 7271.03 82.43 22.00 397.04 3019.99
   21:09:33.363.27-Aug-2021 4647.50 7271.03 82.43 22.00 397.24 3019.99
   21:09:33.563.27-Aug-2021 4647.50 7270.71 82.43 22.00 397.44 3019.99
   21:09:33.763.27-Aug-2021 4647.50 7270.73 82.42 22.00 397.64 3019.99
   21:09:33.963.27-Aug-2021 4647.50 7270.60 82.42 22.00 397.84 3019.99
   21:09:34.163.27-Aug-2021 4647.50 7270.47 82.42 22.00 398.04 3019.99
   21:09:34.363.27-Aug-2021 4647.50 7270.47 82.42 22.00 398.24 3019.99
   21:09:34.563.27-Aug-2021 4647.50 7271.95 82.42 22.00 398.44 3019.99
   21:09:34.763.27-Aug-2021 4647.50 7270.53 82.42 22.00 398.64 3019.99
   21:09:34.963.27-Aug-2021 4647.50 7270.47 82.42 22.00 398.84 3019.99
   21:09:35.163.27-Aug-2021 4647.50 7270.88 82.42 22.00 399.04 3019.99
   21:09:35.363.27-Aug-2021 4647.50 7270.88 82.42 22.00 399.24 3019.99
   21:09:35.563.27-Aug-2021 4647.50 7267.90 82.42 22.00 399.44 3019.99
   21:09:35.763.27-Aug-2021 4647.50 7271.01 82.42 22.00 399.64 3019.99
   21:09:35.963.27-Aug-2021 4647.50 7270.01 82.42 22.00 399.84 3019.99
   21:09:36.163.27-Aug-2021 4647.50 7271.05 82.42 22.00 400.04 3019.99
   21:09:36.363.27-Aug-2021 4647.50 7271.05 82.42 22.00 400.24 3019.99
   21:09:36.563.27-Aug-2021 4647.50 7276.16 82.42 22.00 400.44 3019.99
   21:09:36.763.27-Aug-2021 4647.50 7268.47 82.42 22.00 400.64 3019.99
   21:09:36.963.27-Aug-2021 4647.50 7270.51 82.42 22.00 400.84 3019.99
   21:09:37.163.27-Aug-2021 4647.50 7270.06 82.42 22.00 401.04 3019.99
   21:09:37.363.27-Aug-2021 4647.50 7270.06 82.42 22.00 401.24 3019.99
   21:09:37.563.27-Aug-2021 4647.50 7270.87 82.42 22.00 401.44 3019.99
   21:09:37.763.27-Aug-2021 4647.50 7273.49 82.42 22.00 401.64 3019.99
   21:09:37.963.27-Aug-2021 4647.50 7270.57 82.42 22.00 401.84 3019.99
   21:09:38.163.27-Aug-2021 4647.50 7270.46 82.42 22.00 402.04 3019.99
   21:09:38.363.27-Aug-2021 4647.50 7270.46 82.42 22.00 402.24 3019.99
   21:09:38.563.27-Aug-2021 4647.50 7270.75 82.42 22.00 402.44 3019.99
   21:09:38.763.27-Aug-2021 4647.50 7271.34 82.42 22.00 402.64 3019.99
   21:09:38.963.27-Aug-2021 4647.50 7270.59 82.42 22.00 402.84 3019.99
   21:09:39.163.27-Aug-2021 4647.50 7270.60 82.42 22.00 403.04 3019.99
   21:09:39.364.27-Aug-2021 4647.50 7270.60 82.42 22.00 403.24 3019.99
   21:09:39.564.27-Aug-2021 4647.50 7270.90 82.42 22.00 403.44 3019.99
   21:09:39.764.27-Aug-2021 4647.50 7270.84 82.42 22.00 403.64 3019.99
   21:09:39.964.27-Aug-2021 4647.50 7270.70 82.42 22.00 403.84 3019.99
   21:09:40.164.27-Aug-2021 4647.50 7270.52 82.42 22.00 404.04 3019.99
   21:09:40.364.27-Aug-2021 4647.50 7270.52 82.42 22.00 404.24 3019.99
   21:09:40.564.27-Aug-2021 4647.50 7270.48 82.42 22.00 404.44 3019.99
   21:09:40.764.27-Aug-2021 4647.50 7270.43 82.42 22.00 404.64 3019.99
   21:09:40.964.27-Aug-2021 4647.50 7273.81 82.42 22.00 404.84 3019.99
   21:09:41.164.27-Aug-2021 4647.50 7270.24 82.42 22.00 405.04 3019.99
   21:09:41.364.27-Aug-2021 4647.50 7270.24 82.42 22.00 405.24 3019.99
   21:09:41.564.27-Aug-2021 4647.50 7270.77 82.42 22.00 405.44 3019.99
   21:09:41.764.27-Aug-2021 4647.50 7271.07 82.42 22.00 405.64 3019.99
   21:09:41.964.27-Aug-2021 4647.50 7271.36 82.42 22.00 405.84 3019.99
   21:09:42.164.27-Aug-2021 4647.50 7270.92 82.42 22.00 406.04 3019.99
   21:09:42.364.27-Aug-2021 4647.50 7270.92 82.42 22.00 406.24 3019.99
   21:09:42.564.27-Aug-2021 4647.50 7270.99 82.42 22.00 406.44 3019.99
   21:09:42.764.27-Aug-2021 4647.50 7271.06 82.42 22.00 406.64 3019.99
