~Version Information
 VERS.                  2.0:   CWLS log ASCII Standard -VERSION 2.0
 WRAP.                   NO:   One line per depth step
~Well Information Block
#MNEM.UNIT     VALUE/NAME     DESCRIPTION
#---------     -----------    ---------------------------
 STRT.S             16:35:30 27-Aug-21: START TIME 16:35:30 27-Aug-21
 STOP.S             16:42:43 27-Aug-21: STOP TIME  16:42:43 27-Aug-21
 STEP.S                   0.00: STEP TIME
 NULL.                 -999.25: NULL VALUE
 DFWT.                        :  DIST FWL TEXT
 DFST.                        :  DIST FSL TEXT
 DMF .             Drill Floor:  DRILL MEAS FROM
 STIM.      20.00.00 17-Aug-21:  START TIME
 DATE.      19.00.00 29-Aug-21:  END TIME
 SPUD.               15-Aug-21:  SPUD DATE
 NREF.                    Grid:  NORTH REFERENCE
 HPTY.       Minimum Curvature:  HOLE POS TYPE
 DMOD.             Drill Model:  DRILL MOD DESC
 SVYD.                  Survey:  SURVEY DESC
 ILTD.               Lithology:  INTERP LTH DESC
 FTOP.          Formation Tops:  FORM TOPS DESC
 RIG .              East Azeri:  RIG NAME
 PDAT.          Mean Sea Level:  PERMANENT DATUM
 FLD .                     ACG:  FIELD NAME
 SON .        AZ-XX-0907180857:  JOB NUMBER
 CTRY.              Azerbaijan:  COUNTRY NAME
 WELL.                    D23x:  WELL NAME
 SRVC.     Turan Drilling and Engineering:  CONTRACTOR
 COMP.     BP Exploration (Caspian Sea) Ltd.:  COMPANY
 UWI .            /AZE00000214:  UNIQUE WELL IDENTIFIER
 API .            /AZE00000214:  API NUMBER
 MDS .        Operator Entered:  MAG DATA SOURCE
 BASE.              Azerbaijan:  LOGGING EQUIPMENT BASE LOCATION
 REGN.                   EESSA:  REGION
 PROV.                    Baku:  PROVINCE
 STAT.                    Baku:  STATE NAME
 MWDS.                    Baku:  MWD SHOP
 DOE .                     N/A:  DOE NUMBER
 DCON.         Sperry Drilling:  DIRECTNL CONTR
 UNIT.                     N/A:  LOGGING EQUIPMENT ID
 WTYP.                Deviated:  WELL TYPE
 CNTY.                        :  COUNTY
 LOC .                        :  LOCATION
 LMF .             Drill Floor:  LOG MEASURED FROM
 TVDS.m                  43.60:  TVDSS CORRECTN
 LATI.deg                40.02:  LATITUDE
 LONG.deg                51.45:  LONGITUDE
 WHNS.m                  -7.04:  WELL HEAD N/S
 WHEW.m                  -0.67:  WELL HEAD E/W
 UTMX.m              538762.90:  UTM X
 UTMY.m             4431871.34:  UTM Y
 DFWL.m                   0.00:  DISTANCE FWL
 DFSL.m                   0.00:  DISTANCE FSL
 SDEP.m                4127.00:  START DEPTH
 TDD .m                5084.50:  TOTAL DEPTH (DRILLER)
 VSDR.deg               140.47:  VERT SEC DIRECT
 GVFD.g                   1.00:  GRAVITY FIELD
 MFLD.nT              50362.00:  MAGNETIC FIELD
 MDIP.deg                59.48:  MAGNETIC DIP
 MDEC.deg                 6.47:  MAGNETIC DECL
 GRDC.deg                 0.31:  GRID CORRECTION
 AZTC.deg                 6.16:  AZM TOTAL CORR
 EPD .m                   0.00:  ELEVATION
 EGL .m                   0.00:  GROUND ELEVATION
 WDMS.m                 151.80:  WD ELEV
 APD .m                  43.60:  DEPTH ABOVE PD
 DEP .m                4092.57:  DEPTH
 AGAP.m                  43.60:  AIR GAP
 VSEW.m                  -0.67:  VERT SEC E/W
 VSNS.m                  -7.04:  VERT SEC N/S
 EKB .m                  43.60:  KB ELEVATION
 EDF .m                  43.60:  DF ELEVATION
 TDL .m                 957.50:  TOTAL DEPTH (LOGGER)
 VSC .                       0:  VS TO CLOSURE
 MAGU.                 1851413:  MAGUTM CHECKSUM
~Parameter Information Block
#MNEM.UNIT       Value        Description
#---------     -----------    ---------------------------
 AV  .mps                 1.50:  Ann Velocity 
 AVMX.mps                 2.00:  Max Ann Veloc 
 AZIF.deg               184.66:  Azm, Final 
 BHAT.        Rotary Steerable:  BHA Type 
 BREV.rev               300.00:  Rev Bit Total 
 BROT.°/30m              -0.50:  Build Rotating 
 BS  .in                  8.50:  Bit Size 
 BSZ .in                  8.50:  Bit Size 
 BTPL.psig              370.00:  Bit Press Loss 
 CABU.                      No:  Customer Abuse 
 CGEO.      Behruz Shahbaliyev:  Customer Geo 
 COMM.                     äU:  Run Comments 1 
 TCS .hr                140.08:  Time Ciculation Ended 
 CV  .mps                 3.00:  Crit Velocity 
 CVMX.mps                 3.20:  Max Crit Veloc 
 DD1 .            Musa Ahmadov:  Direct Drillr 1 
 DD2 .           Hamid Ahmadov:  Direct Drillr 2 
 DDSV.               Geo-Pilot:  DD Service 
 DEFF.%                  98.40:  % Det Eff 
 DLRX.°/30m               3.40:  Dogleg Rot Max 
 DLSO.°/30m               1.45:  Dogleg Oriented 
 DLSX.°/30m               3.40:  Dogleg Str Max 
 DRET.      18.40.00 29-Aug-21:  Drill End Time 
 DRST.      21.00.00 20-Aug-21:  Drill Start Tim 
 DTIM.hr                 69.47:  Time Drilling 
 EDEP.m                5084.50:  End Depth 
 ENG1.      Artemiy Matviyanov:  Engineer 1 
 ENG2.         Almaz Almadatov:  Engineer 2 
 ETIM.      18.40.00 29-Aug-21:  End Time 
 FLOI.gpm               500.00:  Flow In 
 FLON.gpm               400.00:  Flow In Min 
 FLOS.cptm                0.00:  Fluid Loss 
 FLOX.gpm               500.00:  Flow In Max 
 DFT .        Mineral Oil Base:  Mud Type 
 HFLO.                      No:  High Flow 
 HPRE.                      No:  High Pressure 
 HTEM.                      No:  High Temp 
 HYDO.m                   1.80:  Hydro Offset 
 IFIN.deg                25.62:  Inc, Final 
 IMAX.deg                48.69:  Inc Max 
 IMIN.deg                24.01:  Inc Min 
 IMND.m                4962.57:  Inc Min Depth 
 IMXD.m                4119.01:  Inc Max Depth 
 JARR.                      No:  Jarring 
 LETM.      18.40.00 29-Aug-21:  Log End Time 
 LOST.hr                     0:  Lost Rig Time 
 LSTM.      21.00.00 20-Aug-21:  Log Start Time 
 MDCL.ppm             41500.00:  Mud Chlorides 
 MDES.     Inversion Oil/Synthetic:  Mud Desc 
 DFD .sg                  1.56:  Mud Density 
 MDMN.sg                  1.56:  Dens Mud Min 
 MDMX.sg                  1.56:  Dens Mud Max 
 MOIL.                      70:  Run Mud Oil % 
 MOWR.                   70:30:  Run Mud OWR 
 MSND.                     0.2:  Run Mud Sand % 
 MSOL.                    23.3:  Run Mud Solids% 
 DFV .spqt               78.00:  Mud Viscosity 
 MWOD.in                  6.75:  MWD Tool OD 
 MWSI.                      No:  Serv Intrp, MWD 
 OTIM.hr                218.30:  Time Operating 
 PCON.           Look Like New:  Pad Condition 
 PMAX.psia            11015.30:  Press Op, Max 
 PV  .cP                 38.00:  Mud PV 
 RUN .                     300:  Run Number 
 ROPA.m/hr               15.00:  ROP Avg 
 ROPN.m/hr                9.00:  ROP Min 
 ROPX.m/hr               17.00:  ROP Max 
 RPMA.rpm               120.00:  RPM Surface Avg 
 RPMN.rpm                90.00:  RPM Surface Min 
 RPMX.rpm               140.00:  RPM Surface Max 
 RRUN.                     300:  Rig Run Number 
 RTIM.hr                 31.53:  Time Reaming 
 SAZI.deg               331.64:  Azm, Start 
 SDEP.m                4127.00:  Start Depth 
 SIDD.                      No:  Serv Intrp, DD 
 SINC.deg                48.43:  Inc, Start 
 SPPA.psig             5830.00:  SPP Avg 
 SPPN.psig             5600.00:  SPP Min 
 SPPX.psig             5900.00:  SPP Max 
 STIM.      21.00.00 20-Aug-21:  Start Time 
 SVCS.                 DD, MWD:  Services 
 SVER.                    9.20:  Sperry Version 
 TDAT.m                 957.50:  Tot Depth Attmp 
 TDDF.                      No:  Trip for DD 
 TDLG.m                 957.50:  Tot Depth Loggd 
 TFF .                      No:  Trip for Fail 
 TQAA.f-kp               15.00:  Torque Abs Avg 
 TQAN.f-kp               12.00:  Torque Abs Min 
 TQAX.f-kp               19.00:  Torque Abs Max 
 TRRT.°/30m              -3.40:  Turn Rotating 
 MRT .                  EWR-M5:  Maximum Recorded Temperature 
 TTMX.degC              100.00:  Max Tool Temp 
 VS01.                90639251:  Virtual Str1 SN 
 VS02.                90634715:  Virtual Str2 SN 
 VS03.                90652479:  Virtual Str3 SN 
 VS04.                90642262:  Virtual Str4 SN 
 WBMN.klb                 0.00:  WOB Min 
 WITN.           Murad Guliyev:  Customer Rep 
 WITN.          Yashar Gaziyev:  Customer Rep 2 
 WOBA.klb                 9.00:  WOB Avg 
 WOBX.klb                12.00:  WOB Max 
 YP  .lhf2               30.00:  Yield Point 
~Curve Information Block
#MNEM.UNIT                 API CODE     Curve Description
#---------               -----------    ---------------------------
 TIME.HHMMSS            00 000 000 000:  GT Time & Date
 GTDEPTH.m              00 000 000 000:  GT Depth
 GTPQH.psia             00 000 000 000:  GT HR Quartz Pressure
 GTTQ.degC              00 000 000 000:  GT Quartz Temperature
 GTTN.NONE              00 000 000 000:  GT Test Number
 GTET.sec               00 000 000 000:  GT Elapsed Test Time
 GTTVD.m                00 000 000 000:  GT True Vertical Depth
#Other Information
#
#WARRANTY: Halliburton will use its best efforts to furnish customers with 
#accurate information and interpretations that are part of, and incident to, the services 
#provided.  However, Halliburton cannot and does not warrant the accuracy 
#or correctness of such information and interpretations.  Under no circumstances should any 
#such information or interpretation be relied upon as the sole basis for any drilling, 
#completion, production, or financial decision or any procedure involving any risk to the 
#safety of any drilling venture, drilling rig or its crew or any other third party.  The 
#Customer has full responsibility for all drilling, completion and production operation.  
#Halliburton makes no representations or warranties, either expressed or 
#implied, including, but not limited to, the implied warranties of merchantability or fitness 
#for a particular purpose, with respect to the services rendered.  In no event will 
#Halliburton be liable for failure to obtain any particular results or for 
#any damages, including, but not limited to, indirect, special or consequential damages, 
#resulting from the use of any information or interpretation provided by Halliburton.
#
~A           TIME           GTDEPTH  GTPQH  GTTQ  GTTN   GTET   GTTVD  
# ...
   16:37:00.742.27-Aug-2021 4788.00 7522.03 83.22 17.00  90.31 3147.22
   16:37:00.942.27-Aug-2021 4788.00 7522.86 83.22 17.00  90.51 3147.22
   16:37:01.142.27-Aug-2021 4788.00 7521.71 83.22 17.00  90.71 3147.22
   16:37:01.341.27-Aug-2021 4788.00 7522.01 83.22 17.00  90.91 3147.22
   16:37:01.541.27-Aug-2021 4788.00 7522.01 83.22 17.00  91.11 3147.22
   16:37:01.741.27-Aug-2021 4788.00 7522.02 83.22 17.00  91.31 3147.22
   16:37:01.941.27-Aug-2021 4788.00 7522.79 83.22 17.00  91.51 3147.22
   16:37:02.141.27-Aug-2021 4788.00 7522.43 83.22 17.00  91.71 3147.22
   16:37:02.340.27-Aug-2021 4788.00 7522.69 83.22 17.00  91.91 3147.22
   16:37:02.540.27-Aug-2021 4788.00 7522.69 83.22 17.00  92.11 3147.22
   16:37:02.740.27-Aug-2021 4788.00 7522.73 83.22 17.00  92.31 3147.22
   16:37:02.940.27-Aug-2021 4788.00 7522.70 83.22 17.00  92.51 3147.22
   16:37:03.140.27-Aug-2021 4788.00 7522.62 83.22 17.00  92.71 3147.22
   16:37:03.339.27-Aug-2021 4788.00 7522.47 83.22 17.00  92.91 3147.22
   16:37:03.539.27-Aug-2021 4788.00 7522.47 83.22 17.00  93.11 3147.22
   16:37:03.739.27-Aug-2021 4788.00 7527.77 83.22 17.00  93.31 3147.22
   16:37:03.939.27-Aug-2021 4788.00 7520.26 83.22 17.00  93.51 3147.22
   16:37:04.139.27-Aug-2021 4788.00 7522.50 83.22 17.00  93.71 3147.22
   16:37:04.338.27-Aug-2021 4788.00 7523.13 83.22 17.00  93.91 3147.22
   16:37:04.538.27-Aug-2021 4788.00 7523.13 83.22 17.00  94.11 3147.22
   16:37:04.738.27-Aug-2021 4788.00 7525.39 83.22 17.00  94.31 3147.22
   16:37:04.938.27-Aug-2021 4788.00 7521.64 83.22 17.00  94.51 3147.22
   16:37:05.138.27-Aug-2021 4788.00 7522.18 83.22 17.00  94.71 3147.22
   16:37:05.337.27-Aug-2021 4788.00 7523.47 83.22 17.00  94.91 3147.22
   16:37:05.537.27-Aug-2021 4788.00 7523.47 83.22 17.00  95.11 3147.22
   16:37:05.737.27-Aug-2021 4788.00 7524.69 83.22 17.00  95.30 3147.22
   16:37:05.937.27-Aug-2021 4788.00 7523.72 83.22 17.00  95.50 3147.22
   16:37:06.137.27-Aug-2021 4788.00 7522.55 83.22 17.00  95.70 3147.22
   16:37:06.336.27-Aug-2021 4788.00 7523.54 83.22 17.00  95.90 3147.22
   16:37:06.536.27-Aug-2021 4788.00 7523.54 83.22 17.00  96.10 3147.22
   16:37:06.736.27-Aug-2021 4788.00 7523.58 83.22 17.00  96.30 3147.22
   16:37:06.936.27-Aug-2021 4788.00 7522.77 83.22 17.00  96.50 3147.22
   16:37:07.136.27-Aug-2021 4788.00 7522.77 83.22 17.00  96.70 3147.22
   16:37:07.335.27-Aug-2021 4788.00 7523.03 83.22 17.00  96.90 3147.22
   16:37:07.535.27-Aug-2021 4788.00 7523.03 83.22 17.00  97.10 3147.22
   16:37:07.735.27-Aug-2021 4788.00 7522.40 83.22 17.00  97.30 3147.22
   16:37:07.935.27-Aug-2021 4788.00 7522.39 83.22 17.00  97.50 3147.22
   16:37:08.135.27-Aug-2021 4788.00 7522.65 83.22 17.00  97.70 3147.22
   16:37:08.334.27-Aug-2021 4788.00 7522.93 83.22 17.00  97.90 3147.22
   16:37:08.534.27-Aug-2021 4788.00 7522.93 83.22 17.00  98.10 3147.22
   16:37:08.734.27-Aug-2021 4788.00 7523.15 83.22 17.00  98.30 3147.22
   16:37:08.934.27-Aug-2021 4788.00 7523.21 83.22 17.00  98.50 3147.22
   16:37:09.134.27-Aug-2021 4788.00 7523.06 83.22 17.00  98.70 3147.22
   16:37:09.333.27-Aug-2021 4788.00 7523.05 83.22 17.00  98.90 3147.22
   16:37:09.533.27-Aug-2021 4788.00 7523.05 83.22 17.00  99.10 3147.22
   16:37:09.733.27-Aug-2021 4788.00 7524.85 83.22 17.00  99.30 3147.22
   16:37:09.933.27-Aug-2021 4788.00 7524.22 83.22 17.00  99.50 3147.22
   16:37:10.133.27-Aug-2021 4788.00 7522.84 83.22 17.00  99.70 3147.22
   16:37:10.332.27-Aug-2021 4788.00 7523.48 83.22 17.00  99.90 3147.22
   16:37:10.532.27-Aug-2021 4788.00 7523.48 83.22 17.00 100.10 3147.22
   16:37:10.732.27-Aug-2021 4788.00 7522.37 83.22 17.00 100.30 3147.22
   16:37:10.932.27-Aug-2021 4788.00 7522.84 83.22 17.00 100.50 3147.22
   16:37:11.132.27-Aug-2021 4788.00 7522.49 83.22 17.00 100.70 3147.22
   16:37:11.331.27-Aug-2021 4788.00 7522.79 83.22 17.00 100.90 3147.22
   16:37:11.531.27-Aug-2021 4788.00 7522.79 83.22 17.00 101.10 3147.22
   16:37:11.731.27-Aug-2021 4788.00 7522.99 83.22 17.00 101.30 3147.22
   16:37:11.931.27-Aug-2021 4788.00 7523.30 83.22 17.00 101.50 3147.22
   16:37:12.131.27-Aug-2021 4788.00 7523.34 83.21 17.00 101.70 3147.22
   16:37:12.330.27-Aug-2021 4788.00 7523.29 83.21 17.00 101.90 3147.22
   16:37:12.530.27-Aug-2021 4788.00 7523.29 83.21 17.00 102.10 3147.22
   16:37:12.730.27-Aug-2021 4788.00 7523.25 83.21 17.00 102.30 3147.22
   16:37:12.930.27-Aug-2021 4788.00 7523.19 83.21 17.00 102.50 3147.22
   16:37:13.130.27-Aug-2021 4788.00 7523.15 83.21 17.00 102.70 3147.22
   16:37:13.329.27-Aug-2021 4788.00 7526.55 83.21 17.00 102.90 3147.22
   16:37:13.529.27-Aug-2021 4788.00 7526.55 83.21 17.00 103.10 3147.22
   16:37:13.729.27-Aug-2021 4788.00 7523.30 83.21 17.00 103.30 3147.22
   16:37:13.929.27-Aug-2021 4788.00 7523.90 83.21 17.00 103.50 3147.22
   16:37:14.129.27-Aug-2021 4788.00 7524.60 83.21 17.00 103.70 3147.22
   16:37:14.328.27-Aug-2021 4788.00 7524.63 83.21 17.00 103.90 3147.22
   16:37:14.528.27-Aug-2021 4788.00 7524.63 83.21 17.00 104.10 3147.22
   16:37:14.728.27-Aug-2021 4788.00 7523.35 83.21 17.00 104.30 3147.22
   16:37:14.928.27-Aug-2021 4788.00 7524.25 83.21 17.00 104.50 3147.22
   16:37:15.128.27-Aug-2021 4788.00 7522.58 83.21 17.00 104.70 3147.22
   16:37:15.327.27-Aug-2021 4788.00 7528.35 83.21 17.00 104.90 3147.22
   16:37:15.527.27-Aug-2021 4788.00 7528.35 83.21 17.00 105.10 3147.22
   16:37:15.727.27-Aug-2021 4788.00 7523.48 83.21 17.00 105.29 3147.22
   16:37:15.927.27-Aug-2021 4788.00 7524.52 83.21 17.00 105.49 3147.22
   16:37:16.127.27-Aug-2021 4788.00 7524.98 83.21 17.00 105.69 3147.22
   16:37:16.326.27-Aug-2021 4788.00 7525.07 83.21 17.00 105.89 3147.22
   16:37:16.526.27-Aug-2021 4788.00 7525.07 83.21 17.00 106.09 3147.22
   16:37:16.726.27-Aug-2021 4788.00 7523.59 83.21 17.00 106.29 3147.22
   16:37:16.926.27-Aug-2021 4788.00 7524.63 83.21 17.00 106.49 3147.22
   16:37:17.126.27-Aug-2021 4788.00 7522.76 83.21 17.00 106.69 3147.22
   16:37:17.325.27-Aug-2021 4788.00 7523.42 83.21 17.00 106.89 3147.22
   16:37:17.525.27-Aug-2021 4788.00 7523.42 83.21 17.00 107.09 3147.22
   16:37:17.725.27-Aug-2021 4788.00 7523.42 83.21 17.00 107.29 3147.22
   16:37:17.925.27-Aug-2021 4788.00 7523.91 83.21 17.00 107.49 3147.22
   16:37:18.125.27-Aug-2021 4788.00 7523.76 83.21 17.00 107.69 3147.22
   16:37:18.324.27-Aug-2021 4788.00 7524.09 83.21 17.00 107.89 3147.22
   16:37:18.524.27-Aug-2021 4788.00 7524.09 83.21 17.00 108.09 3147.22
   16:37:18.724.27-Aug-2021 4788.00 7523.93 83.21 17.00 108.29 3147.22
   16:37:18.924.27-Aug-2021 4788.00 7524.00 83.21 17.00 108.49 3147.22
   16:37:19.124.27-Aug-2021 4788.00 7523.96 83.21 17.00 108.69 3147.22
   16:37:19.323.27-Aug-2021 4788.00 7525.71 83.21 17.00 108.89 3147.22
   16:37:19.523.27-Aug-2021 4788.00 7525.71 83.21 17.00 109.09 3147.22
   16:37:19.723.27-Aug-2021 4788.00 7523.72 83.21 17.00 109.29 3147.22
   16:37:19.923.27-Aug-2021 4788.00 7524.26 83.21 17.00 109.49 3147.22
   16:37:20.123.27-Aug-2021 4788.00 7524.23 83.21 17.00 109.69 3147.22
   16:37:20.322.27-Aug-2021 4788.00 7523.00 83.21 17.00 109.89 3147.22
   16:37:20.522.27-Aug-2021 4788.00 7523.00 83.21 17.00 110.09 3147.22
   16:37:20.722.27-Aug-2021 4788.00 7523.18 83.21 17.00 110.29 3147.22
   16:37:20.922.27-Aug-2021 4788.00 7523.50 83.21 17.00 110.49 3147.22
   16:37:21.122.27-Aug-2021 4788.00 7523.85 83.21 17.00 110.69 3147.22
   16:37:21.321.27-Aug-2021 4788.00 7523.70 83.21 17.00 110.89 3147.22
   16:37:21.521.27-Aug-2021 4788.00 7523.70 83.21 17.00 111.09 3147.22
   16:37:21.721.27-Aug-2021 4788.00 7524.05 83.21 17.00 111.29 3147.22
   16:37:21.921.27-Aug-2021 4788.00 7524.02 83.21 17.00 111.49 3147.22
   16:37:22.121.27-Aug-2021 4788.00 7524.05 83.21 17.00 111.69 3147.22
   16:37:22.320.27-Aug-2021 4788.00 7523.92 83.21 17.00 111.89 3147.22
   16:37:22.520.27-Aug-2021 4788.00 7523.92 83.21 17.00 112.09 3147.22
   16:37:22.720.27-Aug-2021 4788.00 7523.81 83.21 17.00 112.29 3147.22
   16:37:22.920.27-Aug-2021 4788.00 7527.22 83.21 17.00 112.49 3147.22
   16:37:23.120.27-Aug-2021 4788.00 7523.71 83.21 17.00 112.69 3147.22
