~Version Information
 VERS.                  2.0:   CWLS log ASCII Standard -VERSION 2.0
 WRAP.                   NO:   One line per depth step
~Well Information Block
#MNEM.UNIT     VALUE/NAME     DESCRIPTION
#---------     -----------    ---------------------------
 STRT.S             23:43:00 27-Aug-21: START TIME 23:43:00 27-Aug-21
 STOP.S             23:50:14 27-Aug-21: STOP TIME  23:50:14 27-Aug-21
 STEP.S                   0.00: STEP TIME
 NULL.                 -999.25: NULL VALUE
 DFWT.                        :  DIST FWL TEXT
 DFST.                        :  DIST FSL TEXT
 DMF .             Drill Floor:  DRILL MEAS FROM
 STIM.      20.00.00 17-Aug-21:  START TIME
 DATE.      19.00.00 29-Aug-21:  END TIME
 SPUD.               15-Aug-21:  SPUD DATE
 NREF.                    Grid:  NORTH REFERENCE
 HPTY.       Minimum Curvature:  HOLE POS TYPE
 DMOD.             Drill Model:  DRILL MOD DESC
 SVYD.                  Survey:  SURVEY DESC
 ILTD.               Lithology:  INTERP LTH DESC
 FTOP.          Formation Tops:  FORM TOPS DESC
 RIG .              East Azeri:  RIG NAME
 PDAT.          Mean Sea Level:  PERMANENT DATUM
 FLD .                     ACG:  FIELD NAME
 SON .        AZ-XX-0907180857:  JOB NUMBER
 CTRY.              Azerbaijan:  COUNTRY NAME
 WELL.                    D23x:  WELL NAME
 SRVC.     Turan Drilling and Engineering:  CONTRACTOR
 COMP.     BP Exploration (Caspian Sea) Ltd.:  COMPANY
 UWI .            /AZE00000214:  UNIQUE WELL IDENTIFIER
 API .            /AZE00000214:  API NUMBER
 MDS .        Operator Entered:  MAG DATA SOURCE
 BASE.              Azerbaijan:  LOGGING EQUIPMENT BASE LOCATION
 REGN.                   EESSA:  REGION
 PROV.                    Baku:  PROVINCE
 STAT.                    Baku:  STATE NAME
 MWDS.                    Baku:  MWD SHOP
 DOE .                     N/A:  DOE NUMBER
 DCON.         Sperry Drilling:  DIRECTNL CONTR
 UNIT.                     N/A:  LOGGING EQUIPMENT ID
 WTYP.                Deviated:  WELL TYPE
 CNTY.                        :  COUNTY
 LOC .                        :  LOCATION
 LMF .             Drill Floor:  LOG MEASURED FROM
 TVDS.m                  43.60:  TVDSS CORRECTN
 LATI.deg                40.02:  LATITUDE
 LONG.deg                51.45:  LONGITUDE
 WHNS.m                  -7.04:  WELL HEAD N/S
 WHEW.m                  -0.67:  WELL HEAD E/W
 UTMX.m              538762.90:  UTM X
 UTMY.m             4431871.34:  UTM Y
 DFWL.m                   0.00:  DISTANCE FWL
 DFSL.m                   0.00:  DISTANCE FSL
 SDEP.m                4127.00:  START DEPTH
 TDD .m                5084.50:  TOTAL DEPTH (DRILLER)
 VSDR.deg               140.47:  VERT SEC DIRECT
 GVFD.g                   1.00:  GRAVITY FIELD
 MFLD.nT              50362.00:  MAGNETIC FIELD
 MDIP.deg                59.48:  MAGNETIC DIP
 MDEC.deg                 6.47:  MAGNETIC DECL
 GRDC.deg                 0.31:  GRID CORRECTION
 AZTC.deg                 6.16:  AZM TOTAL CORR
 EPD .m                   0.00:  ELEVATION
 EGL .m                   0.00:  GROUND ELEVATION
 WDMS.m                 151.80:  WD ELEV
 APD .m                  43.60:  DEPTH ABOVE PD
 DEP .m                4092.57:  DEPTH
 AGAP.m                  43.60:  AIR GAP
 VSEW.m                  -0.67:  VERT SEC E/W
 VSNS.m                  -7.04:  VERT SEC N/S
 EKB .m                  43.60:  KB ELEVATION
 EDF .m                  43.60:  DF ELEVATION
 TDL .m                 957.50:  TOTAL DEPTH (LOGGER)
 VSC .                       0:  VS TO CLOSURE
 MAGU.                 1851413:  MAGUTM CHECKSUM
~Parameter Information Block
#MNEM.UNIT       Value        Description
#---------     -----------    ---------------------------
 AV  .mps                 1.50:  Ann Velocity 
 AVMX.mps                 2.00:  Max Ann Veloc 
 AZIF.deg               184.66:  Azm, Final 
 BHAT.        Rotary Steerable:  BHA Type 
 BREV.rev               300.00:  Rev Bit Total 
 BROT.°/30m              -0.50:  Build Rotating 
 BS  .in                  8.50:  Bit Size 
 BSZ .in                  8.50:  Bit Size 
 BTPL.psig              370.00:  Bit Press Loss 
 CABU.                      No:  Customer Abuse 
 CGEO.      Behruz Shahbaliyev:  Customer Geo 
 COMM.                     Ì™‡:  Run Comments 1 
 TCS .hr                140.08:  Time Ciculation Ended 
 CV  .mps                 3.00:  Crit Velocity 
 CVMX.mps                 3.20:  Max Crit Veloc 
 DD1 .            Musa Ahmadov:  Direct Drillr 1 
 DD2 .           Hamid Ahmadov:  Direct Drillr 2 
 DDSV.               Geo-Pilot:  DD Service 
 DEFF.%                  98.40:  % Det Eff 
 DLRX.°/30m               3.40:  Dogleg Rot Max 
 DLSO.°/30m               1.45:  Dogleg Oriented 
 DLSX.°/30m               3.40:  Dogleg Str Max 
 DRET.      18.40.00 29-Aug-21:  Drill End Time 
 DRST.      21.00.00 20-Aug-21:  Drill Start Tim 
 DTIM.hr                 69.47:  Time Drilling 
 EDEP.m                5084.50:  End Depth 
 ENG1.      Artemiy Matviyanov:  Engineer 1 
 ENG2.         Almaz Almadatov:  Engineer 2 
 ETIM.      18.40.00 29-Aug-21:  End Time 
 FLOI.gpm               500.00:  Flow In 
 FLON.gpm               400.00:  Flow In Min 
 FLOS.cptm                0.00:  Fluid Loss 
 FLOX.gpm               500.00:  Flow In Max 
 DFT .        Mineral Oil Base:  Mud Type 
 HFLO.                      No:  High Flow 
 HPRE.                      No:  High Pressure 
 HTEM.                      No:  High Temp 
 HYDO.m                   1.80:  Hydro Offset 
 IFIN.deg                25.62:  Inc, Final 
 IMAX.deg                48.69:  Inc Max 
 IMIN.deg                24.01:  Inc Min 
 IMND.m                4962.57:  Inc Min Depth 
 IMXD.m                4119.01:  Inc Max Depth 
 JARR.                      No:  Jarring 
 LETM.      18.40.00 29-Aug-21:  Log End Time 
 LOST.hr                     0:  Lost Rig Time 
 LSTM.      21.00.00 20-Aug-21:  Log Start Time 
 MDCL.ppm             41500.00:  Mud Chlorides 
 MDES.     Inversion Oil/Synthetic:  Mud Desc 
 DFD .sg                  1.56:  Mud Density 
 MDMN.sg                  1.56:  Dens Mud Min 
 MDMX.sg                  1.56:  Dens Mud Max 
 MOIL.                      70:  Run Mud Oil % 
 MOWR.                   70:30:  Run Mud OWR 
 MSND.                     0.2:  Run Mud Sand % 
 MSOL.                    23.3:  Run Mud Solids% 
 DFV .spqt               78.00:  Mud Viscosity 
 MWOD.in                  6.75:  MWD Tool OD 
 MWSI.                      No:  Serv Intrp, MWD 
 OTIM.hr                218.30:  Time Operating 
 PCON.           Look Like New:  Pad Condition 
 PMAX.psia            11015.30:  Press Op, Max 
 PV  .cP                 38.00:  Mud PV 
 RUN .                     300:  Run Number 
 ROPA.m/hr               15.00:  ROP Avg 
 ROPN.m/hr                9.00:  ROP Min 
 ROPX.m/hr               17.00:  ROP Max 
 RPMA.rpm               120.00:  RPM Surface Avg 
 RPMN.rpm                90.00:  RPM Surface Min 
 RPMX.rpm               140.00:  RPM Surface Max 
 RRUN.                     300:  Rig Run Number 
 RTIM.hr                 31.53:  Time Reaming 
 SAZI.deg               331.64:  Azm, Start 
 SDEP.m                4127.00:  Start Depth 
 SIDD.                      No:  Serv Intrp, DD 
 SINC.deg                48.43:  Inc, Start 
 SPPA.psig             5830.00:  SPP Avg 
 SPPN.psig             5600.00:  SPP Min 
 SPPX.psig             5900.00:  SPP Max 
 STIM.      21.00.00 20-Aug-21:  Start Time 
 SVCS.                 DD, MWD:  Services 
 SVER.                    9.20:  Sperry Version 
 TDAT.m                 957.50:  Tot Depth Attmp 
 TDDF.                      No:  Trip for DD 
 TDLG.m                 957.50:  Tot Depth Loggd 
 TFF .                      No:  Trip for Fail 
 TQAA.f-kp               15.00:  Torque Abs Avg 
 TQAN.f-kp               12.00:  Torque Abs Min 
 TQAX.f-kp               19.00:  Torque Abs Max 
 TRRT.°/30m              -3.40:  Turn Rotating 
 MRT .                  EWR-M5:  Maximum Recorded Temperature 
 TTMX.degC              100.00:  Max Tool Temp 
 VS01.                90639251:  Virtual Str1 SN 
 VS02.                90634715:  Virtual Str2 SN 
 VS03.                90652479:  Virtual Str3 SN 
 VS04.                90642262:  Virtual Str4 SN 
 WBMN.klb                 0.00:  WOB Min 
 WITN.           Murad Guliyev:  Customer Rep 
 WITN.          Yashar Gaziyev:  Customer Rep 2 
 WOBA.klb                 9.00:  WOB Avg 
 WOBX.klb                12.00:  WOB Max 
 YP  .lhf2               30.00:  Yield Point 
~Curve Information Block
#MNEM.UNIT                 API CODE     Curve Description
#---------               -----------    ---------------------------
 TIME.HHMMSS            00 000 000 000:  GT Time & Date
 GTDEPTH.m              00 000 000 000:  GT Depth
 GTPQH.psia             00 000 000 000:  GT HR Quartz Pressure
 GTTQ.degC              00 000 000 000:  GT Quartz Temperature
 GTTN.NONE              00 000 000 000:  GT Test Number
 GTET.sec               00 000 000 000:  GT Elapsed Test Time
 GTTVD.m                00 000 000 000:  GT True Vertical Depth
#Other Information
#
#WARRANTY: Halliburton will use its best efforts to furnish customers with 
#accurate information and interpretations that are part of, and incident to, the services 
#provided.  However, Halliburton cannot and does not warrant the accuracy 
#or correctness of such information and interpretations.  Under no circumstances should any 
#such information or interpretation be relied upon as the sole basis for any drilling, 
#completion, production, or financial decision or any procedure involving any risk to the 
#safety of any drilling venture, drilling rig or its crew or any other third party.  The 
#Customer has full responsibility for all drilling, completion and production operation.  
#Halliburton makes no representations or warranties, either expressed or 
#implied, including, but not limited to, the implied warranties of merchantability or fitness 
#for a particular purpose, with respect to the services rendered.  In no event will 
#Halliburton be liable for failure to obtain any particular results or for 
#any damages, including, but not limited to, indirect, special or consequential damages, 
#resulting from the use of any information or interpretation provided by Halliburton.
#
~A           TIME           GTDEPTH  GTPQH  GTTQ  GTTN   GTET   GTTVD  
# ...
   23:48:16.567.27-Aug-2021 4669.00 4467.88 82.06 26.00 316.44 3039.49
   23:48:16.767.27-Aug-2021 4669.00 4467.90 82.06 26.00 316.64 3039.49
   23:48:16.967.27-Aug-2021 4669.00 4467.92 82.06 26.00 316.84 3039.49
   23:48:17.167.27-Aug-2021 4669.00 4467.93 82.06 26.00 317.04 3039.49
   23:48:17.367.27-Aug-2021 4669.00 4467.93 82.06 26.00 317.24 3039.49
   23:48:17.567.27-Aug-2021 4669.00 4468.38 82.06 26.00 317.44 3039.49
   23:48:17.767.27-Aug-2021 4669.00 4468.17 82.06 26.00 317.64 3039.49
   23:48:17.967.27-Aug-2021 4669.00 4468.33 82.06 26.00 317.84 3039.49
   23:48:18.167.27-Aug-2021 4669.00 4468.24 82.06 26.00 318.04 3039.49
   23:48:18.367.27-Aug-2021 4669.00 4468.24 82.06 26.00 318.24 3039.49
   23:48:18.567.27-Aug-2021 4669.00 4468.28 82.06 26.00 318.44 3039.49
   23:48:18.767.27-Aug-2021 4669.00 4468.39 82.06 26.00 318.64 3039.49
   23:48:18.967.27-Aug-2021 4669.00 4468.33 82.06 26.00 318.84 3039.49
   23:48:19.167.27-Aug-2021 4669.00 4468.40 82.06 26.00 319.04 3039.49
   23:48:19.367.27-Aug-2021 4669.00 4468.40 82.06 26.00 319.24 3039.49
   23:48:19.567.27-Aug-2021 4669.00 4468.41 82.06 26.00 319.44 3039.49
   23:48:19.767.27-Aug-2021 4669.00 4468.40 82.06 26.00 319.64 3039.49
   23:48:19.967.27-Aug-2021 4669.00 4468.42 82.06 26.00 319.84 3039.49
   23:48:20.168.27-Aug-2021 4669.00 4468.42 82.06 26.00 320.04 3039.49
   23:48:20.368.27-Aug-2021 4669.00 4468.42 82.06 26.00 320.24 3039.49
   23:48:20.568.27-Aug-2021 4669.00 4468.45 82.06 26.00 320.44 3039.49
   23:48:20.768.27-Aug-2021 4669.00 4468.41 82.06 26.00 320.64 3039.49
   23:48:20.968.27-Aug-2021 4669.00 4468.93 82.06 26.00 320.84 3039.49
   23:48:21.168.27-Aug-2021 4669.00 4468.58 82.06 26.00 321.04 3039.49
   23:48:21.368.27-Aug-2021 4669.00 4468.58 82.06 26.00 321.24 3039.49
   23:48:21.568.27-Aug-2021 4669.00 4468.61 82.06 26.00 321.44 3039.49
   23:48:21.768.27-Aug-2021 4669.00 4468.87 82.06 26.00 321.64 3039.49
   23:48:21.968.27-Aug-2021 4669.00 4469.10 82.06 26.00 321.84 3039.49
   23:48:22.168.27-Aug-2021 4669.00 4468.84 82.06 26.00 322.04 3039.49
   23:48:22.368.27-Aug-2021 4669.00 4468.84 82.06 26.00 322.24 3039.49
   23:48:22.568.27-Aug-2021 4669.00 4468.89 82.06 26.00 322.44 3039.49
   23:48:22.768.27-Aug-2021 4669.00 4469.02 82.06 26.00 322.64 3039.49
   23:48:22.968.27-Aug-2021 4669.00 4468.84 82.06 26.00 322.84 3039.49
   23:48:23.168.27-Aug-2021 4669.00 4469.29 82.06 26.00 323.04 3039.49
   23:48:23.368.27-Aug-2021 4669.00 4469.29 82.06 26.00 323.24 3039.49
   23:48:23.568.27-Aug-2021 4669.00 4469.18 82.06 26.00 323.44 3039.49
   23:48:23.768.27-Aug-2021 4669.00 4469.05 82.06 26.00 323.64 3039.49
   23:48:23.968.27-Aug-2021 4669.00 4469.18 82.05 26.00 323.84 3039.49
   23:48:24.168.27-Aug-2021 4669.00 4469.08 82.06 26.00 324.04 3039.49
   23:48:24.368.27-Aug-2021 4669.00 4469.08 82.06 26.00 324.24 3039.49
   23:48:24.568.27-Aug-2021 4669.00 4469.23 82.05 26.00 324.44 3039.49
   23:48:24.768.27-Aug-2021 4669.00 4469.43 82.05 26.00 324.64 3039.49
   23:48:24.968.27-Aug-2021 4669.00 4469.13 82.05 26.00 324.84 3039.49
   23:48:25.168.27-Aug-2021 4669.00 4469.33 82.05 26.00 325.04 3039.49
   23:48:25.368.27-Aug-2021 4669.00 4469.33 82.05 26.00 325.24 3039.49
   23:48:25.568.27-Aug-2021 4669.00 4469.32 82.05 26.00 325.44 3039.49
   23:48:25.768.27-Aug-2021 4669.00 4469.33 82.05 26.00 325.64 3039.49
   23:48:25.968.27-Aug-2021 4669.00 4469.33 82.05 26.00 325.84 3039.49
   23:48:26.168.27-Aug-2021 4669.00 4469.36 82.05 26.00 326.04 3039.49
   23:48:26.368.27-Aug-2021 4669.00 4469.36 82.05 26.00 326.24 3039.49
   23:48:26.568.27-Aug-2021 4669.00 4469.37 82.05 26.00 326.44 3039.49
   23:48:26.768.27-Aug-2021 4669.00 4469.37 82.05 26.00 326.64 3039.49
   23:48:26.968.27-Aug-2021 4669.00 4469.38 82.05 26.00 326.84 3039.49
   23:48:27.168.27-Aug-2021 4669.00 4469.39 82.05 26.00 327.04 3039.49
   23:48:27.368.27-Aug-2021 4669.00 4469.39 82.05 26.00 327.24 3039.49
   23:48:27.568.27-Aug-2021 4669.00 4469.39 82.05 26.00 327.44 3039.49
   23:48:27.768.27-Aug-2021 4669.00 4469.76 82.05 26.00 327.64 3039.49
   23:48:27.968.27-Aug-2021 4669.00 4469.45 82.05 26.00 327.84 3039.49
   23:48:28.169.27-Aug-2021 4669.00 4469.70 82.05 26.00 328.04 3039.49
   23:48:28.369.27-Aug-2021 4669.00 4469.70 82.05 26.00 328.24 3039.49
   23:48:28.569.27-Aug-2021 4669.00 4469.69 82.05 26.00 328.44 3039.49
   23:48:28.769.27-Aug-2021 4669.00 4469.57 82.05 26.00 328.64 3039.49
   23:48:28.969.27-Aug-2021 4669.00 4469.68 82.05 26.00 328.84 3039.49
   23:48:29.169.27-Aug-2021 4669.00 4469.63 82.05 26.00 329.04 3039.49
   23:48:29.369.27-Aug-2021 4669.00 4469.63 82.05 26.00 329.24 3039.49
   23:48:29.569.27-Aug-2021 4669.00 4469.66 82.05 26.00 329.44 3039.49
   23:48:29.769.27-Aug-2021 4669.00 4469.68 82.05 26.00 329.64 3039.49
   23:48:29.969.27-Aug-2021 4669.00 4469.68 82.05 26.00 329.84 3039.49
   23:48:30.169.27-Aug-2021 4669.00 4469.69 82.05 26.00 330.04 3039.49
   23:48:30.369.27-Aug-2021 4669.00 4469.69 82.05 26.00 330.24 3039.49
   23:48:30.569.27-Aug-2021 4669.00 4469.70 82.05 26.00 330.44 3039.49
   23:48:30.769.27-Aug-2021 4669.00 4469.67 82.05 26.00 330.64 3039.49
   23:48:30.969.27-Aug-2021 4669.00 4469.63 82.05 26.00 330.84 3039.49
   23:48:31.169.27-Aug-2021 4669.00 4470.15 82.05 26.00 331.04 3039.49
   23:48:31.369.27-Aug-2021 4669.00 4470.15 82.05 26.00 331.24 3039.49
   23:48:31.569.27-Aug-2021 4669.00 4470.03 82.05 26.00 331.44 3039.49
   23:48:31.769.27-Aug-2021 4669.00 4469.69 82.05 26.00 331.64 3039.49
   23:48:31.969.27-Aug-2021 4669.00 4470.22 82.05 26.00 331.84 3039.49
   23:48:32.169.27-Aug-2021 4669.00 4469.91 82.05 26.00 332.04 3039.49
   23:48:32.369.27-Aug-2021 4669.00 4469.91 82.05 26.00 332.24 3039.49
   23:48:32.569.27-Aug-2021 4669.00 4470.00 82.05 26.00 332.44 3039.49
   23:48:32.769.27-Aug-2021 4669.00 4470.09 82.05 26.00 332.64 3039.49
   23:48:32.969.27-Aug-2021 4669.00 4470.01 82.05 26.00 332.84 3039.49
   23:48:33.169.27-Aug-2021 4669.00 4470.01 82.05 26.00 333.04 3039.49
   23:48:33.369.27-Aug-2021 4669.00 4470.01 82.05 26.00 333.24 3039.49
   23:48:33.569.27-Aug-2021 4669.00 4470.12 82.05 26.00 333.44 3039.49
   23:48:33.769.27-Aug-2021 4669.00 4470.17 82.05 26.00 333.64 3039.49
   23:48:33.969.27-Aug-2021 4669.00 4470.12 82.05 26.00 333.84 3039.49
   23:48:34.169.27-Aug-2021 4669.00 4470.20 82.05 26.00 334.04 3039.49
   23:48:34.369.27-Aug-2021 4669.00 4470.20 82.05 26.00 334.24 3039.49
   23:48:34.569.27-Aug-2021 4669.00 4470.10 82.05 26.00 334.44 3039.49
   23:48:34.769.27-Aug-2021 4669.00 4470.26 82.05 26.00 334.64 3039.49
   23:48:34.969.27-Aug-2021 4669.00 4470.43 82.05 26.00 334.84 3039.49
   23:48:35.169.27-Aug-2021 4669.00 4470.15 82.05 26.00 335.04 3039.49
   23:48:35.369.27-Aug-2021 4669.00 4470.15 82.05 26.00 335.24 3039.49
   23:48:35.569.27-Aug-2021 4669.00 4470.27 82.05 26.00 335.44 3039.49
   23:48:35.769.27-Aug-2021 4669.00 4470.30 82.05 26.00 335.64 3039.49
   23:48:35.969.27-Aug-2021 4669.00 4470.32 82.05 26.00 335.84 3039.49
   23:48:36.170.27-Aug-2021 4669.00 4470.32 82.05 26.00 336.04 3039.49
   23:48:36.370.27-Aug-2021 4669.00 4470.32 82.05 26.00 336.24 3039.49
   23:48:36.570.27-Aug-2021 4669.00 4470.33 82.05 26.00 336.44 3039.49
   23:48:36.770.27-Aug-2021 4669.00 4470.35 82.05 26.00 336.64 3039.49
   23:48:36.970.27-Aug-2021 4669.00 4470.35 82.05 26.00 336.84 3039.49
   23:48:37.170.27-Aug-2021 4669.00 4470.35 82.05 26.00 337.04 3039.49
   23:48:37.370.27-Aug-2021 4669.00 4470.35 82.05 26.00 337.24 3039.49
   23:48:37.570.27-Aug-2021 4669.00 4470.36 82.05 26.00 337.44 3039.49
   23:48:37.770.27-Aug-2021 4669.00 4470.22 82.05 26.00 337.64 3039.49
   23:48:37.970.27-Aug-2021 4669.00 4470.66 82.05 26.00 337.84 3039.49
   23:48:38.170.27-Aug-2021 4669.00 4470.36 82.05 26.00 338.04 3039.49
   23:48:38.370.27-Aug-2021 4669.00 4470.36 82.05 26.00 338.24 3039.49
   23:48:38.570.27-Aug-2021 4669.00 4470.44 82.05 26.00 338.44 3039.49
   23:48:38.770.27-Aug-2021 4669.00 4470.58 82.05 26.00 338.64 3039.49
   23:48:38.970.27-Aug-2021 4669.00 4470.46 82.05 26.00 338.84 3039.49
