~Version Information
 VERS.                  2.0:   CWLS log ASCII Standard -VERSION 2.0
 WRAP.                   NO:   One line per depth step
~Well Information Block
#MNEM.UNIT     VALUE/NAME     DESCRIPTION
#---------     -----------    ---------------------------
 STRT.S             16:56:36 27-Aug-21: START TIME 16:56:36 27-Aug-21
 STOP.S             17:03:52 27-Aug-21: STOP TIME  17:03:52 27-Aug-21
 STEP.S                   0.00: STEP TIME
 NULL.                 -999.25: NULL VALUE
 DFWT.                        :  DIST FWL TEXT
 DFST.                        :  DIST FSL TEXT
 DMF .             Drill Floor:  DRILL MEAS FROM
 STIM.      20.00.00 17-Aug-21:  START TIME
 DATE.      19.00.00 29-Aug-21:  END TIME
 SPUD.               15-Aug-21:  SPUD DATE
 NREF.                    Grid:  NORTH REFERENCE
 HPTY.       Minimum Curvature:  HOLE POS TYPE
 DMOD.             Drill Model:  DRILL MOD DESC
 SVYD.                  Survey:  SURVEY DESC
 ILTD.               Lithology:  INTERP LTH DESC
 FTOP.          Formation Tops:  FORM TOPS DESC
 RIG .              East Azeri:  RIG NAME
 PDAT.          Mean Sea Level:  PERMANENT DATUM
 FLD .                     ACG:  FIELD NAME
 SON .        AZ-XX-0907180857:  JOB NUMBER
 CTRY.              Azerbaijan:  COUNTRY NAME
 WELL.                    D23x:  WELL NAME
 SRVC.     Turan Drilling and Engineering:  CONTRACTOR
 COMP.     BP Exploration (Caspian Sea) Ltd.:  COMPANY
 UWI .            /AZE00000214:  UNIQUE WELL IDENTIFIER
 API .            /AZE00000214:  API NUMBER
 MDS .        Operator Entered:  MAG DATA SOURCE
 BASE.              Azerbaijan:  LOGGING EQUIPMENT BASE LOCATION
 REGN.                   EESSA:  REGION
 PROV.                    Baku:  PROVINCE
 STAT.                    Baku:  STATE NAME
 MWDS.                    Baku:  MWD SHOP
 DOE .                     N/A:  DOE NUMBER
 DCON.         Sperry Drilling:  DIRECTNL CONTR
 UNIT.                     N/A:  LOGGING EQUIPMENT ID
 WTYP.                Deviated:  WELL TYPE
 CNTY.                        :  COUNTY
 LOC .                        :  LOCATION
 LMF .             Drill Floor:  LOG MEASURED FROM
 TVDS.m                  43.60:  TVDSS CORRECTN
 LATI.deg                40.02:  LATITUDE
 LONG.deg                51.45:  LONGITUDE
 WHNS.m                  -7.04:  WELL HEAD N/S
 WHEW.m                  -0.67:  WELL HEAD E/W
 UTMX.m              538762.90:  UTM X
 UTMY.m             4431871.34:  UTM Y
 DFWL.m                   0.00:  DISTANCE FWL
 DFSL.m                   0.00:  DISTANCE FSL
 SDEP.m                4127.00:  START DEPTH
 TDD .m                5084.50:  TOTAL DEPTH (DRILLER)
 VSDR.deg               140.47:  VERT SEC DIRECT
 GVFD.g                   1.00:  GRAVITY FIELD
 MFLD.nT              50362.00:  MAGNETIC FIELD
 MDIP.deg                59.48:  MAGNETIC DIP
 MDEC.deg                 6.47:  MAGNETIC DECL
 GRDC.deg                 0.31:  GRID CORRECTION
 AZTC.deg                 6.16:  AZM TOTAL CORR
 EPD .m                   0.00:  ELEVATION
 EGL .m                   0.00:  GROUND ELEVATION
 WDMS.m                 151.80:  WD ELEV
 APD .m                  43.60:  DEPTH ABOVE PD
 DEP .m                4092.57:  DEPTH
 AGAP.m                  43.60:  AIR GAP
 VSEW.m                  -0.67:  VERT SEC E/W
 VSNS.m                  -7.04:  VERT SEC N/S
 EKB .m                  43.60:  KB ELEVATION
 EDF .m                  43.60:  DF ELEVATION
 TDL .m                 957.50:  TOTAL DEPTH (LOGGER)
 VSC .                       0:  VS TO CLOSURE
 MAGU.                 1851413:  MAGUTM CHECKSUM
~Parameter Information Block
#MNEM.UNIT       Value        Description
#---------     -----------    ---------------------------
 AV  .mps                 1.50:  Ann Velocity 
 AVMX.mps                 2.00:  Max Ann Veloc 
 AZIF.deg               184.66:  Azm, Final 
 BHAT.        Rotary Steerable:  BHA Type 
 BREV.rev               300.00:  Rev Bit Total 
 BROT.°/30m              -0.50:  Build Rotating 
 BS  .in                  8.50:  Bit Size 
 BSZ .in                  8.50:  Bit Size 
 BTPL.psig              370.00:  Bit Press Loss 
 CABU.                      No:  Customer Abuse 
 CGEO.      Behruz Shahbaliyev:  Customer Geo 
 COMM.                     T
k:  Run Comments 1 
 TCS .hr                140.08:  Time Ciculation Ended 
 CV  .mps                 3.00:  Crit Velocity 
 CVMX.mps                 3.20:  Max Crit Veloc 
 DD1 .            Musa Ahmadov:  Direct Drillr 1 
 DD2 .           Hamid Ahmadov:  Direct Drillr 2 
 DDSV.               Geo-Pilot:  DD Service 
 DEFF.%                  98.40:  % Det Eff 
 DLRX.°/30m               3.40:  Dogleg Rot Max 
 DLSO.°/30m               1.45:  Dogleg Oriented 
 DLSX.°/30m               3.40:  Dogleg Str Max 
 DRET.      18.40.00 29-Aug-21:  Drill End Time 
 DRST.      21.00.00 20-Aug-21:  Drill Start Tim 
 DTIM.hr                 69.47:  Time Drilling 
 EDEP.m                5084.50:  End Depth 
 ENG1.      Artemiy Matviyanov:  Engineer 1 
 ENG2.         Almaz Almadatov:  Engineer 2 
 ETIM.      18.40.00 29-Aug-21:  End Time 
 FLOI.gpm               500.00:  Flow In 
 FLON.gpm               400.00:  Flow In Min 
 FLOS.cptm                0.00:  Fluid Loss 
 FLOX.gpm               500.00:  Flow In Max 
 DFT .        Mineral Oil Base:  Mud Type 
 HFLO.                      No:  High Flow 
 HPRE.                      No:  High Pressure 
 HTEM.                      No:  High Temp 
 HYDO.m                   1.80:  Hydro Offset 
 IFIN.deg                25.62:  Inc, Final 
 IMAX.deg                48.69:  Inc Max 
 IMIN.deg                24.01:  Inc Min 
 IMND.m                4962.57:  Inc Min Depth 
 IMXD.m                4119.01:  Inc Max Depth 
 JARR.                      No:  Jarring 
 LETM.      18.40.00 29-Aug-21:  Log End Time 
 LOST.hr                     0:  Lost Rig Time 
 LSTM.      21.00.00 20-Aug-21:  Log Start Time 
 MDCL.ppm             41500.00:  Mud Chlorides 
 MDES.     Inversion Oil/Synthetic:  Mud Desc 
 DFD .sg                  1.56:  Mud Density 
 MDMN.sg                  1.56:  Dens Mud Min 
 MDMX.sg                  1.56:  Dens Mud Max 
 MOIL.                      70:  Run Mud Oil % 
 MOWR.                   70:30:  Run Mud OWR 
 MSND.                     0.2:  Run Mud Sand % 
 MSOL.                    23.3:  Run Mud Solids% 
 DFV .spqt               78.00:  Mud Viscosity 
 MWOD.in                  6.75:  MWD Tool OD 
 MWSI.                      No:  Serv Intrp, MWD 
 OTIM.hr                218.30:  Time Operating 
 PCON.           Look Like New:  Pad Condition 
 PMAX.psia            11015.30:  Press Op, Max 
 PV  .cP                 38.00:  Mud PV 
 RUN .                     300:  Run Number 
 ROPA.m/hr               15.00:  ROP Avg 
 ROPN.m/hr                9.00:  ROP Min 
 ROPX.m/hr               17.00:  ROP Max 
 RPMA.rpm               120.00:  RPM Surface Avg 
 RPMN.rpm                90.00:  RPM Surface Min 
 RPMX.rpm               140.00:  RPM Surface Max 
 RRUN.                     300:  Rig Run Number 
 RTIM.hr                 31.53:  Time Reaming 
 SAZI.deg               331.64:  Azm, Start 
 SDEP.m                4127.00:  Start Depth 
 SIDD.                      No:  Serv Intrp, DD 
 SINC.deg                48.43:  Inc, Start 
 SPPA.psig             5830.00:  SPP Avg 
 SPPN.psig             5600.00:  SPP Min 
 SPPX.psig             5900.00:  SPP Max 
 STIM.      21.00.00 20-Aug-21:  Start Time 
 SVCS.                 DD, MWD:  Services 
 SVER.                    9.20:  Sperry Version 
 TDAT.m                 957.50:  Tot Depth Attmp 
 TDDF.                      No:  Trip for DD 
 TDLG.m                 957.50:  Tot Depth Loggd 
 TFF .                      No:  Trip for Fail 
 TQAA.f-kp               15.00:  Torque Abs Avg 
 TQAN.f-kp               12.00:  Torque Abs Min 
 TQAX.f-kp               19.00:  Torque Abs Max 
 TRRT.°/30m              -3.40:  Turn Rotating 
 MRT .                  EWR-M5:  Maximum Recorded Temperature 
 TTMX.degC              100.00:  Max Tool Temp 
 VS01.                90639251:  Virtual Str1 SN 
 VS02.                90634715:  Virtual Str2 SN 
 VS03.                90652479:  Virtual Str3 SN 
 VS04.                90642262:  Virtual Str4 SN 
 WBMN.klb                 0.00:  WOB Min 
 WITN.           Murad Guliyev:  Customer Rep 
 WITN.          Yashar Gaziyev:  Customer Rep 2 
 WOBA.klb                 9.00:  WOB Avg 
 WOBX.klb                12.00:  WOB Max 
 YP  .lhf2               30.00:  Yield Point 
~Curve Information Block
#MNEM.UNIT                 API CODE     Curve Description
#---------               -----------    ---------------------------
 TIME.HHMMSS            00 000 000 000:  GT Time & Date
 GTDEPTH.m              00 000 000 000:  GT Depth
 GTPQH.psia             00 000 000 000:  GT HR Quartz Pressure
 GTTQ.degC              00 000 000 000:  GT Quartz Temperature
 GTTN.NONE              00 000 000 000:  GT Test Number
 GTET.sec               00 000 000 000:  GT Elapsed Test Time
 GTTVD.m                00 000 000 000:  GT True Vertical Depth
#Other Information
#
#WARRANTY: Halliburton will use its best efforts to furnish customers with 
#accurate information and interpretations that are part of, and incident to, the services 
#provided.  However, Halliburton cannot and does not warrant the accuracy 
#or correctness of such information and interpretations.  Under no circumstances should any 
#such information or interpretation be relied upon as the sole basis for any drilling, 
#completion, production, or financial decision or any procedure involving any risk to the 
#safety of any drilling venture, drilling rig or its crew or any other third party.  The 
#Customer has full responsibility for all drilling, completion and production operation.  
#Halliburton makes no representations or warranties, either expressed or 
#implied, including, but not limited to, the implied warranties of merchantability or fitness 
#for a particular purpose, with respect to the services rendered.  In no event will 
#Halliburton be liable for failure to obtain any particular results or for 
#any damages, including, but not limited to, indirect, special or consequential damages, 
#resulting from the use of any information or interpretation provided by Halliburton.
#
~A           TIME           GTDEPTH  GTPQH  GTTQ  GTTN   GTET   GTTVD  
# ...
   16:58:51.633.27-Aug-2021 4788.50 7534.59 83.16 18.00 135.46 3147.67
   16:58:51.833.27-Aug-2021 4788.50 7534.85 83.16 18.00 135.66 3147.67
   16:58:52.033.27-Aug-2021 4788.50 7535.18 83.16 18.00 135.86 3147.67
   16:58:52.233.27-Aug-2021 4788.50 7535.18 83.16 18.00 136.06 3147.67
   16:58:52.433.27-Aug-2021 4788.50 7535.03 83.16 18.00 136.26 3147.67
   16:58:52.632.27-Aug-2021 4788.50 7535.04 83.16 18.00 136.46 3147.67
   16:58:52.832.27-Aug-2021 4788.50 7534.98 83.16 18.00 136.66 3147.67
   16:58:53.032.27-Aug-2021 4788.50 7534.84 83.16 18.00 136.86 3147.67
   16:58:53.232.27-Aug-2021 4788.50 7534.84 83.16 18.00 137.06 3147.67
   16:58:53.432.27-Aug-2021 4788.50 7532.26 83.16 18.00 137.26 3147.67
   16:58:53.631.27-Aug-2021 4788.50 7534.80 83.16 18.00 137.46 3147.67
   16:58:53.831.27-Aug-2021 4788.50 7535.69 83.16 18.00 137.66 3147.67
   16:58:54.031.27-Aug-2021 4788.50 7534.71 83.16 18.00 137.86 3147.67
   16:58:54.231.27-Aug-2021 4788.50 7534.71 83.16 18.00 138.06 3147.67
   16:58:54.431.27-Aug-2021 4788.50 7535.25 83.16 18.00 138.26 3147.67
   16:58:54.630.27-Aug-2021 4788.50 7534.22 83.16 18.00 138.46 3147.67
   16:58:54.830.27-Aug-2021 4788.50 7535.45 83.16 18.00 138.66 3147.67
   16:58:55.030.27-Aug-2021 4788.50 7535.13 83.16 18.00 138.86 3147.67
   16:58:55.230.27-Aug-2021 4788.50 7535.13 83.16 18.00 139.06 3147.67
   16:58:55.430.27-Aug-2021 4788.50 7537.32 83.16 18.00 139.26 3147.67
   16:58:55.629.27-Aug-2021 4788.50 7535.57 83.16 18.00 139.46 3147.67
   16:58:55.829.27-Aug-2021 4788.50 7534.58 83.16 18.00 139.66 3147.67
   16:58:56.029.27-Aug-2021 4788.50 7535.28 83.16 18.00 139.86 3147.67
   16:58:56.229.27-Aug-2021 4788.50 7535.28 83.16 18.00 140.06 3147.67
   16:58:56.429.27-Aug-2021 4788.50 7534.28 83.16 18.00 140.26 3147.67
   16:58:56.628.27-Aug-2021 4788.50 7539.39 83.16 18.00 140.46 3147.67
   16:58:56.828.27-Aug-2021 4788.50 7532.56 83.16 18.00 140.66 3147.67
   16:58:57.028.27-Aug-2021 4788.50 7534.78 83.16 18.00 140.86 3147.67
   16:58:57.228.27-Aug-2021 4788.50 7534.78 83.16 18.00 141.06 3147.67
   16:58:57.428.27-Aug-2021 4788.50 7534.17 83.16 18.00 141.26 3147.67
   16:58:57.627.27-Aug-2021 4788.50 7534.76 83.16 18.00 141.46 3147.67
   16:58:57.827.27-Aug-2021 4788.50 7533.98 83.16 18.00 141.66 3147.67
   16:58:58.027.27-Aug-2021 4788.50 7534.41 83.16 18.00 141.86 3147.67
   16:58:58.227.27-Aug-2021 4788.50 7534.41 83.16 18.00 142.06 3147.67
   16:58:58.427.27-Aug-2021 4788.50 7534.55 83.16 18.00 142.26 3147.67
   16:58:58.626.27-Aug-2021 4788.50 7534.79 83.16 18.00 142.46 3147.67
   16:58:58.826.27-Aug-2021 4788.50 7535.00 83.16 18.00 142.66 3147.67
   16:58:59.026.27-Aug-2021 4788.50 7534.91 83.16 18.00 142.86 3147.67
   16:58:59.226.27-Aug-2021 4788.50 7534.91 83.16 18.00 143.06 3147.67
   16:58:59.426.27-Aug-2021 4788.50 7534.94 83.16 18.00 143.26 3147.67
   16:58:59.625.27-Aug-2021 4788.50 7534.90 83.16 18.00 143.46 3147.67
   16:58:59.825.27-Aug-2021 4788.50 7539.75 83.16 18.00 143.66 3147.67
   16:59:00.025.27-Aug-2021 4788.50 7533.21 83.16 18.00 143.86 3147.67
   16:59:00.225.27-Aug-2021 4788.50 7533.21 83.16 18.00 144.06 3147.67
   16:59:00.425.27-Aug-2021 4788.50 7535.93 83.16 18.00 144.26 3147.67
   16:59:00.624.27-Aug-2021 4788.50 7534.77 83.16 18.00 144.46 3147.67
   16:59:00.824.27-Aug-2021 4788.50 7535.01 83.16 18.00 144.66 3147.67
   16:59:01.024.27-Aug-2021 4788.50 7534.28 83.16 18.00 144.86 3147.67
   16:59:01.224.27-Aug-2021 4788.50 7534.28 83.16 18.00 145.06 3147.67
   16:59:01.424.27-Aug-2021 4788.50 7535.35 83.16 18.00 145.25 3147.67
   16:59:01.623.27-Aug-2021 4788.50 7535.03 83.16 18.00 145.45 3147.67
   16:59:01.823.27-Aug-2021 4788.50 7535.28 83.16 18.00 145.65 3147.67
   16:59:02.023.27-Aug-2021 4788.50 7535.54 83.16 18.00 145.85 3147.67
   16:59:02.223.27-Aug-2021 4788.50 7535.54 83.16 18.00 146.05 3147.67
   16:59:02.423.27-Aug-2021 4788.50 7535.36 83.16 18.00 146.25 3147.67
   16:59:02.622.27-Aug-2021 4788.50 7535.32 83.16 18.00 146.45 3147.67
   16:59:02.822.27-Aug-2021 4788.50 7535.20 83.16 18.00 146.65 3147.67
   16:59:03.022.27-Aug-2021 4788.50 7535.00 83.16 18.00 146.85 3147.67
   16:59:03.222.27-Aug-2021 4788.50 7535.00 83.16 18.00 147.05 3147.67
   16:59:03.422.27-Aug-2021 4788.50 7532.37 83.16 18.00 147.25 3147.67
   16:59:03.621.27-Aug-2021 4788.50 7534.82 83.16 18.00 147.45 3147.67
   16:59:03.821.27-Aug-2021 4788.50 7535.66 83.16 18.00 147.65 3147.67
   16:59:04.021.27-Aug-2021 4788.50 7534.68 83.16 18.00 147.85 3147.67
   16:59:04.221.27-Aug-2021 4788.50 7534.68 83.16 18.00 148.05 3147.67
   16:59:04.421.27-Aug-2021 4788.50 7535.31 83.16 18.00 148.25 3147.67
   16:59:04.620.27-Aug-2021 4788.50 7534.30 83.16 18.00 148.45 3147.67
   16:59:04.820.27-Aug-2021 4788.50 7535.51 83.16 18.00 148.65 3147.67
   16:59:05.020.27-Aug-2021 4788.50 7535.23 83.16 18.00 148.85 3147.67
   16:59:05.220.27-Aug-2021 4788.50 7535.23 83.16 18.00 149.05 3147.67
   16:59:05.420.27-Aug-2021 4788.50 7537.52 83.16 18.00 149.25 3147.67
   16:59:05.619.27-Aug-2021 4788.50 7535.99 83.16 18.00 149.45 3147.67
   16:59:05.819.27-Aug-2021 4788.50 7534.90 83.16 18.00 149.65 3147.67
   16:59:06.019.27-Aug-2021 4788.50 7535.69 83.16 18.00 149.85 3147.67
   16:59:06.219.27-Aug-2021 4788.50 7535.69 83.16 18.00 150.05 3147.67
   16:59:06.419.27-Aug-2021 4788.50 7535.57 83.16 18.00 150.25 3147.67
   16:59:06.618.27-Aug-2021 4788.50 7540.02 83.16 18.00 150.45 3147.67
   16:59:06.818.27-Aug-2021 4788.50 7533.08 83.16 18.00 150.65 3147.67
   16:59:07.018.27-Aug-2021 4788.50 7535.41 83.16 18.00 150.85 3147.67
   16:59:07.218.27-Aug-2021 4788.50 7535.41 83.16 18.00 151.05 3147.67
   16:59:07.418.27-Aug-2021 4788.50 7534.84 83.16 18.00 151.25 3147.67
   16:59:07.617.27-Aug-2021 4788.50 7535.42 83.16 18.00 151.45 3147.67
   16:59:07.817.27-Aug-2021 4788.50 7534.62 83.16 18.00 151.65 3147.67
   16:59:08.017.27-Aug-2021 4788.50 7534.98 83.16 18.00 151.85 3147.67
   16:59:08.217.27-Aug-2021 4788.50 7534.98 83.16 18.00 152.05 3147.67
   16:59:08.417.27-Aug-2021 4788.50 7535.07 83.16 18.00 152.25 3147.67
   16:59:08.616.27-Aug-2021 4788.50 7535.24 83.16 18.00 152.45 3147.67
   16:59:08.816.27-Aug-2021 4788.50 7535.36 83.16 18.00 152.65 3147.67
   16:59:09.016.27-Aug-2021 4788.50 7535.20 83.16 18.00 152.85 3147.67
   16:59:09.216.27-Aug-2021 4788.50 7535.20 83.16 18.00 153.05 3147.67
   16:59:09.416.27-Aug-2021 4788.50 7535.17 83.16 18.00 153.25 3147.67
   16:59:09.615.27-Aug-2021 4788.50 7535.10 83.16 18.00 153.45 3147.67
   16:59:09.815.27-Aug-2021 4788.50 7539.99 83.16 18.00 153.65 3147.67
   16:59:10.015.27-Aug-2021 4788.50 7533.25 83.16 18.00 153.85 3147.67
   16:59:10.215.27-Aug-2021 4788.50 7533.25 83.16 18.00 154.05 3147.67
   16:59:10.415.27-Aug-2021 4788.50 7535.27 83.16 18.00 154.25 3147.67
   16:59:10.614.27-Aug-2021 4788.50 7534.91 83.16 18.00 154.45 3147.67
   16:59:10.814.27-Aug-2021 4788.50 7535.08 83.16 18.00 154.65 3147.67
   16:59:11.014.27-Aug-2021 4788.50 7534.37 83.16 18.00 154.85 3147.67
   16:59:11.214.27-Aug-2021 4788.50 7534.37 83.16 18.00 155.05 3147.67
   16:59:11.414.27-Aug-2021 4788.50 7535.46 83.16 18.00 155.25 3147.67
   16:59:11.613.27-Aug-2021 4788.50 7535.13 83.16 18.00 155.44 3147.67
   16:59:11.813.27-Aug-2021 4788.50 7535.40 83.16 18.00 155.64 3147.67
   16:59:12.013.27-Aug-2021 4788.50 7535.55 83.16 18.00 155.84 3147.67
   16:59:12.213.27-Aug-2021 4788.50 7535.55 83.16 18.00 156.04 3147.67
   16:59:12.413.27-Aug-2021 4788.50 7535.43 83.16 18.00 156.24 3147.67
   16:59:12.612.27-Aug-2021 4788.50 7535.42 83.16 18.00 156.44 3147.67
   16:59:12.812.27-Aug-2021 4788.50 7535.32 83.16 18.00 156.64 3147.67
   16:59:13.012.27-Aug-2021 4788.50 7535.16 83.16 18.00 156.84 3147.67
   16:59:13.212.27-Aug-2021 4788.50 7535.16 83.16 18.00 157.04 3147.67
   16:59:13.412.27-Aug-2021 4788.50 7532.73 83.16 18.00 157.24 3147.67
   16:59:13.611.27-Aug-2021 4788.50 7535.18 83.16 18.00 157.44 3147.67
   16:59:13.811.27-Aug-2021 4788.50 7535.98 83.16 18.00 157.64 3147.67
   16:59:14.011.27-Aug-2021 4788.50 7534.98 83.16 18.00 157.84 3147.67
