~Version Information
 VERS.                  2.0:   CWLS log ASCII Standard -VERSION 2.0
 WRAP.                   NO:   One line per depth step
~Well Information Block
#MNEM.UNIT     VALUE/NAME     DESCRIPTION
#---------     -----------    ---------------------------
 STRT.S             13:07:39 27-Aug-21: START TIME 13:07:39 27-Aug-21
 STOP.S             13:14:54 27-Aug-21: STOP TIME  13:14:54 27-Aug-21
 STEP.S                   0.00: STEP TIME
 NULL.                 -999.25: NULL VALUE
 DFWT.                        :  DIST FWL TEXT
 DFST.                        :  DIST FSL TEXT
 DMF .             Drill Floor:  DRILL MEAS FROM
 STIM.      20.00.00 17-Aug-21:  START TIME
 DATE.      19.00.00 29-Aug-21:  END TIME
 SPUD.               15-Aug-21:  SPUD DATE
 NREF.                    Grid:  NORTH REFERENCE
 HPTY.       Minimum Curvature:  HOLE POS TYPE
 DMOD.             Drill Model:  DRILL MOD DESC
 SVYD.                  Survey:  SURVEY DESC
 ILTD.               Lithology:  INTERP LTH DESC
 FTOP.          Formation Tops:  FORM TOPS DESC
 RIG .              East Azeri:  RIG NAME
 PDAT.          Mean Sea Level:  PERMANENT DATUM
 FLD .                     ACG:  FIELD NAME
 SON .        AZ-XX-0907180857:  JOB NUMBER
 CTRY.              Azerbaijan:  COUNTRY NAME
 WELL.                    D23x:  WELL NAME
 SRVC.     Turan Drilling and Engineering:  CONTRACTOR
 COMP.     BP Exploration (Caspian Sea) Ltd.:  COMPANY
 UWI .            /AZE00000214:  UNIQUE WELL IDENTIFIER
 API .            /AZE00000214:  API NUMBER
 MDS .        Operator Entered:  MAG DATA SOURCE
 BASE.              Azerbaijan:  LOGGING EQUIPMENT BASE LOCATION
 REGN.                   EESSA:  REGION
 PROV.                    Baku:  PROVINCE
 STAT.                    Baku:  STATE NAME
 MWDS.                    Baku:  MWD SHOP
 DOE .                     N/A:  DOE NUMBER
 DCON.         Sperry Drilling:  DIRECTNL CONTR
 UNIT.                     N/A:  LOGGING EQUIPMENT ID
 WTYP.                Deviated:  WELL TYPE
 CNTY.                        :  COUNTY
 LOC .                        :  LOCATION
 LMF .             Drill Floor:  LOG MEASURED FROM
 TVDS.m                  43.60:  TVDSS CORRECTN
 LATI.deg                40.02:  LATITUDE
 LONG.deg                51.45:  LONGITUDE
 WHNS.m                  -7.04:  WELL HEAD N/S
 WHEW.m                  -0.67:  WELL HEAD E/W
 UTMX.m              538762.90:  UTM X
 UTMY.m             4431871.34:  UTM Y
 DFWL.m                   0.00:  DISTANCE FWL
 DFSL.m                   0.00:  DISTANCE FSL
 SDEP.m                4127.00:  START DEPTH
 TDD .m                5084.50:  TOTAL DEPTH (DRILLER)
 VSDR.deg               140.47:  VERT SEC DIRECT
 GVFD.g                   1.00:  GRAVITY FIELD
 MFLD.nT              50362.00:  MAGNETIC FIELD
 MDIP.deg                59.48:  MAGNETIC DIP
 MDEC.deg                 6.47:  MAGNETIC DECL
 GRDC.deg                 0.31:  GRID CORRECTION
 AZTC.deg                 6.16:  AZM TOTAL CORR
 EPD .m                   0.00:  ELEVATION
 EGL .m                   0.00:  GROUND ELEVATION
 WDMS.m                 151.80:  WD ELEV
 APD .m                  43.60:  DEPTH ABOVE PD
 DEP .m                4092.57:  DEPTH
 AGAP.m                  43.60:  AIR GAP
 VSEW.m                  -0.67:  VERT SEC E/W
 VSNS.m                  -7.04:  VERT SEC N/S
 EKB .m                  43.60:  KB ELEVATION
 EDF .m                  43.60:  DF ELEVATION
 TDL .m                 957.50:  TOTAL DEPTH (LOGGER)
 VSC .                       0:  VS TO CLOSURE
 MAGU.                 1851413:  MAGUTM CHECKSUM
~Parameter Information Block
#MNEM.UNIT       Value        Description
#---------     -----------    ---------------------------
 AV  .mps                 1.50:  Ann Velocity 
 AVMX.mps                 2.00:  Max Ann Veloc 
 AZIF.deg               184.66:  Azm, Final 
 BHAT.        Rotary Steerable:  BHA Type 
 BREV.rev               300.00:  Rev Bit Total 
 BROT.°/30m              -0.50:  Build Rotating 
 BS  .in                  8.50:  Bit Size 
 BSZ .in                  8.50:  Bit Size 
 BTPL.psig              370.00:  Bit Press Loss 
 CABU.                      No:  Customer Abuse 
 CGEO.      Behruz Shahbaliyev:  Customer Geo 
 COMM.                     ¤R:  Run Comments 1 
 TCS .hr                140.08:  Time Ciculation Ended 
 CV  .mps                 3.00:  Crit Velocity 
 CVMX.mps                 3.20:  Max Crit Veloc 
 DD1 .            Musa Ahmadov:  Direct Drillr 1 
 DD2 .           Hamid Ahmadov:  Direct Drillr 2 
 DDSV.               Geo-Pilot:  DD Service 
 DEFF.%                  98.40:  % Det Eff 
 DLRX.°/30m               3.40:  Dogleg Rot Max 
 DLSO.°/30m               1.45:  Dogleg Oriented 
 DLSX.°/30m               3.40:  Dogleg Str Max 
 DRET.      18.40.00 29-Aug-21:  Drill End Time 
 DRST.      21.00.00 20-Aug-21:  Drill Start Tim 
 DTIM.hr                 69.47:  Time Drilling 
 EDEP.m                5084.50:  End Depth 
 ENG1.      Artemiy Matviyanov:  Engineer 1 
 ENG2.         Almaz Almadatov:  Engineer 2 
 ETIM.      18.40.00 29-Aug-21:  End Time 
 FLOI.gpm               500.00:  Flow In 
 FLON.gpm               400.00:  Flow In Min 
 FLOS.cptm                0.00:  Fluid Loss 
 FLOX.gpm               500.00:  Flow In Max 
 DFT .        Mineral Oil Base:  Mud Type 
 HFLO.                      No:  High Flow 
 HPRE.                      No:  High Pressure 
 HTEM.                      No:  High Temp 
 HYDO.m                   1.80:  Hydro Offset 
 IFIN.deg                25.62:  Inc, Final 
 IMAX.deg                48.69:  Inc Max 
 IMIN.deg                24.01:  Inc Min 
 IMND.m                4962.57:  Inc Min Depth 
 IMXD.m                4119.01:  Inc Max Depth 
 JARR.                      No:  Jarring 
 LETM.      18.40.00 29-Aug-21:  Log End Time 
 LOST.hr                     0:  Lost Rig Time 
 LSTM.      21.00.00 20-Aug-21:  Log Start Time 
 MDCL.ppm             41500.00:  Mud Chlorides 
 MDES.     Inversion Oil/Synthetic:  Mud Desc 
 DFD .sg                  1.56:  Mud Density 
 MDMN.sg                  1.56:  Dens Mud Min 
 MDMX.sg                  1.56:  Dens Mud Max 
 MOIL.                      70:  Run Mud Oil % 
 MOWR.                   70:30:  Run Mud OWR 
 MSND.                     0.2:  Run Mud Sand % 
 MSOL.                    23.3:  Run Mud Solids% 
 DFV .spqt               78.00:  Mud Viscosity 
 MWOD.in                  6.75:  MWD Tool OD 
 MWSI.                      No:  Serv Intrp, MWD 
 OTIM.hr                218.30:  Time Operating 
 PCON.           Look Like New:  Pad Condition 
 PMAX.psia            11015.30:  Press Op, Max 
 PV  .cP                 38.00:  Mud PV 
 RUN .                     300:  Run Number 
 ROPA.m/hr               15.00:  ROP Avg 
 ROPN.m/hr                9.00:  ROP Min 
 ROPX.m/hr               17.00:  ROP Max 
 RPMA.rpm               120.00:  RPM Surface Avg 
 RPMN.rpm                90.00:  RPM Surface Min 
 RPMX.rpm               140.00:  RPM Surface Max 
 RRUN.                     300:  Rig Run Number 
 RTIM.hr                 31.53:  Time Reaming 
 SAZI.deg               331.64:  Azm, Start 
 SDEP.m                4127.00:  Start Depth 
 SIDD.                      No:  Serv Intrp, DD 
 SINC.deg                48.43:  Inc, Start 
 SPPA.psig             5830.00:  SPP Avg 
 SPPN.psig             5600.00:  SPP Min 
 SPPX.psig             5900.00:  SPP Max 
 STIM.      21.00.00 20-Aug-21:  Start Time 
 SVCS.                 DD, MWD:  Services 
 SVER.                    9.20:  Sperry Version 
 TDAT.m                 957.50:  Tot Depth Attmp 
 TDDF.                      No:  Trip for DD 
 TDLG.m                 957.50:  Tot Depth Loggd 
 TFF .                      No:  Trip for Fail 
 TQAA.f-kp               15.00:  Torque Abs Avg 
 TQAN.f-kp               12.00:  Torque Abs Min 
 TQAX.f-kp               19.00:  Torque Abs Max 
 TRRT.°/30m              -3.40:  Turn Rotating 
 MRT .                  EWR-M5:  Maximum Recorded Temperature 
 TTMX.degC              100.00:  Max Tool Temp 
 VS01.                90639251:  Virtual Str1 SN 
 VS02.                90634715:  Virtual Str2 SN 
 VS03.                90652479:  Virtual Str3 SN 
 VS04.                90642262:  Virtual Str4 SN 
 WBMN.klb                 0.00:  WOB Min 
 WITN.           Murad Guliyev:  Customer Rep 
 WITN.          Yashar Gaziyev:  Customer Rep 2 
 WOBA.klb                 9.00:  WOB Avg 
 WOBX.klb                12.00:  WOB Max 
 YP  .lhf2               30.00:  Yield Point 
~Curve Information Block
#MNEM.UNIT                 API CODE     Curve Description
#---------               -----------    ---------------------------
 TIME.HHMMSS            00 000 000 000:  GT Time & Date
 GTDEPTH.m              00 000 000 000:  GT Depth
 GTPQH.psia             00 000 000 000:  GT HR Quartz Pressure
 GTTQ.degC              00 000 000 000:  GT Quartz Temperature
 GTTN.NONE              00 000 000 000:  GT Test Number
 GTET.sec               00 000 000 000:  GT Elapsed Test Time
 GTTVD.m                00 000 000 000:  GT True Vertical Depth
#Other Information
#
#WARRANTY: Halliburton will use its best efforts to furnish customers with 
#accurate information and interpretations that are part of, and incident to, the services 
#provided.  However, Halliburton cannot and does not warrant the accuracy 
#or correctness of such information and interpretations.  Under no circumstances should any 
#such information or interpretation be relied upon as the sole basis for any drilling, 
#completion, production, or financial decision or any procedure involving any risk to the 
#safety of any drilling venture, drilling rig or its crew or any other third party.  The 
#Customer has full responsibility for all drilling, completion and production operation.  
#Halliburton makes no representations or warranties, either expressed or 
#implied, including, but not limited to, the implied warranties of merchantability or fitness 
#for a particular purpose, with respect to the services rendered.  In no event will 
#Halliburton be liable for failure to obtain any particular results or for 
#any damages, including, but not limited to, indirect, special or consequential damages, 
#resulting from the use of any information or interpretation provided by Halliburton.
#
~A           TIME           GTDEPTH  GTPQH  GTTQ  GTTN   GTET   GTTVD  
# ...
   13:09:55.669.27-Aug-2021 4901.50 5051.73 84.97 13.00 135.74 3249.95
   13:09:55.869.27-Aug-2021 4901.50 5051.76 84.97 13.00 135.94 3249.95
   13:09:56.069.27-Aug-2021 4901.50 5051.65 84.97 13.00 136.14 3249.95
   13:09:56.270.27-Aug-2021 4901.50 5051.65 84.97 13.00 136.34 3249.95
   13:09:56.470.27-Aug-2021 4901.50 5051.67 84.97 13.00 136.54 3249.95
   13:09:56.670.27-Aug-2021 4901.50 5051.68 84.97 13.00 136.74 3249.95
   13:09:56.870.27-Aug-2021 4901.50 5051.68 84.97 13.00 136.94 3249.95
   13:09:57.070.27-Aug-2021 4901.50 5051.70 84.97 13.00 137.14 3249.95
   13:09:57.271.27-Aug-2021 4901.50 5051.70 84.97 13.00 137.34 3249.95
   13:09:57.471.27-Aug-2021 4901.50 5051.70 84.97 13.00 137.54 3249.95
   13:09:57.671.27-Aug-2021 4901.50 5051.72 84.97 13.00 137.74 3249.95
   13:09:57.871.27-Aug-2021 4901.50 5051.71 84.97 13.00 137.94 3249.95
   13:09:58.071.27-Aug-2021 4901.50 5051.73 84.97 13.00 138.14 3249.95
   13:09:58.272.27-Aug-2021 4901.50 5051.73 84.97 13.00 138.34 3249.95
   13:09:58.472.27-Aug-2021 4901.50 5051.73 84.97 13.00 138.54 3249.95
   13:09:58.672.27-Aug-2021 4901.50 5051.74 84.97 13.00 138.74 3249.95
   13:09:58.872.27-Aug-2021 4901.50 5051.74 84.97 13.00 138.94 3249.95
   13:09:59.072.27-Aug-2021 4901.50 5051.75 84.97 13.00 139.14 3249.95
   13:09:59.273.27-Aug-2021 4901.50 5051.75 84.97 13.00 139.34 3249.95
   13:09:59.473.27-Aug-2021 4901.50 5051.72 84.97 13.00 139.54 3249.95
   13:09:59.673.27-Aug-2021 4901.50 5051.66 84.97 13.00 139.74 3249.95
   13:09:59.873.27-Aug-2021 4901.50 5051.69 84.97 13.00 139.94 3249.95
   13:10:00.073.27-Aug-2021 4901.50 5051.68 84.97 13.00 140.14 3249.95
   13:10:00.274.27-Aug-2021 4901.50 5051.68 84.97 13.00 140.34 3249.95
   13:10:00.474.27-Aug-2021 4901.50 5051.71 84.97 13.00 140.54 3249.95
   13:10:00.674.27-Aug-2021 4901.50 5051.73 84.97 13.00 140.74 3249.95
   13:10:00.874.27-Aug-2021 4901.50 5051.66 84.97 13.00 140.94 3249.95
   13:10:01.074.27-Aug-2021 4901.50 5051.69 84.97 13.00 141.14 3249.95
   13:10:01.275.27-Aug-2021 4901.50 5051.69 84.97 13.00 141.34 3249.95
   13:10:01.475.27-Aug-2021 4901.50 5051.67 84.97 13.00 141.54 3249.95
   13:10:01.675.27-Aug-2021 4901.50 5051.69 84.97 13.00 141.74 3249.95
   13:10:01.875.27-Aug-2021 4901.50 5051.70 84.97 13.00 141.94 3249.95
   13:10:02.076.27-Aug-2021 4901.50 5051.64 84.97 13.00 142.14 3249.95
   13:10:02.276.27-Aug-2021 4901.50 5051.64 84.97 13.00 142.34 3249.95
   13:10:02.476.27-Aug-2021 4901.50 5051.67 84.97 13.00 142.54 3249.95
   13:10:02.676.27-Aug-2021 4901.50 5051.70 84.97 13.00 142.75 3249.95
   13:10:02.876.27-Aug-2021 4901.50 5051.64 84.97 13.00 142.95 3249.95
   13:10:03.077.27-Aug-2021 4901.50 5051.65 84.97 13.00 143.15 3249.95
   13:10:03.277.27-Aug-2021 4901.50 5051.65 84.97 13.00 143.35 3249.95
   13:10:03.477.27-Aug-2021 4901.50 5051.66 84.97 13.00 143.55 3249.95
   13:10:03.677.27-Aug-2021 4901.50 5051.67 84.97 13.00 143.75 3249.95
   13:10:03.877.27-Aug-2021 4901.50 5051.67 84.97 13.00 143.95 3249.95
   13:10:04.078.27-Aug-2021 4901.50 5051.67 84.97 13.00 144.15 3249.95
   13:10:04.278.27-Aug-2021 4901.50 5051.67 84.97 13.00 144.35 3249.95
   13:10:04.478.27-Aug-2021 4901.50 5051.68 84.97 13.00 144.55 3249.95
   13:10:04.678.27-Aug-2021 4901.50 5051.69 84.97 13.00 144.75 3249.95
   13:10:04.878.27-Aug-2021 4901.50 5051.69 84.97 13.00 144.95 3249.95
   13:10:05.079.27-Aug-2021 4901.50 5051.69 84.97 13.00 145.15 3249.95
   13:10:05.279.27-Aug-2021 4901.50 5051.69 84.97 13.00 145.35 3249.95
   13:10:05.479.27-Aug-2021 4901.50 5051.71 84.97 13.00 145.55 3249.95
   13:10:05.679.27-Aug-2021 4901.50 5051.70 84.97 13.00 145.75 3249.95
   13:10:05.879.27-Aug-2021 4901.50 5051.70 84.97 13.00 145.95 3249.95
   13:10:06.080.27-Aug-2021 4901.50 5051.69 84.97 13.00 146.15 3249.95
   13:10:06.280.27-Aug-2021 4901.50 5051.69 84.97 13.00 146.35 3249.95
   13:10:06.480.27-Aug-2021 4901.50 5051.67 84.97 13.00 146.55 3249.95
   13:10:06.680.27-Aug-2021 4901.50 5051.66 84.97 13.00 146.75 3249.95
   13:10:06.880.27-Aug-2021 4901.50 5051.67 84.97 13.00 146.95 3249.95
   13:10:07.081.27-Aug-2021 4901.50 5051.68 84.97 13.00 147.15 3249.95
   13:10:07.281.27-Aug-2021 4901.50 5051.68 84.97 13.00 147.35 3249.95
   13:10:07.481.27-Aug-2021 4901.50 5051.69 84.97 13.00 147.55 3249.95
   13:10:07.681.27-Aug-2021 4901.50 5051.69 84.97 13.00 147.75 3249.95
   13:10:07.881.27-Aug-2021 4901.50 5051.69 84.97 13.00 147.95 3249.95
   13:10:08.082.27-Aug-2021 4901.50 5051.70 84.97 13.00 148.15 3249.95
   13:10:08.282.27-Aug-2021 4901.50 5051.70 84.97 13.00 148.35 3249.95
   13:10:08.482.27-Aug-2021 4901.50 5051.71 84.97 13.00 148.55 3249.95
   13:10:08.682.27-Aug-2021 4901.50 5051.71 84.97 13.00 148.75 3249.95
   13:10:08.882.27-Aug-2021 4901.50 5051.71 84.97 13.00 148.95 3249.95
   13:10:09.083.27-Aug-2021 4901.50 5051.63 84.97 13.00 149.15 3249.95
   13:10:09.283.27-Aug-2021 4901.50 5051.63 84.97 13.00 149.35 3249.95
   13:10:09.483.27-Aug-2021 4901.50 5051.65 84.97 13.00 149.55 3249.95
   13:10:09.683.27-Aug-2021 4901.50 5051.66 84.97 13.00 149.75 3249.95
   13:10:09.883.27-Aug-2021 4901.50 5051.65 84.97 13.00 149.95 3249.95
   13:10:10.084.27-Aug-2021 4901.50 5051.68 84.97 13.00 150.15 3249.95
   13:10:10.284.27-Aug-2021 4901.50 5051.68 84.97 13.00 150.35 3249.95
   13:10:10.484.27-Aug-2021 4901.50 5051.67 84.97 13.00 150.55 3249.95
   13:10:10.684.27-Aug-2021 4901.50 5051.68 84.97 13.00 150.75 3249.95
   13:10:10.884.27-Aug-2021 4901.50 5051.69 84.97 13.00 150.95 3249.95
   13:10:11.085.27-Aug-2021 4901.50 5051.65 84.97 13.00 151.15 3249.95
   13:10:11.285.27-Aug-2021 4901.50 5051.65 84.97 13.00 151.35 3249.95
   13:10:11.485.27-Aug-2021 4901.50 5051.59 84.97 13.00 151.55 3249.95
   13:10:11.685.27-Aug-2021 4901.50 5051.79 84.97 13.00 151.75 3249.95
   13:10:11.885.27-Aug-2021 4901.50 5051.66 84.97 13.00 151.95 3249.95
   13:10:12.086.27-Aug-2021 4901.50 5051.63 84.97 13.00 152.15 3249.95
   13:10:12.286.27-Aug-2021 4901.50 5051.63 84.97 13.00 152.35 3249.95
   13:10:12.486.27-Aug-2021 4901.50 5051.67 84.97 13.00 152.56 3249.95
   13:10:12.686.27-Aug-2021 4901.50 5051.64 84.96 13.00 152.76 3249.95
   13:10:12.887.27-Aug-2021 4901.50 5051.69 84.96 13.00 152.96 3249.95
   13:10:13.087.27-Aug-2021 4901.50 5051.63 84.96 13.00 153.16 3249.95
   13:10:13.287.27-Aug-2021 4901.50 5051.63 84.96 13.00 153.36 3249.95
   13:10:13.487.27-Aug-2021 4901.50 5051.65 84.96 13.00 153.56 3249.95
   13:10:13.687.27-Aug-2021 4901.50 5051.66 84.96 13.00 153.76 3249.95
   13:10:13.888.27-Aug-2021 4901.50 5051.65 84.96 13.00 153.96 3249.95
   13:10:14.088.27-Aug-2021 4901.50 5051.66 84.96 13.00 154.16 3249.95
   13:10:14.288.27-Aug-2021 4901.50 5051.66 84.96 13.00 154.36 3249.95
   13:10:14.488.27-Aug-2021 4901.50 5051.67 84.96 13.00 154.56 3249.95
   13:10:14.688.27-Aug-2021 4901.50 5051.67 84.96 13.00 154.76 3249.95
   13:10:14.889.27-Aug-2021 4901.50 5051.67 84.96 13.00 154.96 3249.95
   13:10:15.089.27-Aug-2021 4901.50 5051.67 84.96 13.00 155.16 3249.95
   13:10:15.289.27-Aug-2021 4901.50 5051.67 84.96 13.00 155.36 3249.95
   13:10:15.489.27-Aug-2021 4901.50 5051.68 84.96 13.00 155.56 3249.95
   13:10:15.689.27-Aug-2021 4901.50 5051.60 84.96 13.00 155.76 3249.95
   13:10:15.890.27-Aug-2021 4901.50 5051.78 84.96 13.00 155.96 3249.95
   13:10:16.090.27-Aug-2021 4901.50 5051.65 84.96 13.00 156.16 3249.95
   13:10:16.290.27-Aug-2021 4901.50 5051.65 84.96 13.00 156.36 3249.95
   13:10:16.490.27-Aug-2021 4901.50 5051.65 84.96 13.00 156.56 3249.95
   13:10:16.690.27-Aug-2021 4901.50 5051.66 84.96 13.00 156.76 3249.95
   13:10:16.891.27-Aug-2021 4901.50 5051.64 84.96 13.00 156.96 3249.95
   13:10:17.091.27-Aug-2021 4901.50 5051.66 84.96 13.00 157.16 3249.95
   13:10:17.291.27-Aug-2021 4901.50 5051.66 84.96 13.00 157.36 3249.95
   13:10:17.491.27-Aug-2021 4901.50 5051.66 84.96 13.00 157.56 3249.95
   13:10:17.691.27-Aug-2021 4901.50 5051.67 84.96 13.00 157.76 3249.95
   13:10:17.892.27-Aug-2021 4901.50 5051.67 84.96 13.00 157.96 3249.95
   13:10:18.092.27-Aug-2021 4901.50 5051.67 84.96 13.00 158.16 3249.95
