~Version Information
 VERS.                  2.0:   CWLS log ASCII Standard -VERSION 2.0
 WRAP.                   NO:   One line per depth step
~Well Information Block
#MNEM.UNIT     VALUE/NAME     DESCRIPTION
#---------     -----------    ---------------------------
 STRT.S             11:48:55 27-Aug-21: START TIME 11:48:55 27-Aug-21
 STOP.S             11:56:03 27-Aug-21: STOP TIME  11:56:03 27-Aug-21
 STEP.S                   0.00: STEP TIME
 NULL.                 -999.25: NULL VALUE
 DFWT.                        :  DIST FWL TEXT
 DFST.                        :  DIST FSL TEXT
 DMF .             Drill Floor:  DRILL MEAS FROM
 STIM.      20.00.00 17-Aug-21:  START TIME
 DATE.      19.00.00 29-Aug-21:  END TIME
 SPUD.               15-Aug-21:  SPUD DATE
 NREF.                    Grid:  NORTH REFERENCE
 HPTY.       Minimum Curvature:  HOLE POS TYPE
 DMOD.             Drill Model:  DRILL MOD DESC
 SVYD.                  Survey:  SURVEY DESC
 ILTD.               Lithology:  INTERP LTH DESC
 FTOP.          Formation Tops:  FORM TOPS DESC
 RIG .              East Azeri:  RIG NAME
 PDAT.          Mean Sea Level:  PERMANENT DATUM
 FLD .                     ACG:  FIELD NAME
 SON .        AZ-XX-0907180857:  JOB NUMBER
 CTRY.              Azerbaijan:  COUNTRY NAME
 WELL.                    D23x:  WELL NAME
 SRVC.     Turan Drilling and Engineering:  CONTRACTOR
 COMP.     BP Exploration (Caspian Sea) Ltd.:  COMPANY
 UWI .            /AZE00000214:  UNIQUE WELL IDENTIFIER
 API .            /AZE00000214:  API NUMBER
 MDS .        Operator Entered:  MAG DATA SOURCE
 BASE.              Azerbaijan:  LOGGING EQUIPMENT BASE LOCATION
 REGN.                   EESSA:  REGION
 PROV.                    Baku:  PROVINCE
 STAT.                    Baku:  STATE NAME
 MWDS.                    Baku:  MWD SHOP
 DOE .                     N/A:  DOE NUMBER
 DCON.         Sperry Drilling:  DIRECTNL CONTR
 UNIT.                     N/A:  LOGGING EQUIPMENT ID
 WTYP.                Deviated:  WELL TYPE
 CNTY.                        :  COUNTY
 LOC .                        :  LOCATION
 LMF .             Drill Floor:  LOG MEASURED FROM
 TVDS.m                  43.60:  TVDSS CORRECTN
 LATI.deg                40.02:  LATITUDE
 LONG.deg                51.45:  LONGITUDE
 WHNS.m                  -7.04:  WELL HEAD N/S
 WHEW.m                  -0.67:  WELL HEAD E/W
 UTMX.m              538762.90:  UTM X
 UTMY.m             4431871.34:  UTM Y
 DFWL.m                   0.00:  DISTANCE FWL
 DFSL.m                   0.00:  DISTANCE FSL
 SDEP.m                4127.00:  START DEPTH
 TDD .m                5084.50:  TOTAL DEPTH (DRILLER)
 VSDR.deg               140.47:  VERT SEC DIRECT
 GVFD.g                   1.00:  GRAVITY FIELD
 MFLD.nT              50362.00:  MAGNETIC FIELD
 MDIP.deg                59.48:  MAGNETIC DIP
 MDEC.deg                 6.47:  MAGNETIC DECL
 GRDC.deg                 0.31:  GRID CORRECTION
 AZTC.deg                 6.16:  AZM TOTAL CORR
 EPD .m                   0.00:  ELEVATION
 EGL .m                   0.00:  GROUND ELEVATION
 WDMS.m                 151.80:  WD ELEV
 APD .m                  43.60:  DEPTH ABOVE PD
 DEP .m                4092.57:  DEPTH
 AGAP.m                  43.60:  AIR GAP
 VSEW.m                  -0.67:  VERT SEC E/W
 VSNS.m                  -7.04:  VERT SEC N/S
 EKB .m                  43.60:  KB ELEVATION
 EDF .m                  43.60:  DF ELEVATION
 TDL .m                 957.50:  TOTAL DEPTH (LOGGER)
 VSC .                       0:  VS TO CLOSURE
 MAGU.                 1851413:  MAGUTM CHECKSUM
~Parameter Information Block
#MNEM.UNIT       Value        Description
#---------     -----------    ---------------------------
 AV  .mps                 1.50:  Ann Velocity 
 AVMX.mps                 2.00:  Max Ann Veloc 
 AZIF.deg               184.66:  Azm, Final 
 BHAT.        Rotary Steerable:  BHA Type 
 BREV.rev               300.00:  Rev Bit Total 
 BROT.°/30m              -0.50:  Build Rotating 
 BS  .in                  8.50:  Bit Size 
 BSZ .in                  8.50:  Bit Size 
 BTPL.psig              370.00:  Bit Press Loss 
 CABU.                      No:  Customer Abuse 
 CGEO.      Behruz Shahbaliyev:  Customer Geo 
 COMM.                     L*e:  Run Comments 1 
 TCS .hr                140.08:  Time Ciculation Ended 
 CV  .mps                 3.00:  Crit Velocity 
 CVMX.mps                 3.20:  Max Crit Veloc 
 DD1 .            Musa Ahmadov:  Direct Drillr 1 
 DD2 .           Hamid Ahmadov:  Direct Drillr 2 
 DDSV.               Geo-Pilot:  DD Service 
 DEFF.%                  98.40:  % Det Eff 
 DLRX.°/30m               3.40:  Dogleg Rot Max 
 DLSO.°/30m               1.45:  Dogleg Oriented 
 DLSX.°/30m               3.40:  Dogleg Str Max 
 DRET.      18.40.00 29-Aug-21:  Drill End Time 
 DRST.      21.00.00 20-Aug-21:  Drill Start Tim 
 DTIM.hr                 69.47:  Time Drilling 
 EDEP.m                5084.50:  End Depth 
 ENG1.      Artemiy Matviyanov:  Engineer 1 
 ENG2.         Almaz Almadatov:  Engineer 2 
 ETIM.      18.40.00 29-Aug-21:  End Time 
 FLOI.gpm               500.00:  Flow In 
 FLON.gpm               400.00:  Flow In Min 
 FLOS.cptm                0.00:  Fluid Loss 
 FLOX.gpm               500.00:  Flow In Max 
 DFT .        Mineral Oil Base:  Mud Type 
 HFLO.                      No:  High Flow 
 HPRE.                      No:  High Pressure 
 HTEM.                      No:  High Temp 
 HYDO.m                   1.80:  Hydro Offset 
 IFIN.deg                25.62:  Inc, Final 
 IMAX.deg                48.69:  Inc Max 
 IMIN.deg                24.01:  Inc Min 
 IMND.m                4962.57:  Inc Min Depth 
 IMXD.m                4119.01:  Inc Max Depth 
 JARR.                      No:  Jarring 
 LETM.      18.40.00 29-Aug-21:  Log End Time 
 LOST.hr                     0:  Lost Rig Time 
 LSTM.      21.00.00 20-Aug-21:  Log Start Time 
 MDCL.ppm             41500.00:  Mud Chlorides 
 MDES.     Inversion Oil/Synthetic:  Mud Desc 
 DFD .sg                  1.56:  Mud Density 
 MDMN.sg                  1.56:  Dens Mud Min 
 MDMX.sg                  1.56:  Dens Mud Max 
 MOIL.                      70:  Run Mud Oil % 
 MOWR.                   70:30:  Run Mud OWR 
 MSND.                     0.2:  Run Mud Sand % 
 MSOL.                    23.3:  Run Mud Solids% 
 DFV .spqt               78.00:  Mud Viscosity 
 MWOD.in                  6.75:  MWD Tool OD 
 MWSI.                      No:  Serv Intrp, MWD 
 OTIM.hr                218.30:  Time Operating 
 PCON.           Look Like New:  Pad Condition 
 PMAX.psia            11015.30:  Press Op, Max 
 PV  .cP                 38.00:  Mud PV 
 RUN .                     300:  Run Number 
 ROPA.m/hr               15.00:  ROP Avg 
 ROPN.m/hr                9.00:  ROP Min 
 ROPX.m/hr               17.00:  ROP Max 
 RPMA.rpm               120.00:  RPM Surface Avg 
 RPMN.rpm                90.00:  RPM Surface Min 
 RPMX.rpm               140.00:  RPM Surface Max 
 RRUN.                     300:  Rig Run Number 
 RTIM.hr                 31.53:  Time Reaming 
 SAZI.deg               331.64:  Azm, Start 
 SDEP.m                4127.00:  Start Depth 
 SIDD.                      No:  Serv Intrp, DD 
 SINC.deg                48.43:  Inc, Start 
 SPPA.psig             5830.00:  SPP Avg 
 SPPN.psig             5600.00:  SPP Min 
 SPPX.psig             5900.00:  SPP Max 
 STIM.      21.00.00 20-Aug-21:  Start Time 
 SVCS.                 DD, MWD:  Services 
 SVER.                    9.20:  Sperry Version 
 TDAT.m                 957.50:  Tot Depth Attmp 
 TDDF.                      No:  Trip for DD 
 TDLG.m                 957.50:  Tot Depth Loggd 
 TFF .                      No:  Trip for Fail 
 TQAA.f-kp               15.00:  Torque Abs Avg 
 TQAN.f-kp               12.00:  Torque Abs Min 
 TQAX.f-kp               19.00:  Torque Abs Max 
 TRRT.°/30m              -3.40:  Turn Rotating 
 MRT .                  EWR-M5:  Maximum Recorded Temperature 
 TTMX.degC              100.00:  Max Tool Temp 
 VS01.                90639251:  Virtual Str1 SN 
 VS02.                90634715:  Virtual Str2 SN 
 VS03.                90652479:  Virtual Str3 SN 
 VS04.                90642262:  Virtual Str4 SN 
 WBMN.klb                 0.00:  WOB Min 
 WITN.           Murad Guliyev:  Customer Rep 
 WITN.          Yashar Gaziyev:  Customer Rep 2 
 WOBA.klb                 9.00:  WOB Avg 
 WOBX.klb                12.00:  WOB Max 
 YP  .lhf2               30.00:  Yield Point 
~Curve Information Block
#MNEM.UNIT                 API CODE     Curve Description
#---------               -----------    ---------------------------
 TIME.HHMMSS            00 000 000 000:  GT Time & Date
 GTDEPTH.m              00 000 000 000:  GT Depth
 GTPQH.psia             00 000 000 000:  GT HR Quartz Pressure
 GTTQ.degC              00 000 000 000:  GT Quartz Temperature
 GTTN.NONE              00 000 000 000:  GT Test Number
 GTET.sec               00 000 000 000:  GT Elapsed Test Time
 GTTVD.m                00 000 000 000:  GT True Vertical Depth
#Other Information
#
#WARRANTY: Halliburton will use its best efforts to furnish customers with 
#accurate information and interpretations that are part of, and incident to, the services 
#provided.  However, Halliburton cannot and does not warrant the accuracy 
#or correctness of such information and interpretations.  Under no circumstances should any 
#such information or interpretation be relied upon as the sole basis for any drilling, 
#completion, production, or financial decision or any procedure involving any risk to the 
#safety of any drilling venture, drilling rig or its crew or any other third party.  The 
#Customer has full responsibility for all drilling, completion and production operation.  
#Halliburton makes no representations or warranties, either expressed or 
#implied, including, but not limited to, the implied warranties of merchantability or fitness 
#for a particular purpose, with respect to the services rendered.  In no event will 
#Halliburton be liable for failure to obtain any particular results or for 
#any damages, including, but not limited to, indirect, special or consequential damages, 
#resulting from the use of any information or interpretation provided by Halliburton.
#
~A           TIME           GTDEPTH  GTPQH  GTTQ  GTTN   GTET   GTTVD  
# ...
   11:55:19.984.27-Aug-2021 4914.00 7805.58 85.26 11.00 384.34 3261.31
   11:55:20.184.27-Aug-2021 4914.00 7805.52 85.26 11.00 384.54 3261.31
   11:55:20.384.27-Aug-2021 4914.00 7806.07 85.26 11.00 384.74 3261.31
   11:55:20.584.27-Aug-2021 4914.00 7806.20 85.26 11.00 384.94 3261.31
   11:55:20.785.27-Aug-2021 4914.00 7806.42 85.26 11.00 385.14 3261.31
   11:55:20.985.27-Aug-2021 4914.00 7806.42 85.26 11.00 385.34 3261.31
   11:55:21.185.27-Aug-2021 4914.00 7805.94 85.26 11.00 385.54 3261.31
   11:55:21.385.27-Aug-2021 4914.00 7805.59 85.26 11.00 385.74 3261.31
   11:55:21.585.27-Aug-2021 4914.00 7807.94 85.26 11.00 385.94 3261.31
   11:55:21.785.27-Aug-2021 4914.00 7806.43 85.26 11.00 386.14 3261.31
   11:55:21.985.27-Aug-2021 4914.00 7806.43 85.26 11.00 386.34 3261.31
   11:55:22.185.27-Aug-2021 4914.00 7805.52 85.26 11.00 386.54 3261.31
   11:55:22.385.27-Aug-2021 4914.00 7804.87 85.26 11.00 386.74 3261.31
   11:55:22.585.27-Aug-2021 4914.00 7804.92 85.26 11.00 386.94 3261.31
   11:55:22.785.27-Aug-2021 4914.00 7804.70 85.26 11.00 387.14 3261.31
   11:55:22.985.27-Aug-2021 4914.00 7804.70 85.26 11.00 387.34 3261.31
   11:55:23.185.27-Aug-2021 4914.00 7804.70 85.26 11.00 387.54 3261.31
   11:55:23.385.27-Aug-2021 4914.00 7805.23 85.26 11.00 387.74 3261.31
   11:55:23.586.27-Aug-2021 4914.00 7805.85 85.26 11.00 387.94 3261.31
   11:55:23.786.27-Aug-2021 4914.00 7805.95 85.26 11.00 388.14 3261.31
   11:55:23.986.27-Aug-2021 4914.00 7805.95 85.26 11.00 388.34 3261.31
   11:55:24.186.27-Aug-2021 4914.00 7805.98 85.26 11.00 388.54 3261.31
   11:55:24.386.27-Aug-2021 4914.00 7805.97 85.26 11.00 388.74 3261.31
   11:55:24.586.27-Aug-2021 4914.00 7805.55 85.26 11.00 388.94 3261.31
   11:55:24.786.27-Aug-2021 4914.00 7805.45 85.26 11.00 389.14 3261.31
   11:55:24.986.27-Aug-2021 4914.00 7805.45 85.26 11.00 389.34 3261.31
   11:55:25.186.27-Aug-2021 4914.00 7806.12 85.26 11.00 389.54 3261.31
   11:55:25.386.27-Aug-2021 4914.00 7806.43 85.26 11.00 389.74 3261.31
   11:55:25.586.27-Aug-2021 4914.00 7804.84 85.26 11.00 389.94 3261.31
   11:55:25.786.27-Aug-2021 4914.00 7804.76 85.26 11.00 390.14 3261.31
   11:55:25.986.27-Aug-2021 4914.00 7804.76 85.26 11.00 390.34 3261.31
   11:55:26.186.27-Aug-2021 4914.00 7810.35 85.26 11.00 390.54 3261.31
   11:55:26.387.27-Aug-2021 4914.00 7802.19 85.26 11.00 390.74 3261.31
   11:55:26.587.27-Aug-2021 4914.00 7805.78 85.26 11.00 390.94 3261.31
   11:55:26.787.27-Aug-2021 4914.00 7804.84 85.26 11.00 391.14 3261.31
   11:55:26.987.27-Aug-2021 4914.00 7804.84 85.26 11.00 391.34 3261.31
   11:55:27.187.27-Aug-2021 4914.00 7803.64 85.26 11.00 391.54 3261.31
   11:55:27.387.27-Aug-2021 4914.00 7806.31 85.26 11.00 391.74 3261.31
   11:55:27.587.27-Aug-2021 4914.00 7805.47 85.26 11.00 391.94 3261.31
   11:55:27.787.27-Aug-2021 4914.00 7804.52 85.26 11.00 392.14 3261.31
   11:55:27.987.27-Aug-2021 4914.00 7804.52 85.26 11.00 392.34 3261.31
   11:55:28.187.27-Aug-2021 4914.00 7804.43 85.26 11.00 392.54 3261.31
   11:55:28.387.27-Aug-2021 4914.00 7807.60 85.26 11.00 392.74 3261.31
   11:55:28.587.27-Aug-2021 4914.00 7805.69 85.26 11.00 392.94 3261.31
   11:55:28.787.27-Aug-2021 4914.00 7805.97 85.26 11.00 393.14 3261.31
   11:55:28.987.27-Aug-2021 4914.00 7805.97 85.26 11.00 393.34 3261.31
   11:55:29.187.27-Aug-2021 4914.00 7805.05 85.26 11.00 393.54 3261.31
   11:55:29.388.27-Aug-2021 4914.00 7805.00 85.26 11.00 393.74 3261.31
   11:55:29.588.27-Aug-2021 4914.00 7804.89 85.26 11.00 393.94 3261.31
   11:55:29.788.27-Aug-2021 4914.00 7804.24 85.26 11.00 394.14 3261.31
   11:55:29.988.27-Aug-2021 4914.00 7804.24 85.26 11.00 394.34 3261.31
   11:55:30.188.27-Aug-2021 4914.00 7804.79 85.26 11.00 394.54 3261.31
   11:55:30.388.27-Aug-2021 4914.00 7804.96 85.26 11.00 394.74 3261.31
   11:55:30.588.27-Aug-2021 4914.00 7805.26 85.26 11.00 394.94 3261.31
   11:55:30.788.27-Aug-2021 4914.00 7805.31 85.26 11.00 395.14 3261.31
   11:55:30.988.27-Aug-2021 4914.00 7805.31 85.26 11.00 395.34 3261.31
   11:55:31.188.27-Aug-2021 4914.00 7805.10 85.26 11.00 395.54 3261.31
   11:55:31.388.27-Aug-2021 4914.00 7804.84 85.26 11.00 395.74 3261.31
   11:55:31.588.27-Aug-2021 4914.00 7809.90 85.26 11.00 395.94 3261.31
   11:55:31.788.27-Aug-2021 4914.00 7803.25 85.26 11.00 396.14 3261.31
   11:55:31.988.27-Aug-2021 4914.00 7803.25 85.26 11.00 396.34 3261.31
   11:55:32.189.27-Aug-2021 4914.00 7805.13 85.26 11.00 396.54 3261.31
   11:55:32.389.27-Aug-2021 4914.00 7804.56 85.26 11.00 396.74 3261.31
   11:55:32.589.27-Aug-2021 4914.00 7804.71 85.26 11.00 396.94 3261.31
   11:55:32.789.27-Aug-2021 4914.00 7804.25 85.26 11.00 397.14 3261.31
   11:55:32.989.27-Aug-2021 4914.00 7804.25 85.26 11.00 397.34 3261.31
   11:55:33.189.27-Aug-2021 4914.00 7804.95 85.26 11.00 397.54 3261.31
   11:55:33.389.27-Aug-2021 4914.00 7805.19 85.26 11.00 397.74 3261.31
   11:55:33.589.27-Aug-2021 4914.00 7805.75 85.26 11.00 397.94 3261.31
   11:55:33.789.27-Aug-2021 4914.00 7805.86 85.26 11.00 398.14 3261.31
   11:55:33.989.27-Aug-2021 4914.00 7805.86 85.26 11.00 398.34 3261.31
   11:55:34.189.27-Aug-2021 4914.00 7805.73 85.26 11.00 398.54 3261.31
   11:55:34.389.27-Aug-2021 4914.00 7805.73 85.26 11.00 398.74 3261.31
   11:55:34.589.27-Aug-2021 4914.00 7805.31 85.26 11.00 398.94 3261.31
   11:55:34.789.27-Aug-2021 4914.00 7805.20 85.26 11.00 399.14 3261.31
   11:55:34.990.27-Aug-2021 4914.00 7805.20 85.26 11.00 399.34 3261.31
   11:55:35.190.27-Aug-2021 4914.00 7802.98 85.26 11.00 399.54 3261.31
   11:55:35.390.27-Aug-2021 4914.00 7805.99 85.26 11.00 399.74 3261.31
   11:55:35.590.27-Aug-2021 4914.00 7804.61 85.26 11.00 399.94 3261.31
   11:55:35.790.27-Aug-2021 4914.00 7804.30 85.26 11.00 400.14 3261.31
   11:55:35.990.27-Aug-2021 4914.00 7804.30 85.26 11.00 400.34 3261.31
   11:55:36.190.27-Aug-2021 4914.00 7802.31 85.26 11.00 400.54 3261.31
   11:55:36.390.27-Aug-2021 4914.00 7805.44 85.26 11.00 400.74 3261.31
   11:55:36.590.27-Aug-2021 4914.00 7804.58 85.26 11.00 400.94 3261.31
   11:55:36.790.27-Aug-2021 4914.00 7804.33 85.26 11.00 401.14 3261.31
   11:55:36.990.27-Aug-2021 4914.00 7804.33 85.26 11.00 401.34 3261.31
   11:55:37.190.27-Aug-2021 4914.00 7804.63 85.26 11.00 401.54 3261.31
   11:55:37.390.27-Aug-2021 4914.00 7810.11 85.26 11.00 401.74 3261.31
   11:55:37.590.27-Aug-2021 4914.00 7802.13 85.26 11.00 401.94 3261.31
   11:55:37.791.27-Aug-2021 4914.00 7806.95 85.26 11.00 402.14 3261.31
   11:55:37.991.27-Aug-2021 4914.00 7806.95 85.26 11.00 402.34 3261.31
   11:55:38.191.27-Aug-2021 4914.00 7805.63 85.26 11.00 402.54 3261.31
   11:55:38.391.27-Aug-2021 4914.00 7805.39 85.26 11.00 402.74 3261.31
   11:55:38.591.27-Aug-2021 4914.00 7804.79 85.26 11.00 402.94 3261.31
   11:55:38.791.27-Aug-2021 4914.00 7806.95 85.26 11.00 403.14 3261.31
   11:55:38.991.27-Aug-2021 4914.00 7806.95 85.26 11.00 403.34 3261.31
   11:55:39.191.27-Aug-2021 4914.00 7806.10 85.26 11.00 403.54 3261.31
   11:55:39.391.27-Aug-2021 4914.00 7805.60 85.26 11.00 403.74 3261.31
   11:55:39.591.27-Aug-2021 4914.00 7805.41 85.26 11.00 403.94 3261.31
   11:55:39.791.27-Aug-2021 4914.00 7805.45 85.26 11.00 404.14 3261.31
   11:55:39.991.27-Aug-2021 4914.00 7805.45 85.26 11.00 404.34 3261.31
   11:55:40.191.27-Aug-2021 4914.00 7805.39 85.26 11.00 404.54 3261.31
   11:55:40.391.27-Aug-2021 4914.00 7804.73 85.26 11.00 404.74 3261.31
   11:55:40.592.27-Aug-2021 4914.00 7805.05 85.26 11.00 404.94 3261.31
   11:55:40.792.27-Aug-2021 4914.00 7805.67 85.26 11.00 405.14 3261.31
   11:55:40.992.27-Aug-2021 4914.00 7805.67 85.26 11.00 405.34 3261.31
   11:55:41.192.27-Aug-2021 4914.00 7806.00 85.26 11.00 405.54 3261.31
   11:55:41.392.27-Aug-2021 4914.00 7805.48 85.26 11.00 405.74 3261.31
   11:55:41.592.27-Aug-2021 4914.00 7805.60 85.26 11.00 405.94 3261.31
   11:55:41.792.27-Aug-2021 4914.00 7805.38 85.26 11.00 406.14 3261.31
   11:55:41.992.27-Aug-2021 4914.00 7805.38 85.26 11.00 406.34 3261.31
   11:55:42.192.27-Aug-2021 4914.00 7808.31 85.26 11.00 406.54 3261.31
   11:55:42.392.27-Aug-2021 4914.00 7805.76 85.26 11.00 406.74 3261.31
