~Version Information
 VERS.                  2.0:   CWLS log ASCII Standard -VERSION 2.0
 WRAP.                   NO:   One line per depth step
~Well Information Block
#MNEM.UNIT     VALUE/NAME     DESCRIPTION
#---------     -----------    ---------------------------
 STRT.S             22:57:07 27-Aug-21: START TIME 22:57:07 27-Aug-21
 STOP.S             23:04:14 27-Aug-21: STOP TIME  23:04:14 27-Aug-21
 STEP.S                   0.00: STEP TIME
 NULL.                 -999.25: NULL VALUE
 DFWT.                        :  DIST FWL TEXT
 DFST.                        :  DIST FSL TEXT
 DMF .             Drill Floor:  DRILL MEAS FROM
 STIM.      20.00.00 17-Aug-21:  START TIME
 DATE.      19.00.00 29-Aug-21:  END TIME
 SPUD.               15-Aug-21:  SPUD DATE
 NREF.                    Grid:  NORTH REFERENCE
 HPTY.       Minimum Curvature:  HOLE POS TYPE
 DMOD.             Drill Model:  DRILL MOD DESC
 SVYD.                  Survey:  SURVEY DESC
 ILTD.               Lithology:  INTERP LTH DESC
 FTOP.          Formation Tops:  FORM TOPS DESC
 RIG .              East Azeri:  RIG NAME
 PDAT.          Mean Sea Level:  PERMANENT DATUM
 FLD .                     ACG:  FIELD NAME
 SON .        AZ-XX-0907180857:  JOB NUMBER
 CTRY.              Azerbaijan:  COUNTRY NAME
 WELL.                    D23x:  WELL NAME
 SRVC.     Turan Drilling and Engineering:  CONTRACTOR
 COMP.     BP Exploration (Caspian Sea) Ltd.:  COMPANY
 UWI .            /AZE00000214:  UNIQUE WELL IDENTIFIER
 API .            /AZE00000214:  API NUMBER
 MDS .        Operator Entered:  MAG DATA SOURCE
 BASE.              Azerbaijan:  LOGGING EQUIPMENT BASE LOCATION
 REGN.                   EESSA:  REGION
 PROV.                    Baku:  PROVINCE
 STAT.                    Baku:  STATE NAME
 MWDS.                    Baku:  MWD SHOP
 DOE .                     N/A:  DOE NUMBER
 DCON.         Sperry Drilling:  DIRECTNL CONTR
 UNIT.                     N/A:  LOGGING EQUIPMENT ID
 WTYP.                Deviated:  WELL TYPE
 CNTY.                        :  COUNTY
 LOC .                        :  LOCATION
 LMF .             Drill Floor:  LOG MEASURED FROM
 TVDS.m                  43.60:  TVDSS CORRECTN
 LATI.deg                40.02:  LATITUDE
 LONG.deg                51.45:  LONGITUDE
 WHNS.m                  -7.04:  WELL HEAD N/S
 WHEW.m                  -0.67:  WELL HEAD E/W
 UTMX.m              538762.90:  UTM X
 UTMY.m             4431871.34:  UTM Y
 DFWL.m                   0.00:  DISTANCE FWL
 DFSL.m                   0.00:  DISTANCE FSL
 SDEP.m                4127.00:  START DEPTH
 TDD .m                5084.50:  TOTAL DEPTH (DRILLER)
 VSDR.deg               140.47:  VERT SEC DIRECT
 GVFD.g                   1.00:  GRAVITY FIELD
 MFLD.nT              50362.00:  MAGNETIC FIELD
 MDIP.deg                59.48:  MAGNETIC DIP
 MDEC.deg                 6.47:  MAGNETIC DECL
 GRDC.deg                 0.31:  GRID CORRECTION
 AZTC.deg                 6.16:  AZM TOTAL CORR
 EPD .m                   0.00:  ELEVATION
 EGL .m                   0.00:  GROUND ELEVATION
 WDMS.m                 151.80:  WD ELEV
 APD .m                  43.60:  DEPTH ABOVE PD
 DEP .m                4092.57:  DEPTH
 AGAP.m                  43.60:  AIR GAP
 VSEW.m                  -0.67:  VERT SEC E/W
 VSNS.m                  -7.04:  VERT SEC N/S
 EKB .m                  43.60:  KB ELEVATION
 EDF .m                  43.60:  DF ELEVATION
 TDL .m                 957.50:  TOTAL DEPTH (LOGGER)
 VSC .                       0:  VS TO CLOSURE
 MAGU.                 1851413:  MAGUTM CHECKSUM
~Parameter Information Block
#MNEM.UNIT       Value        Description
#---------     -----------    ---------------------------
 AV  .mps                 1.50:  Ann Velocity 
 AVMX.mps                 2.00:  Max Ann Veloc 
 AZIF.deg               184.66:  Azm, Final 
 BHAT.        Rotary Steerable:  BHA Type 
 BREV.rev               300.00:  Rev Bit Total 
 BROT.°/30m              -0.50:  Build Rotating 
 BS  .in                  8.50:  Bit Size 
 BSZ .in                  8.50:  Bit Size 
 BTPL.psig              370.00:  Bit Press Loss 
 CABU.                      No:  Customer Abuse 
 CGEO.      Behruz Shahbaliyev:  Customer Geo 
 TCS .hr                140.08:  Time Ciculation Ended 
 CV  .mps                 3.00:  Crit Velocity 
 CVMX.mps                 3.20:  Max Crit Veloc 
 DD1 .            Musa Ahmadov:  Direct Drillr 1 
 DD2 .           Hamid Ahmadov:  Direct Drillr 2 
 DDSV.               Geo-Pilot:  DD Service 
 DEFF.%                  98.40:  % Det Eff 
 DLRX.°/30m               3.40:  Dogleg Rot Max 
 DLSO.°/30m               1.45:  Dogleg Oriented 
 DLSX.°/30m               3.40:  Dogleg Str Max 
 DRET.      18.40.00 29-Aug-21:  Drill End Time 
 DRST.      21.00.00 20-Aug-21:  Drill Start Tim 
 DTIM.hr                 69.47:  Time Drilling 
 EDEP.m                5084.50:  End Depth 
 ENG1.      Artemiy Matviyanov:  Engineer 1 
 ENG2.         Almaz Almadatov:  Engineer 2 
 ETIM.      18.40.00 29-Aug-21:  End Time 
 FLOI.gpm               500.00:  Flow In 
 FLON.gpm               400.00:  Flow In Min 
 FLOS.cptm                0.00:  Fluid Loss 
 FLOX.gpm               500.00:  Flow In Max 
 DFT .        Mineral Oil Base:  Mud Type 
 HFLO.                      No:  High Flow 
 HPRE.                      No:  High Pressure 
 HTEM.                      No:  High Temp 
 HYDO.m                   1.80:  Hydro Offset 
 IFIN.deg                25.62:  Inc, Final 
 IMAX.deg                48.69:  Inc Max 
 IMIN.deg                24.01:  Inc Min 
 IMND.m                4962.57:  Inc Min Depth 
 IMXD.m                4119.01:  Inc Max Depth 
 JARR.                      No:  Jarring 
 LETM.      18.40.00 29-Aug-21:  Log End Time 
 LOST.hr                     0:  Lost Rig Time 
 LSTM.      21.00.00 20-Aug-21:  Log Start Time 
 MDCL.ppm             41500.00:  Mud Chlorides 
 MDES.     Inversion Oil/Synthetic:  Mud Desc 
 DFD .sg                  1.56:  Mud Density 
 MDMN.sg                  1.56:  Dens Mud Min 
 MDMX.sg                  1.56:  Dens Mud Max 
 MOIL.                      70:  Run Mud Oil % 
 MOWR.                   70:30:  Run Mud OWR 
 MSND.                     0.2:  Run Mud Sand % 
 MSOL.                    23.3:  Run Mud Solids% 
 DFV .spqt               78.00:  Mud Viscosity 
 MWOD.in                  6.75:  MWD Tool OD 
 MWSI.                      No:  Serv Intrp, MWD 
 OTIM.hr                218.30:  Time Operating 
 PCON.           Look Like New:  Pad Condition 
 PMAX.psia            11015.30:  Press Op, Max 
 PV  .cP                 38.00:  Mud PV 
 RUN .                     300:  Run Number 
 ROPA.m/hr               15.00:  ROP Avg 
 ROPN.m/hr                9.00:  ROP Min 
 ROPX.m/hr               17.00:  ROP Max 
 RPMA.rpm               120.00:  RPM Surface Avg 
 RPMN.rpm                90.00:  RPM Surface Min 
 RPMX.rpm               140.00:  RPM Surface Max 
 RRUN.                     300:  Rig Run Number 
 RTIM.hr                 31.53:  Time Reaming 
 SAZI.deg               331.64:  Azm, Start 
 SDEP.m                4127.00:  Start Depth 
 SIDD.                      No:  Serv Intrp, DD 
 SINC.deg                48.43:  Inc, Start 
 SPPA.psig             5830.00:  SPP Avg 
 SPPN.psig             5600.00:  SPP Min 
 SPPX.psig             5900.00:  SPP Max 
 STIM.      21.00.00 20-Aug-21:  Start Time 
 SVCS.                 DD, MWD:  Services 
 SVER.                    9.20:  Sperry Version 
 TDAT.m                 957.50:  Tot Depth Attmp 
 TDDF.                      No:  Trip for DD 
 TDLG.m                 957.50:  Tot Depth Loggd 
 TFF .                      No:  Trip for Fail 
 TQAA.f-kp               15.00:  Torque Abs Avg 
 TQAN.f-kp               12.00:  Torque Abs Min 
 TQAX.f-kp               19.00:  Torque Abs Max 
 TRRT.°/30m              -3.40:  Turn Rotating 
 MRT .                  EWR-M5:  Maximum Recorded Temperature 
 TTMX.degC              100.00:  Max Tool Temp 
 VS01.                90639251:  Virtual Str1 SN 
 VS02.                90634715:  Virtual Str2 SN 
 VS03.                90652479:  Virtual Str3 SN 
 VS04.                90642262:  Virtual Str4 SN 
 WBMN.klb                 0.00:  WOB Min 
 WITN.           Murad Guliyev:  Customer Rep 
 WITN.          Yashar Gaziyev:  Customer Rep 2 
 WOBA.klb                 9.00:  WOB Avg 
 WOBX.klb                12.00:  WOB Max 
 YP  .lhf2               30.00:  Yield Point 
~Curve Information Block
#MNEM.UNIT                 API CODE     Curve Description
#---------               -----------    ---------------------------
 TIME.HHMMSS            00 000 000 000:  GT Time & Date
 GTDEPTH.m              00 000 000 000:  GT Depth
 GTPQH.psia             00 000 000 000:  GT HR Quartz Pressure
 GTTQ.degC              00 000 000 000:  GT Quartz Temperature
 GTTN.NONE              00 000 000 000:  GT Test Number
 GTET.sec               00 000 000 000:  GT Elapsed Test Time
 GTTVD.m                00 000 000 000:  GT True Vertical Depth
#Other Information
#
#WARRANTY: Halliburton will use its best efforts to furnish customers with 
#accurate information and interpretations that are part of, and incident to, the services 
#provided.  However, Halliburton cannot and does not warrant the accuracy 
#or correctness of such information and interpretations.  Under no circumstances should any 
#such information or interpretation be relied upon as the sole basis for any drilling, 
#completion, production, or financial decision or any procedure involving any risk to the 
#safety of any drilling venture, drilling rig or its crew or any other third party.  The 
#Customer has full responsibility for all drilling, completion and production operation.  
#Halliburton makes no representations or warranties, either expressed or 
#implied, including, but not limited to, the implied warranties of merchantability or fitness 
#for a particular purpose, with respect to the services rendered.  In no event will 
#Halliburton be liable for failure to obtain any particular results or for 
#any damages, including, but not limited to, indirect, special or consequential damages, 
#resulting from the use of any information or interpretation provided by Halliburton.
#
~A           TIME           GTDEPTH  GTPQH  GTTQ  GTTN   GTET   GTTVD  
# ...
   23:02:24.255.27-Aug-2021 4636.60 4501.22 82.22 25.00 316.43 3010.11
   23:02:24.455.27-Aug-2021 4636.60 4501.13 82.22 25.00 316.63 3010.11
   23:02:24.655.27-Aug-2021 4636.60 4501.11 82.22 25.00 316.83 3010.11
   23:02:24.855.27-Aug-2021 4636.60 4501.07 82.22 25.00 317.03 3010.11
   23:02:25.055.27-Aug-2021 4636.60 4501.07 82.22 25.00 317.23 3010.11
   23:02:25.255.27-Aug-2021 4636.60 4500.98 82.22 25.00 317.43 3010.11
   23:02:25.455.27-Aug-2021 4636.60 4501.18 82.22 25.00 317.63 3010.11
   23:02:25.655.27-Aug-2021 4636.60 4501.12 82.22 25.00 317.83 3010.11
   23:02:25.855.27-Aug-2021 4636.60 4501.09 82.22 25.00 318.03 3010.11
   23:02:26.055.27-Aug-2021 4636.60 4501.09 82.22 25.00 318.23 3010.11
   23:02:26.255.27-Aug-2021 4636.60 4501.02 82.22 25.00 318.43 3010.11
   23:02:26.455.27-Aug-2021 4636.60 4501.17 82.22 25.00 318.63 3010.11
   23:02:26.655.27-Aug-2021 4636.60 4501.12 82.22 25.00 318.83 3010.11
   23:02:26.855.27-Aug-2021 4636.60 4501.11 82.22 25.00 319.03 3010.11
   23:02:27.055.27-Aug-2021 4636.60 4501.11 82.22 25.00 319.23 3010.11
   23:02:27.255.27-Aug-2021 4636.60 4501.09 82.22 25.00 319.43 3010.11
   23:02:27.455.27-Aug-2021 4636.60 4500.66 82.22 25.00 319.63 3010.11
   23:02:27.655.27-Aug-2021 4636.60 4501.24 82.22 25.00 319.83 3010.11
   23:02:27.855.27-Aug-2021 4636.60 4501.15 82.22 25.00 320.03 3010.11
   23:02:28.055.27-Aug-2021 4636.60 4501.15 82.22 25.00 320.23 3010.11
   23:02:28.255.27-Aug-2021 4636.60 4501.09 82.22 25.00 320.43 3010.11
   23:02:28.456.27-Aug-2021 4636.60 4501.09 82.22 25.00 320.63 3010.11
   23:02:28.656.27-Aug-2021 4636.60 4501.08 82.22 25.00 320.83 3010.11
   23:02:28.856.27-Aug-2021 4636.60 4501.06 82.22 25.00 321.03 3010.11
   23:02:29.056.27-Aug-2021 4636.60 4501.06 82.22 25.00 321.23 3010.11
   23:02:29.256.27-Aug-2021 4636.60 4501.05 82.22 25.00 321.43 3010.11
   23:02:29.456.27-Aug-2021 4636.60 4501.05 82.22 25.00 321.63 3010.11
   23:02:29.656.27-Aug-2021 4636.60 4501.03 82.22 25.00 321.83 3010.11
   23:02:29.856.27-Aug-2021 4636.60 4501.03 82.22 25.00 322.03 3010.11
   23:02:30.056.27-Aug-2021 4636.60 4501.03 82.22 25.00 322.23 3010.11
   23:02:30.256.27-Aug-2021 4636.60 4501.02 82.22 25.00 322.43 3010.11
   23:02:30.456.27-Aug-2021 4636.60 4501.02 82.22 25.00 322.63 3010.11
   23:02:30.656.27-Aug-2021 4636.60 4500.80 82.22 25.00 322.83 3010.11
   23:02:30.856.27-Aug-2021 4636.60 4501.18 82.22 25.00 323.03 3010.11
   23:02:31.056.27-Aug-2021 4636.60 4501.18 82.22 25.00 323.23 3010.11
   23:02:31.256.27-Aug-2021 4636.60 4501.13 82.22 25.00 323.43 3010.11
   23:02:31.456.27-Aug-2021 4636.60 4501.11 82.22 25.00 323.63 3010.11
   23:02:31.656.27-Aug-2021 4636.60 4501.12 82.22 25.00 323.83 3010.11
   23:02:31.856.27-Aug-2021 4636.60 4501.09 82.22 25.00 324.03 3010.11
   23:02:32.056.27-Aug-2021 4636.60 4501.09 82.22 25.00 324.23 3010.11
   23:02:32.256.27-Aug-2021 4636.60 4501.08 82.22 25.00 324.43 3010.11
   23:02:32.456.27-Aug-2021 4636.60 4501.08 82.22 25.00 324.63 3010.11
   23:02:32.656.27-Aug-2021 4636.60 4501.06 82.22 25.00 324.83 3010.11
   23:02:32.856.27-Aug-2021 4636.60 4501.07 82.22 25.00 325.03 3010.11
   23:02:33.056.27-Aug-2021 4636.60 4501.07 82.22 25.00 325.23 3010.11
   23:02:33.256.27-Aug-2021 4636.60 4501.05 82.22 25.00 325.43 3010.11
   23:02:33.456.27-Aug-2021 4636.60 4501.05 82.22 25.00 325.63 3010.11
   23:02:33.656.27-Aug-2021 4636.60 4501.04 82.22 25.00 325.83 3010.11
   23:02:33.856.27-Aug-2021 4636.60 4500.89 82.22 25.00 326.03 3010.11
   23:02:34.056.27-Aug-2021 4636.60 4500.89 82.22 25.00 326.23 3010.11
   23:02:34.256.27-Aug-2021 4636.60 4501.21 82.22 25.00 326.43 3010.11
   23:02:34.456.27-Aug-2021 4636.60 4501.16 82.22 25.00 326.63 3010.11
   23:02:34.656.27-Aug-2021 4636.60 4501.14 82.22 25.00 326.83 3010.11
   23:02:34.856.27-Aug-2021 4636.60 4501.14 82.22 25.00 327.03 3010.11
   23:02:35.056.27-Aug-2021 4636.60 4501.14 82.22 25.00 327.23 3010.11
   23:02:35.256.27-Aug-2021 4636.60 4501.26 82.22 25.00 327.43 3010.11
   23:02:35.456.27-Aug-2021 4636.60 4501.19 82.22 25.00 327.63 3010.11
   23:02:35.656.27-Aug-2021 4636.60 4501.16 82.22 25.00 327.83 3010.11
   23:02:35.856.27-Aug-2021 4636.60 4501.13 82.22 25.00 328.03 3010.11
   23:02:36.056.27-Aug-2021 4636.60 4501.13 82.22 25.00 328.23 3010.11
   23:02:36.256.27-Aug-2021 4636.60 4501.30 82.22 25.00 328.43 3010.11
   23:02:36.456.27-Aug-2021 4636.60 4501.22 82.22 25.00 328.63 3010.11
   23:02:36.656.27-Aug-2021 4636.60 4501.17 82.22 25.00 328.83 3010.11
   23:02:36.856.27-Aug-2021 4636.60 4501.15 82.22 25.00 329.03 3010.11
   23:02:37.056.27-Aug-2021 4636.60 4501.15 82.22 25.00 329.23 3010.11
   23:02:37.256.27-Aug-2021 4636.60 4501.13 82.22 25.00 329.43 3010.11
   23:02:37.456.27-Aug-2021 4636.60 4500.95 82.22 25.00 329.63 3010.11
   23:02:37.656.27-Aug-2021 4636.60 4501.02 82.22 25.00 329.83 3010.11
   23:02:37.856.27-Aug-2021 4636.60 4501.19 82.22 25.00 330.03 3010.11
   23:02:38.056.27-Aug-2021 4636.60 4501.19 82.22 25.00 330.23 3010.11
   23:02:38.257.27-Aug-2021 4636.60 4501.14 82.22 25.00 330.43 3010.11
   23:02:38.457.27-Aug-2021 4636.60 4501.15 82.22 25.00 330.63 3010.11
   23:02:38.657.27-Aug-2021 4636.60 4501.13 82.22 25.00 330.83 3010.11
   23:02:38.857.27-Aug-2021 4636.60 4501.12 82.22 25.00 331.03 3010.11
   23:02:39.057.27-Aug-2021 4636.60 4501.12 82.22 25.00 331.23 3010.11
   23:02:39.257.27-Aug-2021 4636.60 4501.11 82.22 25.00 331.43 3010.11
   23:02:39.457.27-Aug-2021 4636.60 4501.11 82.22 25.00 331.63 3010.11
   23:02:39.657.27-Aug-2021 4636.60 4501.10 82.22 25.00 331.83 3010.11
   23:02:39.857.27-Aug-2021 4636.60 4501.10 82.22 25.00 332.03 3010.11
   23:02:40.057.27-Aug-2021 4636.60 4501.10 82.22 25.00 332.23 3010.11
   23:02:40.257.27-Aug-2021 4636.60 4501.09 82.22 25.00 332.43 3010.11
   23:02:40.457.27-Aug-2021 4636.60 4501.09 82.22 25.00 332.63 3010.11
   23:02:40.657.27-Aug-2021 4636.60 4500.73 82.22 25.00 332.83 3010.11
   23:02:40.857.27-Aug-2021 4636.60 4501.27 82.22 25.00 333.03 3010.11
   23:02:41.057.27-Aug-2021 4636.60 4501.27 82.22 25.00 333.23 3010.11
   23:02:41.257.27-Aug-2021 4636.60 4501.17 82.22 25.00 333.43 3010.11
   23:02:41.457.27-Aug-2021 4636.60 4501.15 82.22 25.00 333.63 3010.11
   23:02:41.657.27-Aug-2021 4636.60 4501.15 82.22 25.00 333.83 3010.11
   23:02:41.857.27-Aug-2021 4636.60 4501.14 82.22 25.00 334.03 3010.11
   23:02:42.057.27-Aug-2021 4636.60 4501.14 82.22 25.00 334.23 3010.11
   23:02:42.257.27-Aug-2021 4636.60 4501.13 82.22 25.00 334.43 3010.11
   23:02:42.457.27-Aug-2021 4636.60 4501.12 82.22 25.00 334.63 3010.11
   23:02:42.657.27-Aug-2021 4636.60 4501.12 82.22 25.00 334.83 3010.11
   23:02:42.857.27-Aug-2021 4636.60 4501.11 82.22 25.00 335.03 3010.11
   23:02:43.057.27-Aug-2021 4636.60 4501.11 82.22 25.00 335.23 3010.11
   23:02:43.257.27-Aug-2021 4636.60 4501.11 82.22 25.00 335.43 3010.11
   23:02:43.457.27-Aug-2021 4636.60 4501.10 82.22 25.00 335.63 3010.11
   23:02:43.657.27-Aug-2021 4636.60 4501.10 82.22 25.00 335.83 3010.11
   23:02:43.857.27-Aug-2021 4636.60 4501.10 82.22 25.00 336.03 3010.11
   23:02:44.057.27-Aug-2021 4636.60 4501.10 82.22 25.00 336.23 3010.11
   23:02:44.257.27-Aug-2021 4636.60 4501.22 82.22 25.00 336.43 3010.11
   23:02:44.457.27-Aug-2021 4636.60 4501.17 82.22 25.00 336.63 3010.11
   23:02:44.657.27-Aug-2021 4636.60 4501.17 82.22 25.00 336.83 3010.11
   23:02:44.857.27-Aug-2021 4636.60 4501.15 82.22 25.00 337.03 3010.11
   23:02:45.057.27-Aug-2021 4636.60 4501.15 82.22 25.00 337.23 3010.11
   23:02:45.257.27-Aug-2021 4636.60 4501.30 82.22 25.00 337.43 3010.11
   23:02:45.457.27-Aug-2021 4636.60 4501.23 82.22 25.00 337.63 3010.11
   23:02:45.657.27-Aug-2021 4636.60 4501.19 82.22 25.00 337.83 3010.11
   23:02:45.857.27-Aug-2021 4636.60 4501.16 82.22 25.00 338.03 3010.11
   23:02:46.057.27-Aug-2021 4636.60 4501.16 82.22 25.00 338.23 3010.11
   23:02:46.257.27-Aug-2021 4636.60 4501.32 82.22 25.00 338.43 3010.11
   23:02:46.457.27-Aug-2021 4636.60 4501.23 82.22 25.00 338.63 3010.11
   23:02:46.657.27-Aug-2021 4636.60 4501.20 82.22 25.00 338.83 3010.11
