~Version Information
 VERS.                  2.0:   CWLS log ASCII Standard -VERSION 2.0
 WRAP.                   NO:   One line per depth step
~Well Information Block
#MNEM.UNIT     VALUE/NAME     DESCRIPTION
#---------     -----------    ---------------------------
 STRT.S             21:24:04 27-Aug-21: START TIME 21:24:04 27-Aug-21
 STOP.S             21:30:54 27-Aug-21: STOP TIME  21:30:54 27-Aug-21
 STEP.S                   0.00: STEP TIME
 NULL.                 -999.25: NULL VALUE
 DFWT.                        :  DIST FWL TEXT
 DFST.                        :  DIST FSL TEXT
 DMF .             Drill Floor:  DRILL MEAS FROM
 STIM.      20.00.00 17-Aug-21:  START TIME
 DATE.      19.00.00 29-Aug-21:  END TIME
 SPUD.               15-Aug-21:  SPUD DATE
 NREF.                    Grid:  NORTH REFERENCE
 HPTY.       Minimum Curvature:  HOLE POS TYPE
 DMOD.             Drill Model:  DRILL MOD DESC
 SVYD.                  Survey:  SURVEY DESC
 ILTD.               Lithology:  INTERP LTH DESC
 FTOP.          Formation Tops:  FORM TOPS DESC
 RIG .              East Azeri:  RIG NAME
 PDAT.          Mean Sea Level:  PERMANENT DATUM
 FLD .                     ACG:  FIELD NAME
 SON .        AZ-XX-0907180857:  JOB NUMBER
 CTRY.              Azerbaijan:  COUNTRY NAME
 WELL.                    D23x:  WELL NAME
 SRVC.     Turan Drilling and Engineering:  CONTRACTOR
 COMP.     BP Exploration (Caspian Sea) Ltd.:  COMPANY
 UWI .            /AZE00000214:  UNIQUE WELL IDENTIFIER
 API .            /AZE00000214:  API NUMBER
 MDS .        Operator Entered:  MAG DATA SOURCE
 BASE.              Azerbaijan:  LOGGING EQUIPMENT BASE LOCATION
 REGN.                   EESSA:  REGION
 PROV.                    Baku:  PROVINCE
 STAT.                    Baku:  STATE NAME
 MWDS.                    Baku:  MWD SHOP
 DOE .                     N/A:  DOE NUMBER
 DCON.         Sperry Drilling:  DIRECTNL CONTR
 UNIT.                     N/A:  LOGGING EQUIPMENT ID
 WTYP.                Deviated:  WELL TYPE
 CNTY.                        :  COUNTY
 LOC .                        :  LOCATION
 LMF .             Drill Floor:  LOG MEASURED FROM
 TVDS.m                  43.60:  TVDSS CORRECTN
 LATI.deg                40.02:  LATITUDE
 LONG.deg                51.45:  LONGITUDE
 WHNS.m                  -7.04:  WELL HEAD N/S
 WHEW.m                  -0.67:  WELL HEAD E/W
 UTMX.m              538762.90:  UTM X
 UTMY.m             4431871.34:  UTM Y
 DFWL.m                   0.00:  DISTANCE FWL
 DFSL.m                   0.00:  DISTANCE FSL
 SDEP.m                4127.00:  START DEPTH
 TDD .m                5084.50:  TOTAL DEPTH (DRILLER)
 VSDR.deg               140.47:  VERT SEC DIRECT
 GVFD.g                   1.00:  GRAVITY FIELD
 MFLD.nT              50362.00:  MAGNETIC FIELD
 MDIP.deg                59.48:  MAGNETIC DIP
 MDEC.deg                 6.47:  MAGNETIC DECL
 GRDC.deg                 0.31:  GRID CORRECTION
 AZTC.deg                 6.16:  AZM TOTAL CORR
 EPD .m                   0.00:  ELEVATION
 EGL .m                   0.00:  GROUND ELEVATION
 WDMS.m                 151.80:  WD ELEV
 APD .m                  43.60:  DEPTH ABOVE PD
 DEP .m                4092.57:  DEPTH
 AGAP.m                  43.60:  AIR GAP
 VSEW.m                  -0.67:  VERT SEC E/W
 VSNS.m                  -7.04:  VERT SEC N/S
 EKB .m                  43.60:  KB ELEVATION
 EDF .m                  43.60:  DF ELEVATION
 TDL .m                 957.50:  TOTAL DEPTH (LOGGER)
 VSC .                       0:  VS TO CLOSURE
 MAGU.                 1851413:  MAGUTM CHECKSUM
~Parameter Information Block
#MNEM.UNIT       Value        Description
#---------     -----------    ---------------------------
 AV  .mps                 1.50:  Ann Velocity 
 AVMX.mps                 2.00:  Max Ann Veloc 
 AZIF.deg               184.66:  Azm, Final 
 BHAT.        Rotary Steerable:  BHA Type 
 BREV.rev               300.00:  Rev Bit Total 
 BROT.°/30m              -0.50:  Build Rotating 
 BS  .in                  8.50:  Bit Size 
 BSZ .in                  8.50:  Bit Size 
 BTPL.psig              370.00:  Bit Press Loss 
 CABU.                      No:  Customer Abuse 
 CGEO.      Behruz Shahbaliyev:  Customer Geo 
 COMM.                     tºv:  Run Comments 1 
 TCS .hr                140.08:  Time Ciculation Ended 
 CV  .mps                 3.00:  Crit Velocity 
 CVMX.mps                 3.20:  Max Crit Veloc 
 DD1 .            Musa Ahmadov:  Direct Drillr 1 
 DD2 .           Hamid Ahmadov:  Direct Drillr 2 
 DDSV.               Geo-Pilot:  DD Service 
 DEFF.%                  98.40:  % Det Eff 
 DLRX.°/30m               3.40:  Dogleg Rot Max 
 DLSO.°/30m               1.45:  Dogleg Oriented 
 DLSX.°/30m               3.40:  Dogleg Str Max 
 DRET.      18.40.00 29-Aug-21:  Drill End Time 
 DRST.      21.00.00 20-Aug-21:  Drill Start Tim 
 DTIM.hr                 69.47:  Time Drilling 
 EDEP.m                5084.50:  End Depth 
 ENG1.      Artemiy Matviyanov:  Engineer 1 
 ENG2.         Almaz Almadatov:  Engineer 2 
 ETIM.      18.40.00 29-Aug-21:  End Time 
 FLOI.gpm               500.00:  Flow In 
 FLON.gpm               400.00:  Flow In Min 
 FLOS.cptm                0.00:  Fluid Loss 
 FLOX.gpm               500.00:  Flow In Max 
 DFT .        Mineral Oil Base:  Mud Type 
 HFLO.                      No:  High Flow 
 HPRE.                      No:  High Pressure 
 HTEM.                      No:  High Temp 
 HYDO.m                   1.80:  Hydro Offset 
 IFIN.deg                25.62:  Inc, Final 
 IMAX.deg                48.69:  Inc Max 
 IMIN.deg                24.01:  Inc Min 
 IMND.m                4962.57:  Inc Min Depth 
 IMXD.m                4119.01:  Inc Max Depth 
 JARR.                      No:  Jarring 
 LETM.      18.40.00 29-Aug-21:  Log End Time 
 LOST.hr                     0:  Lost Rig Time 
 LSTM.      21.00.00 20-Aug-21:  Log Start Time 
 MDCL.ppm             41500.00:  Mud Chlorides 
 MDES.     Inversion Oil/Synthetic:  Mud Desc 
 DFD .sg                  1.56:  Mud Density 
 MDMN.sg                  1.56:  Dens Mud Min 
 MDMX.sg                  1.56:  Dens Mud Max 
 MOIL.                      70:  Run Mud Oil % 
 MOWR.                   70:30:  Run Mud OWR 
 MSND.                     0.2:  Run Mud Sand % 
 MSOL.                    23.3:  Run Mud Solids% 
 DFV .spqt               78.00:  Mud Viscosity 
 MWOD.in                  6.75:  MWD Tool OD 
 MWSI.                      No:  Serv Intrp, MWD 
 OTIM.hr                218.30:  Time Operating 
 PCON.           Look Like New:  Pad Condition 
 PMAX.psia            11015.30:  Press Op, Max 
 PV  .cP                 38.00:  Mud PV 
 RUN .                     300:  Run Number 
 ROPA.m/hr               15.00:  ROP Avg 
 ROPN.m/hr                9.00:  ROP Min 
 ROPX.m/hr               17.00:  ROP Max 
 RPMA.rpm               120.00:  RPM Surface Avg 
 RPMN.rpm                90.00:  RPM Surface Min 
 RPMX.rpm               140.00:  RPM Surface Max 
 RRUN.                     300:  Rig Run Number 
 RTIM.hr                 31.53:  Time Reaming 
 SAZI.deg               331.64:  Azm, Start 
 SDEP.m                4127.00:  Start Depth 
 SIDD.                      No:  Serv Intrp, DD 
 SINC.deg                48.43:  Inc, Start 
 SPPA.psig             5830.00:  SPP Avg 
 SPPN.psig             5600.00:  SPP Min 
 SPPX.psig             5900.00:  SPP Max 
 STIM.      21.00.00 20-Aug-21:  Start Time 
 SVCS.                 DD, MWD:  Services 
 SVER.                    9.20:  Sperry Version 
 TDAT.m                 957.50:  Tot Depth Attmp 
 TDDF.                      No:  Trip for DD 
 TDLG.m                 957.50:  Tot Depth Loggd 
 TFF .                      No:  Trip for Fail 
 TQAA.f-kp               15.00:  Torque Abs Avg 
 TQAN.f-kp               12.00:  Torque Abs Min 
 TQAX.f-kp               19.00:  Torque Abs Max 
 TRRT.°/30m              -3.40:  Turn Rotating 
 MRT .                  EWR-M5:  Maximum Recorded Temperature 
 TTMX.degC              100.00:  Max Tool Temp 
 VS01.                90639251:  Virtual Str1 SN 
 VS02.                90634715:  Virtual Str2 SN 
 VS03.                90652479:  Virtual Str3 SN 
 VS04.                90642262:  Virtual Str4 SN 
 WBMN.klb                 0.00:  WOB Min 
 WITN.           Murad Guliyev:  Customer Rep 
 WITN.          Yashar Gaziyev:  Customer Rep 2 
 WOBA.klb                 9.00:  WOB Avg 
 WOBX.klb                12.00:  WOB Max 
 YP  .lhf2               30.00:  Yield Point 
~Curve Information Block
#MNEM.UNIT                 API CODE     Curve Description
#---------               -----------    ---------------------------
 TIME.HHMMSS            00 000 000 000:  GT Time & Date
 GTDEPTH.m              00 000 000 000:  GT Depth
 GTPQH.psia             00 000 000 000:  GT HR Quartz Pressure
 GTTQ.degC              00 000 000 000:  GT Quartz Temperature
 GTTN.NONE              00 000 000 000:  GT Test Number
 GTET.sec               00 000 000 000:  GT Elapsed Test Time
 GTTVD.m                00 000 000 000:  GT True Vertical Depth
#Other Information
#
#WARRANTY: Halliburton will use its best efforts to furnish customers with 
#accurate information and interpretations that are part of, and incident to, the services 
#provided.  However, Halliburton cannot and does not warrant the accuracy 
#or correctness of such information and interpretations.  Under no circumstances should any 
#such information or interpretation be relied upon as the sole basis for any drilling, 
#completion, production, or financial decision or any procedure involving any risk to the 
#safety of any drilling venture, drilling rig or its crew or any other third party.  The 
#Customer has full responsibility for all drilling, completion and production operation.  
#Halliburton makes no representations or warranties, either expressed or 
#implied, including, but not limited to, the implied warranties of merchantability or fitness 
#for a particular purpose, with respect to the services rendered.  In no event will 
#Halliburton be liable for failure to obtain any particular results or for 
#any damages, including, but not limited to, indirect, special or consequential damages, 
#resulting from the use of any information or interpretation provided by Halliburton.
#
~A           TIME           GTDEPTH  GTPQH  GTTQ  GTTN   GTET   GTTVD  
   21:24:04.252.27-Aug-2021 4641.00 7201.28 82.48 23.00   0.00 3014.10
   21:24:04.452.27-Aug-2021 4641.00 7201.28 82.48 23.00   0.20 3014.10
   21:24:04.652.27-Aug-2021 4641.00 7201.79 82.48 23.00   0.40 3014.10
   21:24:04.852.27-Aug-2021 4641.00 7201.80 82.48 23.00   0.60 3014.10
   21:24:05.052.27-Aug-2021 4641.00 7201.68 82.48 23.00   0.80 3014.10
   21:24:05.252.27-Aug-2021 4641.00 7201.55 82.48 23.00   1.00 3014.10
   21:24:05.452.27-Aug-2021 4641.00 7201.55 82.48 23.00   1.20 3014.10
   21:24:05.652.27-Aug-2021 4641.00 7201.44 82.48 23.00   1.40 3014.10
   21:24:05.852.27-Aug-2021 4641.00 7201.49 82.48 23.00   1.60 3014.10
   21:24:06.052.27-Aug-2021 4641.00 7201.60 82.48 23.00   1.80 3014.10
   21:24:06.252.27-Aug-2021 4641.00 7202.20 82.48 23.00   2.00 3014.10
   21:24:06.452.27-Aug-2021 4641.00 7202.20 82.48 23.00   2.20 3014.10
   21:24:06.652.27-Aug-2021 4641.00 7202.12 82.48 23.00   2.40 3014.10
   21:24:06.852.27-Aug-2021 4641.00 7202.15 82.48 23.00   2.60 3014.10
   21:24:07.052.27-Aug-2021 4641.00 7202.57 82.48 23.00   2.80 3014.10
   21:24:07.252.27-Aug-2021 4641.00 7202.27 82.48 23.00   3.00 3014.10
   21:24:07.452.27-Aug-2021 4641.00 7202.27 82.48 23.00   3.20 3014.10
   21:24:07.652.27-Aug-2021 4641.00 7203.47 82.48 23.00   3.40 3014.10
   21:24:07.852.27-Aug-2021 4641.00 7203.50 82.48 23.00   3.60 3014.10
   21:24:08.052.27-Aug-2021 4641.00 7203.82 82.48 23.00   3.80 3014.10
   21:24:08.252.27-Aug-2021 4641.00 7204.06 82.48 23.00   4.00 3014.10
   21:24:08.452.27-Aug-2021 4641.00 7204.06 82.48 23.00   4.20 3014.10
   21:24:08.652.27-Aug-2021 4641.00 7204.37 82.48 23.00   4.40 3014.10
   21:24:08.852.27-Aug-2021 4641.00 7204.48 82.48 23.00   4.60 3014.10
   21:24:09.052.27-Aug-2021 4641.00 7204.76 82.48 23.00   4.80 3014.10
   21:24:09.252.27-Aug-2021 4641.00 7205.01 82.48 23.00   5.00 3014.10
   21:24:09.452.27-Aug-2021 4641.00 7205.01 82.48 23.00   5.20 3014.10
   21:24:09.652.27-Aug-2021 4641.00 7208.62 82.48 23.00   5.40 3014.10
   21:24:09.853.27-Aug-2021 4641.00 7205.85 82.48 23.00   5.60 3014.10
   21:24:10.053.27-Aug-2021 4641.00 7206.02 82.48 23.00   5.80 3014.10
   21:24:10.253.27-Aug-2021 4641.00 7206.40 82.48 23.00   6.00 3014.10
   21:24:10.453.27-Aug-2021 4641.00 7206.40 82.48 23.00   6.20 3014.10
   21:24:10.653.27-Aug-2021 4641.00 7206.40 82.48 23.00   6.40 3014.10
   21:24:10.853.27-Aug-2021 4641.00 7210.48 82.48 23.00   6.60 3014.10
   21:24:11.053.27-Aug-2021 4641.00 7207.53 82.48 23.00   6.80 3014.10
   21:24:11.253.27-Aug-2021 4641.00 7207.64 82.48 23.00   7.00 3014.10
   21:24:11.453.27-Aug-2021 4641.00 7207.64 82.48 23.00   7.20 3014.10
   21:24:11.653.27-Aug-2021 4641.00 7207.90 82.48 23.00   7.40 3014.10
   21:24:11.853.27-Aug-2021 4641.00 7212.26 82.48 23.00   7.60 3014.10
   21:24:12.053.27-Aug-2021 4641.00 7209.25 82.48 23.00   7.80 3014.10
   21:24:12.253.27-Aug-2021 4641.00 7209.22 82.48 23.00   8.00 3014.10
   21:24:12.453.27-Aug-2021 4641.00 7209.22 82.48 23.00   8.20 3014.10
   21:24:12.653.27-Aug-2021 4641.00 7210.24 82.48 23.00   8.40 3014.10
   21:24:12.853.27-Aug-2021 4641.00 7209.73 82.48 23.00   8.60 3014.10
   21:24:13.053.27-Aug-2021 4641.00 7214.43 82.48 23.00   8.80 3014.10
   21:24:13.253.27-Aug-2021 4641.00 7209.75 82.48 23.00   9.00 3014.10
   21:24:13.453.27-Aug-2021 4641.00 7209.75 82.48 23.00   9.20 3014.10
   21:24:13.653.27-Aug-2021 4641.00 7210.72 82.48 23.00   9.40 3014.10
   21:24:13.853.27-Aug-2021 4641.00 7213.65 82.48 23.00   9.60 3014.10
   21:24:14.053.27-Aug-2021 4641.00 7212.02 82.48 23.00   9.80 3014.10
   21:24:14.253.27-Aug-2021 4641.00 7211.23 82.48 23.00  10.00 3014.10
   21:24:14.453.27-Aug-2021 4641.00 7211.23 82.48 23.00  10.20 3014.10
   21:24:14.653.27-Aug-2021 4641.00 7211.23 82.48 23.00  10.40 3014.10
   21:24:14.853.27-Aug-2021 4641.00 7216.48 82.48 23.00  10.60 3014.10
   21:24:15.053.27-Aug-2021 4641.00 7211.40 82.48 23.00  10.80 3014.10
   21:24:15.253.27-Aug-2021 4641.00 7212.19 82.48 23.00  11.00 3014.10
   21:24:15.453.27-Aug-2021 4641.00 7212.19 82.48 23.00  11.20 3014.10
   21:24:15.653.27-Aug-2021 4641.00 7212.51 82.48 23.00  11.40 3014.10
   21:24:15.853.27-Aug-2021 4641.00 7213.59 82.48 23.00  11.60 3014.10
   21:24:16.053.27-Aug-2021 4641.00 7213.15 82.48 23.00  11.80 3014.10
   21:24:16.253.27-Aug-2021 4641.00 7213.46 82.48 23.00  12.00 3014.10
   21:24:16.453.27-Aug-2021 4641.00 7213.46 82.48 23.00  12.20 3014.10
   21:24:16.653.27-Aug-2021 4641.00 7213.83 82.48 23.00  12.40 3014.10
   21:24:16.853.27-Aug-2021 4641.00 7214.03 82.48 23.00  12.60 3014.10
   21:24:17.053.27-Aug-2021 4641.00 7214.13 82.48 23.00  12.80 3014.10
   21:24:17.253.27-Aug-2021 4641.00 7214.30 82.48 23.00  13.00 3014.10
   21:24:17.453.27-Aug-2021 4641.00 7214.30 82.48 23.00  13.20 3014.10
   21:24:17.653.27-Aug-2021 4641.00 7214.70 82.48 23.00  13.40 3014.10
   21:24:17.853.27-Aug-2021 4641.00 7215.01 82.48 23.00  13.60 3014.10
   21:24:18.053.27-Aug-2021 4641.00 7219.56 82.48 23.00  13.80 3014.10
   21:24:18.253.27-Aug-2021 4641.00 7214.21 82.48 23.00  14.00 3014.10
   21:24:18.453.27-Aug-2021 4641.00 7214.21 82.48 23.00  14.20 3014.10
   21:24:18.653.27-Aug-2021 4641.00 7214.21 82.48 23.00  14.40 3014.10
   21:24:18.853.27-Aug-2021 4641.00 7214.21 82.48 23.00  14.60 3014.10
   21:24:19.053.27-Aug-2021 4641.00 7214.21 82.48 23.00  14.80 3014.10
   21:24:19.253.27-Aug-2021 4641.00 7216.68 82.48 23.00  15.00 3014.10
   21:24:19.453.27-Aug-2021 4641.00 7217.32 82.48 23.00  15.20 3014.10
   21:24:19.654.27-Aug-2021 4641.00 7217.21 82.48 23.00  15.40 3014.10
   21:24:19.854.27-Aug-2021 4641.00 7217.40 82.48 23.00  15.60 3014.10
   21:24:20.054.27-Aug-2021 4641.00 7217.64 82.48 23.00  15.80 3014.10
   21:24:20.254.27-Aug-2021 4641.00 7217.72 82.48 23.00  16.00 3014.10
   21:24:20.454.27-Aug-2021 4641.00 7217.72 82.48 23.00  16.20 3014.10
   21:24:20.654.27-Aug-2021 4641.00 7217.94 82.48 23.00  16.40 3014.10
   21:24:20.854.27-Aug-2021 4641.00 7218.10 82.48 23.00  16.60 3014.10
   21:24:21.054.27-Aug-2021 4641.00 7218.31 82.48 23.00  16.80 3014.10
   21:24:21.254.27-Aug-2021 4641.00 7218.55 82.47 23.00  17.00 3014.10
   21:24:21.454.27-Aug-2021 4641.00 7218.55 82.47 23.00  17.20 3014.10
   21:24:21.654.27-Aug-2021 4641.00 7217.78 82.47 23.00  17.40 3014.10
   21:24:21.854.27-Aug-2021 4641.00 7219.05 82.47 23.00  17.60 3014.10
   21:24:22.054.27-Aug-2021 4641.00 7219.00 82.47 23.00  17.80 3014.10
   21:24:22.254.27-Aug-2021 4641.00 7219.16 82.47 23.00  18.00 3014.10
   21:24:22.454.27-Aug-2021 4641.00 7219.16 82.47 23.00  18.20 3014.10
   21:24:22.654.27-Aug-2021 4641.00 7218.45 82.47 23.00  18.40 3014.10
   21:24:22.854.27-Aug-2021 4641.00 7220.11 82.47 23.00  18.60 3014.10
   21:24:23.054.27-Aug-2021 4641.00 7219.92 82.47 23.00  18.80 3014.10
   21:24:23.254.27-Aug-2021 4641.00 7222.88 82.47 23.00  19.00 3014.10
   21:24:23.454.27-Aug-2021 4641.00 7222.88 82.47 23.00  19.20 3014.10
   21:24:23.654.27-Aug-2021 4641.00 7220.44 82.47 23.00  19.40 3014.10
   21:24:23.854.27-Aug-2021 4641.00 7220.92 82.47 23.00  19.60 3014.10
   21:24:24.054.27-Aug-2021 4641.00 7224.45 82.47 23.00  19.80 3014.10
   21:24:24.254.27-Aug-2021 4641.00 7220.49 82.47 23.00  20.00 3014.10
   21:24:24.454.27-Aug-2021 4641.00 7220.49 82.47 23.00  20.20 3014.10
   21:24:24.654.27-Aug-2021 4641.00 7221.43 82.47 23.00  20.40 3014.10
   21:24:24.854.27-Aug-2021 4641.00 7221.15 82.47 23.00  20.60 3014.10
   21:24:25.054.27-Aug-2021 4641.00 7222.41 82.47 23.00  20.80 3014.10
   21:24:25.254.27-Aug-2021 4641.00 7221.94 82.47 23.00  21.00 3014.10
   21:24:25.454.27-Aug-2021 4641.00 7221.94 82.47 23.00  21.20 3014.10
   21:24:25.654.27-Aug-2021 4641.00 7222.29 82.47 23.00  21.40 3014.10
   21:24:25.854.27-Aug-2021 4641.00 7222.64 82.47 23.00  21.60 3014.10
   21:24:26.054.27-Aug-2021 4641.00 7222.78 82.47 23.00  21.80 3014.10
   21:24:26.254.27-Aug-2021 4641.00 7222.85 82.47 23.00  22.00 3014.10
   21:24:26.454.27-Aug-2021 4641.00 7222.85 82.47 23.00  22.20 3014.10
   21:24:26.654.27-Aug-2021 4641.00 7222.94 82.47 23.00  22.40 3014.10
