~Version Information
 VERS.                  2.0:   CWLS log ASCII Standard -VERSION 2.0
 WRAP.                   NO:   One line per depth step
~Well Information Block
#MNEM.UNIT     VALUE/NAME     DESCRIPTION
#---------     -----------    ---------------------------
 STRT.S             15:52:10 27-Aug-21: START TIME 15:52:10 27-Aug-21
 STOP.S             15:59:26 27-Aug-21: STOP TIME  15:59:26 27-Aug-21
 STEP.S                   0.00: STEP TIME
 NULL.                 -999.25: NULL VALUE
 DFWT.                        :  DIST FWL TEXT
 DFST.                        :  DIST FSL TEXT
 DMF .             Drill Floor:  DRILL MEAS FROM
 STIM.      20.00.00 17-Aug-21:  START TIME
 DATE.      19.00.00 29-Aug-21:  END TIME
 SPUD.               15-Aug-21:  SPUD DATE
 NREF.                    Grid:  NORTH REFERENCE
 HPTY.       Minimum Curvature:  HOLE POS TYPE
 DMOD.             Drill Model:  DRILL MOD DESC
 SVYD.                  Survey:  SURVEY DESC
 ILTD.               Lithology:  INTERP LTH DESC
 FTOP.          Formation Tops:  FORM TOPS DESC
 RIG .              East Azeri:  RIG NAME
 PDAT.          Mean Sea Level:  PERMANENT DATUM
 FLD .                     ACG:  FIELD NAME
 SON .        AZ-XX-0907180857:  JOB NUMBER
 CTRY.              Azerbaijan:  COUNTRY NAME
 WELL.                    D23x:  WELL NAME
 SRVC.     Turan Drilling and Engineering:  CONTRACTOR
 COMP.     BP Exploration (Caspian Sea) Ltd.:  COMPANY
 UWI .            /AZE00000214:  UNIQUE WELL IDENTIFIER
 API .            /AZE00000214:  API NUMBER
 MDS .        Operator Entered:  MAG DATA SOURCE
 BASE.              Azerbaijan:  LOGGING EQUIPMENT BASE LOCATION
 REGN.                   EESSA:  REGION
 PROV.                    Baku:  PROVINCE
 STAT.                    Baku:  STATE NAME
 MWDS.                    Baku:  MWD SHOP
 DOE .                     N/A:  DOE NUMBER
 DCON.         Sperry Drilling:  DIRECTNL CONTR
 UNIT.                     N/A:  LOGGING EQUIPMENT ID
 WTYP.                Deviated:  WELL TYPE
 CNTY.                        :  COUNTY
 LOC .                        :  LOCATION
 LMF .             Drill Floor:  LOG MEASURED FROM
 TVDS.m                  43.60:  TVDSS CORRECTN
 LATI.deg                40.02:  LATITUDE
 LONG.deg                51.45:  LONGITUDE
 WHNS.m                  -7.04:  WELL HEAD N/S
 WHEW.m                  -0.67:  WELL HEAD E/W
 UTMX.m              538762.90:  UTM X
 UTMY.m             4431871.34:  UTM Y
 DFWL.m                   0.00:  DISTANCE FWL
 DFSL.m                   0.00:  DISTANCE FSL
 SDEP.m                4127.00:  START DEPTH
 TDD .m                5084.50:  TOTAL DEPTH (DRILLER)
 VSDR.deg               140.47:  VERT SEC DIRECT
 GVFD.g                   1.00:  GRAVITY FIELD
 MFLD.nT              50362.00:  MAGNETIC FIELD
 MDIP.deg                59.48:  MAGNETIC DIP
 MDEC.deg                 6.47:  MAGNETIC DECL
 GRDC.deg                 0.31:  GRID CORRECTION
 AZTC.deg                 6.16:  AZM TOTAL CORR
 EPD .m                   0.00:  ELEVATION
 EGL .m                   0.00:  GROUND ELEVATION
 WDMS.m                 151.80:  WD ELEV
 APD .m                  43.60:  DEPTH ABOVE PD
 DEP .m                4092.57:  DEPTH
 AGAP.m                  43.60:  AIR GAP
 VSEW.m                  -0.67:  VERT SEC E/W
 VSNS.m                  -7.04:  VERT SEC N/S
 EKB .m                  43.60:  KB ELEVATION
 EDF .m                  43.60:  DF ELEVATION
 TDL .m                 957.50:  TOTAL DEPTH (LOGGER)
 VSC .                       0:  VS TO CLOSURE
 MAGU.                 1851413:  MAGUTM CHECKSUM
~Parameter Information Block
#MNEM.UNIT       Value        Description
#---------     -----------    ---------------------------
 AV  .mps                 1.50:  Ann Velocity 
 AVMX.mps                 2.00:  Max Ann Veloc 
 AZIF.deg               184.66:  Azm, Final 
 BHAT.        Rotary Steerable:  BHA Type 
 BREV.rev               300.00:  Rev Bit Total 
 BROT.°/30m              -0.50:  Build Rotating 
 BS  .in                  8.50:  Bit Size 
 BSZ .in                  8.50:  Bit Size 
 BTPL.psig              370.00:  Bit Press Loss 
 CABU.                      No:  Customer Abuse 
 CGEO.      Behruz Shahbaliyev:  Customer Geo 
 COMM.                     Ìu:  Run Comments 1 
 TCS .hr                140.08:  Time Ciculation Ended 
 CV  .mps                 3.00:  Crit Velocity 
 CVMX.mps                 3.20:  Max Crit Veloc 
 DD1 .            Musa Ahmadov:  Direct Drillr 1 
 DD2 .           Hamid Ahmadov:  Direct Drillr 2 
 DDSV.               Geo-Pilot:  DD Service 
 DEFF.%                  98.40:  % Det Eff 
 DLRX.°/30m               3.40:  Dogleg Rot Max 
 DLSO.°/30m               1.45:  Dogleg Oriented 
 DLSX.°/30m               3.40:  Dogleg Str Max 
 DRET.      18.40.00 29-Aug-21:  Drill End Time 
 DRST.      21.00.00 20-Aug-21:  Drill Start Tim 
 DTIM.hr                 69.47:  Time Drilling 
 EDEP.m                5084.50:  End Depth 
 ENG1.      Artemiy Matviyanov:  Engineer 1 
 ENG2.         Almaz Almadatov:  Engineer 2 
 ETIM.      18.40.00 29-Aug-21:  End Time 
 FLOI.gpm               500.00:  Flow In 
 FLON.gpm               400.00:  Flow In Min 
 FLOS.cptm                0.00:  Fluid Loss 
 FLOX.gpm               500.00:  Flow In Max 
 DFT .        Mineral Oil Base:  Mud Type 
 HFLO.                      No:  High Flow 
 HPRE.                      No:  High Pressure 
 HTEM.                      No:  High Temp 
 HYDO.m                   1.80:  Hydro Offset 
 IFIN.deg                25.62:  Inc, Final 
 IMAX.deg                48.69:  Inc Max 
 IMIN.deg                24.01:  Inc Min 
 IMND.m                4962.57:  Inc Min Depth 
 IMXD.m                4119.01:  Inc Max Depth 
 JARR.                      No:  Jarring 
 LETM.      18.40.00 29-Aug-21:  Log End Time 
 LOST.hr                     0:  Lost Rig Time 
 LSTM.      21.00.00 20-Aug-21:  Log Start Time 
 MDCL.ppm             41500.00:  Mud Chlorides 
 MDES.     Inversion Oil/Synthetic:  Mud Desc 
 DFD .sg                  1.56:  Mud Density 
 MDMN.sg                  1.56:  Dens Mud Min 
 MDMX.sg                  1.56:  Dens Mud Max 
 MOIL.                      70:  Run Mud Oil % 
 MOWR.                   70:30:  Run Mud OWR 
 MSND.                     0.2:  Run Mud Sand % 
 MSOL.                    23.3:  Run Mud Solids% 
 DFV .spqt               78.00:  Mud Viscosity 
 MWOD.in                  6.75:  MWD Tool OD 
 MWSI.                      No:  Serv Intrp, MWD 
 OTIM.hr                218.30:  Time Operating 
 PCON.           Look Like New:  Pad Condition 
 PMAX.psia            11015.30:  Press Op, Max 
 PV  .cP                 38.00:  Mud PV 
 RUN .                     300:  Run Number 
 ROPA.m/hr               15.00:  ROP Avg 
 ROPN.m/hr                9.00:  ROP Min 
 ROPX.m/hr               17.00:  ROP Max 
 RPMA.rpm               120.00:  RPM Surface Avg 
 RPMN.rpm                90.00:  RPM Surface Min 
 RPMX.rpm               140.00:  RPM Surface Max 
 RRUN.                     300:  Rig Run Number 
 RTIM.hr                 31.53:  Time Reaming 
 SAZI.deg               331.64:  Azm, Start 
 SDEP.m                4127.00:  Start Depth 
 SIDD.                      No:  Serv Intrp, DD 
 SINC.deg                48.43:  Inc, Start 
 SPPA.psig             5830.00:  SPP Avg 
 SPPN.psig             5600.00:  SPP Min 
 SPPX.psig             5900.00:  SPP Max 
 STIM.      21.00.00 20-Aug-21:  Start Time 
 SVCS.                 DD, MWD:  Services 
 SVER.                    9.20:  Sperry Version 
 TDAT.m                 957.50:  Tot Depth Attmp 
 TDDF.                      No:  Trip for DD 
 TDLG.m                 957.50:  Tot Depth Loggd 
 TFF .                      No:  Trip for Fail 
 TQAA.f-kp               15.00:  Torque Abs Avg 
 TQAN.f-kp               12.00:  Torque Abs Min 
 TQAX.f-kp               19.00:  Torque Abs Max 
 TRRT.°/30m              -3.40:  Turn Rotating 
 MRT .                  EWR-M5:  Maximum Recorded Temperature 
 TTMX.degC              100.00:  Max Tool Temp 
 VS01.                90639251:  Virtual Str1 SN 
 VS02.                90634715:  Virtual Str2 SN 
 VS03.                90652479:  Virtual Str3 SN 
 VS04.                90642262:  Virtual Str4 SN 
 WBMN.klb                 0.00:  WOB Min 
 WITN.           Murad Guliyev:  Customer Rep 
 WITN.          Yashar Gaziyev:  Customer Rep 2 
 WOBA.klb                 9.00:  WOB Avg 
 WOBX.klb                12.00:  WOB Max 
 YP  .lhf2               30.00:  Yield Point 
~Curve Information Block
#MNEM.UNIT                 API CODE     Curve Description
#---------               -----------    ---------------------------
 TIME.HHMMSS            00 000 000 000:  GT Time & Date
 GTDEPTH.m              00 000 000 000:  GT Depth
 GTPQH.psia             00 000 000 000:  GT HR Quartz Pressure
 GTTQ.degC              00 000 000 000:  GT Quartz Temperature
 GTTN.NONE              00 000 000 000:  GT Test Number
 GTET.sec               00 000 000 000:  GT Elapsed Test Time
 GTTVD.m                00 000 000 000:  GT True Vertical Depth
#Other Information
#
#WARRANTY: Halliburton will use its best efforts to furnish customers with 
#accurate information and interpretations that are part of, and incident to, the services 
#provided.  However, Halliburton cannot and does not warrant the accuracy 
#or correctness of such information and interpretations.  Under no circumstances should any 
#such information or interpretation be relied upon as the sole basis for any drilling, 
#completion, production, or financial decision or any procedure involving any risk to the 
#safety of any drilling venture, drilling rig or its crew or any other third party.  The 
#Customer has full responsibility for all drilling, completion and production operation.  
#Halliburton makes no representations or warranties, either expressed or 
#implied, including, but not limited to, the implied warranties of merchantability or fitness 
#for a particular purpose, with respect to the services rendered.  In no event will 
#Halliburton be liable for failure to obtain any particular results or for 
#any damages, including, but not limited to, indirect, special or consequential damages, 
#resulting from the use of any information or interpretation provided by Halliburton.
#
~A           TIME           GTDEPTH  GTPQH  GTTQ  GTTN   GTET   GTTVD  
# ...
   15:54:49.223.27-Aug-2021 4817.00 5229.90 83.61 16.00 158.45 3173.43
   15:54:49.423.27-Aug-2021 4817.00 5229.80 83.61 16.00 158.65 3173.43
   15:54:49.624.27-Aug-2021 4817.00 5229.77 83.61 16.00 158.85 3173.43
   15:54:49.824.27-Aug-2021 4817.00 5229.76 83.61 16.00 159.05 3173.43
   15:54:50.024.27-Aug-2021 4817.00 5229.80 83.61 16.00 159.25 3173.43
   15:54:50.224.27-Aug-2021 4817.00 5229.80 83.61 16.00 159.45 3173.43
   15:54:50.425.27-Aug-2021 4817.00 5229.68 83.61 16.00 159.65 3173.43
   15:54:50.625.27-Aug-2021 4817.00 5229.76 83.61 16.00 159.85 3173.43
   15:54:50.825.27-Aug-2021 4817.00 5229.83 83.61 16.00 160.05 3173.43
   15:54:51.026.27-Aug-2021 4817.00 5229.77 83.61 16.00 160.25 3173.43
   15:54:51.226.27-Aug-2021 4817.00 5229.77 83.61 16.00 160.46 3173.43
   15:54:51.426.27-Aug-2021 4817.00 5229.93 83.61 16.00 160.66 3173.43
   15:54:51.627.27-Aug-2021 4817.00 5229.76 83.61 16.00 160.86 3173.43
   15:54:51.827.27-Aug-2021 4817.00 5229.78 83.61 16.00 161.06 3173.43
   15:54:52.027.27-Aug-2021 4817.00 5229.73 83.61 16.00 161.26 3173.43
   15:54:52.228.27-Aug-2021 4817.00 5229.73 83.61 16.00 161.46 3173.43
   15:54:52.428.27-Aug-2021 4817.00 5229.75 83.61 16.00 161.66 3173.43
   15:54:52.628.27-Aug-2021 4817.00 5229.78 83.61 16.00 161.86 3173.43
   15:54:52.829.27-Aug-2021 4817.00 5229.78 83.61 16.00 162.06 3173.43
   15:54:53.029.27-Aug-2021 4817.00 5229.77 83.61 16.00 162.26 3173.43
   15:54:53.229.27-Aug-2021 4817.00 5229.77 83.61 16.00 162.46 3173.43
   15:54:53.430.27-Aug-2021 4817.00 5229.78 83.61 16.00 162.66 3173.43
   15:54:53.630.27-Aug-2021 4817.00 5229.77 83.61 16.00 162.86 3173.43
   15:54:53.830.27-Aug-2021 4817.00 5229.77 83.61 16.00 163.06 3173.43
   15:54:54.031.27-Aug-2021 4817.00 5229.79 83.61 16.00 163.26 3173.43
   15:54:54.231.27-Aug-2021 4817.00 5229.79 83.61 16.00 163.46 3173.43
   15:54:54.431.27-Aug-2021 4817.00 5229.96 83.61 16.00 163.66 3173.43
   15:54:54.631.27-Aug-2021 4817.00 5229.75 83.61 16.00 163.86 3173.43
   15:54:54.832.27-Aug-2021 4817.00 5229.81 83.61 16.00 164.06 3173.43
   15:54:55.032.27-Aug-2021 4817.00 5229.76 83.61 16.00 164.26 3173.43
   15:54:55.232.27-Aug-2021 4817.00 5229.76 83.61 16.00 164.46 3173.43
   15:54:55.433.27-Aug-2021 4817.00 5138.86 83.61 16.00 164.66 3173.43
   15:54:55.633.27-Aug-2021 4817.00 5127.84 83.61 16.00 164.86 3173.43
   15:54:55.833.27-Aug-2021 4817.00 5124.21 83.61 16.00 165.06 3173.43
   15:54:56.034.27-Aug-2021 4817.00 5125.31 83.61 16.00 165.26 3173.43
   15:54:56.234.27-Aug-2021 4817.00 5125.31 83.61 16.00 165.46 3173.43
   15:54:56.434.27-Aug-2021 4817.00 5124.74 83.61 16.00 165.66 3173.43
   15:54:56.635.27-Aug-2021 4817.00 5124.10 83.61 16.00 165.86 3173.43
   15:54:56.835.27-Aug-2021 4817.00 5123.94 83.61 16.00 166.06 3173.43
   15:54:57.035.27-Aug-2021 4817.00 5124.33 83.61 16.00 166.26 3173.43
   15:54:57.236.27-Aug-2021 4817.00 5124.33 83.61 16.00 166.46 3173.43
   15:54:57.436.27-Aug-2021 4817.00 5124.32 83.61 16.00 166.66 3173.43
   15:54:57.636.27-Aug-2021 4817.00 5124.23 83.61 16.00 166.87 3173.43
   15:54:57.837.27-Aug-2021 4817.00 5122.75 83.61 16.00 167.07 3173.43
   15:54:58.037.27-Aug-2021 4817.00 5124.60 83.60 16.00 167.27 3173.43
   15:54:58.237.27-Aug-2021 4817.00 5124.60 83.60 16.00 167.47 3173.43
   15:54:58.438.27-Aug-2021 4817.00 5124.12 83.60 16.00 167.67 3173.43
   15:54:58.638.27-Aug-2021 4817.00 5124.27 83.60 16.00 167.87 3173.43
   15:54:58.838.27-Aug-2021 4817.00 5123.18 83.60 16.00 168.07 3173.43
   15:54:59.039.27-Aug-2021 4817.00 5124.57 83.60 16.00 168.27 3173.43
   15:54:59.239.27-Aug-2021 4817.00 5124.57 83.60 16.00 168.47 3173.43
   15:54:59.439.27-Aug-2021 4817.00 5124.17 83.60 16.00 168.67 3173.43
   15:54:59.639.27-Aug-2021 4817.00 5123.37 83.60 16.00 168.87 3173.43
   15:54:59.840.27-Aug-2021 4817.00 5123.91 83.60 16.00 169.07 3173.43
   15:55:00.040.27-Aug-2021 4817.00 5122.97 83.60 16.00 169.27 3173.43
   15:55:00.240.27-Aug-2021 4817.00 5122.97 83.60 16.00 169.47 3173.43
   15:55:00.441.27-Aug-2021 4817.00 5124.81 83.60 16.00 169.67 3173.43
   15:55:00.641.27-Aug-2021 4817.00 5121.87 83.60 16.00 169.87 3173.43
   15:55:00.841.27-Aug-2021 4817.00 5123.74 83.60 16.00 170.07 3173.43
   15:55:01.042.27-Aug-2021 4817.00 5122.72 83.60 16.00 170.27 3173.43
   15:55:01.242.27-Aug-2021 4817.00 5122.72 83.60 16.00 170.47 3173.43
   15:55:01.442.27-Aug-2021 4817.00 5121.76 83.60 16.00 170.67 3173.43
   15:55:01.643.27-Aug-2021 4817.00 5123.07 83.60 16.00 170.87 3173.43
   15:55:01.843.27-Aug-2021 4817.00 5123.20 83.60 16.00 171.07 3173.43
   15:55:02.043.27-Aug-2021 4817.00 5123.27 83.60 16.00 171.27 3173.43
   15:55:02.244.27-Aug-2021 4817.00 5123.27 83.60 16.00 171.47 3173.43
   15:55:02.444.27-Aug-2021 4817.00 5123.12 83.60 16.00 171.67 3173.43
   15:55:02.644.27-Aug-2021 4817.00 5122.68 83.60 16.00 171.87 3173.43
   15:55:02.845.27-Aug-2021 4817.00 5121.86 83.60 16.00 172.07 3173.43
   15:55:03.045.27-Aug-2021 4817.00 5122.73 83.60 16.00 172.27 3173.43
   15:55:03.245.27-Aug-2021 4817.00 5122.73 83.60 16.00 172.47 3173.43
   15:55:03.446.27-Aug-2021 4817.00 5122.34 83.60 16.00 172.67 3173.43
   15:55:03.646.27-Aug-2021 4817.00 5123.02 83.60 16.00 172.87 3173.43
   15:55:03.846.27-Aug-2021 4817.00 5122.80 83.60 16.00 173.08 3173.43
   15:55:04.046.27-Aug-2021 4817.00 5122.99 83.60 16.00 173.28 3173.43
   15:55:04.247.27-Aug-2021 4817.00 5122.99 83.60 16.00 173.48 3173.43
   15:55:04.447.27-Aug-2021 4817.00 5123.92 83.60 16.00 173.68 3173.43
   15:55:04.647.27-Aug-2021 4817.00 5123.25 83.60 16.00 173.88 3173.43
   15:55:04.848.27-Aug-2021 4817.00 5124.03 83.60 16.00 174.08 3173.43
   15:55:05.048.27-Aug-2021 4817.00 5122.65 83.60 16.00 174.28 3173.43
   15:55:05.248.27-Aug-2021 4817.00 5122.65 83.60 16.00 174.48 3173.43
   15:55:05.449.27-Aug-2021 4817.00 5159.38 83.60 16.00 174.68 3173.43
   15:55:05.649.27-Aug-2021 4817.00 5223.24 83.60 16.00 174.88 3173.43
   15:55:05.849.27-Aug-2021 4817.00 5226.86 83.60 16.00 175.08 3173.43
   15:55:06.050.27-Aug-2021 4817.00 5227.32 83.60 16.00 175.28 3173.43
   15:55:06.250.27-Aug-2021 4817.00 5227.32 83.60 16.00 175.48 3173.43
   15:55:06.450.27-Aug-2021 4817.00 5227.87 83.60 16.00 175.68 3173.43
   15:55:06.651.27-Aug-2021 4817.00 5228.08 83.60 16.00 175.88 3173.43
   15:55:06.851.27-Aug-2021 4817.00 5228.21 83.60 16.00 176.08 3173.43
   15:55:07.051.27-Aug-2021 4817.00 5228.31 83.60 16.00 176.28 3173.43
   15:55:07.252.27-Aug-2021 4817.00 5228.31 83.60 16.00 176.48 3173.43
   15:55:07.452.27-Aug-2021 4817.00 5229.02 83.60 16.00 176.68 3173.43
   15:55:07.652.27-Aug-2021 4817.00 5229.21 83.60 16.00 176.88 3173.43
   15:55:07.853.27-Aug-2021 4817.00 5229.23 83.60 16.00 177.08 3173.43
   15:55:08.053.27-Aug-2021 4817.00 5229.40 83.60 16.00 177.28 3173.43
   15:55:08.253.27-Aug-2021 4817.00 5229.40 83.60 16.00 177.48 3173.43
   15:55:08.453.27-Aug-2021 4817.00 5229.38 83.60 16.00 177.68 3173.43
   15:55:08.654.27-Aug-2021 4817.00 5229.34 83.60 16.00 177.88 3173.43
   15:55:08.854.27-Aug-2021 4817.00 5229.55 83.60 16.00 178.08 3173.43
   15:55:09.054.27-Aug-2021 4817.00 5229.35 83.60 16.00 178.28 3173.43
   15:55:09.255.27-Aug-2021 4817.00 5229.35 83.60 16.00 178.48 3173.43
   15:55:09.455.27-Aug-2021 4817.00 5229.48 83.60 16.00 178.68 3173.43
   15:55:09.655.27-Aug-2021 4817.00 5229.47 83.60 16.00 178.88 3173.43
   15:55:09.856.27-Aug-2021 4817.00 5229.44 83.60 16.00 179.08 3173.43
   15:55:10.056.27-Aug-2021 4817.00 5229.42 83.60 16.00 179.28 3173.43
   15:55:10.256.27-Aug-2021 4817.00 5229.42 83.60 16.00 179.49 3173.43
   15:55:10.457.27-Aug-2021 4817.00 5229.37 83.60 16.00 179.69 3173.43
   15:55:10.657.27-Aug-2021 4817.00 5229.55 83.60 16.00 179.89 3173.43
   15:55:10.857.27-Aug-2021 4817.00 5229.53 83.60 16.00 180.09 3173.43
   15:55:11.058.27-Aug-2021 4817.00 5229.53 83.60 16.00 180.29 3173.43
   15:55:11.258.27-Aug-2021 4817.00 5229.53 83.60 16.00 180.49 3173.43
   15:55:11.458.27-Aug-2021 4817.00 5229.49 83.60 16.00 180.69 3173.43
   15:55:11.659.27-Aug-2021 4817.00 5229.51 83.60 16.00 180.89 3173.43
