~Version Information
 VERS.                  2.0:   CWLS log ASCII Standard -VERSION 2.0
 WRAP.                   NO:   One line per depth step
~Well Information Block
#MNEM.UNIT     VALUE/NAME     DESCRIPTION
#---------     -----------    ---------------------------
 STRT.S             10:43:45 27-Aug-21: START TIME 10:43:45 27-Aug-21
 STOP.S             10:50:54 27-Aug-21: STOP TIME  10:50:54 27-Aug-21
 STEP.S                   0.00: STEP TIME
 NULL.                 -999.25: NULL VALUE
 DFWT.                        :  DIST FWL TEXT
 DFST.                        :  DIST FSL TEXT
 DMF .             Drill Floor:  DRILL MEAS FROM
 STIM.      20.00.00 17-Aug-21:  START TIME
 DATE.      19.00.00 29-Aug-21:  END TIME
 SPUD.               15-Aug-21:  SPUD DATE
 NREF.                    Grid:  NORTH REFERENCE
 HPTY.       Minimum Curvature:  HOLE POS TYPE
 DMOD.             Drill Model:  DRILL MOD DESC
 SVYD.                  Survey:  SURVEY DESC
 ILTD.               Lithology:  INTERP LTH DESC
 FTOP.          Formation Tops:  FORM TOPS DESC
 RIG .              East Azeri:  RIG NAME
 PDAT.          Mean Sea Level:  PERMANENT DATUM
 FLD .                     ACG:  FIELD NAME
 SON .        AZ-XX-0907180857:  JOB NUMBER
 CTRY.              Azerbaijan:  COUNTRY NAME
 WELL.                    D23x:  WELL NAME
 SRVC.     Turan Drilling and Engineering:  CONTRACTOR
 COMP.     BP Exploration (Caspian Sea) Ltd.:  COMPANY
 UWI .            /AZE00000214:  UNIQUE WELL IDENTIFIER
 API .            /AZE00000214:  API NUMBER
 MDS .        Operator Entered:  MAG DATA SOURCE
 BASE.              Azerbaijan:  LOGGING EQUIPMENT BASE LOCATION
 REGN.                   EESSA:  REGION
 PROV.                    Baku:  PROVINCE
 STAT.                    Baku:  STATE NAME
 MWDS.                    Baku:  MWD SHOP
 DOE .                     N/A:  DOE NUMBER
 DCON.         Sperry Drilling:  DIRECTNL CONTR
 UNIT.                     N/A:  LOGGING EQUIPMENT ID
 WTYP.                Deviated:  WELL TYPE
 CNTY.                        :  COUNTY
 LOC .                        :  LOCATION
 LMF .             Drill Floor:  LOG MEASURED FROM
 TVDS.m                  43.60:  TVDSS CORRECTN
 LATI.deg                40.02:  LATITUDE
 LONG.deg                51.45:  LONGITUDE
 WHNS.m                  -7.04:  WELL HEAD N/S
 WHEW.m                  -0.67:  WELL HEAD E/W
 UTMX.m              538762.90:  UTM X
 UTMY.m             4431871.34:  UTM Y
 DFWL.m                   0.00:  DISTANCE FWL
 DFSL.m                   0.00:  DISTANCE FSL
 SDEP.m                4127.00:  START DEPTH
 TDD .m                5084.50:  TOTAL DEPTH (DRILLER)
 VSDR.deg               140.47:  VERT SEC DIRECT
 GVFD.g                   1.00:  GRAVITY FIELD
 MFLD.nT              50362.00:  MAGNETIC FIELD
 MDIP.deg                59.48:  MAGNETIC DIP
 MDEC.deg                 6.47:  MAGNETIC DECL
 GRDC.deg                 0.31:  GRID CORRECTION
 AZTC.deg                 6.16:  AZM TOTAL CORR
 EPD .m                   0.00:  ELEVATION
 EGL .m                   0.00:  GROUND ELEVATION
 WDMS.m                 151.80:  WD ELEV
 APD .m                  43.60:  DEPTH ABOVE PD
 DEP .m                4092.57:  DEPTH
 AGAP.m                  43.60:  AIR GAP
 VSEW.m                  -0.67:  VERT SEC E/W
 VSNS.m                  -7.04:  VERT SEC N/S
 EKB .m                  43.60:  KB ELEVATION
 EDF .m                  43.60:  DF ELEVATION
 TDL .m                 957.50:  TOTAL DEPTH (LOGGER)
 VSC .                       0:  VS TO CLOSURE
 MAGU.                 1851413:  MAGUTM CHECKSUM
~Parameter Information Block
#MNEM.UNIT       Value        Description
#---------     -----------    ---------------------------
 AV  .mps                 1.50:  Ann Velocity 
 AVMX.mps                 2.00:  Max Ann Veloc 
 AZIF.deg               184.66:  Azm, Final 
 BHAT.        Rotary Steerable:  BHA Type 
 BREV.rev               300.00:  Rev Bit Total 
 BROT.°/30m              -0.50:  Build Rotating 
 BS  .in                  8.50:  Bit Size 
 BSZ .in                  8.50:  Bit Size 
 BTPL.psig              370.00:  Bit Press Loss 
 CABU.                      No:  Customer Abuse 
 CGEO.      Behruz Shahbaliyev:  Customer Geo 
 COMM.                     $K:  Run Comments 1 
 TCS .hr                140.08:  Time Ciculation Ended 
 CV  .mps                 3.00:  Crit Velocity 
 CVMX.mps                 3.20:  Max Crit Veloc 
 DD1 .            Musa Ahmadov:  Direct Drillr 1 
 DD2 .           Hamid Ahmadov:  Direct Drillr 2 
 DDSV.               Geo-Pilot:  DD Service 
 DEFF.%                  98.40:  % Det Eff 
 DLRX.°/30m               3.40:  Dogleg Rot Max 
 DLSO.°/30m               1.45:  Dogleg Oriented 
 DLSX.°/30m               3.40:  Dogleg Str Max 
 DRET.      18.40.00 29-Aug-21:  Drill End Time 
 DRST.      21.00.00 20-Aug-21:  Drill Start Tim 
 DTIM.hr                 69.47:  Time Drilling 
 EDEP.m                5084.50:  End Depth 
 ENG1.      Artemiy Matviyanov:  Engineer 1 
 ENG2.         Almaz Almadatov:  Engineer 2 
 ETIM.      18.40.00 29-Aug-21:  End Time 
 FLOI.gpm               500.00:  Flow In 
 FLON.gpm               400.00:  Flow In Min 
 FLOS.cptm                0.00:  Fluid Loss 
 FLOX.gpm               500.00:  Flow In Max 
 DFT .        Mineral Oil Base:  Mud Type 
 HFLO.                      No:  High Flow 
 HPRE.                      No:  High Pressure 
 HTEM.                      No:  High Temp 
 HYDO.m                   1.80:  Hydro Offset 
 IFIN.deg                25.62:  Inc, Final 
 IMAX.deg                48.69:  Inc Max 
 IMIN.deg                24.01:  Inc Min 
 IMND.m                4962.57:  Inc Min Depth 
 IMXD.m                4119.01:  Inc Max Depth 
 JARR.                      No:  Jarring 
 LETM.      18.40.00 29-Aug-21:  Log End Time 
 LOST.hr                     0:  Lost Rig Time 
 LSTM.      21.00.00 20-Aug-21:  Log Start Time 
 MDCL.ppm             41500.00:  Mud Chlorides 
 MDES.     Inversion Oil/Synthetic:  Mud Desc 
 DFD .sg                  1.56:  Mud Density 
 MDMN.sg                  1.56:  Dens Mud Min 
 MDMX.sg                  1.56:  Dens Mud Max 
 MOIL.                      70:  Run Mud Oil % 
 MOWR.                   70:30:  Run Mud OWR 
 MSND.                     0.2:  Run Mud Sand % 
 MSOL.                    23.3:  Run Mud Solids% 
 DFV .spqt               78.00:  Mud Viscosity 
 MWOD.in                  6.75:  MWD Tool OD 
 MWSI.                      No:  Serv Intrp, MWD 
 OTIM.hr                218.30:  Time Operating 
 PCON.           Look Like New:  Pad Condition 
 PMAX.psia            11015.30:  Press Op, Max 
 PV  .cP                 38.00:  Mud PV 
 RUN .                     300:  Run Number 
 ROPA.m/hr               15.00:  ROP Avg 
 ROPN.m/hr                9.00:  ROP Min 
 ROPX.m/hr               17.00:  ROP Max 
 RPMA.rpm               120.00:  RPM Surface Avg 
 RPMN.rpm                90.00:  RPM Surface Min 
 RPMX.rpm               140.00:  RPM Surface Max 
 RRUN.                     300:  Rig Run Number 
 RTIM.hr                 31.53:  Time Reaming 
 SAZI.deg               331.64:  Azm, Start 
 SDEP.m                4127.00:  Start Depth 
 SIDD.                      No:  Serv Intrp, DD 
 SINC.deg                48.43:  Inc, Start 
 SPPA.psig             5830.00:  SPP Avg 
 SPPN.psig             5600.00:  SPP Min 
 SPPX.psig             5900.00:  SPP Max 
 STIM.      21.00.00 20-Aug-21:  Start Time 
 SVCS.                 DD, MWD:  Services 
 SVER.                    9.20:  Sperry Version 
 TDAT.m                 957.50:  Tot Depth Attmp 
 TDDF.                      No:  Trip for DD 
 TDLG.m                 957.50:  Tot Depth Loggd 
 TFF .                      No:  Trip for Fail 
 TQAA.f-kp               15.00:  Torque Abs Avg 
 TQAN.f-kp               12.00:  Torque Abs Min 
 TQAX.f-kp               19.00:  Torque Abs Max 
 TRRT.°/30m              -3.40:  Turn Rotating 
 MRT .                  EWR-M5:  Maximum Recorded Temperature 
 TTMX.degC              100.00:  Max Tool Temp 
 VS01.                90639251:  Virtual Str1 SN 
 VS02.                90634715:  Virtual Str2 SN 
 VS03.                90652479:  Virtual Str3 SN 
 VS04.                90642262:  Virtual Str4 SN 
 WBMN.klb                 0.00:  WOB Min 
 WITN.           Murad Guliyev:  Customer Rep 
 WITN.          Yashar Gaziyev:  Customer Rep 2 
 WOBA.klb                 9.00:  WOB Avg 
 WOBX.klb                12.00:  WOB Max 
 YP  .lhf2               30.00:  Yield Point 
~Curve Information Block
#MNEM.UNIT                 API CODE     Curve Description
#---------               -----------    ---------------------------
 TIME.HHMMSS            00 000 000 000:  GT Time & Date
 GTDEPTH.m              00 000 000 000:  GT Depth
 GTPQH.psia             00 000 000 000:  GT HR Quartz Pressure
 GTTQ.degC              00 000 000 000:  GT Quartz Temperature
 GTTN.NONE              00 000 000 000:  GT Test Number
 GTET.sec               00 000 000 000:  GT Elapsed Test Time
 GTTVD.m                00 000 000 000:  GT True Vertical Depth
#Other Information
#
#WARRANTY: Halliburton will use its best efforts to furnish customers with 
#accurate information and interpretations that are part of, and incident to, the services 
#provided.  However, Halliburton cannot and does not warrant the accuracy 
#or correctness of such information and interpretations.  Under no circumstances should any 
#such information or interpretation be relied upon as the sole basis for any drilling, 
#completion, production, or financial decision or any procedure involving any risk to the 
#safety of any drilling venture, drilling rig or its crew or any other third party.  The 
#Customer has full responsibility for all drilling, completion and production operation.  
#Halliburton makes no representations or warranties, either expressed or 
#implied, including, but not limited to, the implied warranties of merchantability or fitness 
#for a particular purpose, with respect to the services rendered.  In no event will 
#Halliburton be liable for failure to obtain any particular results or for 
#any damages, including, but not limited to, indirect, special or consequential damages, 
#resulting from the use of any information or interpretation provided by Halliburton.
#
~A           TIME           GTDEPTH  GTPQH  GTTQ  GTTN  GTET   GTTVD  
   10:43:45.487.27-Aug-2021 4957.82 7838.46 86.03 9.00   0.00 3301.29
   10:43:45.687.27-Aug-2021 4957.82 7838.46 86.03 9.00   0.20 3301.29
   10:43:45.887.27-Aug-2021 4957.82 7837.55 86.03 9.00   0.40 3301.29
   10:43:46.087.27-Aug-2021 4957.82 7838.52 86.03 9.00   0.60 3301.29
   10:43:46.286.27-Aug-2021 4957.82 7839.63 86.03 9.00   0.80 3301.29
   10:43:46.486.27-Aug-2021 4957.82 7840.73 86.03 9.00   1.00 3301.29
   10:43:46.686.27-Aug-2021 4957.82 7840.73 86.03 9.00   1.20 3301.29
   10:43:46.886.27-Aug-2021 4957.82 7841.47 86.03 9.00   1.40 3301.29
   10:43:47.085.27-Aug-2021 4957.82 7841.07 86.03 9.00   1.60 3301.29
   10:43:47.285.27-Aug-2021 4957.82 7840.58 86.03 9.00   1.80 3301.29
   10:43:47.485.27-Aug-2021 4957.82 7844.40 86.03 9.00   2.00 3301.29
   10:43:47.685.27-Aug-2021 4957.82 7844.40 86.03 9.00   2.20 3301.29
   10:43:47.884.27-Aug-2021 4957.82 7840.58 86.03 9.00   2.40 3301.29
   10:43:48.084.27-Aug-2021 4957.82 7838.54 86.03 9.00   2.60 3301.29
   10:43:48.284.27-Aug-2021 4957.82 7837.94 86.03 9.00   2.80 3301.29
   10:43:48.484.27-Aug-2021 4957.82 7841.84 86.03 9.00   3.00 3301.29
   10:43:48.683.27-Aug-2021 4957.82 7841.84 86.03 9.00   3.20 3301.29
   10:43:48.883.27-Aug-2021 4957.82 7840.43 86.03 9.00   3.40 3301.29
   10:43:49.083.27-Aug-2021 4957.82 7838.96 86.03 9.00   3.60 3301.29
   10:43:49.283.27-Aug-2021 4957.82 7843.26 86.03 9.00   3.80 3301.29
   10:43:49.483.27-Aug-2021 4957.82 7839.62 86.03 9.00   4.00 3301.29
   10:43:49.682.27-Aug-2021 4957.82 7839.62 86.03 9.00   4.19 3301.29
   10:43:49.882.27-Aug-2021 4957.82 7841.84 86.03 9.00   4.39 3301.29
   10:43:50.082.27-Aug-2021 4957.82 7844.39 86.03 9.00   4.59 3301.29
   10:43:50.282.27-Aug-2021 4957.82 7841.85 86.03 9.00   4.79 3301.29
   10:43:50.481.27-Aug-2021 4957.82 7841.86 86.03 9.00   4.99 3301.29
   10:43:50.681.27-Aug-2021 4957.82 7841.86 86.03 9.00   5.19 3301.29
   10:43:50.881.27-Aug-2021 4957.82 7841.27 86.03 9.00   5.39 3301.29
   10:43:51.081.27-Aug-2021 4957.82 7841.79 86.03 9.00   5.59 3301.29
   10:43:51.280.27-Aug-2021 4957.82 7842.34 86.02 9.00   5.79 3301.29
   10:43:51.480.27-Aug-2021 4957.82 7842.30 86.02 9.00   5.99 3301.29
   10:43:51.680.27-Aug-2021 4957.82 7842.30 86.02 9.00   6.19 3301.29
   10:43:51.880.27-Aug-2021 4957.82 7842.30 86.02 9.00   6.39 3301.29
   10:43:52.079.27-Aug-2021 4957.82 7844.18 86.02 9.00   6.59 3301.29
   10:43:52.279.27-Aug-2021 4957.82 7844.59 86.02 9.00   6.79 3301.29
   10:43:52.479.27-Aug-2021 4957.82 7844.59 86.02 9.00   6.99 3301.29
   10:43:52.679.27-Aug-2021 4957.82 7844.59 86.02 9.00   7.19 3301.29
   10:43:52.878.27-Aug-2021 4957.82 7844.59 86.02 9.00   7.39 3301.29
   10:43:53.078.27-Aug-2021 4957.82 7844.59 86.02 9.00   7.59 3301.29
   10:43:53.278.27-Aug-2021 4957.82 7844.59 86.02 9.00   7.79 3301.29
   10:43:53.478.27-Aug-2021 4957.82 7845.57 86.02 9.00   7.99 3301.29
   10:43:53.677.27-Aug-2021 4957.82 7849.76 86.02 9.00   8.19 3301.29
   10:43:53.877.27-Aug-2021 4957.82 7845.28 86.02 9.00   8.39 3301.29
   10:43:54.077.27-Aug-2021 4957.82 7847.62 86.02 9.00   8.59 3301.29
   10:43:54.277.27-Aug-2021 4957.82 7847.09 86.02 9.00   8.79 3301.29
   10:43:54.477.27-Aug-2021 4957.82 7847.33 86.02 9.00   8.99 3301.29
   10:43:54.676.27-Aug-2021 4957.82 7847.33 86.02 9.00   9.19 3301.29
   10:43:54.876.27-Aug-2021 4957.82 7847.73 86.02 9.00   9.39 3301.29
   10:43:55.076.27-Aug-2021 4957.82 7847.68 86.02 9.00   9.59 3301.29
   10:43:55.276.27-Aug-2021 4957.82 7847.49 86.02 9.00   9.79 3301.29
   10:43:55.475.27-Aug-2021 4957.82 7848.17 86.02 9.00   9.99 3301.29
   10:43:55.675.27-Aug-2021 4957.82 7848.17 86.02 9.00  10.19 3301.29
   10:43:55.875.27-Aug-2021 4957.82 7849.35 86.02 9.00  10.39 3301.29
   10:43:56.075.27-Aug-2021 4957.82 7849.51 86.02 9.00  10.59 3301.29
   10:43:56.274.27-Aug-2021 4957.82 7849.38 86.02 9.00  10.79 3301.29
   10:43:56.474.27-Aug-2021 4957.82 7849.23 86.02 9.00  10.99 3301.29
   10:43:56.674.27-Aug-2021 4957.82 7849.23 86.02 9.00  11.19 3301.29
   10:43:56.874.27-Aug-2021 4957.82 7853.15 86.02 9.00  11.39 3301.29
   10:43:57.073.27-Aug-2021 4957.82 7848.67 86.02 9.00  11.59 3301.29
   10:43:57.273.27-Aug-2021 4957.82 7850.57 86.02 9.00  11.79 3301.29
   10:43:57.473.27-Aug-2021 4957.82 7849.43 86.02 9.00  11.99 3301.29
   10:43:57.673.27-Aug-2021 4957.82 7849.43 86.02 9.00  12.19 3301.29
   10:43:57.872.27-Aug-2021 4957.82 7849.27 86.02 9.00  12.39 3301.29
   10:43:58.072.27-Aug-2021 4957.82 7853.56 86.02 9.00  12.58 3301.29
   10:43:58.272.27-Aug-2021 4957.82 7849.09 86.02 9.00  12.78 3301.29
   10:43:58.472.27-Aug-2021 4957.82 7850.87 86.02 9.00  12.98 3301.29
   10:43:58.672.27-Aug-2021 4957.82 7850.87 86.02 9.00  13.18 3301.29
   10:43:58.871.27-Aug-2021 4957.82 7851.39 86.02 9.00  13.38 3301.29
   10:43:59.071.27-Aug-2021 4957.82 7851.86 86.02 9.00  13.58 3301.29
   10:43:59.271.27-Aug-2021 4957.82 7857.95 86.02 9.00  13.78 3301.29
   10:43:59.471.27-Aug-2021 4957.82 7850.29 86.02 9.00  13.98 3301.29
   10:43:59.670.27-Aug-2021 4957.82 7850.29 86.02 9.00  14.18 3301.29
   10:43:59.870.27-Aug-2021 4957.82 7852.13 86.02 9.00  14.38 3301.29
   10:44:00.070.27-Aug-2021 4957.82 7852.89 86.02 9.00  14.58 3301.29
   10:44:00.270.27-Aug-2021 4957.82 7853.81 86.02 9.00  14.78 3301.29
   10:44:00.469.27-Aug-2021 4957.82 7856.19 86.02 9.00  14.98 3301.29
   10:44:00.669.27-Aug-2021 4957.82 7856.19 86.02 9.00  15.18 3301.29
   10:44:00.869.27-Aug-2021 4957.82 7852.91 86.02 9.00  15.38 3301.29
   10:44:01.069.27-Aug-2021 4957.82 7857.01 86.02 9.00  15.58 3301.29
   10:44:01.268.27-Aug-2021 4957.82 7853.57 86.02 9.00  15.78 3301.29
   10:44:01.468.27-Aug-2021 4957.82 7856.16 86.02 9.00  15.98 3301.29
   10:44:01.668.27-Aug-2021 4957.82 7856.16 86.02 9.00  16.18 3301.29
   10:44:01.868.27-Aug-2021 4957.82 7854.50 86.02 9.00  16.38 3301.29
   10:44:02.067.27-Aug-2021 4957.82 7855.15 86.02 9.00  16.58 3301.29
   10:44:02.267.27-Aug-2021 4957.82 7858.27 86.02 9.00  16.78 3301.29
   10:44:02.467.27-Aug-2021 4957.82 7857.31 86.02 9.00  16.98 3301.29
   10:44:02.667.27-Aug-2021 4957.82 7857.31 86.02 9.00  17.18 3301.29
   10:44:02.867.27-Aug-2021 4957.82 7856.17 86.02 9.00  17.38 3301.29
   10:44:03.066.27-Aug-2021 4957.82 7856.62 86.02 9.00  17.58 3301.29
   10:44:03.266.27-Aug-2021 4957.82 7856.81 86.02 9.00  17.78 3301.29
   10:44:03.466.27-Aug-2021 4957.82 7856.94 86.02 9.00  17.98 3301.29
   10:44:03.666.27-Aug-2021 4957.82 7856.94 86.02 9.00  18.18 3301.29
   10:44:03.865.27-Aug-2021 4957.82 7857.02 86.02 9.00  18.38 3301.29
   10:44:04.065.27-Aug-2021 4957.82 7857.27 86.02 9.00  18.58 3301.29
   10:44:04.265.27-Aug-2021 4957.82 7857.76 86.02 9.00  18.78 3301.29
   10:44:04.465.27-Aug-2021 4957.82 7858.04 86.02 9.00  18.98 3301.29
   10:44:04.664.27-Aug-2021 4957.82 7858.04 86.02 9.00  19.18 3301.29
   10:44:04.864.27-Aug-2021 4957.82 7857.96 86.02 9.00  19.38 3301.29
   10:44:05.064.27-Aug-2021 4957.82 7857.82 86.02 9.00  19.58 3301.29
   10:44:05.264.27-Aug-2021 4957.82 7858.03 86.02 9.00  19.78 3301.29
   10:44:05.463.27-Aug-2021 4957.82 7862.09 86.02 9.00  19.98 3301.29
   10:44:05.663.27-Aug-2021 4957.82 7862.09 86.02 9.00  20.18 3301.29
   10:44:05.863.27-Aug-2021 4957.82 7859.00 86.02 9.00  20.38 3301.29
   10:44:06.063.27-Aug-2021 4957.82 7858.49 86.02 9.00  20.58 3301.29
   10:44:06.262.27-Aug-2021 4957.82 7858.80 86.02 9.00  20.78 3301.29
   10:44:06.462.27-Aug-2021 4957.82 7859.23 86.02 9.00  20.97 3301.29
   10:44:06.662.27-Aug-2021 4957.82 7859.23 86.02 9.00  21.17 3301.29
   10:44:06.862.27-Aug-2021 4957.82 7859.30 86.02 9.00  21.37 3301.29
   10:44:07.062.27-Aug-2021 4957.82 7859.42 86.02 9.00  21.57 3301.29
   10:44:07.261.27-Aug-2021 4957.82 7859.87 86.02 9.00  21.77 3301.29
   10:44:07.461.27-Aug-2021 4957.82 7860.82 86.02 9.00  21.97 3301.29
   10:44:07.661.27-Aug-2021 4957.82 7860.82 86.02 9.00  22.17 3301.29
   10:44:07.861.27-Aug-2021 4957.82 7861.31 86.02 9.00  22.37 3301.29
   10:44:08.060.27-Aug-2021 4957.82 7861.37 86.01 9.00  22.57 3301.29
   10:44:08.260.27-Aug-2021 4957.82 7861.40 86.01 9.00  22.77 3301.29
