~Version Information
 VERS.                  2.0:   CWLS log ASCII Standard -VERSION 2.0
 WRAP.                   NO:   One line per depth step
~Well Information Block
#MNEM.UNIT     VALUE/NAME     DESCRIPTION
#---------     -----------    ---------------------------
 STRT.S             22:11:58 27-Aug-21: START TIME 22:11:58 27-Aug-21
 STOP.S             22:18:52 27-Aug-21: STOP TIME  22:18:52 27-Aug-21
 STEP.S                   0.00: STEP TIME
 NULL.                 -999.25: NULL VALUE
 DFWT.                        :  DIST FWL TEXT
 DFST.                        :  DIST FSL TEXT
 DMF .             Drill Floor:  DRILL MEAS FROM
 STIM.      20.00.00 17-Aug-21:  START TIME
 DATE.      19.00.00 29-Aug-21:  END TIME
 SPUD.               15-Aug-21:  SPUD DATE
 NREF.                    Grid:  NORTH REFERENCE
 HPTY.       Minimum Curvature:  HOLE POS TYPE
 DMOD.             Drill Model:  DRILL MOD DESC
 SVYD.                  Survey:  SURVEY DESC
 ILTD.               Lithology:  INTERP LTH DESC
 FTOP.          Formation Tops:  FORM TOPS DESC
 RIG .              East Azeri:  RIG NAME
 PDAT.          Mean Sea Level:  PERMANENT DATUM
 FLD .                     ACG:  FIELD NAME
 SON .        AZ-XX-0907180857:  JOB NUMBER
 CTRY.              Azerbaijan:  COUNTRY NAME
 WELL.                    D23x:  WELL NAME
 SRVC.     Turan Drilling and Engineering:  CONTRACTOR
 COMP.     BP Exploration (Caspian Sea) Ltd.:  COMPANY
 UWI .            /AZE00000214:  UNIQUE WELL IDENTIFIER
 API .            /AZE00000214:  API NUMBER
 MDS .        Operator Entered:  MAG DATA SOURCE
 BASE.              Azerbaijan:  LOGGING EQUIPMENT BASE LOCATION
 REGN.                   EESSA:  REGION
 PROV.                    Baku:  PROVINCE
 STAT.                    Baku:  STATE NAME
 MWDS.                    Baku:  MWD SHOP
 DOE .                     N/A:  DOE NUMBER
 DCON.         Sperry Drilling:  DIRECTNL CONTR
 UNIT.                     N/A:  LOGGING EQUIPMENT ID
 WTYP.                Deviated:  WELL TYPE
 CNTY.                        :  COUNTY
 LOC .                        :  LOCATION
 LMF .             Drill Floor:  LOG MEASURED FROM
 TVDS.m                  43.60:  TVDSS CORRECTN
 LATI.deg                40.02:  LATITUDE
 LONG.deg                51.45:  LONGITUDE
 WHNS.m                  -7.04:  WELL HEAD N/S
 WHEW.m                  -0.67:  WELL HEAD E/W
 UTMX.m              538762.90:  UTM X
 UTMY.m             4431871.34:  UTM Y
 DFWL.m                   0.00:  DISTANCE FWL
 DFSL.m                   0.00:  DISTANCE FSL
 SDEP.m                4127.00:  START DEPTH
 TDD .m                5084.50:  TOTAL DEPTH (DRILLER)
 VSDR.deg               140.47:  VERT SEC DIRECT
 GVFD.g                   1.00:  GRAVITY FIELD
 MFLD.nT              50362.00:  MAGNETIC FIELD
 MDIP.deg                59.48:  MAGNETIC DIP
 MDEC.deg                 6.47:  MAGNETIC DECL
 GRDC.deg                 0.31:  GRID CORRECTION
 AZTC.deg                 6.16:  AZM TOTAL CORR
 EPD .m                   0.00:  ELEVATION
 EGL .m                   0.00:  GROUND ELEVATION
 WDMS.m                 151.80:  WD ELEV
 APD .m                  43.60:  DEPTH ABOVE PD
 DEP .m                4092.57:  DEPTH
 AGAP.m                  43.60:  AIR GAP
 VSEW.m                  -0.67:  VERT SEC E/W
 VSNS.m                  -7.04:  VERT SEC N/S
 EKB .m                  43.60:  KB ELEVATION
 EDF .m                  43.60:  DF ELEVATION
 TDL .m                 957.50:  TOTAL DEPTH (LOGGER)
 VSC .                       0:  VS TO CLOSURE
 MAGU.                 1851413:  MAGUTM CHECKSUM
~Parameter Information Block
#MNEM.UNIT       Value        Description
#---------     -----------    ---------------------------
 AV  .mps                 1.50:  Ann Velocity 
 AVMX.mps                 2.00:  Max Ann Veloc 
 AZIF.deg               184.66:  Azm, Final 
 BHAT.        Rotary Steerable:  BHA Type 
 BREV.rev               300.00:  Rev Bit Total 
 BROT.°/30m              -0.50:  Build Rotating 
 BS  .in                  8.50:  Bit Size 
 BSZ .in                  8.50:  Bit Size 
 BTPL.psig              370.00:  Bit Press Loss 
 CABU.                      No:  Customer Abuse 
 CGEO.      Behruz Shahbaliyev:  Customer Geo 
 COMM.                     Tªl:  Run Comments 1 
 TCS .hr                140.08:  Time Ciculation Ended 
 CV  .mps                 3.00:  Crit Velocity 
 CVMX.mps                 3.20:  Max Crit Veloc 
 DD1 .            Musa Ahmadov:  Direct Drillr 1 
 DD2 .           Hamid Ahmadov:  Direct Drillr 2 
 DDSV.               Geo-Pilot:  DD Service 
 DEFF.%                  98.40:  % Det Eff 
 DLRX.°/30m               3.40:  Dogleg Rot Max 
 DLSO.°/30m               1.45:  Dogleg Oriented 
 DLSX.°/30m               3.40:  Dogleg Str Max 
 DRET.      18.40.00 29-Aug-21:  Drill End Time 
 DRST.      21.00.00 20-Aug-21:  Drill Start Tim 
 DTIM.hr                 69.47:  Time Drilling 
 EDEP.m                5084.50:  End Depth 
 ENG1.      Artemiy Matviyanov:  Engineer 1 
 ENG2.         Almaz Almadatov:  Engineer 2 
 ETIM.      18.40.00 29-Aug-21:  End Time 
 FLOI.gpm               500.00:  Flow In 
 FLON.gpm               400.00:  Flow In Min 
 FLOS.cptm                0.00:  Fluid Loss 
 FLOX.gpm               500.00:  Flow In Max 
 DFT .        Mineral Oil Base:  Mud Type 
 HFLO.                      No:  High Flow 
 HPRE.                      No:  High Pressure 
 HTEM.                      No:  High Temp 
 HYDO.m                   1.80:  Hydro Offset 
 IFIN.deg                25.62:  Inc, Final 
 IMAX.deg                48.69:  Inc Max 
 IMIN.deg                24.01:  Inc Min 
 IMND.m                4962.57:  Inc Min Depth 
 IMXD.m                4119.01:  Inc Max Depth 
 JARR.                      No:  Jarring 
 LETM.      18.40.00 29-Aug-21:  Log End Time 
 LOST.hr                     0:  Lost Rig Time 
 LSTM.      21.00.00 20-Aug-21:  Log Start Time 
 MDCL.ppm             41500.00:  Mud Chlorides 
 MDES.     Inversion Oil/Synthetic:  Mud Desc 
 DFD .sg                  1.56:  Mud Density 
 MDMN.sg                  1.56:  Dens Mud Min 
 MDMX.sg                  1.56:  Dens Mud Max 
 MOIL.                      70:  Run Mud Oil % 
 MOWR.                   70:30:  Run Mud OWR 
 MSND.                     0.2:  Run Mud Sand % 
 MSOL.                    23.3:  Run Mud Solids% 
 DFV .spqt               78.00:  Mud Viscosity 
 MWOD.in                  6.75:  MWD Tool OD 
 MWSI.                      No:  Serv Intrp, MWD 
 OTIM.hr                218.30:  Time Operating 
 PCON.           Look Like New:  Pad Condition 
 PMAX.psia            11015.30:  Press Op, Max 
 PV  .cP                 38.00:  Mud PV 
 RUN .                     300:  Run Number 
 ROPA.m/hr               15.00:  ROP Avg 
 ROPN.m/hr                9.00:  ROP Min 
 ROPX.m/hr               17.00:  ROP Max 
 RPMA.rpm               120.00:  RPM Surface Avg 
 RPMN.rpm                90.00:  RPM Surface Min 
 RPMX.rpm               140.00:  RPM Surface Max 
 RRUN.                     300:  Rig Run Number 
 RTIM.hr                 31.53:  Time Reaming 
 SAZI.deg               331.64:  Azm, Start 
 SDEP.m                4127.00:  Start Depth 
 SIDD.                      No:  Serv Intrp, DD 
 SINC.deg                48.43:  Inc, Start 
 SPPA.psig             5830.00:  SPP Avg 
 SPPN.psig             5600.00:  SPP Min 
 SPPX.psig             5900.00:  SPP Max 
 STIM.      21.00.00 20-Aug-21:  Start Time 
 SVCS.                 DD, MWD:  Services 
 SVER.                    9.20:  Sperry Version 
 TDAT.m                 957.50:  Tot Depth Attmp 
 TDDF.                      No:  Trip for DD 
 TDLG.m                 957.50:  Tot Depth Loggd 
 TFF .                      No:  Trip for Fail 
 TQAA.f-kp               15.00:  Torque Abs Avg 
 TQAN.f-kp               12.00:  Torque Abs Min 
 TQAX.f-kp               19.00:  Torque Abs Max 
 TRRT.°/30m              -3.40:  Turn Rotating 
 MRT .                  EWR-M5:  Maximum Recorded Temperature 
 TTMX.degC              100.00:  Max Tool Temp 
 VS01.                90639251:  Virtual Str1 SN 
 VS02.                90634715:  Virtual Str2 SN 
 VS03.                90652479:  Virtual Str3 SN 
 VS04.                90642262:  Virtual Str4 SN 
 WBMN.klb                 0.00:  WOB Min 
 WITN.           Murad Guliyev:  Customer Rep 
 WITN.          Yashar Gaziyev:  Customer Rep 2 
 WOBA.klb                 9.00:  WOB Avg 
 WOBX.klb                12.00:  WOB Max 
 YP  .lhf2               30.00:  Yield Point 
~Curve Information Block
#MNEM.UNIT                 API CODE     Curve Description
#---------               -----------    ---------------------------
 TIME.HHMMSS            00 000 000 000:  GT Time & Date
 GTDEPTH.m              00 000 000 000:  GT Depth
 GTPQH.psia             00 000 000 000:  GT HR Quartz Pressure
 GTTQ.degC              00 000 000 000:  GT Quartz Temperature
 GTTN.NONE              00 000 000 000:  GT Test Number
 GTET.sec               00 000 000 000:  GT Elapsed Test Time
 GTTVD.m                00 000 000 000:  GT True Vertical Depth
#Other Information
#
#WARRANTY: Halliburton will use its best efforts to furnish customers with 
#accurate information and interpretations that are part of, and incident to, the services 
#provided.  However, Halliburton cannot and does not warrant the accuracy 
#or correctness of such information and interpretations.  Under no circumstances should any 
#such information or interpretation be relied upon as the sole basis for any drilling, 
#completion, production, or financial decision or any procedure involving any risk to the 
#safety of any drilling venture, drilling rig or its crew or any other third party.  The 
#Customer has full responsibility for all drilling, completion and production operation.  
#Halliburton makes no representations or warranties, either expressed or 
#implied, including, but not limited to, the implied warranties of merchantability or fitness 
#for a particular purpose, with respect to the services rendered.  In no event will 
#Halliburton be liable for failure to obtain any particular results or for 
#any damages, including, but not limited to, indirect, special or consequential damages, 
#resulting from the use of any information or interpretation provided by Halliburton.
#
~A           TIME           GTDEPTH  GTPQH  GTTQ  GTTN   GTET   GTTVD  
# ...
   22:15:21.967.27-Aug-2021 4635.80 3159.31 82.39 24.00 203.42 3009.39
   22:15:22.167.27-Aug-2021 4635.80 3167.54 82.39 24.00 203.62 3009.39
   22:15:22.367.27-Aug-2021 4635.80 3175.47 82.39 24.00 203.82 3009.39
   22:15:22.567.27-Aug-2021 4635.80 3182.29 82.39 24.00 204.02 3009.39
   22:15:22.767.27-Aug-2021 4635.80 3182.29 82.39 24.00 204.22 3009.39
   22:15:22.967.27-Aug-2021 4635.80 3190.30 82.39 24.00 204.42 3009.39
   22:15:23.167.27-Aug-2021 4635.80 3205.98 82.39 24.00 204.62 3009.39
   22:15:23.367.27-Aug-2021 4635.80 3214.06 82.40 24.00 204.82 3009.39
   22:15:23.567.27-Aug-2021 4635.80 3222.14 82.40 24.00 205.02 3009.39
   22:15:23.767.27-Aug-2021 4635.80 3222.14 82.40 24.00 205.22 3009.39
   22:15:23.967.27-Aug-2021 4635.80 3238.00 82.40 24.00 205.42 3009.39
   22:15:24.167.27-Aug-2021 4635.80 3245.90 82.40 24.00 205.62 3009.39
   22:15:24.367.27-Aug-2021 4635.80 3253.37 82.40 24.00 205.82 3009.39
   22:15:24.567.27-Aug-2021 4635.80 3261.15 82.40 24.00 206.02 3009.39
   22:15:24.767.27-Aug-2021 4635.80 3261.15 82.40 24.00 206.22 3009.39
   22:15:24.967.27-Aug-2021 4635.80 3276.41 82.40 24.00 206.42 3009.39
   22:15:25.167.27-Aug-2021 4635.80 3283.98 82.40 24.00 206.62 3009.39
   22:15:25.367.27-Aug-2021 4635.80 3291.47 82.40 24.00 206.82 3009.39
   22:15:25.567.27-Aug-2021 4635.80 3298.94 82.40 24.00 207.02 3009.39
   22:15:25.767.27-Aug-2021 4635.80 3298.94 82.40 24.00 207.22 3009.39
   22:15:25.967.27-Aug-2021 4635.80 3298.94 82.40 24.00 207.42 3009.39
   22:15:26.167.27-Aug-2021 4635.80 3318.97 82.40 24.00 207.62 3009.39
   22:15:26.367.27-Aug-2021 4635.80 3326.50 82.40 24.00 207.82 3009.39
   22:15:26.567.27-Aug-2021 4635.80 3333.74 82.40 24.00 208.02 3009.39
   22:15:26.767.27-Aug-2021 4635.80 3333.74 82.40 24.00 208.22 3009.39
   22:15:26.967.27-Aug-2021 4635.80 3347.07 82.40 24.00 208.42 3009.39
   22:15:27.167.27-Aug-2021 4635.80 3353.93 82.40 24.00 208.62 3009.39
   22:15:27.367.27-Aug-2021 4635.80 3361.11 82.40 24.00 208.82 3009.39
   22:15:27.567.27-Aug-2021 4635.80 3367.29 82.40 24.00 209.02 3009.39
   22:15:27.767.27-Aug-2021 4635.80 3367.29 82.40 24.00 209.22 3009.39
   22:15:27.967.27-Aug-2021 4635.80 3380.97 82.40 24.00 209.42 3009.39
   22:15:28.167.27-Aug-2021 4635.80 3388.04 82.40 24.00 209.62 3009.39
   22:15:28.367.27-Aug-2021 4635.80 3395.12 82.40 24.00 209.82 3009.39
   22:15:28.567.27-Aug-2021 4635.80 3402.32 82.40 24.00 210.02 3009.39
   22:15:28.767.27-Aug-2021 4635.80 3402.32 82.40 24.00 210.22 3009.39
   22:15:28.967.27-Aug-2021 4635.80 3414.40 82.40 24.00 210.42 3009.39
   22:15:29.167.27-Aug-2021 4635.80 3421.27 82.40 24.00 210.62 3009.39
   22:15:29.367.27-Aug-2021 4635.80 3427.98 82.40 24.00 210.82 3009.39
   22:15:29.567.27-Aug-2021 4635.80 3434.58 82.40 24.00 211.02 3009.39
   22:15:29.767.27-Aug-2021 4635.80 3434.58 82.40 24.00 211.22 3009.39
   22:15:29.967.27-Aug-2021 4635.80 3448.17 82.40 24.00 211.42 3009.39
   22:15:30.167.27-Aug-2021 4635.80 3454.81 82.40 24.00 211.62 3009.39
   22:15:30.367.27-Aug-2021 4635.80 3461.53 82.40 24.00 211.82 3009.39
   22:15:30.567.27-Aug-2021 4635.80 3468.01 82.40 24.00 212.02 3009.39
   22:15:30.767.27-Aug-2021 4635.80 3468.01 82.40 24.00 212.22 3009.39
   22:15:30.967.27-Aug-2021 4635.80 3481.16 82.40 24.00 212.42 3009.39
   22:15:31.167.27-Aug-2021 4635.80 3487.49 82.40 24.00 212.62 3009.39
   22:15:31.368.27-Aug-2021 4635.80 3493.58 82.40 24.00 212.82 3009.39
   22:15:31.568.27-Aug-2021 4635.80 3500.06 82.40 24.00 213.02 3009.39
   22:15:31.768.27-Aug-2021 4635.80 3500.06 82.40 24.00 213.22 3009.39
   22:15:31.968.27-Aug-2021 4635.80 3512.87 82.40 24.00 213.42 3009.39
   22:15:32.168.27-Aug-2021 4635.80 3517.52 82.40 24.00 213.62 3009.39
   22:15:32.368.27-Aug-2021 4635.80 3523.50 82.40 24.00 213.82 3009.39
   22:15:32.568.27-Aug-2021 4635.80 3529.51 82.40 24.00 214.02 3009.39
   22:15:32.768.27-Aug-2021 4635.80 3529.51 82.40 24.00 214.22 3009.39
   22:15:32.968.27-Aug-2021 4635.80 3541.49 82.40 24.00 214.42 3009.39
   22:15:33.168.27-Aug-2021 4635.80 3547.73 82.41 24.00 214.62 3009.39
   22:15:33.368.27-Aug-2021 4635.80 3553.96 82.41 24.00 214.82 3009.39
   22:15:33.568.27-Aug-2021 4635.80 3560.20 82.41 24.00 215.02 3009.39
   22:15:33.768.27-Aug-2021 4635.80 3560.20 82.41 24.00 215.22 3009.39
   22:15:33.968.27-Aug-2021 4635.80 3571.80 82.41 24.00 215.42 3009.39
   22:15:34.168.27-Aug-2021 4635.80 3577.58 82.41 24.00 215.62 3009.39
   22:15:34.368.27-Aug-2021 4635.80 3583.60 82.41 24.00 215.82 3009.39
   22:15:34.568.27-Aug-2021 4635.80 3589.63 82.41 24.00 216.02 3009.39
   22:15:34.768.27-Aug-2021 4635.80 3589.63 82.41 24.00 216.22 3009.39
   22:15:34.968.27-Aug-2021 4635.80 3595.58 82.41 24.00 216.42 3009.39
   22:15:35.168.27-Aug-2021 4635.80 3606.77 82.41 24.00 216.62 3009.39
   22:15:35.368.27-Aug-2021 4635.80 3610.88 82.41 24.00 216.82 3009.39
   22:15:35.568.27-Aug-2021 4635.80 3616.44 82.41 24.00 217.02 3009.39
   22:15:35.768.27-Aug-2021 4635.80 3616.44 82.41 24.00 217.22 3009.39
   22:15:35.968.27-Aug-2021 4635.80 3627.69 82.41 24.00 217.42 3009.39
   22:15:36.168.27-Aug-2021 4635.80 3633.09 82.41 24.00 217.62 3009.39
   22:15:36.368.27-Aug-2021 4635.80 3638.77 82.41 24.00 217.82 3009.39
   22:15:36.568.27-Aug-2021 4635.80 3644.35 82.41 24.00 218.02 3009.39
   22:15:36.768.27-Aug-2021 4635.80 3644.35 82.41 24.00 218.22 3009.39
   22:15:36.968.27-Aug-2021 4635.80 3653.98 82.41 24.00 218.42 3009.39
   22:15:37.168.27-Aug-2021 4635.80 3659.19 82.41 24.00 218.62 3009.39
   22:15:37.368.27-Aug-2021 4635.80 3664.44 82.41 24.00 218.82 3009.39
   22:15:37.568.27-Aug-2021 4635.80 3669.80 82.41 24.00 219.02 3009.39
   22:15:37.768.27-Aug-2021 4635.80 3669.80 82.41 24.00 219.22 3009.39
   22:15:37.968.27-Aug-2021 4635.80 3679.77 82.41 24.00 219.42 3009.39
   22:15:38.168.27-Aug-2021 4635.80 3684.75 82.41 24.00 219.62 3009.39
   22:15:38.368.27-Aug-2021 4635.80 3689.87 82.41 24.00 219.82 3009.39
   22:15:38.568.27-Aug-2021 4635.80 3694.96 82.41 24.00 220.02 3009.39
   22:15:38.768.27-Aug-2021 4635.80 3694.96 82.41 24.00 220.22 3009.39
   22:15:38.968.27-Aug-2021 4635.80 3700.29 82.41 24.00 220.42 3009.39
   22:15:39.168.27-Aug-2021 4635.80 3709.56 82.41 24.00 220.62 3009.39
   22:15:39.368.27-Aug-2021 4635.80 3714.82 82.41 24.00 220.82 3009.39
   22:15:39.568.27-Aug-2021 4635.80 3719.73 82.41 24.00 221.02 3009.39
   22:15:39.768.27-Aug-2021 4635.80 3719.73 82.41 24.00 221.22 3009.39
   22:15:39.968.27-Aug-2021 4635.80 3729.60 82.41 24.00 221.42 3009.39
   22:15:40.168.27-Aug-2021 4635.80 3734.87 82.41 24.00 221.62 3009.39
   22:15:40.368.27-Aug-2021 4635.80 3739.96 82.41 24.00 221.82 3009.39
   22:15:40.568.27-Aug-2021 4635.80 3745.08 82.41 24.00 222.02 3009.39
   22:15:40.768.27-Aug-2021 4635.80 3745.08 82.41 24.00 222.22 3009.39
   22:15:40.969.27-Aug-2021 4635.80 3754.69 82.41 24.00 222.42 3009.39
   22:15:41.169.27-Aug-2021 4635.80 3759.51 82.41 24.00 222.62 3009.39
   22:15:41.369.27-Aug-2021 4635.80 3764.43 82.41 24.00 222.82 3009.39
   22:15:41.569.27-Aug-2021 4635.80 3769.39 82.41 24.00 223.02 3009.39
   22:15:41.769.27-Aug-2021 4635.80 3769.39 82.41 24.00 223.22 3009.39
   22:15:41.969.27-Aug-2021 4635.80 3778.97 82.41 24.00 223.42 3009.39
   22:15:42.169.27-Aug-2021 4635.80 3783.41 82.41 24.00 223.62 3009.39
   22:15:42.369.27-Aug-2021 4635.80 3786.53 82.41 24.00 223.82 3009.39
   22:15:42.569.27-Aug-2021 4635.80 3791.06 82.41 24.00 224.02 3009.39
   22:15:42.769.27-Aug-2021 4635.80 3791.06 82.41 24.00 224.22 3009.39
   22:15:42.969.27-Aug-2021 4635.80 3795.53 82.41 24.00 224.42 3009.39
   22:15:43.169.27-Aug-2021 4635.80 3805.06 82.41 24.00 224.62 3009.39
   22:15:43.369.27-Aug-2021 4635.80 3809.55 82.41 24.00 224.82 3009.39
   22:15:43.569.27-Aug-2021 4635.80 3813.82 82.41 24.00 225.02 3009.39
   22:15:43.769.27-Aug-2021 4635.80 3813.82 82.41 24.00 225.22 3009.39
   22:15:43.969.27-Aug-2021 4635.80 3823.00 82.41 24.00 225.42 3009.39
   22:15:44.169.27-Aug-2021 4635.80 3827.68 82.41 24.00 225.62 3009.39
   22:15:44.369.27-Aug-2021 4635.80 3832.24 82.41 24.00 225.82 3009.39
