~Version Information
 VERS.                  2.0:   CWLS log ASCII Standard -VERSION 2.0
 WRAP.                   NO:   One line per depth step
~Well Information Block
#MNEM.UNIT     VALUE/NAME     DESCRIPTION
#---------     -----------    ---------------------------
 STRT.S             11:29:40 27-Aug-21: START TIME 11:29:40 27-Aug-21
 STOP.S             11:36:51 27-Aug-21: STOP TIME  11:36:51 27-Aug-21
 STEP.S                   0.00: STEP TIME
 NULL.                 -999.25: NULL VALUE
 DFWT.                        :  DIST FWL TEXT
 DFST.                        :  DIST FSL TEXT
 DMF .             Drill Floor:  DRILL MEAS FROM
 STIM.      20.00.00 17-Aug-21:  START TIME
 DATE.      19.00.00 29-Aug-21:  END TIME
 SPUD.               15-Aug-21:  SPUD DATE
 NREF.                    Grid:  NORTH REFERENCE
 HPTY.       Minimum Curvature:  HOLE POS TYPE
 DMOD.             Drill Model:  DRILL MOD DESC
 SVYD.                  Survey:  SURVEY DESC
 ILTD.               Lithology:  INTERP LTH DESC
 FTOP.          Formation Tops:  FORM TOPS DESC
 RIG .              East Azeri:  RIG NAME
 PDAT.          Mean Sea Level:  PERMANENT DATUM
 FLD .                     ACG:  FIELD NAME
 SON .        AZ-XX-0907180857:  JOB NUMBER
 CTRY.              Azerbaijan:  COUNTRY NAME
 WELL.                    D23x:  WELL NAME
 SRVC.     Turan Drilling and Engineering:  CONTRACTOR
 COMP.     BP Exploration (Caspian Sea) Ltd.:  COMPANY
 UWI .            /AZE00000214:  UNIQUE WELL IDENTIFIER
 API .            /AZE00000214:  API NUMBER
 MDS .        Operator Entered:  MAG DATA SOURCE
 BASE.              Azerbaijan:  LOGGING EQUIPMENT BASE LOCATION
 REGN.                   EESSA:  REGION
 PROV.                    Baku:  PROVINCE
 STAT.                    Baku:  STATE NAME
 MWDS.                    Baku:  MWD SHOP
 DOE .                     N/A:  DOE NUMBER
 DCON.         Sperry Drilling:  DIRECTNL CONTR
 UNIT.                     N/A:  LOGGING EQUIPMENT ID
 WTYP.                Deviated:  WELL TYPE
 CNTY.                        :  COUNTY
 LOC .                        :  LOCATION
 LMF .             Drill Floor:  LOG MEASURED FROM
 TVDS.m                  43.60:  TVDSS CORRECTN
 LATI.deg                40.02:  LATITUDE
 LONG.deg                51.45:  LONGITUDE
 WHNS.m                  -7.04:  WELL HEAD N/S
 WHEW.m                  -0.67:  WELL HEAD E/W
 UTMX.m              538762.90:  UTM X
 UTMY.m             4431871.34:  UTM Y
 DFWL.m                   0.00:  DISTANCE FWL
 DFSL.m                   0.00:  DISTANCE FSL
 SDEP.m                4127.00:  START DEPTH
 TDD .m                5084.50:  TOTAL DEPTH (DRILLER)
 VSDR.deg               140.47:  VERT SEC DIRECT
 GVFD.g                   1.00:  GRAVITY FIELD
 MFLD.nT              50362.00:  MAGNETIC FIELD
 MDIP.deg                59.48:  MAGNETIC DIP
 MDEC.deg                 6.47:  MAGNETIC DECL
 GRDC.deg                 0.31:  GRID CORRECTION
 AZTC.deg                 6.16:  AZM TOTAL CORR
 EPD .m                   0.00:  ELEVATION
 EGL .m                   0.00:  GROUND ELEVATION
 WDMS.m                 151.80:  WD ELEV
 APD .m                  43.60:  DEPTH ABOVE PD
 DEP .m                4092.57:  DEPTH
 AGAP.m                  43.60:  AIR GAP
 VSEW.m                  -0.67:  VERT SEC E/W
 VSNS.m                  -7.04:  VERT SEC N/S
 EKB .m                  43.60:  KB ELEVATION
 EDF .m                  43.60:  DF ELEVATION
 TDL .m                 957.50:  TOTAL DEPTH (LOGGER)
 VSC .                       0:  VS TO CLOSURE
 MAGU.                 1851413:  MAGUTM CHECKSUM
~Parameter Information Block
#MNEM.UNIT       Value        Description
#---------     -----------    ---------------------------
 AV  .mps                 1.50:  Ann Velocity 
 AVMX.mps                 2.00:  Max Ann Veloc 
 AZIF.deg               184.66:  Azm, Final 
 BHAT.        Rotary Steerable:  BHA Type 
 BREV.rev               300.00:  Rev Bit Total 
 BROT.°/30m              -0.50:  Build Rotating 
 BS  .in                  8.50:  Bit Size 
 BSZ .in                  8.50:  Bit Size 
 BTPL.psig              370.00:  Bit Press Loss 
 CABU.                      No:  Customer Abuse 
 CGEO.      Behruz Shahbaliyev:  Customer Geo 
 COMM.                     ,A[:  Run Comments 1 
 TCS .hr                140.08:  Time Ciculation Ended 
 CV  .mps                 3.00:  Crit Velocity 
 CVMX.mps                 3.20:  Max Crit Veloc 
 DD1 .            Musa Ahmadov:  Direct Drillr 1 
 DD2 .           Hamid Ahmadov:  Direct Drillr 2 
 DDSV.               Geo-Pilot:  DD Service 
 DEFF.%                  98.40:  % Det Eff 
 DLRX.°/30m               3.40:  Dogleg Rot Max 
 DLSO.°/30m               1.45:  Dogleg Oriented 
 DLSX.°/30m               3.40:  Dogleg Str Max 
 DRET.      18.40.00 29-Aug-21:  Drill End Time 
 DRST.      21.00.00 20-Aug-21:  Drill Start Tim 
 DTIM.hr                 69.47:  Time Drilling 
 EDEP.m                5084.50:  End Depth 
 ENG1.      Artemiy Matviyanov:  Engineer 1 
 ENG2.         Almaz Almadatov:  Engineer 2 
 ETIM.      18.40.00 29-Aug-21:  End Time 
 FLOI.gpm               500.00:  Flow In 
 FLON.gpm               400.00:  Flow In Min 
 FLOS.cptm                0.00:  Fluid Loss 
 FLOX.gpm               500.00:  Flow In Max 
 DFT .        Mineral Oil Base:  Mud Type 
 HFLO.                      No:  High Flow 
 HPRE.                      No:  High Pressure 
 HTEM.                      No:  High Temp 
 HYDO.m                   1.80:  Hydro Offset 
 IFIN.deg                25.62:  Inc, Final 
 IMAX.deg                48.69:  Inc Max 
 IMIN.deg                24.01:  Inc Min 
 IMND.m                4962.57:  Inc Min Depth 
 IMXD.m                4119.01:  Inc Max Depth 
 JARR.                      No:  Jarring 
 LETM.      18.40.00 29-Aug-21:  Log End Time 
 LOST.hr                     0:  Lost Rig Time 
 LSTM.      21.00.00 20-Aug-21:  Log Start Time 
 MDCL.ppm             41500.00:  Mud Chlorides 
 MDES.     Inversion Oil/Synthetic:  Mud Desc 
 DFD .sg                  1.56:  Mud Density 
 MDMN.sg                  1.56:  Dens Mud Min 
 MDMX.sg                  1.56:  Dens Mud Max 
 MOIL.                      70:  Run Mud Oil % 
 MOWR.                   70:30:  Run Mud OWR 
 MSND.                     0.2:  Run Mud Sand % 
 MSOL.                    23.3:  Run Mud Solids% 
 DFV .spqt               78.00:  Mud Viscosity 
 MWOD.in                  6.75:  MWD Tool OD 
 MWSI.                      No:  Serv Intrp, MWD 
 OTIM.hr                218.30:  Time Operating 
 PCON.           Look Like New:  Pad Condition 
 PMAX.psia            11015.30:  Press Op, Max 
 PV  .cP                 38.00:  Mud PV 
 RUN .                     300:  Run Number 
 ROPA.m/hr               15.00:  ROP Avg 
 ROPN.m/hr                9.00:  ROP Min 
 ROPX.m/hr               17.00:  ROP Max 
 RPMA.rpm               120.00:  RPM Surface Avg 
 RPMN.rpm                90.00:  RPM Surface Min 
 RPMX.rpm               140.00:  RPM Surface Max 
 RRUN.                     300:  Rig Run Number 
 RTIM.hr                 31.53:  Time Reaming 
 SAZI.deg               331.64:  Azm, Start 
 SDEP.m                4127.00:  Start Depth 
 SIDD.                      No:  Serv Intrp, DD 
 SINC.deg                48.43:  Inc, Start 
 SPPA.psig             5830.00:  SPP Avg 
 SPPN.psig             5600.00:  SPP Min 
 SPPX.psig             5900.00:  SPP Max 
 STIM.      21.00.00 20-Aug-21:  Start Time 
 SVCS.                 DD, MWD:  Services 
 SVER.                    9.20:  Sperry Version 
 TDAT.m                 957.50:  Tot Depth Attmp 
 TDDF.                      No:  Trip for DD 
 TDLG.m                 957.50:  Tot Depth Loggd 
 TFF .                      No:  Trip for Fail 
 TQAA.f-kp               15.00:  Torque Abs Avg 
 TQAN.f-kp               12.00:  Torque Abs Min 
 TQAX.f-kp               19.00:  Torque Abs Max 
 TRRT.°/30m              -3.40:  Turn Rotating 
 MRT .                  EWR-M5:  Maximum Recorded Temperature 
 TTMX.degC              100.00:  Max Tool Temp 
 VS01.                90639251:  Virtual Str1 SN 
 VS02.                90634715:  Virtual Str2 SN 
 VS03.                90652479:  Virtual Str3 SN 
 VS04.                90642262:  Virtual Str4 SN 
 WBMN.klb                 0.00:  WOB Min 
 WITN.           Murad Guliyev:  Customer Rep 
 WITN.          Yashar Gaziyev:  Customer Rep 2 
 WOBA.klb                 9.00:  WOB Avg 
 WOBX.klb                12.00:  WOB Max 
 YP  .lhf2               30.00:  Yield Point 
~Curve Information Block
#MNEM.UNIT                 API CODE     Curve Description
#---------               -----------    ---------------------------
 TIME.HHMMSS            00 000 000 000:  GT Time & Date
 GTDEPTH.m              00 000 000 000:  GT Depth
 GTPQH.psia             00 000 000 000:  GT HR Quartz Pressure
 GTTQ.degC              00 000 000 000:  GT Quartz Temperature
 GTTN.NONE              00 000 000 000:  GT Test Number
 GTET.sec               00 000 000 000:  GT Elapsed Test Time
 GTTVD.m                00 000 000 000:  GT True Vertical Depth
#Other Information
#
#WARRANTY: Halliburton will use its best efforts to furnish customers with 
#accurate information and interpretations that are part of, and incident to, the services 
#provided.  However, Halliburton cannot and does not warrant the accuracy 
#or correctness of such information and interpretations.  Under no circumstances should any 
#such information or interpretation be relied upon as the sole basis for any drilling, 
#completion, production, or financial decision or any procedure involving any risk to the 
#safety of any drilling venture, drilling rig or its crew or any other third party.  The 
#Customer has full responsibility for all drilling, completion and production operation.  
#Halliburton makes no representations or warranties, either expressed or 
#implied, including, but not limited to, the implied warranties of merchantability or fitness 
#for a particular purpose, with respect to the services rendered.  In no event will 
#Halliburton be liable for failure to obtain any particular results or for 
#any damages, including, but not limited to, indirect, special or consequential damages, 
#resulting from the use of any information or interpretation provided by Halliburton.
#
~A           TIME           GTDEPTH  GTPQH  GTTQ  GTTN   GTET   GTTVD  
# ...
   11:31:33.278.27-Aug-2021 4925.00 4811.64 85.55 10.00 113.04 3271.33
   11:31:33.478.27-Aug-2021 4925.00 4811.64 85.55 10.00 113.24 3271.33
   11:31:33.678.27-Aug-2021 4925.00 4811.65 85.55 10.00 113.44 3271.33
   11:31:33.878.27-Aug-2021 4925.00 4811.71 85.55 10.00 113.64 3271.33
   11:31:34.078.27-Aug-2021 4925.00 4811.72 85.55 10.00 113.84 3271.33
   11:31:34.278.27-Aug-2021 4925.00 4811.73 85.55 10.00 114.04 3271.33
   11:31:34.478.27-Aug-2021 4925.00 4811.73 85.55 10.00 114.24 3271.33
   11:31:34.678.27-Aug-2021 4925.00 4811.77 85.55 10.00 114.44 3271.33
   11:31:34.878.27-Aug-2021 4925.00 4811.80 85.55 10.00 114.64 3271.33
   11:31:35.078.27-Aug-2021 4925.00 4811.79 85.55 10.00 114.84 3271.33
   11:31:35.279.27-Aug-2021 4925.00 4811.82 85.55 10.00 115.04 3271.33
   11:31:35.479.27-Aug-2021 4925.00 4811.82 85.55 10.00 115.24 3271.33
   11:31:35.679.27-Aug-2021 4925.00 4811.84 85.55 10.00 115.44 3271.33
   11:31:35.879.27-Aug-2021 4925.00 4811.77 85.55 10.00 115.64 3271.33
   11:31:36.079.27-Aug-2021 4925.00 4811.86 85.55 10.00 115.84 3271.33
   11:31:36.279.27-Aug-2021 4925.00 4811.72 85.55 10.00 116.04 3271.33
   11:31:36.479.27-Aug-2021 4925.00 4811.72 85.55 10.00 116.24 3271.33
   11:31:36.679.27-Aug-2021 4925.00 4811.69 85.55 10.00 116.44 3271.33
   11:31:36.879.27-Aug-2021 4925.00 4811.73 85.55 10.00 116.64 3271.33
   11:31:37.079.27-Aug-2021 4925.00 4811.73 85.55 10.00 116.84 3271.33
   11:31:37.279.27-Aug-2021 4925.00 4811.75 85.55 10.00 117.04 3271.33
   11:31:37.479.27-Aug-2021 4925.00 4811.75 85.55 10.00 117.24 3271.33
   11:31:37.679.27-Aug-2021 4925.00 4811.79 85.55 10.00 117.44 3271.33
   11:31:37.879.27-Aug-2021 4925.00 4811.81 85.55 10.00 117.64 3271.33
   11:31:38.080.27-Aug-2021 4925.00 4811.83 85.55 10.00 117.84 3271.33
   11:31:38.280.27-Aug-2021 4925.00 4811.84 85.55 10.00 118.04 3271.33
   11:31:38.480.27-Aug-2021 4925.00 4811.84 85.55 10.00 118.24 3271.33
   11:31:38.680.27-Aug-2021 4925.00 4811.86 85.55 10.00 118.44 3271.33
   11:31:38.880.27-Aug-2021 4925.00 4811.87 85.55 10.00 118.64 3271.33
   11:31:39.080.27-Aug-2021 4925.00 4811.88 85.55 10.00 118.84 3271.33
   11:31:39.280.27-Aug-2021 4925.00 4811.82 85.55 10.00 119.04 3271.33
   11:31:39.480.27-Aug-2021 4925.00 4811.82 85.55 10.00 119.24 3271.33
   11:31:39.680.27-Aug-2021 4925.00 4811.71 85.55 10.00 119.44 3271.33
   11:31:39.880.27-Aug-2021 4925.00 4811.70 85.55 10.00 119.64 3271.33
   11:31:40.080.27-Aug-2021 4925.00 4811.71 85.55 10.00 119.84 3271.33
   11:31:40.280.27-Aug-2021 4925.00 4811.74 85.55 10.00 120.04 3271.33
   11:31:40.480.27-Aug-2021 4925.00 4811.74 85.55 10.00 120.24 3271.33
   11:31:40.680.27-Aug-2021 4925.00 4811.75 85.55 10.00 120.44 3271.33
   11:31:40.881.27-Aug-2021 4925.00 4811.65 85.55 10.00 120.64 3271.33
   11:31:41.081.27-Aug-2021 4925.00 4811.67 85.55 10.00 120.84 3271.33
   11:31:41.281.27-Aug-2021 4925.00 4811.68 85.55 10.00 121.04 3271.33
   11:31:41.481.27-Aug-2021 4925.00 4811.68 85.55 10.00 121.24 3271.33
   11:31:41.681.27-Aug-2021 4925.00 4811.72 85.55 10.00 121.44 3271.33
   11:31:41.881.27-Aug-2021 4925.00 4811.69 85.55 10.00 121.64 3271.33
   11:31:42.081.27-Aug-2021 4925.00 4811.67 85.55 10.00 121.84 3271.33
   11:31:42.281.27-Aug-2021 4925.00 4811.67 85.55 10.00 122.04 3271.33
   11:31:42.481.27-Aug-2021 4925.00 4811.67 85.55 10.00 122.24 3271.33
   11:31:42.681.27-Aug-2021 4925.00 4811.69 85.55 10.00 122.44 3271.33
   11:31:42.881.27-Aug-2021 4925.00 4811.74 85.55 10.00 122.64 3271.33
   11:31:43.081.27-Aug-2021 4925.00 4811.63 85.55 10.00 122.84 3271.33
   11:31:43.281.27-Aug-2021 4925.00 4811.66 85.55 10.00 123.04 3271.33
   11:31:43.481.27-Aug-2021 4925.00 4811.66 85.55 10.00 123.24 3271.33
   11:31:43.682.27-Aug-2021 4925.00 4811.69 85.55 10.00 123.44 3271.33
   11:31:43.882.27-Aug-2021 4925.00 4811.70 85.55 10.00 123.64 3271.33
   11:31:44.082.27-Aug-2021 4925.00 4811.71 85.55 10.00 123.84 3271.33
   11:31:44.282.27-Aug-2021 4925.00 4811.71 85.55 10.00 124.04 3271.33
   11:31:44.482.27-Aug-2021 4925.00 4811.71 85.55 10.00 124.24 3271.33
   11:31:44.682.27-Aug-2021 4925.00 4811.76 85.55 10.00 124.44 3271.33
   11:31:44.882.27-Aug-2021 4925.00 4811.76 85.55 10.00 124.64 3271.33
   11:31:45.082.27-Aug-2021 4925.00 4811.78 85.55 10.00 124.84 3271.33
   11:31:45.282.27-Aug-2021 4925.00 4811.78 85.55 10.00 125.04 3271.33
   11:31:45.482.27-Aug-2021 4925.00 4811.78 85.55 10.00 125.24 3271.33
   11:31:45.682.27-Aug-2021 4925.00 4811.80 85.55 10.00 125.44 3271.33
   11:31:45.882.27-Aug-2021 4925.00 4811.78 85.55 10.00 125.64 3271.33
   11:31:46.082.27-Aug-2021 4925.00 4811.69 85.55 10.00 125.84 3271.33
   11:31:46.282.27-Aug-2021 4925.00 4811.69 85.55 10.00 126.04 3271.33
   11:31:46.483.27-Aug-2021 4925.00 4811.69 85.55 10.00 126.24 3271.33
   11:31:46.683.27-Aug-2021 4925.00 4811.69 85.55 10.00 126.44 3271.33
   11:31:46.883.27-Aug-2021 4925.00 4811.70 85.55 10.00 126.64 3271.33
   11:31:47.083.27-Aug-2021 4925.00 4811.71 85.55 10.00 126.85 3271.33
   11:31:47.283.27-Aug-2021 4925.00 4811.73 85.55 10.00 127.05 3271.33
   11:31:47.483.27-Aug-2021 4925.00 4811.73 85.55 10.00 127.25 3271.33
   11:31:47.683.27-Aug-2021 4925.00 4811.73 85.55 10.00 127.45 3271.33
   11:31:47.883.27-Aug-2021 4925.00 4811.78 85.55 10.00 127.65 3271.33
   11:31:48.083.27-Aug-2021 4925.00 4811.78 85.55 10.00 127.85 3271.33
   11:31:48.283.27-Aug-2021 4925.00 4811.80 85.55 10.00 128.05 3271.33
   11:31:48.483.27-Aug-2021 4925.00 4811.80 85.55 10.00 128.25 3271.33
   11:31:48.683.27-Aug-2021 4925.00 4811.81 85.55 10.00 128.45 3271.33
   11:31:48.883.27-Aug-2021 4925.00 4811.82 85.55 10.00 128.65 3271.33
   11:31:49.083.27-Aug-2021 4925.00 4811.76 85.55 10.00 128.85 3271.33
   11:31:49.284.27-Aug-2021 4925.00 4811.82 85.55 10.00 129.05 3271.33
   11:31:49.484.27-Aug-2021 4925.00 4811.82 85.55 10.00 129.25 3271.33
   11:31:49.684.27-Aug-2021 4925.00 4811.68 85.55 10.00 129.45 3271.33
   11:31:49.884.27-Aug-2021 4925.00 4811.69 85.55 10.00 129.65 3271.33
   11:31:50.084.27-Aug-2021 4925.00 4811.73 85.55 10.00 129.85 3271.33
   11:31:50.284.27-Aug-2021 4925.00 4811.71 85.55 10.00 130.05 3271.33
   11:31:50.484.27-Aug-2021 4925.00 4811.71 85.55 10.00 130.25 3271.33
   11:31:50.684.27-Aug-2021 4925.00 4811.78 85.55 10.00 130.45 3271.33
   11:31:50.884.27-Aug-2021 4925.00 4811.68 85.55 10.00 130.65 3271.33
   11:31:51.084.27-Aug-2021 4925.00 4811.69 85.55 10.00 130.85 3271.33
   11:31:51.284.27-Aug-2021 4925.00 4811.69 85.55 10.00 131.05 3271.33
   11:31:51.484.27-Aug-2021 4925.00 4811.69 85.55 10.00 131.25 3271.33
   11:31:51.684.27-Aug-2021 4925.00 4811.81 85.55 10.00 131.45 3271.33
   11:31:51.884.27-Aug-2021 4925.00 4811.68 85.55 10.00 131.65 3271.33
   11:31:52.085.27-Aug-2021 4925.00 4811.65 85.55 10.00 131.85 3271.33
   11:31:52.285.27-Aug-2021 4925.00 4811.67 85.55 10.00 132.05 3271.33
   11:31:52.485.27-Aug-2021 4925.00 4811.67 85.55 10.00 132.25 3271.33
   11:31:52.685.27-Aug-2021 4925.00 4811.64 85.55 10.00 132.45 3271.33
   11:31:52.885.27-Aug-2021 4925.00 4811.75 85.55 10.00 132.65 3271.33
   11:31:53.085.27-Aug-2021 4925.00 4811.64 85.55 10.00 132.85 3271.33
   11:31:53.285.27-Aug-2021 4925.00 4811.66 85.55 10.00 133.05 3271.33
   11:31:53.485.27-Aug-2021 4925.00 4811.66 85.55 10.00 133.25 3271.33
   11:31:53.685.27-Aug-2021 4925.00 4811.68 85.55 10.00 133.45 3271.33
   11:31:53.885.27-Aug-2021 4925.00 4811.68 85.55 10.00 133.65 3271.33
   11:31:54.085.27-Aug-2021 4925.00 4811.70 85.55 10.00 133.85 3271.33
   11:31:54.285.27-Aug-2021 4925.00 4811.70 85.55 10.00 134.05 3271.33
   11:31:54.485.27-Aug-2021 4925.00 4811.70 85.55 10.00 134.25 3271.33
   11:31:54.685.27-Aug-2021 4925.00 4811.73 85.55 10.00 134.45 3271.33
   11:31:54.886.27-Aug-2021 4925.00 4811.74 85.55 10.00 134.65 3271.33
   11:31:55.086.27-Aug-2021 4925.00 4811.75 85.55 10.00 134.85 3271.33
   11:31:55.286.27-Aug-2021 4925.00 4811.74 85.55 10.00 135.05 3271.33
   11:31:55.486.27-Aug-2021 4925.00 4811.74 85.55 10.00 135.25 3271.33
   11:31:55.686.27-Aug-2021 4925.00 4811.71 85.55 10.00 135.45 3271.33
