~Version Information
 VERS.                  2.0:   CWLS log ASCII Standard -VERSION 2.0
 WRAP.                   NO:   One line per depth step
~Well Information Block
#MNEM.UNIT     VALUE/NAME     DESCRIPTION
#---------     -----------    ---------------------------
 STRT.S             11:48:55 27-Aug-21: START TIME 11:48:55 27-Aug-21
 STOP.S             11:56:03 27-Aug-21: STOP TIME  11:56:03 27-Aug-21
 STEP.S                   0.00: STEP TIME
 NULL.                 -999.25: NULL VALUE
 DFWT.                        :  DIST FWL TEXT
 DFST.                        :  DIST FSL TEXT
 DMF .             Drill Floor:  DRILL MEAS FROM
 STIM.      20.00.00 17-Aug-21:  START TIME
 DATE.      19.00.00 29-Aug-21:  END TIME
 SPUD.               15-Aug-21:  SPUD DATE
 NREF.                    Grid:  NORTH REFERENCE
 HPTY.       Minimum Curvature:  HOLE POS TYPE
 DMOD.             Drill Model:  DRILL MOD DESC
 SVYD.                  Survey:  SURVEY DESC
 ILTD.               Lithology:  INTERP LTH DESC
 FTOP.          Formation Tops:  FORM TOPS DESC
 RIG .              East Azeri:  RIG NAME
 PDAT.          Mean Sea Level:  PERMANENT DATUM
 FLD .                     ACG:  FIELD NAME
 SON .        AZ-XX-0907180857:  JOB NUMBER
 CTRY.              Azerbaijan:  COUNTRY NAME
 WELL.                    D23x:  WELL NAME
 SRVC.     Turan Drilling and Engineering:  CONTRACTOR
 COMP.     BP Exploration (Caspian Sea) Ltd.:  COMPANY
 UWI .            /AZE00000214:  UNIQUE WELL IDENTIFIER
 API .            /AZE00000214:  API NUMBER
 MDS .        Operator Entered:  MAG DATA SOURCE
 BASE.              Azerbaijan:  LOGGING EQUIPMENT BASE LOCATION
 REGN.                   EESSA:  REGION
 PROV.                    Baku:  PROVINCE
 STAT.                    Baku:  STATE NAME
 MWDS.                    Baku:  MWD SHOP
 DOE .                     N/A:  DOE NUMBER
 DCON.         Sperry Drilling:  DIRECTNL CONTR
 UNIT.                     N/A:  LOGGING EQUIPMENT ID
 WTYP.                Deviated:  WELL TYPE
 CNTY.                        :  COUNTY
 LOC .                        :  LOCATION
 LMF .             Drill Floor:  LOG MEASURED FROM
 TVDS.m                  43.60:  TVDSS CORRECTN
 LATI.deg                40.02:  LATITUDE
 LONG.deg                51.45:  LONGITUDE
 WHNS.m                  -7.04:  WELL HEAD N/S
 WHEW.m                  -0.67:  WELL HEAD E/W
 UTMX.m              538762.90:  UTM X
 UTMY.m             4431871.34:  UTM Y
 DFWL.m                   0.00:  DISTANCE FWL
 DFSL.m                   0.00:  DISTANCE FSL
 SDEP.m                4127.00:  START DEPTH
 TDD .m                5084.50:  TOTAL DEPTH (DRILLER)
 VSDR.deg               140.47:  VERT SEC DIRECT
 GVFD.g                   1.00:  GRAVITY FIELD
 MFLD.nT              50362.00:  MAGNETIC FIELD
 MDIP.deg                59.48:  MAGNETIC DIP
 MDEC.deg                 6.47:  MAGNETIC DECL
 GRDC.deg                 0.31:  GRID CORRECTION
 AZTC.deg                 6.16:  AZM TOTAL CORR
 EPD .m                   0.00:  ELEVATION
 EGL .m                   0.00:  GROUND ELEVATION
 WDMS.m                 151.80:  WD ELEV
 APD .m                  43.60:  DEPTH ABOVE PD
 DEP .m                4092.57:  DEPTH
 AGAP.m                  43.60:  AIR GAP
 VSEW.m                  -0.67:  VERT SEC E/W
 VSNS.m                  -7.04:  VERT SEC N/S
 EKB .m                  43.60:  KB ELEVATION
 EDF .m                  43.60:  DF ELEVATION
 TDL .m                 957.50:  TOTAL DEPTH (LOGGER)
 VSC .                       0:  VS TO CLOSURE
 MAGU.                 1851413:  MAGUTM CHECKSUM
~Parameter Information Block
#MNEM.UNIT       Value        Description
#---------     -----------    ---------------------------
 AV  .mps                 1.50:  Ann Velocity 
 AVMX.mps                 2.00:  Max Ann Veloc 
 AZIF.deg               184.66:  Azm, Final 
 BHAT.        Rotary Steerable:  BHA Type 
 BREV.rev               300.00:  Rev Bit Total 
 BROT.°/30m              -0.50:  Build Rotating 
 BS  .in                  8.50:  Bit Size 
 BSZ .in                  8.50:  Bit Size 
 BTPL.psig              370.00:  Bit Press Loss 
 CABU.                      No:  Customer Abuse 
 CGEO.      Behruz Shahbaliyev:  Customer Geo 
 COMM.                     L*e:  Run Comments 1 
 TCS .hr                140.08:  Time Ciculation Ended 
 CV  .mps                 3.00:  Crit Velocity 
 CVMX.mps                 3.20:  Max Crit Veloc 
 DD1 .            Musa Ahmadov:  Direct Drillr 1 
 DD2 .           Hamid Ahmadov:  Direct Drillr 2 
 DDSV.               Geo-Pilot:  DD Service 
 DEFF.%                  98.40:  % Det Eff 
 DLRX.°/30m               3.40:  Dogleg Rot Max 
 DLSO.°/30m               1.45:  Dogleg Oriented 
 DLSX.°/30m               3.40:  Dogleg Str Max 
 DRET.      18.40.00 29-Aug-21:  Drill End Time 
 DRST.      21.00.00 20-Aug-21:  Drill Start Tim 
 DTIM.hr                 69.47:  Time Drilling 
 EDEP.m                5084.50:  End Depth 
 ENG1.      Artemiy Matviyanov:  Engineer 1 
 ENG2.         Almaz Almadatov:  Engineer 2 
 ETIM.      18.40.00 29-Aug-21:  End Time 
 FLOI.gpm               500.00:  Flow In 
 FLON.gpm               400.00:  Flow In Min 
 FLOS.cptm                0.00:  Fluid Loss 
 FLOX.gpm               500.00:  Flow In Max 
 DFT .        Mineral Oil Base:  Mud Type 
 HFLO.                      No:  High Flow 
 HPRE.                      No:  High Pressure 
 HTEM.                      No:  High Temp 
 HYDO.m                   1.80:  Hydro Offset 
 IFIN.deg                25.62:  Inc, Final 
 IMAX.deg                48.69:  Inc Max 
 IMIN.deg                24.01:  Inc Min 
 IMND.m                4962.57:  Inc Min Depth 
 IMXD.m                4119.01:  Inc Max Depth 
 JARR.                      No:  Jarring 
 LETM.      18.40.00 29-Aug-21:  Log End Time 
 LOST.hr                     0:  Lost Rig Time 
 LSTM.      21.00.00 20-Aug-21:  Log Start Time 
 MDCL.ppm             41500.00:  Mud Chlorides 
 MDES.     Inversion Oil/Synthetic:  Mud Desc 
 DFD .sg                  1.56:  Mud Density 
 MDMN.sg                  1.56:  Dens Mud Min 
 MDMX.sg                  1.56:  Dens Mud Max 
 MOIL.                      70:  Run Mud Oil % 
 MOWR.                   70:30:  Run Mud OWR 
 MSND.                     0.2:  Run Mud Sand % 
 MSOL.                    23.3:  Run Mud Solids% 
 DFV .spqt               78.00:  Mud Viscosity 
 MWOD.in                  6.75:  MWD Tool OD 
 MWSI.                      No:  Serv Intrp, MWD 
 OTIM.hr                218.30:  Time Operating 
 PCON.           Look Like New:  Pad Condition 
 PMAX.psia            11015.30:  Press Op, Max 
 PV  .cP                 38.00:  Mud PV 
 RUN .                     300:  Run Number 
 ROPA.m/hr               15.00:  ROP Avg 
 ROPN.m/hr                9.00:  ROP Min 
 ROPX.m/hr               17.00:  ROP Max 
 RPMA.rpm               120.00:  RPM Surface Avg 
 RPMN.rpm                90.00:  RPM Surface Min 
 RPMX.rpm               140.00:  RPM Surface Max 
 RRUN.                     300:  Rig Run Number 
 RTIM.hr                 31.53:  Time Reaming 
 SAZI.deg               331.64:  Azm, Start 
 SDEP.m                4127.00:  Start Depth 
 SIDD.                      No:  Serv Intrp, DD 
 SINC.deg                48.43:  Inc, Start 
 SPPA.psig             5830.00:  SPP Avg 
 SPPN.psig             5600.00:  SPP Min 
 SPPX.psig             5900.00:  SPP Max 
 STIM.      21.00.00 20-Aug-21:  Start Time 
 SVCS.                 DD, MWD:  Services 
 SVER.                    9.20:  Sperry Version 
 TDAT.m                 957.50:  Tot Depth Attmp 
 TDDF.                      No:  Trip for DD 
 TDLG.m                 957.50:  Tot Depth Loggd 
 TFF .                      No:  Trip for Fail 
 TQAA.f-kp               15.00:  Torque Abs Avg 
 TQAN.f-kp               12.00:  Torque Abs Min 
 TQAX.f-kp               19.00:  Torque Abs Max 
 TRRT.°/30m              -3.40:  Turn Rotating 
 MRT .                  EWR-M5:  Maximum Recorded Temperature 
 TTMX.degC              100.00:  Max Tool Temp 
 VS01.                90639251:  Virtual Str1 SN 
 VS02.                90634715:  Virtual Str2 SN 
 VS03.                90652479:  Virtual Str3 SN 
 VS04.                90642262:  Virtual Str4 SN 
 WBMN.klb                 0.00:  WOB Min 
 WITN.           Murad Guliyev:  Customer Rep 
 WITN.          Yashar Gaziyev:  Customer Rep 2 
 WOBA.klb                 9.00:  WOB Avg 
 WOBX.klb                12.00:  WOB Max 
 YP  .lhf2               30.00:  Yield Point 
~Curve Information Block
#MNEM.UNIT                 API CODE     Curve Description
#---------               -----------    ---------------------------
 TIME.HHMMSS            00 000 000 000:  GT Time & Date
 GTDEPTH.m              00 000 000 000:  GT Depth
 GTPQH.psia             00 000 000 000:  GT HR Quartz Pressure
 GTTQ.degC              00 000 000 000:  GT Quartz Temperature
 GTTN.NONE              00 000 000 000:  GT Test Number
 GTET.sec               00 000 000 000:  GT Elapsed Test Time
 GTTVD.m                00 000 000 000:  GT True Vertical Depth
#Other Information
#
#WARRANTY: Halliburton will use its best efforts to furnish customers with 
#accurate information and interpretations that are part of, and incident to, the services 
#provided.  However, Halliburton cannot and does not warrant the accuracy 
#or correctness of such information and interpretations.  Under no circumstances should any 
#such information or interpretation be relied upon as the sole basis for any drilling, 
#completion, production, or financial decision or any procedure involving any risk to the 
#safety of any drilling venture, drilling rig or its crew or any other third party.  The 
#Customer has full responsibility for all drilling, completion and production operation.  
#Halliburton makes no representations or warranties, either expressed or 
#implied, including, but not limited to, the implied warranties of merchantability or fitness 
#for a particular purpose, with respect to the services rendered.  In no event will 
#Halliburton be liable for failure to obtain any particular results or for 
#any damages, including, but not limited to, indirect, special or consequential damages, 
#resulting from the use of any information or interpretation provided by Halliburton.
#
~A           TIME           GTDEPTH  GTPQH  GTTQ  GTTN   GTET   GTTVD  
# ...
   11:49:18.256.27-Aug-2021 4914.00 7781.18 85.34 11.00  22.61 3261.31
   11:49:18.456.27-Aug-2021 4914.00 7781.55 85.34 11.00  22.81 3261.31
   11:49:18.656.27-Aug-2021 4914.00 7781.34 85.34 11.00  23.01 3261.31
   11:49:18.856.27-Aug-2021 4914.00 7781.34 85.34 11.00  23.21 3261.31
   11:49:19.056.27-Aug-2021 4914.00 7782.08 85.34 11.00  23.41 3261.31
   11:49:19.256.27-Aug-2021 4914.00 7782.18 85.34 11.00  23.61 3261.31
   11:49:19.456.27-Aug-2021 4914.00 7782.21 85.34 11.00  23.81 3261.31
   11:49:19.656.27-Aug-2021 4914.00 7782.32 85.34 11.00  24.01 3261.31
   11:49:19.856.27-Aug-2021 4914.00 7782.32 85.34 11.00  24.21 3261.31
   11:49:20.056.27-Aug-2021 4914.00 7782.32 85.34 11.00  24.41 3261.31
   11:49:20.257.27-Aug-2021 4914.00 7784.89 85.34 11.00  24.61 3261.31
   11:49:20.457.27-Aug-2021 4914.00 7783.23 85.34 11.00  24.81 3261.31
   11:49:20.657.27-Aug-2021 4914.00 7784.27 85.34 11.00  25.01 3261.31
   11:49:20.857.27-Aug-2021 4914.00 7784.27 85.34 11.00  25.21 3261.31
   11:49:21.057.27-Aug-2021 4914.00 7783.07 85.33 11.00  25.41 3261.31
   11:49:21.257.27-Aug-2021 4914.00 7783.08 85.33 11.00  25.61 3261.31
   11:49:21.457.27-Aug-2021 4914.00 7783.21 85.33 11.00  25.81 3261.31
   11:49:21.657.27-Aug-2021 4914.00 7783.73 85.33 11.00  26.01 3261.31
   11:49:21.857.27-Aug-2021 4914.00 7783.73 85.33 11.00  26.21 3261.31
   11:49:22.057.27-Aug-2021 4914.00 7783.29 85.33 11.00  26.41 3261.31
   11:49:22.257.27-Aug-2021 4914.00 7784.58 85.33 11.00  26.61 3261.31
   11:49:22.457.27-Aug-2021 4914.00 7784.93 85.33 11.00  26.81 3261.31
   11:49:22.657.27-Aug-2021 4914.00 7785.17 85.33 11.00  27.01 3261.31
   11:49:22.857.27-Aug-2021 4914.00 7785.17 85.33 11.00  27.21 3261.31
   11:49:23.058.27-Aug-2021 4914.00 7785.17 85.33 11.00  27.41 3261.31
   11:49:23.258.27-Aug-2021 4914.00 7785.34 85.33 11.00  27.61 3261.31
   11:49:23.458.27-Aug-2021 4914.00 7785.38 85.33 11.00  27.81 3261.31
   11:49:23.658.27-Aug-2021 4914.00 7787.80 85.33 11.00  28.01 3261.31
   11:49:23.858.27-Aug-2021 4914.00 7787.80 85.33 11.00  28.21 3261.31
   11:49:24.058.27-Aug-2021 4914.00 7786.79 85.33 11.00  28.41 3261.31
   11:49:24.258.27-Aug-2021 4914.00 7786.08 85.33 11.00  28.61 3261.31
   11:49:24.458.27-Aug-2021 4914.00 7785.80 85.33 11.00  28.81 3261.31
   11:49:24.658.27-Aug-2021 4914.00 7788.75 85.33 11.00  29.01 3261.31
   11:49:24.858.27-Aug-2021 4914.00 7788.75 85.33 11.00  29.21 3261.31
   11:49:25.058.27-Aug-2021 4914.00 7787.16 85.33 11.00  29.41 3261.31
   11:49:25.258.27-Aug-2021 4914.00 7785.88 85.33 11.00  29.61 3261.31
   11:49:25.458.27-Aug-2021 4914.00 7786.14 85.33 11.00  29.81 3261.31
   11:49:25.658.27-Aug-2021 4914.00 7786.98 85.33 11.00  30.01 3261.31
   11:49:25.859.27-Aug-2021 4914.00 7786.98 85.33 11.00  30.21 3261.31
   11:49:26.059.27-Aug-2021 4914.00 7791.45 85.33 11.00  30.41 3261.31
   11:49:26.259.27-Aug-2021 4914.00 7785.94 85.33 11.00  30.61 3261.31
   11:49:26.459.27-Aug-2021 4914.00 7789.02 85.33 11.00  30.81 3261.31
   11:49:26.659.27-Aug-2021 4914.00 7788.15 85.33 11.00  31.01 3261.31
   11:49:26.859.27-Aug-2021 4914.00 7788.15 85.33 11.00  31.21 3261.31
   11:49:27.059.27-Aug-2021 4914.00 7788.07 85.33 11.00  31.41 3261.31
   11:49:27.259.27-Aug-2021 4914.00 7792.05 85.33 11.00  31.61 3261.31
   11:49:27.459.27-Aug-2021 4914.00 7786.04 85.33 11.00  31.81 3261.31
   11:49:27.659.27-Aug-2021 4914.00 7788.90 85.33 11.00  32.01 3261.31
   11:49:27.859.27-Aug-2021 4914.00 7788.90 85.33 11.00  32.21 3261.31
   11:49:28.059.27-Aug-2021 4914.00 7788.39 85.33 11.00  32.41 3261.31
   11:49:28.259.27-Aug-2021 4914.00 7788.91 85.33 11.00  32.61 3261.31
   11:49:28.459.27-Aug-2021 4914.00 7788.66 85.33 11.00  32.81 3261.31
   11:49:28.660.27-Aug-2021 4914.00 7788.68 85.33 11.00  33.01 3261.31
   11:49:28.860.27-Aug-2021 4914.00 7788.68 85.33 11.00  33.21 3261.31
   11:49:29.060.27-Aug-2021 4914.00 7789.23 85.33 11.00  33.41 3261.31
   11:49:29.260.27-Aug-2021 4914.00 7789.89 85.33 11.00  33.61 3261.31
   11:49:29.460.27-Aug-2021 4914.00 7790.01 85.33 11.00  33.81 3261.31
   11:49:29.660.27-Aug-2021 4914.00 7790.15 85.33 11.00  34.01 3261.31
   11:49:29.860.27-Aug-2021 4914.00 7790.15 85.33 11.00  34.21 3261.31
   11:49:30.060.27-Aug-2021 4914.00 7789.90 85.33 11.00  34.41 3261.31
   11:49:30.260.27-Aug-2021 4914.00 7790.01 85.33 11.00  34.61 3261.31
   11:49:30.460.27-Aug-2021 4914.00 7789.99 85.33 11.00  34.81 3261.31
   11:49:30.660.27-Aug-2021 4914.00 7790.22 85.33 11.00  35.01 3261.31
   11:49:30.860.27-Aug-2021 4914.00 7790.22 85.33 11.00  35.21 3261.31
   11:49:31.060.27-Aug-2021 4914.00 7791.09 85.33 11.00  35.41 3261.31
   11:49:31.260.27-Aug-2021 4914.00 7791.44 85.33 11.00  35.61 3261.31
   11:49:31.461.27-Aug-2021 4914.00 7790.70 85.33 11.00  35.81 3261.31
   11:49:31.661.27-Aug-2021 4914.00 7790.52 85.33 11.00  36.01 3261.31
   11:49:31.861.27-Aug-2021 4914.00 7790.52 85.33 11.00  36.21 3261.31
   11:49:32.061.27-Aug-2021 4914.00 7790.67 85.33 11.00  36.41 3261.31
   11:49:32.261.27-Aug-2021 4914.00 7790.84 85.33 11.00  36.61 3261.31
   11:49:32.461.27-Aug-2021 4914.00 7790.56 85.33 11.00  36.81 3261.31
   11:49:32.661.27-Aug-2021 4914.00 7791.00 85.33 11.00  37.01 3261.31
   11:49:32.861.27-Aug-2021 4914.00 7791.00 85.33 11.00  37.21 3261.31
   11:49:33.061.27-Aug-2021 4914.00 7791.86 85.33 11.00  37.41 3261.31
   11:49:33.261.27-Aug-2021 4914.00 7792.28 85.33 11.00  37.61 3261.31
   11:49:33.461.27-Aug-2021 4914.00 7792.20 85.33 11.00  37.81 3261.31
   11:49:33.661.27-Aug-2021 4914.00 7792.21 85.33 11.00  38.01 3261.31
   11:49:33.861.27-Aug-2021 4914.00 7792.21 85.33 11.00  38.21 3261.31
   11:49:34.061.27-Aug-2021 4914.00 7792.34 85.33 11.00  38.41 3261.31
   11:49:34.262.27-Aug-2021 4914.00 7793.35 85.33 11.00  38.61 3261.31
   11:49:34.462.27-Aug-2021 4914.00 7793.58 85.33 11.00  38.81 3261.31
   11:49:34.662.27-Aug-2021 4914.00 7792.51 85.33 11.00  39.01 3261.31
   11:49:34.862.27-Aug-2021 4914.00 7792.51 85.33 11.00  39.21 3261.31
   11:49:35.062.27-Aug-2021 4914.00 7792.06 85.33 11.00  39.41 3261.31
   11:49:35.262.27-Aug-2021 4914.00 7794.33 85.33 11.00  39.61 3261.31
   11:49:35.462.27-Aug-2021 4914.00 7793.10 85.33 11.00  39.81 3261.31
   11:49:35.662.27-Aug-2021 4914.00 7793.32 85.33 11.00  40.01 3261.31
   11:49:35.862.27-Aug-2021 4914.00 7793.32 85.33 11.00  40.21 3261.31
   11:49:36.062.27-Aug-2021 4914.00 7793.25 85.33 11.00  40.41 3261.31
   11:49:36.262.27-Aug-2021 4914.00 7793.33 85.33 11.00  40.61 3261.31
   11:49:36.462.27-Aug-2021 4914.00 7799.10 85.33 11.00  40.81 3261.31
   11:49:36.662.27-Aug-2021 4914.00 7790.95 85.33 11.00  41.01 3261.31
   11:49:36.862.27-Aug-2021 4914.00 7790.95 85.33 11.00  41.21 3261.31
   11:49:37.063.27-Aug-2021 4914.00 7793.21 85.33 11.00  41.41 3261.31
   11:49:37.263.27-Aug-2021 4914.00 7793.35 85.33 11.00  41.61 3261.31
   11:49:37.463.27-Aug-2021 4914.00 7793.58 85.33 11.00  41.81 3261.31
   11:49:37.663.27-Aug-2021 4914.00 7796.32 85.33 11.00  42.01 3261.31
   11:49:37.863.27-Aug-2021 4914.00 7796.32 85.33 11.00  42.21 3261.31
   11:49:38.063.27-Aug-2021 4914.00 7794.35 85.33 11.00  42.42 3261.31
   11:49:38.263.27-Aug-2021 4914.00 7795.60 85.33 11.00  42.62 3261.31
   11:49:38.463.27-Aug-2021 4914.00 7794.82 85.32 11.00  42.82 3261.31
   11:49:38.663.27-Aug-2021 4914.00 7795.52 85.32 11.00  43.02 3261.31
   11:49:38.863.27-Aug-2021 4914.00 7795.52 85.32 11.00  43.22 3261.31
   11:49:39.063.27-Aug-2021 4914.00 7793.63 85.32 11.00  43.42 3261.31
   11:49:39.263.27-Aug-2021 4914.00 7794.13 85.32 11.00  43.62 3261.31
   11:49:39.463.27-Aug-2021 4914.00 7797.50 85.32 11.00  43.82 3261.31
   11:49:39.663.27-Aug-2021 4914.00 7795.68 85.32 11.00  44.02 3261.31
   11:49:39.864.27-Aug-2021 4914.00 7795.68 85.32 11.00  44.22 3261.31
   11:49:40.064.27-Aug-2021 4914.00 7795.07 85.32 11.00  44.42 3261.31
   11:49:40.264.27-Aug-2021 4914.00 7795.55 85.32 11.00  44.62 3261.31
   11:49:40.464.27-Aug-2021 4914.00 7795.29 85.32 11.00  44.82 3261.31
   11:49:40.664.27-Aug-2021 4914.00 7795.67 85.32 11.00  45.02 3261.31
