~Version Information
 VERS.                  2.0:   CWLS log ASCII Standard -VERSION 2.0
 WRAP.                   NO:   One line per depth step
~Well Information Block
#MNEM.UNIT     VALUE/NAME     DESCRIPTION
#---------     -----------    ---------------------------
 STRT.S             08:06:40 27-Aug-21: START TIME 08:06:40 27-Aug-21
 STOP.S             08:13:50 27-Aug-21: STOP TIME  08:13:50 27-Aug-21
 STEP.S                   0.00: STEP TIME
 NULL.                 -999.25: NULL VALUE
 DFWT.                        :  DIST FWL TEXT
 DFST.                        :  DIST FSL TEXT
 DMF .             Drill Floor:  DRILL MEAS FROM
 STIM.      20.00.00 17-Aug-21:  START TIME
 DATE.      19.00.00 29-Aug-21:  END TIME
 SPUD.               15-Aug-21:  SPUD DATE
 NREF.                    Grid:  NORTH REFERENCE
 HPTY.       Minimum Curvature:  HOLE POS TYPE
 DMOD.             Drill Model:  DRILL MOD DESC
 SVYD.                  Survey:  SURVEY DESC
 ILTD.               Lithology:  INTERP LTH DESC
 FTOP.          Formation Tops:  FORM TOPS DESC
 RIG .              East Azeri:  RIG NAME
 PDAT.          Mean Sea Level:  PERMANENT DATUM
 FLD .                     ACG:  FIELD NAME
 SON .        AZ-XX-0907180857:  JOB NUMBER
 CTRY.              Azerbaijan:  COUNTRY NAME
 WELL.                    D23x:  WELL NAME
 SRVC.     Turan Drilling and Engineering:  CONTRACTOR
 COMP.     BP Exploration (Caspian Sea) Ltd.:  COMPANY
 UWI .            /AZE00000214:  UNIQUE WELL IDENTIFIER
 API .            /AZE00000214:  API NUMBER
 MDS .        Operator Entered:  MAG DATA SOURCE
 BASE.              Azerbaijan:  LOGGING EQUIPMENT BASE LOCATION
 REGN.                   EESSA:  REGION
 PROV.                    Baku:  PROVINCE
 STAT.                    Baku:  STATE NAME
 MWDS.                    Baku:  MWD SHOP
 DOE .                     N/A:  DOE NUMBER
 DCON.         Sperry Drilling:  DIRECTNL CONTR
 UNIT.                     N/A:  LOGGING EQUIPMENT ID
 WTYP.                Deviated:  WELL TYPE
 CNTY.                        :  COUNTY
 LOC .                        :  LOCATION
 LMF .             Drill Floor:  LOG MEASURED FROM
 TVDS.m                  43.60:  TVDSS CORRECTN
 LATI.deg                40.02:  LATITUDE
 LONG.deg                51.45:  LONGITUDE
 WHNS.m                  -7.04:  WELL HEAD N/S
 WHEW.m                  -0.67:  WELL HEAD E/W
 UTMX.m              538762.90:  UTM X
 UTMY.m             4431871.34:  UTM Y
 DFWL.m                   0.00:  DISTANCE FWL
 DFSL.m                   0.00:  DISTANCE FSL
 SDEP.m                4127.00:  START DEPTH
 TDD .m                5084.50:  TOTAL DEPTH (DRILLER)
 VSDR.deg               140.47:  VERT SEC DIRECT
 GVFD.g                   1.00:  GRAVITY FIELD
 MFLD.nT              50362.00:  MAGNETIC FIELD
 MDIP.deg                59.48:  MAGNETIC DIP
 MDEC.deg                 6.47:  MAGNETIC DECL
 GRDC.deg                 0.31:  GRID CORRECTION
 AZTC.deg                 6.16:  AZM TOTAL CORR
 EPD .m                   0.00:  ELEVATION
 EGL .m                   0.00:  GROUND ELEVATION
 WDMS.m                 151.80:  WD ELEV
 APD .m                  43.60:  DEPTH ABOVE PD
 DEP .m                4092.57:  DEPTH
 AGAP.m                  43.60:  AIR GAP
 VSEW.m                  -0.67:  VERT SEC E/W
 VSNS.m                  -7.04:  VERT SEC N/S
 EKB .m                  43.60:  KB ELEVATION
 EDF .m                  43.60:  DF ELEVATION
 TDL .m                 957.50:  TOTAL DEPTH (LOGGER)
 VSC .                       0:  VS TO CLOSURE
 MAGU.                 1851413:  MAGUTM CHECKSUM
~Parameter Information Block
#MNEM.UNIT       Value        Description
#---------     -----------    ---------------------------
 AV  .mps                 1.50:  Ann Velocity 
 AVMX.mps                 2.00:  Max Ann Veloc 
 AZIF.deg               184.66:  Azm, Final 
 BHAT.        Rotary Steerable:  BHA Type 
 BREV.rev               300.00:  Rev Bit Total 
 BROT.°/30m              -0.50:  Build Rotating 
 BS  .in                  8.50:  Bit Size 
 BSZ .in                  8.50:  Bit Size 
 BTPL.psig              370.00:  Bit Press Loss 
 CABU.                      No:  Customer Abuse 
 CGEO.      Behruz Shahbaliyev:  Customer Geo 
 COMM.                     ü;x:  Run Comments 1 
 TCS .hr                140.08:  Time Ciculation Ended 
 CV  .mps                 3.00:  Crit Velocity 
 CVMX.mps                 3.20:  Max Crit Veloc 
 DD1 .            Musa Ahmadov:  Direct Drillr 1 
 DD2 .           Hamid Ahmadov:  Direct Drillr 2 
 DDSV.               Geo-Pilot:  DD Service 
 DEFF.%                  98.40:  % Det Eff 
 DLRX.°/30m               3.40:  Dogleg Rot Max 
 DLSO.°/30m               1.45:  Dogleg Oriented 
 DLSX.°/30m               3.40:  Dogleg Str Max 
 DRET.      18.40.00 29-Aug-21:  Drill End Time 
 DRST.      21.00.00 20-Aug-21:  Drill Start Tim 
 DTIM.hr                 69.47:  Time Drilling 
 EDEP.m                5084.50:  End Depth 
 ENG1.      Artemiy Matviyanov:  Engineer 1 
 ENG2.         Almaz Almadatov:  Engineer 2 
 ETIM.      18.40.00 29-Aug-21:  End Time 
 FLOI.gpm               500.00:  Flow In 
 FLON.gpm               400.00:  Flow In Min 
 FLOS.cptm                0.00:  Fluid Loss 
 FLOX.gpm               500.00:  Flow In Max 
 DFT .        Mineral Oil Base:  Mud Type 
 HFLO.                      No:  High Flow 
 HPRE.                      No:  High Pressure 
 HTEM.                      No:  High Temp 
 HYDO.m                   1.80:  Hydro Offset 
 IFIN.deg                25.62:  Inc, Final 
 IMAX.deg                48.69:  Inc Max 
 IMIN.deg                24.01:  Inc Min 
 IMND.m                4962.57:  Inc Min Depth 
 IMXD.m                4119.01:  Inc Max Depth 
 JARR.                      No:  Jarring 
 LETM.      18.40.00 29-Aug-21:  Log End Time 
 LOST.hr                     0:  Lost Rig Time 
 LSTM.      21.00.00 20-Aug-21:  Log Start Time 
 MDCL.ppm             41500.00:  Mud Chlorides 
 MDES.     Inversion Oil/Synthetic:  Mud Desc 
 DFD .sg                  1.56:  Mud Density 
 MDMN.sg                  1.56:  Dens Mud Min 
 MDMX.sg                  1.56:  Dens Mud Max 
 MOIL.                      70:  Run Mud Oil % 
 MOWR.                   70:30:  Run Mud OWR 
 MSND.                     0.2:  Run Mud Sand % 
 MSOL.                    23.3:  Run Mud Solids% 
 DFV .spqt               78.00:  Mud Viscosity 
 MWOD.in                  6.75:  MWD Tool OD 
 MWSI.                      No:  Serv Intrp, MWD 
 OTIM.hr                218.30:  Time Operating 
 PCON.           Look Like New:  Pad Condition 
 PMAX.psia            11015.30:  Press Op, Max 
 PV  .cP                 38.00:  Mud PV 
 RUN .                     300:  Run Number 
 ROPA.m/hr               15.00:  ROP Avg 
 ROPN.m/hr                9.00:  ROP Min 
 ROPX.m/hr               17.00:  ROP Max 
 RPMA.rpm               120.00:  RPM Surface Avg 
 RPMN.rpm                90.00:  RPM Surface Min 
 RPMX.rpm               140.00:  RPM Surface Max 
 RRUN.                     300:  Rig Run Number 
 RTIM.hr                 31.53:  Time Reaming 
 SAZI.deg               331.64:  Azm, Start 
 SDEP.m                4127.00:  Start Depth 
 SIDD.                      No:  Serv Intrp, DD 
 SINC.deg                48.43:  Inc, Start 
 SPPA.psig             5830.00:  SPP Avg 
 SPPN.psig             5600.00:  SPP Min 
 SPPX.psig             5900.00:  SPP Max 
 STIM.      21.00.00 20-Aug-21:  Start Time 
 SVCS.                 DD, MWD:  Services 
 SVER.                    9.20:  Sperry Version 
 TDAT.m                 957.50:  Tot Depth Attmp 
 TDDF.                      No:  Trip for DD 
 TDLG.m                 957.50:  Tot Depth Loggd 
 TFF .                      No:  Trip for Fail 
 TQAA.f-kp               15.00:  Torque Abs Avg 
 TQAN.f-kp               12.00:  Torque Abs Min 
 TQAX.f-kp               19.00:  Torque Abs Max 
 TRRT.°/30m              -3.40:  Turn Rotating 
 MRT .                  EWR-M5:  Maximum Recorded Temperature 
 TTMX.degC              100.00:  Max Tool Temp 
 VS01.                90639251:  Virtual Str1 SN 
 VS02.                90634715:  Virtual Str2 SN 
 VS03.                90652479:  Virtual Str3 SN 
 VS04.                90642262:  Virtual Str4 SN 
 WBMN.klb                 0.00:  WOB Min 
 WITN.           Murad Guliyev:  Customer Rep 
 WITN.          Yashar Gaziyev:  Customer Rep 2 
 WOBA.klb                 9.00:  WOB Avg 
 WOBX.klb                12.00:  WOB Max 
 YP  .lhf2               30.00:  Yield Point 
~Curve Information Block
#MNEM.UNIT                 API CODE     Curve Description
#---------               -----------    ---------------------------
 TIME.HHMMSS            00 000 000 000:  GT Time & Date
 GTDEPTH.m              00 000 000 000:  GT Depth
 GTPQH.psia             00 000 000 000:  GT HR Quartz Pressure
 GTTQ.degC              00 000 000 000:  GT Quartz Temperature
 GTTN.NONE              00 000 000 000:  GT Test Number
 GTET.sec               00 000 000 000:  GT Elapsed Test Time
 GTTVD.m                00 000 000 000:  GT True Vertical Depth
#Other Information
#
#WARRANTY: Halliburton will use its best efforts to furnish customers with 
#accurate information and interpretations that are part of, and incident to, the services 
#provided.  However, Halliburton cannot and does not warrant the accuracy 
#or correctness of such information and interpretations.  Under no circumstances should any 
#such information or interpretation be relied upon as the sole basis for any drilling, 
#completion, production, or financial decision or any procedure involving any risk to the 
#safety of any drilling venture, drilling rig or its crew or any other third party.  The 
#Customer has full responsibility for all drilling, completion and production operation.  
#Halliburton makes no representations or warranties, either expressed or 
#implied, including, but not limited to, the implied warranties of merchantability or fitness 
#for a particular purpose, with respect to the services rendered.  In no event will 
#Halliburton be liable for failure to obtain any particular results or for 
#any damages, including, but not limited to, indirect, special or consequential damages, 
#resulting from the use of any information or interpretation provided by Halliburton.
#
~A           TIME           GTDEPTH  GTPQH  GTTQ  GTTN  GTET   GTTVD  
# ...
   08:09:44.756.27-Aug-2021 4992.50 4260.24 86.94 5.00 184.03 3332.84
   08:09:44.956.27-Aug-2021 4992.50 4260.24 86.94 5.00 184.23 3332.84
   08:09:45.156.27-Aug-2021 4992.50 4260.24 86.94 5.00 184.43 3332.84
   08:09:45.356.27-Aug-2021 4992.50 4260.25 86.94 5.00 184.63 3332.84
   08:09:45.556.27-Aug-2021 4992.50 4260.26 86.94 5.00 184.83 3332.84
   08:09:45.756.27-Aug-2021 4992.50 4260.26 86.94 5.00 185.03 3332.84
   08:09:45.956.27-Aug-2021 4992.50 4260.26 86.94 5.00 185.23 3332.84
   08:09:46.156.27-Aug-2021 4992.50 4260.21 86.94 5.00 185.43 3332.84
   08:09:46.356.27-Aug-2021 4992.50 4260.22 86.94 5.00 185.63 3332.84
   08:09:46.556.27-Aug-2021 4992.50 4260.22 86.94 5.00 185.83 3332.84
   08:09:46.756.27-Aug-2021 4992.50 4260.22 86.94 5.00 186.03 3332.84
   08:09:46.956.27-Aug-2021 4992.50 4260.22 86.94 5.00 186.23 3332.84
   08:09:47.156.27-Aug-2021 4992.50 4260.24 86.94 5.00 186.43 3332.84
   08:09:47.356.27-Aug-2021 4992.50 4260.25 86.94 5.00 186.63 3332.84
   08:09:47.556.27-Aug-2021 4992.50 4260.20 86.94 5.00 186.83 3332.84
   08:09:47.756.27-Aug-2021 4992.50 4260.23 86.94 5.00 187.03 3332.84
   08:09:47.956.27-Aug-2021 4992.50 4260.23 86.94 5.00 187.23 3332.84
   08:09:48.156.27-Aug-2021 4992.50 4260.25 86.94 5.00 187.43 3332.84
   08:09:48.356.27-Aug-2021 4992.50 4260.20 86.94 5.00 187.63 3332.84
   08:09:48.556.27-Aug-2021 4992.50 4260.23 86.94 5.00 187.83 3332.84
   08:09:48.756.27-Aug-2021 4992.50 4260.21 86.94 5.00 188.03 3332.84
   08:09:48.956.27-Aug-2021 4992.50 4260.21 86.94 5.00 188.23 3332.84
   08:09:49.156.27-Aug-2021 4992.50 4260.23 86.94 5.00 188.43 3332.84
   08:09:49.356.27-Aug-2021 4992.50 4260.27 86.94 5.00 188.63 3332.84
   08:09:49.557.27-Aug-2021 4992.50 4260.20 86.94 5.00 188.83 3332.84
   08:09:49.757.27-Aug-2021 4992.50 4260.23 86.94 5.00 189.03 3332.84
   08:09:49.957.27-Aug-2021 4992.50 4260.23 86.94 5.00 189.23 3332.84
   08:09:50.157.27-Aug-2021 4992.50 4260.23 86.94 5.00 189.43 3332.84
   08:09:50.357.27-Aug-2021 4992.50 4260.24 86.94 5.00 189.63 3332.84
   08:09:50.557.27-Aug-2021 4992.50 4260.24 86.94 5.00 189.83 3332.84
   08:09:50.757.27-Aug-2021 4992.50 4260.24 86.94 5.00 190.03 3332.84
   08:09:50.957.27-Aug-2021 4992.50 4260.24 86.94 5.00 190.23 3332.84
   08:09:51.157.27-Aug-2021 4992.50 4260.26 86.94 5.00 190.43 3332.84
   08:09:51.357.27-Aug-2021 4992.50 4260.26 86.94 5.00 190.63 3332.84
   08:09:51.557.27-Aug-2021 4992.50 4260.26 86.94 5.00 190.83 3332.84
   08:09:51.757.27-Aug-2021 4992.50 4260.27 86.94 5.00 191.03 3332.84
   08:09:51.957.27-Aug-2021 4992.50 4260.27 86.94 5.00 191.23 3332.84
   08:09:52.157.27-Aug-2021 4992.50 4260.27 86.94 5.00 191.43 3332.84
   08:09:52.357.27-Aug-2021 4992.50 4260.28 86.94 5.00 191.63 3332.84
   08:09:52.557.27-Aug-2021 4992.50 4260.28 86.94 5.00 191.83 3332.84
   08:09:52.757.27-Aug-2021 4992.50 4260.22 86.94 5.00 192.03 3332.84
   08:09:52.957.27-Aug-2021 4992.50 4260.22 86.94 5.00 192.23 3332.84
   08:09:53.157.27-Aug-2021 4992.50 4260.22 86.94 5.00 192.43 3332.84
   08:09:53.357.27-Aug-2021 4992.50 4260.24 86.94 5.00 192.63 3332.84
   08:09:53.557.27-Aug-2021 4992.50 4260.25 86.94 5.00 192.83 3332.84
   08:09:53.757.27-Aug-2021 4992.50 4260.25 86.94 5.00 193.03 3332.84
   08:09:53.957.27-Aug-2021 4992.50 4260.25 86.94 5.00 193.23 3332.84
   08:09:54.157.27-Aug-2021 4992.50 4260.26 86.94 5.00 193.43 3332.84
   08:09:54.357.27-Aug-2021 4992.50 4260.27 86.94 5.00 193.63 3332.84
   08:09:54.557.27-Aug-2021 4992.50 4260.28 86.94 5.00 193.83 3332.84
   08:09:54.757.27-Aug-2021 4992.50 4260.28 86.94 5.00 194.03 3332.84
   08:09:54.957.27-Aug-2021 4992.50 4260.28 86.94 5.00 194.23 3332.84
   08:09:55.157.27-Aug-2021 4992.50 4260.29 86.94 5.00 194.43 3332.84
   08:09:55.357.27-Aug-2021 4992.50 4260.29 86.94 5.00 194.63 3332.84
   08:09:55.558.27-Aug-2021 4992.50 4260.29 86.94 5.00 194.83 3332.84
   08:09:55.758.27-Aug-2021 4992.50 4260.33 86.94 5.00 195.03 3332.84
   08:09:55.958.27-Aug-2021 4992.50 4260.33 86.94 5.00 195.23 3332.84
   08:09:56.158.27-Aug-2021 4992.50 4260.25 86.94 5.00 195.43 3332.84
   08:09:56.358.27-Aug-2021 4992.50 4260.24 86.94 5.00 195.63 3332.84
   08:09:56.558.27-Aug-2021 4992.50 4260.25 86.94 5.00 195.83 3332.84
   08:09:56.758.27-Aug-2021 4992.50 4260.27 86.94 5.00 196.03 3332.84
   08:09:56.958.27-Aug-2021 4992.50 4260.27 86.94 5.00 196.23 3332.84
   08:09:57.158.27-Aug-2021 4992.50 4260.28 86.94 5.00 196.43 3332.84
   08:09:57.358.27-Aug-2021 4992.50 4260.23 86.94 5.00 196.63 3332.84
   08:09:57.558.27-Aug-2021 4992.50 4260.26 86.94 5.00 196.83 3332.84
   08:09:57.758.27-Aug-2021 4992.50 4260.25 86.94 5.00 197.03 3332.84
   08:09:57.958.27-Aug-2021 4992.50 4260.25 86.94 5.00 197.23 3332.84
   08:09:58.158.27-Aug-2021 4992.50 4260.23 86.94 5.00 197.43 3332.84
   08:09:58.358.27-Aug-2021 4992.50 4260.25 86.94 5.00 197.63 3332.84
   08:09:58.558.27-Aug-2021 4992.50 4260.24 86.94 5.00 197.83 3332.84
   08:09:58.758.27-Aug-2021 4992.50 4260.25 86.94 5.00 198.03 3332.84
   08:09:58.958.27-Aug-2021 4992.50 4260.25 86.94 5.00 198.23 3332.84
   08:09:59.158.27-Aug-2021 4992.50 4260.28 86.94 5.00 198.43 3332.84
   08:09:59.358.27-Aug-2021 4992.50 4260.24 86.94 5.00 198.63 3332.84
   08:09:59.558.27-Aug-2021 4992.50 4260.24 86.94 5.00 198.83 3332.84
   08:09:59.758.27-Aug-2021 4992.50 4260.23 86.94 5.00 199.03 3332.84
   08:09:59.958.27-Aug-2021 4992.50 4260.23 86.94 5.00 199.23 3332.84
   08:10:00.158.27-Aug-2021 4992.50 4260.25 86.94 5.00 199.43 3332.84
   08:10:00.358.27-Aug-2021 4992.50 4260.26 86.94 5.00 199.63 3332.84
   08:10:00.558.27-Aug-2021 4992.50 4260.26 86.94 5.00 199.83 3332.84
   08:10:00.758.27-Aug-2021 4992.50 4260.27 86.94 5.00 200.03 3332.84
   08:10:00.958.27-Aug-2021 4992.50 4260.27 86.94 5.00 200.23 3332.84
   08:10:01.158.27-Aug-2021 4992.50 4260.28 86.94 5.00 200.43 3332.84
   08:10:01.358.27-Aug-2021 4992.50 4260.28 86.94 5.00 200.63 3332.84
   08:10:01.559.27-Aug-2021 4992.50 4260.29 86.94 5.00 200.83 3332.84
   08:10:01.759.27-Aug-2021 4992.50 4260.29 86.94 5.00 201.03 3332.84
   08:10:01.959.27-Aug-2021 4992.50 4260.29 86.94 5.00 201.23 3332.84
   08:10:02.159.27-Aug-2021 4992.50 4260.30 86.94 5.00 201.43 3332.84
   08:10:02.359.27-Aug-2021 4992.50 4260.31 86.94 5.00 201.63 3332.84
   08:10:02.559.27-Aug-2021 4992.50 4260.24 86.94 5.00 201.83 3332.84
   08:10:02.759.27-Aug-2021 4992.50 4260.28 86.94 5.00 202.03 3332.84
   08:10:02.959.27-Aug-2021 4992.50 4260.28 86.94 5.00 202.23 3332.84
   08:10:03.159.27-Aug-2021 4992.50 4260.27 86.94 5.00 202.43 3332.84
   08:10:03.359.27-Aug-2021 4992.50 4260.27 86.94 5.00 202.63 3332.84
   08:10:03.559.27-Aug-2021 4992.50 4260.27 86.94 5.00 202.83 3332.84
   08:10:03.759.27-Aug-2021 4992.50 4260.28 86.94 5.00 203.03 3332.84
   08:10:03.959.27-Aug-2021 4992.50 4260.28 86.94 5.00 203.23 3332.84
   08:10:04.159.27-Aug-2021 4992.50 4260.30 86.94 5.00 203.43 3332.84
   08:10:04.359.27-Aug-2021 4992.50 4260.30 86.94 5.00 203.63 3332.84
   08:10:04.559.27-Aug-2021 4992.50 4260.31 86.94 5.00 203.83 3332.84
   08:10:04.759.27-Aug-2021 4992.50 4260.31 86.94 5.00 204.03 3332.84
   08:10:04.959.27-Aug-2021 4992.50 4260.31 86.94 5.00 204.23 3332.84
   08:10:05.159.27-Aug-2021 4992.50 4260.31 86.94 5.00 204.43 3332.84
   08:10:05.359.27-Aug-2021 4992.50 4260.32 86.94 5.00 204.63 3332.84
   08:10:05.559.27-Aug-2021 4992.50 4260.35 86.94 5.00 204.83 3332.84
   08:10:05.759.27-Aug-2021 4992.50 4260.27 86.94 5.00 205.03 3332.84
   08:10:05.959.27-Aug-2021 4992.50 4260.27 86.94 5.00 205.23 3332.84
   08:10:06.159.27-Aug-2021 4992.50 4260.27 86.94 5.00 205.43 3332.84
   08:10:06.359.27-Aug-2021 4992.50 4260.28 86.94 5.00 205.63 3332.84
   08:10:06.559.27-Aug-2021 4992.50 4260.29 86.94 5.00 205.83 3332.84
   08:10:06.759.27-Aug-2021 4992.50 4260.29 86.94 5.00 206.03 3332.84
   08:10:06.959.27-Aug-2021 4992.50 4260.29 86.94 5.00 206.23 3332.84
   08:10:07.159.27-Aug-2021 4992.50 4260.24 86.94 5.00 206.43 3332.84
   08:10:07.359.27-Aug-2021 4992.50 4260.28 86.94 5.00 206.63 3332.84
   08:10:07.559.27-Aug-2021 4992.50 4260.26 86.94 5.00 206.83 3332.84
