~Version Information
 VERS.                  2.0:   CWLS log ASCII Standard -VERSION 2.0
 WRAP.                   NO:   One line per depth step
~Well Information Block
#MNEM.UNIT     VALUE/NAME     DESCRIPTION
#---------     -----------    ---------------------------
 STRT.S             13:07:39 27-Aug-21: START TIME 13:07:39 27-Aug-21
 STOP.S             13:14:54 27-Aug-21: STOP TIME  13:14:54 27-Aug-21
 STEP.S                   0.00: STEP TIME
 NULL.                 -999.25: NULL VALUE
 DFWT.                        :  DIST FWL TEXT
 DFST.                        :  DIST FSL TEXT
 DMF .             Drill Floor:  DRILL MEAS FROM
 STIM.      20.00.00 17-Aug-21:  START TIME
 DATE.      19.00.00 29-Aug-21:  END TIME
 SPUD.               15-Aug-21:  SPUD DATE
 NREF.                    Grid:  NORTH REFERENCE
 HPTY.       Minimum Curvature:  HOLE POS TYPE
 DMOD.             Drill Model:  DRILL MOD DESC
 SVYD.                  Survey:  SURVEY DESC
 ILTD.               Lithology:  INTERP LTH DESC
 FTOP.          Formation Tops:  FORM TOPS DESC
 RIG .              East Azeri:  RIG NAME
 PDAT.          Mean Sea Level:  PERMANENT DATUM
 FLD .                     ACG:  FIELD NAME
 SON .        AZ-XX-0907180857:  JOB NUMBER
 CTRY.              Azerbaijan:  COUNTRY NAME
 WELL.                    D23x:  WELL NAME
 SRVC.     Turan Drilling and Engineering:  CONTRACTOR
 COMP.     BP Exploration (Caspian Sea) Ltd.:  COMPANY
 UWI .            /AZE00000214:  UNIQUE WELL IDENTIFIER
 API .            /AZE00000214:  API NUMBER
 MDS .        Operator Entered:  MAG DATA SOURCE
 BASE.              Azerbaijan:  LOGGING EQUIPMENT BASE LOCATION
 REGN.                   EESSA:  REGION
 PROV.                    Baku:  PROVINCE
 STAT.                    Baku:  STATE NAME
 MWDS.                    Baku:  MWD SHOP
 DOE .                     N/A:  DOE NUMBER
 DCON.         Sperry Drilling:  DIRECTNL CONTR
 UNIT.                     N/A:  LOGGING EQUIPMENT ID
 WTYP.                Deviated:  WELL TYPE
 CNTY.                        :  COUNTY
 LOC .                        :  LOCATION
 LMF .             Drill Floor:  LOG MEASURED FROM
 TVDS.m                  43.60:  TVDSS CORRECTN
 LATI.deg                40.02:  LATITUDE
 LONG.deg                51.45:  LONGITUDE
 WHNS.m                  -7.04:  WELL HEAD N/S
 WHEW.m                  -0.67:  WELL HEAD E/W
 UTMX.m              538762.90:  UTM X
 UTMY.m             4431871.34:  UTM Y
 DFWL.m                   0.00:  DISTANCE FWL
 DFSL.m                   0.00:  DISTANCE FSL
 SDEP.m                4127.00:  START DEPTH
 TDD .m                5084.50:  TOTAL DEPTH (DRILLER)
 VSDR.deg               140.47:  VERT SEC DIRECT
 GVFD.g                   1.00:  GRAVITY FIELD
 MFLD.nT              50362.00:  MAGNETIC FIELD
 MDIP.deg                59.48:  MAGNETIC DIP
 MDEC.deg                 6.47:  MAGNETIC DECL
 GRDC.deg                 0.31:  GRID CORRECTION
 AZTC.deg                 6.16:  AZM TOTAL CORR
 EPD .m                   0.00:  ELEVATION
 EGL .m                   0.00:  GROUND ELEVATION
 WDMS.m                 151.80:  WD ELEV
 APD .m                  43.60:  DEPTH ABOVE PD
 DEP .m                4092.57:  DEPTH
 AGAP.m                  43.60:  AIR GAP
 VSEW.m                  -0.67:  VERT SEC E/W
 VSNS.m                  -7.04:  VERT SEC N/S
 EKB .m                  43.60:  KB ELEVATION
 EDF .m                  43.60:  DF ELEVATION
 TDL .m                 957.50:  TOTAL DEPTH (LOGGER)
 VSC .                       0:  VS TO CLOSURE
 MAGU.                 1851413:  MAGUTM CHECKSUM
~Parameter Information Block
#MNEM.UNIT       Value        Description
#---------     -----------    ---------------------------
 AV  .mps                 1.50:  Ann Velocity 
 AVMX.mps                 2.00:  Max Ann Veloc 
 AZIF.deg               184.66:  Azm, Final 
 BHAT.        Rotary Steerable:  BHA Type 
 BREV.rev               300.00:  Rev Bit Total 
 BROT.°/30m              -0.50:  Build Rotating 
 BS  .in                  8.50:  Bit Size 
 BSZ .in                  8.50:  Bit Size 
 BTPL.psig              370.00:  Bit Press Loss 
 CABU.                      No:  Customer Abuse 
 CGEO.      Behruz Shahbaliyev:  Customer Geo 
 COMM.                     ¤R:  Run Comments 1 
 TCS .hr                140.08:  Time Ciculation Ended 
 CV  .mps                 3.00:  Crit Velocity 
 CVMX.mps                 3.20:  Max Crit Veloc 
 DD1 .            Musa Ahmadov:  Direct Drillr 1 
 DD2 .           Hamid Ahmadov:  Direct Drillr 2 
 DDSV.               Geo-Pilot:  DD Service 
 DEFF.%                  98.40:  % Det Eff 
 DLRX.°/30m               3.40:  Dogleg Rot Max 
 DLSO.°/30m               1.45:  Dogleg Oriented 
 DLSX.°/30m               3.40:  Dogleg Str Max 
 DRET.      18.40.00 29-Aug-21:  Drill End Time 
 DRST.      21.00.00 20-Aug-21:  Drill Start Tim 
 DTIM.hr                 69.47:  Time Drilling 
 EDEP.m                5084.50:  End Depth 
 ENG1.      Artemiy Matviyanov:  Engineer 1 
 ENG2.         Almaz Almadatov:  Engineer 2 
 ETIM.      18.40.00 29-Aug-21:  End Time 
 FLOI.gpm               500.00:  Flow In 
 FLON.gpm               400.00:  Flow In Min 
 FLOS.cptm                0.00:  Fluid Loss 
 FLOX.gpm               500.00:  Flow In Max 
 DFT .        Mineral Oil Base:  Mud Type 
 HFLO.                      No:  High Flow 
 HPRE.                      No:  High Pressure 
 HTEM.                      No:  High Temp 
 HYDO.m                   1.80:  Hydro Offset 
 IFIN.deg                25.62:  Inc, Final 
 IMAX.deg                48.69:  Inc Max 
 IMIN.deg                24.01:  Inc Min 
 IMND.m                4962.57:  Inc Min Depth 
 IMXD.m                4119.01:  Inc Max Depth 
 JARR.                      No:  Jarring 
 LETM.      18.40.00 29-Aug-21:  Log End Time 
 LOST.hr                     0:  Lost Rig Time 
 LSTM.      21.00.00 20-Aug-21:  Log Start Time 
 MDCL.ppm             41500.00:  Mud Chlorides 
 MDES.     Inversion Oil/Synthetic:  Mud Desc 
 DFD .sg                  1.56:  Mud Density 
 MDMN.sg                  1.56:  Dens Mud Min 
 MDMX.sg                  1.56:  Dens Mud Max 
 MOIL.                      70:  Run Mud Oil % 
 MOWR.                   70:30:  Run Mud OWR 
 MSND.                     0.2:  Run Mud Sand % 
 MSOL.                    23.3:  Run Mud Solids% 
 DFV .spqt               78.00:  Mud Viscosity 
 MWOD.in                  6.75:  MWD Tool OD 
 MWSI.                      No:  Serv Intrp, MWD 
 OTIM.hr                218.30:  Time Operating 
 PCON.           Look Like New:  Pad Condition 
 PMAX.psia            11015.30:  Press Op, Max 
 PV  .cP                 38.00:  Mud PV 
 RUN .                     300:  Run Number 
 ROPA.m/hr               15.00:  ROP Avg 
 ROPN.m/hr                9.00:  ROP Min 
 ROPX.m/hr               17.00:  ROP Max 
 RPMA.rpm               120.00:  RPM Surface Avg 
 RPMN.rpm                90.00:  RPM Surface Min 
 RPMX.rpm               140.00:  RPM Surface Max 
 RRUN.                     300:  Rig Run Number 
 RTIM.hr                 31.53:  Time Reaming 
 SAZI.deg               331.64:  Azm, Start 
 SDEP.m                4127.00:  Start Depth 
 SIDD.                      No:  Serv Intrp, DD 
 SINC.deg                48.43:  Inc, Start 
 SPPA.psig             5830.00:  SPP Avg 
 SPPN.psig             5600.00:  SPP Min 
 SPPX.psig             5900.00:  SPP Max 
 STIM.      21.00.00 20-Aug-21:  Start Time 
 SVCS.                 DD, MWD:  Services 
 SVER.                    9.20:  Sperry Version 
 TDAT.m                 957.50:  Tot Depth Attmp 
 TDDF.                      No:  Trip for DD 
 TDLG.m                 957.50:  Tot Depth Loggd 
 TFF .                      No:  Trip for Fail 
 TQAA.f-kp               15.00:  Torque Abs Avg 
 TQAN.f-kp               12.00:  Torque Abs Min 
 TQAX.f-kp               19.00:  Torque Abs Max 
 TRRT.°/30m              -3.40:  Turn Rotating 
 MRT .                  EWR-M5:  Maximum Recorded Temperature 
 TTMX.degC              100.00:  Max Tool Temp 
 VS01.                90639251:  Virtual Str1 SN 
 VS02.                90634715:  Virtual Str2 SN 
 VS03.                90652479:  Virtual Str3 SN 
 VS04.                90642262:  Virtual Str4 SN 
 WBMN.klb                 0.00:  WOB Min 
 WITN.           Murad Guliyev:  Customer Rep 
 WITN.          Yashar Gaziyev:  Customer Rep 2 
 WOBA.klb                 9.00:  WOB Avg 
 WOBX.klb                12.00:  WOB Max 
 YP  .lhf2               30.00:  Yield Point 
~Curve Information Block
#MNEM.UNIT                 API CODE     Curve Description
#---------               -----------    ---------------------------
 TIME.HHMMSS            00 000 000 000:  GT Time & Date
 GTDEPTH.m              00 000 000 000:  GT Depth
 GTPQH.psia             00 000 000 000:  GT HR Quartz Pressure
 GTTQ.degC              00 000 000 000:  GT Quartz Temperature
 GTTN.NONE              00 000 000 000:  GT Test Number
 GTET.sec               00 000 000 000:  GT Elapsed Test Time
 GTTVD.m                00 000 000 000:  GT True Vertical Depth
#Other Information
#
#WARRANTY: Halliburton will use its best efforts to furnish customers with 
#accurate information and interpretations that are part of, and incident to, the services 
#provided.  However, Halliburton cannot and does not warrant the accuracy 
#or correctness of such information and interpretations.  Under no circumstances should any 
#such information or interpretation be relied upon as the sole basis for any drilling, 
#completion, production, or financial decision or any procedure involving any risk to the 
#safety of any drilling venture, drilling rig or its crew or any other third party.  The 
#Customer has full responsibility for all drilling, completion and production operation.  
#Halliburton makes no representations or warranties, either expressed or 
#implied, including, but not limited to, the implied warranties of merchantability or fitness 
#for a particular purpose, with respect to the services rendered.  In no event will 
#Halliburton be liable for failure to obtain any particular results or for 
#any damages, including, but not limited to, indirect, special or consequential damages, 
#resulting from the use of any information or interpretation provided by Halliburton.
#
~A           TIME           GTDEPTH  GTPQH  GTTQ  GTTN   GTET   GTTVD  
# ...
   13:09:10.423.27-Aug-2021 4901.50 5051.76 84.97 13.00  90.49 3249.95
   13:09:10.623.27-Aug-2021 4901.50 5051.80 84.97 13.00  90.69 3249.95
   13:09:10.823.27-Aug-2021 4901.50 5051.74 84.97 13.00  90.89 3249.95
   13:09:11.024.27-Aug-2021 4901.50 5051.69 84.97 13.00  91.09 3249.95
   13:09:11.224.27-Aug-2021 4901.50 5051.69 84.97 13.00  91.29 3249.95
   13:09:11.424.27-Aug-2021 4901.50 5051.68 84.97 13.00  91.49 3249.95
   13:09:11.624.27-Aug-2021 4901.50 5051.70 84.97 13.00  91.69 3249.95
   13:09:11.824.27-Aug-2021 4901.50 5051.71 84.97 13.00  91.89 3249.95
   13:09:12.025.27-Aug-2021 4901.50 5051.62 84.97 13.00  92.09 3249.95
   13:09:12.225.27-Aug-2021 4901.50 5051.62 84.97 13.00  92.29 3249.95
   13:09:12.425.27-Aug-2021 4901.50 5051.67 84.97 13.00  92.49 3249.95
   13:09:12.625.27-Aug-2021 4901.50 5051.69 84.97 13.00  92.69 3249.95
   13:09:12.825.27-Aug-2021 4901.50 5051.67 84.97 13.00  92.89 3249.95
   13:09:13.026.27-Aug-2021 4901.50 5051.67 84.97 13.00  93.09 3249.95
   13:09:13.226.27-Aug-2021 4901.50 5051.67 84.97 13.00  93.29 3249.95
   13:09:13.426.27-Aug-2021 4901.50 5051.64 84.97 13.00  93.50 3249.95
   13:09:13.626.27-Aug-2021 4901.50 5051.69 84.97 13.00  93.70 3249.95
   13:09:13.826.27-Aug-2021 4901.50 5051.71 84.97 13.00  93.90 3249.95
   13:09:14.027.27-Aug-2021 4901.50 5051.73 84.97 13.00  94.10 3249.95
   13:09:14.227.27-Aug-2021 4901.50 5051.73 84.97 13.00  94.30 3249.95
   13:09:14.427.27-Aug-2021 4901.50 5051.79 84.97 13.00  94.50 3249.95
   13:09:14.627.27-Aug-2021 4901.50 5051.81 84.97 13.00  94.70 3249.95
   13:09:14.827.27-Aug-2021 4901.50 5051.82 84.97 13.00  94.90 3249.95
   13:09:15.028.27-Aug-2021 4901.50 5051.85 84.97 13.00  95.10 3249.95
   13:09:15.228.27-Aug-2021 4901.50 5051.85 84.97 13.00  95.30 3249.95
   13:09:15.428.27-Aug-2021 4901.50 5051.88 84.97 13.00  95.50 3249.95
   13:09:15.628.27-Aug-2021 4901.50 5051.90 84.97 13.00  95.70 3249.95
   13:09:15.828.27-Aug-2021 4901.50 5051.90 84.97 13.00  95.90 3249.95
   13:09:16.029.27-Aug-2021 4901.50 5051.83 84.97 13.00  96.10 3249.95
   13:09:16.229.27-Aug-2021 4901.50 5051.83 84.97 13.00  96.30 3249.95
   13:09:16.429.27-Aug-2021 4901.50 5051.68 84.97 13.00  96.50 3249.95
   13:09:16.629.27-Aug-2021 4901.50 5051.69 84.97 13.00  96.70 3249.95
   13:09:16.829.27-Aug-2021 4901.50 5051.72 84.97 13.00  96.90 3249.95
   13:09:17.030.27-Aug-2021 4901.50 5051.74 84.97 13.00  97.10 3249.95
   13:09:17.230.27-Aug-2021 4901.50 5051.74 84.97 13.00  97.30 3249.95
   13:09:17.430.27-Aug-2021 4901.50 5051.80 84.97 13.00  97.50 3249.95
   13:09:17.630.27-Aug-2021 4901.50 5051.82 84.97 13.00  97.70 3249.95
   13:09:17.831.27-Aug-2021 4901.50 5051.84 84.97 13.00  97.90 3249.95
   13:09:18.031.27-Aug-2021 4901.50 5051.86 84.97 13.00  98.10 3249.95
   13:09:18.231.27-Aug-2021 4901.50 5051.86 84.97 13.00  98.30 3249.95
   13:09:18.431.27-Aug-2021 4901.50 5051.90 84.97 13.00  98.50 3249.95
   13:09:18.631.27-Aug-2021 4901.50 5051.91 84.97 13.00  98.70 3249.95
   13:09:18.832.27-Aug-2021 4901.50 5051.93 84.97 13.00  98.90 3249.95
   13:09:19.032.27-Aug-2021 4901.50 5051.92 84.97 13.00  99.10 3249.95
   13:09:19.232.27-Aug-2021 4901.50 5051.92 84.97 13.00  99.30 3249.95
   13:09:19.432.27-Aug-2021 4901.50 5051.77 84.97 13.00  99.50 3249.95
   13:09:19.632.27-Aug-2021 4901.50 5051.72 84.97 13.00  99.70 3249.95
   13:09:19.833.27-Aug-2021 4901.50 5051.68 84.97 13.00  99.90 3249.95
   13:09:20.033.27-Aug-2021 4901.50 5051.71 84.97 13.00 100.10 3249.95
   13:09:20.233.27-Aug-2021 4901.50 5051.71 84.97 13.00 100.30 3249.95
   13:09:20.433.27-Aug-2021 4901.50 5051.76 84.97 13.00 100.50 3249.95
   13:09:20.633.27-Aug-2021 4901.50 5051.78 84.97 13.00 100.70 3249.95
   13:09:20.834.27-Aug-2021 4901.50 5051.76 84.97 13.00 100.90 3249.95
   13:09:21.034.27-Aug-2021 4901.50 5051.67 84.97 13.00 101.10 3249.95
   13:09:21.234.27-Aug-2021 4901.50 5051.67 84.97 13.00 101.30 3249.95
   13:09:21.434.27-Aug-2021 4901.50 5051.70 84.97 13.00 101.50 3249.95
   13:09:21.634.27-Aug-2021 4901.50 5051.70 84.97 13.00 101.70 3249.95
   13:09:21.835.27-Aug-2021 4901.50 5051.69 84.97 13.00 101.90 3249.95
   13:09:22.035.27-Aug-2021 4901.50 5051.69 84.97 13.00 102.10 3249.95
   13:09:22.235.27-Aug-2021 4901.50 5051.69 84.97 13.00 102.30 3249.95
   13:09:22.435.27-Aug-2021 4901.50 5051.68 84.97 13.00 102.50 3249.95
   13:09:22.635.27-Aug-2021 4901.50 5051.70 84.97 13.00 102.70 3249.95
   13:09:22.836.27-Aug-2021 4901.50 5051.70 84.97 13.00 102.90 3249.95
   13:09:23.036.27-Aug-2021 4901.50 5051.65 84.97 13.00 103.10 3249.95
   13:09:23.236.27-Aug-2021 4901.50 5051.65 84.97 13.00 103.31 3249.95
   13:09:23.436.27-Aug-2021 4901.50 5051.67 84.97 13.00 103.51 3249.95
   13:09:23.636.27-Aug-2021 4901.50 5051.68 84.97 13.00 103.71 3249.95
   13:09:23.837.27-Aug-2021 4901.50 5051.71 84.97 13.00 103.91 3249.95
   13:09:24.037.27-Aug-2021 4901.50 5051.72 84.97 13.00 104.11 3249.95
   13:09:24.237.27-Aug-2021 4901.50 5051.72 84.97 13.00 104.31 3249.95
   13:09:24.437.27-Aug-2021 4901.50 5051.76 84.97 13.00 104.51 3249.95
   13:09:24.637.27-Aug-2021 4901.50 5051.77 84.97 13.00 104.71 3249.95
   13:09:24.838.27-Aug-2021 4901.50 5051.79 84.97 13.00 104.91 3249.95
   13:09:25.038.27-Aug-2021 4901.50 5051.80 84.97 13.00 105.11 3249.95
   13:09:25.238.27-Aug-2021 4901.50 5051.80 84.97 13.00 105.31 3249.95
   13:09:25.438.27-Aug-2021 4901.50 5051.83 84.97 13.00 105.51 3249.95
   13:09:25.638.27-Aug-2021 4901.50 5051.84 84.97 13.00 105.71 3249.95
   13:09:25.839.27-Aug-2021 4901.50 5051.85 84.97 13.00 105.91 3249.95
   13:09:26.039.27-Aug-2021 4901.50 5051.75 84.97 13.00 106.11 3249.95
   13:09:26.239.27-Aug-2021 4901.50 5051.75 84.97 13.00 106.31 3249.95
   13:09:26.439.27-Aug-2021 4901.50 5051.68 84.97 13.00 106.51 3249.95
   13:09:26.639.27-Aug-2021 4901.50 5051.70 84.97 13.00 106.71 3249.95
   13:09:26.840.27-Aug-2021 4901.50 5051.72 84.97 13.00 106.91 3249.95
   13:09:27.040.27-Aug-2021 4901.50 5051.74 84.97 13.00 107.11 3249.95
   13:09:27.240.27-Aug-2021 4901.50 5051.74 84.97 13.00 107.31 3249.95
   13:09:27.440.27-Aug-2021 4901.50 5051.77 84.97 13.00 107.51 3249.95
   13:09:27.640.27-Aug-2021 4901.50 5051.79 84.97 13.00 107.71 3249.95
   13:09:27.841.27-Aug-2021 4901.50 5051.81 84.97 13.00 107.91 3249.95
   13:09:28.041.27-Aug-2021 4901.50 5051.83 84.97 13.00 108.11 3249.95
   13:09:28.241.27-Aug-2021 4901.50 5051.83 84.97 13.00 108.31 3249.95
   13:09:28.441.27-Aug-2021 4901.50 5051.85 84.97 13.00 108.51 3249.95
   13:09:28.642.27-Aug-2021 4901.50 5051.85 84.97 13.00 108.71 3249.95
   13:09:28.842.27-Aug-2021 4901.50 5051.88 84.97 13.00 108.91 3249.95
   13:09:29.042.27-Aug-2021 4901.50 5051.88 84.97 13.00 109.11 3249.95
   13:09:29.242.27-Aug-2021 4901.50 5051.88 84.97 13.00 109.31 3249.95
   13:09:29.442.27-Aug-2021 4901.50 5051.86 84.97 13.00 109.51 3249.95
   13:09:29.643.27-Aug-2021 4901.50 5051.68 84.97 13.00 109.71 3249.95
   13:09:29.843.27-Aug-2021 4901.50 5051.70 84.97 13.00 109.91 3249.95
   13:09:30.043.27-Aug-2021 4901.50 5051.71 84.97 13.00 110.11 3249.95
   13:09:30.243.27-Aug-2021 4901.50 5051.71 84.97 13.00 110.31 3249.95
   13:09:30.443.27-Aug-2021 4901.50 5051.73 84.97 13.00 110.51 3249.95
   13:09:30.644.27-Aug-2021 4901.50 5051.77 84.97 13.00 110.71 3249.95
   13:09:30.844.27-Aug-2021 4901.50 5051.71 84.97 13.00 110.91 3249.95
   13:09:31.044.27-Aug-2021 4901.50 5051.72 84.97 13.00 111.11 3249.95
   13:09:31.244.27-Aug-2021 4901.50 5051.72 84.97 13.00 111.31 3249.95
   13:09:31.444.27-Aug-2021 4901.50 5051.70 84.97 13.00 111.51 3249.95
   13:09:31.645.27-Aug-2021 4901.50 5051.62 84.97 13.00 111.71 3249.95
   13:09:31.845.27-Aug-2021 4901.50 5051.81 84.97 13.00 111.91 3249.95
   13:09:32.045.27-Aug-2021 4901.50 5051.65 84.97 13.00 112.11 3249.95
   13:09:32.245.27-Aug-2021 4901.50 5051.65 84.97 13.00 112.31 3249.95
   13:09:32.445.27-Aug-2021 4901.50 5051.67 84.97 13.00 112.51 3249.95
   13:09:32.646.27-Aug-2021 4901.50 5051.71 84.97 13.00 112.71 3249.95
   13:09:32.846.27-Aug-2021 4901.50 5051.67 84.97 13.00 112.91 3249.95
