~Version Information
 VERS.                  2.0:   CWLS log ASCII Standard -VERSION 2.0
 WRAP.                   NO:   One line per depth step
~Well Information Block
#MNEM.UNIT     VALUE/NAME     DESCRIPTION
#---------     -----------    ---------------------------
 STRT.S             09:25:17 27-Aug-21: START TIME 09:25:17 27-Aug-21
 STOP.S             09:32:27 27-Aug-21: STOP TIME  09:32:27 27-Aug-21
 STEP.S                   0.00: STEP TIME
 NULL.                 -999.25: NULL VALUE
 DFWT.                        :  DIST FWL TEXT
 DFST.                        :  DIST FSL TEXT
 DMF .             Drill Floor:  DRILL MEAS FROM
 STIM.      20.00.00 17-Aug-21:  START TIME
 DATE.      19.00.00 29-Aug-21:  END TIME
 SPUD.               15-Aug-21:  SPUD DATE
 NREF.                    Grid:  NORTH REFERENCE
 HPTY.       Minimum Curvature:  HOLE POS TYPE
 DMOD.             Drill Model:  DRILL MOD DESC
 SVYD.                  Survey:  SURVEY DESC
 ILTD.               Lithology:  INTERP LTH DESC
 FTOP.          Formation Tops:  FORM TOPS DESC
 RIG .              East Azeri:  RIG NAME
 PDAT.          Mean Sea Level:  PERMANENT DATUM
 FLD .                     ACG:  FIELD NAME
 SON .        AZ-XX-0907180857:  JOB NUMBER
 CTRY.              Azerbaijan:  COUNTRY NAME
 WELL.                    D23x:  WELL NAME
 SRVC.     Turan Drilling and Engineering:  CONTRACTOR
 COMP.     BP Exploration (Caspian Sea) Ltd.:  COMPANY
 UWI .            /AZE00000214:  UNIQUE WELL IDENTIFIER
 API .            /AZE00000214:  API NUMBER
 MDS .        Operator Entered:  MAG DATA SOURCE
 BASE.              Azerbaijan:  LOGGING EQUIPMENT BASE LOCATION
 REGN.                   EESSA:  REGION
 PROV.                    Baku:  PROVINCE
 STAT.                    Baku:  STATE NAME
 MWDS.                    Baku:  MWD SHOP
 DOE .                     N/A:  DOE NUMBER
 DCON.         Sperry Drilling:  DIRECTNL CONTR
 UNIT.                     N/A:  LOGGING EQUIPMENT ID
 WTYP.                Deviated:  WELL TYPE
 CNTY.                        :  COUNTY
 LOC .                        :  LOCATION
 LMF .             Drill Floor:  LOG MEASURED FROM
 TVDS.m                  43.60:  TVDSS CORRECTN
 LATI.deg                40.02:  LATITUDE
 LONG.deg                51.45:  LONGITUDE
 WHNS.m                  -7.04:  WELL HEAD N/S
 WHEW.m                  -0.67:  WELL HEAD E/W
 UTMX.m              538762.90:  UTM X
 UTMY.m             4431871.34:  UTM Y
 DFWL.m                   0.00:  DISTANCE FWL
 DFSL.m                   0.00:  DISTANCE FSL
 SDEP.m                4127.00:  START DEPTH
 TDD .m                5084.50:  TOTAL DEPTH (DRILLER)
 VSDR.deg               140.47:  VERT SEC DIRECT
 GVFD.g                   1.00:  GRAVITY FIELD
 MFLD.nT              50362.00:  MAGNETIC FIELD
 MDIP.deg                59.48:  MAGNETIC DIP
 MDEC.deg                 6.47:  MAGNETIC DECL
 GRDC.deg                 0.31:  GRID CORRECTION
 AZTC.deg                 6.16:  AZM TOTAL CORR
 EPD .m                   0.00:  ELEVATION
 EGL .m                   0.00:  GROUND ELEVATION
 WDMS.m                 151.80:  WD ELEV
 APD .m                  43.60:  DEPTH ABOVE PD
 DEP .m                4092.57:  DEPTH
 AGAP.m                  43.60:  AIR GAP
 VSEW.m                  -0.67:  VERT SEC E/W
 VSNS.m                  -7.04:  VERT SEC N/S
 EKB .m                  43.60:  KB ELEVATION
 EDF .m                  43.60:  DF ELEVATION
 TDL .m                 957.50:  TOTAL DEPTH (LOGGER)
 VSC .                       0:  VS TO CLOSURE
 MAGU.                 1851413:  MAGUTM CHECKSUM
~Parameter Information Block
#MNEM.UNIT       Value        Description
#---------     -----------    ---------------------------
 AV  .mps                 1.50:  Ann Velocity 
 AVMX.mps                 2.00:  Max Ann Veloc 
 AZIF.deg               184.66:  Azm, Final 
 BHAT.        Rotary Steerable:  BHA Type 
 BREV.rev               300.00:  Rev Bit Total 
 BROT.°/30m              -0.50:  Build Rotating 
 BS  .in                  8.50:  Bit Size 
 BSZ .in                  8.50:  Bit Size 
 BTPL.psig              370.00:  Bit Press Loss 
 CABU.                      No:  Customer Abuse 
 CGEO.      Behruz Shahbaliyev:  Customer Geo 
 COMM.                     TD\:  Run Comments 1 
 TCS .hr                140.08:  Time Ciculation Ended 
 CV  .mps                 3.00:  Crit Velocity 
 CVMX.mps                 3.20:  Max Crit Veloc 
 DD1 .            Musa Ahmadov:  Direct Drillr 1 
 DD2 .           Hamid Ahmadov:  Direct Drillr 2 
 DDSV.               Geo-Pilot:  DD Service 
 DEFF.%                  98.40:  % Det Eff 
 DLRX.°/30m               3.40:  Dogleg Rot Max 
 DLSO.°/30m               1.45:  Dogleg Oriented 
 DLSX.°/30m               3.40:  Dogleg Str Max 
 DRET.      18.40.00 29-Aug-21:  Drill End Time 
 DRST.      21.00.00 20-Aug-21:  Drill Start Tim 
 DTIM.hr                 69.47:  Time Drilling 
 EDEP.m                5084.50:  End Depth 
 ENG1.      Artemiy Matviyanov:  Engineer 1 
 ENG2.         Almaz Almadatov:  Engineer 2 
 ETIM.      18.40.00 29-Aug-21:  End Time 
 FLOI.gpm               500.00:  Flow In 
 FLON.gpm               400.00:  Flow In Min 
 FLOS.cptm                0.00:  Fluid Loss 
 FLOX.gpm               500.00:  Flow In Max 
 DFT .        Mineral Oil Base:  Mud Type 
 HFLO.                      No:  High Flow 
 HPRE.                      No:  High Pressure 
 HTEM.                      No:  High Temp 
 HYDO.m                   1.80:  Hydro Offset 
 IFIN.deg                25.62:  Inc, Final 
 IMAX.deg                48.69:  Inc Max 
 IMIN.deg                24.01:  Inc Min 
 IMND.m                4962.57:  Inc Min Depth 
 IMXD.m                4119.01:  Inc Max Depth 
 JARR.                      No:  Jarring 
 LETM.      18.40.00 29-Aug-21:  Log End Time 
 LOST.hr                     0:  Lost Rig Time 
 LSTM.      21.00.00 20-Aug-21:  Log Start Time 
 MDCL.ppm             41500.00:  Mud Chlorides 
 MDES.     Inversion Oil/Synthetic:  Mud Desc 
 DFD .sg                  1.56:  Mud Density 
 MDMN.sg                  1.56:  Dens Mud Min 
 MDMX.sg                  1.56:  Dens Mud Max 
 MOIL.                      70:  Run Mud Oil % 
 MOWR.                   70:30:  Run Mud OWR 
 MSND.                     0.2:  Run Mud Sand % 
 MSOL.                    23.3:  Run Mud Solids% 
 DFV .spqt               78.00:  Mud Viscosity 
 MWOD.in                  6.75:  MWD Tool OD 
 MWSI.                      No:  Serv Intrp, MWD 
 OTIM.hr                218.30:  Time Operating 
 PCON.           Look Like New:  Pad Condition 
 PMAX.psia            11015.30:  Press Op, Max 
 PV  .cP                 38.00:  Mud PV 
 RUN .                     300:  Run Number 
 ROPA.m/hr               15.00:  ROP Avg 
 ROPN.m/hr                9.00:  ROP Min 
 ROPX.m/hr               17.00:  ROP Max 
 RPMA.rpm               120.00:  RPM Surface Avg 
 RPMN.rpm                90.00:  RPM Surface Min 
 RPMX.rpm               140.00:  RPM Surface Max 
 RRUN.                     300:  Rig Run Number 
 RTIM.hr                 31.53:  Time Reaming 
 SAZI.deg               331.64:  Azm, Start 
 SDEP.m                4127.00:  Start Depth 
 SIDD.                      No:  Serv Intrp, DD 
 SINC.deg                48.43:  Inc, Start 
 SPPA.psig             5830.00:  SPP Avg 
 SPPN.psig             5600.00:  SPP Min 
 SPPX.psig             5900.00:  SPP Max 
 STIM.      21.00.00 20-Aug-21:  Start Time 
 SVCS.                 DD, MWD:  Services 
 SVER.                    9.20:  Sperry Version 
 TDAT.m                 957.50:  Tot Depth Attmp 
 TDDF.                      No:  Trip for DD 
 TDLG.m                 957.50:  Tot Depth Loggd 
 TFF .                      No:  Trip for Fail 
 TQAA.f-kp               15.00:  Torque Abs Avg 
 TQAN.f-kp               12.00:  Torque Abs Min 
 TQAX.f-kp               19.00:  Torque Abs Max 
 TRRT.°/30m              -3.40:  Turn Rotating 
 MRT .                  EWR-M5:  Maximum Recorded Temperature 
 TTMX.degC              100.00:  Max Tool Temp 
 VS01.                90639251:  Virtual Str1 SN 
 VS02.                90634715:  Virtual Str2 SN 
 VS03.                90652479:  Virtual Str3 SN 
 VS04.                90642262:  Virtual Str4 SN 
 WBMN.klb                 0.00:  WOB Min 
 WITN.           Murad Guliyev:  Customer Rep 
 WITN.          Yashar Gaziyev:  Customer Rep 2 
 WOBA.klb                 9.00:  WOB Avg 
 WOBX.klb                12.00:  WOB Max 
 YP  .lhf2               30.00:  Yield Point 
~Curve Information Block
#MNEM.UNIT                 API CODE     Curve Description
#---------               -----------    ---------------------------
 TIME.HHMMSS            00 000 000 000:  GT Time & Date
 GTDEPTH.m              00 000 000 000:  GT Depth
 GTPQH.psia             00 000 000 000:  GT HR Quartz Pressure
 GTTQ.degC              00 000 000 000:  GT Quartz Temperature
 GTTN.NONE              00 000 000 000:  GT Test Number
 GTET.sec               00 000 000 000:  GT Elapsed Test Time
 GTTVD.m                00 000 000 000:  GT True Vertical Depth
#Other Information
#
#WARRANTY: Halliburton will use its best efforts to furnish customers with 
#accurate information and interpretations that are part of, and incident to, the services 
#provided.  However, Halliburton cannot and does not warrant the accuracy 
#or correctness of such information and interpretations.  Under no circumstances should any 
#such information or interpretation be relied upon as the sole basis for any drilling, 
#completion, production, or financial decision or any procedure involving any risk to the 
#safety of any drilling venture, drilling rig or its crew or any other third party.  The 
#Customer has full responsibility for all drilling, completion and production operation.  
#Halliburton makes no representations or warranties, either expressed or 
#implied, including, but not limited to, the implied warranties of merchantability or fitness 
#for a particular purpose, with respect to the services rendered.  In no event will 
#Halliburton be liable for failure to obtain any particular results or for 
#any damages, including, but not limited to, indirect, special or consequential damages, 
#resulting from the use of any information or interpretation provided by Halliburton.
#
~A           TIME           GTDEPTH  GTPQH  GTTQ  GTTN  GTET   GTTVD  
# ...
   09:26:03.285.27-Aug-2021 4964.50 7869.02 86.41 7.00  46.02 3307.39
   09:26:03.485.27-Aug-2021 4964.50 7869.02 86.41 7.00  46.22 3307.39
   09:26:03.685.27-Aug-2021 4964.50 7859.45 86.41 7.00  46.42 3307.39
   09:26:03.885.27-Aug-2021 4964.50 7853.82 86.41 7.00  46.62 3307.39
   09:26:04.085.27-Aug-2021 4964.50 7848.10 86.41 7.00  46.82 3307.39
   09:26:04.285.27-Aug-2021 4964.50 7841.83 86.41 7.00  47.02 3307.39
   09:26:04.485.27-Aug-2021 4964.50 7841.83 86.41 7.00  47.22 3307.39
   09:26:04.685.27-Aug-2021 4964.50 7815.51 86.41 7.00  47.42 3307.39
   09:26:04.885.27-Aug-2021 4964.50 7798.86 86.41 7.00  47.62 3307.39
   09:26:05.086.27-Aug-2021 4964.50 7773.25 86.41 7.00  47.82 3307.39
   09:26:05.286.27-Aug-2021 4964.50 7735.63 86.41 7.00  48.02 3307.39
   09:26:05.486.27-Aug-2021 4964.50 7735.63 86.41 7.00  48.22 3307.39
   09:26:05.686.27-Aug-2021 4964.50 7654.46 86.41 7.00  48.42 3307.39
   09:26:05.886.27-Aug-2021 4964.50 7608.20 86.41 7.00  48.62 3307.39
   09:26:06.086.27-Aug-2021 4964.50 7554.73 86.41 7.00  48.82 3307.39
   09:26:06.286.27-Aug-2021 4964.50 7503.48 86.41 7.00  49.02 3307.39
   09:26:06.486.27-Aug-2021 4964.50 7503.48 86.41 7.00  49.22 3307.39
   09:26:06.686.27-Aug-2021 4964.50 7423.94 86.40 7.00  49.42 3307.39
   09:26:06.886.27-Aug-2021 4964.50 7394.77 86.40 7.00  49.62 3307.39
   09:26:07.086.27-Aug-2021 4964.50 7373.95 86.40 7.00  49.82 3307.39
   09:26:07.286.27-Aug-2021 4964.50 7360.03 86.40 7.00  50.02 3307.39
   09:26:07.487.27-Aug-2021 4964.50 7360.03 86.40 7.00  50.22 3307.39
   09:26:07.687.27-Aug-2021 4964.50 7344.96 86.40 7.00  50.42 3307.39
   09:26:07.887.27-Aug-2021 4964.50 7342.26 86.40 7.00  50.62 3307.39
   09:26:08.087.27-Aug-2021 4964.50 7338.67 86.40 7.00  50.82 3307.39
   09:26:08.287.27-Aug-2021 4964.50 7333.88 86.40 7.00  51.02 3307.39
   09:26:08.487.27-Aug-2021 4964.50 7333.88 86.40 7.00  51.22 3307.39
   09:26:08.687.27-Aug-2021 4964.50 7319.05 86.40 7.00  51.42 3307.39
   09:26:08.887.27-Aug-2021 4964.50 7309.47 86.40 7.00  51.62 3307.39
   09:26:09.087.27-Aug-2021 4964.50 7305.12 86.40 7.00  51.82 3307.39
   09:26:09.287.27-Aug-2021 4964.50 7300.88 86.40 7.00  52.02 3307.39
   09:26:09.487.27-Aug-2021 4964.50 7300.88 86.40 7.00  52.22 3307.39
   09:26:09.687.27-Aug-2021 4964.50 7298.44 86.40 7.00  52.42 3307.39
   09:26:09.888.27-Aug-2021 4964.50 7301.14 86.40 7.00  52.62 3307.39
   09:26:10.088.27-Aug-2021 4964.50 7303.50 86.40 7.00  52.82 3307.39
   09:26:10.288.27-Aug-2021 4964.50 7260.79 86.40 7.00  53.02 3307.39
   09:26:10.488.27-Aug-2021 4964.50 7260.79 86.40 7.00  53.22 3307.39
   09:26:10.688.27-Aug-2021 4964.50 5490.38 86.40 7.00  53.42 3307.39
   09:26:10.888.27-Aug-2021 4964.50 5139.51 86.40 7.00  53.62 3307.39
   09:26:11.088.27-Aug-2021 4964.50 5140.49 86.39 7.00  53.82 3307.39
   09:26:11.288.27-Aug-2021 4964.50 5142.84 86.39 7.00  54.02 3307.39
   09:26:11.488.27-Aug-2021 4964.50 5142.84 86.39 7.00  54.22 3307.39
   09:26:11.688.27-Aug-2021 4964.50 5142.51 86.39 7.00  54.42 3307.39
   09:26:11.888.27-Aug-2021 4964.50 5142.62 86.39 7.00  54.62 3307.39
   09:26:12.088.27-Aug-2021 4964.50 5142.55 86.39 7.00  54.82 3307.39
   09:26:12.289.27-Aug-2021 4964.50 5142.83 86.39 7.00  55.02 3307.39
   09:26:12.489.27-Aug-2021 4964.50 5142.83 86.39 7.00  55.22 3307.39
   09:26:12.689.27-Aug-2021 4964.50 5143.97 86.38 7.00  55.42 3307.39
   09:26:12.889.27-Aug-2021 4964.50 5143.10 86.38 7.00  55.62 3307.39
   09:26:13.089.27-Aug-2021 4964.50 5143.12 86.38 7.00  55.82 3307.39
   09:26:13.289.27-Aug-2021 4964.50 5143.39 86.38 7.00  56.02 3307.39
   09:26:13.489.27-Aug-2021 4964.50 5143.39 86.38 7.00  56.22 3307.39
   09:26:13.689.27-Aug-2021 4964.50 5144.03 86.37 7.00  56.42 3307.39
   09:26:13.889.27-Aug-2021 4964.50 5144.07 86.37 7.00  56.62 3307.39
   09:26:14.089.27-Aug-2021 4964.50 5144.56 86.37 7.00  56.82 3307.39
   09:26:14.289.27-Aug-2021 4964.50 5144.28 86.37 7.00  57.02 3307.39
   09:26:14.489.27-Aug-2021 4964.50 5144.28 86.37 7.00  57.22 3307.39
   09:26:14.690.27-Aug-2021 4964.50 5144.91 86.36 7.00  57.42 3307.39
   09:26:14.890.27-Aug-2021 4964.50 5144.97 86.36 7.00  57.62 3307.39
   09:26:15.090.27-Aug-2021 4964.50 5145.22 86.36 7.00  57.82 3307.39
   09:26:15.290.27-Aug-2021 4964.50 5145.15 86.36 7.00  58.02 3307.39
   09:26:15.490.27-Aug-2021 4964.50 5145.15 86.36 7.00  58.22 3307.39
   09:26:15.690.27-Aug-2021 4964.50 5145.20 86.35 7.00  58.42 3307.39
   09:26:15.890.27-Aug-2021 4964.50 5145.30 86.35 7.00  58.62 3307.39
   09:26:16.090.27-Aug-2021 4964.50 5145.10 86.35 7.00  58.82 3307.39
   09:26:16.290.27-Aug-2021 4964.50 5145.71 86.35 7.00  59.02 3307.39
   09:26:16.490.27-Aug-2021 4964.50 5145.71 86.35 7.00  59.22 3307.39
   09:26:16.690.27-Aug-2021 4964.50 5145.92 86.35 7.00  59.42 3307.39
   09:26:16.890.27-Aug-2021 4964.50 5145.75 86.35 7.00  59.62 3307.39
   09:26:17.091.27-Aug-2021 4964.50 5146.13 86.34 7.00  59.82 3307.39
   09:26:17.291.27-Aug-2021 4964.50 5145.76 86.34 7.00  60.02 3307.39
   09:26:17.491.27-Aug-2021 4964.50 5145.76 86.34 7.00  60.23 3307.39
   09:26:17.691.27-Aug-2021 4964.50 5145.73 86.34 7.00  60.43 3307.39
   09:26:17.891.27-Aug-2021 4964.50 5146.60 86.34 7.00  60.63 3307.39
   09:26:18.091.27-Aug-2021 4964.50 5146.70 86.34 7.00  60.83 3307.39
   09:26:18.291.27-Aug-2021 4964.50 5146.81 86.34 7.00  61.03 3307.39
   09:26:18.491.27-Aug-2021 4964.50 5146.81 86.34 7.00  61.23 3307.39
   09:26:18.691.27-Aug-2021 4964.50 5146.80 86.34 7.00  61.43 3307.39
   09:26:18.891.27-Aug-2021 4964.50 5147.53 86.34 7.00  61.63 3307.39
   09:26:19.091.27-Aug-2021 4964.50 5146.85 86.33 7.00  61.83 3307.39
   09:26:19.291.27-Aug-2021 4964.50 5148.18 86.33 7.00  62.03 3307.39
   09:26:19.492.27-Aug-2021 4964.50 5148.18 86.33 7.00  62.23 3307.39
   09:26:19.692.27-Aug-2021 4964.50 5147.13 86.33 7.00  62.43 3307.39
   09:26:19.892.27-Aug-2021 4964.50 5148.02 86.33 7.00  62.63 3307.39
   09:26:20.092.27-Aug-2021 4964.50 5148.09 86.33 7.00  62.83 3307.39
   09:26:20.292.27-Aug-2021 4964.50 5193.49 86.33 7.00  63.03 3307.39
   09:26:20.492.27-Aug-2021 4964.50 5193.49 86.33 7.00  63.23 3307.39
   09:26:20.692.27-Aug-2021 4964.50 5197.79 86.33 7.00  63.43 3307.39
   09:26:20.892.27-Aug-2021 4964.50 5197.93 86.33 7.00  63.63 3307.39
   09:26:21.092.27-Aug-2021 4964.50 5197.98 86.33 7.00  63.83 3307.39
   09:26:21.292.27-Aug-2021 4964.50 5198.12 86.33 7.00  64.03 3307.39
   09:26:21.492.27-Aug-2021 4964.50 5198.12 86.33 7.00  64.23 3307.39
   09:26:21.692.27-Aug-2021 4964.50 5198.33 86.33 7.00  64.43 3307.39
   09:26:21.892.27-Aug-2021 4964.50 5198.40 86.33 7.00  64.63 3307.39
   09:26:22.093.27-Aug-2021 4964.50 5198.45 86.33 7.00  64.83 3307.39
   09:26:22.293.27-Aug-2021 4964.50 5198.49 86.33 7.00  65.03 3307.39
   09:26:22.493.27-Aug-2021 4964.50 5198.49 86.33 7.00  65.23 3307.39
   09:26:22.693.27-Aug-2021 4964.50 5198.57 86.33 7.00  65.43 3307.39
   09:26:22.893.27-Aug-2021 4964.50 5198.60 86.33 7.00  65.63 3307.39
   09:26:23.093.27-Aug-2021 4964.50 5198.63 86.33 7.00  65.83 3307.39
   09:26:23.293.27-Aug-2021 4964.50 5198.65 86.33 7.00  66.03 3307.39
   09:26:23.493.27-Aug-2021 4964.50 5198.65 86.33 7.00  66.23 3307.39
   09:26:23.693.27-Aug-2021 4964.50 5198.72 86.32 7.00  66.43 3307.39
   09:26:23.893.27-Aug-2021 4964.50 5198.58 86.33 7.00  66.63 3307.39
   09:26:24.093.27-Aug-2021 4964.50 5198.44 86.32 7.00  66.83 3307.39
   09:26:24.293.27-Aug-2021 4964.50 5198.50 86.32 7.00  67.03 3307.39
   09:26:24.494.27-Aug-2021 4964.50 5198.50 86.32 7.00  67.23 3307.39
   09:26:24.694.27-Aug-2021 4964.50 5198.70 86.32 7.00  67.43 3307.39
   09:26:24.894.27-Aug-2021 4964.50 5198.74 86.32 7.00  67.63 3307.39
   09:26:25.094.27-Aug-2021 4964.50 5198.76 86.32 7.00  67.83 3307.39
   09:26:25.294.27-Aug-2021 4964.50 5198.77 86.32 7.00  68.03 3307.39
   09:26:25.494.27-Aug-2021 4964.50 5198.77 86.32 7.00  68.23 3307.39
   09:26:25.694.27-Aug-2021 4964.50 5198.77 86.32 7.00  68.43 3307.39
   09:26:25.894.27-Aug-2021 4964.50 5198.79 86.32 7.00  68.63 3307.39
   09:26:26.094.27-Aug-2021 4964.50 5198.81 86.32 7.00  68.83 3307.39
