~Version Information
 VERS.                  2.0:   CWLS log ASCII Standard -VERSION 2.0
 WRAP.                   NO:   One line per depth step
~Well Information Block
#MNEM.UNIT     VALUE/NAME     DESCRIPTION
#---------     -----------    ---------------------------
 STRT.S             01:57:49 28-Aug-21: START TIME 01:57:49 28-Aug-21
 STOP.S             02:04:41 28-Aug-21: STOP TIME  02:04:41 28-Aug-21
 STEP.S                   0.00: STEP TIME
 NULL.                 -999.25: NULL VALUE
 DFWT.                        :  DIST FWL TEXT
 DFST.                        :  DIST FSL TEXT
 DMF .             Drill Floor:  DRILL MEAS FROM
 STIM.      20.00.00 17-Aug-21:  START TIME
 DATE.      19.00.00 29-Aug-21:  END TIME
 SPUD.               15-Aug-21:  SPUD DATE
 NREF.                    Grid:  NORTH REFERENCE
 HPTY.       Minimum Curvature:  HOLE POS TYPE
 DMOD.             Drill Model:  DRILL MOD DESC
 SVYD.                  Survey:  SURVEY DESC
 ILTD.               Lithology:  INTERP LTH DESC
 FTOP.          Formation Tops:  FORM TOPS DESC
 RIG .              East Azeri:  RIG NAME
 PDAT.          Mean Sea Level:  PERMANENT DATUM
 FLD .                     ACG:  FIELD NAME
 SON .        AZ-XX-0907180857:  JOB NUMBER
 CTRY.              Azerbaijan:  COUNTRY NAME
 WELL.                    D23x:  WELL NAME
 SRVC.     Turan Drilling and Engineering:  CONTRACTOR
 COMP.     BP Exploration (Caspian Sea) Ltd.:  COMPANY
 UWI .            /AZE00000214:  UNIQUE WELL IDENTIFIER
 API .            /AZE00000214:  API NUMBER
 MDS .        Operator Entered:  MAG DATA SOURCE
 BASE.              Azerbaijan:  LOGGING EQUIPMENT BASE LOCATION
 REGN.                   EESSA:  REGION
 PROV.                    Baku:  PROVINCE
 STAT.                    Baku:  STATE NAME
 MWDS.                    Baku:  MWD SHOP
 DOE .                     N/A:  DOE NUMBER
 DCON.         Sperry Drilling:  DIRECTNL CONTR
 UNIT.                     N/A:  LOGGING EQUIPMENT ID
 WTYP.                Deviated:  WELL TYPE
 CNTY.                        :  COUNTY
 LOC .                        :  LOCATION
 LMF .             Drill Floor:  LOG MEASURED FROM
 TVDS.m                  43.60:  TVDSS CORRECTN
 LATI.deg                40.02:  LATITUDE
 LONG.deg                51.45:  LONGITUDE
 WHNS.m                  -7.04:  WELL HEAD N/S
 WHEW.m                  -0.67:  WELL HEAD E/W
 UTMX.m              538762.90:  UTM X
 UTMY.m             4431871.34:  UTM Y
 DFWL.m                   0.00:  DISTANCE FWL
 DFSL.m                   0.00:  DISTANCE FSL
 SDEP.m                4127.00:  START DEPTH
 TDD .m                5084.50:  TOTAL DEPTH (DRILLER)
 VSDR.deg               140.47:  VERT SEC DIRECT
 GVFD.g                   1.00:  GRAVITY FIELD
 MFLD.nT              50362.00:  MAGNETIC FIELD
 MDIP.deg                59.48:  MAGNETIC DIP
 MDEC.deg                 6.47:  MAGNETIC DECL
 GRDC.deg                 0.31:  GRID CORRECTION
 AZTC.deg                 6.16:  AZM TOTAL CORR
 EPD .m                   0.00:  ELEVATION
 EGL .m                   0.00:  GROUND ELEVATION
 WDMS.m                 151.80:  WD ELEV
 APD .m                  43.60:  DEPTH ABOVE PD
 DEP .m                4092.57:  DEPTH
 AGAP.m                  43.60:  AIR GAP
 VSEW.m                  -0.67:  VERT SEC E/W
 VSNS.m                  -7.04:  VERT SEC N/S
 EKB .m                  43.60:  KB ELEVATION
 EDF .m                  43.60:  DF ELEVATION
 TDL .m                 957.50:  TOTAL DEPTH (LOGGER)
 VSC .                       0:  VS TO CLOSURE
 MAGU.                 1851413:  MAGUTM CHECKSUM
~Parameter Information Block
#MNEM.UNIT       Value        Description
#---------     -----------    ---------------------------
 AV  .mps                 1.50:  Ann Velocity 
 AVMX.mps                 2.00:  Max Ann Veloc 
 AZIF.deg               184.66:  Azm, Final 
 BHAT.        Rotary Steerable:  BHA Type 
 BREV.rev               300.00:  Rev Bit Total 
 BROT.°/30m              -0.50:  Build Rotating 
 BS  .in                  8.50:  Bit Size 
 BSZ .in                  8.50:  Bit Size 
 BTPL.psig              370.00:  Bit Press Loss 
 CABU.                      No:  Customer Abuse 
 CGEO.      Behruz Shahbaliyev:  Customer Geo 
 COMM.                     Äi}:  Run Comments 1 
 TCS .hr                140.08:  Time Ciculation Ended 
 CV  .mps                 3.00:  Crit Velocity 
 CVMX.mps                 3.20:  Max Crit Veloc 
 DD1 .            Musa Ahmadov:  Direct Drillr 1 
 DD2 .           Hamid Ahmadov:  Direct Drillr 2 
 DDSV.               Geo-Pilot:  DD Service 
 DEFF.%                  98.40:  % Det Eff 
 DLRX.°/30m               3.40:  Dogleg Rot Max 
 DLSO.°/30m               1.45:  Dogleg Oriented 
 DLSX.°/30m               3.40:  Dogleg Str Max 
 DRET.      18.40.00 29-Aug-21:  Drill End Time 
 DRST.      21.00.00 20-Aug-21:  Drill Start Tim 
 DTIM.hr                 69.47:  Time Drilling 
 EDEP.m                5084.50:  End Depth 
 ENG1.      Artemiy Matviyanov:  Engineer 1 
 ENG2.         Almaz Almadatov:  Engineer 2 
 ETIM.      18.40.00 29-Aug-21:  End Time 
 FLOI.gpm               500.00:  Flow In 
 FLON.gpm               400.00:  Flow In Min 
 FLOS.cptm                0.00:  Fluid Loss 
 FLOX.gpm               500.00:  Flow In Max 
 DFT .        Mineral Oil Base:  Mud Type 
 HFLO.                      No:  High Flow 
 HPRE.                      No:  High Pressure 
 HTEM.                      No:  High Temp 
 HYDO.m                   1.80:  Hydro Offset 
 IFIN.deg                25.62:  Inc, Final 
 IMAX.deg                48.69:  Inc Max 
 IMIN.deg                24.01:  Inc Min 
 IMND.m                4962.57:  Inc Min Depth 
 IMXD.m                4119.01:  Inc Max Depth 
 JARR.                      No:  Jarring 
 LETM.      18.40.00 29-Aug-21:  Log End Time 
 LOST.hr                     0:  Lost Rig Time 
 LSTM.      21.00.00 20-Aug-21:  Log Start Time 
 MDCL.ppm             41500.00:  Mud Chlorides 
 MDES.     Inversion Oil/Synthetic:  Mud Desc 
 DFD .sg                  1.56:  Mud Density 
 MDMN.sg                  1.56:  Dens Mud Min 
 MDMX.sg                  1.56:  Dens Mud Max 
 MOIL.                      70:  Run Mud Oil % 
 MOWR.                   70:30:  Run Mud OWR 
 MSND.                     0.2:  Run Mud Sand % 
 MSOL.                    23.3:  Run Mud Solids% 
 DFV .spqt               78.00:  Mud Viscosity 
 MWOD.in                  6.75:  MWD Tool OD 
 MWSI.                      No:  Serv Intrp, MWD 
 OTIM.hr                218.30:  Time Operating 
 PCON.           Look Like New:  Pad Condition 
 PMAX.psia            11015.30:  Press Op, Max 
 PV  .cP                 38.00:  Mud PV 
 RUN .                     300:  Run Number 
 ROPA.m/hr               15.00:  ROP Avg 
 ROPN.m/hr                9.00:  ROP Min 
 ROPX.m/hr               17.00:  ROP Max 
 RPMA.rpm               120.00:  RPM Surface Avg 
 RPMN.rpm                90.00:  RPM Surface Min 
 RPMX.rpm               140.00:  RPM Surface Max 
 RRUN.                     300:  Rig Run Number 
 RTIM.hr                 31.53:  Time Reaming 
 SAZI.deg               331.64:  Azm, Start 
 SDEP.m                4127.00:  Start Depth 
 SIDD.                      No:  Serv Intrp, DD 
 SINC.deg                48.43:  Inc, Start 
 SPPA.psig             5830.00:  SPP Avg 
 SPPN.psig             5600.00:  SPP Min 
 SPPX.psig             5900.00:  SPP Max 
 STIM.      21.00.00 20-Aug-21:  Start Time 
 SVCS.                 DD, MWD:  Services 
 SVER.                    9.20:  Sperry Version 
 TDAT.m                 957.50:  Tot Depth Attmp 
 TDDF.                      No:  Trip for DD 
 TDLG.m                 957.50:  Tot Depth Loggd 
 TFF .                      No:  Trip for Fail 
 TQAA.f-kp               15.00:  Torque Abs Avg 
 TQAN.f-kp               12.00:  Torque Abs Min 
 TQAX.f-kp               19.00:  Torque Abs Max 
 TRRT.°/30m              -3.40:  Turn Rotating 
 MRT .                  EWR-M5:  Maximum Recorded Temperature 
 TTMX.degC              100.00:  Max Tool Temp 
 VS01.                90639251:  Virtual Str1 SN 
 VS02.                90634715:  Virtual Str2 SN 
 VS03.                90652479:  Virtual Str3 SN 
 VS04.                90642262:  Virtual Str4 SN 
 WBMN.klb                 0.00:  WOB Min 
 WITN.           Murad Guliyev:  Customer Rep 
 WITN.          Yashar Gaziyev:  Customer Rep 2 
 WOBA.klb                 9.00:  WOB Avg 
 WOBX.klb                12.00:  WOB Max 
 YP  .lhf2               30.00:  Yield Point 
~Curve Information Block
#MNEM.UNIT                 API CODE     Curve Description
#---------               -----------    ---------------------------
 TIME.HHMMSS            00 000 000 000:  GT Time & Date
 GTDEPTH.m              00 000 000 000:  GT Depth
 GTPQH.psia             00 000 000 000:  GT HR Quartz Pressure
 GTTQ.degC              00 000 000 000:  GT Quartz Temperature
 GTTN.NONE              00 000 000 000:  GT Test Number
 GTET.sec               00 000 000 000:  GT Elapsed Test Time
 GTTVD.m                00 000 000 000:  GT True Vertical Depth
#Other Information
#
#WARRANTY: Halliburton will use its best efforts to furnish customers with 
#accurate information and interpretations that are part of, and incident to, the services 
#provided.  However, Halliburton cannot and does not warrant the accuracy 
#or correctness of such information and interpretations.  Under no circumstances should any 
#such information or interpretation be relied upon as the sole basis for any drilling, 
#completion, production, or financial decision or any procedure involving any risk to the 
#safety of any drilling venture, drilling rig or its crew or any other third party.  The 
#Customer has full responsibility for all drilling, completion and production operation.  
#Halliburton makes no representations or warranties, either expressed or 
#implied, including, but not limited to, the implied warranties of merchantability or fitness 
#for a particular purpose, with respect to the services rendered.  In no event will 
#Halliburton be liable for failure to obtain any particular results or for 
#any damages, including, but not limited to, indirect, special or consequential damages, 
#resulting from the use of any information or interpretation provided by Halliburton.
#
~A           TIME           GTDEPTH  GTPQH  GTTQ  GTTN   GTET   GTTVD  
# ...
   01:58:34.566.28-Aug-2021 4879.00 7734.04 81.30 27.00  45.21 3229.53
   01:58:34.766.28-Aug-2021 4879.00 7736.51 81.30 27.00  45.41 3229.53
   01:58:34.966.28-Aug-2021 4879.00 7739.85 81.30 27.00  45.61 3229.53
   01:58:35.166.28-Aug-2021 4879.00 7736.82 81.30 27.00  45.81 3229.53
   01:58:35.366.28-Aug-2021 4879.00 7737.91 81.30 27.00  46.01 3229.53
   01:58:35.566.28-Aug-2021 4879.00 7737.91 81.30 27.00  46.21 3229.53
   01:58:35.766.28-Aug-2021 4879.00 7737.01 81.30 27.00  46.41 3229.53
   01:58:35.966.28-Aug-2021 4879.00 7742.18 81.30 27.00  46.61 3229.53
   01:58:36.166.28-Aug-2021 4879.00 7735.28 81.30 27.00  46.81 3229.53
   01:58:36.366.28-Aug-2021 4879.00 7738.91 81.30 27.00  47.01 3229.53
   01:58:36.566.28-Aug-2021 4879.00 7738.91 81.30 27.00  47.21 3229.53
   01:58:36.766.28-Aug-2021 4879.00 7738.25 81.30 27.00  47.41 3229.53
   01:58:36.967.28-Aug-2021 4879.00 7738.04 81.30 27.00  47.61 3229.53
   01:58:37.167.28-Aug-2021 4879.00 7738.13 81.30 27.00  47.82 3229.53
   01:58:37.367.28-Aug-2021 4879.00 7737.79 81.30 27.00  48.02 3229.53
   01:58:37.567.28-Aug-2021 4879.00 7737.79 81.30 27.00  48.22 3229.53
   01:58:37.767.28-Aug-2021 4879.00 7738.53 81.30 27.00  48.42 3229.53
   01:58:37.967.28-Aug-2021 4879.00 7738.47 81.30 27.00  48.62 3229.53
   01:58:38.167.28-Aug-2021 4879.00 7738.80 81.30 27.00  48.82 3229.53
   01:58:38.367.28-Aug-2021 4879.00 7738.71 81.30 27.00  49.02 3229.53
   01:58:38.567.28-Aug-2021 4879.00 7738.71 81.30 27.00  49.22 3229.53
   01:58:38.767.28-Aug-2021 4879.00 7738.89 81.30 27.00  49.42 3229.53
   01:58:38.967.28-Aug-2021 4879.00 7739.05 81.30 27.00  49.62 3229.53
   01:58:39.167.28-Aug-2021 4879.00 7743.95 81.30 27.00  49.82 3229.53
   01:58:39.367.28-Aug-2021 4879.00 7737.36 81.30 27.00  50.02 3229.53
   01:58:39.567.28-Aug-2021 4879.00 7737.36 81.30 27.00  50.22 3229.53
   01:58:39.767.28-Aug-2021 4879.00 7740.21 81.30 27.00  50.42 3229.53
   01:58:39.968.28-Aug-2021 4879.00 7739.75 81.30 27.00  50.62 3229.53
   01:58:40.168.28-Aug-2021 4879.00 7739.72 81.30 27.00  50.82 3229.53
   01:58:40.368.28-Aug-2021 4879.00 7739.63 81.30 27.00  51.02 3229.53
   01:58:40.568.28-Aug-2021 4879.00 7739.63 81.30 27.00  51.22 3229.53
   01:58:40.768.28-Aug-2021 4879.00 7740.00 81.30 27.00  51.42 3229.53
   01:58:40.968.28-Aug-2021 4879.00 7740.08 81.30 27.00  51.62 3229.53
   01:58:41.168.28-Aug-2021 4879.00 7740.42 81.30 27.00  51.82 3229.53
   01:58:41.368.28-Aug-2021 4879.00 7740.46 81.30 27.00  52.02 3229.53
   01:58:41.568.28-Aug-2021 4879.00 7740.46 81.30 27.00  52.22 3229.53
   01:58:41.768.28-Aug-2021 4879.00 7740.44 81.30 27.00  52.42 3229.53
   01:58:41.968.28-Aug-2021 4879.00 7740.63 81.30 27.00  52.62 3229.53
   01:58:42.168.28-Aug-2021 4879.00 7740.53 81.30 27.00  52.82 3229.53
   01:58:42.368.28-Aug-2021 4879.00 7740.51 81.30 27.00  53.02 3229.53
   01:58:42.568.28-Aug-2021 4879.00 7740.51 81.30 27.00  53.22 3229.53
   01:58:42.768.28-Aug-2021 4879.00 7738.57 81.29 27.00  53.42 3229.53
   01:58:42.968.28-Aug-2021 4879.00 7741.37 81.29 27.00  53.62 3229.53
   01:58:43.169.28-Aug-2021 4879.00 7741.19 81.29 27.00  53.82 3229.53
   01:58:43.369.28-Aug-2021 4879.00 7740.90 81.29 27.00  54.02 3229.53
   01:58:43.569.28-Aug-2021 4879.00 7740.90 81.29 27.00  54.22 3229.53
   01:58:43.769.28-Aug-2021 4879.00 7740.60 81.29 27.00  54.42 3229.53
   01:58:43.969.28-Aug-2021 4879.00 7741.48 81.29 27.00  54.62 3229.53
   01:58:44.169.28-Aug-2021 4879.00 7741.08 81.29 27.00  54.82 3229.53
   01:58:44.369.28-Aug-2021 4879.00 7740.91 81.29 27.00  55.02 3229.53
   01:58:44.569.28-Aug-2021 4879.00 7740.91 81.29 27.00  55.22 3229.53
   01:58:44.769.28-Aug-2021 4879.00 7739.28 81.29 27.00  55.42 3229.53
   01:58:44.969.28-Aug-2021 4879.00 7742.41 81.29 27.00  55.62 3229.53
   01:58:45.169.28-Aug-2021 4879.00 7741.62 81.29 27.00  55.82 3229.53
   01:58:45.369.28-Aug-2021 4879.00 7741.78 81.29 27.00  56.02 3229.53
   01:58:45.569.28-Aug-2021 4879.00 7741.78 81.29 27.00  56.22 3229.53
   01:58:45.769.28-Aug-2021 4879.00 7739.55 81.29 27.00  56.42 3229.53
   01:58:45.969.28-Aug-2021 4879.00 7742.68 81.29 27.00  56.62 3229.53
   01:58:46.169.28-Aug-2021 4879.00 7741.93 81.29 27.00  56.82 3229.53
   01:58:46.370.28-Aug-2021 4879.00 7741.98 81.29 27.00  57.02 3229.53
   01:58:46.570.28-Aug-2021 4879.00 7741.98 81.29 27.00  57.22 3229.53
   01:58:46.770.28-Aug-2021 4879.00 7741.93 81.29 27.00  57.42 3229.53
   01:58:46.970.28-Aug-2021 4879.00 7741.55 81.29 27.00  57.62 3229.53
   01:58:47.170.28-Aug-2021 4879.00 7741.90 81.29 27.00  57.82 3229.53
   01:58:47.370.28-Aug-2021 4879.00 7742.29 81.29 27.00  58.02 3229.53
   01:58:47.570.28-Aug-2021 4879.00 7742.29 81.29 27.00  58.22 3229.53
   01:58:47.770.28-Aug-2021 4879.00 7742.65 81.29 27.00  58.42 3229.53
   01:58:47.970.28-Aug-2021 4879.00 7742.58 81.29 27.00  58.62 3229.53
   01:58:48.170.28-Aug-2021 4879.00 7742.66 81.29 27.00  58.82 3229.53
   01:58:48.370.28-Aug-2021 4879.00 7742.61 81.29 27.00  59.02 3229.53
   01:58:48.570.28-Aug-2021 4879.00 7742.61 81.29 27.00  59.22 3229.53
   01:58:48.770.28-Aug-2021 4879.00 7747.25 81.29 27.00  59.42 3229.53
   01:58:48.970.28-Aug-2021 4879.00 7740.77 81.29 27.00  59.62 3229.53
   01:58:49.170.28-Aug-2021 4879.00 7743.40 81.29 27.00  59.82 3229.53
   01:58:49.370.28-Aug-2021 4879.00 7743.42 81.29 27.00  60.02 3229.53
   01:58:49.571.28-Aug-2021 4879.00 7743.42 81.29 27.00  60.22 3229.53
   01:58:49.771.28-Aug-2021 4879.00 7742.66 81.29 27.00  60.42 3229.53
   01:58:49.971.28-Aug-2021 4879.00 7742.45 81.29 27.00  60.62 3229.53
   01:58:50.171.28-Aug-2021 4879.00 7742.43 81.29 27.00  60.82 3229.53
   01:58:50.371.28-Aug-2021 4879.00 7742.84 81.29 27.00  61.02 3229.53
   01:58:50.571.28-Aug-2021 4879.00 7742.84 81.29 27.00  61.22 3229.53
   01:58:50.771.28-Aug-2021 4879.00 7743.32 81.29 27.00  61.42 3229.53
   01:58:50.971.28-Aug-2021 4879.00 7743.49 81.29 27.00  61.62 3229.53
   01:58:51.171.28-Aug-2021 4879.00 7743.62 81.29 27.00  61.82 3229.53
   01:58:51.371.28-Aug-2021 4879.00 7743.58 81.29 27.00  62.02 3229.53
   01:58:51.571.28-Aug-2021 4879.00 7743.58 81.29 27.00  62.22 3229.53
   01:58:51.771.28-Aug-2021 4879.00 7743.46 81.29 27.00  62.42 3229.53
   01:58:51.971.28-Aug-2021 4879.00 7743.53 81.29 27.00  62.62 3229.53
   01:58:52.171.28-Aug-2021 4879.00 7748.16 81.29 27.00  62.82 3229.53
   01:58:52.371.28-Aug-2021 4879.00 7741.59 81.29 27.00  63.02 3229.53
   01:58:52.571.28-Aug-2021 4879.00 7741.59 81.29 27.00  63.22 3229.53
   01:58:52.772.28-Aug-2021 4879.00 7744.05 81.29 27.00  63.42 3229.53
   01:58:52.972.28-Aug-2021 4879.00 7743.68 81.29 27.00  63.62 3229.53
   01:58:53.172.28-Aug-2021 4879.00 7748.23 81.29 27.00  63.82 3229.53
   01:58:53.372.28-Aug-2021 4879.00 7741.45 81.29 27.00  64.02 3229.53
   01:58:53.572.28-Aug-2021 4879.00 7741.45 81.29 27.00  64.22 3229.53
   01:58:53.772.28-Aug-2021 4879.00 7744.25 81.29 27.00  64.42 3229.53
   01:58:53.972.28-Aug-2021 4879.00 7743.78 81.28 27.00  64.62 3229.53
   01:58:54.172.28-Aug-2021 4879.00 7745.29 81.28 27.00  64.82 3229.53
   01:58:54.372.28-Aug-2021 4879.00 7745.75 81.28 27.00  65.02 3229.53
   01:58:54.572.28-Aug-2021 4879.00 7745.75 81.28 27.00  65.22 3229.53
   01:58:54.772.28-Aug-2021 4879.00 7745.06 81.28 27.00  65.42 3229.53
   01:58:54.972.28-Aug-2021 4879.00 7744.46 81.28 27.00  65.62 3229.53
   01:58:55.172.28-Aug-2021 4879.00 7744.24 81.28 27.00  65.82 3229.53
   01:58:55.372.28-Aug-2021 4879.00 7744.19 81.28 27.00  66.02 3229.53
   01:58:55.572.28-Aug-2021 4879.00 7744.19 81.28 27.00  66.22 3229.53
   01:58:55.772.28-Aug-2021 4879.00 7746.04 81.28 27.00  66.42 3229.53
   01:58:55.973.28-Aug-2021 4879.00 7744.63 81.28 27.00  66.62 3229.53
   01:58:56.173.28-Aug-2021 4879.00 7745.43 81.28 27.00  66.82 3229.53
   01:58:56.373.28-Aug-2021 4879.00 7744.72 81.28 27.00  67.02 3229.53
   01:58:56.573.28-Aug-2021 4879.00 7744.72 81.28 27.00  67.22 3229.53
   01:58:56.773.28-Aug-2021 4879.00 7744.25 81.28 27.00  67.42 3229.53
   01:58:56.973.28-Aug-2021 4879.00 7744.37 81.28 27.00  67.62 3229.53
