~Version Information
 VERS.                  2.0:   CWLS log ASCII Standard -VERSION 2.0
 WRAP.                   NO:   One line per depth step
~Well Information Block
#MNEM.UNIT     VALUE/NAME     DESCRIPTION
#---------     -----------    ---------------------------
 STRT.S             16:56:36 27-Aug-21: START TIME 16:56:36 27-Aug-21
 STOP.S             17:03:52 27-Aug-21: STOP TIME  17:03:52 27-Aug-21
 STEP.S                   0.00: STEP TIME
 NULL.                 -999.25: NULL VALUE
 DFWT.                        :  DIST FWL TEXT
 DFST.                        :  DIST FSL TEXT
 DMF .             Drill Floor:  DRILL MEAS FROM
 STIM.      20.00.00 17-Aug-21:  START TIME
 DATE.      19.00.00 29-Aug-21:  END TIME
 SPUD.               15-Aug-21:  SPUD DATE
 NREF.                    Grid:  NORTH REFERENCE
 HPTY.       Minimum Curvature:  HOLE POS TYPE
 DMOD.             Drill Model:  DRILL MOD DESC
 SVYD.                  Survey:  SURVEY DESC
 ILTD.               Lithology:  INTERP LTH DESC
 FTOP.          Formation Tops:  FORM TOPS DESC
 RIG .              East Azeri:  RIG NAME
 PDAT.          Mean Sea Level:  PERMANENT DATUM
 FLD .                     ACG:  FIELD NAME
 SON .        AZ-XX-0907180857:  JOB NUMBER
 CTRY.              Azerbaijan:  COUNTRY NAME
 WELL.                    D23x:  WELL NAME
 SRVC.     Turan Drilling and Engineering:  CONTRACTOR
 COMP.     BP Exploration (Caspian Sea) Ltd.:  COMPANY
 UWI .            /AZE00000214:  UNIQUE WELL IDENTIFIER
 API .            /AZE00000214:  API NUMBER
 MDS .        Operator Entered:  MAG DATA SOURCE
 BASE.              Azerbaijan:  LOGGING EQUIPMENT BASE LOCATION
 REGN.                   EESSA:  REGION
 PROV.                    Baku:  PROVINCE
 STAT.                    Baku:  STATE NAME
 MWDS.                    Baku:  MWD SHOP
 DOE .                     N/A:  DOE NUMBER
 DCON.         Sperry Drilling:  DIRECTNL CONTR
 UNIT.                     N/A:  LOGGING EQUIPMENT ID
 WTYP.                Deviated:  WELL TYPE
 CNTY.                        :  COUNTY
 LOC .                        :  LOCATION
 LMF .             Drill Floor:  LOG MEASURED FROM
 TVDS.m                  43.60:  TVDSS CORRECTN
 LATI.deg                40.02:  LATITUDE
 LONG.deg                51.45:  LONGITUDE
 WHNS.m                  -7.04:  WELL HEAD N/S
 WHEW.m                  -0.67:  WELL HEAD E/W
 UTMX.m              538762.90:  UTM X
 UTMY.m             4431871.34:  UTM Y
 DFWL.m                   0.00:  DISTANCE FWL
 DFSL.m                   0.00:  DISTANCE FSL
 SDEP.m                4127.00:  START DEPTH
 TDD .m                5084.50:  TOTAL DEPTH (DRILLER)
 VSDR.deg               140.47:  VERT SEC DIRECT
 GVFD.g                   1.00:  GRAVITY FIELD
 MFLD.nT              50362.00:  MAGNETIC FIELD
 MDIP.deg                59.48:  MAGNETIC DIP
 MDEC.deg                 6.47:  MAGNETIC DECL
 GRDC.deg                 0.31:  GRID CORRECTION
 AZTC.deg                 6.16:  AZM TOTAL CORR
 EPD .m                   0.00:  ELEVATION
 EGL .m                   0.00:  GROUND ELEVATION
 WDMS.m                 151.80:  WD ELEV
 APD .m                  43.60:  DEPTH ABOVE PD
 DEP .m                4092.57:  DEPTH
 AGAP.m                  43.60:  AIR GAP
 VSEW.m                  -0.67:  VERT SEC E/W
 VSNS.m                  -7.04:  VERT SEC N/S
 EKB .m                  43.60:  KB ELEVATION
 EDF .m                  43.60:  DF ELEVATION
 TDL .m                 957.50:  TOTAL DEPTH (LOGGER)
 VSC .                       0:  VS TO CLOSURE
 MAGU.                 1851413:  MAGUTM CHECKSUM
~Parameter Information Block
#MNEM.UNIT       Value        Description
#---------     -----------    ---------------------------
 AV  .mps                 1.50:  Ann Velocity 
 AVMX.mps                 2.00:  Max Ann Veloc 
 AZIF.deg               184.66:  Azm, Final 
 BHAT.        Rotary Steerable:  BHA Type 
 BREV.rev               300.00:  Rev Bit Total 
 BROT.°/30m              -0.50:  Build Rotating 
 BS  .in                  8.50:  Bit Size 
 BSZ .in                  8.50:  Bit Size 
 BTPL.psig              370.00:  Bit Press Loss 
 CABU.                      No:  Customer Abuse 
 CGEO.      Behruz Shahbaliyev:  Customer Geo 
 COMM.                     T
k:  Run Comments 1 
 TCS .hr                140.08:  Time Ciculation Ended 
 CV  .mps                 3.00:  Crit Velocity 
 CVMX.mps                 3.20:  Max Crit Veloc 
 DD1 .            Musa Ahmadov:  Direct Drillr 1 
 DD2 .           Hamid Ahmadov:  Direct Drillr 2 
 DDSV.               Geo-Pilot:  DD Service 
 DEFF.%                  98.40:  % Det Eff 
 DLRX.°/30m               3.40:  Dogleg Rot Max 
 DLSO.°/30m               1.45:  Dogleg Oriented 
 DLSX.°/30m               3.40:  Dogleg Str Max 
 DRET.      18.40.00 29-Aug-21:  Drill End Time 
 DRST.      21.00.00 20-Aug-21:  Drill Start Tim 
 DTIM.hr                 69.47:  Time Drilling 
 EDEP.m                5084.50:  End Depth 
 ENG1.      Artemiy Matviyanov:  Engineer 1 
 ENG2.         Almaz Almadatov:  Engineer 2 
 ETIM.      18.40.00 29-Aug-21:  End Time 
 FLOI.gpm               500.00:  Flow In 
 FLON.gpm               400.00:  Flow In Min 
 FLOS.cptm                0.00:  Fluid Loss 
 FLOX.gpm               500.00:  Flow In Max 
 DFT .        Mineral Oil Base:  Mud Type 
 HFLO.                      No:  High Flow 
 HPRE.                      No:  High Pressure 
 HTEM.                      No:  High Temp 
 HYDO.m                   1.80:  Hydro Offset 
 IFIN.deg                25.62:  Inc, Final 
 IMAX.deg                48.69:  Inc Max 
 IMIN.deg                24.01:  Inc Min 
 IMND.m                4962.57:  Inc Min Depth 
 IMXD.m                4119.01:  Inc Max Depth 
 JARR.                      No:  Jarring 
 LETM.      18.40.00 29-Aug-21:  Log End Time 
 LOST.hr                     0:  Lost Rig Time 
 LSTM.      21.00.00 20-Aug-21:  Log Start Time 
 MDCL.ppm             41500.00:  Mud Chlorides 
 MDES.     Inversion Oil/Synthetic:  Mud Desc 
 DFD .sg                  1.56:  Mud Density 
 MDMN.sg                  1.56:  Dens Mud Min 
 MDMX.sg                  1.56:  Dens Mud Max 
 MOIL.                      70:  Run Mud Oil % 
 MOWR.                   70:30:  Run Mud OWR 
 MSND.                     0.2:  Run Mud Sand % 
 MSOL.                    23.3:  Run Mud Solids% 
 DFV .spqt               78.00:  Mud Viscosity 
 MWOD.in                  6.75:  MWD Tool OD 
 MWSI.                      No:  Serv Intrp, MWD 
 OTIM.hr                218.30:  Time Operating 
 PCON.           Look Like New:  Pad Condition 
 PMAX.psia            11015.30:  Press Op, Max 
 PV  .cP                 38.00:  Mud PV 
 RUN .                     300:  Run Number 
 ROPA.m/hr               15.00:  ROP Avg 
 ROPN.m/hr                9.00:  ROP Min 
 ROPX.m/hr               17.00:  ROP Max 
 RPMA.rpm               120.00:  RPM Surface Avg 
 RPMN.rpm                90.00:  RPM Surface Min 
 RPMX.rpm               140.00:  RPM Surface Max 
 RRUN.                     300:  Rig Run Number 
 RTIM.hr                 31.53:  Time Reaming 
 SAZI.deg               331.64:  Azm, Start 
 SDEP.m                4127.00:  Start Depth 
 SIDD.                      No:  Serv Intrp, DD 
 SINC.deg                48.43:  Inc, Start 
 SPPA.psig             5830.00:  SPP Avg 
 SPPN.psig             5600.00:  SPP Min 
 SPPX.psig             5900.00:  SPP Max 
 STIM.      21.00.00 20-Aug-21:  Start Time 
 SVCS.                 DD, MWD:  Services 
 SVER.                    9.20:  Sperry Version 
 TDAT.m                 957.50:  Tot Depth Attmp 
 TDDF.                      No:  Trip for DD 
 TDLG.m                 957.50:  Tot Depth Loggd 
 TFF .                      No:  Trip for Fail 
 TQAA.f-kp               15.00:  Torque Abs Avg 
 TQAN.f-kp               12.00:  Torque Abs Min 
 TQAX.f-kp               19.00:  Torque Abs Max 
 TRRT.°/30m              -3.40:  Turn Rotating 
 MRT .                  EWR-M5:  Maximum Recorded Temperature 
 TTMX.degC              100.00:  Max Tool Temp 
 VS01.                90639251:  Virtual Str1 SN 
 VS02.                90634715:  Virtual Str2 SN 
 VS03.                90652479:  Virtual Str3 SN 
 VS04.                90642262:  Virtual Str4 SN 
 WBMN.klb                 0.00:  WOB Min 
 WITN.           Murad Guliyev:  Customer Rep 
 WITN.          Yashar Gaziyev:  Customer Rep 2 
 WOBA.klb                 9.00:  WOB Avg 
 WOBX.klb                12.00:  WOB Max 
 YP  .lhf2               30.00:  Yield Point 
~Curve Information Block
#MNEM.UNIT                 API CODE     Curve Description
#---------               -----------    ---------------------------
 TIME.HHMMSS            00 000 000 000:  GT Time & Date
 GTDEPTH.m              00 000 000 000:  GT Depth
 GTPQH.psia             00 000 000 000:  GT HR Quartz Pressure
 GTTQ.degC              00 000 000 000:  GT Quartz Temperature
 GTTN.NONE              00 000 000 000:  GT Test Number
 GTET.sec               00 000 000 000:  GT Elapsed Test Time
 GTTVD.m                00 000 000 000:  GT True Vertical Depth
#Other Information
#
#WARRANTY: Halliburton will use its best efforts to furnish customers with 
#accurate information and interpretations that are part of, and incident to, the services 
#provided.  However, Halliburton cannot and does not warrant the accuracy 
#or correctness of such information and interpretations.  Under no circumstances should any 
#such information or interpretation be relied upon as the sole basis for any drilling, 
#completion, production, or financial decision or any procedure involving any risk to the 
#safety of any drilling venture, drilling rig or its crew or any other third party.  The 
#Customer has full responsibility for all drilling, completion and production operation.  
#Halliburton makes no representations or warranties, either expressed or 
#implied, including, but not limited to, the implied warranties of merchantability or fitness 
#for a particular purpose, with respect to the services rendered.  In no event will 
#Halliburton be liable for failure to obtain any particular results or for 
#any damages, including, but not limited to, indirect, special or consequential damages, 
#resulting from the use of any information or interpretation provided by Halliburton.
#
~A           TIME           GTDEPTH  GTPQH  GTTQ  GTTN   GTET   GTTVD  
# ...
   17:01:29.676.27-Aug-2021 4788.50 7534.83 83.15 18.00 293.51 3147.67
   17:01:29.875.27-Aug-2021 4788.50 7534.93 83.15 18.00 293.71 3147.67
   17:01:30.075.27-Aug-2021 4788.50 7534.93 83.15 18.00 293.91 3147.67
   17:01:30.275.27-Aug-2021 4788.50 7534.89 83.15 18.00 294.11 3147.67
   17:01:30.475.27-Aug-2021 4788.50 7537.18 83.15 18.00 294.31 3147.67
   17:01:30.675.27-Aug-2021 4788.50 7534.50 83.15 18.00 294.51 3147.67
   17:01:30.874.27-Aug-2021 4788.50 7535.06 83.15 18.00 294.71 3147.67
   17:01:31.074.27-Aug-2021 4788.50 7535.06 83.15 18.00 294.91 3147.67
   17:01:31.274.27-Aug-2021 4788.50 7534.03 83.15 18.00 295.11 3147.67
   17:01:31.474.27-Aug-2021 4788.50 7534.75 83.15 18.00 295.31 3147.67
   17:01:31.674.27-Aug-2021 4788.50 7534.16 83.15 18.00 295.51 3147.67
   17:01:31.873.27-Aug-2021 4788.50 7534.56 83.15 18.00 295.70 3147.67
   17:01:32.073.27-Aug-2021 4788.50 7534.56 83.15 18.00 295.90 3147.67
   17:01:32.273.27-Aug-2021 4788.50 7534.76 83.15 18.00 296.10 3147.67
   17:01:32.473.27-Aug-2021 4788.50 7535.02 83.15 18.00 296.30 3147.67
   17:01:32.673.27-Aug-2021 4788.50 7535.12 83.15 18.00 296.50 3147.67
   17:01:32.872.27-Aug-2021 4788.50 7534.97 83.15 18.00 296.70 3147.67
   17:01:33.072.27-Aug-2021 4788.50 7534.97 83.15 18.00 296.90 3147.67
   17:01:33.272.27-Aug-2021 4788.50 7534.85 83.15 18.00 297.10 3147.67
   17:01:33.472.27-Aug-2021 4788.50 7534.66 83.15 18.00 297.30 3147.67
   17:01:33.672.27-Aug-2021 4788.50 7534.57 83.15 18.00 297.50 3147.67
   17:01:33.871.27-Aug-2021 4788.50 7538.32 83.15 18.00 297.70 3147.67
   17:01:34.071.27-Aug-2021 4788.50 7538.32 83.15 18.00 297.90 3147.67
   17:01:34.271.27-Aug-2021 4788.50 7533.71 83.15 18.00 298.10 3147.67
   17:01:34.471.27-Aug-2021 4788.50 7535.40 83.15 18.00 298.30 3147.67
   17:01:34.671.27-Aug-2021 4788.50 7534.04 83.15 18.00 298.50 3147.67
   17:01:34.870.27-Aug-2021 4788.50 7540.10 83.15 18.00 298.70 3147.67
   17:01:35.070.27-Aug-2021 4788.50 7540.10 83.15 18.00 298.90 3147.67
   17:01:35.270.27-Aug-2021 4788.50 7534.19 83.15 18.00 299.10 3147.67
   17:01:35.470.27-Aug-2021 4788.50 7535.88 83.15 18.00 299.30 3147.67
   17:01:35.670.27-Aug-2021 4788.50 7534.04 83.15 18.00 299.50 3147.67
   17:01:35.869.27-Aug-2021 4788.50 7534.58 83.15 18.00 299.70 3147.67
   17:01:36.069.27-Aug-2021 4788.50 7534.58 83.15 18.00 299.90 3147.67
   17:01:36.269.27-Aug-2021 4788.50 7533.31 83.15 18.00 300.10 3147.67
   17:01:36.469.27-Aug-2021 4788.50 7535.01 83.15 18.00 300.30 3147.67
   17:01:36.669.27-Aug-2021 4788.50 7535.26 83.15 18.00 300.50 3147.67
   17:01:36.868.27-Aug-2021 4788.50 7534.84 83.15 18.00 300.70 3147.67
   17:01:37.068.27-Aug-2021 4788.50 7534.84 83.15 18.00 300.90 3147.67
   17:01:37.268.27-Aug-2021 4788.50 7538.54 83.15 18.00 301.10 3147.67
   17:01:37.468.27-Aug-2021 4788.50 7533.30 83.15 18.00 301.30 3147.67
   17:01:37.668.27-Aug-2021 4788.50 7534.52 83.15 18.00 301.50 3147.67
   17:01:37.867.27-Aug-2021 4788.50 7535.17 83.15 18.00 301.70 3147.67
   17:01:38.067.27-Aug-2021 4788.50 7535.17 83.15 18.00 301.90 3147.67
   17:01:38.267.27-Aug-2021 4788.50 7534.44 83.15 18.00 302.10 3147.67
   17:01:38.467.27-Aug-2021 4788.50 7534.29 83.15 18.00 302.30 3147.67
   17:01:38.667.27-Aug-2021 4788.50 7534.32 83.15 18.00 302.50 3147.67
   17:01:38.866.27-Aug-2021 4788.50 7534.73 83.15 18.00 302.70 3147.67
   17:01:39.066.27-Aug-2021 4788.50 7534.73 83.15 18.00 302.90 3147.67
   17:01:39.266.27-Aug-2021 4788.50 7534.70 83.15 18.00 303.10 3147.67
   17:01:39.466.27-Aug-2021 4788.50 7534.93 83.15 18.00 303.30 3147.67
   17:01:39.666.27-Aug-2021 4788.50 7534.94 83.15 18.00 303.50 3147.67
   17:01:39.865.27-Aug-2021 4788.50 7534.78 83.15 18.00 303.70 3147.67
   17:01:40.065.27-Aug-2021 4788.50 7534.78 83.15 18.00 303.90 3147.67
   17:01:40.265.27-Aug-2021 4788.50 7534.51 83.15 18.00 304.10 3147.67
   17:01:40.465.27-Aug-2021 4788.50 7538.61 83.15 18.00 304.30 3147.67
   17:01:40.665.27-Aug-2021 4788.50 7533.20 83.15 18.00 304.50 3147.67
   17:01:40.864.27-Aug-2021 4788.50 7534.07 83.15 18.00 304.70 3147.67
   17:01:41.064.27-Aug-2021 4788.50 7534.07 83.15 18.00 304.90 3147.67
   17:01:41.264.27-Aug-2021 4788.50 7534.19 83.15 18.00 305.10 3147.67
   17:01:41.464.27-Aug-2021 4788.50 7533.75 83.15 18.00 305.30 3147.67
   17:01:41.664.27-Aug-2021 4788.50 7533.86 83.15 18.00 305.50 3147.67
   17:01:41.863.27-Aug-2021 4788.50 7533.94 83.15 18.00 305.69 3147.67
   17:01:42.063.27-Aug-2021 4788.50 7533.94 83.15 18.00 305.89 3147.67
   17:01:42.263.27-Aug-2021 4788.50 7534.36 83.15 18.00 306.09 3147.67
   17:01:42.463.27-Aug-2021 4788.50 7534.34 83.15 18.00 306.29 3147.67
   17:01:42.663.27-Aug-2021 4788.50 7534.64 83.15 18.00 306.49 3147.67
   17:01:42.862.27-Aug-2021 4788.50 7534.68 83.15 18.00 306.69 3147.67
   17:01:43.062.27-Aug-2021 4788.50 7534.68 83.15 18.00 306.89 3147.67
   17:01:43.262.27-Aug-2021 4788.50 7534.65 83.15 18.00 307.09 3147.67
   17:01:43.462.27-Aug-2021 4788.50 7534.59 83.15 18.00 307.29 3147.67
   17:01:43.662.27-Aug-2021 4788.50 7534.45 83.15 18.00 307.49 3147.67
   17:01:43.861.27-Aug-2021 4788.50 7535.02 83.15 18.00 307.69 3147.67
   17:01:44.061.27-Aug-2021 4788.50 7535.02 83.15 18.00 307.89 3147.67
   17:01:44.261.27-Aug-2021 4788.50 7534.12 83.15 18.00 308.09 3147.67
   17:01:44.461.27-Aug-2021 4788.50 7534.64 83.15 18.00 308.29 3147.67
   17:01:44.661.27-Aug-2021 4788.50 7535.20 83.15 18.00 308.49 3147.67
   17:01:44.860.27-Aug-2021 4788.50 7533.76 83.15 18.00 308.69 3147.67
   17:01:45.060.27-Aug-2021 4788.50 7533.76 83.15 18.00 308.89 3147.67
   17:01:45.260.27-Aug-2021 4788.50 7532.88 83.15 18.00 309.09 3147.67
   17:01:45.460.27-Aug-2021 4788.50 7534.25 83.15 18.00 309.29 3147.67
   17:01:45.660.27-Aug-2021 4788.50 7535.42 83.15 18.00 309.49 3147.67
   17:01:45.859.27-Aug-2021 4788.50 7533.70 83.15 18.00 309.69 3147.67
   17:01:46.059.27-Aug-2021 4788.50 7533.70 83.15 18.00 309.89 3147.67
   17:01:46.259.27-Aug-2021 4788.50 7534.65 83.15 18.00 310.09 3147.67
   17:01:46.459.27-Aug-2021 4788.50 7533.22 83.15 18.00 310.29 3147.67
   17:01:46.659.27-Aug-2021 4788.50 7534.92 83.15 18.00 310.49 3147.67
   17:01:46.858.27-Aug-2021 4788.50 7535.23 83.15 18.00 310.69 3147.67
   17:01:47.058.27-Aug-2021 4788.50 7535.23 83.15 18.00 310.89 3147.67
   17:01:47.258.27-Aug-2021 4788.50 7538.96 83.15 18.00 311.09 3147.67
   17:01:47.458.27-Aug-2021 4788.50 7532.90 83.15 18.00 311.29 3147.67
   17:01:47.658.27-Aug-2021 4788.50 7534.17 83.15 18.00 311.49 3147.67
   17:01:47.857.27-Aug-2021 4788.50 7535.60 83.15 18.00 311.69 3147.67
   17:01:48.057.27-Aug-2021 4788.50 7535.60 83.15 18.00 311.89 3147.67
   17:01:48.257.27-Aug-2021 4788.50 7534.08 83.15 18.00 312.09 3147.67
   17:01:48.457.27-Aug-2021 4788.50 7534.26 83.15 18.00 312.29 3147.67
   17:01:48.657.27-Aug-2021 4788.50 7534.15 83.15 18.00 312.49 3147.67
   17:01:48.856.27-Aug-2021 4788.50 7534.48 83.15 18.00 312.69 3147.67
   17:01:49.056.27-Aug-2021 4788.50 7534.48 83.15 18.00 312.89 3147.67
   17:01:49.256.27-Aug-2021 4788.50 7534.37 83.15 18.00 313.09 3147.67
   17:01:49.456.27-Aug-2021 4788.50 7534.58 83.15 18.00 313.29 3147.67
   17:01:49.656.27-Aug-2021 4788.50 7534.52 83.15 18.00 313.49 3147.67
   17:01:49.855.27-Aug-2021 4788.50 7534.49 83.15 18.00 313.69 3147.67
   17:01:50.055.27-Aug-2021 4788.50 7534.49 83.15 18.00 313.89 3147.67
   17:01:50.255.27-Aug-2021 4788.50 7534.51 83.15 18.00 314.09 3147.67
   17:01:50.455.27-Aug-2021 4788.50 7538.54 83.15 18.00 314.29 3147.67
   17:01:50.655.27-Aug-2021 4788.50 7533.46 83.15 18.00 314.49 3147.67
   17:01:50.854.27-Aug-2021 4788.50 7534.21 83.15 18.00 314.69 3147.67
   17:01:51.054.27-Aug-2021 4788.50 7534.21 83.15 18.00 314.89 3147.67
   17:01:51.254.27-Aug-2021 4788.50 7534.35 83.15 18.00 315.09 3147.67
   17:01:51.454.27-Aug-2021 4788.50 7533.88 83.15 18.00 315.29 3147.67
   17:01:51.654.27-Aug-2021 4788.50 7533.96 83.15 18.00 315.49 3147.67
   17:01:51.853.27-Aug-2021 4788.50 7533.94 83.15 18.00 315.68 3147.67
   17:01:52.053.27-Aug-2021 4788.50 7533.94 83.15 18.00 315.88 3147.67
