~Version Information
 VERS.                  2.0:   CWLS log ASCII Standard -VERSION 2.0
 WRAP.                   NO:   One line per depth step
~Well Information Block
#MNEM.UNIT     VALUE/NAME     DESCRIPTION
#---------     -----------    ---------------------------
 STRT.S             09:25:17 27-Aug-21: START TIME 09:25:17 27-Aug-21
 STOP.S             09:32:27 27-Aug-21: STOP TIME  09:32:27 27-Aug-21
 STEP.S                   0.00: STEP TIME
 NULL.                 -999.25: NULL VALUE
 DFWT.                        :  DIST FWL TEXT
 DFST.                        :  DIST FSL TEXT
 DMF .             Drill Floor:  DRILL MEAS FROM
 STIM.      20.00.00 17-Aug-21:  START TIME
 DATE.      19.00.00 29-Aug-21:  END TIME
 SPUD.               15-Aug-21:  SPUD DATE
 NREF.                    Grid:  NORTH REFERENCE
 HPTY.       Minimum Curvature:  HOLE POS TYPE
 DMOD.             Drill Model:  DRILL MOD DESC
 SVYD.                  Survey:  SURVEY DESC
 ILTD.               Lithology:  INTERP LTH DESC
 FTOP.          Formation Tops:  FORM TOPS DESC
 RIG .              East Azeri:  RIG NAME
 PDAT.          Mean Sea Level:  PERMANENT DATUM
 FLD .                     ACG:  FIELD NAME
 SON .        AZ-XX-0907180857:  JOB NUMBER
 CTRY.              Azerbaijan:  COUNTRY NAME
 WELL.                    D23x:  WELL NAME
 SRVC.     Turan Drilling and Engineering:  CONTRACTOR
 COMP.     BP Exploration (Caspian Sea) Ltd.:  COMPANY
 UWI .            /AZE00000214:  UNIQUE WELL IDENTIFIER
 API .            /AZE00000214:  API NUMBER
 MDS .        Operator Entered:  MAG DATA SOURCE
 BASE.              Azerbaijan:  LOGGING EQUIPMENT BASE LOCATION
 REGN.                   EESSA:  REGION
 PROV.                    Baku:  PROVINCE
 STAT.                    Baku:  STATE NAME
 MWDS.                    Baku:  MWD SHOP
 DOE .                     N/A:  DOE NUMBER
 DCON.         Sperry Drilling:  DIRECTNL CONTR
 UNIT.                     N/A:  LOGGING EQUIPMENT ID
 WTYP.                Deviated:  WELL TYPE
 CNTY.                        :  COUNTY
 LOC .                        :  LOCATION
 LMF .             Drill Floor:  LOG MEASURED FROM
 TVDS.m                  43.60:  TVDSS CORRECTN
 LATI.deg                40.02:  LATITUDE
 LONG.deg                51.45:  LONGITUDE
 WHNS.m                  -7.04:  WELL HEAD N/S
 WHEW.m                  -0.67:  WELL HEAD E/W
 UTMX.m              538762.90:  UTM X
 UTMY.m             4431871.34:  UTM Y
 DFWL.m                   0.00:  DISTANCE FWL
 DFSL.m                   0.00:  DISTANCE FSL
 SDEP.m                4127.00:  START DEPTH
 TDD .m                5084.50:  TOTAL DEPTH (DRILLER)
 VSDR.deg               140.47:  VERT SEC DIRECT
 GVFD.g                   1.00:  GRAVITY FIELD
 MFLD.nT              50362.00:  MAGNETIC FIELD
 MDIP.deg                59.48:  MAGNETIC DIP
 MDEC.deg                 6.47:  MAGNETIC DECL
 GRDC.deg                 0.31:  GRID CORRECTION
 AZTC.deg                 6.16:  AZM TOTAL CORR
 EPD .m                   0.00:  ELEVATION
 EGL .m                   0.00:  GROUND ELEVATION
 WDMS.m                 151.80:  WD ELEV
 APD .m                  43.60:  DEPTH ABOVE PD
 DEP .m                4092.57:  DEPTH
 AGAP.m                  43.60:  AIR GAP
 VSEW.m                  -0.67:  VERT SEC E/W
 VSNS.m                  -7.04:  VERT SEC N/S
 EKB .m                  43.60:  KB ELEVATION
 EDF .m                  43.60:  DF ELEVATION
 TDL .m                 957.50:  TOTAL DEPTH (LOGGER)
 VSC .                       0:  VS TO CLOSURE
 MAGU.                 1851413:  MAGUTM CHECKSUM
~Parameter Information Block
#MNEM.UNIT       Value        Description
#---------     -----------    ---------------------------
 AV  .mps                 1.50:  Ann Velocity 
 AVMX.mps                 2.00:  Max Ann Veloc 
 AZIF.deg               184.66:  Azm, Final 
 BHAT.        Rotary Steerable:  BHA Type 
 BREV.rev               300.00:  Rev Bit Total 
 BROT.°/30m              -0.50:  Build Rotating 
 BS  .in                  8.50:  Bit Size 
 BSZ .in                  8.50:  Bit Size 
 BTPL.psig              370.00:  Bit Press Loss 
 CABU.                      No:  Customer Abuse 
 CGEO.      Behruz Shahbaliyev:  Customer Geo 
 COMM.                     TD\:  Run Comments 1 
 TCS .hr                140.08:  Time Ciculation Ended 
 CV  .mps                 3.00:  Crit Velocity 
 CVMX.mps                 3.20:  Max Crit Veloc 
 DD1 .            Musa Ahmadov:  Direct Drillr 1 
 DD2 .           Hamid Ahmadov:  Direct Drillr 2 
 DDSV.               Geo-Pilot:  DD Service 
 DEFF.%                  98.40:  % Det Eff 
 DLRX.°/30m               3.40:  Dogleg Rot Max 
 DLSO.°/30m               1.45:  Dogleg Oriented 
 DLSX.°/30m               3.40:  Dogleg Str Max 
 DRET.      18.40.00 29-Aug-21:  Drill End Time 
 DRST.      21.00.00 20-Aug-21:  Drill Start Tim 
 DTIM.hr                 69.47:  Time Drilling 
 EDEP.m                5084.50:  End Depth 
 ENG1.      Artemiy Matviyanov:  Engineer 1 
 ENG2.         Almaz Almadatov:  Engineer 2 
 ETIM.      18.40.00 29-Aug-21:  End Time 
 FLOI.gpm               500.00:  Flow In 
 FLON.gpm               400.00:  Flow In Min 
 FLOS.cptm                0.00:  Fluid Loss 
 FLOX.gpm               500.00:  Flow In Max 
 DFT .        Mineral Oil Base:  Mud Type 
 HFLO.                      No:  High Flow 
 HPRE.                      No:  High Pressure 
 HTEM.                      No:  High Temp 
 HYDO.m                   1.80:  Hydro Offset 
 IFIN.deg                25.62:  Inc, Final 
 IMAX.deg                48.69:  Inc Max 
 IMIN.deg                24.01:  Inc Min 
 IMND.m                4962.57:  Inc Min Depth 
 IMXD.m                4119.01:  Inc Max Depth 
 JARR.                      No:  Jarring 
 LETM.      18.40.00 29-Aug-21:  Log End Time 
 LOST.hr                     0:  Lost Rig Time 
 LSTM.      21.00.00 20-Aug-21:  Log Start Time 
 MDCL.ppm             41500.00:  Mud Chlorides 
 MDES.     Inversion Oil/Synthetic:  Mud Desc 
 DFD .sg                  1.56:  Mud Density 
 MDMN.sg                  1.56:  Dens Mud Min 
 MDMX.sg                  1.56:  Dens Mud Max 
 MOIL.                      70:  Run Mud Oil % 
 MOWR.                   70:30:  Run Mud OWR 
 MSND.                     0.2:  Run Mud Sand % 
 MSOL.                    23.3:  Run Mud Solids% 
 DFV .spqt               78.00:  Mud Viscosity 
 MWOD.in                  6.75:  MWD Tool OD 
 MWSI.                      No:  Serv Intrp, MWD 
 OTIM.hr                218.30:  Time Operating 
 PCON.           Look Like New:  Pad Condition 
 PMAX.psia            11015.30:  Press Op, Max 
 PV  .cP                 38.00:  Mud PV 
 RUN .                     300:  Run Number 
 ROPA.m/hr               15.00:  ROP Avg 
 ROPN.m/hr                9.00:  ROP Min 
 ROPX.m/hr               17.00:  ROP Max 
 RPMA.rpm               120.00:  RPM Surface Avg 
 RPMN.rpm                90.00:  RPM Surface Min 
 RPMX.rpm               140.00:  RPM Surface Max 
 RRUN.                     300:  Rig Run Number 
 RTIM.hr                 31.53:  Time Reaming 
 SAZI.deg               331.64:  Azm, Start 
 SDEP.m                4127.00:  Start Depth 
 SIDD.                      No:  Serv Intrp, DD 
 SINC.deg                48.43:  Inc, Start 
 SPPA.psig             5830.00:  SPP Avg 
 SPPN.psig             5600.00:  SPP Min 
 SPPX.psig             5900.00:  SPP Max 
 STIM.      21.00.00 20-Aug-21:  Start Time 
 SVCS.                 DD, MWD:  Services 
 SVER.                    9.20:  Sperry Version 
 TDAT.m                 957.50:  Tot Depth Attmp 
 TDDF.                      No:  Trip for DD 
 TDLG.m                 957.50:  Tot Depth Loggd 
 TFF .                      No:  Trip for Fail 
 TQAA.f-kp               15.00:  Torque Abs Avg 
 TQAN.f-kp               12.00:  Torque Abs Min 
 TQAX.f-kp               19.00:  Torque Abs Max 
 TRRT.°/30m              -3.40:  Turn Rotating 
 MRT .                  EWR-M5:  Maximum Recorded Temperature 
 TTMX.degC              100.00:  Max Tool Temp 
 VS01.                90639251:  Virtual Str1 SN 
 VS02.                90634715:  Virtual Str2 SN 
 VS03.                90652479:  Virtual Str3 SN 
 VS04.                90642262:  Virtual Str4 SN 
 WBMN.klb                 0.00:  WOB Min 
 WITN.           Murad Guliyev:  Customer Rep 
 WITN.          Yashar Gaziyev:  Customer Rep 2 
 WOBA.klb                 9.00:  WOB Avg 
 WOBX.klb                12.00:  WOB Max 
 YP  .lhf2               30.00:  Yield Point 
~Curve Information Block
#MNEM.UNIT                 API CODE     Curve Description
#---------               -----------    ---------------------------
 TIME.HHMMSS            00 000 000 000:  GT Time & Date
 GTDEPTH.m              00 000 000 000:  GT Depth
 GTPQH.psia             00 000 000 000:  GT HR Quartz Pressure
 GTTQ.degC              00 000 000 000:  GT Quartz Temperature
 GTTN.NONE              00 000 000 000:  GT Test Number
 GTET.sec               00 000 000 000:  GT Elapsed Test Time
 GTTVD.m                00 000 000 000:  GT True Vertical Depth
#Other Information
#
#WARRANTY: Halliburton will use its best efforts to furnish customers with 
#accurate information and interpretations that are part of, and incident to, the services 
#provided.  However, Halliburton cannot and does not warrant the accuracy 
#or correctness of such information and interpretations.  Under no circumstances should any 
#such information or interpretation be relied upon as the sole basis for any drilling, 
#completion, production, or financial decision or any procedure involving any risk to the 
#safety of any drilling venture, drilling rig or its crew or any other third party.  The 
#Customer has full responsibility for all drilling, completion and production operation.  
#Halliburton makes no representations or warranties, either expressed or 
#implied, including, but not limited to, the implied warranties of merchantability or fitness 
#for a particular purpose, with respect to the services rendered.  In no event will 
#Halliburton be liable for failure to obtain any particular results or for 
#any damages, including, but not limited to, indirect, special or consequential damages, 
#resulting from the use of any information or interpretation provided by Halliburton.
#
~A           TIME           GTDEPTH  GTPQH  GTTQ  GTTN  GTET   GTTVD  
# ...
   09:29:30.371.27-Aug-2021 4964.50 5198.35 86.32 7.00 253.11 3307.39
   09:29:30.571.27-Aug-2021 4964.50 5198.35 86.32 7.00 253.31 3307.39
   09:29:30.771.27-Aug-2021 4964.50 5198.35 86.32 7.00 253.51 3307.39
   09:29:30.971.27-Aug-2021 4964.50 5198.34 86.32 7.00 253.71 3307.39
   09:29:31.171.27-Aug-2021 4964.50 5198.35 86.32 7.00 253.91 3307.39
   09:29:31.371.27-Aug-2021 4964.50 5198.35 86.32 7.00 254.11 3307.39
   09:29:31.571.27-Aug-2021 4964.50 5198.35 86.32 7.00 254.31 3307.39
   09:29:31.771.27-Aug-2021 4964.50 5198.34 86.32 7.00 254.51 3307.39
   09:29:31.971.27-Aug-2021 4964.50 5198.35 86.32 7.00 254.71 3307.39
   09:29:32.172.27-Aug-2021 4964.50 5198.35 86.32 7.00 254.91 3307.39
   09:29:32.372.27-Aug-2021 4964.50 5198.34 86.32 7.00 255.11 3307.39
   09:29:32.572.27-Aug-2021 4964.50 5198.34 86.32 7.00 255.31 3307.39
   09:29:32.772.27-Aug-2021 4964.50 5198.33 86.32 7.00 255.51 3307.39
   09:29:32.972.27-Aug-2021 4964.50 5198.33 86.32 7.00 255.71 3307.39
   09:29:33.172.27-Aug-2021 4964.50 5198.33 86.32 7.00 255.91 3307.39
   09:29:33.372.27-Aug-2021 4964.50 5198.34 86.32 7.00 256.11 3307.39
   09:29:33.572.27-Aug-2021 4964.50 5198.34 86.32 7.00 256.31 3307.39
   09:29:33.772.27-Aug-2021 4964.50 5198.34 86.32 7.00 256.51 3307.39
   09:29:33.972.27-Aug-2021 4964.50 5198.35 86.32 7.00 256.71 3307.39
   09:29:34.172.27-Aug-2021 4964.50 5198.34 86.32 7.00 256.91 3307.39
   09:29:34.372.27-Aug-2021 4964.50 5198.33 86.32 7.00 257.11 3307.39
   09:29:34.573.27-Aug-2021 4964.50 5198.33 86.32 7.00 257.31 3307.39
   09:29:34.773.27-Aug-2021 4964.50 5198.33 86.32 7.00 257.51 3307.39
   09:29:34.973.27-Aug-2021 4964.50 5198.33 86.32 7.00 257.71 3307.39
   09:29:35.173.27-Aug-2021 4964.50 5198.34 86.32 7.00 257.91 3307.39
   09:29:35.373.27-Aug-2021 4964.50 5198.35 86.32 7.00 258.11 3307.39
   09:29:35.573.27-Aug-2021 4964.50 5198.35 86.32 7.00 258.31 3307.39
   09:29:35.773.27-Aug-2021 4964.50 5198.33 86.32 7.00 258.51 3307.39
   09:29:35.973.27-Aug-2021 4964.50 5198.34 86.32 7.00 258.71 3307.39
   09:29:36.173.27-Aug-2021 4964.50 5198.35 86.32 7.00 258.91 3307.39
   09:29:36.373.27-Aug-2021 4964.50 5198.35 86.32 7.00 259.11 3307.39
   09:29:36.573.27-Aug-2021 4964.50 5198.35 86.32 7.00 259.31 3307.39
   09:29:36.773.27-Aug-2021 4964.50 5198.33 86.32 7.00 259.51 3307.39
   09:29:36.974.27-Aug-2021 4964.50 5198.33 86.32 7.00 259.71 3307.39
   09:29:37.174.27-Aug-2021 4964.50 5198.33 86.32 7.00 259.91 3307.39
   09:29:37.374.27-Aug-2021 4964.50 5198.33 86.32 7.00 260.11 3307.39
   09:29:37.574.27-Aug-2021 4964.50 5198.33 86.32 7.00 260.31 3307.39
   09:29:37.774.27-Aug-2021 4964.50 5198.32 86.32 7.00 260.51 3307.39
   09:29:37.974.27-Aug-2021 4964.50 5198.35 86.32 7.00 260.71 3307.39
   09:29:38.174.27-Aug-2021 4964.50 5198.33 86.32 7.00 260.91 3307.39
   09:29:38.374.27-Aug-2021 4964.50 5198.37 86.32 7.00 261.11 3307.39
   09:29:38.574.27-Aug-2021 4964.50 5198.37 86.32 7.00 261.31 3307.39
   09:29:38.774.27-Aug-2021 4964.50 5198.32 86.32 7.00 261.51 3307.39
   09:29:38.974.27-Aug-2021 4964.50 5198.32 86.32 7.00 261.71 3307.39
   09:29:39.174.27-Aug-2021 4964.50 5198.33 86.32 7.00 261.91 3307.39
   09:29:39.375.27-Aug-2021 4964.50 5198.33 86.32 7.00 262.11 3307.39
   09:29:39.575.27-Aug-2021 4964.50 5198.33 86.32 7.00 262.31 3307.39
   09:29:39.775.27-Aug-2021 4964.50 5198.32 86.32 7.00 262.51 3307.39
   09:29:39.975.27-Aug-2021 4964.50 5198.33 86.32 7.00 262.71 3307.39
   09:29:40.175.27-Aug-2021 4964.50 5198.33 86.32 7.00 262.91 3307.39
   09:29:40.375.27-Aug-2021 4964.50 5198.33 86.32 7.00 263.11 3307.39
   09:29:40.575.27-Aug-2021 4964.50 5198.33 86.32 7.00 263.31 3307.39
   09:29:40.775.27-Aug-2021 4964.50 5198.32 86.32 7.00 263.51 3307.39
   09:29:40.975.27-Aug-2021 4964.50 5198.33 86.32 7.00 263.71 3307.39
   09:29:41.175.27-Aug-2021 4964.50 5198.33 86.32 7.00 263.91 3307.39
   09:29:41.375.27-Aug-2021 4964.50 5198.32 86.32 7.00 264.11 3307.39
   09:29:41.575.27-Aug-2021 4964.50 5198.32 86.32 7.00 264.31 3307.39
   09:29:41.776.27-Aug-2021 4964.50 5198.33 86.32 7.00 264.51 3307.39
   09:29:41.976.27-Aug-2021 4964.50 5198.32 86.32 7.00 264.71 3307.39
   09:29:42.176.27-Aug-2021 4964.50 5198.33 86.32 7.00 264.91 3307.39
   09:29:42.376.27-Aug-2021 4964.50 5198.33 86.32 7.00 265.11 3307.39
   09:29:42.576.27-Aug-2021 4964.50 5198.33 86.32 7.00 265.31 3307.39
   09:29:42.776.27-Aug-2021 4964.50 5198.33 86.32 7.00 265.51 3307.39
   09:29:42.976.27-Aug-2021 4964.50 5198.33 86.32 7.00 265.71 3307.39
   09:29:43.176.27-Aug-2021 4964.50 5198.34 86.32 7.00 265.91 3307.39
   09:29:43.376.27-Aug-2021 4964.50 5198.33 86.32 7.00 266.11 3307.39
   09:29:43.576.27-Aug-2021 4964.50 5198.33 86.32 7.00 266.31 3307.39
   09:29:43.776.27-Aug-2021 4964.50 5198.34 86.32 7.00 266.51 3307.39
   09:29:43.976.27-Aug-2021 4964.50 5198.20 86.32 7.00 266.71 3307.39
   09:29:44.177.27-Aug-2021 4964.50 5175.11 86.32 7.00 266.91 3307.39
   09:29:44.377.27-Aug-2021 4964.50 5165.14 86.32 7.00 267.11 3307.39
   09:29:44.577.27-Aug-2021 4964.50 5165.14 86.32 7.00 267.31 3307.39
   09:29:44.777.27-Aug-2021 4964.50 5163.08 86.32 7.00 267.51 3307.39
   09:29:44.977.27-Aug-2021 4964.50 5163.38 86.32 7.00 267.71 3307.39
   09:29:45.177.27-Aug-2021 4964.50 5163.28 86.32 7.00 267.91 3307.39
   09:29:45.377.27-Aug-2021 4964.50 5163.84 86.32 7.00 268.11 3307.39
   09:29:45.577.27-Aug-2021 4964.50 5163.84 86.32 7.00 268.31 3307.39
   09:29:45.777.27-Aug-2021 4964.50 5164.19 86.32 7.00 268.51 3307.39
   09:29:45.977.27-Aug-2021 4964.50 5164.19 86.32 7.00 268.71 3307.39
   09:29:46.177.27-Aug-2021 4964.50 5164.15 86.32 7.00 268.91 3307.39
   09:29:46.377.27-Aug-2021 4964.50 5164.29 86.32 7.00 269.11 3307.39
   09:29:46.578.27-Aug-2021 4964.50 5164.29 86.32 7.00 269.31 3307.39
   09:29:46.778.27-Aug-2021 4964.50 5164.44 86.32 7.00 269.51 3307.39
   09:29:46.978.27-Aug-2021 4964.50 5164.52 86.32 7.00 269.71 3307.39
   09:29:47.178.27-Aug-2021 4964.50 5164.57 86.32 7.00 269.91 3307.39
   09:29:47.378.27-Aug-2021 4964.50 5164.76 86.32 7.00 270.11 3307.39
   09:29:47.578.27-Aug-2021 4964.50 5164.76 86.32 7.00 270.31 3307.39
   09:29:47.778.27-Aug-2021 4964.50 5164.44 86.32 7.00 270.51 3307.39
   09:29:47.978.27-Aug-2021 4964.50 5165.10 86.32 7.00 270.71 3307.39
   09:29:48.178.27-Aug-2021 4964.50 5164.98 86.32 7.00 270.91 3307.39
   09:29:48.378.27-Aug-2021 4964.50 5165.17 86.32 7.00 271.11 3307.39
   09:29:48.578.27-Aug-2021 4964.50 5165.17 86.32 7.00 271.31 3307.39
   09:29:48.778.27-Aug-2021 4964.50 5165.22 86.32 7.00 271.51 3307.39
   09:29:48.979.27-Aug-2021 4964.50 5165.05 86.32 7.00 271.71 3307.39
   09:29:49.179.27-Aug-2021 4964.50 5165.14 86.32 7.00 271.91 3307.39
   09:29:49.379.27-Aug-2021 4964.50 5165.33 86.32 7.00 272.11 3307.39
   09:29:49.579.27-Aug-2021 4964.50 5165.33 86.32 7.00 272.31 3307.39
   09:29:49.779.27-Aug-2021 4964.50 5165.21 86.32 7.00 272.51 3307.39
   09:29:49.979.27-Aug-2021 4964.50 5165.24 86.32 7.00 272.71 3307.39
   09:29:50.179.27-Aug-2021 4964.50 5165.40 86.32 7.00 272.91 3307.39
   09:29:50.379.27-Aug-2021 4964.50 5165.59 86.32 7.00 273.11 3307.39
   09:29:50.579.27-Aug-2021 4964.50 5165.59 86.32 7.00 273.31 3307.39
   09:29:50.779.27-Aug-2021 4964.50 5165.06 86.32 7.00 273.51 3307.39
   09:29:50.979.27-Aug-2021 4964.50 5165.95 86.32 7.00 273.71 3307.39
   09:29:51.179.27-Aug-2021 4964.50 5165.75 86.32 7.00 273.91 3307.39
   09:29:51.380.27-Aug-2021 4964.50 5165.88 86.32 7.00 274.11 3307.39
   09:29:51.580.27-Aug-2021 4964.50 5165.88 86.32 7.00 274.31 3307.39
   09:29:51.780.27-Aug-2021 4964.50 5166.14 86.32 7.00 274.51 3307.39
   09:29:51.980.27-Aug-2021 4964.50 5166.15 86.32 7.00 274.71 3307.39
   09:29:52.180.27-Aug-2021 4964.50 5166.10 86.32 7.00 274.91 3307.39
   09:29:52.380.27-Aug-2021 4964.50 5166.10 86.32 7.00 275.11 3307.39
   09:29:52.580.27-Aug-2021 4964.50 5166.10 86.32 7.00 275.31 3307.39
   09:29:52.780.27-Aug-2021 4964.50 5166.32 86.32 7.00 275.51 3307.39
   09:29:52.980.27-Aug-2021 4964.50 5166.49 86.32 7.00 275.71 3307.39
   09:29:53.180.27-Aug-2021 4964.50 5166.52 86.32 7.00 275.91 3307.39
