~Version Information
 VERS.                  2.0:   CWLS log ASCII Standard -VERSION 2.0
 WRAP.                   NO:   One line per depth step
~Well Information Block
#MNEM.UNIT     VALUE/NAME     DESCRIPTION
#---------     -----------    ---------------------------
 STRT.S             16:56:36 27-Aug-21: START TIME 16:56:36 27-Aug-21
 STOP.S             17:03:52 27-Aug-21: STOP TIME  17:03:52 27-Aug-21
 STEP.S                   0.00: STEP TIME
 NULL.                 -999.25: NULL VALUE
 DFWT.                        :  DIST FWL TEXT
 DFST.                        :  DIST FSL TEXT
 DMF .             Drill Floor:  DRILL MEAS FROM
 STIM.      20.00.00 17-Aug-21:  START TIME
 DATE.      19.00.00 29-Aug-21:  END TIME
 SPUD.               15-Aug-21:  SPUD DATE
 NREF.                    Grid:  NORTH REFERENCE
 HPTY.       Minimum Curvature:  HOLE POS TYPE
 DMOD.             Drill Model:  DRILL MOD DESC
 SVYD.                  Survey:  SURVEY DESC
 ILTD.               Lithology:  INTERP LTH DESC
 FTOP.          Formation Tops:  FORM TOPS DESC
 RIG .              East Azeri:  RIG NAME
 PDAT.          Mean Sea Level:  PERMANENT DATUM
 FLD .                     ACG:  FIELD NAME
 SON .        AZ-XX-0907180857:  JOB NUMBER
 CTRY.              Azerbaijan:  COUNTRY NAME
 WELL.                    D23x:  WELL NAME
 SRVC.     Turan Drilling and Engineering:  CONTRACTOR
 COMP.     BP Exploration (Caspian Sea) Ltd.:  COMPANY
 UWI .            /AZE00000214:  UNIQUE WELL IDENTIFIER
 API .            /AZE00000214:  API NUMBER
 MDS .        Operator Entered:  MAG DATA SOURCE
 BASE.              Azerbaijan:  LOGGING EQUIPMENT BASE LOCATION
 REGN.                   EESSA:  REGION
 PROV.                    Baku:  PROVINCE
 STAT.                    Baku:  STATE NAME
 MWDS.                    Baku:  MWD SHOP
 DOE .                     N/A:  DOE NUMBER
 DCON.         Sperry Drilling:  DIRECTNL CONTR
 UNIT.                     N/A:  LOGGING EQUIPMENT ID
 WTYP.                Deviated:  WELL TYPE
 CNTY.                        :  COUNTY
 LOC .                        :  LOCATION
 LMF .             Drill Floor:  LOG MEASURED FROM
 TVDS.m                  43.60:  TVDSS CORRECTN
 LATI.deg                40.02:  LATITUDE
 LONG.deg                51.45:  LONGITUDE
 WHNS.m                  -7.04:  WELL HEAD N/S
 WHEW.m                  -0.67:  WELL HEAD E/W
 UTMX.m              538762.90:  UTM X
 UTMY.m             4431871.34:  UTM Y
 DFWL.m                   0.00:  DISTANCE FWL
 DFSL.m                   0.00:  DISTANCE FSL
 SDEP.m                4127.00:  START DEPTH
 TDD .m                5084.50:  TOTAL DEPTH (DRILLER)
 VSDR.deg               140.47:  VERT SEC DIRECT
 GVFD.g                   1.00:  GRAVITY FIELD
 MFLD.nT              50362.00:  MAGNETIC FIELD
 MDIP.deg                59.48:  MAGNETIC DIP
 MDEC.deg                 6.47:  MAGNETIC DECL
 GRDC.deg                 0.31:  GRID CORRECTION
 AZTC.deg                 6.16:  AZM TOTAL CORR
 EPD .m                   0.00:  ELEVATION
 EGL .m                   0.00:  GROUND ELEVATION
 WDMS.m                 151.80:  WD ELEV
 APD .m                  43.60:  DEPTH ABOVE PD
 DEP .m                4092.57:  DEPTH
 AGAP.m                  43.60:  AIR GAP
 VSEW.m                  -0.67:  VERT SEC E/W
 VSNS.m                  -7.04:  VERT SEC N/S
 EKB .m                  43.60:  KB ELEVATION
 EDF .m                  43.60:  DF ELEVATION
 TDL .m                 957.50:  TOTAL DEPTH (LOGGER)
 VSC .                       0:  VS TO CLOSURE
 MAGU.                 1851413:  MAGUTM CHECKSUM
~Parameter Information Block
#MNEM.UNIT       Value        Description
#---------     -----------    ---------------------------
 AV  .mps                 1.50:  Ann Velocity 
 AVMX.mps                 2.00:  Max Ann Veloc 
 AZIF.deg               184.66:  Azm, Final 
 BHAT.        Rotary Steerable:  BHA Type 
 BREV.rev               300.00:  Rev Bit Total 
 BROT.°/30m              -0.50:  Build Rotating 
 BS  .in                  8.50:  Bit Size 
 BSZ .in                  8.50:  Bit Size 
 BTPL.psig              370.00:  Bit Press Loss 
 CABU.                      No:  Customer Abuse 
 CGEO.      Behruz Shahbaliyev:  Customer Geo 
 COMM.                     T
k:  Run Comments 1 
 TCS .hr                140.08:  Time Ciculation Ended 
 CV  .mps                 3.00:  Crit Velocity 
 CVMX.mps                 3.20:  Max Crit Veloc 
 DD1 .            Musa Ahmadov:  Direct Drillr 1 
 DD2 .           Hamid Ahmadov:  Direct Drillr 2 
 DDSV.               Geo-Pilot:  DD Service 
 DEFF.%                  98.40:  % Det Eff 
 DLRX.°/30m               3.40:  Dogleg Rot Max 
 DLSO.°/30m               1.45:  Dogleg Oriented 
 DLSX.°/30m               3.40:  Dogleg Str Max 
 DRET.      18.40.00 29-Aug-21:  Drill End Time 
 DRST.      21.00.00 20-Aug-21:  Drill Start Tim 
 DTIM.hr                 69.47:  Time Drilling 
 EDEP.m                5084.50:  End Depth 
 ENG1.      Artemiy Matviyanov:  Engineer 1 
 ENG2.         Almaz Almadatov:  Engineer 2 
 ETIM.      18.40.00 29-Aug-21:  End Time 
 FLOI.gpm               500.00:  Flow In 
 FLON.gpm               400.00:  Flow In Min 
 FLOS.cptm                0.00:  Fluid Loss 
 FLOX.gpm               500.00:  Flow In Max 
 DFT .        Mineral Oil Base:  Mud Type 
 HFLO.                      No:  High Flow 
 HPRE.                      No:  High Pressure 
 HTEM.                      No:  High Temp 
 HYDO.m                   1.80:  Hydro Offset 
 IFIN.deg                25.62:  Inc, Final 
 IMAX.deg                48.69:  Inc Max 
 IMIN.deg                24.01:  Inc Min 
 IMND.m                4962.57:  Inc Min Depth 
 IMXD.m                4119.01:  Inc Max Depth 
 JARR.                      No:  Jarring 
 LETM.      18.40.00 29-Aug-21:  Log End Time 
 LOST.hr                     0:  Lost Rig Time 
 LSTM.      21.00.00 20-Aug-21:  Log Start Time 
 MDCL.ppm             41500.00:  Mud Chlorides 
 MDES.     Inversion Oil/Synthetic:  Mud Desc 
 DFD .sg                  1.56:  Mud Density 
 MDMN.sg                  1.56:  Dens Mud Min 
 MDMX.sg                  1.56:  Dens Mud Max 
 MOIL.                      70:  Run Mud Oil % 
 MOWR.                   70:30:  Run Mud OWR 
 MSND.                     0.2:  Run Mud Sand % 
 MSOL.                    23.3:  Run Mud Solids% 
 DFV .spqt               78.00:  Mud Viscosity 
 MWOD.in                  6.75:  MWD Tool OD 
 MWSI.                      No:  Serv Intrp, MWD 
 OTIM.hr                218.30:  Time Operating 
 PCON.           Look Like New:  Pad Condition 
 PMAX.psia            11015.30:  Press Op, Max 
 PV  .cP                 38.00:  Mud PV 
 RUN .                     300:  Run Number 
 ROPA.m/hr               15.00:  ROP Avg 
 ROPN.m/hr                9.00:  ROP Min 
 ROPX.m/hr               17.00:  ROP Max 
 RPMA.rpm               120.00:  RPM Surface Avg 
 RPMN.rpm                90.00:  RPM Surface Min 
 RPMX.rpm               140.00:  RPM Surface Max 
 RRUN.                     300:  Rig Run Number 
 RTIM.hr                 31.53:  Time Reaming 
 SAZI.deg               331.64:  Azm, Start 
 SDEP.m                4127.00:  Start Depth 
 SIDD.                      No:  Serv Intrp, DD 
 SINC.deg                48.43:  Inc, Start 
 SPPA.psig             5830.00:  SPP Avg 
 SPPN.psig             5600.00:  SPP Min 
 SPPX.psig             5900.00:  SPP Max 
 STIM.      21.00.00 20-Aug-21:  Start Time 
 SVCS.                 DD, MWD:  Services 
 SVER.                    9.20:  Sperry Version 
 TDAT.m                 957.50:  Tot Depth Attmp 
 TDDF.                      No:  Trip for DD 
 TDLG.m                 957.50:  Tot Depth Loggd 
 TFF .                      No:  Trip for Fail 
 TQAA.f-kp               15.00:  Torque Abs Avg 
 TQAN.f-kp               12.00:  Torque Abs Min 
 TQAX.f-kp               19.00:  Torque Abs Max 
 TRRT.°/30m              -3.40:  Turn Rotating 
 MRT .                  EWR-M5:  Maximum Recorded Temperature 
 TTMX.degC              100.00:  Max Tool Temp 
 VS01.                90639251:  Virtual Str1 SN 
 VS02.                90634715:  Virtual Str2 SN 
 VS03.                90652479:  Virtual Str3 SN 
 VS04.                90642262:  Virtual Str4 SN 
 WBMN.klb                 0.00:  WOB Min 
 WITN.           Murad Guliyev:  Customer Rep 
 WITN.          Yashar Gaziyev:  Customer Rep 2 
 WOBA.klb                 9.00:  WOB Avg 
 WOBX.klb                12.00:  WOB Max 
 YP  .lhf2               30.00:  Yield Point 
~Curve Information Block
#MNEM.UNIT                 API CODE     Curve Description
#---------               -----------    ---------------------------
 TIME.HHMMSS            00 000 000 000:  GT Time & Date
 GTDEPTH.m              00 000 000 000:  GT Depth
 GTPQH.psia             00 000 000 000:  GT HR Quartz Pressure
 GTTQ.degC              00 000 000 000:  GT Quartz Temperature
 GTTN.NONE              00 000 000 000:  GT Test Number
 GTET.sec               00 000 000 000:  GT Elapsed Test Time
 GTTVD.m                00 000 000 000:  GT True Vertical Depth
#Other Information
#
#WARRANTY: Halliburton will use its best efforts to furnish customers with 
#accurate information and interpretations that are part of, and incident to, the services 
#provided.  However, Halliburton cannot and does not warrant the accuracy 
#or correctness of such information and interpretations.  Under no circumstances should any 
#such information or interpretation be relied upon as the sole basis for any drilling, 
#completion, production, or financial decision or any procedure involving any risk to the 
#safety of any drilling venture, drilling rig or its crew or any other third party.  The 
#Customer has full responsibility for all drilling, completion and production operation.  
#Halliburton makes no representations or warranties, either expressed or 
#implied, including, but not limited to, the implied warranties of merchantability or fitness 
#for a particular purpose, with respect to the services rendered.  In no event will 
#Halliburton be liable for failure to obtain any particular results or for 
#any damages, including, but not limited to, indirect, special or consequential damages, 
#resulting from the use of any information or interpretation provided by Halliburton.
#
~A           TIME           GTDEPTH  GTPQH  GTTQ  GTTN   GTET   GTTVD  
# ...
   17:02:37.408.27-Aug-2021 4788.50 7540.52 83.15 18.00 361.24 3147.67
   17:02:37.608.27-Aug-2021 4788.50 7530.73 83.15 18.00 361.44 3147.67
   17:02:37.808.27-Aug-2021 4788.50 7534.27 83.15 18.00 361.64 3147.67
   17:02:38.007.27-Aug-2021 4788.50 7534.27 83.15 18.00 361.84 3147.67
   17:02:38.207.27-Aug-2021 4788.50 7533.70 83.15 18.00 362.04 3147.67
   17:02:38.407.27-Aug-2021 4788.50 7534.05 83.15 18.00 362.24 3147.67
   17:02:38.607.27-Aug-2021 4788.50 7533.57 83.15 18.00 362.44 3147.67
   17:02:38.807.27-Aug-2021 4788.50 7533.85 83.15 18.00 362.64 3147.67
   17:02:39.006.27-Aug-2021 4788.50 7533.85 83.15 18.00 362.84 3147.67
   17:02:39.206.27-Aug-2021 4788.50 7533.90 83.15 18.00 363.04 3147.67
   17:02:39.406.27-Aug-2021 4788.50 7534.08 83.15 18.00 363.24 3147.67
   17:02:39.606.27-Aug-2021 4788.50 7534.22 83.15 18.00 363.44 3147.67
   17:02:39.806.27-Aug-2021 4788.50 7534.15 83.15 18.00 363.64 3147.67
   17:02:40.005.27-Aug-2021 4788.50 7534.15 83.15 18.00 363.84 3147.67
   17:02:40.205.27-Aug-2021 4788.50 7534.15 83.15 18.00 364.04 3147.67
   17:02:40.405.27-Aug-2021 4788.50 7534.11 83.15 18.00 364.24 3147.67
   17:02:40.605.27-Aug-2021 4788.50 7540.12 83.15 18.00 364.44 3147.67
   17:02:40.805.27-Aug-2021 4788.50 7531.03 83.15 18.00 364.64 3147.67
   17:02:41.004.27-Aug-2021 4788.50 7531.03 83.15 18.00 364.84 3147.67
   17:02:41.204.27-Aug-2021 4788.50 7535.14 83.15 18.00 365.04 3147.67
   17:02:41.404.27-Aug-2021 4788.50 7533.96 83.15 18.00 365.24 3147.67
   17:02:41.604.27-Aug-2021 4788.50 7534.03 83.15 18.00 365.44 3147.67
   17:02:41.804.27-Aug-2021 4788.50 7533.49 83.15 18.00 365.64 3147.67
   17:02:42.003.27-Aug-2021 4788.50 7533.49 83.15 18.00 365.83 3147.67
   17:02:42.203.27-Aug-2021 4788.50 7533.85 83.15 18.00 366.03 3147.67
   17:02:42.403.27-Aug-2021 4788.50 7534.21 83.15 18.00 366.23 3147.67
   17:02:42.603.27-Aug-2021 4788.50 7534.37 83.15 18.00 366.43 3147.67
   17:02:42.803.27-Aug-2021 4788.50 7534.66 83.15 18.00 366.63 3147.67
   17:02:43.002.27-Aug-2021 4788.50 7534.66 83.15 18.00 366.83 3147.67
   17:02:43.202.27-Aug-2021 4788.50 7534.55 83.15 18.00 367.03 3147.67
   17:02:43.402.27-Aug-2021 4788.50 7534.55 83.15 18.00 367.23 3147.67
   17:02:43.602.27-Aug-2021 4788.50 7534.47 83.15 18.00 367.43 3147.67
   17:02:43.802.27-Aug-2021 4788.50 7534.22 83.15 18.00 367.63 3147.67
   17:02:44.001.27-Aug-2021 4788.50 7534.22 83.15 18.00 367.83 3147.67
   17:02:44.201.27-Aug-2021 4788.50 7533.83 83.15 18.00 368.03 3147.67
   17:02:44.401.27-Aug-2021 4788.50 7533.97 83.15 18.00 368.23 3147.67
   17:02:44.601.27-Aug-2021 4788.50 7534.77 83.15 18.00 368.43 3147.67
   17:02:44.801.27-Aug-2021 4788.50 7534.25 83.15 18.00 368.63 3147.67
   17:02:45.000.27-Aug-2021 4788.50 7534.25 83.15 18.00 368.83 3147.67
   17:02:45.200.27-Aug-2021 4788.50 7536.99 83.15 18.00 369.03 3147.67
   17:02:45.400.27-Aug-2021 4788.50 7533.37 83.15 18.00 369.23 3147.67
   17:02:45.600.27-Aug-2021 4788.50 7534.28 83.15 18.00 369.43 3147.67
   17:02:45.800.27-Aug-2021 4788.50 7534.76 83.15 18.00 369.63 3147.67
   17:02:45.999.27-Aug-2021 4788.50 7534.76 83.15 18.00 369.83 3147.67
   17:02:46.199.27-Aug-2021 4788.50 7533.44 83.15 18.00 370.03 3147.67
   17:02:46.399.27-Aug-2021 4788.50 7537.18 83.15 18.00 370.23 3147.67
   17:02:46.599.27-Aug-2021 4788.50 7533.82 83.15 18.00 370.43 3147.67
   17:02:46.799.27-Aug-2021 4788.50 7534.82 83.15 18.00 370.63 3147.67
   17:02:46.998.27-Aug-2021 4788.50 7534.82 83.15 18.00 370.83 3147.67
   17:02:47.198.27-Aug-2021 4788.50 7533.89 83.15 18.00 371.03 3147.67
   17:02:47.398.27-Aug-2021 4788.50 7540.71 83.15 18.00 371.23 3147.67
   17:02:47.598.27-Aug-2021 4788.50 7530.74 83.15 18.00 371.43 3147.67
   17:02:47.798.27-Aug-2021 4788.50 7534.37 83.15 18.00 371.63 3147.67
   17:02:47.997.27-Aug-2021 4788.50 7534.37 83.15 18.00 371.83 3147.67
   17:02:48.197.27-Aug-2021 4788.50 7533.81 83.15 18.00 372.03 3147.67
   17:02:48.397.27-Aug-2021 4788.50 7534.16 83.15 18.00 372.23 3147.67
   17:02:48.597.27-Aug-2021 4788.50 7533.67 83.15 18.00 372.43 3147.67
   17:02:48.797.27-Aug-2021 4788.50 7533.89 83.15 18.00 372.63 3147.67
   17:02:48.996.27-Aug-2021 4788.50 7533.89 83.15 18.00 372.83 3147.67
   17:02:49.196.27-Aug-2021 4788.50 7534.03 83.15 18.00 373.03 3147.67
   17:02:49.396.27-Aug-2021 4788.50 7534.24 83.15 18.00 373.23 3147.67
   17:02:49.596.27-Aug-2021 4788.50 7534.46 83.15 18.00 373.43 3147.67
   17:02:49.796.27-Aug-2021 4788.50 7534.37 83.15 18.00 373.63 3147.67
   17:02:49.995.27-Aug-2021 4788.50 7534.37 83.15 18.00 373.83 3147.67
   17:02:50.195.27-Aug-2021 4788.50 7534.33 83.15 18.00 374.03 3147.67
   17:02:50.395.27-Aug-2021 4788.50 7534.20 83.15 18.00 374.23 3147.67
   17:02:50.595.27-Aug-2021 4788.50 7540.24 83.15 18.00 374.43 3147.67
   17:02:50.795.27-Aug-2021 4788.50 7530.88 83.15 18.00 374.63 3147.67
   17:02:50.994.27-Aug-2021 4788.50 7530.88 83.15 18.00 374.83 3147.67
   17:02:51.194.27-Aug-2021 4788.50 7535.18 83.15 18.00 375.03 3147.67
   17:02:51.394.27-Aug-2021 4788.50 7533.94 83.15 18.00 375.23 3147.67
   17:02:51.594.27-Aug-2021 4788.50 7534.02 83.15 18.00 375.43 3147.67
   17:02:51.794.27-Aug-2021 4788.50 7533.52 83.15 18.00 375.63 3147.67
   17:02:51.993.27-Aug-2021 4788.50 7533.52 83.15 18.00 375.82 3147.67
   17:02:52.193.27-Aug-2021 4788.50 7534.37 83.15 18.00 376.02 3147.67
   17:02:52.393.27-Aug-2021 4788.50 7534.07 83.15 18.00 376.22 3147.67
   17:02:52.593.27-Aug-2021 4788.50 7534.33 83.15 18.00 376.42 3147.67
   17:02:52.793.27-Aug-2021 4788.50 7534.52 83.15 18.00 376.62 3147.67
   17:02:52.992.27-Aug-2021 4788.50 7534.52 83.15 18.00 376.82 3147.67
   17:02:53.192.27-Aug-2021 4788.50 7534.26 83.15 18.00 377.02 3147.67
   17:02:53.392.27-Aug-2021 4788.50 7534.28 83.15 18.00 377.22 3147.67
   17:02:53.592.27-Aug-2021 4788.50 7534.16 83.15 18.00 377.42 3147.67
   17:02:53.792.27-Aug-2021 4788.50 7534.01 83.15 18.00 377.62 3147.67
   17:02:53.991.27-Aug-2021 4788.50 7534.01 83.15 18.00 377.82 3147.67
   17:02:54.191.27-Aug-2021 4788.50 7537.39 83.15 18.00 378.02 3147.67
   17:02:54.391.27-Aug-2021 4788.50 7533.72 83.15 18.00 378.22 3147.67
   17:02:54.591.27-Aug-2021 4788.50 7534.54 83.15 18.00 378.42 3147.67
   17:02:54.791.27-Aug-2021 4788.50 7534.16 83.15 18.00 378.62 3147.67
   17:02:54.990.27-Aug-2021 4788.50 7534.16 83.15 18.00 378.82 3147.67
   17:02:55.190.27-Aug-2021 4788.50 7537.94 83.15 18.00 379.02 3147.67
   17:02:55.390.27-Aug-2021 4788.50 7535.21 83.15 18.00 379.22 3147.67
   17:02:55.590.27-Aug-2021 4788.50 7534.53 83.15 18.00 379.42 3147.67
   17:02:55.790.27-Aug-2021 4788.50 7535.77 83.15 18.00 379.62 3147.67
   17:02:55.989.27-Aug-2021 4788.50 7535.77 83.15 18.00 379.82 3147.67
   17:02:56.189.27-Aug-2021 4788.50 7534.88 83.15 18.00 380.02 3147.67
   17:02:56.389.27-Aug-2021 4788.50 7537.68 83.15 18.00 380.22 3147.67
   17:02:56.589.27-Aug-2021 4788.50 7534.41 83.15 18.00 380.42 3147.67
   17:02:56.789.27-Aug-2021 4788.50 7535.28 83.15 18.00 380.62 3147.67
   17:02:56.988.27-Aug-2021 4788.50 7535.28 83.15 18.00 380.82 3147.67
   17:02:57.188.27-Aug-2021 4788.50 7534.30 83.15 18.00 381.02 3147.67
   17:02:57.388.27-Aug-2021 4788.50 7541.17 83.15 18.00 381.22 3147.67
   17:02:57.588.27-Aug-2021 4788.50 7531.07 83.15 18.00 381.42 3147.67
   17:02:57.788.27-Aug-2021 4788.50 7534.24 83.15 18.00 381.62 3147.67
   17:02:57.987.27-Aug-2021 4788.50 7534.24 83.15 18.00 381.82 3147.67
   17:02:58.187.27-Aug-2021 4788.50 7533.70 83.15 18.00 382.02 3147.67
   17:02:58.387.27-Aug-2021 4788.50 7534.02 83.15 18.00 382.22 3147.67
   17:02:58.587.27-Aug-2021 4788.50 7533.40 83.15 18.00 382.42 3147.67
   17:02:58.787.27-Aug-2021 4788.50 7533.54 83.15 18.00 382.62 3147.67
   17:02:58.986.27-Aug-2021 4788.50 7533.54 83.15 18.00 382.82 3147.67
   17:02:59.186.27-Aug-2021 4788.50 7534.02 83.15 18.00 383.02 3147.67
   17:02:59.386.27-Aug-2021 4788.50 7534.22 83.15 18.00 383.22 3147.67
   17:02:59.586.27-Aug-2021 4788.50 7534.50 83.15 18.00 383.42 3147.67
   17:02:59.786.27-Aug-2021 4788.50 7534.39 83.15 18.00 383.62 3147.67
