~Version Information
 VERS.                  2.0:   CWLS log ASCII Standard -VERSION 2.0
 WRAP.                   NO:   One line per depth step
~Well Information Block
#MNEM.UNIT     VALUE/NAME     DESCRIPTION
#---------     -----------    ---------------------------
 STRT.S             15:52:10 27-Aug-21: START TIME 15:52:10 27-Aug-21
 STOP.S             15:59:26 27-Aug-21: STOP TIME  15:59:26 27-Aug-21
 STEP.S                   0.00: STEP TIME
 NULL.                 -999.25: NULL VALUE
 DFWT.                        :  DIST FWL TEXT
 DFST.                        :  DIST FSL TEXT
 DMF .             Drill Floor:  DRILL MEAS FROM
 STIM.      20.00.00 17-Aug-21:  START TIME
 DATE.      19.00.00 29-Aug-21:  END TIME
 SPUD.               15-Aug-21:  SPUD DATE
 NREF.                    Grid:  NORTH REFERENCE
 HPTY.       Minimum Curvature:  HOLE POS TYPE
 DMOD.             Drill Model:  DRILL MOD DESC
 SVYD.                  Survey:  SURVEY DESC
 ILTD.               Lithology:  INTERP LTH DESC
 FTOP.          Formation Tops:  FORM TOPS DESC
 RIG .              East Azeri:  RIG NAME
 PDAT.          Mean Sea Level:  PERMANENT DATUM
 FLD .                     ACG:  FIELD NAME
 SON .        AZ-XX-0907180857:  JOB NUMBER
 CTRY.              Azerbaijan:  COUNTRY NAME
 WELL.                    D23x:  WELL NAME
 SRVC.     Turan Drilling and Engineering:  CONTRACTOR
 COMP.     BP Exploration (Caspian Sea) Ltd.:  COMPANY
 UWI .            /AZE00000214:  UNIQUE WELL IDENTIFIER
 API .            /AZE00000214:  API NUMBER
 MDS .        Operator Entered:  MAG DATA SOURCE
 BASE.              Azerbaijan:  LOGGING EQUIPMENT BASE LOCATION
 REGN.                   EESSA:  REGION
 PROV.                    Baku:  PROVINCE
 STAT.                    Baku:  STATE NAME
 MWDS.                    Baku:  MWD SHOP
 DOE .                     N/A:  DOE NUMBER
 DCON.         Sperry Drilling:  DIRECTNL CONTR
 UNIT.                     N/A:  LOGGING EQUIPMENT ID
 WTYP.                Deviated:  WELL TYPE
 CNTY.                        :  COUNTY
 LOC .                        :  LOCATION
 LMF .             Drill Floor:  LOG MEASURED FROM
 TVDS.m                  43.60:  TVDSS CORRECTN
 LATI.deg                40.02:  LATITUDE
 LONG.deg                51.45:  LONGITUDE
 WHNS.m                  -7.04:  WELL HEAD N/S
 WHEW.m                  -0.67:  WELL HEAD E/W
 UTMX.m              538762.90:  UTM X
 UTMY.m             4431871.34:  UTM Y
 DFWL.m                   0.00:  DISTANCE FWL
 DFSL.m                   0.00:  DISTANCE FSL
 SDEP.m                4127.00:  START DEPTH
 TDD .m                5084.50:  TOTAL DEPTH (DRILLER)
 VSDR.deg               140.47:  VERT SEC DIRECT
 GVFD.g                   1.00:  GRAVITY FIELD
 MFLD.nT              50362.00:  MAGNETIC FIELD
 MDIP.deg                59.48:  MAGNETIC DIP
 MDEC.deg                 6.47:  MAGNETIC DECL
 GRDC.deg                 0.31:  GRID CORRECTION
 AZTC.deg                 6.16:  AZM TOTAL CORR
 EPD .m                   0.00:  ELEVATION
 EGL .m                   0.00:  GROUND ELEVATION
 WDMS.m                 151.80:  WD ELEV
 APD .m                  43.60:  DEPTH ABOVE PD
 DEP .m                4092.57:  DEPTH
 AGAP.m                  43.60:  AIR GAP
 VSEW.m                  -0.67:  VERT SEC E/W
 VSNS.m                  -7.04:  VERT SEC N/S
 EKB .m                  43.60:  KB ELEVATION
 EDF .m                  43.60:  DF ELEVATION
 TDL .m                 957.50:  TOTAL DEPTH (LOGGER)
 VSC .                       0:  VS TO CLOSURE
 MAGU.                 1851413:  MAGUTM CHECKSUM
~Parameter Information Block
#MNEM.UNIT       Value        Description
#---------     -----------    ---------------------------
 AV  .mps                 1.50:  Ann Velocity 
 AVMX.mps                 2.00:  Max Ann Veloc 
 AZIF.deg               184.66:  Azm, Final 
 BHAT.        Rotary Steerable:  BHA Type 
 BREV.rev               300.00:  Rev Bit Total 
 BROT.°/30m              -0.50:  Build Rotating 
 BS  .in                  8.50:  Bit Size 
 BSZ .in                  8.50:  Bit Size 
 BTPL.psig              370.00:  Bit Press Loss 
 CABU.                      No:  Customer Abuse 
 CGEO.      Behruz Shahbaliyev:  Customer Geo 
 COMM.                     Ìu:  Run Comments 1 
 TCS .hr                140.08:  Time Ciculation Ended 
 CV  .mps                 3.00:  Crit Velocity 
 CVMX.mps                 3.20:  Max Crit Veloc 
 DD1 .            Musa Ahmadov:  Direct Drillr 1 
 DD2 .           Hamid Ahmadov:  Direct Drillr 2 
 DDSV.               Geo-Pilot:  DD Service 
 DEFF.%                  98.40:  % Det Eff 
 DLRX.°/30m               3.40:  Dogleg Rot Max 
 DLSO.°/30m               1.45:  Dogleg Oriented 
 DLSX.°/30m               3.40:  Dogleg Str Max 
 DRET.      18.40.00 29-Aug-21:  Drill End Time 
 DRST.      21.00.00 20-Aug-21:  Drill Start Tim 
 DTIM.hr                 69.47:  Time Drilling 
 EDEP.m                5084.50:  End Depth 
 ENG1.      Artemiy Matviyanov:  Engineer 1 
 ENG2.         Almaz Almadatov:  Engineer 2 
 ETIM.      18.40.00 29-Aug-21:  End Time 
 FLOI.gpm               500.00:  Flow In 
 FLON.gpm               400.00:  Flow In Min 
 FLOS.cptm                0.00:  Fluid Loss 
 FLOX.gpm               500.00:  Flow In Max 
 DFT .        Mineral Oil Base:  Mud Type 
 HFLO.                      No:  High Flow 
 HPRE.                      No:  High Pressure 
 HTEM.                      No:  High Temp 
 HYDO.m                   1.80:  Hydro Offset 
 IFIN.deg                25.62:  Inc, Final 
 IMAX.deg                48.69:  Inc Max 
 IMIN.deg                24.01:  Inc Min 
 IMND.m                4962.57:  Inc Min Depth 
 IMXD.m                4119.01:  Inc Max Depth 
 JARR.                      No:  Jarring 
 LETM.      18.40.00 29-Aug-21:  Log End Time 
 LOST.hr                     0:  Lost Rig Time 
 LSTM.      21.00.00 20-Aug-21:  Log Start Time 
 MDCL.ppm             41500.00:  Mud Chlorides 
 MDES.     Inversion Oil/Synthetic:  Mud Desc 
 DFD .sg                  1.56:  Mud Density 
 MDMN.sg                  1.56:  Dens Mud Min 
 MDMX.sg                  1.56:  Dens Mud Max 
 MOIL.                      70:  Run Mud Oil % 
 MOWR.                   70:30:  Run Mud OWR 
 MSND.                     0.2:  Run Mud Sand % 
 MSOL.                    23.3:  Run Mud Solids% 
 DFV .spqt               78.00:  Mud Viscosity 
 MWOD.in                  6.75:  MWD Tool OD 
 MWSI.                      No:  Serv Intrp, MWD 
 OTIM.hr                218.30:  Time Operating 
 PCON.           Look Like New:  Pad Condition 
 PMAX.psia            11015.30:  Press Op, Max 
 PV  .cP                 38.00:  Mud PV 
 RUN .                     300:  Run Number 
 ROPA.m/hr               15.00:  ROP Avg 
 ROPN.m/hr                9.00:  ROP Min 
 ROPX.m/hr               17.00:  ROP Max 
 RPMA.rpm               120.00:  RPM Surface Avg 
 RPMN.rpm                90.00:  RPM Surface Min 
 RPMX.rpm               140.00:  RPM Surface Max 
 RRUN.                     300:  Rig Run Number 
 RTIM.hr                 31.53:  Time Reaming 
 SAZI.deg               331.64:  Azm, Start 
 SDEP.m                4127.00:  Start Depth 
 SIDD.                      No:  Serv Intrp, DD 
 SINC.deg                48.43:  Inc, Start 
 SPPA.psig             5830.00:  SPP Avg 
 SPPN.psig             5600.00:  SPP Min 
 SPPX.psig             5900.00:  SPP Max 
 STIM.      21.00.00 20-Aug-21:  Start Time 
 SVCS.                 DD, MWD:  Services 
 SVER.                    9.20:  Sperry Version 
 TDAT.m                 957.50:  Tot Depth Attmp 
 TDDF.                      No:  Trip for DD 
 TDLG.m                 957.50:  Tot Depth Loggd 
 TFF .                      No:  Trip for Fail 
 TQAA.f-kp               15.00:  Torque Abs Avg 
 TQAN.f-kp               12.00:  Torque Abs Min 
 TQAX.f-kp               19.00:  Torque Abs Max 
 TRRT.°/30m              -3.40:  Turn Rotating 
 MRT .                  EWR-M5:  Maximum Recorded Temperature 
 TTMX.degC              100.00:  Max Tool Temp 
 VS01.                90639251:  Virtual Str1 SN 
 VS02.                90634715:  Virtual Str2 SN 
 VS03.                90652479:  Virtual Str3 SN 
 VS04.                90642262:  Virtual Str4 SN 
 WBMN.klb                 0.00:  WOB Min 
 WITN.           Murad Guliyev:  Customer Rep 
 WITN.          Yashar Gaziyev:  Customer Rep 2 
 WOBA.klb                 9.00:  WOB Avg 
 WOBX.klb                12.00:  WOB Max 
 YP  .lhf2               30.00:  Yield Point 
~Curve Information Block
#MNEM.UNIT                 API CODE     Curve Description
#---------               -----------    ---------------------------
 TIME.HHMMSS            00 000 000 000:  GT Time & Date
 GTDEPTH.m              00 000 000 000:  GT Depth
 GTPQH.psia             00 000 000 000:  GT HR Quartz Pressure
 GTTQ.degC              00 000 000 000:  GT Quartz Temperature
 GTTN.NONE              00 000 000 000:  GT Test Number
 GTET.sec               00 000 000 000:  GT Elapsed Test Time
 GTTVD.m                00 000 000 000:  GT True Vertical Depth
#Other Information
#
#WARRANTY: Halliburton will use its best efforts to furnish customers with 
#accurate information and interpretations that are part of, and incident to, the services 
#provided.  However, Halliburton cannot and does not warrant the accuracy 
#or correctness of such information and interpretations.  Under no circumstances should any 
#such information or interpretation be relied upon as the sole basis for any drilling, 
#completion, production, or financial decision or any procedure involving any risk to the 
#safety of any drilling venture, drilling rig or its crew or any other third party.  The 
#Customer has full responsibility for all drilling, completion and production operation.  
#Halliburton makes no representations or warranties, either expressed or 
#implied, including, but not limited to, the implied warranties of merchantability or fitness 
#for a particular purpose, with respect to the services rendered.  In no event will 
#Halliburton be liable for failure to obtain any particular results or for 
#any damages, including, but not limited to, indirect, special or consequential damages, 
#resulting from the use of any information or interpretation provided by Halliburton.
#
~A           TIME           GTDEPTH  GTPQH  GTTQ  GTTN   GTET   GTTVD  
# ...
   15:57:05.039.27-Aug-2021 4817.00 5229.86 83.56 16.00 294.27 3173.43
   15:57:05.239.27-Aug-2021 4817.00 5229.35 83.56 16.00 294.47 3173.43
   15:57:05.439.27-Aug-2021 4817.00 5229.35 83.56 16.00 294.67 3173.43
   15:57:05.640.27-Aug-2021 4817.00 5229.61 83.56 16.00 294.87 3173.43
   15:57:05.840.27-Aug-2021 4817.00 5229.57 83.56 16.00 295.07 3173.43
   15:57:06.040.27-Aug-2021 4817.00 5229.59 83.56 16.00 295.27 3173.43
   15:57:06.241.27-Aug-2021 4817.00 5229.72 83.56 16.00 295.47 3173.43
   15:57:06.441.27-Aug-2021 4817.00 5229.72 83.56 16.00 295.67 3173.43
   15:57:06.641.27-Aug-2021 4817.00 5229.61 83.56 16.00 295.87 3173.43
   15:57:06.842.27-Aug-2021 4817.00 5229.59 83.56 16.00 296.07 3173.43
   15:57:07.042.27-Aug-2021 4817.00 5229.60 83.56 16.00 296.27 3173.43
   15:57:07.242.27-Aug-2021 4817.00 5229.59 83.56 16.00 296.47 3173.43
   15:57:07.443.27-Aug-2021 4817.00 5229.59 83.56 16.00 296.67 3173.43
   15:57:07.643.27-Aug-2021 4817.00 5229.59 83.56 16.00 296.87 3173.43
   15:57:07.843.27-Aug-2021 4817.00 5229.57 83.56 16.00 297.07 3173.43
   15:57:08.044.27-Aug-2021 4817.00 5229.58 83.56 16.00 297.27 3173.43
   15:57:08.244.27-Aug-2021 4817.00 5229.57 83.56 16.00 297.47 3173.43
   15:57:08.444.27-Aug-2021 4817.00 5229.57 83.56 16.00 297.67 3173.43
   15:57:08.644.27-Aug-2021 4817.00 5229.57 83.56 16.00 297.87 3173.43
   15:57:08.845.27-Aug-2021 4817.00 5229.56 83.56 16.00 298.07 3173.43
   15:57:09.045.27-Aug-2021 4817.00 5229.81 83.56 16.00 298.27 3173.43
   15:57:09.245.27-Aug-2021 4817.00 5229.33 83.56 16.00 298.47 3173.43
   15:57:09.446.27-Aug-2021 4817.00 5229.33 83.56 16.00 298.67 3173.43
   15:57:09.646.27-Aug-2021 4817.00 5229.62 83.56 16.00 298.88 3173.43
   15:57:09.846.27-Aug-2021 4817.00 5229.60 83.56 16.00 299.08 3173.43
   15:57:10.047.27-Aug-2021 4817.00 5229.59 83.56 16.00 299.28 3173.43
   15:57:10.247.27-Aug-2021 4817.00 5229.59 83.56 16.00 299.48 3173.43
   15:57:10.447.27-Aug-2021 4817.00 5229.59 83.56 16.00 299.68 3173.43
   15:57:10.648.27-Aug-2021 4817.00 5229.60 83.56 16.00 299.88 3173.43
   15:57:10.848.27-Aug-2021 4817.00 5229.58 83.56 16.00 300.08 3173.43
   15:57:11.048.27-Aug-2021 4817.00 5229.57 83.56 16.00 300.28 3173.43
   15:57:11.249.27-Aug-2021 4817.00 5229.59 83.56 16.00 300.48 3173.43
   15:57:11.449.27-Aug-2021 4817.00 5229.59 83.56 16.00 300.68 3173.43
   15:57:11.649.27-Aug-2021 4817.00 5229.57 83.56 16.00 300.88 3173.43
   15:57:11.850.27-Aug-2021 4817.00 5229.56 83.56 16.00 301.08 3173.43
   15:57:12.050.27-Aug-2021 4817.00 5229.56 83.56 16.00 301.28 3173.43
   15:57:12.250.27-Aug-2021 4817.00 5229.56 83.56 16.00 301.48 3173.43
   15:57:12.451.27-Aug-2021 4817.00 5229.56 83.56 16.00 301.68 3173.43
   15:57:12.651.27-Aug-2021 4817.00 5229.29 83.55 16.00 301.88 3173.43
   15:57:12.851.27-Aug-2021 4817.00 5229.62 83.55 16.00 302.08 3173.43
   15:57:13.052.27-Aug-2021 4817.00 5229.62 83.55 16.00 302.28 3173.43
   15:57:13.252.27-Aug-2021 4817.00 5229.61 83.55 16.00 302.48 3173.43
   15:57:13.452.27-Aug-2021 4817.00 5229.61 83.55 16.00 302.68 3173.43
   15:57:13.652.27-Aug-2021 4817.00 5229.38 83.55 16.00 302.88 3173.43
   15:57:13.853.27-Aug-2021 4817.00 5229.67 83.55 16.00 303.08 3173.43
   15:57:14.053.27-Aug-2021 4817.00 5229.63 83.55 16.00 303.28 3173.43
   15:57:14.253.27-Aug-2021 4817.00 5229.59 83.55 16.00 303.48 3173.43
   15:57:14.454.27-Aug-2021 4817.00 5229.59 83.55 16.00 303.68 3173.43
   15:57:14.654.27-Aug-2021 4817.00 5229.72 83.55 16.00 303.88 3173.43
   15:57:14.854.27-Aug-2021 4817.00 5229.52 83.55 16.00 304.08 3173.43
   15:57:15.055.27-Aug-2021 4817.00 5229.61 83.55 16.00 304.28 3173.43
   15:57:15.255.27-Aug-2021 4817.00 5229.70 83.55 16.00 304.48 3173.43
   15:57:15.455.27-Aug-2021 4817.00 5229.70 83.55 16.00 304.68 3173.43
   15:57:15.656.27-Aug-2021 4817.00 5229.62 83.55 16.00 304.88 3173.43
   15:57:15.856.27-Aug-2021 4817.00 5229.64 83.55 16.00 305.08 3173.43
   15:57:16.056.27-Aug-2021 4817.00 5229.65 83.55 16.00 305.29 3173.43
   15:57:16.257.27-Aug-2021 4817.00 5229.63 83.55 16.00 305.49 3173.43
   15:57:16.457.27-Aug-2021 4817.00 5229.63 83.55 16.00 305.69 3173.43
   15:57:16.657.27-Aug-2021 4817.00 5229.61 83.55 16.00 305.89 3173.43
   15:57:16.858.27-Aug-2021 4817.00 5229.60 83.55 16.00 306.09 3173.43
   15:57:17.058.27-Aug-2021 4817.00 5229.62 83.55 16.00 306.29 3173.43
   15:57:17.258.27-Aug-2021 4817.00 5229.62 83.55 16.00 306.49 3173.43
   15:57:17.459.27-Aug-2021 4817.00 5229.62 83.55 16.00 306.69 3173.43
   15:57:17.659.27-Aug-2021 4817.00 5229.61 83.55 16.00 306.89 3173.43
   15:57:17.859.27-Aug-2021 4817.00 5229.61 83.55 16.00 307.09 3173.43
   15:57:18.059.27-Aug-2021 4817.00 5229.60 83.55 16.00 307.29 3173.43
   15:57:18.260.27-Aug-2021 4817.00 5229.59 83.55 16.00 307.49 3173.43
   15:57:18.460.27-Aug-2021 4817.00 5229.59 83.55 16.00 307.69 3173.43
   15:57:18.660.27-Aug-2021 4817.00 5229.72 83.55 16.00 307.89 3173.43
   15:57:18.861.27-Aug-2021 4817.00 5229.52 83.55 16.00 308.09 3173.43
   15:57:19.061.27-Aug-2021 4817.00 5229.59 83.55 16.00 308.29 3173.43
   15:57:19.261.27-Aug-2021 4817.00 5229.71 83.55 16.00 308.49 3173.43
   15:57:19.462.27-Aug-2021 4817.00 5229.71 83.55 16.00 308.69 3173.43
   15:57:19.662.27-Aug-2021 4817.00 5229.61 83.55 16.00 308.89 3173.43
   15:57:19.862.27-Aug-2021 4817.00 5229.61 83.55 16.00 309.09 3173.43
   15:57:20.063.27-Aug-2021 4817.00 5229.60 83.55 16.00 309.29 3173.43
   15:57:20.263.27-Aug-2021 4817.00 5229.61 83.55 16.00 309.49 3173.43
   15:57:20.463.27-Aug-2021 4817.00 5229.61 83.55 16.00 309.69 3173.43
   15:57:20.664.27-Aug-2021 4817.00 5229.61 83.55 16.00 309.89 3173.43
   15:57:20.864.27-Aug-2021 4817.00 5229.60 83.55 16.00 310.09 3173.43
   15:57:21.064.27-Aug-2021 4817.00 5229.59 83.55 16.00 310.29 3173.43
   15:57:21.265.27-Aug-2021 4817.00 5229.60 83.55 16.00 310.49 3173.43
   15:57:21.465.27-Aug-2021 4817.00 5229.60 83.55 16.00 310.69 3173.43
   15:57:21.665.27-Aug-2021 4817.00 5229.59 83.55 16.00 310.89 3173.43
   15:57:21.866.27-Aug-2021 4817.00 5229.58 83.55 16.00 311.09 3173.43
   15:57:22.066.27-Aug-2021 4817.00 5229.71 83.55 16.00 311.29 3173.43
   15:57:22.266.27-Aug-2021 4817.00 5229.44 83.55 16.00 311.50 3173.43
   15:57:22.466.27-Aug-2021 4817.00 5229.44 83.55 16.00 311.70 3173.43
   15:57:22.667.27-Aug-2021 4817.00 5229.68 83.55 16.00 311.90 3173.43
   15:57:22.867.27-Aug-2021 4817.00 5229.58 83.55 16.00 312.10 3173.43
   15:57:23.067.27-Aug-2021 4817.00 5229.74 83.55 16.00 312.30 3173.43
   15:57:23.268.27-Aug-2021 4817.00 5229.49 83.55 16.00 312.50 3173.43
   15:57:23.468.27-Aug-2021 4817.00 5229.49 83.55 16.00 312.70 3173.43
   15:57:23.668.27-Aug-2021 4817.00 5229.71 83.55 16.00 312.90 3173.43
   15:57:23.869.27-Aug-2021 4817.00 5229.59 83.55 16.00 313.10 3173.43
   15:57:24.069.27-Aug-2021 4817.00 5229.62 83.55 16.00 313.30 3173.43
   15:57:24.269.27-Aug-2021 4817.00 5229.58 83.55 16.00 313.50 3173.43
   15:57:24.470.27-Aug-2021 4817.00 5229.58 83.55 16.00 313.70 3173.43
   15:57:24.670.27-Aug-2021 4817.00 5229.73 83.55 16.00 313.90 3173.43
   15:57:24.870.27-Aug-2021 4817.00 5229.63 83.55 16.00 314.10 3173.43
   15:57:25.071.27-Aug-2021 4817.00 5229.61 83.55 16.00 314.30 3173.43
   15:57:25.271.27-Aug-2021 4817.00 5229.87 83.55 16.00 314.50 3173.43
   15:57:25.471.27-Aug-2021 4817.00 5229.87 83.55 16.00 314.70 3173.43
   15:57:25.672.27-Aug-2021 4817.00 5229.63 83.55 16.00 314.90 3173.43
   15:57:25.872.27-Aug-2021 4817.00 5229.65 83.55 16.00 315.10 3173.43
   15:57:26.072.27-Aug-2021 4817.00 5229.62 83.55 16.00 315.30 3173.43
   15:57:26.273.27-Aug-2021 4817.00 5229.62 83.55 16.00 315.50 3173.43
   15:57:26.473.27-Aug-2021 4817.00 5229.62 83.55 16.00 315.70 3173.43
   15:57:26.673.27-Aug-2021 4817.00 5229.63 83.55 16.00 315.90 3173.43
   15:57:26.873.27-Aug-2021 4817.00 5229.63 83.55 16.00 316.10 3173.43
   15:57:27.074.27-Aug-2021 4817.00 5229.62 83.55 16.00 316.30 3173.43
   15:57:27.274.27-Aug-2021 4817.00 5229.61 83.55 16.00 316.50 3173.43
   15:57:27.474.27-Aug-2021 4817.00 5229.61 83.55 16.00 316.70 3173.43
