~Version Information
 VERS.                  2.0:   CWLS log ASCII Standard -VERSION 2.0
 WRAP.                   NO:   One line per depth step
~Well Information Block
#MNEM.UNIT     VALUE/NAME     DESCRIPTION
#---------     -----------    ---------------------------
 STRT.S             10:06:49 27-Aug-21: START TIME 10:06:49 27-Aug-21
 STOP.S             10:13:57 27-Aug-21: STOP TIME  10:13:57 27-Aug-21
 STEP.S                   0.00: STEP TIME
 NULL.                 -999.25: NULL VALUE
 DFWT.                        :  DIST FWL TEXT
 DFST.                        :  DIST FSL TEXT
 DMF .             Drill Floor:  DRILL MEAS FROM
 STIM.      20.00.00 17-Aug-21:  START TIME
 DATE.      19.00.00 29-Aug-21:  END TIME
 SPUD.               15-Aug-21:  SPUD DATE
 NREF.                    Grid:  NORTH REFERENCE
 HPTY.       Minimum Curvature:  HOLE POS TYPE
 DMOD.             Drill Model:  DRILL MOD DESC
 SVYD.                  Survey:  SURVEY DESC
 ILTD.               Lithology:  INTERP LTH DESC
 FTOP.          Formation Tops:  FORM TOPS DESC
 RIG .              East Azeri:  RIG NAME
 PDAT.          Mean Sea Level:  PERMANENT DATUM
 FLD .                     ACG:  FIELD NAME
 SON .        AZ-XX-0907180857:  JOB NUMBER
 CTRY.              Azerbaijan:  COUNTRY NAME
 WELL.                    D23x:  WELL NAME
 SRVC.     Turan Drilling and Engineering:  CONTRACTOR
 COMP.     BP Exploration (Caspian Sea) Ltd.:  COMPANY
 UWI .            /AZE00000214:  UNIQUE WELL IDENTIFIER
 API .            /AZE00000214:  API NUMBER
 MDS .        Operator Entered:  MAG DATA SOURCE
 BASE.              Azerbaijan:  LOGGING EQUIPMENT BASE LOCATION
 REGN.                   EESSA:  REGION
 PROV.                    Baku:  PROVINCE
 STAT.                    Baku:  STATE NAME
 MWDS.                    Baku:  MWD SHOP
 DOE .                     N/A:  DOE NUMBER
 DCON.         Sperry Drilling:  DIRECTNL CONTR
 UNIT.                     N/A:  LOGGING EQUIPMENT ID
 WTYP.                Deviated:  WELL TYPE
 CNTY.                        :  COUNTY
 LOC .                        :  LOCATION
 LMF .             Drill Floor:  LOG MEASURED FROM
 TVDS.m                  43.60:  TVDSS CORRECTN
 LATI.deg                40.02:  LATITUDE
 LONG.deg                51.45:  LONGITUDE
 WHNS.m                  -7.04:  WELL HEAD N/S
 WHEW.m                  -0.67:  WELL HEAD E/W
 UTMX.m              538762.90:  UTM X
 UTMY.m             4431871.34:  UTM Y
 DFWL.m                   0.00:  DISTANCE FWL
 DFSL.m                   0.00:  DISTANCE FSL
 SDEP.m                4127.00:  START DEPTH
 TDD .m                5084.50:  TOTAL DEPTH (DRILLER)
 VSDR.deg               140.47:  VERT SEC DIRECT
 GVFD.g                   1.00:  GRAVITY FIELD
 MFLD.nT              50362.00:  MAGNETIC FIELD
 MDIP.deg                59.48:  MAGNETIC DIP
 MDEC.deg                 6.47:  MAGNETIC DECL
 GRDC.deg                 0.31:  GRID CORRECTION
 AZTC.deg                 6.16:  AZM TOTAL CORR
 EPD .m                   0.00:  ELEVATION
 EGL .m                   0.00:  GROUND ELEVATION
 WDMS.m                 151.80:  WD ELEV
 APD .m                  43.60:  DEPTH ABOVE PD
 DEP .m                4092.57:  DEPTH
 AGAP.m                  43.60:  AIR GAP
 VSEW.m                  -0.67:  VERT SEC E/W
 VSNS.m                  -7.04:  VERT SEC N/S
 EKB .m                  43.60:  KB ELEVATION
 EDF .m                  43.60:  DF ELEVATION
 TDL .m                 957.50:  TOTAL DEPTH (LOGGER)
 VSC .                       0:  VS TO CLOSURE
 MAGU.                 1851413:  MAGUTM CHECKSUM
~Parameter Information Block
#MNEM.UNIT       Value        Description
#---------     -----------    ---------------------------
 AV  .mps                 1.50:  Ann Velocity 
 AVMX.mps                 2.00:  Max Ann Veloc 
 AZIF.deg               184.66:  Azm, Final 
 BHAT.        Rotary Steerable:  BHA Type 
 BREV.rev               300.00:  Rev Bit Total 
 BROT.°/30m              -0.50:  Build Rotating 
 BS  .in                  8.50:  Bit Size 
 BSZ .in                  8.50:  Bit Size 
 BTPL.psig              370.00:  Bit Press Loss 
 CABU.                      No:  Customer Abuse 
 CGEO.      Behruz Shahbaliyev:  Customer Geo 
 COMM.                     Ììg:  Run Comments 1 
 TCS .hr                140.08:  Time Ciculation Ended 
 CV  .mps                 3.00:  Crit Velocity 
 CVMX.mps                 3.20:  Max Crit Veloc 
 DD1 .            Musa Ahmadov:  Direct Drillr 1 
 DD2 .           Hamid Ahmadov:  Direct Drillr 2 
 DDSV.               Geo-Pilot:  DD Service 
 DEFF.%                  98.40:  % Det Eff 
 DLRX.°/30m               3.40:  Dogleg Rot Max 
 DLSO.°/30m               1.45:  Dogleg Oriented 
 DLSX.°/30m               3.40:  Dogleg Str Max 
 DRET.      18.40.00 29-Aug-21:  Drill End Time 
 DRST.      21.00.00 20-Aug-21:  Drill Start Tim 
 DTIM.hr                 69.47:  Time Drilling 
 EDEP.m                5084.50:  End Depth 
 ENG1.      Artemiy Matviyanov:  Engineer 1 
 ENG2.         Almaz Almadatov:  Engineer 2 
 ETIM.      18.40.00 29-Aug-21:  End Time 
 FLOI.gpm               500.00:  Flow In 
 FLON.gpm               400.00:  Flow In Min 
 FLOS.cptm                0.00:  Fluid Loss 
 FLOX.gpm               500.00:  Flow In Max 
 DFT .        Mineral Oil Base:  Mud Type 
 HFLO.                      No:  High Flow 
 HPRE.                      No:  High Pressure 
 HTEM.                      No:  High Temp 
 HYDO.m                   1.80:  Hydro Offset 
 IFIN.deg                25.62:  Inc, Final 
 IMAX.deg                48.69:  Inc Max 
 IMIN.deg                24.01:  Inc Min 
 IMND.m                4962.57:  Inc Min Depth 
 IMXD.m                4119.01:  Inc Max Depth 
 JARR.                      No:  Jarring 
 LETM.      18.40.00 29-Aug-21:  Log End Time 
 LOST.hr                     0:  Lost Rig Time 
 LSTM.      21.00.00 20-Aug-21:  Log Start Time 
 MDCL.ppm             41500.00:  Mud Chlorides 
 MDES.     Inversion Oil/Synthetic:  Mud Desc 
 DFD .sg                  1.56:  Mud Density 
 MDMN.sg                  1.56:  Dens Mud Min 
 MDMX.sg                  1.56:  Dens Mud Max 
 MOIL.                      70:  Run Mud Oil % 
 MOWR.                   70:30:  Run Mud OWR 
 MSND.                     0.2:  Run Mud Sand % 
 MSOL.                    23.3:  Run Mud Solids% 
 DFV .spqt               78.00:  Mud Viscosity 
 MWOD.in                  6.75:  MWD Tool OD 
 MWSI.                      No:  Serv Intrp, MWD 
 OTIM.hr                218.30:  Time Operating 
 PCON.           Look Like New:  Pad Condition 
 PMAX.psia            11015.30:  Press Op, Max 
 PV  .cP                 38.00:  Mud PV 
 RUN .                     300:  Run Number 
 ROPA.m/hr               15.00:  ROP Avg 
 ROPN.m/hr                9.00:  ROP Min 
 ROPX.m/hr               17.00:  ROP Max 
 RPMA.rpm               120.00:  RPM Surface Avg 
 RPMN.rpm                90.00:  RPM Surface Min 
 RPMX.rpm               140.00:  RPM Surface Max 
 RRUN.                     300:  Rig Run Number 
 RTIM.hr                 31.53:  Time Reaming 
 SAZI.deg               331.64:  Azm, Start 
 SDEP.m                4127.00:  Start Depth 
 SIDD.                      No:  Serv Intrp, DD 
 SINC.deg                48.43:  Inc, Start 
 SPPA.psig             5830.00:  SPP Avg 
 SPPN.psig             5600.00:  SPP Min 
 SPPX.psig             5900.00:  SPP Max 
 STIM.      21.00.00 20-Aug-21:  Start Time 
 SVCS.                 DD, MWD:  Services 
 SVER.                    9.20:  Sperry Version 
 TDAT.m                 957.50:  Tot Depth Attmp 
 TDDF.                      No:  Trip for DD 
 TDLG.m                 957.50:  Tot Depth Loggd 
 TFF .                      No:  Trip for Fail 
 TQAA.f-kp               15.00:  Torque Abs Avg 
 TQAN.f-kp               12.00:  Torque Abs Min 
 TQAX.f-kp               19.00:  Torque Abs Max 
 TRRT.°/30m              -3.40:  Turn Rotating 
 MRT .                  EWR-M5:  Maximum Recorded Temperature 
 TTMX.degC              100.00:  Max Tool Temp 
 VS01.                90639251:  Virtual Str1 SN 
 VS02.                90634715:  Virtual Str2 SN 
 VS03.                90652479:  Virtual Str3 SN 
 VS04.                90642262:  Virtual Str4 SN 
 WBMN.klb                 0.00:  WOB Min 
 WITN.           Murad Guliyev:  Customer Rep 
 WITN.          Yashar Gaziyev:  Customer Rep 2 
 WOBA.klb                 9.00:  WOB Avg 
 WOBX.klb                12.00:  WOB Max 
 YP  .lhf2               30.00:  Yield Point 
~Curve Information Block
#MNEM.UNIT                 API CODE     Curve Description
#---------               -----------    ---------------------------
 TIME.HHMMSS            00 000 000 000:  GT Time & Date
 GTDEPTH.m              00 000 000 000:  GT Depth
 GTPQH.psia             00 000 000 000:  GT HR Quartz Pressure
 GTTQ.degC              00 000 000 000:  GT Quartz Temperature
 GTTN.NONE              00 000 000 000:  GT Test Number
 GTET.sec               00 000 000 000:  GT Elapsed Test Time
 GTTVD.m                00 000 000 000:  GT True Vertical Depth
#Other Information
#
#WARRANTY: Halliburton will use its best efforts to furnish customers with 
#accurate information and interpretations that are part of, and incident to, the services 
#provided.  However, Halliburton cannot and does not warrant the accuracy 
#or correctness of such information and interpretations.  Under no circumstances should any 
#such information or interpretation be relied upon as the sole basis for any drilling, 
#completion, production, or financial decision or any procedure involving any risk to the 
#safety of any drilling venture, drilling rig or its crew or any other third party.  The 
#Customer has full responsibility for all drilling, completion and production operation.  
#Halliburton makes no representations or warranties, either expressed or 
#implied, including, but not limited to, the implied warranties of merchantability or fitness 
#for a particular purpose, with respect to the services rendered.  In no event will 
#Halliburton be liable for failure to obtain any particular results or for 
#any damages, including, but not limited to, indirect, special or consequential damages, 
#resulting from the use of any information or interpretation provided by Halliburton.
#
~A           TIME           GTDEPTH  GTPQH  GTTQ  GTTN  GTET   GTTVD  
# ...
   10:07:35.079.27-Aug-2021 4958.50 7875.76 86.11 8.00  45.95 3301.91
   10:07:35.279.27-Aug-2021 4958.50 7875.76 86.11 8.00  46.14 3301.91
   10:07:35.478.27-Aug-2021 4958.50 7880.68 86.11 8.00  46.34 3301.91
   10:07:35.678.27-Aug-2021 4958.50 7874.00 86.11 8.00  46.54 3301.91
   10:07:35.878.27-Aug-2021 4958.50 7877.46 86.11 8.00  46.74 3301.91
   10:07:36.078.27-Aug-2021 4958.50 7876.40 86.11 8.00  46.94 3301.91
   10:07:36.277.27-Aug-2021 4958.50 7876.40 86.11 8.00  47.14 3301.91
   10:07:36.477.27-Aug-2021 4958.50 7876.61 86.11 8.00  47.34 3301.91
   10:07:36.677.27-Aug-2021 4958.50 7876.73 86.11 8.00  47.54 3301.91
   10:07:36.877.27-Aug-2021 4958.50 7876.70 86.11 8.00  47.74 3301.91
   10:07:37.076.27-Aug-2021 4958.50 7876.38 86.11 8.00  47.94 3301.91
   10:07:37.276.27-Aug-2021 4958.50 7876.38 86.11 8.00  48.14 3301.91
   10:07:37.476.27-Aug-2021 4958.50 7877.29 86.11 8.00  48.34 3301.91
   10:07:37.676.27-Aug-2021 4958.50 7877.49 86.11 8.00  48.54 3301.91
   10:07:37.875.27-Aug-2021 4958.50 7877.54 86.11 8.00  48.74 3301.91
   10:07:38.075.27-Aug-2021 4958.50 7877.42 86.11 8.00  48.94 3301.91
   10:07:38.275.27-Aug-2021 4958.50 7877.42 86.11 8.00  49.14 3301.91
   10:07:38.475.27-Aug-2021 4958.50 7877.15 86.11 8.00  49.34 3301.91
   10:07:38.675.27-Aug-2021 4958.50 7879.20 86.11 8.00  49.54 3301.91
   10:07:38.874.27-Aug-2021 4958.50 7878.95 86.11 8.00  49.74 3301.91
   10:07:39.074.27-Aug-2021 4958.50 7878.89 86.11 8.00  49.94 3301.91
   10:07:39.274.27-Aug-2021 4958.50 7878.89 86.11 8.00  50.14 3301.91
   10:07:39.474.27-Aug-2021 4958.50 7877.49 86.11 8.00  50.34 3301.91
   10:07:39.673.27-Aug-2021 4958.50 7876.09 86.11 8.00  50.54 3301.91
   10:07:39.873.27-Aug-2021 4958.50 7876.75 86.11 8.00  50.74 3301.91
   10:07:40.073.27-Aug-2021 4958.50 7877.05 86.11 8.00  50.94 3301.91
   10:07:40.273.27-Aug-2021 4958.50 7877.05 86.11 8.00  51.14 3301.91
   10:07:40.472.27-Aug-2021 4958.50 7877.10 86.11 8.00  51.34 3301.91
   10:07:40.672.27-Aug-2021 4958.50 7877.50 86.11 8.00  51.54 3301.91
   10:07:40.872.27-Aug-2021 4958.50 7878.19 86.11 8.00  51.74 3301.91
   10:07:41.072.27-Aug-2021 4958.50 7878.36 86.11 8.00  51.94 3301.91
   10:07:41.271.27-Aug-2021 4958.50 7878.36 86.11 8.00  52.14 3301.91
   10:07:41.471.27-Aug-2021 4958.50 7878.10 86.11 8.00  52.34 3301.91
   10:07:41.671.27-Aug-2021 4958.50 7877.99 86.11 8.00  52.54 3301.91
   10:07:41.871.27-Aug-2021 4958.50 7877.82 86.11 8.00  52.74 3301.91
   10:07:42.070.27-Aug-2021 4958.50 7879.76 86.11 8.00  52.94 3301.91
   10:07:42.270.27-Aug-2021 4958.50 7879.76 86.11 8.00  53.14 3301.91
   10:07:42.470.27-Aug-2021 4958.50 7878.88 86.11 8.00  53.34 3301.91
   10:07:42.670.27-Aug-2021 4958.50 7877.88 86.11 8.00  53.54 3301.91
   10:07:42.870.27-Aug-2021 4958.50 7877.44 86.11 8.00  53.74 3301.91
   10:07:43.069.27-Aug-2021 4958.50 7877.52 86.11 8.00  53.94 3301.91
   10:07:43.269.27-Aug-2021 4958.50 7877.52 86.11 8.00  54.14 3301.91
   10:07:43.469.27-Aug-2021 4958.50 7876.78 86.11 8.00  54.34 3301.91
   10:07:43.669.27-Aug-2021 4958.50 7877.76 86.11 8.00  54.53 3301.91
   10:07:43.868.27-Aug-2021 4958.50 7876.23 86.11 8.00  54.73 3301.91
   10:07:44.068.27-Aug-2021 4958.50 7877.10 86.10 8.00  54.93 3301.91
   10:07:44.268.27-Aug-2021 4958.50 7877.10 86.10 8.00  55.13 3301.91
   10:07:44.468.27-Aug-2021 4958.50 7881.78 86.10 8.00  55.33 3301.91
   10:07:44.667.27-Aug-2021 4958.50 7879.59 86.10 8.00  55.53 3301.91
   10:07:44.867.27-Aug-2021 4958.50 7878.41 86.10 8.00  55.73 3301.91
   10:07:45.067.27-Aug-2021 4958.50 7877.84 86.10 8.00  55.93 3301.91
   10:07:45.267.27-Aug-2021 4958.50 7877.84 86.10 8.00  56.13 3301.91
   10:07:45.466.27-Aug-2021 4958.50 7884.30 86.10 8.00  56.33 3301.91
   10:07:45.666.27-Aug-2021 4958.50 7877.07 86.10 8.00  56.53 3301.91
   10:07:45.866.27-Aug-2021 4958.50 7879.86 86.10 8.00  56.73 3301.91
   10:07:46.066.27-Aug-2021 4958.50 7878.51 86.10 8.00  56.93 3301.91
   10:07:46.265.27-Aug-2021 4958.50 7878.51 86.10 8.00  57.13 3301.91
   10:07:46.465.27-Aug-2021 4958.50 7879.19 86.10 8.00  57.33 3301.91
   10:07:46.665.27-Aug-2021 4958.50 7879.59 86.10 8.00  57.53 3301.91
   10:07:46.865.27-Aug-2021 4958.50 7879.43 86.10 8.00  57.73 3301.91
   10:07:47.064.27-Aug-2021 4958.50 7878.94 86.10 8.00  57.93 3301.91
   10:07:47.264.27-Aug-2021 4958.50 7878.94 86.10 8.00  58.13 3301.91
   10:07:47.464.27-Aug-2021 4958.50 7879.64 86.10 8.00  58.33 3301.91
   10:07:47.664.27-Aug-2021 4958.50 7880.26 86.10 8.00  58.53 3301.91
   10:07:47.864.27-Aug-2021 4958.50 7880.43 86.10 8.00  58.73 3301.91
   10:07:48.063.27-Aug-2021 4958.50 7880.32 86.10 8.00  58.93 3301.91
   10:07:48.263.27-Aug-2021 4958.50 7880.32 86.10 8.00  59.13 3301.91
   10:07:48.463.27-Aug-2021 4958.50 7879.71 86.10 8.00  59.33 3301.91
   10:07:48.663.27-Aug-2021 4958.50 7881.61 86.10 8.00  59.53 3301.91
   10:07:48.862.27-Aug-2021 4958.50 7881.55 86.10 8.00  59.73 3301.91
   10:07:49.062.27-Aug-2021 4958.50 7881.34 86.10 8.00  59.93 3301.91
   10:07:49.262.27-Aug-2021 4958.50 7881.34 86.10 8.00  60.13 3301.91
   10:07:49.462.27-Aug-2021 4958.50 7880.69 86.10 8.00  60.33 3301.91
   10:07:49.661.27-Aug-2021 4958.50 7880.52 86.10 8.00  60.53 3301.91
   10:07:49.861.27-Aug-2021 4958.50 7880.72 86.10 8.00  60.73 3301.91
   10:07:50.061.27-Aug-2021 4958.50 7880.89 86.10 8.00  60.93 3301.91
   10:07:50.261.27-Aug-2021 4958.50 7880.89 86.10 8.00  61.13 3301.91
   10:07:50.460.27-Aug-2021 4958.50 7881.07 86.10 8.00  61.33 3301.91
   10:07:50.660.27-Aug-2021 4958.50 7881.62 86.10 8.00  61.53 3301.91
   10:07:50.860.27-Aug-2021 4958.50 7882.41 86.10 8.00  61.73 3301.91
   10:07:51.060.27-Aug-2021 4958.50 7882.75 86.10 8.00  61.93 3301.91
   10:07:51.259.27-Aug-2021 4958.50 7882.75 86.10 8.00  62.13 3301.91
   10:07:51.459.27-Aug-2021 4958.50 7882.59 86.10 8.00  62.33 3301.91
   10:07:51.659.27-Aug-2021 4958.50 7882.59 86.10 8.00  62.53 3301.91
   10:07:51.859.27-Aug-2021 4958.50 7882.33 86.10 8.00  62.73 3301.91
   10:07:52.059.27-Aug-2021 4958.50 7884.06 86.10 8.00  62.92 3301.91
   10:07:52.258.27-Aug-2021 4958.50 7884.06 86.10 8.00  63.12 3301.91
   10:07:52.458.27-Aug-2021 4958.50 7883.34 86.10 8.00  63.32 3301.91
   10:07:52.658.27-Aug-2021 4958.50 7882.29 86.10 8.00  63.52 3301.91
   10:07:52.858.27-Aug-2021 4958.50 7882.02 86.10 8.00  63.72 3301.91
   10:07:53.057.27-Aug-2021 4958.50 7881.96 86.10 8.00  63.92 3301.91
   10:07:53.257.27-Aug-2021 4958.50 7881.96 86.10 8.00  64.12 3301.91
   10:07:53.457.27-Aug-2021 4958.50 7880.45 86.10 8.00  64.32 3301.91
   10:07:53.657.27-Aug-2021 4958.50 7883.05 86.10 8.00  64.52 3301.91
   10:07:53.856.27-Aug-2021 4958.50 7882.38 86.10 8.00  64.72 3301.91
   10:07:54.056.27-Aug-2021 4958.50 7882.61 86.10 8.00  64.92 3301.91
   10:07:54.256.27-Aug-2021 4958.50 7882.61 86.10 8.00  65.12 3301.91
   10:07:54.456.27-Aug-2021 4958.50 7885.03 86.10 8.00  65.32 3301.91
   10:07:54.655.27-Aug-2021 4958.50 7884.63 86.10 8.00  65.52 3301.91
   10:07:54.855.27-Aug-2021 4958.50 7883.72 86.10 8.00  65.72 3301.91
   10:07:55.055.27-Aug-2021 4958.50 7882.88 86.10 8.00  65.92 3301.91
   10:07:55.255.27-Aug-2021 4958.50 7882.88 86.10 8.00  66.12 3301.91
   10:07:55.454.27-Aug-2021 4958.50 7883.23 86.10 8.00  66.32 3301.91
   10:07:55.654.27-Aug-2021 4958.50 7888.62 86.10 8.00  66.52 3301.91
   10:07:55.854.27-Aug-2021 4958.50 7882.24 86.10 8.00  66.72 3301.91
   10:07:56.054.27-Aug-2021 4958.50 7883.00 86.10 8.00  66.92 3301.91
   10:07:56.254.27-Aug-2021 4958.50 7883.00 86.10 8.00  67.12 3301.91
   10:07:56.453.27-Aug-2021 4958.50 7882.82 86.10 8.00  67.32 3301.91
   10:07:56.653.27-Aug-2021 4958.50 7883.61 86.10 8.00  67.52 3301.91
   10:07:56.853.27-Aug-2021 4958.50 7883.61 86.10 8.00  67.72 3301.91
   10:07:57.053.27-Aug-2021 4958.50 7883.42 86.10 8.00  67.92 3301.91
   10:07:57.252.27-Aug-2021 4958.50 7883.42 86.10 8.00  68.12 3301.91
   10:07:57.452.27-Aug-2021 4958.50 7883.36 86.10 8.00  68.32 3301.91
   10:07:57.652.27-Aug-2021 4958.50 7884.28 86.10 8.00  68.52 3301.91
   10:07:57.852.27-Aug-2021 4958.50 7884.63 86.10 8.00  68.72 3301.91
