~Version Information
 VERS.                  2.0:   CWLS log ASCII Standard -VERSION 2.0
 WRAP.                   NO:   One line per depth step
~Well Information Block
#MNEM.UNIT     VALUE/NAME     DESCRIPTION
#---------     -----------    ---------------------------
 STRT.S             04:10:22 28-Aug-21: START TIME 04:10:22 28-Aug-21
 STOP.S             04:17:14 28-Aug-21: STOP TIME  04:17:14 28-Aug-21
 STEP.S                   0.00: STEP TIME
 NULL.                 -999.25: NULL VALUE
 DFWT.                        :  DIST FWL TEXT
 DFST.                        :  DIST FSL TEXT
 DMF .             Drill Floor:  DRILL MEAS FROM
 STIM.      20.00.00 17-Aug-21:  START TIME
 DATE.      19.00.00 29-Aug-21:  END TIME
 SPUD.               15-Aug-21:  SPUD DATE
 NREF.                    Grid:  NORTH REFERENCE
 HPTY.       Minimum Curvature:  HOLE POS TYPE
 DMOD.             Drill Model:  DRILL MOD DESC
 SVYD.                  Survey:  SURVEY DESC
 ILTD.               Lithology:  INTERP LTH DESC
 FTOP.          Formation Tops:  FORM TOPS DESC
 RIG .              East Azeri:  RIG NAME
 PDAT.          Mean Sea Level:  PERMANENT DATUM
 FLD .                     ACG:  FIELD NAME
 SON .        AZ-XX-0907180857:  JOB NUMBER
 CTRY.              Azerbaijan:  COUNTRY NAME
 WELL.                    D23x:  WELL NAME
 SRVC.     Turan Drilling and Engineering:  CONTRACTOR
 COMP.     BP Exploration (Caspian Sea) Ltd.:  COMPANY
 UWI .            /AZE00000214:  UNIQUE WELL IDENTIFIER
 API .            /AZE00000214:  API NUMBER
 MDS .        Operator Entered:  MAG DATA SOURCE
 BASE.              Azerbaijan:  LOGGING EQUIPMENT BASE LOCATION
 REGN.                   EESSA:  REGION
 PROV.                    Baku:  PROVINCE
 STAT.                    Baku:  STATE NAME
 MWDS.                    Baku:  MWD SHOP
 DOE .                     N/A:  DOE NUMBER
 DCON.         Sperry Drilling:  DIRECTNL CONTR
 UNIT.                     N/A:  LOGGING EQUIPMENT ID
 WTYP.                Deviated:  WELL TYPE
 CNTY.                        :  COUNTY
 LOC .                        :  LOCATION
 LMF .             Drill Floor:  LOG MEASURED FROM
 TVDS.m                  43.60:  TVDSS CORRECTN
 LATI.deg                40.02:  LATITUDE
 LONG.deg                51.45:  LONGITUDE
 WHNS.m                  -7.04:  WELL HEAD N/S
 WHEW.m                  -0.67:  WELL HEAD E/W
 UTMX.m              538762.90:  UTM X
 UTMY.m             4431871.34:  UTM Y
 DFWL.m                   0.00:  DISTANCE FWL
 DFSL.m                   0.00:  DISTANCE FSL
 SDEP.m                4127.00:  START DEPTH
 TDD .m                5084.50:  TOTAL DEPTH (DRILLER)
 VSDR.deg               140.47:  VERT SEC DIRECT
 GVFD.g                   1.00:  GRAVITY FIELD
 MFLD.nT              50362.00:  MAGNETIC FIELD
 MDIP.deg                59.48:  MAGNETIC DIP
 MDEC.deg                 6.47:  MAGNETIC DECL
 GRDC.deg                 0.31:  GRID CORRECTION
 AZTC.deg                 6.16:  AZM TOTAL CORR
 EPD .m                   0.00:  ELEVATION
 EGL .m                   0.00:  GROUND ELEVATION
 WDMS.m                 151.80:  WD ELEV
 APD .m                  43.60:  DEPTH ABOVE PD
 DEP .m                4092.57:  DEPTH
 AGAP.m                  43.60:  AIR GAP
 VSEW.m                  -0.67:  VERT SEC E/W
 VSNS.m                  -7.04:  VERT SEC N/S
 EKB .m                  43.60:  KB ELEVATION
 EDF .m                  43.60:  DF ELEVATION
 TDL .m                 957.50:  TOTAL DEPTH (LOGGER)
 VSC .                       0:  VS TO CLOSURE
 MAGU.                 1851413:  MAGUTM CHECKSUM
~Parameter Information Block
#MNEM.UNIT       Value        Description
#---------     -----------    ---------------------------
 AV  .mps                 1.50:  Ann Velocity 
 AVMX.mps                 2.00:  Max Ann Veloc 
 AZIF.deg               184.66:  Azm, Final 
 BHAT.        Rotary Steerable:  BHA Type 
 BREV.rev               300.00:  Rev Bit Total 
 BROT.°/30m              -0.50:  Build Rotating 
 BS  .in                  8.50:  Bit Size 
 BSZ .in                  8.50:  Bit Size 
 BTPL.psig              370.00:  Bit Press Loss 
 CABU.                      No:  Customer Abuse 
 CGEO.      Behruz Shahbaliyev:  Customer Geo 
 COMM.                     LÁp:  Run Comments 1 
 TCS .hr                140.08:  Time Ciculation Ended 
 CV  .mps                 3.00:  Crit Velocity 
 CVMX.mps                 3.20:  Max Crit Veloc 
 DD1 .            Musa Ahmadov:  Direct Drillr 1 
 DD2 .           Hamid Ahmadov:  Direct Drillr 2 
 DDSV.               Geo-Pilot:  DD Service 
 DEFF.%                  98.40:  % Det Eff 
 DLRX.°/30m               3.40:  Dogleg Rot Max 
 DLSO.°/30m               1.45:  Dogleg Oriented 
 DLSX.°/30m               3.40:  Dogleg Str Max 
 DRET.      18.40.00 29-Aug-21:  Drill End Time 
 DRST.      21.00.00 20-Aug-21:  Drill Start Tim 
 DTIM.hr                 69.47:  Time Drilling 
 EDEP.m                5084.50:  End Depth 
 ENG1.      Artemiy Matviyanov:  Engineer 1 
 ENG2.         Almaz Almadatov:  Engineer 2 
 ETIM.      18.40.00 29-Aug-21:  End Time 
 FLOI.gpm               500.00:  Flow In 
 FLON.gpm               400.00:  Flow In Min 
 FLOS.cptm                0.00:  Fluid Loss 
 FLOX.gpm               500.00:  Flow In Max 
 DFT .        Mineral Oil Base:  Mud Type 
 HFLO.                      No:  High Flow 
 HPRE.                      No:  High Pressure 
 HTEM.                      No:  High Temp 
 HYDO.m                   1.80:  Hydro Offset 
 IFIN.deg                25.62:  Inc, Final 
 IMAX.deg                48.69:  Inc Max 
 IMIN.deg                24.01:  Inc Min 
 IMND.m                4962.57:  Inc Min Depth 
 IMXD.m                4119.01:  Inc Max Depth 
 JARR.                      No:  Jarring 
 LETM.      18.40.00 29-Aug-21:  Log End Time 
 LOST.hr                     0:  Lost Rig Time 
 LSTM.      21.00.00 20-Aug-21:  Log Start Time 
 MDCL.ppm             41500.00:  Mud Chlorides 
 MDES.     Inversion Oil/Synthetic:  Mud Desc 
 DFD .sg                  1.56:  Mud Density 
 MDMN.sg                  1.56:  Dens Mud Min 
 MDMX.sg                  1.56:  Dens Mud Max 
 MOIL.                      70:  Run Mud Oil % 
 MOWR.                   70:30:  Run Mud OWR 
 MSND.                     0.2:  Run Mud Sand % 
 MSOL.                    23.3:  Run Mud Solids% 
 DFV .spqt               78.00:  Mud Viscosity 
 MWOD.in                  6.75:  MWD Tool OD 
 MWSI.                      No:  Serv Intrp, MWD 
 OTIM.hr                218.30:  Time Operating 
 PCON.           Look Like New:  Pad Condition 
 PMAX.psia            11015.30:  Press Op, Max 
 PV  .cP                 38.00:  Mud PV 
 RUN .                     300:  Run Number 
 ROPA.m/hr               15.00:  ROP Avg 
 ROPN.m/hr                9.00:  ROP Min 
 ROPX.m/hr               17.00:  ROP Max 
 RPMA.rpm               120.00:  RPM Surface Avg 
 RPMN.rpm                90.00:  RPM Surface Min 
 RPMX.rpm               140.00:  RPM Surface Max 
 RRUN.                     300:  Rig Run Number 
 RTIM.hr                 31.53:  Time Reaming 
 SAZI.deg               331.64:  Azm, Start 
 SDEP.m                4127.00:  Start Depth 
 SIDD.                      No:  Serv Intrp, DD 
 SINC.deg                48.43:  Inc, Start 
 SPPA.psig             5830.00:  SPP Avg 
 SPPN.psig             5600.00:  SPP Min 
 SPPX.psig             5900.00:  SPP Max 
 STIM.      21.00.00 20-Aug-21:  Start Time 
 SVCS.                 DD, MWD:  Services 
 SVER.                    9.20:  Sperry Version 
 TDAT.m                 957.50:  Tot Depth Attmp 
 TDDF.                      No:  Trip for DD 
 TDLG.m                 957.50:  Tot Depth Loggd 
 TFF .                      No:  Trip for Fail 
 TQAA.f-kp               15.00:  Torque Abs Avg 
 TQAN.f-kp               12.00:  Torque Abs Min 
 TQAX.f-kp               19.00:  Torque Abs Max 
 TRRT.°/30m              -3.40:  Turn Rotating 
 MRT .                  EWR-M5:  Maximum Recorded Temperature 
 TTMX.degC              100.00:  Max Tool Temp 
 VS01.                90639251:  Virtual Str1 SN 
 VS02.                90634715:  Virtual Str2 SN 
 VS03.                90652479:  Virtual Str3 SN 
 VS04.                90642262:  Virtual Str4 SN 
 WBMN.klb                 0.00:  WOB Min 
 WITN.           Murad Guliyev:  Customer Rep 
 WITN.          Yashar Gaziyev:  Customer Rep 2 
 WOBA.klb                 9.00:  WOB Avg 
 WOBX.klb                12.00:  WOB Max 
 YP  .lhf2               30.00:  Yield Point 
~Curve Information Block
#MNEM.UNIT                 API CODE     Curve Description
#---------               -----------    ---------------------------
 TIME.HHMMSS            00 000 000 000:  GT Time & Date
 GTDEPTH.m              00 000 000 000:  GT Depth
 GTPQH.psia             00 000 000 000:  GT HR Quartz Pressure
 GTTQ.degC              00 000 000 000:  GT Quartz Temperature
 GTTN.NONE              00 000 000 000:  GT Test Number
 GTET.sec               00 000 000 000:  GT Elapsed Test Time
 GTTVD.m                00 000 000 000:  GT True Vertical Depth
#Other Information
#
#WARRANTY: Halliburton will use its best efforts to furnish customers with 
#accurate information and interpretations that are part of, and incident to, the services 
#provided.  However, Halliburton cannot and does not warrant the accuracy 
#or correctness of such information and interpretations.  Under no circumstances should any 
#such information or interpretation be relied upon as the sole basis for any drilling, 
#completion, production, or financial decision or any procedure involving any risk to the 
#safety of any drilling venture, drilling rig or its crew or any other third party.  The 
#Customer has full responsibility for all drilling, completion and production operation.  
#Halliburton makes no representations or warranties, either expressed or 
#implied, including, but not limited to, the implied warranties of merchantability or fitness 
#for a particular purpose, with respect to the services rendered.  In no event will 
#Halliburton be liable for failure to obtain any particular results or for 
#any damages, including, but not limited to, indirect, special or consequential damages, 
#resulting from the use of any information or interpretation provided by Halliburton.
#
~A           TIME           GTDEPTH  GTPQH  GTTQ  GTTN   GTET   GTTVD  
# ...
   04:16:47.561.28-Aug-2021 4978.00 7974.58 80.42 29.00 384.74 3319.69
   04:16:47.762.28-Aug-2021 4978.00 7972.29 80.42 29.00 384.94 3319.69
   04:16:47.962.28-Aug-2021 4978.00 7972.28 80.42 29.00 385.14 3319.69
   04:16:48.162.28-Aug-2021 4978.00 7972.17 80.42 29.00 385.34 3319.69
   04:16:48.363.28-Aug-2021 4978.00 7972.46 80.42 29.00 385.54 3319.69
   04:16:48.563.28-Aug-2021 4978.00 7972.46 80.42 29.00 385.74 3319.69
   04:16:48.763.28-Aug-2021 4978.00 7971.63 80.42 29.00 385.94 3319.69
   04:16:48.963.28-Aug-2021 4978.00 7972.64 80.42 29.00 386.14 3319.69
   04:16:49.164.28-Aug-2021 4978.00 7974.29 80.42 29.00 386.34 3319.69
   04:16:49.364.28-Aug-2021 4978.00 7974.41 80.42 29.00 386.54 3319.69
   04:16:49.564.28-Aug-2021 4978.00 7974.41 80.42 29.00 386.74 3319.69
   04:16:49.765.28-Aug-2021 4978.00 7974.25 80.42 29.00 386.94 3319.69
   04:16:49.965.28-Aug-2021 4978.00 7974.04 80.42 29.00 387.14 3319.69
   04:16:50.165.28-Aug-2021 4978.00 7974.04 80.42 29.00 387.34 3319.69
   04:16:50.365.28-Aug-2021 4978.00 7973.96 80.42 29.00 387.54 3319.69
   04:16:50.566.28-Aug-2021 4978.00 7973.96 80.42 29.00 387.74 3319.69
   04:16:50.766.28-Aug-2021 4978.00 7977.09 80.42 29.00 387.95 3319.69
   04:16:50.966.28-Aug-2021 4978.00 7974.86 80.42 29.00 388.15 3319.69
   04:16:51.167.28-Aug-2021 4978.00 7973.82 80.42 29.00 388.35 3319.69
   04:16:51.367.28-Aug-2021 4978.00 7973.66 80.42 29.00 388.55 3319.69
   04:16:51.567.28-Aug-2021 4978.00 7973.66 80.42 29.00 388.75 3319.69
   04:16:51.767.28-Aug-2021 4978.00 7972.31 80.42 29.00 388.95 3319.69
   04:16:51.968.28-Aug-2021 4978.00 7973.99 80.42 29.00 389.15 3319.69
   04:16:52.168.28-Aug-2021 4978.00 7972.90 80.42 29.00 389.35 3319.69
   04:16:52.368.28-Aug-2021 4978.00 7975.23 80.42 29.00 389.55 3319.69
   04:16:52.569.28-Aug-2021 4978.00 7975.23 80.42 29.00 389.75 3319.69
   04:16:52.769.28-Aug-2021 4978.00 7975.40 80.42 29.00 389.95 3319.69
   04:16:52.969.28-Aug-2021 4978.00 7974.12 80.42 29.00 390.15 3319.69
   04:16:53.169.28-Aug-2021 4978.00 7973.53 80.42 29.00 390.35 3319.69
   04:16:53.370.28-Aug-2021 4978.00 7975.29 80.42 29.00 390.55 3319.69
   04:16:53.570.28-Aug-2021 4978.00 7975.29 80.42 29.00 390.75 3319.69
   04:16:53.770.28-Aug-2021 4978.00 7974.97 80.42 29.00 390.95 3319.69
   04:16:53.971.28-Aug-2021 4978.00 7973.13 80.42 29.00 391.15 3319.69
   04:16:54.171.28-Aug-2021 4978.00 7973.40 80.42 29.00 391.35 3319.69
   04:16:54.371.28-Aug-2021 4978.00 7973.64 80.42 29.00 391.55 3319.69
   04:16:54.571.28-Aug-2021 4978.00 7973.64 80.42 29.00 391.75 3319.69
   04:16:54.772.28-Aug-2021 4978.00 7973.64 80.42 29.00 391.95 3319.69
   04:16:54.972.28-Aug-2021 4978.00 7973.05 80.42 29.00 392.15 3319.69
   04:16:55.172.28-Aug-2021 4978.00 7973.50 80.42 29.00 392.35 3319.69
   04:16:55.372.28-Aug-2021 4978.00 7973.90 80.42 29.00 392.55 3319.69
   04:16:55.573.28-Aug-2021 4978.00 7973.90 80.42 29.00 392.75 3319.69
   04:16:55.773.28-Aug-2021 4978.00 7974.58 80.42 29.00 392.95 3319.69
   04:16:55.973.28-Aug-2021 4978.00 7974.36 80.42 29.00 393.15 3319.69
   04:16:56.174.28-Aug-2021 4978.00 7974.16 80.42 29.00 393.35 3319.69
   04:16:56.374.28-Aug-2021 4978.00 7973.98 80.42 29.00 393.55 3319.69
   04:16:56.574.28-Aug-2021 4978.00 7973.98 80.42 29.00 393.75 3319.69
   04:16:56.774.28-Aug-2021 4978.00 7977.37 80.42 29.00 393.95 3319.69
   04:16:56.975.28-Aug-2021 4978.00 7975.03 80.42 29.00 394.15 3319.69
   04:16:57.175.28-Aug-2021 4978.00 7973.84 80.42 29.00 394.35 3319.69
   04:16:57.375.28-Aug-2021 4978.00 7973.50 80.42 29.00 394.55 3319.69
   04:16:57.576.28-Aug-2021 4978.00 7973.50 80.42 29.00 394.75 3319.69
   04:16:57.776.28-Aug-2021 4978.00 7973.69 80.42 29.00 394.96 3319.69
   04:16:57.976.28-Aug-2021 4978.00 7973.44 80.42 29.00 395.16 3319.69
   04:16:58.176.28-Aug-2021 4978.00 7973.08 80.42 29.00 395.36 3319.69
   04:16:58.377.28-Aug-2021 4978.00 7973.17 80.42 29.00 395.56 3319.69
   04:16:58.577.28-Aug-2021 4978.00 7973.17 80.42 29.00 395.76 3319.69
   04:16:58.777.28-Aug-2021 4978.00 7974.54 80.42 29.00 395.96 3319.69
   04:16:58.978.28-Aug-2021 4978.00 7974.76 80.42 29.00 396.16 3319.69
   04:16:59.178.28-Aug-2021 4978.00 7974.48 80.42 29.00 396.36 3319.69
   04:16:59.378.28-Aug-2021 4978.00 7974.23 80.42 29.00 396.56 3319.69
   04:16:59.578.28-Aug-2021 4978.00 7974.23 80.42 29.00 396.76 3319.69
   04:16:59.779.28-Aug-2021 4978.00 7974.08 80.42 29.00 396.96 3319.69
   04:16:59.979.28-Aug-2021 4978.00 7973.95 80.42 29.00 397.16 3319.69
   04:17:00.179.28-Aug-2021 4978.00 7978.76 80.42 29.00 397.36 3319.69
   04:17:00.380.28-Aug-2021 4978.00 7973.06 80.42 29.00 397.56 3319.69
   04:17:00.580.28-Aug-2021 4978.00 7973.06 80.42 29.00 397.76 3319.69
   04:17:00.780.28-Aug-2021 4978.00 7973.53 80.42 29.00 397.96 3319.69
   04:17:00.980.28-Aug-2021 4978.00 7975.11 80.42 29.00 398.16 3319.69
   04:17:01.181.28-Aug-2021 4978.00 7975.59 80.42 29.00 398.36 3319.69
   04:17:01.381.28-Aug-2021 4978.00 7974.39 80.42 29.00 398.56 3319.69
   04:17:01.581.28-Aug-2021 4978.00 7974.39 80.42 29.00 398.76 3319.69
   04:17:01.781.28-Aug-2021 4978.00 7972.86 80.42 29.00 398.96 3319.69
   04:17:01.982.28-Aug-2021 4978.00 7972.86 80.42 29.00 399.16 3319.69
   04:17:02.182.28-Aug-2021 4978.00 7975.60 80.42 29.00 399.36 3319.69
   04:17:02.382.28-Aug-2021 4978.00 7973.95 80.42 29.00 399.56 3319.69
   04:17:02.583.28-Aug-2021 4978.00 7973.95 80.42 29.00 399.76 3319.69
   04:17:02.783.28-Aug-2021 4978.00 7973.49 80.42 29.00 399.96 3319.69
   04:17:02.983.28-Aug-2021 4978.00 7977.33 80.42 29.00 400.16 3319.69
   04:17:03.183.28-Aug-2021 4978.00 7975.34 80.42 29.00 400.36 3319.69
   04:17:03.384.28-Aug-2021 4978.00 7973.91 80.42 29.00 400.56 3319.69
   04:17:03.584.28-Aug-2021 4978.00 7973.91 80.42 29.00 400.76 3319.69
   04:17:03.784.28-Aug-2021 4978.00 7973.47 80.42 29.00 400.96 3319.69
   04:17:03.985.28-Aug-2021 4978.00 7974.17 80.42 29.00 401.16 3319.69
   04:17:04.185.28-Aug-2021 4978.00 7973.99 80.42 29.00 401.36 3319.69
   04:17:04.385.28-Aug-2021 4978.00 7973.21 80.42 29.00 401.56 3319.69
   04:17:04.585.28-Aug-2021 4978.00 7973.21 80.42 29.00 401.76 3319.69
   04:17:04.786.28-Aug-2021 4978.00 7973.38 80.42 29.00 401.96 3319.69
   04:17:04.986.28-Aug-2021 4978.00 7974.24 80.42 29.00 402.17 3319.69
   04:17:05.186.28-Aug-2021 4978.00 7974.33 80.42 29.00 402.37 3319.69
   04:17:05.387.28-Aug-2021 4978.00 7974.06 80.42 29.00 402.57 3319.69
   04:17:05.587.28-Aug-2021 4978.00 7974.06 80.42 29.00 402.77 3319.69
   04:17:05.787.28-Aug-2021 4978.00 7973.64 80.42 29.00 402.97 3319.69
   04:17:05.987.28-Aug-2021 4978.00 7973.62 80.42 29.00 403.17 3319.69
   04:17:06.188.28-Aug-2021 4978.00 7978.52 80.42 29.00 403.37 3319.69
   04:17:06.388.28-Aug-2021 4978.00 7973.16 80.42 29.00 403.57 3319.69
   04:17:06.588.28-Aug-2021 4978.00 7973.16 80.42 29.00 403.77 3319.69
   04:17:06.789.28-Aug-2021 4978.00 7973.75 80.42 29.00 403.97 3319.69
   04:17:06.989.28-Aug-2021 4978.00 7973.95 80.42 29.00 404.17 3319.69
   04:17:07.189.28-Aug-2021 4978.00 7974.06 80.42 29.00 404.37 3319.69
   04:17:07.389.28-Aug-2021 4978.00 7973.76 80.42 29.00 404.57 3319.69
   04:17:07.590.28-Aug-2021 4978.00 7973.76 80.42 29.00 404.77 3319.69
   04:17:07.790.28-Aug-2021 4978.00 7973.32 80.42 29.00 404.97 3319.69
   04:17:07.990.28-Aug-2021 4978.00 7973.78 80.42 29.00 405.17 3319.69
   04:17:08.190.28-Aug-2021 4978.00 7974.77 80.42 29.00 405.37 3319.69
   04:17:08.391.28-Aug-2021 4978.00 7974.95 80.42 29.00 405.57 3319.69
   04:17:08.591.28-Aug-2021 4978.00 7974.95 80.42 29.00 405.77 3319.69
   04:17:08.791.28-Aug-2021 4978.00 7974.40 80.42 29.00 405.97 3319.69
   04:17:08.992.28-Aug-2021 4978.00 7974.21 80.42 29.00 406.17 3319.69
   04:17:09.192.28-Aug-2021 4978.00 7974.17 80.42 29.00 406.37 3319.69
   04:17:09.392.28-Aug-2021 4978.00 7974.01 80.42 29.00 406.57 3319.69
   04:17:09.592.28-Aug-2021 4978.00 7974.01 80.42 29.00 406.77 3319.69
   04:17:09.793.28-Aug-2021 4978.00 7972.72 80.42 29.00 406.97 3319.69
   04:17:09.993.28-Aug-2021 4978.00 7974.22 80.42 29.00 407.17 3319.69
