~Version Information
 VERS.                  2.0:   CWLS log ASCII Standard -VERSION 2.0
 WRAP.                   NO:   One line per depth step
~Well Information Block
#MNEM.UNIT     VALUE/NAME     DESCRIPTION
#---------     -----------    ---------------------------
 STRT.S             16:35:30 27-Aug-21: START TIME 16:35:30 27-Aug-21
 STOP.S             16:42:43 27-Aug-21: STOP TIME  16:42:43 27-Aug-21
 STEP.S                   0.00: STEP TIME
 NULL.                 -999.25: NULL VALUE
 DFWT.                        :  DIST FWL TEXT
 DFST.                        :  DIST FSL TEXT
 DMF .             Drill Floor:  DRILL MEAS FROM
 STIM.      20.00.00 17-Aug-21:  START TIME
 DATE.      19.00.00 29-Aug-21:  END TIME
 SPUD.               15-Aug-21:  SPUD DATE
 NREF.                    Grid:  NORTH REFERENCE
 HPTY.       Minimum Curvature:  HOLE POS TYPE
 DMOD.             Drill Model:  DRILL MOD DESC
 SVYD.                  Survey:  SURVEY DESC
 ILTD.               Lithology:  INTERP LTH DESC
 FTOP.          Formation Tops:  FORM TOPS DESC
 RIG .              East Azeri:  RIG NAME
 PDAT.          Mean Sea Level:  PERMANENT DATUM
 FLD .                     ACG:  FIELD NAME
 SON .        AZ-XX-0907180857:  JOB NUMBER
 CTRY.              Azerbaijan:  COUNTRY NAME
 WELL.                    D23x:  WELL NAME
 SRVC.     Turan Drilling and Engineering:  CONTRACTOR
 COMP.     BP Exploration (Caspian Sea) Ltd.:  COMPANY
 UWI .            /AZE00000214:  UNIQUE WELL IDENTIFIER
 API .            /AZE00000214:  API NUMBER
 MDS .        Operator Entered:  MAG DATA SOURCE
 BASE.              Azerbaijan:  LOGGING EQUIPMENT BASE LOCATION
 REGN.                   EESSA:  REGION
 PROV.                    Baku:  PROVINCE
 STAT.                    Baku:  STATE NAME
 MWDS.                    Baku:  MWD SHOP
 DOE .                     N/A:  DOE NUMBER
 DCON.         Sperry Drilling:  DIRECTNL CONTR
 UNIT.                     N/A:  LOGGING EQUIPMENT ID
 WTYP.                Deviated:  WELL TYPE
 CNTY.                        :  COUNTY
 LOC .                        :  LOCATION
 LMF .             Drill Floor:  LOG MEASURED FROM
 TVDS.m                  43.60:  TVDSS CORRECTN
 LATI.deg                40.02:  LATITUDE
 LONG.deg                51.45:  LONGITUDE
 WHNS.m                  -7.04:  WELL HEAD N/S
 WHEW.m                  -0.67:  WELL HEAD E/W
 UTMX.m              538762.90:  UTM X
 UTMY.m             4431871.34:  UTM Y
 DFWL.m                   0.00:  DISTANCE FWL
 DFSL.m                   0.00:  DISTANCE FSL
 SDEP.m                4127.00:  START DEPTH
 TDD .m                5084.50:  TOTAL DEPTH (DRILLER)
 VSDR.deg               140.47:  VERT SEC DIRECT
 GVFD.g                   1.00:  GRAVITY FIELD
 MFLD.nT              50362.00:  MAGNETIC FIELD
 MDIP.deg                59.48:  MAGNETIC DIP
 MDEC.deg                 6.47:  MAGNETIC DECL
 GRDC.deg                 0.31:  GRID CORRECTION
 AZTC.deg                 6.16:  AZM TOTAL CORR
 EPD .m                   0.00:  ELEVATION
 EGL .m                   0.00:  GROUND ELEVATION
 WDMS.m                 151.80:  WD ELEV
 APD .m                  43.60:  DEPTH ABOVE PD
 DEP .m                4092.57:  DEPTH
 AGAP.m                  43.60:  AIR GAP
 VSEW.m                  -0.67:  VERT SEC E/W
 VSNS.m                  -7.04:  VERT SEC N/S
 EKB .m                  43.60:  KB ELEVATION
 EDF .m                  43.60:  DF ELEVATION
 TDL .m                 957.50:  TOTAL DEPTH (LOGGER)
 VSC .                       0:  VS TO CLOSURE
 MAGU.                 1851413:  MAGUTM CHECKSUM
~Parameter Information Block
#MNEM.UNIT       Value        Description
#---------     -----------    ---------------------------
 AV  .mps                 1.50:  Ann Velocity 
 AVMX.mps                 2.00:  Max Ann Veloc 
 AZIF.deg               184.66:  Azm, Final 
 BHAT.        Rotary Steerable:  BHA Type 
 BREV.rev               300.00:  Rev Bit Total 
 BROT.°/30m              -0.50:  Build Rotating 
 BS  .in                  8.50:  Bit Size 
 BSZ .in                  8.50:  Bit Size 
 BTPL.psig              370.00:  Bit Press Loss 
 CABU.                      No:  Customer Abuse 
 CGEO.      Behruz Shahbaliyev:  Customer Geo 
 COMM.                     äU:  Run Comments 1 
 TCS .hr                140.08:  Time Ciculation Ended 
 CV  .mps                 3.00:  Crit Velocity 
 CVMX.mps                 3.20:  Max Crit Veloc 
 DD1 .            Musa Ahmadov:  Direct Drillr 1 
 DD2 .           Hamid Ahmadov:  Direct Drillr 2 
 DDSV.               Geo-Pilot:  DD Service 
 DEFF.%                  98.40:  % Det Eff 
 DLRX.°/30m               3.40:  Dogleg Rot Max 
 DLSO.°/30m               1.45:  Dogleg Oriented 
 DLSX.°/30m               3.40:  Dogleg Str Max 
 DRET.      18.40.00 29-Aug-21:  Drill End Time 
 DRST.      21.00.00 20-Aug-21:  Drill Start Tim 
 DTIM.hr                 69.47:  Time Drilling 
 EDEP.m                5084.50:  End Depth 
 ENG1.      Artemiy Matviyanov:  Engineer 1 
 ENG2.         Almaz Almadatov:  Engineer 2 
 ETIM.      18.40.00 29-Aug-21:  End Time 
 FLOI.gpm               500.00:  Flow In 
 FLON.gpm               400.00:  Flow In Min 
 FLOS.cptm                0.00:  Fluid Loss 
 FLOX.gpm               500.00:  Flow In Max 
 DFT .        Mineral Oil Base:  Mud Type 
 HFLO.                      No:  High Flow 
 HPRE.                      No:  High Pressure 
 HTEM.                      No:  High Temp 
 HYDO.m                   1.80:  Hydro Offset 
 IFIN.deg                25.62:  Inc, Final 
 IMAX.deg                48.69:  Inc Max 
 IMIN.deg                24.01:  Inc Min 
 IMND.m                4962.57:  Inc Min Depth 
 IMXD.m                4119.01:  Inc Max Depth 
 JARR.                      No:  Jarring 
 LETM.      18.40.00 29-Aug-21:  Log End Time 
 LOST.hr                     0:  Lost Rig Time 
 LSTM.      21.00.00 20-Aug-21:  Log Start Time 
 MDCL.ppm             41500.00:  Mud Chlorides 
 MDES.     Inversion Oil/Synthetic:  Mud Desc 
 DFD .sg                  1.56:  Mud Density 
 MDMN.sg                  1.56:  Dens Mud Min 
 MDMX.sg                  1.56:  Dens Mud Max 
 MOIL.                      70:  Run Mud Oil % 
 MOWR.                   70:30:  Run Mud OWR 
 MSND.                     0.2:  Run Mud Sand % 
 MSOL.                    23.3:  Run Mud Solids% 
 DFV .spqt               78.00:  Mud Viscosity 
 MWOD.in                  6.75:  MWD Tool OD 
 MWSI.                      No:  Serv Intrp, MWD 
 OTIM.hr                218.30:  Time Operating 
 PCON.           Look Like New:  Pad Condition 
 PMAX.psia            11015.30:  Press Op, Max 
 PV  .cP                 38.00:  Mud PV 
 RUN .                     300:  Run Number 
 ROPA.m/hr               15.00:  ROP Avg 
 ROPN.m/hr                9.00:  ROP Min 
 ROPX.m/hr               17.00:  ROP Max 
 RPMA.rpm               120.00:  RPM Surface Avg 
 RPMN.rpm                90.00:  RPM Surface Min 
 RPMX.rpm               140.00:  RPM Surface Max 
 RRUN.                     300:  Rig Run Number 
 RTIM.hr                 31.53:  Time Reaming 
 SAZI.deg               331.64:  Azm, Start 
 SDEP.m                4127.00:  Start Depth 
 SIDD.                      No:  Serv Intrp, DD 
 SINC.deg                48.43:  Inc, Start 
 SPPA.psig             5830.00:  SPP Avg 
 SPPN.psig             5600.00:  SPP Min 
 SPPX.psig             5900.00:  SPP Max 
 STIM.      21.00.00 20-Aug-21:  Start Time 
 SVCS.                 DD, MWD:  Services 
 SVER.                    9.20:  Sperry Version 
 TDAT.m                 957.50:  Tot Depth Attmp 
 TDDF.                      No:  Trip for DD 
 TDLG.m                 957.50:  Tot Depth Loggd 
 TFF .                      No:  Trip for Fail 
 TQAA.f-kp               15.00:  Torque Abs Avg 
 TQAN.f-kp               12.00:  Torque Abs Min 
 TQAX.f-kp               19.00:  Torque Abs Max 
 TRRT.°/30m              -3.40:  Turn Rotating 
 MRT .                  EWR-M5:  Maximum Recorded Temperature 
 TTMX.degC              100.00:  Max Tool Temp 
 VS01.                90639251:  Virtual Str1 SN 
 VS02.                90634715:  Virtual Str2 SN 
 VS03.                90652479:  Virtual Str3 SN 
 VS04.                90642262:  Virtual Str4 SN 
 WBMN.klb                 0.00:  WOB Min 
 WITN.           Murad Guliyev:  Customer Rep 
 WITN.          Yashar Gaziyev:  Customer Rep 2 
 WOBA.klb                 9.00:  WOB Avg 
 WOBX.klb                12.00:  WOB Max 
 YP  .lhf2               30.00:  Yield Point 
~Curve Information Block
#MNEM.UNIT                 API CODE     Curve Description
#---------               -----------    ---------------------------
 TIME.HHMMSS            00 000 000 000:  GT Time & Date
 GTDEPTH.m              00 000 000 000:  GT Depth
 GTPQH.psia             00 000 000 000:  GT HR Quartz Pressure
 GTTQ.degC              00 000 000 000:  GT Quartz Temperature
 GTTN.NONE              00 000 000 000:  GT Test Number
 GTET.sec               00 000 000 000:  GT Elapsed Test Time
 GTTVD.m                00 000 000 000:  GT True Vertical Depth
#Other Information
#
#WARRANTY: Halliburton will use its best efforts to furnish customers with 
#accurate information and interpretations that are part of, and incident to, the services 
#provided.  However, Halliburton cannot and does not warrant the accuracy 
#or correctness of such information and interpretations.  Under no circumstances should any 
#such information or interpretation be relied upon as the sole basis for any drilling, 
#completion, production, or financial decision or any procedure involving any risk to the 
#safety of any drilling venture, drilling rig or its crew or any other third party.  The 
#Customer has full responsibility for all drilling, completion and production operation.  
#Halliburton makes no representations or warranties, either expressed or 
#implied, including, but not limited to, the implied warranties of merchantability or fitness 
#for a particular purpose, with respect to the services rendered.  In no event will 
#Halliburton be liable for failure to obtain any particular results or for 
#any damages, including, but not limited to, indirect, special or consequential damages, 
#resulting from the use of any information or interpretation provided by Halliburton.
#
~A           TIME           GTDEPTH  GTPQH  GTTQ  GTTN   GTET   GTTVD  
# ...
   16:39:16.207.27-Aug-2021 4788.00 7524.16 83.19 17.00 225.77 3147.22
   16:39:16.406.27-Aug-2021 4788.00 7524.16 83.19 17.00 225.97 3147.22
   16:39:16.606.27-Aug-2021 4788.00 7524.34 83.19 17.00 226.17 3147.22
   16:39:16.806.27-Aug-2021 4788.00 7523.76 83.19 17.00 226.37 3147.22
   16:39:17.006.27-Aug-2021 4788.00 7523.83 83.19 17.00 226.57 3147.22
   16:39:17.206.27-Aug-2021 4788.00 7523.98 83.19 17.00 226.77 3147.22
   16:39:17.405.27-Aug-2021 4788.00 7523.98 83.19 17.00 226.97 3147.22
   16:39:17.605.27-Aug-2021 4788.00 7524.65 83.19 17.00 227.17 3147.22
   16:39:17.805.27-Aug-2021 4788.00 7524.73 83.19 17.00 227.37 3147.22
   16:39:18.005.27-Aug-2021 4788.00 7525.03 83.19 17.00 227.57 3147.22
   16:39:18.205.27-Aug-2021 4788.00 7525.09 83.19 17.00 227.77 3147.22
   16:39:18.404.27-Aug-2021 4788.00 7525.09 83.19 17.00 227.97 3147.22
   16:39:18.604.27-Aug-2021 4788.00 7525.00 83.19 17.00 228.17 3147.22
   16:39:18.804.27-Aug-2021 4788.00 7524.87 83.19 17.00 228.37 3147.22
   16:39:19.004.27-Aug-2021 4788.00 7524.74 83.19 17.00 228.57 3147.22
   16:39:19.204.27-Aug-2021 4788.00 7525.31 83.19 17.00 228.77 3147.22
   16:39:19.403.27-Aug-2021 4788.00 7525.31 83.19 17.00 228.97 3147.22
   16:39:19.603.27-Aug-2021 4788.00 7524.39 83.19 17.00 229.17 3147.22
   16:39:19.803.27-Aug-2021 4788.00 7524.76 83.19 17.00 229.37 3147.22
   16:39:20.003.27-Aug-2021 4788.00 7525.24 83.19 17.00 229.57 3147.22
   16:39:20.203.27-Aug-2021 4788.00 7529.57 83.19 17.00 229.77 3147.22
   16:39:20.402.27-Aug-2021 4788.00 7529.57 83.19 17.00 229.97 3147.22
   16:39:20.602.27-Aug-2021 4788.00 7524.04 83.19 17.00 230.17 3147.22
   16:39:20.802.27-Aug-2021 4788.00 7525.47 83.19 17.00 230.37 3147.22
   16:39:21.002.27-Aug-2021 4788.00 7524.56 83.19 17.00 230.57 3147.22
   16:39:21.202.27-Aug-2021 4788.00 7524.46 83.19 17.00 230.77 3147.22
   16:39:21.401.27-Aug-2021 4788.00 7524.46 83.19 17.00 230.97 3147.22
   16:39:21.601.27-Aug-2021 4788.00 7522.10 83.19 17.00 231.17 3147.22
   16:39:21.801.27-Aug-2021 4788.00 7525.24 83.19 17.00 231.37 3147.22
   16:39:22.001.27-Aug-2021 4788.00 7525.70 83.19 17.00 231.57 3147.22
   16:39:22.201.27-Aug-2021 4788.00 7525.16 83.19 17.00 231.77 3147.22
   16:39:22.400.27-Aug-2021 4788.00 7525.16 83.19 17.00 231.97 3147.22
   16:39:22.600.27-Aug-2021 4788.00 7523.73 83.19 17.00 232.17 3147.22
   16:39:22.800.27-Aug-2021 4788.00 7524.67 83.19 17.00 232.37 3147.22
   16:39:23.000.27-Aug-2021 4788.00 7525.88 83.19 17.00 232.57 3147.22
   16:39:23.200.27-Aug-2021 4788.00 7523.75 83.19 17.00 232.77 3147.22
   16:39:23.400.27-Aug-2021 4788.00 7523.75 83.19 17.00 232.97 3147.22
   16:39:23.599.27-Aug-2021 4788.00 7524.45 83.19 17.00 233.17 3147.22
   16:39:23.799.27-Aug-2021 4788.00 7524.68 83.19 17.00 233.37 3147.22
   16:39:23.999.27-Aug-2021 4788.00 7525.14 83.19 17.00 233.57 3147.22
   16:39:24.199.27-Aug-2021 4788.00 7524.87 83.19 17.00 233.77 3147.22
   16:39:24.399.27-Aug-2021 4788.00 7524.87 83.19 17.00 233.97 3147.22
   16:39:24.598.27-Aug-2021 4788.00 7525.08 83.19 17.00 234.17 3147.22
   16:39:24.798.27-Aug-2021 4788.00 7524.84 83.19 17.00 234.37 3147.22
   16:39:24.998.27-Aug-2021 4788.00 7524.83 83.19 17.00 234.57 3147.22
   16:39:25.198.27-Aug-2021 4788.00 7524.73 83.19 17.00 234.77 3147.22
   16:39:25.398.27-Aug-2021 4788.00 7524.73 83.19 17.00 234.97 3147.22
   16:39:25.597.27-Aug-2021 4788.00 7527.25 83.19 17.00 235.17 3147.22
   16:39:25.797.27-Aug-2021 4788.00 7524.43 83.19 17.00 235.37 3147.22
   16:39:25.997.27-Aug-2021 4788.00 7524.91 83.19 17.00 235.56 3147.22
   16:39:26.197.27-Aug-2021 4788.00 7525.38 83.19 17.00 235.76 3147.22
   16:39:26.397.27-Aug-2021 4788.00 7525.38 83.19 17.00 235.96 3147.22
   16:39:26.596.27-Aug-2021 4788.00 7524.78 83.19 17.00 236.16 3147.22
   16:39:26.796.27-Aug-2021 4788.00 7524.26 83.19 17.00 236.36 3147.22
   16:39:26.996.27-Aug-2021 4788.00 7524.67 83.19 17.00 236.56 3147.22
   16:39:27.196.27-Aug-2021 4788.00 7525.09 83.19 17.00 236.76 3147.22
   16:39:27.396.27-Aug-2021 4788.00 7525.09 83.19 17.00 236.96 3147.22
   16:39:27.595.27-Aug-2021 4788.00 7525.22 83.19 17.00 237.16 3147.22
   16:39:27.795.27-Aug-2021 4788.00 7525.29 83.19 17.00 237.36 3147.22
   16:39:27.995.27-Aug-2021 4788.00 7525.15 83.19 17.00 237.56 3147.22
   16:39:28.195.27-Aug-2021 4788.00 7525.13 83.19 17.00 237.76 3147.22
   16:39:28.395.27-Aug-2021 4788.00 7525.13 83.19 17.00 237.96 3147.22
   16:39:28.594.27-Aug-2021 4788.00 7524.78 83.19 17.00 238.16 3147.22
   16:39:28.794.27-Aug-2021 4788.00 7524.75 83.19 17.00 238.36 3147.22
   16:39:28.994.27-Aug-2021 4788.00 7528.79 83.19 17.00 238.56 3147.22
   16:39:29.194.27-Aug-2021 4788.00 7523.89 83.19 17.00 238.76 3147.22
   16:39:29.394.27-Aug-2021 4788.00 7523.89 83.19 17.00 238.96 3147.22
   16:39:29.593.27-Aug-2021 4788.00 7525.67 83.19 17.00 239.16 3147.22
   16:39:29.793.27-Aug-2021 4788.00 7528.21 83.19 17.00 239.36 3147.22
   16:39:29.993.27-Aug-2021 4788.00 7524.13 83.19 17.00 239.56 3147.22
   16:39:30.193.27-Aug-2021 4788.00 7523.87 83.19 17.00 239.76 3147.22
   16:39:30.393.27-Aug-2021 4788.00 7523.87 83.19 17.00 239.96 3147.22
   16:39:30.592.27-Aug-2021 4788.00 7525.31 83.19 17.00 240.16 3147.22
   16:39:30.792.27-Aug-2021 4788.00 7524.11 83.19 17.00 240.36 3147.22
   16:39:30.992.27-Aug-2021 4788.00 7528.54 83.19 17.00 240.56 3147.22
   16:39:31.192.27-Aug-2021 4788.00 7524.11 83.19 17.00 240.76 3147.22
   16:39:31.392.27-Aug-2021 4788.00 7524.11 83.19 17.00 240.96 3147.22
   16:39:31.591.27-Aug-2021 4788.00 7525.69 83.19 17.00 241.16 3147.22
   16:39:31.791.27-Aug-2021 4788.00 7525.09 83.19 17.00 241.36 3147.22
   16:39:31.991.27-Aug-2021 4788.00 7528.70 83.19 17.00 241.56 3147.22
   16:39:32.191.27-Aug-2021 4788.00 7523.68 83.19 17.00 241.76 3147.22
   16:39:32.391.27-Aug-2021 4788.00 7523.68 83.19 17.00 241.96 3147.22
   16:39:32.590.27-Aug-2021 4788.00 7525.94 83.19 17.00 242.16 3147.22
   16:39:32.790.27-Aug-2021 4788.00 7524.20 83.19 17.00 242.36 3147.22
   16:39:32.990.27-Aug-2021 4788.00 7524.67 83.19 17.00 242.56 3147.22
   16:39:33.190.27-Aug-2021 4788.00 7524.06 83.19 17.00 242.76 3147.22
   16:39:33.390.27-Aug-2021 4788.00 7524.06 83.19 17.00 242.96 3147.22
   16:39:33.589.27-Aug-2021 4788.00 7525.21 83.19 17.00 243.16 3147.22
   16:39:33.789.27-Aug-2021 4788.00 7524.76 83.19 17.00 243.36 3147.22
   16:39:33.989.27-Aug-2021 4788.00 7525.06 83.19 17.00 243.56 3147.22
   16:39:34.189.27-Aug-2021 4788.00 7525.17 83.19 17.00 243.76 3147.22
   16:39:34.389.27-Aug-2021 4788.00 7525.17 83.19 17.00 243.96 3147.22
   16:39:34.588.27-Aug-2021 4788.00 7525.04 83.19 17.00 244.16 3147.22
   16:39:34.788.27-Aug-2021 4788.00 7525.01 83.19 17.00 244.36 3147.22
   16:39:34.988.27-Aug-2021 4788.00 7524.80 83.19 17.00 244.56 3147.22
   16:39:35.188.27-Aug-2021 4788.00 7528.69 83.19 17.00 244.76 3147.22
   16:39:35.388.27-Aug-2021 4788.00 7528.69 83.19 17.00 244.96 3147.22
   16:39:35.587.27-Aug-2021 4788.00 7524.79 83.19 17.00 245.16 3147.22
   16:39:35.787.27-Aug-2021 4788.00 7525.63 83.19 17.00 245.36 3147.22
   16:39:35.987.27-Aug-2021 4788.00 7524.14 83.19 17.00 245.55 3147.22
   16:39:36.187.27-Aug-2021 4788.00 7524.72 83.19 17.00 245.75 3147.22
   16:39:36.387.27-Aug-2021 4788.00 7524.72 83.19 17.00 245.95 3147.22
   16:39:36.586.27-Aug-2021 4788.00 7524.47 83.19 17.00 246.15 3147.22
   16:39:36.786.27-Aug-2021 4788.00 7525.22 83.19 17.00 246.35 3147.22
   16:39:36.986.27-Aug-2021 4788.00 7524.83 83.19 17.00 246.55 3147.22
   16:39:37.186.27-Aug-2021 4788.00 7525.19 83.19 17.00 246.75 3147.22
   16:39:37.386.27-Aug-2021 4788.00 7525.19 83.19 17.00 246.95 3147.22
   16:39:37.585.27-Aug-2021 4788.00 7525.20 83.19 17.00 247.15 3147.22
   16:39:37.785.27-Aug-2021 4788.00 7525.23 83.19 17.00 247.35 3147.22
   16:39:37.985.27-Aug-2021 4788.00 7525.08 83.19 17.00 247.55 3147.22
   16:39:38.185.27-Aug-2021 4788.00 7524.96 83.19 17.00 247.75 3147.22
   16:39:38.385.27-Aug-2021 4788.00 7524.96 83.19 17.00 247.95 3147.22
   16:39:38.584.27-Aug-2021 4788.00 7530.67 83.19 17.00 248.15 3147.22
