~Version Information
 VERS.                  2.0:   CWLS log ASCII Standard -VERSION 2.0
 WRAP.                   NO:   One line per depth step
~Well Information Block
#MNEM.UNIT     VALUE/NAME     DESCRIPTION
#---------     -----------    ---------------------------
 STRT.S             06:14:43 27-Aug-21: START TIME 06:14:43 27-Aug-21
 STOP.S             06:21:54 27-Aug-21: STOP TIME  06:21:54 27-Aug-21
 STEP.S                   0.00: STEP TIME
 NULL.                 -999.25: NULL VALUE
 DFWT.                        :  DIST FWL TEXT
 DFST.                        :  DIST FSL TEXT
 DMF .             Drill Floor:  DRILL MEAS FROM
 STIM.      20.00.00 17-Aug-21:  START TIME
 DATE.      19.00.00 29-Aug-21:  END TIME
 SPUD.               15-Aug-21:  SPUD DATE
 NREF.                    Grid:  NORTH REFERENCE
 HPTY.       Minimum Curvature:  HOLE POS TYPE
 DMOD.             Drill Model:  DRILL MOD DESC
 SVYD.                  Survey:  SURVEY DESC
 ILTD.               Lithology:  INTERP LTH DESC
 FTOP.          Formation Tops:  FORM TOPS DESC
 RIG .              East Azeri:  RIG NAME
 PDAT.          Mean Sea Level:  PERMANENT DATUM
 FLD .                     ACG:  FIELD NAME
 SON .        AZ-XX-0907180857:  JOB NUMBER
 CTRY.              Azerbaijan:  COUNTRY NAME
 WELL.                    D23x:  WELL NAME
 SRVC.     Turan Drilling and Engineering:  CONTRACTOR
 COMP.     BP Exploration (Caspian Sea) Ltd.:  COMPANY
 UWI .            /AZE00000214:  UNIQUE WELL IDENTIFIER
 API .            /AZE00000214:  API NUMBER
 MDS .        Operator Entered:  MAG DATA SOURCE
 BASE.              Azerbaijan:  LOGGING EQUIPMENT BASE LOCATION
 REGN.                   EESSA:  REGION
 PROV.                    Baku:  PROVINCE
 STAT.                    Baku:  STATE NAME
 MWDS.                    Baku:  MWD SHOP
 DOE .                     N/A:  DOE NUMBER
 DCON.         Sperry Drilling:  DIRECTNL CONTR
 UNIT.                     N/A:  LOGGING EQUIPMENT ID
 WTYP.                Deviated:  WELL TYPE
 CNTY.                        :  COUNTY
 LOC .                        :  LOCATION
 LMF .             Drill Floor:  LOG MEASURED FROM
 TVDS.m                  43.60:  TVDSS CORRECTN
 LATI.deg                40.02:  LATITUDE
 LONG.deg                51.45:  LONGITUDE
 WHNS.m                  -7.04:  WELL HEAD N/S
 WHEW.m                  -0.67:  WELL HEAD E/W
 UTMX.m              538762.90:  UTM X
 UTMY.m             4431871.34:  UTM Y
 DFWL.m                   0.00:  DISTANCE FWL
 DFSL.m                   0.00:  DISTANCE FSL
 SDEP.m                4127.00:  START DEPTH
 TDD .m                5084.50:  TOTAL DEPTH (DRILLER)
 VSDR.deg               140.47:  VERT SEC DIRECT
 GVFD.g                   1.00:  GRAVITY FIELD
 MFLD.nT              50362.00:  MAGNETIC FIELD
 MDIP.deg                59.48:  MAGNETIC DIP
 MDEC.deg                 6.47:  MAGNETIC DECL
 GRDC.deg                 0.31:  GRID CORRECTION
 AZTC.deg                 6.16:  AZM TOTAL CORR
 EPD .m                   0.00:  ELEVATION
 EGL .m                   0.00:  GROUND ELEVATION
 WDMS.m                 151.80:  WD ELEV
 APD .m                  43.60:  DEPTH ABOVE PD
 DEP .m                4092.57:  DEPTH
 AGAP.m                  43.60:  AIR GAP
 VSEW.m                  -0.67:  VERT SEC E/W
 VSNS.m                  -7.04:  VERT SEC N/S
 EKB .m                  43.60:  KB ELEVATION
 EDF .m                  43.60:  DF ELEVATION
 TDL .m                 957.50:  TOTAL DEPTH (LOGGER)
 VSC .                       0:  VS TO CLOSURE
 MAGU.                 1851413:  MAGUTM CHECKSUM
~Parameter Information Block
#MNEM.UNIT       Value        Description
#---------     -----------    ---------------------------
 AV  .mps                 1.50:  Ann Velocity 
 AVMX.mps                 2.00:  Max Ann Veloc 
 AZIF.deg               184.66:  Azm, Final 
 BHAT.        Rotary Steerable:  BHA Type 
 BREV.rev               300.00:  Rev Bit Total 
 BROT.°/30m              -0.50:  Build Rotating 
 BS  .in                  8.50:  Bit Size 
 BSZ .in                  8.50:  Bit Size 
 BTPL.psig              370.00:  Bit Press Loss 
 CABU.                      No:  Customer Abuse 
 CGEO.      Behruz Shahbaliyev:  Customer Geo 
 COMM.                     4V:  Run Comments 1 
 TCS .hr                140.08:  Time Ciculation Ended 
 CV  .mps                 3.00:  Crit Velocity 
 CVMX.mps                 3.20:  Max Crit Veloc 
 DD1 .            Musa Ahmadov:  Direct Drillr 1 
 DD2 .           Hamid Ahmadov:  Direct Drillr 2 
 DDSV.               Geo-Pilot:  DD Service 
 DEFF.%                  98.40:  % Det Eff 
 DLRX.°/30m               3.40:  Dogleg Rot Max 
 DLSO.°/30m               1.45:  Dogleg Oriented 
 DLSX.°/30m               3.40:  Dogleg Str Max 
 DRET.      18.40.00 29-Aug-21:  Drill End Time 
 DRST.      21.00.00 20-Aug-21:  Drill Start Tim 
 DTIM.hr                 69.47:  Time Drilling 
 EDEP.m                5084.50:  End Depth 
 ENG1.      Artemiy Matviyanov:  Engineer 1 
 ENG2.         Almaz Almadatov:  Engineer 2 
 ETIM.      18.40.00 29-Aug-21:  End Time 
 FLOI.gpm               500.00:  Flow In 
 FLON.gpm               400.00:  Flow In Min 
 FLOS.cptm                0.00:  Fluid Loss 
 FLOX.gpm               500.00:  Flow In Max 
 DFT .        Mineral Oil Base:  Mud Type 
 HFLO.                      No:  High Flow 
 HPRE.                      No:  High Pressure 
 HTEM.                      No:  High Temp 
 HYDO.m                   1.80:  Hydro Offset 
 IFIN.deg                25.62:  Inc, Final 
 IMAX.deg                48.69:  Inc Max 
 IMIN.deg                24.01:  Inc Min 
 IMND.m                4962.57:  Inc Min Depth 
 IMXD.m                4119.01:  Inc Max Depth 
 JARR.                      No:  Jarring 
 LETM.      18.40.00 29-Aug-21:  Log End Time 
 LOST.hr                     0:  Lost Rig Time 
 LSTM.      21.00.00 20-Aug-21:  Log Start Time 
 MDCL.ppm             41500.00:  Mud Chlorides 
 MDES.     Inversion Oil/Synthetic:  Mud Desc 
 DFD .sg                  1.56:  Mud Density 
 MDMN.sg                  1.56:  Dens Mud Min 
 MDMX.sg                  1.56:  Dens Mud Max 
 MOIL.                      70:  Run Mud Oil % 
 MOWR.                   70:30:  Run Mud OWR 
 MSND.                     0.2:  Run Mud Sand % 
 MSOL.                    23.3:  Run Mud Solids% 
 DFV .spqt               78.00:  Mud Viscosity 
 MWOD.in                  6.75:  MWD Tool OD 
 MWSI.                      No:  Serv Intrp, MWD 
 OTIM.hr                218.30:  Time Operating 
 PCON.           Look Like New:  Pad Condition 
 PMAX.psia            11015.30:  Press Op, Max 
 PV  .cP                 38.00:  Mud PV 
 RUN .                     300:  Run Number 
 ROPA.m/hr               15.00:  ROP Avg 
 ROPN.m/hr                9.00:  ROP Min 
 ROPX.m/hr               17.00:  ROP Max 
 RPMA.rpm               120.00:  RPM Surface Avg 
 RPMN.rpm                90.00:  RPM Surface Min 
 RPMX.rpm               140.00:  RPM Surface Max 
 RRUN.                     300:  Rig Run Number 
 RTIM.hr                 31.53:  Time Reaming 
 SAZI.deg               331.64:  Azm, Start 
 SDEP.m                4127.00:  Start Depth 
 SIDD.                      No:  Serv Intrp, DD 
 SINC.deg                48.43:  Inc, Start 
 SPPA.psig             5830.00:  SPP Avg 
 SPPN.psig             5600.00:  SPP Min 
 SPPX.psig             5900.00:  SPP Max 
 STIM.      21.00.00 20-Aug-21:  Start Time 
 SVCS.                 DD, MWD:  Services 
 SVER.                    9.20:  Sperry Version 
 TDAT.m                 957.50:  Tot Depth Attmp 
 TDDF.                      No:  Trip for DD 
 TDLG.m                 957.50:  Tot Depth Loggd 
 TFF .                      No:  Trip for Fail 
 TQAA.f-kp               15.00:  Torque Abs Avg 
 TQAN.f-kp               12.00:  Torque Abs Min 
 TQAX.f-kp               19.00:  Torque Abs Max 
 TRRT.°/30m              -3.40:  Turn Rotating 
 MRT .                  EWR-M5:  Maximum Recorded Temperature 
 TTMX.degC              100.00:  Max Tool Temp 
 VS01.                90639251:  Virtual Str1 SN 
 VS02.                90634715:  Virtual Str2 SN 
 VS03.                90652479:  Virtual Str3 SN 
 VS04.                90642262:  Virtual Str4 SN 
 WBMN.klb                 0.00:  WOB Min 
 WITN.           Murad Guliyev:  Customer Rep 
 WITN.          Yashar Gaziyev:  Customer Rep 2 
 WOBA.klb                 9.00:  WOB Avg 
 WOBX.klb                12.00:  WOB Max 
 YP  .lhf2               30.00:  Yield Point 
~Curve Information Block
#MNEM.UNIT                 API CODE     Curve Description
#---------               -----------    ---------------------------
 TIME.HHMMSS            00 000 000 000:  GT Time & Date
 GTDEPTH.m              00 000 000 000:  GT Depth
 GTPQH.psia             00 000 000 000:  GT HR Quartz Pressure
 GTTQ.degC              00 000 000 000:  GT Quartz Temperature
 GTTN.NONE              00 000 000 000:  GT Test Number
 GTET.sec               00 000 000 000:  GT Elapsed Test Time
 GTTVD.m                00 000 000 000:  GT True Vertical Depth
#Other Information
#
#WARRANTY: Halliburton will use its best efforts to furnish customers with 
#accurate information and interpretations that are part of, and incident to, the services 
#provided.  However, Halliburton cannot and does not warrant the accuracy 
#or correctness of such information and interpretations.  Under no circumstances should any 
#such information or interpretation be relied upon as the sole basis for any drilling, 
#completion, production, or financial decision or any procedure involving any risk to the 
#safety of any drilling venture, drilling rig or its crew or any other third party.  The 
#Customer has full responsibility for all drilling, completion and production operation.  
#Halliburton makes no representations or warranties, either expressed or 
#implied, including, but not limited to, the implied warranties of merchantability or fitness 
#for a particular purpose, with respect to the services rendered.  In no event will 
#Halliburton be liable for failure to obtain any particular results or for 
#any damages, including, but not limited to, indirect, special or consequential damages, 
#resulting from the use of any information or interpretation provided by Halliburton.
#
~A           TIME           GTDEPTH  GTPQH  GTTQ  GTTN  GTET   GTTVD  
# ...
   06:16:38.641.27-Aug-2021 5020.50 8000.43 88.18 2.00 115.02 3358.11
   06:16:38.841.27-Aug-2021 5020.50 8000.43 88.18 2.00 115.22 3358.11
   06:16:39.041.27-Aug-2021 5020.50 7999.69 88.18 2.00 115.42 3358.11
   06:16:39.241.27-Aug-2021 5020.50 7999.58 88.18 2.00 115.62 3358.11
   06:16:39.441.27-Aug-2021 5020.50 7999.10 88.18 2.00 115.82 3358.11
   06:16:39.641.27-Aug-2021 5020.50 7999.27 88.18 2.00 116.02 3358.11
   06:16:39.841.27-Aug-2021 5020.50 7999.27 88.18 2.00 116.22 3358.11
   06:16:40.041.27-Aug-2021 5020.50 7999.80 88.18 2.00 116.42 3358.11
   06:16:40.242.27-Aug-2021 5020.50 7998.04 88.18 2.00 116.62 3358.11
   06:16:40.442.27-Aug-2021 5020.50 7998.44 88.18 2.00 116.82 3358.11
   06:16:40.642.27-Aug-2021 5020.50 7998.28 88.18 2.00 117.02 3358.11
   06:16:40.842.27-Aug-2021 5020.50 7998.28 88.18 2.00 117.22 3358.11
   06:16:41.042.27-Aug-2021 5020.50 7996.47 88.18 2.00 117.42 3358.11
   06:16:41.242.27-Aug-2021 5020.50 7997.65 88.18 2.00 117.62 3358.11
   06:16:41.442.27-Aug-2021 5020.50 7998.41 88.18 2.00 117.82 3358.11
   06:16:41.642.27-Aug-2021 5020.50 7998.28 88.18 2.00 118.02 3358.11
   06:16:41.842.27-Aug-2021 5020.50 7998.28 88.18 2.00 118.22 3358.11
   06:16:42.042.27-Aug-2021 5020.50 7997.93 88.18 2.00 118.42 3358.11
   06:16:42.242.27-Aug-2021 5020.50 7998.67 88.18 2.00 118.62 3358.11
   06:16:42.442.27-Aug-2021 5020.50 8000.16 88.18 2.00 118.82 3358.11
   06:16:42.642.27-Aug-2021 5020.50 8001.19 88.18 2.00 119.02 3358.11
   06:16:42.842.27-Aug-2021 5020.50 8001.19 88.18 2.00 119.22 3358.11
   06:16:43.042.27-Aug-2021 5020.50 7998.98 88.18 2.00 119.42 3358.11
   06:16:43.242.27-Aug-2021 5020.50 7998.85 88.18 2.00 119.62 3358.11
   06:16:43.442.27-Aug-2021 5020.50 7998.16 88.18 2.00 119.82 3358.11
   06:16:43.642.27-Aug-2021 5020.50 7998.57 88.18 2.00 120.02 3358.11
   06:16:43.842.27-Aug-2021 5020.50 7998.57 88.18 2.00 120.22 3358.11
   06:16:44.042.27-Aug-2021 5020.50 7999.10 88.18 2.00 120.42 3358.11
   06:16:44.242.27-Aug-2021 5020.50 7999.21 88.18 2.00 120.62 3358.11
   06:16:44.442.27-Aug-2021 5020.50 7999.25 88.18 2.00 120.82 3358.11
   06:16:44.642.27-Aug-2021 5020.50 8000.28 88.18 2.00 121.02 3358.11
   06:16:44.842.27-Aug-2021 5020.50 8000.28 88.18 2.00 121.22 3358.11
   06:16:45.042.27-Aug-2021 5020.50 8000.28 88.18 2.00 121.42 3358.11
   06:16:45.242.27-Aug-2021 5020.50 7999.86 88.18 2.00 121.62 3358.11
   06:16:45.442.27-Aug-2021 5020.50 7999.86 88.18 2.00 121.82 3358.11
   06:16:45.642.27-Aug-2021 5020.50 7999.51 88.18 2.00 122.02 3358.11
   06:16:45.842.27-Aug-2021 5020.50 7999.51 88.18 2.00 122.22 3358.11
   06:16:46.042.27-Aug-2021 5020.50 8000.15 88.18 2.00 122.42 3358.11
   06:16:46.243.27-Aug-2021 5020.50 7998.37 88.18 2.00 122.62 3358.11
   06:16:46.443.27-Aug-2021 5020.50 7999.09 88.18 2.00 122.82 3358.11
   06:16:46.643.27-Aug-2021 5020.50 7998.42 88.18 2.00 123.02 3358.11
   06:16:46.843.27-Aug-2021 5020.50 7998.42 88.18 2.00 123.22 3358.11
   06:16:47.043.27-Aug-2021 5020.50 7998.53 88.18 2.00 123.42 3358.11
   06:16:47.243.27-Aug-2021 5020.50 7998.54 88.18 2.00 123.62 3358.11
   06:16:47.443.27-Aug-2021 5020.50 7998.75 88.18 2.00 123.82 3358.11
   06:16:47.643.27-Aug-2021 5020.50 7998.77 88.18 2.00 124.02 3358.11
   06:16:47.843.27-Aug-2021 5020.50 7998.77 88.18 2.00 124.22 3358.11
   06:16:48.043.27-Aug-2021 5020.50 8000.25 88.18 2.00 124.42 3358.11
   06:16:48.243.27-Aug-2021 5020.50 8000.47 88.18 2.00 124.62 3358.11
   06:16:48.443.27-Aug-2021 5020.50 7999.93 88.18 2.00 124.82 3358.11
   06:16:48.643.27-Aug-2021 5020.50 7999.88 88.18 2.00 125.02 3358.11
   06:16:48.843.27-Aug-2021 5020.50 7999.88 88.18 2.00 125.22 3358.11
   06:16:49.043.27-Aug-2021 5020.50 7999.32 88.18 2.00 125.42 3358.11
   06:16:49.243.27-Aug-2021 5020.50 8007.35 88.18 2.00 125.62 3358.11
   06:16:49.443.27-Aug-2021 5020.50 7997.08 88.18 2.00 125.82 3358.11
   06:16:49.643.27-Aug-2021 5020.50 7999.11 88.18 2.00 126.02 3358.11
   06:16:49.843.27-Aug-2021 5020.50 7999.11 88.18 2.00 126.22 3358.11
   06:16:50.043.27-Aug-2021 5020.50 7999.84 88.18 2.00 126.42 3358.11
   06:16:50.243.27-Aug-2021 5020.50 8000.62 88.18 2.00 126.62 3358.11
   06:16:50.443.27-Aug-2021 5020.50 7998.88 88.18 2.00 126.82 3358.11
   06:16:50.643.27-Aug-2021 5020.50 7998.88 88.18 2.00 127.02 3358.11
   06:16:50.843.27-Aug-2021 5020.50 7998.88 88.18 2.00 127.22 3358.11
   06:16:51.043.27-Aug-2021 5020.50 8007.00 88.18 2.00 127.42 3358.11
   06:16:51.243.27-Aug-2021 5020.50 7996.74 88.18 2.00 127.62 3358.11
   06:16:51.443.27-Aug-2021 5020.50 7999.87 88.18 2.00 127.82 3358.11
   06:16:51.643.27-Aug-2021 5020.50 8000.40 88.18 2.00 128.02 3358.11
   06:16:51.843.27-Aug-2021 5020.50 8000.40 88.18 2.00 128.22 3358.11
   06:16:52.043.27-Aug-2021 5020.50 8001.92 88.18 2.00 128.42 3358.11
   06:16:52.243.27-Aug-2021 5020.50 8000.07 88.18 2.00 128.62 3358.11
   06:16:52.444.27-Aug-2021 5020.50 7999.76 88.18 2.00 128.82 3358.11
   06:16:52.644.27-Aug-2021 5020.50 7998.96 88.18 2.00 129.02 3358.11
   06:16:52.844.27-Aug-2021 5020.50 7998.96 88.18 2.00 129.22 3358.11
   06:16:53.044.27-Aug-2021 5020.50 7998.58 88.18 2.00 129.42 3358.11
   06:16:53.244.27-Aug-2021 5020.50 7999.81 88.18 2.00 129.62 3358.11
   06:16:53.444.27-Aug-2021 5020.50 7999.26 88.18 2.00 129.82 3358.11
   06:16:53.644.27-Aug-2021 5020.50 7999.70 88.18 2.00 130.02 3358.11
   06:16:53.844.27-Aug-2021 5020.50 7999.70 88.18 2.00 130.22 3358.11
   06:16:54.044.27-Aug-2021 5020.50 8000.80 88.18 2.00 130.42 3358.11
   06:16:54.244.27-Aug-2021 5020.50 8000.79 88.18 2.00 130.62 3358.11
   06:16:54.444.27-Aug-2021 5020.50 8000.53 88.18 2.00 130.82 3358.11
   06:16:54.644.27-Aug-2021 5020.50 8000.86 88.18 2.00 131.02 3358.11
   06:16:54.844.27-Aug-2021 5020.50 8000.86 88.18 2.00 131.22 3358.11
   06:16:55.044.27-Aug-2021 5020.50 8005.19 88.18 2.00 131.42 3358.11
   06:16:55.244.27-Aug-2021 5020.50 8000.98 88.17 2.00 131.62 3358.11
   06:16:55.444.27-Aug-2021 5020.50 7999.73 88.17 2.00 131.82 3358.11
   06:16:55.644.27-Aug-2021 5020.50 8000.13 88.17 2.00 132.02 3358.11
   06:16:55.844.27-Aug-2021 5020.50 8000.13 88.17 2.00 132.22 3358.11
   06:16:56.044.27-Aug-2021 5020.50 8000.34 88.17 2.00 132.42 3358.11
   06:16:56.244.27-Aug-2021 5020.50 7999.35 88.17 2.00 132.62 3358.11
   06:16:56.444.27-Aug-2021 5020.50 7999.69 88.17 2.00 132.82 3358.11
   06:16:56.644.27-Aug-2021 5020.50 7999.31 88.17 2.00 133.02 3358.11
   06:16:56.844.27-Aug-2021 5020.50 7999.31 88.17 2.00 133.22 3358.11
   06:16:57.044.27-Aug-2021 5020.50 8000.52 88.17 2.00 133.42 3358.11
   06:16:57.244.27-Aug-2021 5020.50 8001.40 88.17 2.00 133.62 3358.11
   06:16:57.444.27-Aug-2021 5020.50 8001.45 88.17 2.00 133.82 3358.11
   06:16:57.644.27-Aug-2021 5020.50 8000.98 88.17 2.00 134.02 3358.11
   06:16:57.844.27-Aug-2021 5020.50 8000.98 88.17 2.00 134.22 3358.11
   06:16:58.044.27-Aug-2021 5020.50 8000.50 88.17 2.00 134.42 3358.11
   06:16:58.244.27-Aug-2021 5020.50 8000.91 88.17 2.00 134.62 3358.11
   06:16:58.445.27-Aug-2021 5020.50 8008.43 88.17 2.00 134.82 3358.11
   06:16:58.645.27-Aug-2021 5020.50 7998.74 88.17 2.00 135.02 3358.11
   06:16:58.845.27-Aug-2021 5020.50 7998.74 88.17 2.00 135.22 3358.11
   06:16:59.045.27-Aug-2021 5020.50 8000.00 88.17 2.00 135.42 3358.11
   06:16:59.245.27-Aug-2021 5020.50 8000.16 88.17 2.00 135.62 3358.11
   06:16:59.445.27-Aug-2021 5020.50 8005.49 88.17 2.00 135.82 3358.11
   06:16:59.645.27-Aug-2021 5020.50 8000.26 88.17 2.00 136.02 3358.11
   06:16:59.845.27-Aug-2021 5020.50 8000.26 88.17 2.00 136.22 3358.11
   06:17:00.045.27-Aug-2021 5020.50 7999.74 88.17 2.00 136.42 3358.11
   06:17:00.245.27-Aug-2021 5020.50 7999.58 88.17 2.00 136.62 3358.11
   06:17:00.445.27-Aug-2021 5020.50 8001.03 88.17 2.00 136.82 3358.11
   06:17:00.645.27-Aug-2021 5020.50 8004.33 88.17 2.00 137.02 3358.11
   06:17:00.845.27-Aug-2021 5020.50 8004.33 88.17 2.00 137.22 3358.11
   06:17:01.045.27-Aug-2021 5020.50 8001.70 88.17 2.00 137.42 3358.11
   06:17:01.245.27-Aug-2021 5020.50 8000.65 88.17 2.00 137.62 3358.11
   06:17:01.445.27-Aug-2021 5020.50 8003.26 88.17 2.00 137.82 3358.11
