~Version Information
 VERS.                  2.0:   CWLS log ASCII Standard -VERSION 2.0
 WRAP.                   NO:   One line per depth step
~Well Information Block
#MNEM.UNIT     VALUE/NAME     DESCRIPTION
#---------     -----------    ---------------------------
 STRT.S             16:35:30 27-Aug-21: START TIME 16:35:30 27-Aug-21
 STOP.S             16:42:43 27-Aug-21: STOP TIME  16:42:43 27-Aug-21
 STEP.S                   0.00: STEP TIME
 NULL.                 -999.25: NULL VALUE
 DFWT.                        :  DIST FWL TEXT
 DFST.                        :  DIST FSL TEXT
 DMF .             Drill Floor:  DRILL MEAS FROM
 STIM.      20.00.00 17-Aug-21:  START TIME
 DATE.      19.00.00 29-Aug-21:  END TIME
 SPUD.               15-Aug-21:  SPUD DATE
 NREF.                    Grid:  NORTH REFERENCE
 HPTY.       Minimum Curvature:  HOLE POS TYPE
 DMOD.             Drill Model:  DRILL MOD DESC
 SVYD.                  Survey:  SURVEY DESC
 ILTD.               Lithology:  INTERP LTH DESC
 FTOP.          Formation Tops:  FORM TOPS DESC
 RIG .              East Azeri:  RIG NAME
 PDAT.          Mean Sea Level:  PERMANENT DATUM
 FLD .                     ACG:  FIELD NAME
 SON .        AZ-XX-0907180857:  JOB NUMBER
 CTRY.              Azerbaijan:  COUNTRY NAME
 WELL.                    D23x:  WELL NAME
 SRVC.     Turan Drilling and Engineering:  CONTRACTOR
 COMP.     BP Exploration (Caspian Sea) Ltd.:  COMPANY
 UWI .            /AZE00000214:  UNIQUE WELL IDENTIFIER
 API .            /AZE00000214:  API NUMBER
 MDS .        Operator Entered:  MAG DATA SOURCE
 BASE.              Azerbaijan:  LOGGING EQUIPMENT BASE LOCATION
 REGN.                   EESSA:  REGION
 PROV.                    Baku:  PROVINCE
 STAT.                    Baku:  STATE NAME
 MWDS.                    Baku:  MWD SHOP
 DOE .                     N/A:  DOE NUMBER
 DCON.         Sperry Drilling:  DIRECTNL CONTR
 UNIT.                     N/A:  LOGGING EQUIPMENT ID
 WTYP.                Deviated:  WELL TYPE
 CNTY.                        :  COUNTY
 LOC .                        :  LOCATION
 LMF .             Drill Floor:  LOG MEASURED FROM
 TVDS.m                  43.60:  TVDSS CORRECTN
 LATI.deg                40.02:  LATITUDE
 LONG.deg                51.45:  LONGITUDE
 WHNS.m                  -7.04:  WELL HEAD N/S
 WHEW.m                  -0.67:  WELL HEAD E/W
 UTMX.m              538762.90:  UTM X
 UTMY.m             4431871.34:  UTM Y
 DFWL.m                   0.00:  DISTANCE FWL
 DFSL.m                   0.00:  DISTANCE FSL
 SDEP.m                4127.00:  START DEPTH
 TDD .m                5084.50:  TOTAL DEPTH (DRILLER)
 VSDR.deg               140.47:  VERT SEC DIRECT
 GVFD.g                   1.00:  GRAVITY FIELD
 MFLD.nT              50362.00:  MAGNETIC FIELD
 MDIP.deg                59.48:  MAGNETIC DIP
 MDEC.deg                 6.47:  MAGNETIC DECL
 GRDC.deg                 0.31:  GRID CORRECTION
 AZTC.deg                 6.16:  AZM TOTAL CORR
 EPD .m                   0.00:  ELEVATION
 EGL .m                   0.00:  GROUND ELEVATION
 WDMS.m                 151.80:  WD ELEV
 APD .m                  43.60:  DEPTH ABOVE PD
 DEP .m                4092.57:  DEPTH
 AGAP.m                  43.60:  AIR GAP
 VSEW.m                  -0.67:  VERT SEC E/W
 VSNS.m                  -7.04:  VERT SEC N/S
 EKB .m                  43.60:  KB ELEVATION
 EDF .m                  43.60:  DF ELEVATION
 TDL .m                 957.50:  TOTAL DEPTH (LOGGER)
 VSC .                       0:  VS TO CLOSURE
 MAGU.                 1851413:  MAGUTM CHECKSUM
~Parameter Information Block
#MNEM.UNIT       Value        Description
#---------     -----------    ---------------------------
 AV  .mps                 1.50:  Ann Velocity 
 AVMX.mps                 2.00:  Max Ann Veloc 
 AZIF.deg               184.66:  Azm, Final 
 BHAT.        Rotary Steerable:  BHA Type 
 BREV.rev               300.00:  Rev Bit Total 
 BROT.°/30m              -0.50:  Build Rotating 
 BS  .in                  8.50:  Bit Size 
 BSZ .in                  8.50:  Bit Size 
 BTPL.psig              370.00:  Bit Press Loss 
 CABU.                      No:  Customer Abuse 
 CGEO.      Behruz Shahbaliyev:  Customer Geo 
 COMM.                     äU:  Run Comments 1 
 TCS .hr                140.08:  Time Ciculation Ended 
 CV  .mps                 3.00:  Crit Velocity 
 CVMX.mps                 3.20:  Max Crit Veloc 
 DD1 .            Musa Ahmadov:  Direct Drillr 1 
 DD2 .           Hamid Ahmadov:  Direct Drillr 2 
 DDSV.               Geo-Pilot:  DD Service 
 DEFF.%                  98.40:  % Det Eff 
 DLRX.°/30m               3.40:  Dogleg Rot Max 
 DLSO.°/30m               1.45:  Dogleg Oriented 
 DLSX.°/30m               3.40:  Dogleg Str Max 
 DRET.      18.40.00 29-Aug-21:  Drill End Time 
 DRST.      21.00.00 20-Aug-21:  Drill Start Tim 
 DTIM.hr                 69.47:  Time Drilling 
 EDEP.m                5084.50:  End Depth 
 ENG1.      Artemiy Matviyanov:  Engineer 1 
 ENG2.         Almaz Almadatov:  Engineer 2 
 ETIM.      18.40.00 29-Aug-21:  End Time 
 FLOI.gpm               500.00:  Flow In 
 FLON.gpm               400.00:  Flow In Min 
 FLOS.cptm                0.00:  Fluid Loss 
 FLOX.gpm               500.00:  Flow In Max 
 DFT .        Mineral Oil Base:  Mud Type 
 HFLO.                      No:  High Flow 
 HPRE.                      No:  High Pressure 
 HTEM.                      No:  High Temp 
 HYDO.m                   1.80:  Hydro Offset 
 IFIN.deg                25.62:  Inc, Final 
 IMAX.deg                48.69:  Inc Max 
 IMIN.deg                24.01:  Inc Min 
 IMND.m                4962.57:  Inc Min Depth 
 IMXD.m                4119.01:  Inc Max Depth 
 JARR.                      No:  Jarring 
 LETM.      18.40.00 29-Aug-21:  Log End Time 
 LOST.hr                     0:  Lost Rig Time 
 LSTM.      21.00.00 20-Aug-21:  Log Start Time 
 MDCL.ppm             41500.00:  Mud Chlorides 
 MDES.     Inversion Oil/Synthetic:  Mud Desc 
 DFD .sg                  1.56:  Mud Density 
 MDMN.sg                  1.56:  Dens Mud Min 
 MDMX.sg                  1.56:  Dens Mud Max 
 MOIL.                      70:  Run Mud Oil % 
 MOWR.                   70:30:  Run Mud OWR 
 MSND.                     0.2:  Run Mud Sand % 
 MSOL.                    23.3:  Run Mud Solids% 
 DFV .spqt               78.00:  Mud Viscosity 
 MWOD.in                  6.75:  MWD Tool OD 
 MWSI.                      No:  Serv Intrp, MWD 
 OTIM.hr                218.30:  Time Operating 
 PCON.           Look Like New:  Pad Condition 
 PMAX.psia            11015.30:  Press Op, Max 
 PV  .cP                 38.00:  Mud PV 
 RUN .                     300:  Run Number 
 ROPA.m/hr               15.00:  ROP Avg 
 ROPN.m/hr                9.00:  ROP Min 
 ROPX.m/hr               17.00:  ROP Max 
 RPMA.rpm               120.00:  RPM Surface Avg 
 RPMN.rpm                90.00:  RPM Surface Min 
 RPMX.rpm               140.00:  RPM Surface Max 
 RRUN.                     300:  Rig Run Number 
 RTIM.hr                 31.53:  Time Reaming 
 SAZI.deg               331.64:  Azm, Start 
 SDEP.m                4127.00:  Start Depth 
 SIDD.                      No:  Serv Intrp, DD 
 SINC.deg                48.43:  Inc, Start 
 SPPA.psig             5830.00:  SPP Avg 
 SPPN.psig             5600.00:  SPP Min 
 SPPX.psig             5900.00:  SPP Max 
 STIM.      21.00.00 20-Aug-21:  Start Time 
 SVCS.                 DD, MWD:  Services 
 SVER.                    9.20:  Sperry Version 
 TDAT.m                 957.50:  Tot Depth Attmp 
 TDDF.                      No:  Trip for DD 
 TDLG.m                 957.50:  Tot Depth Loggd 
 TFF .                      No:  Trip for Fail 
 TQAA.f-kp               15.00:  Torque Abs Avg 
 TQAN.f-kp               12.00:  Torque Abs Min 
 TQAX.f-kp               19.00:  Torque Abs Max 
 TRRT.°/30m              -3.40:  Turn Rotating 
 MRT .                  EWR-M5:  Maximum Recorded Temperature 
 TTMX.degC              100.00:  Max Tool Temp 
 VS01.                90639251:  Virtual Str1 SN 
 VS02.                90634715:  Virtual Str2 SN 
 VS03.                90652479:  Virtual Str3 SN 
 VS04.                90642262:  Virtual Str4 SN 
 WBMN.klb                 0.00:  WOB Min 
 WITN.           Murad Guliyev:  Customer Rep 
 WITN.          Yashar Gaziyev:  Customer Rep 2 
 WOBA.klb                 9.00:  WOB Avg 
 WOBX.klb                12.00:  WOB Max 
 YP  .lhf2               30.00:  Yield Point 
~Curve Information Block
#MNEM.UNIT                 API CODE     Curve Description
#---------               -----------    ---------------------------
 TIME.HHMMSS            00 000 000 000:  GT Time & Date
 GTDEPTH.m              00 000 000 000:  GT Depth
 GTPQH.psia             00 000 000 000:  GT HR Quartz Pressure
 GTTQ.degC              00 000 000 000:  GT Quartz Temperature
 GTTN.NONE              00 000 000 000:  GT Test Number
 GTET.sec               00 000 000 000:  GT Elapsed Test Time
 GTTVD.m                00 000 000 000:  GT True Vertical Depth
#Other Information
#
#WARRANTY: Halliburton will use its best efforts to furnish customers with 
#accurate information and interpretations that are part of, and incident to, the services 
#provided.  However, Halliburton cannot and does not warrant the accuracy 
#or correctness of such information and interpretations.  Under no circumstances should any 
#such information or interpretation be relied upon as the sole basis for any drilling, 
#completion, production, or financial decision or any procedure involving any risk to the 
#safety of any drilling venture, drilling rig or its crew or any other third party.  The 
#Customer has full responsibility for all drilling, completion and production operation.  
#Halliburton makes no representations or warranties, either expressed or 
#implied, including, but not limited to, the implied warranties of merchantability or fitness 
#for a particular purpose, with respect to the services rendered.  In no event will 
#Halliburton be liable for failure to obtain any particular results or for 
#any damages, including, but not limited to, indirect, special or consequential damages, 
#resulting from the use of any information or interpretation provided by Halliburton.
#
~A           TIME           GTDEPTH  GTPQH  GTTQ  GTTN   GTET   GTTVD  
# ...
   16:37:23.319.27-Aug-2021 4788.00 7524.11 83.21 17.00 112.89 3147.22
   16:37:23.519.27-Aug-2021 4788.00 7524.11 83.21 17.00 113.09 3147.22
   16:37:23.719.27-Aug-2021 4788.00 7525.29 83.21 17.00 113.29 3147.22
   16:37:23.919.27-Aug-2021 4788.00 7525.47 83.21 17.00 113.49 3147.22
   16:37:24.119.27-Aug-2021 4788.00 7523.10 83.21 17.00 113.69 3147.22
   16:37:24.318.27-Aug-2021 4788.00 7524.08 83.21 17.00 113.89 3147.22
   16:37:24.518.27-Aug-2021 4788.00 7524.08 83.21 17.00 114.09 3147.22
   16:37:24.718.27-Aug-2021 4788.00 7523.25 83.21 17.00 114.29 3147.22
   16:37:24.918.27-Aug-2021 4788.00 7529.20 83.21 17.00 114.49 3147.22
   16:37:25.118.27-Aug-2021 4788.00 7521.84 83.21 17.00 114.69 3147.22
   16:37:25.317.27-Aug-2021 4788.00 7523.91 83.21 17.00 114.89 3147.22
   16:37:25.517.27-Aug-2021 4788.00 7523.91 83.21 17.00 115.09 3147.22
   16:37:25.717.27-Aug-2021 4788.00 7523.81 83.21 17.00 115.28 3147.22
   16:37:25.917.27-Aug-2021 4788.00 7529.03 83.21 17.00 115.48 3147.22
   16:37:26.117.27-Aug-2021 4788.00 7521.40 83.21 17.00 115.68 3147.22
   16:37:26.316.27-Aug-2021 4788.00 7523.60 83.21 17.00 115.88 3147.22
   16:37:26.516.27-Aug-2021 4788.00 7523.60 83.21 17.00 116.08 3147.22
   16:37:26.716.27-Aug-2021 4788.00 7523.89 83.21 17.00 116.28 3147.22
   16:37:26.916.27-Aug-2021 4788.00 7523.63 83.21 17.00 116.48 3147.22
   16:37:27.116.27-Aug-2021 4788.00 7523.65 83.21 17.00 116.68 3147.22
   16:37:27.315.27-Aug-2021 4788.00 7523.89 83.21 17.00 116.88 3147.22
   16:37:27.515.27-Aug-2021 4788.00 7523.89 83.21 17.00 117.08 3147.22
   16:37:27.715.27-Aug-2021 4788.00 7524.16 83.21 17.00 117.28 3147.22
   16:37:27.915.27-Aug-2021 4788.00 7524.19 83.21 17.00 117.48 3147.22
   16:37:28.115.27-Aug-2021 4788.00 7524.42 83.21 17.00 117.68 3147.22
   16:37:28.314.27-Aug-2021 4788.00 7524.27 83.21 17.00 117.88 3147.22
   16:37:28.514.27-Aug-2021 4788.00 7524.27 83.21 17.00 118.08 3147.22
   16:37:28.714.27-Aug-2021 4788.00 7524.19 83.21 17.00 118.28 3147.22
   16:37:28.914.27-Aug-2021 4788.00 7524.02 83.21 17.00 118.48 3147.22
   16:37:29.114.27-Aug-2021 4788.00 7529.09 83.21 17.00 118.68 3147.22
   16:37:29.313.27-Aug-2021 4788.00 7521.91 83.21 17.00 118.88 3147.22
   16:37:29.513.27-Aug-2021 4788.00 7521.91 83.21 17.00 119.08 3147.22
   16:37:29.713.27-Aug-2021 4788.00 7524.84 83.21 17.00 119.28 3147.22
   16:37:29.913.27-Aug-2021 4788.00 7523.92 83.21 17.00 119.48 3147.22
   16:37:30.113.27-Aug-2021 4788.00 7523.45 83.21 17.00 119.68 3147.22
   16:37:30.312.27-Aug-2021 4788.00 7523.38 83.21 17.00 119.88 3147.22
   16:37:30.512.27-Aug-2021 4788.00 7523.38 83.21 17.00 120.08 3147.22
   16:37:30.712.27-Aug-2021 4788.00 7524.04 83.21 17.00 120.28 3147.22
   16:37:30.912.27-Aug-2021 4788.00 7524.03 83.21 17.00 120.48 3147.22
   16:37:31.112.27-Aug-2021 4788.00 7524.16 83.21 17.00 120.68 3147.22
   16:37:31.311.27-Aug-2021 4788.00 7524.49 83.21 17.00 120.88 3147.22
   16:37:31.511.27-Aug-2021 4788.00 7524.49 83.21 17.00 121.08 3147.22
   16:37:31.711.27-Aug-2021 4788.00 7524.34 83.21 17.00 121.28 3147.22
   16:37:31.911.27-Aug-2021 4788.00 7524.38 83.21 17.00 121.48 3147.22
   16:37:32.111.27-Aug-2021 4788.00 7524.24 83.21 17.00 121.68 3147.22
   16:37:32.310.27-Aug-2021 4788.00 7524.10 83.21 17.00 121.88 3147.22
   16:37:32.510.27-Aug-2021 4788.00 7524.10 83.21 17.00 122.08 3147.22
   16:37:32.710.27-Aug-2021 4788.00 7525.54 83.21 17.00 122.28 3147.22
   16:37:32.910.27-Aug-2021 4788.00 7523.87 83.21 17.00 122.48 3147.22
   16:37:33.110.27-Aug-2021 4788.00 7524.30 83.21 17.00 122.68 3147.22
   16:37:33.309.27-Aug-2021 4788.00 7524.50 83.21 17.00 122.88 3147.22
   16:37:33.509.27-Aug-2021 4788.00 7524.50 83.21 17.00 123.08 3147.22
   16:37:33.709.27-Aug-2021 4788.00 7521.96 83.21 17.00 123.28 3147.22
   16:37:33.909.27-Aug-2021 4788.00 7523.59 83.21 17.00 123.48 3147.22
   16:37:34.109.27-Aug-2021 4788.00 7524.93 83.21 17.00 123.68 3147.22
   16:37:34.308.27-Aug-2021 4788.00 7524.32 83.21 17.00 123.88 3147.22
   16:37:34.508.27-Aug-2021 4788.00 7524.32 83.21 17.00 124.08 3147.22
   16:37:34.708.27-Aug-2021 4788.00 7528.98 83.21 17.00 124.28 3147.22
   16:37:34.908.27-Aug-2021 4788.00 7522.07 83.21 17.00 124.48 3147.22
   16:37:35.108.27-Aug-2021 4788.00 7524.45 83.21 17.00 124.68 3147.22
   16:37:35.307.27-Aug-2021 4788.00 7525.11 83.21 17.00 124.88 3147.22
   16:37:35.507.27-Aug-2021 4788.00 7525.11 83.21 17.00 125.08 3147.22
   16:37:35.707.27-Aug-2021 4788.00 7529.67 83.21 17.00 125.27 3147.22
   16:37:35.907.27-Aug-2021 4788.00 7521.37 83.21 17.00 125.47 3147.22
   16:37:36.107.27-Aug-2021 4788.00 7523.89 83.21 17.00 125.67 3147.22
   16:37:36.306.27-Aug-2021 4788.00 7525.76 83.21 17.00 125.87 3147.22
   16:37:36.506.27-Aug-2021 4788.00 7525.76 83.21 17.00 126.07 3147.22
   16:37:36.706.27-Aug-2021 4788.00 7524.00 83.21 17.00 126.27 3147.22
   16:37:36.906.27-Aug-2021 4788.00 7523.49 83.21 17.00 126.47 3147.22
   16:37:37.106.27-Aug-2021 4788.00 7523.84 83.21 17.00 126.67 3147.22
   16:37:37.305.27-Aug-2021 4788.00 7524.68 83.21 17.00 126.87 3147.22
   16:37:37.505.27-Aug-2021 4788.00 7524.68 83.21 17.00 127.07 3147.22
   16:37:37.705.27-Aug-2021 4788.00 7524.34 83.21 17.00 127.27 3147.22
   16:37:37.905.27-Aug-2021 4788.00 7524.60 83.21 17.00 127.47 3147.22
   16:37:38.105.27-Aug-2021 4788.00 7524.36 83.21 17.00 127.67 3147.22
   16:37:38.304.27-Aug-2021 4788.00 7524.25 83.21 17.00 127.87 3147.22
   16:37:38.504.27-Aug-2021 4788.00 7524.25 83.21 17.00 128.07 3147.22
   16:37:38.704.27-Aug-2021 4788.00 7524.13 83.21 17.00 128.27 3147.22
   16:37:38.904.27-Aug-2021 4788.00 7529.17 83.21 17.00 128.47 3147.22
   16:37:39.104.27-Aug-2021 4788.00 7521.93 83.21 17.00 128.67 3147.22
   16:37:39.303.27-Aug-2021 4788.00 7524.07 83.21 17.00 128.87 3147.22
   16:37:39.503.27-Aug-2021 4788.00 7524.07 83.21 17.00 129.07 3147.22
   16:37:39.703.27-Aug-2021 4788.00 7523.81 83.21 17.00 129.27 3147.22
   16:37:39.903.27-Aug-2021 4788.00 7523.95 83.21 17.00 129.47 3147.22
   16:37:40.103.27-Aug-2021 4788.00 7523.36 83.21 17.00 129.67 3147.22
   16:37:40.302.27-Aug-2021 4788.00 7523.94 83.21 17.00 129.87 3147.22
   16:37:40.502.27-Aug-2021 4788.00 7523.94 83.21 17.00 130.07 3147.22
   16:37:40.702.27-Aug-2021 4788.00 7524.21 83.21 17.00 130.27 3147.22
   16:37:40.902.27-Aug-2021 4788.00 7524.49 83.21 17.00 130.47 3147.22
   16:37:41.102.27-Aug-2021 4788.00 7524.76 83.21 17.00 130.67 3147.22
   16:37:41.301.27-Aug-2021 4788.00 7524.61 83.21 17.00 130.87 3147.22
   16:37:41.501.27-Aug-2021 4788.00 7524.61 83.21 17.00 131.07 3147.22
   16:37:41.701.27-Aug-2021 4788.00 7524.48 83.21 17.00 131.27 3147.22
   16:37:41.901.27-Aug-2021 4788.00 7524.36 83.21 17.00 131.47 3147.22
   16:37:42.101.27-Aug-2021 4788.00 7524.24 83.21 17.00 131.67 3147.22
   16:37:42.300.27-Aug-2021 4788.00 7529.28 83.21 17.00 131.87 3147.22
   16:37:42.500.27-Aug-2021 4788.00 7529.28 83.21 17.00 132.07 3147.22
   16:37:42.700.27-Aug-2021 4788.00 7524.26 83.21 17.00 132.27 3147.22
   16:37:42.900.27-Aug-2021 4788.00 7525.00 83.21 17.00 132.47 3147.22
   16:37:43.100.27-Aug-2021 4788.00 7524.21 83.21 17.00 132.67 3147.22
   16:37:43.299.27-Aug-2021 4788.00 7527.33 83.21 17.00 132.87 3147.22
   16:37:43.499.27-Aug-2021 4788.00 7527.33 83.21 17.00 133.07 3147.22
   16:37:43.699.27-Aug-2021 4788.00 7524.02 83.21 17.00 133.27 3147.22
   16:37:43.899.27-Aug-2021 4788.00 7525.42 83.21 17.00 133.47 3147.22
   16:37:44.099.27-Aug-2021 4788.00 7523.82 83.21 17.00 133.67 3147.22
   16:37:44.298.27-Aug-2021 4788.00 7524.50 83.21 17.00 133.87 3147.22
   16:37:44.498.27-Aug-2021 4788.00 7524.50 83.21 17.00 134.07 3147.22
   16:37:44.698.27-Aug-2021 4788.00 7524.05 83.21 17.00 134.27 3147.22
   16:37:44.898.27-Aug-2021 4788.00 7525.02 83.21 17.00 134.47 3147.22
   16:37:45.098.27-Aug-2021 4788.00 7525.37 83.21 17.00 134.67 3147.22
   16:37:45.297.27-Aug-2021 4788.00 7529.16 83.21 17.00 134.87 3147.22
   16:37:45.497.27-Aug-2021 4788.00 7529.16 83.21 17.00 135.07 3147.22
   16:37:45.697.27-Aug-2021 4788.00 7523.78 83.21 17.00 135.26 3147.22
