~Version Information
 VERS.                  2.0:   CWLS log ASCII Standard -VERSION 2.0
 WRAP.                   NO:   One line per depth step
~Well Information Block
#MNEM.UNIT     VALUE/NAME     DESCRIPTION
#---------     -----------    ---------------------------
 STRT.S             23:43:00 27-Aug-21: START TIME 23:43:00 27-Aug-21
 STOP.S             23:50:14 27-Aug-21: STOP TIME  23:50:14 27-Aug-21
 STEP.S                   0.00: STEP TIME
 NULL.                 -999.25: NULL VALUE
 DFWT.                        :  DIST FWL TEXT
 DFST.                        :  DIST FSL TEXT
 DMF .             Drill Floor:  DRILL MEAS FROM
 STIM.      20.00.00 17-Aug-21:  START TIME
 DATE.      19.00.00 29-Aug-21:  END TIME
 SPUD.               15-Aug-21:  SPUD DATE
 NREF.                    Grid:  NORTH REFERENCE
 HPTY.       Minimum Curvature:  HOLE POS TYPE
 DMOD.             Drill Model:  DRILL MOD DESC
 SVYD.                  Survey:  SURVEY DESC
 ILTD.               Lithology:  INTERP LTH DESC
 FTOP.          Formation Tops:  FORM TOPS DESC
 RIG .              East Azeri:  RIG NAME
 PDAT.          Mean Sea Level:  PERMANENT DATUM
 FLD .                     ACG:  FIELD NAME
 SON .        AZ-XX-0907180857:  JOB NUMBER
 CTRY.              Azerbaijan:  COUNTRY NAME
 WELL.                    D23x:  WELL NAME
 SRVC.     Turan Drilling and Engineering:  CONTRACTOR
 COMP.     BP Exploration (Caspian Sea) Ltd.:  COMPANY
 UWI .            /AZE00000214:  UNIQUE WELL IDENTIFIER
 API .            /AZE00000214:  API NUMBER
 MDS .        Operator Entered:  MAG DATA SOURCE
 BASE.              Azerbaijan:  LOGGING EQUIPMENT BASE LOCATION
 REGN.                   EESSA:  REGION
 PROV.                    Baku:  PROVINCE
 STAT.                    Baku:  STATE NAME
 MWDS.                    Baku:  MWD SHOP
 DOE .                     N/A:  DOE NUMBER
 DCON.         Sperry Drilling:  DIRECTNL CONTR
 UNIT.                     N/A:  LOGGING EQUIPMENT ID
 WTYP.                Deviated:  WELL TYPE
 CNTY.                        :  COUNTY
 LOC .                        :  LOCATION
 LMF .             Drill Floor:  LOG MEASURED FROM
 TVDS.m                  43.60:  TVDSS CORRECTN
 LATI.deg                40.02:  LATITUDE
 LONG.deg                51.45:  LONGITUDE
 WHNS.m                  -7.04:  WELL HEAD N/S
 WHEW.m                  -0.67:  WELL HEAD E/W
 UTMX.m              538762.90:  UTM X
 UTMY.m             4431871.34:  UTM Y
 DFWL.m                   0.00:  DISTANCE FWL
 DFSL.m                   0.00:  DISTANCE FSL
 SDEP.m                4127.00:  START DEPTH
 TDD .m                5084.50:  TOTAL DEPTH (DRILLER)
 VSDR.deg               140.47:  VERT SEC DIRECT
 GVFD.g                   1.00:  GRAVITY FIELD
 MFLD.nT              50362.00:  MAGNETIC FIELD
 MDIP.deg                59.48:  MAGNETIC DIP
 MDEC.deg                 6.47:  MAGNETIC DECL
 GRDC.deg                 0.31:  GRID CORRECTION
 AZTC.deg                 6.16:  AZM TOTAL CORR
 EPD .m                   0.00:  ELEVATION
 EGL .m                   0.00:  GROUND ELEVATION
 WDMS.m                 151.80:  WD ELEV
 APD .m                  43.60:  DEPTH ABOVE PD
 DEP .m                4092.57:  DEPTH
 AGAP.m                  43.60:  AIR GAP
 VSEW.m                  -0.67:  VERT SEC E/W
 VSNS.m                  -7.04:  VERT SEC N/S
 EKB .m                  43.60:  KB ELEVATION
 EDF .m                  43.60:  DF ELEVATION
 TDL .m                 957.50:  TOTAL DEPTH (LOGGER)
 VSC .                       0:  VS TO CLOSURE
 MAGU.                 1851413:  MAGUTM CHECKSUM
~Parameter Information Block
#MNEM.UNIT       Value        Description
#---------     -----------    ---------------------------
 AV  .mps                 1.50:  Ann Velocity 
 AVMX.mps                 2.00:  Max Ann Veloc 
 AZIF.deg               184.66:  Azm, Final 
 BHAT.        Rotary Steerable:  BHA Type 
 BREV.rev               300.00:  Rev Bit Total 
 BROT.°/30m              -0.50:  Build Rotating 
 BS  .in                  8.50:  Bit Size 
 BSZ .in                  8.50:  Bit Size 
 BTPL.psig              370.00:  Bit Press Loss 
 CABU.                      No:  Customer Abuse 
 CGEO.      Behruz Shahbaliyev:  Customer Geo 
 COMM.                     Ì™‡:  Run Comments 1 
 TCS .hr                140.08:  Time Ciculation Ended 
 CV  .mps                 3.00:  Crit Velocity 
 CVMX.mps                 3.20:  Max Crit Veloc 
 DD1 .            Musa Ahmadov:  Direct Drillr 1 
 DD2 .           Hamid Ahmadov:  Direct Drillr 2 
 DDSV.               Geo-Pilot:  DD Service 
 DEFF.%                  98.40:  % Det Eff 
 DLRX.°/30m               3.40:  Dogleg Rot Max 
 DLSO.°/30m               1.45:  Dogleg Oriented 
 DLSX.°/30m               3.40:  Dogleg Str Max 
 DRET.      18.40.00 29-Aug-21:  Drill End Time 
 DRST.      21.00.00 20-Aug-21:  Drill Start Tim 
 DTIM.hr                 69.47:  Time Drilling 
 EDEP.m                5084.50:  End Depth 
 ENG1.      Artemiy Matviyanov:  Engineer 1 
 ENG2.         Almaz Almadatov:  Engineer 2 
 ETIM.      18.40.00 29-Aug-21:  End Time 
 FLOI.gpm               500.00:  Flow In 
 FLON.gpm               400.00:  Flow In Min 
 FLOS.cptm                0.00:  Fluid Loss 
 FLOX.gpm               500.00:  Flow In Max 
 DFT .        Mineral Oil Base:  Mud Type 
 HFLO.                      No:  High Flow 
 HPRE.                      No:  High Pressure 
 HTEM.                      No:  High Temp 
 HYDO.m                   1.80:  Hydro Offset 
 IFIN.deg                25.62:  Inc, Final 
 IMAX.deg                48.69:  Inc Max 
 IMIN.deg                24.01:  Inc Min 
 IMND.m                4962.57:  Inc Min Depth 
 IMXD.m                4119.01:  Inc Max Depth 
 JARR.                      No:  Jarring 
 LETM.      18.40.00 29-Aug-21:  Log End Time 
 LOST.hr                     0:  Lost Rig Time 
 LSTM.      21.00.00 20-Aug-21:  Log Start Time 
 MDCL.ppm             41500.00:  Mud Chlorides 
 MDES.     Inversion Oil/Synthetic:  Mud Desc 
 DFD .sg                  1.56:  Mud Density 
 MDMN.sg                  1.56:  Dens Mud Min 
 MDMX.sg                  1.56:  Dens Mud Max 
 MOIL.                      70:  Run Mud Oil % 
 MOWR.                   70:30:  Run Mud OWR 
 MSND.                     0.2:  Run Mud Sand % 
 MSOL.                    23.3:  Run Mud Solids% 
 DFV .spqt               78.00:  Mud Viscosity 
 MWOD.in                  6.75:  MWD Tool OD 
 MWSI.                      No:  Serv Intrp, MWD 
 OTIM.hr                218.30:  Time Operating 
 PCON.           Look Like New:  Pad Condition 
 PMAX.psia            11015.30:  Press Op, Max 
 PV  .cP                 38.00:  Mud PV 
 RUN .                     300:  Run Number 
 ROPA.m/hr               15.00:  ROP Avg 
 ROPN.m/hr                9.00:  ROP Min 
 ROPX.m/hr               17.00:  ROP Max 
 RPMA.rpm               120.00:  RPM Surface Avg 
 RPMN.rpm                90.00:  RPM Surface Min 
 RPMX.rpm               140.00:  RPM Surface Max 
 RRUN.                     300:  Rig Run Number 
 RTIM.hr                 31.53:  Time Reaming 
 SAZI.deg               331.64:  Azm, Start 
 SDEP.m                4127.00:  Start Depth 
 SIDD.                      No:  Serv Intrp, DD 
 SINC.deg                48.43:  Inc, Start 
 SPPA.psig             5830.00:  SPP Avg 
 SPPN.psig             5600.00:  SPP Min 
 SPPX.psig             5900.00:  SPP Max 
 STIM.      21.00.00 20-Aug-21:  Start Time 
 SVCS.                 DD, MWD:  Services 
 SVER.                    9.20:  Sperry Version 
 TDAT.m                 957.50:  Tot Depth Attmp 
 TDDF.                      No:  Trip for DD 
 TDLG.m                 957.50:  Tot Depth Loggd 
 TFF .                      No:  Trip for Fail 
 TQAA.f-kp               15.00:  Torque Abs Avg 
 TQAN.f-kp               12.00:  Torque Abs Min 
 TQAX.f-kp               19.00:  Torque Abs Max 
 TRRT.°/30m              -3.40:  Turn Rotating 
 MRT .                  EWR-M5:  Maximum Recorded Temperature 
 TTMX.degC              100.00:  Max Tool Temp 
 VS01.                90639251:  Virtual Str1 SN 
 VS02.                90634715:  Virtual Str2 SN 
 VS03.                90652479:  Virtual Str3 SN 
 VS04.                90642262:  Virtual Str4 SN 
 WBMN.klb                 0.00:  WOB Min 
 WITN.           Murad Guliyev:  Customer Rep 
 WITN.          Yashar Gaziyev:  Customer Rep 2 
 WOBA.klb                 9.00:  WOB Avg 
 WOBX.klb                12.00:  WOB Max 
 YP  .lhf2               30.00:  Yield Point 
~Curve Information Block
#MNEM.UNIT                 API CODE     Curve Description
#---------               -----------    ---------------------------
 TIME.HHMMSS            00 000 000 000:  GT Time & Date
 GTDEPTH.m              00 000 000 000:  GT Depth
 GTPQH.psia             00 000 000 000:  GT HR Quartz Pressure
 GTTQ.degC              00 000 000 000:  GT Quartz Temperature
 GTTN.NONE              00 000 000 000:  GT Test Number
 GTET.sec               00 000 000 000:  GT Elapsed Test Time
 GTTVD.m                00 000 000 000:  GT True Vertical Depth
#Other Information
#
#WARRANTY: Halliburton will use its best efforts to furnish customers with 
#accurate information and interpretations that are part of, and incident to, the services 
#provided.  However, Halliburton cannot and does not warrant the accuracy 
#or correctness of such information and interpretations.  Under no circumstances should any 
#such information or interpretation be relied upon as the sole basis for any drilling, 
#completion, production, or financial decision or any procedure involving any risk to the 
#safety of any drilling venture, drilling rig or its crew or any other third party.  The 
#Customer has full responsibility for all drilling, completion and production operation.  
#Halliburton makes no representations or warranties, either expressed or 
#implied, including, but not limited to, the implied warranties of merchantability or fitness 
#for a particular purpose, with respect to the services rendered.  In no event will 
#Halliburton be liable for failure to obtain any particular results or for 
#any damages, including, but not limited to, indirect, special or consequential damages, 
#resulting from the use of any information or interpretation provided by Halliburton.
#
~A           TIME           GTDEPTH  GTPQH  GTTQ  GTTN   GTET   GTTVD  
# ...
   23:49:46.978.27-Aug-2021 4669.00 7267.21 82.11 26.00 406.85 3039.49
   23:49:47.178.27-Aug-2021 4669.00 7270.65 82.11 26.00 407.05 3039.49
   23:49:47.378.27-Aug-2021 4669.00 7270.65 82.11 26.00 407.25 3039.49
   23:49:47.578.27-Aug-2021 4669.00 7270.65 82.11 26.00 407.45 3039.49
   23:49:47.778.27-Aug-2021 4669.00 7270.07 82.11 26.00 407.65 3039.49
   23:49:47.979.27-Aug-2021 4669.00 7270.49 82.11 26.00 407.85 3039.49
   23:49:48.179.27-Aug-2021 4669.00 7271.00 82.11 26.00 408.05 3039.49
   23:49:48.379.27-Aug-2021 4669.00 7271.00 82.11 26.00 408.25 3039.49
   23:49:48.579.27-Aug-2021 4669.00 7270.67 82.11 26.00 408.45 3039.49
   23:49:48.779.27-Aug-2021 4669.00 7270.84 82.11 26.00 408.65 3039.49
   23:49:48.979.27-Aug-2021 4669.00 7270.84 82.11 26.00 408.85 3039.49
   23:49:49.179.27-Aug-2021 4669.00 7270.60 82.11 26.00 409.05 3039.49
   23:49:49.379.27-Aug-2021 4669.00 7270.60 82.11 26.00 409.25 3039.49
   23:49:49.579.27-Aug-2021 4669.00 7270.53 82.11 26.00 409.45 3039.49
   23:49:49.779.27-Aug-2021 4669.00 7271.07 82.11 26.00 409.65 3039.49
   23:49:49.979.27-Aug-2021 4669.00 7270.79 82.10 26.00 409.85 3039.49
   23:49:50.179.27-Aug-2021 4669.00 7276.97 82.10 26.00 410.05 3039.49
   23:49:50.379.27-Aug-2021 4669.00 7276.97 82.10 26.00 410.25 3039.49
   23:49:50.579.27-Aug-2021 4669.00 7270.90 82.10 26.00 410.45 3039.49
   23:49:50.779.27-Aug-2021 4669.00 7270.47 82.10 26.00 410.65 3039.49
   23:49:50.979.27-Aug-2021 4669.00 7271.60 82.10 26.00 410.85 3039.49
   23:49:51.179.27-Aug-2021 4669.00 7274.44 82.10 26.00 411.05 3039.49
   23:49:51.379.27-Aug-2021 4669.00 7274.44 82.10 26.00 411.25 3039.49
   23:49:51.579.27-Aug-2021 4669.00 7271.33 82.10 26.00 411.45 3039.49
   23:49:51.779.27-Aug-2021 4669.00 7270.55 82.10 26.00 411.65 3039.49
   23:49:51.979.27-Aug-2021 4669.00 7271.64 82.10 26.00 411.85 3039.49
   23:49:52.179.27-Aug-2021 4669.00 7271.14 82.10 26.00 412.05 3039.49
   23:49:52.379.27-Aug-2021 4669.00 7271.14 82.10 26.00 412.25 3039.49
   23:49:52.579.27-Aug-2021 4669.00 7269.84 82.10 26.00 412.45 3039.49
   23:49:52.779.27-Aug-2021 4669.00 7270.77 82.10 26.00 412.65 3039.49
   23:49:52.979.27-Aug-2021 4669.00 7270.58 82.10 26.00 412.85 3039.49
   23:49:53.179.27-Aug-2021 4669.00 7271.69 82.10 26.00 413.05 3039.49
   23:49:53.379.27-Aug-2021 4669.00 7271.69 82.10 26.00 413.25 3039.49
   23:49:53.579.27-Aug-2021 4669.00 7269.90 82.10 26.00 413.45 3039.49
   23:49:53.779.27-Aug-2021 4669.00 7271.00 82.10 26.00 413.65 3039.49
   23:49:53.979.27-Aug-2021 4669.00 7270.78 82.10 26.00 413.85 3039.49
   23:49:54.179.27-Aug-2021 4669.00 7271.37 82.10 26.00 414.05 3039.49
   23:49:54.379.27-Aug-2021 4669.00 7271.37 82.10 26.00 414.25 3039.49
   23:49:54.579.27-Aug-2021 4669.00 7271.63 82.10 26.00 414.45 3039.49
   23:49:54.779.27-Aug-2021 4669.00 7271.35 82.10 26.00 414.65 3039.49
   23:49:54.979.27-Aug-2021 4669.00 7271.21 82.10 26.00 414.85 3039.49
   23:49:55.179.27-Aug-2021 4669.00 7270.98 82.10 26.00 415.05 3039.49
   23:49:55.379.27-Aug-2021 4669.00 7270.98 82.10 26.00 415.25 3039.49
   23:49:55.579.27-Aug-2021 4669.00 7271.20 82.10 26.00 415.45 3039.49
   23:49:55.779.27-Aug-2021 4669.00 7270.97 82.10 26.00 415.65 3039.49
   23:49:55.980.27-Aug-2021 4669.00 7270.86 82.10 26.00 415.85 3039.49
   23:49:56.180.27-Aug-2021 4669.00 7270.92 82.10 26.00 416.05 3039.49
   23:49:56.380.27-Aug-2021 4669.00 7270.92 82.10 26.00 416.25 3039.49
   23:49:56.580.27-Aug-2021 4669.00 7274.29 82.10 26.00 416.45 3039.49
   23:49:56.780.27-Aug-2021 4669.00 7270.13 82.10 26.00 416.65 3039.49
   23:49:56.980.27-Aug-2021 4669.00 7270.59 82.10 26.00 416.85 3039.49
   23:49:57.180.27-Aug-2021 4669.00 7270.76 82.10 26.00 417.05 3039.49
   23:49:57.380.27-Aug-2021 4669.00 7270.76 82.10 26.00 417.25 3039.49
   23:49:57.580.27-Aug-2021 4669.00 7270.37 82.10 26.00 417.45 3039.49
   23:49:57.780.27-Aug-2021 4669.00 7271.23 82.10 26.00 417.65 3039.49
   23:49:57.980.27-Aug-2021 4669.00 7271.18 82.10 26.00 417.85 3039.49
   23:49:58.180.27-Aug-2021 4669.00 7271.18 82.10 26.00 418.05 3039.49
   23:49:58.380.27-Aug-2021 4669.00 7271.18 82.10 26.00 418.25 3039.49
   23:49:58.580.27-Aug-2021 4669.00 7271.26 82.10 26.00 418.45 3039.49
   23:49:58.780.27-Aug-2021 4669.00 7271.28 82.10 26.00 418.65 3039.49
   23:49:58.980.27-Aug-2021 4669.00 7271.09 82.10 26.00 418.85 3039.49
   23:49:59.180.27-Aug-2021 4669.00 7271.01 82.10 26.00 419.05 3039.49
   23:49:59.380.27-Aug-2021 4669.00 7271.01 82.10 26.00 419.25 3039.49
   23:49:59.580.27-Aug-2021 4669.00 7270.94 82.10 26.00 419.45 3039.49
   23:49:59.780.27-Aug-2021 4669.00 7270.88 82.10 26.00 419.65 3039.49
   23:49:59.980.27-Aug-2021 4669.00 7274.21 82.10 26.00 419.85 3039.49
   23:50:00.180.27-Aug-2021 4669.00 7270.24 82.10 26.00 420.05 3039.49
   23:50:00.380.27-Aug-2021 4669.00 7270.24 82.10 26.00 420.25 3039.49
   23:50:00.580.27-Aug-2021 4669.00 7270.70 82.10 26.00 420.45 3039.49
   23:50:00.780.27-Aug-2021 4669.00 7271.15 82.10 26.00 420.65 3039.49
   23:50:00.980.27-Aug-2021 4669.00 7273.82 82.10 26.00 420.85 3039.49
   23:50:01.180.27-Aug-2021 4669.00 7270.53 82.09 26.00 421.05 3039.49
   23:50:01.380.27-Aug-2021 4669.00 7270.53 82.09 26.00 421.25 3039.49
   23:50:01.580.27-Aug-2021 4669.00 7270.83 82.09 26.00 421.45 3039.49
   23:50:01.780.27-Aug-2021 4669.00 7271.10 82.09 26.00 421.65 3039.49
   23:50:01.980.27-Aug-2021 4669.00 7270.51 82.09 26.00 421.85 3039.49
   23:50:02.180.27-Aug-2021 4669.00 7274.81 82.09 26.00 422.05 3039.49
   23:50:02.380.27-Aug-2021 4669.00 7274.81 82.09 26.00 422.25 3039.49
   23:50:02.580.27-Aug-2021 4669.00 7270.62 82.09 26.00 422.45 3039.49
   23:50:02.780.27-Aug-2021 4669.00 7270.65 82.09 26.00 422.65 3039.49
   23:50:02.980.27-Aug-2021 4669.00 7271.52 82.09 26.00 422.85 3039.49
   23:50:03.180.27-Aug-2021 4669.00 7274.63 82.09 26.00 423.05 3039.49
   23:50:03.380.27-Aug-2021 4669.00 7274.63 82.09 26.00 423.25 3039.49
   23:50:03.580.27-Aug-2021 4669.00 7271.27 82.09 26.00 423.45 3039.49
   23:50:03.780.27-Aug-2021 4669.00 7270.91 82.09 26.00 423.65 3039.49
   23:50:03.981.27-Aug-2021 4669.00 7271.56 82.09 26.00 423.85 3039.49
   23:50:04.181.27-Aug-2021 4669.00 7271.32 82.09 26.00 424.05 3039.49
   23:50:04.381.27-Aug-2021 4669.00 7271.32 82.09 26.00 424.25 3039.49
   23:50:04.581.27-Aug-2021 4669.00 7271.65 82.09 26.00 424.45 3039.49
   23:50:04.781.27-Aug-2021 4669.00 7271.30 82.09 26.00 424.65 3039.49
   23:50:04.981.27-Aug-2021 4669.00 7271.42 82.09 26.00 424.85 3039.49
   23:50:05.181.27-Aug-2021 4669.00 7271.37 82.09 26.00 425.05 3039.49
   23:50:05.381.27-Aug-2021 4669.00 7271.37 82.09 26.00 425.25 3039.49
   23:50:05.581.27-Aug-2021 4669.00 7271.14 82.09 26.00 425.45 3039.49
   23:50:05.781.27-Aug-2021 4669.00 7271.09 82.09 26.00 425.65 3039.49
   23:50:05.981.27-Aug-2021 4669.00 7271.05 82.09 26.00 425.85 3039.49
   23:50:06.181.27-Aug-2021 4669.00 7271.04 82.09 26.00 426.05 3039.49
   23:50:06.381.27-Aug-2021 4669.00 7271.04 82.09 26.00 426.25 3039.49
   23:50:06.581.27-Aug-2021 4669.00 7269.60 82.09 26.00 426.45 3039.49
   23:50:06.781.27-Aug-2021 4669.00 7271.02 82.09 26.00 426.65 3039.49
   23:50:06.981.27-Aug-2021 4669.00 7270.74 82.09 26.00 426.85 3039.49
   23:50:07.181.27-Aug-2021 4669.00 7271.59 82.09 26.00 427.05 3039.49
   23:50:07.381.27-Aug-2021 4669.00 7271.59 82.09 26.00 427.25 3039.49
   23:50:07.581.27-Aug-2021 4669.00 7271.59 82.09 26.00 427.45 3039.49
   23:50:07.781.27-Aug-2021 4669.00 7271.58 82.09 26.00 427.65 3039.49
   23:50:07.981.27-Aug-2021 4669.00 7271.37 82.09 26.00 427.85 3039.49
   23:50:08.181.27-Aug-2021 4669.00 7271.61 82.09 26.00 428.05 3039.49
   23:50:08.381.27-Aug-2021 4669.00 7271.61 82.09 26.00 428.25 3039.49
   23:50:08.581.27-Aug-2021 4669.00 7271.66 82.09 26.00 428.45 3039.49
   23:50:08.781.27-Aug-2021 4669.00 7271.52 82.09 26.00 428.65 3039.49
   23:50:08.981.27-Aug-2021 4669.00 7271.51 82.09 26.00 428.85 3039.49
   23:50:09.181.27-Aug-2021 4669.00 7271.44 82.09 26.00 429.05 3039.49
   23:50:09.381.27-Aug-2021 4669.00 7271.44 82.09 26.00 429.25 3039.49
