~Version Information
 VERS.                  2.0:   CWLS log ASCII Standard -VERSION 2.0
 WRAP.                   NO:   One line per depth step
~Well Information Block
#MNEM.UNIT     VALUE/NAME     DESCRIPTION
#---------     -----------    ---------------------------
 STRT.S             15:52:10 27-Aug-21: START TIME 15:52:10 27-Aug-21
 STOP.S             15:59:26 27-Aug-21: STOP TIME  15:59:26 27-Aug-21
 STEP.S                   0.00: STEP TIME
 NULL.                 -999.25: NULL VALUE
 DFWT.                        :  DIST FWL TEXT
 DFST.                        :  DIST FSL TEXT
 DMF .             Drill Floor:  DRILL MEAS FROM
 STIM.      20.00.00 17-Aug-21:  START TIME
 DATE.      19.00.00 29-Aug-21:  END TIME
 SPUD.               15-Aug-21:  SPUD DATE
 NREF.                    Grid:  NORTH REFERENCE
 HPTY.       Minimum Curvature:  HOLE POS TYPE
 DMOD.             Drill Model:  DRILL MOD DESC
 SVYD.                  Survey:  SURVEY DESC
 ILTD.               Lithology:  INTERP LTH DESC
 FTOP.          Formation Tops:  FORM TOPS DESC
 RIG .              East Azeri:  RIG NAME
 PDAT.          Mean Sea Level:  PERMANENT DATUM
 FLD .                     ACG:  FIELD NAME
 SON .        AZ-XX-0907180857:  JOB NUMBER
 CTRY.              Azerbaijan:  COUNTRY NAME
 WELL.                    D23x:  WELL NAME
 SRVC.     Turan Drilling and Engineering:  CONTRACTOR
 COMP.     BP Exploration (Caspian Sea) Ltd.:  COMPANY
 UWI .            /AZE00000214:  UNIQUE WELL IDENTIFIER
 API .            /AZE00000214:  API NUMBER
 MDS .        Operator Entered:  MAG DATA SOURCE
 BASE.              Azerbaijan:  LOGGING EQUIPMENT BASE LOCATION
 REGN.                   EESSA:  REGION
 PROV.                    Baku:  PROVINCE
 STAT.                    Baku:  STATE NAME
 MWDS.                    Baku:  MWD SHOP
 DOE .                     N/A:  DOE NUMBER
 DCON.         Sperry Drilling:  DIRECTNL CONTR
 UNIT.                     N/A:  LOGGING EQUIPMENT ID
 WTYP.                Deviated:  WELL TYPE
 CNTY.                        :  COUNTY
 LOC .                        :  LOCATION
 LMF .             Drill Floor:  LOG MEASURED FROM
 TVDS.m                  43.60:  TVDSS CORRECTN
 LATI.deg                40.02:  LATITUDE
 LONG.deg                51.45:  LONGITUDE
 WHNS.m                  -7.04:  WELL HEAD N/S
 WHEW.m                  -0.67:  WELL HEAD E/W
 UTMX.m              538762.90:  UTM X
 UTMY.m             4431871.34:  UTM Y
 DFWL.m                   0.00:  DISTANCE FWL
 DFSL.m                   0.00:  DISTANCE FSL
 SDEP.m                4127.00:  START DEPTH
 TDD .m                5084.50:  TOTAL DEPTH (DRILLER)
 VSDR.deg               140.47:  VERT SEC DIRECT
 GVFD.g                   1.00:  GRAVITY FIELD
 MFLD.nT              50362.00:  MAGNETIC FIELD
 MDIP.deg                59.48:  MAGNETIC DIP
 MDEC.deg                 6.47:  MAGNETIC DECL
 GRDC.deg                 0.31:  GRID CORRECTION
 AZTC.deg                 6.16:  AZM TOTAL CORR
 EPD .m                   0.00:  ELEVATION
 EGL .m                   0.00:  GROUND ELEVATION
 WDMS.m                 151.80:  WD ELEV
 APD .m                  43.60:  DEPTH ABOVE PD
 DEP .m                4092.57:  DEPTH
 AGAP.m                  43.60:  AIR GAP
 VSEW.m                  -0.67:  VERT SEC E/W
 VSNS.m                  -7.04:  VERT SEC N/S
 EKB .m                  43.60:  KB ELEVATION
 EDF .m                  43.60:  DF ELEVATION
 TDL .m                 957.50:  TOTAL DEPTH (LOGGER)
 VSC .                       0:  VS TO CLOSURE
 MAGU.                 1851413:  MAGUTM CHECKSUM
~Parameter Information Block
#MNEM.UNIT       Value        Description
#---------     -----------    ---------------------------
 AV  .mps                 1.50:  Ann Velocity 
 AVMX.mps                 2.00:  Max Ann Veloc 
 AZIF.deg               184.66:  Azm, Final 
 BHAT.        Rotary Steerable:  BHA Type 
 BREV.rev               300.00:  Rev Bit Total 
 BROT.°/30m              -0.50:  Build Rotating 
 BS  .in                  8.50:  Bit Size 
 BSZ .in                  8.50:  Bit Size 
 BTPL.psig              370.00:  Bit Press Loss 
 CABU.                      No:  Customer Abuse 
 CGEO.      Behruz Shahbaliyev:  Customer Geo 
 COMM.                     Ìu:  Run Comments 1 
 TCS .hr                140.08:  Time Ciculation Ended 
 CV  .mps                 3.00:  Crit Velocity 
 CVMX.mps                 3.20:  Max Crit Veloc 
 DD1 .            Musa Ahmadov:  Direct Drillr 1 
 DD2 .           Hamid Ahmadov:  Direct Drillr 2 
 DDSV.               Geo-Pilot:  DD Service 
 DEFF.%                  98.40:  % Det Eff 
 DLRX.°/30m               3.40:  Dogleg Rot Max 
 DLSO.°/30m               1.45:  Dogleg Oriented 
 DLSX.°/30m               3.40:  Dogleg Str Max 
 DRET.      18.40.00 29-Aug-21:  Drill End Time 
 DRST.      21.00.00 20-Aug-21:  Drill Start Tim 
 DTIM.hr                 69.47:  Time Drilling 
 EDEP.m                5084.50:  End Depth 
 ENG1.      Artemiy Matviyanov:  Engineer 1 
 ENG2.         Almaz Almadatov:  Engineer 2 
 ETIM.      18.40.00 29-Aug-21:  End Time 
 FLOI.gpm               500.00:  Flow In 
 FLON.gpm               400.00:  Flow In Min 
 FLOS.cptm                0.00:  Fluid Loss 
 FLOX.gpm               500.00:  Flow In Max 
 DFT .        Mineral Oil Base:  Mud Type 
 HFLO.                      No:  High Flow 
 HPRE.                      No:  High Pressure 
 HTEM.                      No:  High Temp 
 HYDO.m                   1.80:  Hydro Offset 
 IFIN.deg                25.62:  Inc, Final 
 IMAX.deg                48.69:  Inc Max 
 IMIN.deg                24.01:  Inc Min 
 IMND.m                4962.57:  Inc Min Depth 
 IMXD.m                4119.01:  Inc Max Depth 
 JARR.                      No:  Jarring 
 LETM.      18.40.00 29-Aug-21:  Log End Time 
 LOST.hr                     0:  Lost Rig Time 
 LSTM.      21.00.00 20-Aug-21:  Log Start Time 
 MDCL.ppm             41500.00:  Mud Chlorides 
 MDES.     Inversion Oil/Synthetic:  Mud Desc 
 DFD .sg                  1.56:  Mud Density 
 MDMN.sg                  1.56:  Dens Mud Min 
 MDMX.sg                  1.56:  Dens Mud Max 
 MOIL.                      70:  Run Mud Oil % 
 MOWR.                   70:30:  Run Mud OWR 
 MSND.                     0.2:  Run Mud Sand % 
 MSOL.                    23.3:  Run Mud Solids% 
 DFV .spqt               78.00:  Mud Viscosity 
 MWOD.in                  6.75:  MWD Tool OD 
 MWSI.                      No:  Serv Intrp, MWD 
 OTIM.hr                218.30:  Time Operating 
 PCON.           Look Like New:  Pad Condition 
 PMAX.psia            11015.30:  Press Op, Max 
 PV  .cP                 38.00:  Mud PV 
 RUN .                     300:  Run Number 
 ROPA.m/hr               15.00:  ROP Avg 
 ROPN.m/hr                9.00:  ROP Min 
 ROPX.m/hr               17.00:  ROP Max 
 RPMA.rpm               120.00:  RPM Surface Avg 
 RPMN.rpm                90.00:  RPM Surface Min 
 RPMX.rpm               140.00:  RPM Surface Max 
 RRUN.                     300:  Rig Run Number 
 RTIM.hr                 31.53:  Time Reaming 
 SAZI.deg               331.64:  Azm, Start 
 SDEP.m                4127.00:  Start Depth 
 SIDD.                      No:  Serv Intrp, DD 
 SINC.deg                48.43:  Inc, Start 
 SPPA.psig             5830.00:  SPP Avg 
 SPPN.psig             5600.00:  SPP Min 
 SPPX.psig             5900.00:  SPP Max 
 STIM.      21.00.00 20-Aug-21:  Start Time 
 SVCS.                 DD, MWD:  Services 
 SVER.                    9.20:  Sperry Version 
 TDAT.m                 957.50:  Tot Depth Attmp 
 TDDF.                      No:  Trip for DD 
 TDLG.m                 957.50:  Tot Depth Loggd 
 TFF .                      No:  Trip for Fail 
 TQAA.f-kp               15.00:  Torque Abs Avg 
 TQAN.f-kp               12.00:  Torque Abs Min 
 TQAX.f-kp               19.00:  Torque Abs Max 
 TRRT.°/30m              -3.40:  Turn Rotating 
 MRT .                  EWR-M5:  Maximum Recorded Temperature 
 TTMX.degC              100.00:  Max Tool Temp 
 VS01.                90639251:  Virtual Str1 SN 
 VS02.                90634715:  Virtual Str2 SN 
 VS03.                90652479:  Virtual Str3 SN 
 VS04.                90642262:  Virtual Str4 SN 
 WBMN.klb                 0.00:  WOB Min 
 WITN.           Murad Guliyev:  Customer Rep 
 WITN.          Yashar Gaziyev:  Customer Rep 2 
 WOBA.klb                 9.00:  WOB Avg 
 WOBX.klb                12.00:  WOB Max 
 YP  .lhf2               30.00:  Yield Point 
~Curve Information Block
#MNEM.UNIT                 API CODE     Curve Description
#---------               -----------    ---------------------------
 TIME.HHMMSS            00 000 000 000:  GT Time & Date
 GTDEPTH.m              00 000 000 000:  GT Depth
 GTPQH.psia             00 000 000 000:  GT HR Quartz Pressure
 GTTQ.degC              00 000 000 000:  GT Quartz Temperature
 GTTN.NONE              00 000 000 000:  GT Test Number
 GTET.sec               00 000 000 000:  GT Elapsed Test Time
 GTTVD.m                00 000 000 000:  GT True Vertical Depth
#Other Information
#
#WARRANTY: Halliburton will use its best efforts to furnish customers with 
#accurate information and interpretations that are part of, and incident to, the services 
#provided.  However, Halliburton cannot and does not warrant the accuracy 
#or correctness of such information and interpretations.  Under no circumstances should any 
#such information or interpretation be relied upon as the sole basis for any drilling, 
#completion, production, or financial decision or any procedure involving any risk to the 
#safety of any drilling venture, drilling rig or its crew or any other third party.  The 
#Customer has full responsibility for all drilling, completion and production operation.  
#Halliburton makes no representations or warranties, either expressed or 
#implied, including, but not limited to, the implied warranties of merchantability or fitness 
#for a particular purpose, with respect to the services rendered.  In no event will 
#Halliburton be liable for failure to obtain any particular results or for 
#any damages, including, but not limited to, indirect, special or consequential damages, 
#resulting from the use of any information or interpretation provided by Halliburton.
#
~A           TIME           GTDEPTH  GTPQH  GTTQ  GTTN   GTET   GTTVD  
# ...
   15:58:12.947.27-Aug-2021 4817.00 5229.59 83.54 16.00 362.18 3173.43
   15:58:13.147.27-Aug-2021 4817.00 5229.63 83.54 16.00 362.38 3173.43
   15:58:13.347.27-Aug-2021 4817.00 5229.61 83.54 16.00 362.58 3173.43
   15:58:13.548.27-Aug-2021 4817.00 5229.61 83.54 16.00 362.78 3173.43
   15:58:13.748.27-Aug-2021 4817.00 5229.53 83.54 16.00 362.98 3173.43
   15:58:13.948.27-Aug-2021 4817.00 5229.58 83.54 16.00 363.18 3173.43
   15:58:14.149.27-Aug-2021 4817.00 5229.70 83.54 16.00 363.38 3173.43
   15:58:14.349.27-Aug-2021 4817.00 5229.61 83.54 16.00 363.58 3173.43
   15:58:14.549.27-Aug-2021 4817.00 5229.61 83.54 16.00 363.78 3173.43
   15:58:14.750.27-Aug-2021 4817.00 5229.61 83.54 16.00 363.98 3173.43
   15:58:14.950.27-Aug-2021 4817.00 5229.61 83.54 16.00 364.18 3173.43
   15:58:15.150.27-Aug-2021 4817.00 5229.62 83.53 16.00 364.38 3173.43
   15:58:15.351.27-Aug-2021 4817.00 5229.62 83.53 16.00 364.58 3173.43
   15:58:15.551.27-Aug-2021 4817.00 5229.62 83.53 16.00 364.78 3173.43
   15:58:15.751.27-Aug-2021 4817.00 5229.61 83.53 16.00 364.98 3173.43
   15:58:15.951.27-Aug-2021 4817.00 5229.61 83.53 16.00 365.18 3173.43
   15:58:16.152.27-Aug-2021 4817.00 5229.61 83.53 16.00 365.38 3173.43
   15:58:16.352.27-Aug-2021 4817.00 5229.61 83.53 16.00 365.58 3173.43
   15:58:16.552.27-Aug-2021 4817.00 5229.61 83.53 16.00 365.78 3173.43
   15:58:16.753.27-Aug-2021 4817.00 5229.69 83.53 16.00 365.98 3173.43
   15:58:16.953.27-Aug-2021 4817.00 5229.60 83.53 16.00 366.18 3173.43
   15:58:17.153.27-Aug-2021 4817.00 5229.59 83.53 16.00 366.38 3173.43
   15:58:17.354.27-Aug-2021 4817.00 5229.60 83.53 16.00 366.58 3173.43
   15:58:17.554.27-Aug-2021 4817.00 5229.60 83.53 16.00 366.78 3173.43
   15:58:17.754.27-Aug-2021 4817.00 5229.62 83.53 16.00 366.98 3173.43
   15:58:17.955.27-Aug-2021 4817.00 5229.60 83.53 16.00 367.18 3173.43
   15:58:18.155.27-Aug-2021 4817.00 5229.63 83.53 16.00 367.38 3173.43
   15:58:18.355.27-Aug-2021 4817.00 5229.62 83.53 16.00 367.58 3173.43
   15:58:18.556.27-Aug-2021 4817.00 5229.62 83.53 16.00 367.78 3173.43
   15:58:18.756.27-Aug-2021 4817.00 5229.62 83.53 16.00 367.98 3173.43
   15:58:18.956.27-Aug-2021 4817.00 5229.61 83.53 16.00 368.19 3173.43
   15:58:19.157.27-Aug-2021 4817.00 5229.61 83.53 16.00 368.39 3173.43
   15:58:19.357.27-Aug-2021 4817.00 5229.61 83.53 16.00 368.59 3173.43
   15:58:19.557.27-Aug-2021 4817.00 5229.61 83.53 16.00 368.79 3173.43
   15:58:19.758.27-Aug-2021 4817.00 5229.59 83.53 16.00 368.99 3173.43
   15:58:19.958.27-Aug-2021 4817.00 5229.59 83.53 16.00 369.19 3173.43
   15:58:20.158.27-Aug-2021 4817.00 5229.63 83.53 16.00 369.39 3173.43
   15:58:20.358.27-Aug-2021 4817.00 5229.55 83.53 16.00 369.59 3173.43
   15:58:20.559.27-Aug-2021 4817.00 5229.55 83.53 16.00 369.79 3173.43
   15:58:20.759.27-Aug-2021 4817.00 5229.61 83.53 16.00 369.99 3173.43
   15:58:20.959.27-Aug-2021 4817.00 5229.60 83.53 16.00 370.19 3173.43
   15:58:21.160.27-Aug-2021 4817.00 5229.65 83.53 16.00 370.39 3173.43
   15:58:21.360.27-Aug-2021 4817.00 5229.56 83.53 16.00 370.59 3173.43
   15:58:21.560.27-Aug-2021 4817.00 5229.56 83.53 16.00 370.79 3173.43
   15:58:21.761.27-Aug-2021 4817.00 5229.64 83.53 16.00 370.99 3173.43
   15:58:21.961.27-Aug-2021 4817.00 5229.61 83.53 16.00 371.19 3173.43
   15:58:22.161.27-Aug-2021 4817.00 5229.63 83.53 16.00 371.39 3173.43
   15:58:22.362.27-Aug-2021 4817.00 5229.84 83.53 16.00 371.59 3173.43
   15:58:22.562.27-Aug-2021 4817.00 5229.84 83.53 16.00 371.79 3173.43
   15:58:22.762.27-Aug-2021 4817.00 5229.65 83.53 16.00 371.99 3173.43
   15:58:22.963.27-Aug-2021 4817.00 5229.62 83.53 16.00 372.19 3173.43
   15:58:23.163.27-Aug-2021 4817.00 5229.58 83.53 16.00 372.39 3173.43
   15:58:23.363.27-Aug-2021 4817.00 5229.55 83.53 16.00 372.59 3173.43
   15:58:23.564.27-Aug-2021 4817.00 5229.55 83.53 16.00 372.79 3173.43
   15:58:23.764.27-Aug-2021 4817.00 5229.69 83.53 16.00 372.99 3173.43
   15:58:23.964.27-Aug-2021 4817.00 5229.63 83.53 16.00 373.19 3173.43
   15:58:24.165.27-Aug-2021 4817.00 5229.61 83.53 16.00 373.39 3173.43
   15:58:24.365.27-Aug-2021 4817.00 5229.62 83.53 16.00 373.59 3173.43
   15:58:24.565.27-Aug-2021 4817.00 5229.62 83.53 16.00 373.79 3173.43
   15:58:24.765.27-Aug-2021 4817.00 5229.63 83.53 16.00 373.99 3173.43
   15:58:24.966.27-Aug-2021 4817.00 5229.63 83.53 16.00 374.19 3173.43
   15:58:25.166.27-Aug-2021 4817.00 5229.63 83.53 16.00 374.40 3173.43
   15:58:25.366.27-Aug-2021 4817.00 5229.63 83.53 16.00 374.60 3173.43
   15:58:25.567.27-Aug-2021 4817.00 5229.63 83.53 16.00 374.80 3173.43
   15:58:25.767.27-Aug-2021 4817.00 5229.62 83.53 16.00 375.00 3173.43
   15:58:25.967.27-Aug-2021 4817.00 5229.62 83.53 16.00 375.20 3173.43
   15:58:26.168.27-Aug-2021 4817.00 5229.61 83.53 16.00 375.40 3173.43
   15:58:26.368.27-Aug-2021 4817.00 5229.85 83.53 16.00 375.60 3173.43
   15:58:26.568.27-Aug-2021 4817.00 5229.85 83.53 16.00 375.80 3173.43
   15:58:26.769.27-Aug-2021 4817.00 5229.63 83.53 16.00 376.00 3173.43
   15:58:26.969.27-Aug-2021 4817.00 5229.65 83.53 16.00 376.20 3173.43
   15:58:27.169.27-Aug-2021 4817.00 5229.60 83.53 16.00 376.40 3173.43
   15:58:27.370.27-Aug-2021 4817.00 5229.61 83.53 16.00 376.60 3173.43
   15:58:27.570.27-Aug-2021 4817.00 5229.61 83.53 16.00 376.80 3173.43
   15:58:27.770.27-Aug-2021 4817.00 5229.62 83.53 16.00 377.00 3173.43
   15:58:27.971.27-Aug-2021 4817.00 5229.63 83.53 16.00 377.20 3173.43
   15:58:28.171.27-Aug-2021 4817.00 5229.61 83.53 16.00 377.40 3173.43
   15:58:28.371.27-Aug-2021 4817.00 5229.61 83.53 16.00 377.60 3173.43
   15:58:28.572.27-Aug-2021 4817.00 5229.61 83.53 16.00 377.80 3173.43
   15:58:28.772.27-Aug-2021 4817.00 5229.61 83.53 16.00 378.00 3173.43
   15:58:28.972.27-Aug-2021 4817.00 5229.61 83.53 16.00 378.20 3173.43
   15:58:29.172.27-Aug-2021 4817.00 5229.60 83.53 16.00 378.40 3173.43
   15:58:29.373.27-Aug-2021 4817.00 5229.60 83.53 16.00 378.60 3173.43
   15:58:29.573.27-Aug-2021 4817.00 5229.60 83.53 16.00 378.80 3173.43
   15:58:29.773.27-Aug-2021 4817.00 5281.83 83.53 16.00 379.00 3173.43
   15:58:29.974.27-Aug-2021 4817.00 5362.92 83.53 16.00 379.20 3173.43
   15:58:30.174.27-Aug-2021 4817.00 5366.59 83.53 16.00 379.40 3173.43
   15:58:30.374.27-Aug-2021 4817.00 7001.12 83.53 16.00 379.60 3173.43
   15:58:30.575.27-Aug-2021 4817.00 7001.12 83.53 16.00 379.80 3173.43
   15:58:30.775.27-Aug-2021 4817.00 7626.70 83.53 16.00 380.00 3173.43
   15:58:30.975.27-Aug-2021 4817.00 7618.51 83.53 16.00 380.20 3173.43
   15:58:31.176.27-Aug-2021 4817.00 7620.98 83.53 16.00 380.40 3173.43
   15:58:31.376.27-Aug-2021 4817.00 7622.80 83.53 16.00 380.60 3173.43
   15:58:31.576.27-Aug-2021 4817.00 7622.80 83.53 16.00 380.81 3173.43
   15:58:31.777.27-Aug-2021 4817.00 7621.90 83.54 16.00 381.01 3173.43
   15:58:31.977.27-Aug-2021 4817.00 7627.02 83.54 16.00 381.21 3173.43
   15:58:32.177.27-Aug-2021 4817.00 7622.18 83.54 16.00 381.41 3173.43
   15:58:32.378.27-Aug-2021 4817.00 7623.89 83.54 16.00 381.61 3173.43
   15:58:32.578.27-Aug-2021 4817.00 7623.89 83.54 16.00 381.81 3173.43
   15:58:32.778.27-Aug-2021 4817.00 7624.23 83.54 16.00 382.01 3173.43
   15:58:32.979.27-Aug-2021 4817.00 7628.00 83.55 16.00 382.21 3173.43
   15:58:33.179.27-Aug-2021 4817.00 7624.41 83.55 16.00 382.41 3173.43
   15:58:33.379.27-Aug-2021 4817.00 7625.29 83.55 16.00 382.61 3173.43
   15:58:33.579.27-Aug-2021 4817.00 7625.29 83.55 16.00 382.81 3173.43
   15:58:33.780.27-Aug-2021 4817.00 7625.01 83.55 16.00 383.01 3173.43
   15:58:33.980.27-Aug-2021 4817.00 7625.20 83.55 16.00 383.21 3173.43
   15:58:34.180.27-Aug-2021 4817.00 7624.88 83.56 16.00 383.41 3173.43
   15:58:34.381.27-Aug-2021 4817.00 7625.51 83.56 16.00 383.61 3173.43
   15:58:34.581.27-Aug-2021 4817.00 7625.51 83.56 16.00 383.81 3173.43
   15:58:34.781.27-Aug-2021 4817.00 7625.78 83.56 16.00 384.01 3173.43
   15:58:34.982.27-Aug-2021 4817.00 7625.93 83.56 16.00 384.21 3173.43
   15:58:35.182.27-Aug-2021 4817.00 7626.31 83.56 16.00 384.41 3173.43
   15:58:35.382.27-Aug-2021 4817.00 7625.91 83.57 16.00 384.61 3173.43
