~Version Information
 VERS.                  2.0:   CWLS log ASCII Standard -VERSION 2.0
 WRAP.                   NO:   One line per depth step
~Well Information Block
#MNEM.UNIT     VALUE/NAME     DESCRIPTION
#---------     -----------    ---------------------------
 STRT.S             08:51:30 27-Aug-21: START TIME 08:51:30 27-Aug-21
 STOP.S             08:58:20 27-Aug-21: STOP TIME  08:58:20 27-Aug-21
 STEP.S                   0.00: STEP TIME
 NULL.                 -999.25: NULL VALUE
 DFWT.                        :  DIST FWL TEXT
 DFST.                        :  DIST FSL TEXT
 DMF .             Drill Floor:  DRILL MEAS FROM
 STIM.      20.00.00 17-Aug-21:  START TIME
 DATE.      19.00.00 29-Aug-21:  END TIME
 SPUD.               15-Aug-21:  SPUD DATE
 NREF.                    Grid:  NORTH REFERENCE
 HPTY.       Minimum Curvature:  HOLE POS TYPE
 DMOD.             Drill Model:  DRILL MOD DESC
 SVYD.                  Survey:  SURVEY DESC
 ILTD.               Lithology:  INTERP LTH DESC
 FTOP.          Formation Tops:  FORM TOPS DESC
 RIG .              East Azeri:  RIG NAME
 PDAT.          Mean Sea Level:  PERMANENT DATUM
 FLD .                     ACG:  FIELD NAME
 SON .        AZ-XX-0907180857:  JOB NUMBER
 CTRY.              Azerbaijan:  COUNTRY NAME
 WELL.                    D23x:  WELL NAME
 SRVC.     Turan Drilling and Engineering:  CONTRACTOR
 COMP.     BP Exploration (Caspian Sea) Ltd.:  COMPANY
 UWI .            /AZE00000214:  UNIQUE WELL IDENTIFIER
 API .            /AZE00000214:  API NUMBER
 MDS .        Operator Entered:  MAG DATA SOURCE
 BASE.              Azerbaijan:  LOGGING EQUIPMENT BASE LOCATION
 REGN.                   EESSA:  REGION
 PROV.                    Baku:  PROVINCE
 STAT.                    Baku:  STATE NAME
 MWDS.                    Baku:  MWD SHOP
 DOE .                     N/A:  DOE NUMBER
 DCON.         Sperry Drilling:  DIRECTNL CONTR
 UNIT.                     N/A:  LOGGING EQUIPMENT ID
 WTYP.                Deviated:  WELL TYPE
 CNTY.                        :  COUNTY
 LOC .                        :  LOCATION
 LMF .             Drill Floor:  LOG MEASURED FROM
 TVDS.m                  43.60:  TVDSS CORRECTN
 LATI.deg                40.02:  LATITUDE
 LONG.deg                51.45:  LONGITUDE
 WHNS.m                  -7.04:  WELL HEAD N/S
 WHEW.m                  -0.67:  WELL HEAD E/W
 UTMX.m              538762.90:  UTM X
 UTMY.m             4431871.34:  UTM Y
 DFWL.m                   0.00:  DISTANCE FWL
 DFSL.m                   0.00:  DISTANCE FSL
 SDEP.m                4127.00:  START DEPTH
 TDD .m                5084.50:  TOTAL DEPTH (DRILLER)
 VSDR.deg               140.47:  VERT SEC DIRECT
 GVFD.g                   1.00:  GRAVITY FIELD
 MFLD.nT              50362.00:  MAGNETIC FIELD
 MDIP.deg                59.48:  MAGNETIC DIP
 MDEC.deg                 6.47:  MAGNETIC DECL
 GRDC.deg                 0.31:  GRID CORRECTION
 AZTC.deg                 6.16:  AZM TOTAL CORR
 EPD .m                   0.00:  ELEVATION
 EGL .m                   0.00:  GROUND ELEVATION
 WDMS.m                 151.80:  WD ELEV
 APD .m                  43.60:  DEPTH ABOVE PD
 DEP .m                4092.57:  DEPTH
 AGAP.m                  43.60:  AIR GAP
 VSEW.m                  -0.67:  VERT SEC E/W
 VSNS.m                  -7.04:  VERT SEC N/S
 EKB .m                  43.60:  KB ELEVATION
 EDF .m                  43.60:  DF ELEVATION
 TDL .m                 957.50:  TOTAL DEPTH (LOGGER)
 VSC .                       0:  VS TO CLOSURE
 MAGU.                 1851413:  MAGUTM CHECKSUM
~Parameter Information Block
#MNEM.UNIT       Value        Description
#---------     -----------    ---------------------------
 AV  .mps                 1.50:  Ann Velocity 
 AVMX.mps                 2.00:  Max Ann Veloc 
 AZIF.deg               184.66:  Azm, Final 
 BHAT.        Rotary Steerable:  BHA Type 
 BREV.rev               300.00:  Rev Bit Total 
 BROT.°/30m              -0.50:  Build Rotating 
 BS  .in                  8.50:  Bit Size 
 BSZ .in                  8.50:  Bit Size 
 BTPL.psig              370.00:  Bit Press Loss 
 CABU.                      No:  Customer Abuse 
 CGEO.      Behruz Shahbaliyev:  Customer Geo 
 COMM.                     <w:  Run Comments 1 
 TCS .hr                140.08:  Time Ciculation Ended 
 CV  .mps                 3.00:  Crit Velocity 
 CVMX.mps                 3.20:  Max Crit Veloc 
 DD1 .            Musa Ahmadov:  Direct Drillr 1 
 DD2 .           Hamid Ahmadov:  Direct Drillr 2 
 DDSV.               Geo-Pilot:  DD Service 
 DEFF.%                  98.40:  % Det Eff 
 DLRX.°/30m               3.40:  Dogleg Rot Max 
 DLSO.°/30m               1.45:  Dogleg Oriented 
 DLSX.°/30m               3.40:  Dogleg Str Max 
 DRET.      18.40.00 29-Aug-21:  Drill End Time 
 DRST.      21.00.00 20-Aug-21:  Drill Start Tim 
 DTIM.hr                 69.47:  Time Drilling 
 EDEP.m                5084.50:  End Depth 
 ENG1.      Artemiy Matviyanov:  Engineer 1 
 ENG2.         Almaz Almadatov:  Engineer 2 
 ETIM.      18.40.00 29-Aug-21:  End Time 
 FLOI.gpm               500.00:  Flow In 
 FLON.gpm               400.00:  Flow In Min 
 FLOS.cptm                0.00:  Fluid Loss 
 FLOX.gpm               500.00:  Flow In Max 
 DFT .        Mineral Oil Base:  Mud Type 
 HFLO.                      No:  High Flow 
 HPRE.                      No:  High Pressure 
 HTEM.                      No:  High Temp 
 HYDO.m                   1.80:  Hydro Offset 
 IFIN.deg                25.62:  Inc, Final 
 IMAX.deg                48.69:  Inc Max 
 IMIN.deg                24.01:  Inc Min 
 IMND.m                4962.57:  Inc Min Depth 
 IMXD.m                4119.01:  Inc Max Depth 
 JARR.                      No:  Jarring 
 LETM.      18.40.00 29-Aug-21:  Log End Time 
 LOST.hr                     0:  Lost Rig Time 
 LSTM.      21.00.00 20-Aug-21:  Log Start Time 
 MDCL.ppm             41500.00:  Mud Chlorides 
 MDES.     Inversion Oil/Synthetic:  Mud Desc 
 DFD .sg                  1.56:  Mud Density 
 MDMN.sg                  1.56:  Dens Mud Min 
 MDMX.sg                  1.56:  Dens Mud Max 
 MOIL.                      70:  Run Mud Oil % 
 MOWR.                   70:30:  Run Mud OWR 
 MSND.                     0.2:  Run Mud Sand % 
 MSOL.                    23.3:  Run Mud Solids% 
 DFV .spqt               78.00:  Mud Viscosity 
 MWOD.in                  6.75:  MWD Tool OD 
 MWSI.                      No:  Serv Intrp, MWD 
 OTIM.hr                218.30:  Time Operating 
 PCON.           Look Like New:  Pad Condition 
 PMAX.psia            11015.30:  Press Op, Max 
 PV  .cP                 38.00:  Mud PV 
 RUN .                     300:  Run Number 
 ROPA.m/hr               15.00:  ROP Avg 
 ROPN.m/hr                9.00:  ROP Min 
 ROPX.m/hr               17.00:  ROP Max 
 RPMA.rpm               120.00:  RPM Surface Avg 
 RPMN.rpm                90.00:  RPM Surface Min 
 RPMX.rpm               140.00:  RPM Surface Max 
 RRUN.                     300:  Rig Run Number 
 RTIM.hr                 31.53:  Time Reaming 
 SAZI.deg               331.64:  Azm, Start 
 SDEP.m                4127.00:  Start Depth 
 SIDD.                      No:  Serv Intrp, DD 
 SINC.deg                48.43:  Inc, Start 
 SPPA.psig             5830.00:  SPP Avg 
 SPPN.psig             5600.00:  SPP Min 
 SPPX.psig             5900.00:  SPP Max 
 STIM.      21.00.00 20-Aug-21:  Start Time 
 SVCS.                 DD, MWD:  Services 
 SVER.                    9.20:  Sperry Version 
 TDAT.m                 957.50:  Tot Depth Attmp 
 TDDF.                      No:  Trip for DD 
 TDLG.m                 957.50:  Tot Depth Loggd 
 TFF .                      No:  Trip for Fail 
 TQAA.f-kp               15.00:  Torque Abs Avg 
 TQAN.f-kp               12.00:  Torque Abs Min 
 TQAX.f-kp               19.00:  Torque Abs Max 
 TRRT.°/30m              -3.40:  Turn Rotating 
 MRT .                  EWR-M5:  Maximum Recorded Temperature 
 TTMX.degC              100.00:  Max Tool Temp 
 VS01.                90639251:  Virtual Str1 SN 
 VS02.                90634715:  Virtual Str2 SN 
 VS03.                90652479:  Virtual Str3 SN 
 VS04.                90642262:  Virtual Str4 SN 
 WBMN.klb                 0.00:  WOB Min 
 WITN.           Murad Guliyev:  Customer Rep 
 WITN.          Yashar Gaziyev:  Customer Rep 2 
 WOBA.klb                 9.00:  WOB Avg 
 WOBX.klb                12.00:  WOB Max 
 YP  .lhf2               30.00:  Yield Point 
~Curve Information Block
#MNEM.UNIT                 API CODE     Curve Description
#---------               -----------    ---------------------------
 TIME.HHMMSS            00 000 000 000:  GT Time & Date
 GTDEPTH.m              00 000 000 000:  GT Depth
 GTPQH.psia             00 000 000 000:  GT HR Quartz Pressure
 GTTQ.degC              00 000 000 000:  GT Quartz Temperature
 GTTN.NONE              00 000 000 000:  GT Test Number
 GTET.sec               00 000 000 000:  GT Elapsed Test Time
 GTTVD.m                00 000 000 000:  GT True Vertical Depth
#Other Information
#
#WARRANTY: Halliburton will use its best efforts to furnish customers with 
#accurate information and interpretations that are part of, and incident to, the services 
#provided.  However, Halliburton cannot and does not warrant the accuracy 
#or correctness of such information and interpretations.  Under no circumstances should any 
#such information or interpretation be relied upon as the sole basis for any drilling, 
#completion, production, or financial decision or any procedure involving any risk to the 
#safety of any drilling venture, drilling rig or its crew or any other third party.  The 
#Customer has full responsibility for all drilling, completion and production operation.  
#Halliburton makes no representations or warranties, either expressed or 
#implied, including, but not limited to, the implied warranties of merchantability or fitness 
#for a particular purpose, with respect to the services rendered.  In no event will 
#Halliburton be liable for failure to obtain any particular results or for 
#any damages, including, but not limited to, indirect, special or consequential damages, 
#resulting from the use of any information or interpretation provided by Halliburton.
#
~A           TIME           GTDEPTH  GTPQH  GTTQ  GTTN  GTET   GTTVD  
# ...
   08:58:01.586.27-Aug-2021 4965.00 7913.81 86.75 6.00 391.16 3307.85
   08:58:01.786.27-Aug-2021 4965.00 7913.81 86.75 6.00 391.36 3307.85
   08:58:01.986.27-Aug-2021 4965.00 7912.97 86.75 6.00 391.56 3307.85
   08:58:02.186.27-Aug-2021 4965.00 7913.41 86.75 6.00 391.76 3307.85
   08:58:02.387.27-Aug-2021 4965.00 7918.74 86.75 6.00 391.96 3307.85
   08:58:02.587.27-Aug-2021 4965.00 7912.90 86.75 6.00 392.16 3307.85
   08:58:02.787.27-Aug-2021 4965.00 7912.90 86.75 6.00 392.36 3307.85
   08:58:02.987.27-Aug-2021 4965.00 7912.73 86.75 6.00 392.56 3307.85
   08:58:03.187.27-Aug-2021 4965.00 7913.26 86.75 6.00 392.76 3307.85
   08:58:03.387.27-Aug-2021 4965.00 7913.77 86.75 6.00 392.96 3307.85
   08:58:03.587.27-Aug-2021 4965.00 7913.65 86.75 6.00 393.16 3307.85
   08:58:03.787.27-Aug-2021 4965.00 7913.65 86.75 6.00 393.36 3307.85
   08:58:03.987.27-Aug-2021 4965.00 7912.41 86.75 6.00 393.56 3307.85
   08:58:04.187.27-Aug-2021 4965.00 7912.41 86.75 6.00 393.76 3307.85
   08:58:04.387.27-Aug-2021 4965.00 7913.22 86.75 6.00 393.96 3307.85
   08:58:04.587.27-Aug-2021 4965.00 7913.65 86.75 6.00 394.16 3307.85
   08:58:04.788.27-Aug-2021 4965.00 7913.65 86.75 6.00 394.36 3307.85
   08:58:04.988.27-Aug-2021 4965.00 7913.33 86.75 6.00 394.56 3307.85
   08:58:05.188.27-Aug-2021 4965.00 7912.91 86.74 6.00 394.76 3307.85
   08:58:05.388.27-Aug-2021 4965.00 7912.72 86.74 6.00 394.96 3307.85
   08:58:05.588.27-Aug-2021 4965.00 7918.49 86.74 6.00 395.16 3307.85
   08:58:05.788.27-Aug-2021 4965.00 7918.49 86.74 6.00 395.36 3307.85
   08:58:05.988.27-Aug-2021 4965.00 7914.68 86.74 6.00 395.56 3307.85
   08:58:06.188.27-Aug-2021 4965.00 7913.15 86.74 6.00 395.76 3307.85
   08:58:06.388.27-Aug-2021 4965.00 7912.62 86.74 6.00 395.96 3307.85
   08:58:06.588.27-Aug-2021 4965.00 7912.54 86.74 6.00 396.16 3307.85
   08:58:06.788.27-Aug-2021 4965.00 7912.54 86.74 6.00 396.36 3307.85
   08:58:06.988.27-Aug-2021 4965.00 7912.74 86.74 6.00 396.56 3307.85
   08:58:07.189.27-Aug-2021 4965.00 7912.38 86.74 6.00 396.76 3307.85
   08:58:07.389.27-Aug-2021 4965.00 7912.65 86.74 6.00 396.96 3307.85
   08:58:07.589.27-Aug-2021 4965.00 7913.24 86.74 6.00 397.16 3307.85
   08:58:07.789.27-Aug-2021 4965.00 7913.24 86.74 6.00 397.37 3307.85
   08:58:07.989.27-Aug-2021 4965.00 7913.87 86.74 6.00 397.57 3307.85
   08:58:08.189.27-Aug-2021 4965.00 7913.50 86.74 6.00 397.77 3307.85
   08:58:08.389.27-Aug-2021 4965.00 7913.14 86.74 6.00 397.97 3307.85
   08:58:08.589.27-Aug-2021 4965.00 7912.74 86.74 6.00 398.17 3307.85
   08:58:08.789.27-Aug-2021 4965.00 7912.74 86.74 6.00 398.37 3307.85
   08:58:08.989.27-Aug-2021 4965.00 7917.93 86.74 6.00 398.57 3307.85
   08:58:09.189.27-Aug-2021 4965.00 7911.15 86.74 6.00 398.77 3307.85
   08:58:09.389.27-Aug-2021 4965.00 7913.77 86.73 6.00 398.97 3307.85
   08:58:09.590.27-Aug-2021 4965.00 7912.21 86.73 6.00 399.17 3307.85
   08:58:09.790.27-Aug-2021 4965.00 7912.21 86.73 6.00 399.37 3307.85
   08:58:09.990.27-Aug-2021 4965.00 7912.22 86.73 6.00 399.57 3307.85
   08:58:10.190.27-Aug-2021 4965.00 7912.62 86.73 6.00 399.77 3307.85
   08:58:10.390.27-Aug-2021 4965.00 7918.06 86.73 6.00 399.97 3307.85
   08:58:10.590.27-Aug-2021 4965.00 7910.92 86.73 6.00 400.17 3307.85
   08:58:10.790.27-Aug-2021 4965.00 7910.92 86.73 6.00 400.37 3307.85
   08:58:10.990.27-Aug-2021 4965.00 7913.34 86.73 6.00 400.57 3307.85
   08:58:11.190.27-Aug-2021 4965.00 7913.73 86.73 6.00 400.77 3307.85
   08:58:11.390.27-Aug-2021 4965.00 7913.69 86.73 6.00 400.97 3307.85
   08:58:11.590.27-Aug-2021 4965.00 7916.91 86.73 6.00 401.17 3307.85
   08:58:11.790.27-Aug-2021 4965.00 7916.91 86.73 6.00 401.37 3307.85
   08:58:11.991.27-Aug-2021 4965.00 7912.30 86.73 6.00 401.57 3307.85
   08:58:12.191.27-Aug-2021 4965.00 7911.97 86.73 6.00 401.77 3307.85
   08:58:12.391.27-Aug-2021 4965.00 7917.64 86.73 6.00 401.97 3307.85
   08:58:12.591.27-Aug-2021 4965.00 7912.68 86.73 6.00 402.17 3307.85
   08:58:12.791.27-Aug-2021 4965.00 7912.68 86.73 6.00 402.37 3307.85
   08:58:12.991.27-Aug-2021 4965.00 7912.08 86.73 6.00 402.57 3307.85
   08:58:13.191.27-Aug-2021 4965.00 7912.11 86.73 6.00 402.77 3307.85
   08:58:13.391.27-Aug-2021 4965.00 7912.36 86.72 6.00 402.97 3307.85
   08:58:13.591.27-Aug-2021 4965.00 7913.06 86.72 6.00 403.17 3307.85
   08:58:13.791.27-Aug-2021 4965.00 7913.06 86.72 6.00 403.37 3307.85
   08:58:13.991.27-Aug-2021 4965.00 7912.75 86.72 6.00 403.57 3307.85
   08:58:14.191.27-Aug-2021 4965.00 7912.65 86.72 6.00 403.77 3307.85
   08:58:14.392.27-Aug-2021 4965.00 7913.05 86.72 6.00 403.97 3307.85
   08:58:14.592.27-Aug-2021 4965.00 7913.35 86.72 6.00 404.17 3307.85
   08:58:14.792.27-Aug-2021 4965.00 7913.35 86.72 6.00 404.37 3307.85
   08:58:14.992.27-Aug-2021 4965.00 7913.30 86.72 6.00 404.57 3307.85
   08:58:15.192.27-Aug-2021 4965.00 7912.98 86.72 6.00 404.77 3307.85
   08:58:15.392.27-Aug-2021 4965.00 7912.62 86.72 6.00 404.97 3307.85
   08:58:15.592.27-Aug-2021 4965.00 7918.04 86.72 6.00 405.17 3307.85
   08:58:15.792.27-Aug-2021 4965.00 7918.04 86.72 6.00 405.37 3307.85
   08:58:15.992.27-Aug-2021 4965.00 7914.55 86.72 6.00 405.57 3307.85
   08:58:16.192.27-Aug-2021 4965.00 7913.26 86.72 6.00 405.77 3307.85
   08:58:16.392.27-Aug-2021 4965.00 7912.82 86.72 6.00 405.97 3307.85
   08:58:16.592.27-Aug-2021 4965.00 7912.64 86.72 6.00 406.17 3307.85
   08:58:16.793.27-Aug-2021 4965.00 7912.64 86.72 6.00 406.37 3307.85
   08:58:16.993.27-Aug-2021 4965.00 7912.71 86.72 6.00 406.57 3307.85
   08:58:17.193.27-Aug-2021 4965.00 7912.90 86.72 6.00 406.77 3307.85
   08:58:17.393.27-Aug-2021 4965.00 7912.98 86.71 6.00 406.97 3307.85
   08:58:17.593.27-Aug-2021 4965.00 7913.47 86.71 6.00 407.17 3307.85
   08:58:17.793.27-Aug-2021 4965.00 7913.47 86.71 6.00 407.37 3307.85
   08:58:17.993.27-Aug-2021 4965.00 7914.07 86.71 6.00 407.57 3307.85
   08:58:18.193.27-Aug-2021 4965.00 7913.74 86.71 6.00 407.77 3307.85
   08:58:18.393.27-Aug-2021 4965.00 7913.50 86.71 6.00 407.97 3307.85
   08:58:18.593.27-Aug-2021 4965.00 7913.25 86.71 6.00 408.17 3307.85
   08:58:18.793.27-Aug-2021 4965.00 7913.25 86.71 6.00 408.37 3307.85
   08:58:18.993.27-Aug-2021 4965.00 7913.01 86.71 6.00 408.57 3307.85
   08:58:19.194.27-Aug-2021 4965.00 7911.34 86.71 6.00 408.77 3307.85
   08:58:19.394.27-Aug-2021 4965.00 7913.97 86.71 6.00 408.97 3307.85
   08:58:19.594.27-Aug-2021 4965.00 7912.42 86.71 6.00 409.17 3307.85
   08:58:19.794.27-Aug-2021 4965.00 7912.42 86.71 6.00 409.37 3307.85
   08:58:19.994.27-Aug-2021 4965.00 7912.21 86.71 6.00 409.57 3307.85
   08:58:20.194.27-Aug-2021 4965.00 7912.51 86.71 6.00 409.77 3307.85
   08:58:20.394.27-Aug-2021 4965.00 7917.82 86.71 6.00 409.97 3307.85
