~Version Information
 VERS.                  2.0:   CWLS log ASCII Standard -VERSION 2.0
 WRAP.                   NO:   One line per depth step
~Well Information Block
#MNEM.UNIT     VALUE/NAME     DESCRIPTION
#---------     -----------    ---------------------------
 STRT.S             23:43:00 27-Aug-21: START TIME 23:43:00 27-Aug-21
 STOP.S             23:50:14 27-Aug-21: STOP TIME  23:50:14 27-Aug-21
 STEP.S                   0.00: STEP TIME
 NULL.                 -999.25: NULL VALUE
 DFWT.                        :  DIST FWL TEXT
 DFST.                        :  DIST FSL TEXT
 DMF .             Drill Floor:  DRILL MEAS FROM
 STIM.      20.00.00 17-Aug-21:  START TIME
 DATE.      19.00.00 29-Aug-21:  END TIME
 SPUD.               15-Aug-21:  SPUD DATE
 NREF.                    Grid:  NORTH REFERENCE
 HPTY.       Minimum Curvature:  HOLE POS TYPE
 DMOD.             Drill Model:  DRILL MOD DESC
 SVYD.                  Survey:  SURVEY DESC
 ILTD.               Lithology:  INTERP LTH DESC
 FTOP.          Formation Tops:  FORM TOPS DESC
 RIG .              East Azeri:  RIG NAME
 PDAT.          Mean Sea Level:  PERMANENT DATUM
 FLD .                     ACG:  FIELD NAME
 SON .        AZ-XX-0907180857:  JOB NUMBER
 CTRY.              Azerbaijan:  COUNTRY NAME
 WELL.                    D23x:  WELL NAME
 SRVC.     Turan Drilling and Engineering:  CONTRACTOR
 COMP.     BP Exploration (Caspian Sea) Ltd.:  COMPANY
 UWI .            /AZE00000214:  UNIQUE WELL IDENTIFIER
 API .            /AZE00000214:  API NUMBER
 MDS .        Operator Entered:  MAG DATA SOURCE
 BASE.              Azerbaijan:  LOGGING EQUIPMENT BASE LOCATION
 REGN.                   EESSA:  REGION
 PROV.                    Baku:  PROVINCE
 STAT.                    Baku:  STATE NAME
 MWDS.                    Baku:  MWD SHOP
 DOE .                     N/A:  DOE NUMBER
 DCON.         Sperry Drilling:  DIRECTNL CONTR
 UNIT.                     N/A:  LOGGING EQUIPMENT ID
 WTYP.                Deviated:  WELL TYPE
 CNTY.                        :  COUNTY
 LOC .                        :  LOCATION
 LMF .             Drill Floor:  LOG MEASURED FROM
 TVDS.m                  43.60:  TVDSS CORRECTN
 LATI.deg                40.02:  LATITUDE
 LONG.deg                51.45:  LONGITUDE
 WHNS.m                  -7.04:  WELL HEAD N/S
 WHEW.m                  -0.67:  WELL HEAD E/W
 UTMX.m              538762.90:  UTM X
 UTMY.m             4431871.34:  UTM Y
 DFWL.m                   0.00:  DISTANCE FWL
 DFSL.m                   0.00:  DISTANCE FSL
 SDEP.m                4127.00:  START DEPTH
 TDD .m                5084.50:  TOTAL DEPTH (DRILLER)
 VSDR.deg               140.47:  VERT SEC DIRECT
 GVFD.g                   1.00:  GRAVITY FIELD
 MFLD.nT              50362.00:  MAGNETIC FIELD
 MDIP.deg                59.48:  MAGNETIC DIP
 MDEC.deg                 6.47:  MAGNETIC DECL
 GRDC.deg                 0.31:  GRID CORRECTION
 AZTC.deg                 6.16:  AZM TOTAL CORR
 EPD .m                   0.00:  ELEVATION
 EGL .m                   0.00:  GROUND ELEVATION
 WDMS.m                 151.80:  WD ELEV
 APD .m                  43.60:  DEPTH ABOVE PD
 DEP .m                4092.57:  DEPTH
 AGAP.m                  43.60:  AIR GAP
 VSEW.m                  -0.67:  VERT SEC E/W
 VSNS.m                  -7.04:  VERT SEC N/S
 EKB .m                  43.60:  KB ELEVATION
 EDF .m                  43.60:  DF ELEVATION
 TDL .m                 957.50:  TOTAL DEPTH (LOGGER)
 VSC .                       0:  VS TO CLOSURE
 MAGU.                 1851413:  MAGUTM CHECKSUM
~Parameter Information Block
#MNEM.UNIT       Value        Description
#---------     -----------    ---------------------------
 AV  .mps                 1.50:  Ann Velocity 
 AVMX.mps                 2.00:  Max Ann Veloc 
 AZIF.deg               184.66:  Azm, Final 
 BHAT.        Rotary Steerable:  BHA Type 
 BREV.rev               300.00:  Rev Bit Total 
 BROT.°/30m              -0.50:  Build Rotating 
 BS  .in                  8.50:  Bit Size 
 BSZ .in                  8.50:  Bit Size 
 BTPL.psig              370.00:  Bit Press Loss 
 CABU.                      No:  Customer Abuse 
 CGEO.      Behruz Shahbaliyev:  Customer Geo 
 COMM.                     Ì™‡:  Run Comments 1 
 TCS .hr                140.08:  Time Ciculation Ended 
 CV  .mps                 3.00:  Crit Velocity 
 CVMX.mps                 3.20:  Max Crit Veloc 
 DD1 .            Musa Ahmadov:  Direct Drillr 1 
 DD2 .           Hamid Ahmadov:  Direct Drillr 2 
 DDSV.               Geo-Pilot:  DD Service 
 DEFF.%                  98.40:  % Det Eff 
 DLRX.°/30m               3.40:  Dogleg Rot Max 
 DLSO.°/30m               1.45:  Dogleg Oriented 
 DLSX.°/30m               3.40:  Dogleg Str Max 
 DRET.      18.40.00 29-Aug-21:  Drill End Time 
 DRST.      21.00.00 20-Aug-21:  Drill Start Tim 
 DTIM.hr                 69.47:  Time Drilling 
 EDEP.m                5084.50:  End Depth 
 ENG1.      Artemiy Matviyanov:  Engineer 1 
 ENG2.         Almaz Almadatov:  Engineer 2 
 ETIM.      18.40.00 29-Aug-21:  End Time 
 FLOI.gpm               500.00:  Flow In 
 FLON.gpm               400.00:  Flow In Min 
 FLOS.cptm                0.00:  Fluid Loss 
 FLOX.gpm               500.00:  Flow In Max 
 DFT .        Mineral Oil Base:  Mud Type 
 HFLO.                      No:  High Flow 
 HPRE.                      No:  High Pressure 
 HTEM.                      No:  High Temp 
 HYDO.m                   1.80:  Hydro Offset 
 IFIN.deg                25.62:  Inc, Final 
 IMAX.deg                48.69:  Inc Max 
 IMIN.deg                24.01:  Inc Min 
 IMND.m                4962.57:  Inc Min Depth 
 IMXD.m                4119.01:  Inc Max Depth 
 JARR.                      No:  Jarring 
 LETM.      18.40.00 29-Aug-21:  Log End Time 
 LOST.hr                     0:  Lost Rig Time 
 LSTM.      21.00.00 20-Aug-21:  Log Start Time 
 MDCL.ppm             41500.00:  Mud Chlorides 
 MDES.     Inversion Oil/Synthetic:  Mud Desc 
 DFD .sg                  1.56:  Mud Density 
 MDMN.sg                  1.56:  Dens Mud Min 
 MDMX.sg                  1.56:  Dens Mud Max 
 MOIL.                      70:  Run Mud Oil % 
 MOWR.                   70:30:  Run Mud OWR 
 MSND.                     0.2:  Run Mud Sand % 
 MSOL.                    23.3:  Run Mud Solids% 
 DFV .spqt               78.00:  Mud Viscosity 
 MWOD.in                  6.75:  MWD Tool OD 
 MWSI.                      No:  Serv Intrp, MWD 
 OTIM.hr                218.30:  Time Operating 
 PCON.           Look Like New:  Pad Condition 
 PMAX.psia            11015.30:  Press Op, Max 
 PV  .cP                 38.00:  Mud PV 
 RUN .                     300:  Run Number 
 ROPA.m/hr               15.00:  ROP Avg 
 ROPN.m/hr                9.00:  ROP Min 
 ROPX.m/hr               17.00:  ROP Max 
 RPMA.rpm               120.00:  RPM Surface Avg 
 RPMN.rpm                90.00:  RPM Surface Min 
 RPMX.rpm               140.00:  RPM Surface Max 
 RRUN.                     300:  Rig Run Number 
 RTIM.hr                 31.53:  Time Reaming 
 SAZI.deg               331.64:  Azm, Start 
 SDEP.m                4127.00:  Start Depth 
 SIDD.                      No:  Serv Intrp, DD 
 SINC.deg                48.43:  Inc, Start 
 SPPA.psig             5830.00:  SPP Avg 
 SPPN.psig             5600.00:  SPP Min 
 SPPX.psig             5900.00:  SPP Max 
 STIM.      21.00.00 20-Aug-21:  Start Time 
 SVCS.                 DD, MWD:  Services 
 SVER.                    9.20:  Sperry Version 
 TDAT.m                 957.50:  Tot Depth Attmp 
 TDDF.                      No:  Trip for DD 
 TDLG.m                 957.50:  Tot Depth Loggd 
 TFF .                      No:  Trip for Fail 
 TQAA.f-kp               15.00:  Torque Abs Avg 
 TQAN.f-kp               12.00:  Torque Abs Min 
 TQAX.f-kp               19.00:  Torque Abs Max 
 TRRT.°/30m              -3.40:  Turn Rotating 
 MRT .                  EWR-M5:  Maximum Recorded Temperature 
 TTMX.degC              100.00:  Max Tool Temp 
 VS01.                90639251:  Virtual Str1 SN 
 VS02.                90634715:  Virtual Str2 SN 
 VS03.                90652479:  Virtual Str3 SN 
 VS04.                90642262:  Virtual Str4 SN 
 WBMN.klb                 0.00:  WOB Min 
 WITN.           Murad Guliyev:  Customer Rep 
 WITN.          Yashar Gaziyev:  Customer Rep 2 
 WOBA.klb                 9.00:  WOB Avg 
 WOBX.klb                12.00:  WOB Max 
 YP  .lhf2               30.00:  Yield Point 
~Curve Information Block
#MNEM.UNIT                 API CODE     Curve Description
#---------               -----------    ---------------------------
 TIME.HHMMSS            00 000 000 000:  GT Time & Date
 GTDEPTH.m              00 000 000 000:  GT Depth
 GTPQH.psia             00 000 000 000:  GT HR Quartz Pressure
 GTTQ.degC              00 000 000 000:  GT Quartz Temperature
 GTTN.NONE              00 000 000 000:  GT Test Number
 GTET.sec               00 000 000 000:  GT Elapsed Test Time
 GTTVD.m                00 000 000 000:  GT True Vertical Depth
#Other Information
#
#WARRANTY: Halliburton will use its best efforts to furnish customers with 
#accurate information and interpretations that are part of, and incident to, the services 
#provided.  However, Halliburton cannot and does not warrant the accuracy 
#or correctness of such information and interpretations.  Under no circumstances should any 
#such information or interpretation be relied upon as the sole basis for any drilling, 
#completion, production, or financial decision or any procedure involving any risk to the 
#safety of any drilling venture, drilling rig or its crew or any other third party.  The 
#Customer has full responsibility for all drilling, completion and production operation.  
#Halliburton makes no representations or warranties, either expressed or 
#implied, including, but not limited to, the implied warranties of merchantability or fitness 
#for a particular purpose, with respect to the services rendered.  In no event will 
#Halliburton be liable for failure to obtain any particular results or for 
#any damages, including, but not limited to, indirect, special or consequential damages, 
#resulting from the use of any information or interpretation provided by Halliburton.
#
~A           TIME           GTDEPTH  GTPQH  GTTQ  GTTN   GTET   GTTVD  
# ...
   23:43:22.730.27-Aug-2021 4669.00 7244.62 82.17 26.00  22.60 3039.49
   23:43:22.930.27-Aug-2021 4669.00 7244.74 82.17 26.00  22.80 3039.49
   23:43:23.130.27-Aug-2021 4669.00 7247.58 82.17 26.00  23.00 3039.49
   23:43:23.330.27-Aug-2021 4669.00 7247.58 82.17 26.00  23.20 3039.49
   23:43:23.530.27-Aug-2021 4669.00 7244.91 82.17 26.00  23.40 3039.49
   23:43:23.730.27-Aug-2021 4669.00 7245.59 82.17 26.00  23.60 3039.49
   23:43:23.930.27-Aug-2021 4669.00 7245.10 82.17 26.00  23.80 3039.49
   23:43:24.130.27-Aug-2021 4669.00 7249.90 82.17 26.00  24.00 3039.49
   23:43:24.331.27-Aug-2021 4669.00 7249.90 82.17 26.00  24.20 3039.49
   23:43:24.531.27-Aug-2021 4669.00 7246.33 82.17 26.00  24.40 3039.49
   23:43:24.731.27-Aug-2021 4669.00 7245.81 82.17 26.00  24.60 3039.49
   23:43:24.931.27-Aug-2021 4669.00 7246.77 82.17 26.00  24.80 3039.49
   23:43:25.131.27-Aug-2021 4669.00 7246.67 82.17 26.00  25.00 3039.49
   23:43:25.331.27-Aug-2021 4669.00 7246.67 82.17 26.00  25.20 3039.49
   23:43:25.531.27-Aug-2021 4669.00 7247.18 82.17 26.00  25.40 3039.49
   23:43:25.731.27-Aug-2021 4669.00 7246.95 82.17 26.00  25.60 3039.49
   23:43:25.931.27-Aug-2021 4669.00 7247.25 82.17 26.00  25.80 3039.49
   23:43:26.131.27-Aug-2021 4669.00 7247.37 82.17 26.00  26.00 3039.49
   23:43:26.331.27-Aug-2021 4669.00 7247.37 82.17 26.00  26.20 3039.49
   23:43:26.531.27-Aug-2021 4669.00 7247.62 82.17 26.00  26.40 3039.49
   23:43:26.731.27-Aug-2021 4669.00 7247.78 82.17 26.00  26.60 3039.49
   23:43:26.931.27-Aug-2021 4669.00 7247.91 82.17 26.00  26.80 3039.49
   23:43:27.131.27-Aug-2021 4669.00 7247.99 82.17 26.00  27.00 3039.49
   23:43:27.331.27-Aug-2021 4669.00 7247.99 82.17 26.00  27.20 3039.49
   23:43:27.531.27-Aug-2021 4669.00 7247.99 82.17 26.00  27.40 3039.49
   23:43:27.731.27-Aug-2021 4669.00 7248.46 82.17 26.00  27.60 3039.49
   23:43:27.931.27-Aug-2021 4669.00 7248.30 82.17 26.00  27.80 3039.49
   23:43:28.131.27-Aug-2021 4669.00 7249.00 82.17 26.00  28.00 3039.49
   23:43:28.331.27-Aug-2021 4669.00 7249.00 82.17 26.00  28.20 3039.49
   23:43:28.531.27-Aug-2021 4669.00 7249.09 82.17 26.00  28.40 3039.49
   23:43:28.731.27-Aug-2021 4669.00 7249.74 82.16 26.00  28.60 3039.49
   23:43:28.931.27-Aug-2021 4669.00 7249.43 82.16 26.00  28.80 3039.49
   23:43:29.131.27-Aug-2021 4669.00 7249.57 82.16 26.00  29.00 3039.49
   23:43:29.331.27-Aug-2021 4669.00 7249.57 82.16 26.00  29.20 3039.49
   23:43:29.531.27-Aug-2021 4669.00 7249.70 82.16 26.00  29.40 3039.49
   23:43:29.731.27-Aug-2021 4669.00 7249.80 82.16 26.00  29.60 3039.49
   23:43:29.931.27-Aug-2021 4669.00 7249.78 82.16 26.00  29.80 3039.49
   23:43:30.131.27-Aug-2021 4669.00 7249.84 82.16 26.00  30.00 3039.49
   23:43:30.331.27-Aug-2021 4669.00 7249.84 82.16 26.00  30.20 3039.49
   23:43:30.531.27-Aug-2021 4669.00 7250.17 82.16 26.00  30.40 3039.49
   23:43:30.731.27-Aug-2021 4669.00 7254.08 82.16 26.00  30.60 3039.49
   23:43:30.931.27-Aug-2021 4669.00 7249.28 82.16 26.00  30.80 3039.49
   23:43:31.131.27-Aug-2021 4669.00 7250.36 82.16 26.00  31.00 3039.49
   23:43:31.331.27-Aug-2021 4669.00 7250.36 82.16 26.00  31.20 3039.49
   23:43:31.531.27-Aug-2021 4669.00 7254.26 82.16 26.00  31.40 3039.49
   23:43:31.731.27-Aug-2021 4669.00 7249.64 82.16 26.00  31.60 3039.49
   23:43:31.931.27-Aug-2021 4669.00 7250.73 82.16 26.00  31.80 3039.49
   23:43:32.131.27-Aug-2021 4669.00 7251.04 82.16 26.00  32.00 3039.49
   23:43:32.332.27-Aug-2021 4669.00 7251.04 82.16 26.00  32.20 3039.49
   23:43:32.532.27-Aug-2021 4669.00 7251.60 82.16 26.00  32.40 3039.49
   23:43:32.732.27-Aug-2021 4669.00 7255.12 82.16 26.00  32.60 3039.49
   23:43:32.932.27-Aug-2021 4669.00 7250.95 82.16 26.00  32.80 3039.49
   23:43:33.132.27-Aug-2021 4669.00 7251.64 82.16 26.00  33.00 3039.49
   23:43:33.332.27-Aug-2021 4669.00 7251.64 82.16 26.00  33.20 3039.49
   23:43:33.532.27-Aug-2021 4669.00 7252.36 82.16 26.00  33.40 3039.49
   23:43:33.732.27-Aug-2021 4669.00 7254.75 82.16 26.00  33.60 3039.49
   23:43:33.932.27-Aug-2021 4669.00 7251.63 82.16 26.00  33.80 3039.49
   23:43:34.132.27-Aug-2021 4669.00 7252.57 82.16 26.00  34.00 3039.49
   23:43:34.332.27-Aug-2021 4669.00 7252.57 82.16 26.00  34.20 3039.49
   23:43:34.532.27-Aug-2021 4669.00 7252.20 82.16 26.00  34.40 3039.49
   23:43:34.732.27-Aug-2021 4669.00 7253.16 82.16 26.00  34.60 3039.49
   23:43:34.932.27-Aug-2021 4669.00 7252.74 82.16 26.00  34.80 3039.49
   23:43:35.132.27-Aug-2021 4669.00 7253.06 82.16 26.00  35.00 3039.49
   23:43:35.332.27-Aug-2021 4669.00 7253.06 82.16 26.00  35.20 3039.49
   23:43:35.532.27-Aug-2021 4669.00 7253.10 82.16 26.00  35.40 3039.49
   23:43:35.732.27-Aug-2021 4669.00 7253.18 82.16 26.00  35.60 3039.49
   23:43:35.932.27-Aug-2021 4669.00 7253.21 82.16 26.00  35.80 3039.49
   23:43:36.132.27-Aug-2021 4669.00 7253.31 82.16 26.00  36.00 3039.49
   23:43:36.332.27-Aug-2021 4669.00 7253.31 82.16 26.00  36.20 3039.49
   23:43:36.532.27-Aug-2021 4669.00 7253.58 82.16 26.00  36.40 3039.49
   23:43:36.732.27-Aug-2021 4669.00 7253.65 82.16 26.00  36.60 3039.49
   23:43:36.932.27-Aug-2021 4669.00 7253.83 82.16 26.00  36.80 3039.49
   23:43:37.132.27-Aug-2021 4669.00 7253.94 82.16 26.00  37.00 3039.49
   23:43:37.332.27-Aug-2021 4669.00 7253.94 82.16 26.00  37.20 3039.49
   23:43:37.532.27-Aug-2021 4669.00 7250.97 82.16 26.00  37.40 3039.49
   23:43:37.732.27-Aug-2021 4669.00 7254.16 82.16 26.00  37.60 3039.49
   23:43:37.932.27-Aug-2021 4669.00 7253.85 82.16 26.00  37.80 3039.49
   23:43:38.132.27-Aug-2021 4669.00 7254.72 82.16 26.00  38.00 3039.49
   23:43:38.332.27-Aug-2021 4669.00 7254.72 82.16 26.00  38.20 3039.49
   23:43:38.532.27-Aug-2021 4669.00 7254.75 82.16 26.00  38.40 3039.49
   23:43:38.732.27-Aug-2021 4669.00 7255.48 82.16 26.00  38.60 3039.49
   23:43:38.932.27-Aug-2021 4669.00 7255.31 82.16 26.00  38.80 3039.49
   23:43:39.132.27-Aug-2021 4669.00 7255.38 82.16 26.00  39.00 3039.49
   23:43:39.332.27-Aug-2021 4669.00 7255.38 82.16 26.00  39.20 3039.49
   23:43:39.532.27-Aug-2021 4669.00 7255.36 82.16 26.00  39.40 3039.49
   23:43:39.732.27-Aug-2021 4669.00 7255.36 82.16 26.00  39.60 3039.49
   23:43:39.932.27-Aug-2021 4669.00 7255.36 82.16 26.00  39.80 3039.49
   23:43:40.132.27-Aug-2021 4669.00 7255.39 82.16 26.00  40.01 3039.49
   23:43:40.333.27-Aug-2021 4669.00 7255.39 82.16 26.00  40.21 3039.49
   23:43:40.533.27-Aug-2021 4669.00 7261.25 82.16 26.00  40.41 3039.49
   23:43:40.733.27-Aug-2021 4669.00 7252.57 82.16 26.00  40.61 3039.49
   23:43:40.933.27-Aug-2021 4669.00 7255.63 82.16 26.00  40.81 3039.49
   23:43:41.133.27-Aug-2021 4669.00 7255.21 82.16 26.00  41.01 3039.49
   23:43:41.333.27-Aug-2021 4669.00 7255.21 82.16 26.00  41.21 3039.49
   23:43:41.533.27-Aug-2021 4669.00 7255.03 82.16 26.00  41.41 3039.49
   23:43:41.733.27-Aug-2021 4669.00 7261.66 82.16 26.00  41.61 3039.49
   23:43:41.933.27-Aug-2021 4669.00 7253.91 82.16 26.00  41.81 3039.49
   23:43:42.133.27-Aug-2021 4669.00 7257.09 82.16 26.00  42.01 3039.49
   23:43:42.333.27-Aug-2021 4669.00 7257.09 82.16 26.00  42.21 3039.49
   23:43:42.533.27-Aug-2021 4669.00 7257.44 82.16 26.00  42.41 3039.49
   23:43:42.733.27-Aug-2021 4669.00 7255.99 82.16 26.00  42.61 3039.49
   23:43:42.933.27-Aug-2021 4669.00 7260.18 82.16 26.00  42.81 3039.49
   23:43:43.133.27-Aug-2021 4669.00 7256.85 82.16 26.00  43.01 3039.49
   23:43:43.333.27-Aug-2021 4669.00 7256.85 82.16 26.00  43.21 3039.49
   23:43:43.533.27-Aug-2021 4669.00 7258.25 82.16 26.00  43.41 3039.49
   23:43:43.733.27-Aug-2021 4669.00 7259.27 82.16 26.00  43.61 3039.49
   23:43:43.933.27-Aug-2021 4669.00 7263.49 82.16 26.00  43.81 3039.49
   23:43:44.133.27-Aug-2021 4669.00 7260.53 82.16 26.00  44.01 3039.49
   23:43:44.333.27-Aug-2021 4669.00 7260.53 82.16 26.00  44.21 3039.49
   23:43:44.533.27-Aug-2021 4669.00 7263.07 82.16 26.00  44.41 3039.49
   23:43:44.733.27-Aug-2021 4669.00 7269.87 82.16 26.00  44.61 3039.49
   23:43:44.933.27-Aug-2021 4669.00 7256.62 82.16 26.00  44.81 3039.49
   23:43:45.133.27-Aug-2021 4669.00 7241.74 82.16 26.00  45.01 3039.49
