~Version Information
 VERS.                  2.0:   CWLS log ASCII Standard -VERSION 2.0
 WRAP.                   NO:   One line per depth step
~Well Information Block
#MNEM.UNIT     VALUE/NAME     DESCRIPTION
#---------     -----------    ---------------------------
 STRT.S             19:17:17 27-Aug-21: START TIME 19:17:17 27-Aug-21
 STOP.S             19:24:30 27-Aug-21: STOP TIME  19:24:30 27-Aug-21
 STEP.S                   0.00: STEP TIME
 NULL.                 -999.25: NULL VALUE
 DFWT.                        :  DIST FWL TEXT
 DFST.                        :  DIST FSL TEXT
 DMF .             Drill Floor:  DRILL MEAS FROM
 STIM.      20.00.00 17-Aug-21:  START TIME
 DATE.      19.00.00 29-Aug-21:  END TIME
 SPUD.               15-Aug-21:  SPUD DATE
 NREF.                    Grid:  NORTH REFERENCE
 HPTY.       Minimum Curvature:  HOLE POS TYPE
 DMOD.             Drill Model:  DRILL MOD DESC
 SVYD.                  Survey:  SURVEY DESC
 ILTD.               Lithology:  INTERP LTH DESC
 FTOP.          Formation Tops:  FORM TOPS DESC
 RIG .              East Azeri:  RIG NAME
 PDAT.          Mean Sea Level:  PERMANENT DATUM
 FLD .                     ACG:  FIELD NAME
 SON .        AZ-XX-0907180857:  JOB NUMBER
 CTRY.              Azerbaijan:  COUNTRY NAME
 WELL.                    D23x:  WELL NAME
 SRVC.     Turan Drilling and Engineering:  CONTRACTOR
 COMP.     BP Exploration (Caspian Sea) Ltd.:  COMPANY
 UWI .            /AZE00000214:  UNIQUE WELL IDENTIFIER
 API .            /AZE00000214:  API NUMBER
 MDS .        Operator Entered:  MAG DATA SOURCE
 BASE.              Azerbaijan:  LOGGING EQUIPMENT BASE LOCATION
 REGN.                   EESSA:  REGION
 PROV.                    Baku:  PROVINCE
 STAT.                    Baku:  STATE NAME
 MWDS.                    Baku:  MWD SHOP
 DOE .                     N/A:  DOE NUMBER
 DCON.         Sperry Drilling:  DIRECTNL CONTR
 UNIT.                     N/A:  LOGGING EQUIPMENT ID
 WTYP.                Deviated:  WELL TYPE
 CNTY.                        :  COUNTY
 LOC .                        :  LOCATION
 LMF .             Drill Floor:  LOG MEASURED FROM
 TVDS.m                  43.60:  TVDSS CORRECTN
 LATI.deg                40.02:  LATITUDE
 LONG.deg                51.45:  LONGITUDE
 WHNS.m                  -7.04:  WELL HEAD N/S
 WHEW.m                  -0.67:  WELL HEAD E/W
 UTMX.m              538762.90:  UTM X
 UTMY.m             4431871.34:  UTM Y
 DFWL.m                   0.00:  DISTANCE FWL
 DFSL.m                   0.00:  DISTANCE FSL
 SDEP.m                4127.00:  START DEPTH
 TDD .m                5084.50:  TOTAL DEPTH (DRILLER)
 VSDR.deg               140.47:  VERT SEC DIRECT
 GVFD.g                   1.00:  GRAVITY FIELD
 MFLD.nT              50362.00:  MAGNETIC FIELD
 MDIP.deg                59.48:  MAGNETIC DIP
 MDEC.deg                 6.47:  MAGNETIC DECL
 GRDC.deg                 0.31:  GRID CORRECTION
 AZTC.deg                 6.16:  AZM TOTAL CORR
 EPD .m                   0.00:  ELEVATION
 EGL .m                   0.00:  GROUND ELEVATION
 WDMS.m                 151.80:  WD ELEV
 APD .m                  43.60:  DEPTH ABOVE PD
 DEP .m                4092.57:  DEPTH
 AGAP.m                  43.60:  AIR GAP
 VSEW.m                  -0.67:  VERT SEC E/W
 VSNS.m                  -7.04:  VERT SEC N/S
 EKB .m                  43.60:  KB ELEVATION
 EDF .m                  43.60:  DF ELEVATION
 TDL .m                 957.50:  TOTAL DEPTH (LOGGER)
 VSC .                       0:  VS TO CLOSURE
 MAGU.                 1851413:  MAGUTM CHECKSUM
~Parameter Information Block
#MNEM.UNIT       Value        Description
#---------     -----------    ---------------------------
 AV  .mps                 1.50:  Ann Velocity 
 AVMX.mps                 2.00:  Max Ann Veloc 
 AZIF.deg               184.66:  Azm, Final 
 BHAT.        Rotary Steerable:  BHA Type 
 BREV.rev               300.00:  Rev Bit Total 
 BROT.°/30m              -0.50:  Build Rotating 
 BS  .in                  8.50:  Bit Size 
 BSZ .in                  8.50:  Bit Size 
 BTPL.psig              370.00:  Bit Press Loss 
 CABU.                      No:  Customer Abuse 
 CGEO.      Behruz Shahbaliyev:  Customer Geo 
 COMM.                     œþQ:  Run Comments 1 
 TCS .hr                140.08:  Time Ciculation Ended 
 CV  .mps                 3.00:  Crit Velocity 
 CVMX.mps                 3.20:  Max Crit Veloc 
 DD1 .            Musa Ahmadov:  Direct Drillr 1 
 DD2 .           Hamid Ahmadov:  Direct Drillr 2 
 DDSV.               Geo-Pilot:  DD Service 
 DEFF.%                  98.40:  % Det Eff 
 DLRX.°/30m               3.40:  Dogleg Rot Max 
 DLSO.°/30m               1.45:  Dogleg Oriented 
 DLSX.°/30m               3.40:  Dogleg Str Max 
 DRET.      18.40.00 29-Aug-21:  Drill End Time 
 DRST.      21.00.00 20-Aug-21:  Drill Start Tim 
 DTIM.hr                 69.47:  Time Drilling 
 EDEP.m                5084.50:  End Depth 
 ENG1.      Artemiy Matviyanov:  Engineer 1 
 ENG2.         Almaz Almadatov:  Engineer 2 
 ETIM.      18.40.00 29-Aug-21:  End Time 
 FLOI.gpm               500.00:  Flow In 
 FLON.gpm               400.00:  Flow In Min 
 FLOS.cptm                0.00:  Fluid Loss 
 FLOX.gpm               500.00:  Flow In Max 
 DFT .        Mineral Oil Base:  Mud Type 
 HFLO.                      No:  High Flow 
 HPRE.                      No:  High Pressure 
 HTEM.                      No:  High Temp 
 HYDO.m                   1.80:  Hydro Offset 
 IFIN.deg                25.62:  Inc, Final 
 IMAX.deg                48.69:  Inc Max 
 IMIN.deg                24.01:  Inc Min 
 IMND.m                4962.57:  Inc Min Depth 
 IMXD.m                4119.01:  Inc Max Depth 
 JARR.                      No:  Jarring 
 LETM.      18.40.00 29-Aug-21:  Log End Time 
 LOST.hr                     0:  Lost Rig Time 
 LSTM.      21.00.00 20-Aug-21:  Log Start Time 
 MDCL.ppm             41500.00:  Mud Chlorides 
 MDES.     Inversion Oil/Synthetic:  Mud Desc 
 DFD .sg                  1.56:  Mud Density 
 MDMN.sg                  1.56:  Dens Mud Min 
 MDMX.sg                  1.56:  Dens Mud Max 
 MOIL.                      70:  Run Mud Oil % 
 MOWR.                   70:30:  Run Mud OWR 
 MSND.                     0.2:  Run Mud Sand % 
 MSOL.                    23.3:  Run Mud Solids% 
 DFV .spqt               78.00:  Mud Viscosity 
 MWOD.in                  6.75:  MWD Tool OD 
 MWSI.                      No:  Serv Intrp, MWD 
 OTIM.hr                218.30:  Time Operating 
 PCON.           Look Like New:  Pad Condition 
 PMAX.psia            11015.30:  Press Op, Max 
 PV  .cP                 38.00:  Mud PV 
 RUN .                     300:  Run Number 
 ROPA.m/hr               15.00:  ROP Avg 
 ROPN.m/hr                9.00:  ROP Min 
 ROPX.m/hr               17.00:  ROP Max 
 RPMA.rpm               120.00:  RPM Surface Avg 
 RPMN.rpm                90.00:  RPM Surface Min 
 RPMX.rpm               140.00:  RPM Surface Max 
 RRUN.                     300:  Rig Run Number 
 RTIM.hr                 31.53:  Time Reaming 
 SAZI.deg               331.64:  Azm, Start 
 SDEP.m                4127.00:  Start Depth 
 SIDD.                      No:  Serv Intrp, DD 
 SINC.deg                48.43:  Inc, Start 
 SPPA.psig             5830.00:  SPP Avg 
 SPPN.psig             5600.00:  SPP Min 
 SPPX.psig             5900.00:  SPP Max 
 STIM.      21.00.00 20-Aug-21:  Start Time 
 SVCS.                 DD, MWD:  Services 
 SVER.                    9.20:  Sperry Version 
 TDAT.m                 957.50:  Tot Depth Attmp 
 TDDF.                      No:  Trip for DD 
 TDLG.m                 957.50:  Tot Depth Loggd 
 TFF .                      No:  Trip for Fail 
 TQAA.f-kp               15.00:  Torque Abs Avg 
 TQAN.f-kp               12.00:  Torque Abs Min 
 TQAX.f-kp               19.00:  Torque Abs Max 
 TRRT.°/30m              -3.40:  Turn Rotating 
 MRT .                  EWR-M5:  Maximum Recorded Temperature 
 TTMX.degC              100.00:  Max Tool Temp 
 VS01.                90639251:  Virtual Str1 SN 
 VS02.                90634715:  Virtual Str2 SN 
 VS03.                90652479:  Virtual Str3 SN 
 VS04.                90642262:  Virtual Str4 SN 
 WBMN.klb                 0.00:  WOB Min 
 WITN.           Murad Guliyev:  Customer Rep 
 WITN.          Yashar Gaziyev:  Customer Rep 2 
 WOBA.klb                 9.00:  WOB Avg 
 WOBX.klb                12.00:  WOB Max 
 YP  .lhf2               30.00:  Yield Point 
~Curve Information Block
#MNEM.UNIT                 API CODE     Curve Description
#---------               -----------    ---------------------------
 TIME.HHMMSS            00 000 000 000:  GT Time & Date
 GTDEPTH.m              00 000 000 000:  GT Depth
 GTPQH.psia             00 000 000 000:  GT HR Quartz Pressure
 GTTQ.degC              00 000 000 000:  GT Quartz Temperature
 GTTN.NONE              00 000 000 000:  GT Test Number
 GTET.sec               00 000 000 000:  GT Elapsed Test Time
 GTTVD.m                00 000 000 000:  GT True Vertical Depth
#Other Information
#
#WARRANTY: Halliburton will use its best efforts to furnish customers with 
#accurate information and interpretations that are part of, and incident to, the services 
#provided.  However, Halliburton cannot and does not warrant the accuracy 
#or correctness of such information and interpretations.  Under no circumstances should any 
#such information or interpretation be relied upon as the sole basis for any drilling, 
#completion, production, or financial decision or any procedure involving any risk to the 
#safety of any drilling venture, drilling rig or its crew or any other third party.  The 
#Customer has full responsibility for all drilling, completion and production operation.  
#Halliburton makes no representations or warranties, either expressed or 
#implied, including, but not limited to, the implied warranties of merchantability or fitness 
#for a particular purpose, with respect to the services rendered.  In no event will 
#Halliburton be liable for failure to obtain any particular results or for 
#any damages, including, but not limited to, indirect, special or consequential damages, 
#resulting from the use of any information or interpretation provided by Halliburton.
#
~A           TIME           GTDEPTH  GTPQH  GTTQ  GTTN   GTET   GTTVD  
   19:17:17.000.27-Aug-2021 4687.50 7256.42 82.13 20.00   0.00 3056.27
   19:17:17.200.27-Aug-2021 4687.50 7256.42 82.13 20.00   0.20 3056.27
   19:17:17.400.27-Aug-2021 4687.50 7254.95 82.13 20.00   0.40 3056.27
   19:17:17.600.27-Aug-2021 4687.50 7254.89 82.13 20.00   0.60 3056.27
   19:17:17.800.27-Aug-2021 4687.50 7256.34 82.13 20.00   0.80 3056.27
   19:17:18.000.27-Aug-2021 4687.50 7256.86 82.13 20.00   1.00 3056.27
   19:17:18.200.27-Aug-2021 4687.50 7256.86 82.13 20.00   1.20 3056.27
   19:17:18.400.27-Aug-2021 4687.50 7254.96 82.13 20.00   1.40 3056.27
   19:17:18.600.27-Aug-2021 4687.50 7259.43 82.13 20.00   1.60 3056.27
   19:17:18.800.27-Aug-2021 4687.50 7252.15 82.13 20.00   1.80 3056.27
   19:17:19.000.27-Aug-2021 4687.50 7254.98 82.13 20.00   2.00 3056.27
   19:17:19.200.27-Aug-2021 4687.50 7254.98 82.13 20.00   2.20 3056.27
   19:17:19.400.27-Aug-2021 4687.50 7255.41 82.13 20.00   2.40 3056.27
   19:17:19.600.27-Aug-2021 4687.50 7254.00 82.13 20.00   2.60 3056.27
   19:17:19.800.27-Aug-2021 4687.50 7256.33 82.13 20.00   2.80 3056.27
   19:17:20.000.27-Aug-2021 4687.50 7257.40 82.13 20.00   3.00 3056.27
   19:17:20.200.27-Aug-2021 4687.50 7257.40 82.13 20.00   3.20 3056.27
   19:17:20.400.27-Aug-2021 4687.50 7255.65 82.13 20.00   3.40 3056.27
   19:17:20.600.27-Aug-2021 4687.50 7256.05 82.13 20.00   3.60 3056.27
   19:17:20.800.27-Aug-2021 4687.50 7257.48 82.13 20.00   3.80 3056.27
   19:17:21.000.27-Aug-2021 4687.50 7258.30 82.13 20.00   4.00 3056.27
   19:17:21.200.27-Aug-2021 4687.50 7258.30 82.13 20.00   4.20 3056.27
   19:17:21.400.27-Aug-2021 4687.50 7257.22 82.13 20.00   4.40 3056.27
   19:17:21.600.27-Aug-2021 4687.50 7261.40 82.13 20.00   4.60 3056.27
   19:17:21.800.27-Aug-2021 4687.50 7255.77 82.13 20.00   4.80 3056.27
   19:17:22.000.27-Aug-2021 4687.50 7257.94 82.13 20.00   5.00 3056.27
   19:17:22.200.27-Aug-2021 4687.50 7257.94 82.13 20.00   5.20 3056.27
   19:17:22.400.27-Aug-2021 4687.50 7264.21 82.13 20.00   5.40 3056.27
   19:17:22.600.27-Aug-2021 4687.50 7255.36 82.13 20.00   5.60 3056.27
   19:17:22.800.27-Aug-2021 4687.50 7259.55 82.13 20.00   5.80 3056.27
   19:17:23.000.27-Aug-2021 4687.50 7259.40 82.13 20.00   6.00 3056.27
   19:17:23.200.27-Aug-2021 4687.50 7259.40 82.13 20.00   6.20 3056.27
   19:17:23.400.27-Aug-2021 4687.50 7259.40 82.13 20.00   6.40 3056.27
   19:17:23.600.27-Aug-2021 4687.50 7260.25 82.13 20.00   6.60 3056.27
   19:17:23.800.27-Aug-2021 4687.50 7260.70 82.13 20.00   6.80 3056.27
   19:17:24.000.27-Aug-2021 4687.50 7260.52 82.13 20.00   7.00 3056.27
   19:17:24.200.27-Aug-2021 4687.50 7260.52 82.13 20.00   7.20 3056.27
   19:17:24.400.27-Aug-2021 4687.50 7261.16 82.13 20.00   7.40 3056.27
   19:17:24.600.27-Aug-2021 4687.50 7261.40 82.13 20.00   7.60 3056.27
   19:17:24.800.27-Aug-2021 4687.50 7261.62 82.13 20.00   7.80 3056.27
   19:17:25.000.27-Aug-2021 4687.50 7261.84 82.13 20.00   8.00 3056.27
   19:17:25.200.27-Aug-2021 4687.50 7261.84 82.13 20.00   8.20 3056.27
   19:17:25.400.27-Aug-2021 4687.50 7262.59 82.12 20.00   8.40 3056.27
   19:17:25.600.27-Aug-2021 4687.50 7262.67 82.13 20.00   8.60 3056.27
   19:17:25.800.27-Aug-2021 4687.50 7262.81 82.12 20.00   8.80 3056.27
   19:17:26.000.27-Aug-2021 4687.50 7264.11 82.12 20.00   9.00 3056.27
   19:17:26.200.27-Aug-2021 4687.50 7264.11 82.12 20.00   9.20 3056.27
   19:17:26.400.27-Aug-2021 4687.50 7263.11 82.12 20.00   9.40 3056.27
   19:17:26.600.27-Aug-2021 4687.50 7263.43 82.12 20.00   9.60 3056.27
   19:17:26.800.27-Aug-2021 4687.50 7263.34 82.12 20.00   9.80 3056.27
   19:17:27.000.27-Aug-2021 4687.50 7263.75 82.12 20.00  10.00 3056.27
   19:17:27.200.27-Aug-2021 4687.50 7263.75 82.12 20.00  10.20 3056.27
   19:17:27.400.27-Aug-2021 4687.50 7263.90 82.12 20.00  10.40 3056.27
   19:17:27.600.27-Aug-2021 4687.50 7264.50 82.12 20.00  10.60 3056.27
   19:17:27.800.27-Aug-2021 4687.50 7264.36 82.12 20.00  10.80 3056.27
   19:17:28.000.27-Aug-2021 4687.50 7264.60 82.12 20.00  11.00 3056.27
   19:17:28.200.27-Aug-2021 4687.50 7264.60 82.12 20.00  11.20 3056.27
   19:17:28.400.27-Aug-2021 4687.50 7264.79 82.12 20.00  11.40 3056.27
   19:17:28.600.27-Aug-2021 4687.50 7264.82 82.12 20.00  11.60 3056.27
   19:17:28.800.27-Aug-2021 4687.50 7265.06 82.12 20.00  11.80 3056.27
   19:17:29.000.27-Aug-2021 4687.50 7265.19 82.12 20.00  12.00 3056.27
   19:17:29.200.27-Aug-2021 4687.50 7265.19 82.12 20.00  12.20 3056.27
   19:17:29.400.27-Aug-2021 4687.50 7267.86 82.12 20.00  12.40 3056.27
   19:17:29.600.27-Aug-2021 4687.50 7265.99 82.12 20.00  12.60 3056.27
   19:17:29.800.27-Aug-2021 4687.50 7266.40 82.12 20.00  12.80 3056.27
   19:17:30.000.27-Aug-2021 4687.50 7266.50 82.12 20.00  13.00 3056.27
   19:17:30.200.27-Aug-2021 4687.50 7266.50 82.12 20.00  13.20 3056.27
   19:17:30.400.27-Aug-2021 4687.50 7268.40 82.12 20.00  13.40 3056.27
   19:17:30.600.27-Aug-2021 4687.50 7269.37 82.12 20.00  13.60 3056.27
   19:17:30.800.27-Aug-2021 4687.50 7267.80 82.12 20.00  13.80 3056.27
   19:17:31.000.27-Aug-2021 4687.50 7267.79 82.12 20.00  14.00 3056.27
   19:17:31.200.27-Aug-2021 4687.50 7267.79 82.12 20.00  14.20 3056.27
   19:17:31.400.27-Aug-2021 4687.50 7268.13 82.12 20.00  14.40 3056.27
   19:17:31.600.27-Aug-2021 4687.50 7272.88 82.12 20.00  14.60 3056.27
   19:17:31.800.27-Aug-2021 4687.50 7266.68 82.12 20.00  14.80 3056.27
   19:17:32.000.27-Aug-2021 4687.50 7268.99 82.12 20.00  15.00 3056.27
   19:17:32.200.27-Aug-2021 4687.50 7268.99 82.12 20.00  15.20 3056.27
   19:17:32.400.27-Aug-2021 4687.50 7269.23 82.12 20.00  15.40 3056.27
   19:17:32.600.27-Aug-2021 4687.50 7268.46 82.12 20.00  15.60 3056.27
   19:17:32.800.27-Aug-2021 4687.50 7272.85 82.12 20.00  15.80 3056.27
   19:17:33.000.27-Aug-2021 4687.50 7268.86 82.12 20.00  16.00 3056.27
   19:17:33.200.27-Aug-2021 4687.50 7268.86 82.12 20.00  16.20 3056.27
   19:17:33.400.27-Aug-2021 4687.50 7270.49 82.12 20.00  16.40 3056.27
   19:17:33.600.27-Aug-2021 4687.50 7272.71 82.12 20.00  16.60 3056.27
   19:17:33.800.27-Aug-2021 4687.50 7270.16 82.12 20.00  16.80 3056.27
   19:17:34.000.27-Aug-2021 4687.50 7270.49 82.12 20.00  17.00 3056.27
   19:17:34.200.27-Aug-2021 4687.50 7270.49 82.12 20.00  17.20 3056.27
   19:17:34.400.27-Aug-2021 4687.50 7271.09 82.12 20.00  17.40 3056.27
   19:17:34.600.27-Aug-2021 4687.50 7274.96 82.12 20.00  17.60 3056.27
   19:17:34.800.27-Aug-2021 4687.50 7270.62 82.12 20.00  17.80 3056.27
   19:17:35.000.27-Aug-2021 4687.50 7272.22 82.12 20.00  18.00 3056.27
   19:17:35.200.27-Aug-2021 4687.50 7272.22 82.12 20.00  18.20 3056.27
   19:17:35.400.27-Aug-2021 4687.50 7272.65 82.12 20.00  18.40 3056.27
   19:17:35.600.27-Aug-2021 4687.50 7272.04 82.12 20.00  18.60 3056.27
   19:17:35.800.27-Aug-2021 4687.50 7272.29 82.12 20.00  18.80 3056.27
   19:17:36.000.27-Aug-2021 4687.50 7272.94 82.12 20.00  19.00 3056.27
   19:17:36.200.27-Aug-2021 4687.50 7272.94 82.12 20.00  19.20 3056.27
   19:17:36.400.27-Aug-2021 4687.50 7272.94 82.12 20.00  19.40 3056.27
   19:17:36.600.27-Aug-2021 4687.50 7272.95 82.12 20.00  19.60 3056.27
   19:17:36.800.27-Aug-2021 4687.50 7273.00 82.12 20.00  19.80 3056.27
   19:17:37.000.27-Aug-2021 4687.50 7273.14 82.12 20.00  20.00 3056.27
   19:17:37.200.27-Aug-2021 4687.50 7273.14 82.12 20.00  20.20 3056.27
   19:17:37.400.27-Aug-2021 4687.50 7273.35 82.12 20.00  20.40 3056.27
   19:17:37.600.27-Aug-2021 4687.50 7273.44 82.12 20.00  20.60 3056.27
   19:17:37.800.27-Aug-2021 4687.50 7277.19 82.12 20.00  20.80 3056.27
   19:17:38.000.27-Aug-2021 4687.50 7273.10 82.12 20.00  21.00 3056.27
   19:17:38.200.27-Aug-2021 4687.50 7273.10 82.12 20.00  21.20 3056.27
   19:17:38.400.27-Aug-2021 4687.50 7273.91 82.12 20.00  21.40 3056.27
   19:17:38.600.27-Aug-2021 4687.50 7274.78 82.12 20.00  21.60 3056.27
   19:17:38.800.27-Aug-2021 4687.50 7274.40 82.12 20.00  21.80 3056.27
   19:17:39.000.27-Aug-2021 4687.50 7274.84 82.12 20.00  22.00 3056.27
   19:17:39.200.27-Aug-2021 4687.50 7274.84 82.12 20.00  22.20 3056.27
   19:17:39.400.27-Aug-2021 4687.50 7275.42 82.12 20.00  22.40 3056.27
