~Version Information
 VERS.                  2.0:   CWLS log ASCII Standard -VERSION 2.0
 WRAP.                   NO:   One line per depth step
~Well Information Block
#MNEM.UNIT     VALUE/NAME     DESCRIPTION
#---------     -----------    ---------------------------
 STRT.S             22:11:58 27-Aug-21: START TIME 22:11:58 27-Aug-21
 STOP.S             22:18:52 27-Aug-21: STOP TIME  22:18:52 27-Aug-21
 STEP.S                   0.00: STEP TIME
 NULL.                 -999.25: NULL VALUE
 DFWT.                        :  DIST FWL TEXT
 DFST.                        :  DIST FSL TEXT
 DMF .             Drill Floor:  DRILL MEAS FROM
 STIM.      20.00.00 17-Aug-21:  START TIME
 DATE.      19.00.00 29-Aug-21:  END TIME
 SPUD.               15-Aug-21:  SPUD DATE
 NREF.                    Grid:  NORTH REFERENCE
 HPTY.       Minimum Curvature:  HOLE POS TYPE
 DMOD.             Drill Model:  DRILL MOD DESC
 SVYD.                  Survey:  SURVEY DESC
 ILTD.               Lithology:  INTERP LTH DESC
 FTOP.          Formation Tops:  FORM TOPS DESC
 RIG .              East Azeri:  RIG NAME
 PDAT.          Mean Sea Level:  PERMANENT DATUM
 FLD .                     ACG:  FIELD NAME
 SON .        AZ-XX-0907180857:  JOB NUMBER
 CTRY.              Azerbaijan:  COUNTRY NAME
 WELL.                    D23x:  WELL NAME
 SRVC.     Turan Drilling and Engineering:  CONTRACTOR
 COMP.     BP Exploration (Caspian Sea) Ltd.:  COMPANY
 UWI .            /AZE00000214:  UNIQUE WELL IDENTIFIER
 API .            /AZE00000214:  API NUMBER
 MDS .        Operator Entered:  MAG DATA SOURCE
 BASE.              Azerbaijan:  LOGGING EQUIPMENT BASE LOCATION
 REGN.                   EESSA:  REGION
 PROV.                    Baku:  PROVINCE
 STAT.                    Baku:  STATE NAME
 MWDS.                    Baku:  MWD SHOP
 DOE .                     N/A:  DOE NUMBER
 DCON.         Sperry Drilling:  DIRECTNL CONTR
 UNIT.                     N/A:  LOGGING EQUIPMENT ID
 WTYP.                Deviated:  WELL TYPE
 CNTY.                        :  COUNTY
 LOC .                        :  LOCATION
 LMF .             Drill Floor:  LOG MEASURED FROM
 TVDS.m                  43.60:  TVDSS CORRECTN
 LATI.deg                40.02:  LATITUDE
 LONG.deg                51.45:  LONGITUDE
 WHNS.m                  -7.04:  WELL HEAD N/S
 WHEW.m                  -0.67:  WELL HEAD E/W
 UTMX.m              538762.90:  UTM X
 UTMY.m             4431871.34:  UTM Y
 DFWL.m                   0.00:  DISTANCE FWL
 DFSL.m                   0.00:  DISTANCE FSL
 SDEP.m                4127.00:  START DEPTH
 TDD .m                5084.50:  TOTAL DEPTH (DRILLER)
 VSDR.deg               140.47:  VERT SEC DIRECT
 GVFD.g                   1.00:  GRAVITY FIELD
 MFLD.nT              50362.00:  MAGNETIC FIELD
 MDIP.deg                59.48:  MAGNETIC DIP
 MDEC.deg                 6.47:  MAGNETIC DECL
 GRDC.deg                 0.31:  GRID CORRECTION
 AZTC.deg                 6.16:  AZM TOTAL CORR
 EPD .m                   0.00:  ELEVATION
 EGL .m                   0.00:  GROUND ELEVATION
 WDMS.m                 151.80:  WD ELEV
 APD .m                  43.60:  DEPTH ABOVE PD
 DEP .m                4092.57:  DEPTH
 AGAP.m                  43.60:  AIR GAP
 VSEW.m                  -0.67:  VERT SEC E/W
 VSNS.m                  -7.04:  VERT SEC N/S
 EKB .m                  43.60:  KB ELEVATION
 EDF .m                  43.60:  DF ELEVATION
 TDL .m                 957.50:  TOTAL DEPTH (LOGGER)
 VSC .                       0:  VS TO CLOSURE
 MAGU.                 1851413:  MAGUTM CHECKSUM
~Parameter Information Block
#MNEM.UNIT       Value        Description
#---------     -----------    ---------------------------
 AV  .mps                 1.50:  Ann Velocity 
 AVMX.mps                 2.00:  Max Ann Veloc 
 AZIF.deg               184.66:  Azm, Final 
 BHAT.        Rotary Steerable:  BHA Type 
 BREV.rev               300.00:  Rev Bit Total 
 BROT.°/30m              -0.50:  Build Rotating 
 BS  .in                  8.50:  Bit Size 
 BSZ .in                  8.50:  Bit Size 
 BTPL.psig              370.00:  Bit Press Loss 
 CABU.                      No:  Customer Abuse 
 CGEO.      Behruz Shahbaliyev:  Customer Geo 
 COMM.                     Tªl:  Run Comments 1 
 TCS .hr                140.08:  Time Ciculation Ended 
 CV  .mps                 3.00:  Crit Velocity 
 CVMX.mps                 3.20:  Max Crit Veloc 
 DD1 .            Musa Ahmadov:  Direct Drillr 1 
 DD2 .           Hamid Ahmadov:  Direct Drillr 2 
 DDSV.               Geo-Pilot:  DD Service 
 DEFF.%                  98.40:  % Det Eff 
 DLRX.°/30m               3.40:  Dogleg Rot Max 
 DLSO.°/30m               1.45:  Dogleg Oriented 
 DLSX.°/30m               3.40:  Dogleg Str Max 
 DRET.      18.40.00 29-Aug-21:  Drill End Time 
 DRST.      21.00.00 20-Aug-21:  Drill Start Tim 
 DTIM.hr                 69.47:  Time Drilling 
 EDEP.m                5084.50:  End Depth 
 ENG1.      Artemiy Matviyanov:  Engineer 1 
 ENG2.         Almaz Almadatov:  Engineer 2 
 ETIM.      18.40.00 29-Aug-21:  End Time 
 FLOI.gpm               500.00:  Flow In 
 FLON.gpm               400.00:  Flow In Min 
 FLOS.cptm                0.00:  Fluid Loss 
 FLOX.gpm               500.00:  Flow In Max 
 DFT .        Mineral Oil Base:  Mud Type 
 HFLO.                      No:  High Flow 
 HPRE.                      No:  High Pressure 
 HTEM.                      No:  High Temp 
 HYDO.m                   1.80:  Hydro Offset 
 IFIN.deg                25.62:  Inc, Final 
 IMAX.deg                48.69:  Inc Max 
 IMIN.deg                24.01:  Inc Min 
 IMND.m                4962.57:  Inc Min Depth 
 IMXD.m                4119.01:  Inc Max Depth 
 JARR.                      No:  Jarring 
 LETM.      18.40.00 29-Aug-21:  Log End Time 
 LOST.hr                     0:  Lost Rig Time 
 LSTM.      21.00.00 20-Aug-21:  Log Start Time 
 MDCL.ppm             41500.00:  Mud Chlorides 
 MDES.     Inversion Oil/Synthetic:  Mud Desc 
 DFD .sg                  1.56:  Mud Density 
 MDMN.sg                  1.56:  Dens Mud Min 
 MDMX.sg                  1.56:  Dens Mud Max 
 MOIL.                      70:  Run Mud Oil % 
 MOWR.                   70:30:  Run Mud OWR 
 MSND.                     0.2:  Run Mud Sand % 
 MSOL.                    23.3:  Run Mud Solids% 
 DFV .spqt               78.00:  Mud Viscosity 
 MWOD.in                  6.75:  MWD Tool OD 
 MWSI.                      No:  Serv Intrp, MWD 
 OTIM.hr                218.30:  Time Operating 
 PCON.           Look Like New:  Pad Condition 
 PMAX.psia            11015.30:  Press Op, Max 
 PV  .cP                 38.00:  Mud PV 
 RUN .                     300:  Run Number 
 ROPA.m/hr               15.00:  ROP Avg 
 ROPN.m/hr                9.00:  ROP Min 
 ROPX.m/hr               17.00:  ROP Max 
 RPMA.rpm               120.00:  RPM Surface Avg 
 RPMN.rpm                90.00:  RPM Surface Min 
 RPMX.rpm               140.00:  RPM Surface Max 
 RRUN.                     300:  Rig Run Number 
 RTIM.hr                 31.53:  Time Reaming 
 SAZI.deg               331.64:  Azm, Start 
 SDEP.m                4127.00:  Start Depth 
 SIDD.                      No:  Serv Intrp, DD 
 SINC.deg                48.43:  Inc, Start 
 SPPA.psig             5830.00:  SPP Avg 
 SPPN.psig             5600.00:  SPP Min 
 SPPX.psig             5900.00:  SPP Max 
 STIM.      21.00.00 20-Aug-21:  Start Time 
 SVCS.                 DD, MWD:  Services 
 SVER.                    9.20:  Sperry Version 
 TDAT.m                 957.50:  Tot Depth Attmp 
 TDDF.                      No:  Trip for DD 
 TDLG.m                 957.50:  Tot Depth Loggd 
 TFF .                      No:  Trip for Fail 
 TQAA.f-kp               15.00:  Torque Abs Avg 
 TQAN.f-kp               12.00:  Torque Abs Min 
 TQAX.f-kp               19.00:  Torque Abs Max 
 TRRT.°/30m              -3.40:  Turn Rotating 
 MRT .                  EWR-M5:  Maximum Recorded Temperature 
 TTMX.degC              100.00:  Max Tool Temp 
 VS01.                90639251:  Virtual Str1 SN 
 VS02.                90634715:  Virtual Str2 SN 
 VS03.                90652479:  Virtual Str3 SN 
 VS04.                90642262:  Virtual Str4 SN 
 WBMN.klb                 0.00:  WOB Min 
 WITN.           Murad Guliyev:  Customer Rep 
 WITN.          Yashar Gaziyev:  Customer Rep 2 
 WOBA.klb                 9.00:  WOB Avg 
 WOBX.klb                12.00:  WOB Max 
 YP  .lhf2               30.00:  Yield Point 
~Curve Information Block
#MNEM.UNIT                 API CODE     Curve Description
#---------               -----------    ---------------------------
 TIME.HHMMSS            00 000 000 000:  GT Time & Date
 GTDEPTH.m              00 000 000 000:  GT Depth
 GTPQH.psia             00 000 000 000:  GT HR Quartz Pressure
 GTTQ.degC              00 000 000 000:  GT Quartz Temperature
 GTTN.NONE              00 000 000 000:  GT Test Number
 GTET.sec               00 000 000 000:  GT Elapsed Test Time
 GTTVD.m                00 000 000 000:  GT True Vertical Depth
#Other Information
#
#WARRANTY: Halliburton will use its best efforts to furnish customers with 
#accurate information and interpretations that are part of, and incident to, the services 
#provided.  However, Halliburton cannot and does not warrant the accuracy 
#or correctness of such information and interpretations.  Under no circumstances should any 
#such information or interpretation be relied upon as the sole basis for any drilling, 
#completion, production, or financial decision or any procedure involving any risk to the 
#safety of any drilling venture, drilling rig or its crew or any other third party.  The 
#Customer has full responsibility for all drilling, completion and production operation.  
#Halliburton makes no representations or warranties, either expressed or 
#implied, including, but not limited to, the implied warranties of merchantability or fitness 
#for a particular purpose, with respect to the services rendered.  In no event will 
#Halliburton be liable for failure to obtain any particular results or for 
#any damages, including, but not limited to, indirect, special or consequential damages, 
#resulting from the use of any information or interpretation provided by Halliburton.
#
~A           TIME           GTDEPTH  GTPQH  GTTQ  GTTN   GTET   GTTVD  
# ...
   22:13:51.557.27-Aug-2021 4635.80 3676.14 82.43 24.00 113.01 3009.39
   22:13:51.757.27-Aug-2021 4635.80 3676.14 82.43 24.00 113.21 3009.39
   22:13:51.957.27-Aug-2021 4635.80 3686.91 82.43 24.00 113.41 3009.39
   22:13:52.157.27-Aug-2021 4635.80 3690.43 82.43 24.00 113.61 3009.39
   22:13:52.357.27-Aug-2021 4635.80 3695.73 82.43 24.00 113.81 3009.39
   22:13:52.557.27-Aug-2021 4635.80 3700.97 82.43 24.00 114.01 3009.39
   22:13:52.757.27-Aug-2021 4635.80 3700.97 82.43 24.00 114.21 3009.39
   22:13:52.957.27-Aug-2021 4635.80 3710.22 82.43 24.00 114.41 3009.39
   22:13:53.157.27-Aug-2021 4635.80 3714.10 82.43 24.00 114.61 3009.39
   22:13:53.358.27-Aug-2021 4635.80 3719.27 82.43 24.00 114.81 3009.39
   22:13:53.558.27-Aug-2021 4635.80 3724.40 82.43 24.00 115.01 3009.39
   22:13:53.758.27-Aug-2021 4635.80 3724.40 82.43 24.00 115.21 3009.39
   22:13:53.958.27-Aug-2021 4635.80 3734.67 82.43 24.00 115.41 3009.39
   22:13:54.158.27-Aug-2021 4635.80 3739.49 82.43 24.00 115.61 3009.39
   22:13:54.358.27-Aug-2021 4635.80 3743.94 82.43 24.00 115.81 3009.39
   22:13:54.558.27-Aug-2021 4635.80 3749.01 82.43 24.00 116.01 3009.39
   22:13:54.758.27-Aug-2021 4635.80 3749.01 82.43 24.00 116.21 3009.39
   22:13:54.958.27-Aug-2021 4635.80 3754.06 82.43 24.00 116.41 3009.39
   22:13:55.158.27-Aug-2021 4635.80 3763.94 82.43 24.00 116.61 3009.39
   22:13:55.358.27-Aug-2021 4635.80 3768.64 82.43 24.00 116.81 3009.39
   22:13:55.558.27-Aug-2021 4635.80 3772.76 82.43 24.00 117.01 3009.39
   22:13:55.758.27-Aug-2021 4635.80 3772.76 82.43 24.00 117.21 3009.39
   22:13:55.958.27-Aug-2021 4635.80 3782.37 82.43 24.00 117.41 3009.39
   22:13:56.158.27-Aug-2021 4635.80 3787.19 82.43 24.00 117.61 3009.39
   22:13:56.358.27-Aug-2021 4635.80 3790.25 82.43 24.00 117.81 3009.39
   22:13:56.558.27-Aug-2021 4635.80 3794.77 82.43 24.00 118.01 3009.39
   22:13:56.758.27-Aug-2021 4635.80 3794.77 82.43 24.00 118.21 3009.39
   22:13:56.958.27-Aug-2021 4635.80 3803.49 82.43 24.00 118.41 3009.39
   22:13:57.158.27-Aug-2021 4635.80 3807.54 82.43 24.00 118.61 3009.39
   22:13:57.358.27-Aug-2021 4635.80 3812.38 82.43 24.00 118.81 3009.39
   22:13:57.558.27-Aug-2021 4635.80 3816.98 82.43 24.00 119.01 3009.39
   22:13:57.758.27-Aug-2021 4635.80 3816.98 82.43 24.00 119.21 3009.39
   22:13:57.958.27-Aug-2021 4635.80 3826.19 82.43 24.00 119.41 3009.39
   22:13:58.158.27-Aug-2021 4635.80 3830.74 82.43 24.00 119.61 3009.39
   22:13:58.358.27-Aug-2021 4635.80 3835.13 82.43 24.00 119.81 3009.39
   22:13:58.558.27-Aug-2021 4635.80 3838.59 82.43 24.00 120.01 3009.39
   22:13:58.758.27-Aug-2021 4635.80 3838.59 82.43 24.00 120.21 3009.39
   22:13:58.958.27-Aug-2021 4635.80 3847.33 82.43 24.00 120.41 3009.39
   22:13:59.158.27-Aug-2021 4635.80 3851.76 82.43 24.00 120.61 3009.39
   22:13:59.358.27-Aug-2021 4635.80 3856.10 82.43 24.00 120.81 3009.39
   22:13:59.558.27-Aug-2021 4635.80 3858.75 82.43 24.00 121.01 3009.39
   22:13:59.758.27-Aug-2021 4635.80 3858.75 82.43 24.00 121.21 3009.39
   22:13:59.958.27-Aug-2021 4635.80 3867.00 82.43 24.00 121.41 3009.39
   22:14:00.158.27-Aug-2021 4635.80 3871.13 82.43 24.00 121.61 3009.39
   22:14:00.358.27-Aug-2021 4635.80 3874.40 82.43 24.00 121.81 3009.39
   22:14:00.558.27-Aug-2021 4635.80 3877.25 82.43 24.00 122.01 3009.39
   22:14:00.758.27-Aug-2021 4635.80 3877.25 82.43 24.00 122.21 3009.39
   22:14:00.958.27-Aug-2021 4635.80 3885.33 82.43 24.00 122.41 3009.39
   22:14:01.158.27-Aug-2021 4635.80 3888.87 82.43 24.00 122.61 3009.39
   22:14:01.358.27-Aug-2021 4635.80 3892.75 82.43 24.00 122.81 3009.39
   22:14:01.558.27-Aug-2021 4635.80 3896.62 82.43 24.00 123.01 3009.39
   22:14:01.758.27-Aug-2021 4635.80 3896.62 82.43 24.00 123.21 3009.39
   22:14:01.958.27-Aug-2021 4635.80 3904.02 82.43 24.00 123.41 3009.39
   22:14:02.158.27-Aug-2021 4635.80 3907.74 82.43 24.00 123.61 3009.39
   22:14:02.358.27-Aug-2021 4635.80 3910.29 82.43 24.00 123.81 3009.39
   22:14:02.558.27-Aug-2021 4635.80 3913.96 82.43 24.00 124.01 3009.39
   22:14:02.758.27-Aug-2021 4635.80 3913.96 82.43 24.00 124.21 3009.39
   22:14:02.958.27-Aug-2021 4635.80 3921.97 82.43 24.00 124.41 3009.39
   22:14:03.159.27-Aug-2021 4635.80 3925.83 82.43 24.00 124.61 3009.39
   22:14:03.359.27-Aug-2021 4635.80 3929.83 82.43 24.00 124.81 3009.39
   22:14:03.559.27-Aug-2021 4635.80 3933.72 82.43 24.00 125.01 3009.39
   22:14:03.759.27-Aug-2021 4635.80 3933.72 82.43 24.00 125.21 3009.39
   22:14:03.959.27-Aug-2021 4635.80 3941.37 82.43 24.00 125.41 3009.39
   22:14:04.159.27-Aug-2021 4635.80 3944.98 82.43 24.00 125.61 3009.39
   22:14:04.359.27-Aug-2021 4635.80 3947.80 82.43 24.00 125.81 3009.39
   22:14:04.559.27-Aug-2021 4635.80 3951.45 82.43 24.00 126.01 3009.39
   22:14:04.759.27-Aug-2021 4635.80 3951.45 82.43 24.00 126.21 3009.39
   22:14:04.959.27-Aug-2021 4635.80 3958.91 82.43 24.00 126.41 3009.39
   22:14:05.159.27-Aug-2021 4635.80 3962.59 82.43 24.00 126.61 3009.39
   22:14:05.359.27-Aug-2021 4635.80 3964.37 82.43 24.00 126.81 3009.39
   22:14:05.559.27-Aug-2021 4635.80 3967.93 82.43 24.00 127.01 3009.39
   22:14:05.759.27-Aug-2021 4635.80 3967.93 82.43 24.00 127.21 3009.39
   22:14:05.959.27-Aug-2021 4635.80 3967.93 82.43 24.00 127.41 3009.39
   22:14:06.159.27-Aug-2021 4635.80 3978.48 82.43 24.00 127.61 3009.39
   22:14:06.359.27-Aug-2021 4635.80 3982.05 82.43 24.00 127.81 3009.39
   22:14:06.559.27-Aug-2021 4635.80 3984.54 82.43 24.00 128.01 3009.39
   22:14:06.759.27-Aug-2021 4635.80 3984.54 82.43 24.00 128.21 3009.39
   22:14:06.959.27-Aug-2021 4635.80 3991.20 82.43 24.00 128.41 3009.39
   22:14:07.159.27-Aug-2021 4635.80 3994.67 82.43 24.00 128.61 3009.39
   22:14:07.359.27-Aug-2021 4635.80 3998.16 82.43 24.00 128.81 3009.39
   22:14:07.559.27-Aug-2021 4635.80 4001.59 82.43 24.00 129.01 3009.39
   22:14:07.759.27-Aug-2021 4635.80 4001.59 82.43 24.00 129.21 3009.39
   22:14:07.959.27-Aug-2021 4635.80 4008.32 82.43 24.00 129.41 3009.39
   22:14:08.159.27-Aug-2021 4635.80 4011.62 82.43 24.00 129.61 3009.39
   22:14:08.359.27-Aug-2021 4635.80 4014.84 82.43 24.00 129.81 3009.39
   22:14:08.559.27-Aug-2021 4635.80 4016.17 82.43 24.00 130.01 3009.39
   22:14:08.759.27-Aug-2021 4635.80 4016.17 82.43 24.00 130.21 3009.39
   22:14:08.959.27-Aug-2021 4635.80 4022.23 82.43 24.00 130.41 3009.39
   22:14:09.159.27-Aug-2021 4635.80 4025.56 82.43 24.00 130.61 3009.39
   22:14:09.359.27-Aug-2021 4635.80 4028.26 82.43 24.00 130.81 3009.39
   22:14:09.559.27-Aug-2021 4635.80 4030.76 82.44 24.00 131.01 3009.39
   22:14:09.759.27-Aug-2021 4635.80 4030.76 82.44 24.00 131.21 3009.39
   22:14:09.959.27-Aug-2021 4635.80 4035.71 82.43 24.00 131.41 3009.39
   22:14:10.159.27-Aug-2021 4635.80 4038.81 82.44 24.00 131.61 3009.39
   22:14:10.359.27-Aug-2021 4635.80 4041.71 82.43 24.00 131.81 3009.39
   22:14:10.559.27-Aug-2021 4635.80 4044.90 82.43 24.00 132.01 3009.39
   22:14:10.759.27-Aug-2021 4635.80 4044.90 82.43 24.00 132.21 3009.39
   22:14:10.959.27-Aug-2021 4635.80 4048.06 82.44 24.00 132.41 3009.39
   22:14:11.159.27-Aug-2021 4635.80 4054.41 82.44 24.00 132.61 3009.39
   22:14:11.359.27-Aug-2021 4635.80 4055.99 82.44 24.00 132.81 3009.39
   22:14:11.559.27-Aug-2021 4635.80 4058.87 82.44 24.00 133.01 3009.39
   22:14:11.759.27-Aug-2021 4635.80 4058.87 82.44 24.00 133.21 3009.39
   22:14:11.959.27-Aug-2021 4635.80 4064.69 82.43 24.00 133.41 3009.39
   22:14:12.159.27-Aug-2021 4635.80 4067.69 82.44 24.00 133.61 3009.39
   22:14:12.359.27-Aug-2021 4635.80 4070.77 82.44 24.00 133.81 3009.39
   22:14:12.559.27-Aug-2021 4635.80 4072.04 82.44 24.00 134.01 3009.39
   22:14:12.759.27-Aug-2021 4635.80 4072.04 82.44 24.00 134.21 3009.39
   22:14:12.960.27-Aug-2021 4635.80 4076.68 82.44 24.00 134.41 3009.39
   22:14:13.160.27-Aug-2021 4635.80 4079.49 82.44 24.00 134.61 3009.39
   22:14:13.360.27-Aug-2021 4635.80 4082.35 82.44 24.00 134.81 3009.39
   22:14:13.560.27-Aug-2021 4635.80 4085.39 82.44 24.00 135.01 3009.39
   22:14:13.760.27-Aug-2021 4635.80 4085.39 82.44 24.00 135.21 3009.39
   22:14:13.960.27-Aug-2021 4635.80 4091.36 82.44 24.00 135.41 3009.39
