~Version Information
 VERS.                  2.0:   CWLS log ASCII Standard -VERSION 2.0
 WRAP.                   NO:   One line per depth step
~Well Information Block
#MNEM.UNIT     VALUE/NAME     DESCRIPTION
#---------     -----------    ---------------------------
 STRT.S             21:02:56 27-Aug-21: START TIME 21:02:56 27-Aug-21
 STOP.S             21:10:06 27-Aug-21: STOP TIME  21:10:06 27-Aug-21
 STEP.S                   0.00: STEP TIME
 NULL.                 -999.25: NULL VALUE
 DFWT.                        :  DIST FWL TEXT
 DFST.                        :  DIST FSL TEXT
 DMF .             Drill Floor:  DRILL MEAS FROM
 STIM.      20.00.00 17-Aug-21:  START TIME
 DATE.      19.00.00 29-Aug-21:  END TIME
 SPUD.               15-Aug-21:  SPUD DATE
 NREF.                    Grid:  NORTH REFERENCE
 HPTY.       Minimum Curvature:  HOLE POS TYPE
 DMOD.             Drill Model:  DRILL MOD DESC
 SVYD.                  Survey:  SURVEY DESC
 ILTD.               Lithology:  INTERP LTH DESC
 FTOP.          Formation Tops:  FORM TOPS DESC
 RIG .              East Azeri:  RIG NAME
 PDAT.          Mean Sea Level:  PERMANENT DATUM
 FLD .                     ACG:  FIELD NAME
 SON .        AZ-XX-0907180857:  JOB NUMBER
 CTRY.              Azerbaijan:  COUNTRY NAME
 WELL.                    D23x:  WELL NAME
 SRVC.     Turan Drilling and Engineering:  CONTRACTOR
 COMP.     BP Exploration (Caspian Sea) Ltd.:  COMPANY
 UWI .            /AZE00000214:  UNIQUE WELL IDENTIFIER
 API .            /AZE00000214:  API NUMBER
 MDS .        Operator Entered:  MAG DATA SOURCE
 BASE.              Azerbaijan:  LOGGING EQUIPMENT BASE LOCATION
 REGN.                   EESSA:  REGION
 PROV.                    Baku:  PROVINCE
 STAT.                    Baku:  STATE NAME
 MWDS.                    Baku:  MWD SHOP
 DOE .                     N/A:  DOE NUMBER
 DCON.         Sperry Drilling:  DIRECTNL CONTR
 UNIT.                     N/A:  LOGGING EQUIPMENT ID
 WTYP.                Deviated:  WELL TYPE
 CNTY.                        :  COUNTY
 LOC .                        :  LOCATION
 LMF .             Drill Floor:  LOG MEASURED FROM
 TVDS.m                  43.60:  TVDSS CORRECTN
 LATI.deg                40.02:  LATITUDE
 LONG.deg                51.45:  LONGITUDE
 WHNS.m                  -7.04:  WELL HEAD N/S
 WHEW.m                  -0.67:  WELL HEAD E/W
 UTMX.m              538762.90:  UTM X
 UTMY.m             4431871.34:  UTM Y
 DFWL.m                   0.00:  DISTANCE FWL
 DFSL.m                   0.00:  DISTANCE FSL
 SDEP.m                4127.00:  START DEPTH
 TDD .m                5084.50:  TOTAL DEPTH (DRILLER)
 VSDR.deg               140.47:  VERT SEC DIRECT
 GVFD.g                   1.00:  GRAVITY FIELD
 MFLD.nT              50362.00:  MAGNETIC FIELD
 MDIP.deg                59.48:  MAGNETIC DIP
 MDEC.deg                 6.47:  MAGNETIC DECL
 GRDC.deg                 0.31:  GRID CORRECTION
 AZTC.deg                 6.16:  AZM TOTAL CORR
 EPD .m                   0.00:  ELEVATION
 EGL .m                   0.00:  GROUND ELEVATION
 WDMS.m                 151.80:  WD ELEV
 APD .m                  43.60:  DEPTH ABOVE PD
 DEP .m                4092.57:  DEPTH
 AGAP.m                  43.60:  AIR GAP
 VSEW.m                  -0.67:  VERT SEC E/W
 VSNS.m                  -7.04:  VERT SEC N/S
 EKB .m                  43.60:  KB ELEVATION
 EDF .m                  43.60:  DF ELEVATION
 TDL .m                 957.50:  TOTAL DEPTH (LOGGER)
 VSC .                       0:  VS TO CLOSURE
 MAGU.                 1851413:  MAGUTM CHECKSUM
~Parameter Information Block
#MNEM.UNIT       Value        Description
#---------     -----------    ---------------------------
 AV  .mps                 1.50:  Ann Velocity 
 AVMX.mps                 2.00:  Max Ann Veloc 
 AZIF.deg               184.66:  Azm, Final 
 BHAT.        Rotary Steerable:  BHA Type 
 BREV.rev               300.00:  Rev Bit Total 
 BROT.°/30m              -0.50:  Build Rotating 
 BS  .in                  8.50:  Bit Size 
 BSZ .in                  8.50:  Bit Size 
 BTPL.psig              370.00:  Bit Press Loss 
 CABU.                      No:  Customer Abuse 
 CGEO.      Behruz Shahbaliyev:  Customer Geo 
 COMM.                     <]h:  Run Comments 1 
 TCS .hr                140.08:  Time Ciculation Ended 
 CV  .mps                 3.00:  Crit Velocity 
 CVMX.mps                 3.20:  Max Crit Veloc 
 DD1 .            Musa Ahmadov:  Direct Drillr 1 
 DD2 .           Hamid Ahmadov:  Direct Drillr 2 
 DDSV.               Geo-Pilot:  DD Service 
 DEFF.%                  98.40:  % Det Eff 
 DLRX.°/30m               3.40:  Dogleg Rot Max 
 DLSO.°/30m               1.45:  Dogleg Oriented 
 DLSX.°/30m               3.40:  Dogleg Str Max 
 DRET.      18.40.00 29-Aug-21:  Drill End Time 
 DRST.      21.00.00 20-Aug-21:  Drill Start Tim 
 DTIM.hr                 69.47:  Time Drilling 
 EDEP.m                5084.50:  End Depth 
 ENG1.      Artemiy Matviyanov:  Engineer 1 
 ENG2.         Almaz Almadatov:  Engineer 2 
 ETIM.      18.40.00 29-Aug-21:  End Time 
 FLOI.gpm               500.00:  Flow In 
 FLON.gpm               400.00:  Flow In Min 
 FLOS.cptm                0.00:  Fluid Loss 
 FLOX.gpm               500.00:  Flow In Max 
 DFT .        Mineral Oil Base:  Mud Type 
 HFLO.                      No:  High Flow 
 HPRE.                      No:  High Pressure 
 HTEM.                      No:  High Temp 
 HYDO.m                   1.80:  Hydro Offset 
 IFIN.deg                25.62:  Inc, Final 
 IMAX.deg                48.69:  Inc Max 
 IMIN.deg                24.01:  Inc Min 
 IMND.m                4962.57:  Inc Min Depth 
 IMXD.m                4119.01:  Inc Max Depth 
 JARR.                      No:  Jarring 
 LETM.      18.40.00 29-Aug-21:  Log End Time 
 LOST.hr                     0:  Lost Rig Time 
 LSTM.      21.00.00 20-Aug-21:  Log Start Time 
 MDCL.ppm             41500.00:  Mud Chlorides 
 MDES.     Inversion Oil/Synthetic:  Mud Desc 
 DFD .sg                  1.56:  Mud Density 
 MDMN.sg                  1.56:  Dens Mud Min 
 MDMX.sg                  1.56:  Dens Mud Max 
 MOIL.                      70:  Run Mud Oil % 
 MOWR.                   70:30:  Run Mud OWR 
 MSND.                     0.2:  Run Mud Sand % 
 MSOL.                    23.3:  Run Mud Solids% 
 DFV .spqt               78.00:  Mud Viscosity 
 MWOD.in                  6.75:  MWD Tool OD 
 MWSI.                      No:  Serv Intrp, MWD 
 OTIM.hr                218.30:  Time Operating 
 PCON.           Look Like New:  Pad Condition 
 PMAX.psia            11015.30:  Press Op, Max 
 PV  .cP                 38.00:  Mud PV 
 RUN .                     300:  Run Number 
 ROPA.m/hr               15.00:  ROP Avg 
 ROPN.m/hr                9.00:  ROP Min 
 ROPX.m/hr               17.00:  ROP Max 
 RPMA.rpm               120.00:  RPM Surface Avg 
 RPMN.rpm                90.00:  RPM Surface Min 
 RPMX.rpm               140.00:  RPM Surface Max 
 RRUN.                     300:  Rig Run Number 
 RTIM.hr                 31.53:  Time Reaming 
 SAZI.deg               331.64:  Azm, Start 
 SDEP.m                4127.00:  Start Depth 
 SIDD.                      No:  Serv Intrp, DD 
 SINC.deg                48.43:  Inc, Start 
 SPPA.psig             5830.00:  SPP Avg 
 SPPN.psig             5600.00:  SPP Min 
 SPPX.psig             5900.00:  SPP Max 
 STIM.      21.00.00 20-Aug-21:  Start Time 
 SVCS.                 DD, MWD:  Services 
 SVER.                    9.20:  Sperry Version 
 TDAT.m                 957.50:  Tot Depth Attmp 
 TDDF.                      No:  Trip for DD 
 TDLG.m                 957.50:  Tot Depth Loggd 
 TFF .                      No:  Trip for Fail 
 TQAA.f-kp               15.00:  Torque Abs Avg 
 TQAN.f-kp               12.00:  Torque Abs Min 
 TQAX.f-kp               19.00:  Torque Abs Max 
 TRRT.°/30m              -3.40:  Turn Rotating 
 MRT .                  EWR-M5:  Maximum Recorded Temperature 
 TTMX.degC              100.00:  Max Tool Temp 
 VS01.                90639251:  Virtual Str1 SN 
 VS02.                90634715:  Virtual Str2 SN 
 VS03.                90652479:  Virtual Str3 SN 
 VS04.                90642262:  Virtual Str4 SN 
 WBMN.klb                 0.00:  WOB Min 
 WITN.           Murad Guliyev:  Customer Rep 
 WITN.          Yashar Gaziyev:  Customer Rep 2 
 WOBA.klb                 9.00:  WOB Avg 
 WOBX.klb                12.00:  WOB Max 
 YP  .lhf2               30.00:  Yield Point 
~Curve Information Block
#MNEM.UNIT                 API CODE     Curve Description
#---------               -----------    ---------------------------
 TIME.HHMMSS            00 000 000 000:  GT Time & Date
 GTDEPTH.m              00 000 000 000:  GT Depth
 GTPQH.psia             00 000 000 000:  GT HR Quartz Pressure
 GTTQ.degC              00 000 000 000:  GT Quartz Temperature
 GTTN.NONE              00 000 000 000:  GT Test Number
 GTET.sec               00 000 000 000:  GT Elapsed Test Time
 GTTVD.m                00 000 000 000:  GT True Vertical Depth
#Other Information
#
#WARRANTY: Halliburton will use its best efforts to furnish customers with 
#accurate information and interpretations that are part of, and incident to, the services 
#provided.  However, Halliburton cannot and does not warrant the accuracy 
#or correctness of such information and interpretations.  Under no circumstances should any 
#such information or interpretation be relied upon as the sole basis for any drilling, 
#completion, production, or financial decision or any procedure involving any risk to the 
#safety of any drilling venture, drilling rig or its crew or any other third party.  The 
#Customer has full responsibility for all drilling, completion and production operation.  
#Halliburton makes no representations or warranties, either expressed or 
#implied, including, but not limited to, the implied warranties of merchantability or fitness 
#for a particular purpose, with respect to the services rendered.  In no event will 
#Halliburton be liable for failure to obtain any particular results or for 
#any damages, including, but not limited to, indirect, special or consequential damages, 
#resulting from the use of any information or interpretation provided by Halliburton.
#
~A           TIME           GTDEPTH  GTPQH  GTTQ  GTTN   GTET   GTTVD  
# ...
   21:08:12.555.27-Aug-2021 4647.50 4517.51 82.36 22.00 316.43 3019.99
   21:08:12.755.27-Aug-2021 4647.50 4517.51 82.36 22.00 316.63 3019.99
   21:08:12.955.27-Aug-2021 4647.50 4517.53 82.36 22.00 316.83 3019.99
   21:08:13.155.27-Aug-2021 4647.50 4517.52 82.36 22.00 317.03 3019.99
   21:08:13.355.27-Aug-2021 4647.50 4517.52 82.36 22.00 317.23 3019.99
   21:08:13.555.27-Aug-2021 4647.50 4517.51 82.36 22.00 317.43 3019.99
   21:08:13.755.27-Aug-2021 4647.50 4517.43 82.36 22.00 317.63 3019.99
   21:08:13.955.27-Aug-2021 4647.50 4517.57 82.36 22.00 317.83 3019.99
   21:08:14.155.27-Aug-2021 4647.50 4517.57 82.36 22.00 318.03 3019.99
   21:08:14.355.27-Aug-2021 4647.50 4517.57 82.36 22.00 318.23 3019.99
   21:08:14.555.27-Aug-2021 4647.50 4517.54 82.36 22.00 318.43 3019.99
   21:08:14.755.27-Aug-2021 4647.50 4517.56 82.36 22.00 318.63 3019.99
   21:08:14.955.27-Aug-2021 4647.50 4517.54 82.36 22.00 318.83 3019.99
   21:08:15.155.27-Aug-2021 4647.50 4517.54 82.36 22.00 319.03 3019.99
   21:08:15.355.27-Aug-2021 4647.50 4517.54 82.36 22.00 319.23 3019.99
   21:08:15.555.27-Aug-2021 4647.50 4517.55 82.36 22.00 319.43 3019.99
   21:08:15.755.27-Aug-2021 4647.50 4517.54 82.36 22.00 319.63 3019.99
   21:08:15.955.27-Aug-2021 4647.50 4517.52 82.36 22.00 319.83 3019.99
   21:08:16.155.27-Aug-2021 4647.50 4517.54 82.36 22.00 320.03 3019.99
   21:08:16.355.27-Aug-2021 4647.50 4517.54 82.36 22.00 320.23 3019.99
   21:08:16.555.27-Aug-2021 4647.50 4517.54 82.36 22.00 320.43 3019.99
   21:08:16.755.27-Aug-2021 4647.50 4517.53 82.36 22.00 320.63 3019.99
   21:08:16.955.27-Aug-2021 4647.50 4517.52 82.36 22.00 320.83 3019.99
   21:08:17.155.27-Aug-2021 4647.50 4517.46 82.36 22.00 321.03 3019.99
   21:08:17.355.27-Aug-2021 4647.50 4517.46 82.36 22.00 321.23 3019.99
   21:08:17.555.27-Aug-2021 4647.50 4517.55 82.36 22.00 321.43 3019.99
   21:08:17.755.27-Aug-2021 4647.50 4517.55 82.36 22.00 321.63 3019.99
   21:08:17.955.27-Aug-2021 4647.50 4517.57 82.36 22.00 321.83 3019.99
   21:08:18.155.27-Aug-2021 4647.50 4517.58 82.36 22.00 322.03 3019.99
   21:08:18.355.27-Aug-2021 4647.50 4517.58 82.36 22.00 322.23 3019.99
   21:08:18.555.27-Aug-2021 4647.50 4517.69 82.36 22.00 322.43 3019.99
   21:08:18.755.27-Aug-2021 4647.50 4517.57 82.36 22.00 322.63 3019.99
   21:08:18.955.27-Aug-2021 4647.50 4517.57 82.36 22.00 322.83 3019.99
   21:08:19.155.27-Aug-2021 4647.50 4517.42 82.36 22.00 323.03 3019.99
   21:08:19.355.27-Aug-2021 4647.50 4517.42 82.36 22.00 323.23 3019.99
   21:08:19.555.27-Aug-2021 4647.50 4517.60 82.36 22.00 323.43 3019.99
   21:08:19.755.27-Aug-2021 4647.50 4517.60 82.36 22.00 323.63 3019.99
   21:08:19.955.27-Aug-2021 4647.50 4517.60 82.36 22.00 323.83 3019.99
   21:08:20.155.27-Aug-2021 4647.50 4517.45 82.36 22.00 324.03 3019.99
   21:08:20.355.27-Aug-2021 4647.50 4517.45 82.36 22.00 324.23 3019.99
   21:08:20.555.27-Aug-2021 4647.50 4517.62 82.36 22.00 324.43 3019.99
   21:08:20.755.27-Aug-2021 4647.50 4517.60 82.36 22.00 324.63 3019.99
   21:08:20.955.27-Aug-2021 4647.50 4517.58 82.36 22.00 324.83 3019.99
   21:08:21.156.27-Aug-2021 4647.50 4517.57 82.36 22.00 325.03 3019.99
   21:08:21.356.27-Aug-2021 4647.50 4517.57 82.36 22.00 325.23 3019.99
   21:08:21.556.27-Aug-2021 4647.50 4517.58 82.36 22.00 325.43 3019.99
   21:08:21.756.27-Aug-2021 4647.50 4517.57 82.36 22.00 325.63 3019.99
   21:08:21.956.27-Aug-2021 4647.50 4517.58 82.36 22.00 325.83 3019.99
   21:08:22.156.27-Aug-2021 4647.50 4517.58 82.36 22.00 326.03 3019.99
   21:08:22.356.27-Aug-2021 4647.50 4517.58 82.36 22.00 326.23 3019.99
   21:08:22.556.27-Aug-2021 4647.50 4517.56 82.36 22.00 326.43 3019.99
   21:08:22.756.27-Aug-2021 4647.50 4517.57 82.36 22.00 326.63 3019.99
   21:08:22.956.27-Aug-2021 4647.50 4517.60 82.36 22.00 326.83 3019.99
   21:08:23.156.27-Aug-2021 4647.50 4517.57 82.36 22.00 327.03 3019.99
   21:08:23.356.27-Aug-2021 4647.50 4517.57 82.36 22.00 327.23 3019.99
   21:08:23.556.27-Aug-2021 4647.50 4517.58 82.36 22.00 327.43 3019.99
   21:08:23.756.27-Aug-2021 4647.50 4517.59 82.36 22.00 327.63 3019.99
   21:08:23.956.27-Aug-2021 4647.50 4517.60 82.36 22.00 327.83 3019.99
   21:08:24.156.27-Aug-2021 4647.50 4517.60 82.36 22.00 328.03 3019.99
   21:08:24.356.27-Aug-2021 4647.50 4517.60 82.36 22.00 328.23 3019.99
   21:08:24.556.27-Aug-2021 4647.50 4517.56 82.36 22.00 328.43 3019.99
   21:08:24.756.27-Aug-2021 4647.50 4517.60 82.36 22.00 328.63 3019.99
   21:08:24.956.27-Aug-2021 4647.50 4517.59 82.36 22.00 328.83 3019.99
   21:08:25.156.27-Aug-2021 4647.50 4517.58 82.36 22.00 329.03 3019.99
   21:08:25.356.27-Aug-2021 4647.50 4517.58 82.36 22.00 329.23 3019.99
   21:08:25.556.27-Aug-2021 4647.50 4517.57 82.36 22.00 329.43 3019.99
   21:08:25.756.27-Aug-2021 4647.50 4517.60 82.36 22.00 329.63 3019.99
   21:08:25.956.27-Aug-2021 4647.50 4517.58 82.36 22.00 329.83 3019.99
   21:08:26.156.27-Aug-2021 4647.50 4517.58 82.36 22.00 330.03 3019.99
   21:08:26.356.27-Aug-2021 4647.50 4517.58 82.36 22.00 330.23 3019.99
   21:08:26.556.27-Aug-2021 4647.50 4517.58 82.36 22.00 330.43 3019.99
   21:08:26.756.27-Aug-2021 4647.50 4517.57 82.36 22.00 330.63 3019.99
   21:08:26.956.27-Aug-2021 4647.50 4517.60 82.36 22.00 330.83 3019.99
   21:08:27.156.27-Aug-2021 4647.50 4517.60 82.36 22.00 331.03 3019.99
   21:08:27.356.27-Aug-2021 4647.50 4517.60 82.36 22.00 331.23 3019.99
   21:08:27.556.27-Aug-2021 4647.50 4517.60 82.36 22.00 331.43 3019.99
   21:08:27.756.27-Aug-2021 4647.50 4517.62 82.36 22.00 331.63 3019.99
   21:08:27.956.27-Aug-2021 4647.50 4517.39 82.36 22.00 331.83 3019.99
   21:08:28.156.27-Aug-2021 4647.50 4517.72 82.36 22.00 332.03 3019.99
   21:08:28.356.27-Aug-2021 4647.50 4517.72 82.36 22.00 332.23 3019.99
   21:08:28.556.27-Aug-2021 4647.50 4517.58 82.36 22.00 332.43 3019.99
   21:08:28.756.27-Aug-2021 4647.50 4517.47 82.36 22.00 332.63 3019.99
   21:08:28.956.27-Aug-2021 4647.50 4517.73 82.36 22.00 332.83 3019.99
   21:08:29.156.27-Aug-2021 4647.50 4517.65 82.36 22.00 333.03 3019.99
   21:08:29.356.27-Aug-2021 4647.50 4517.65 82.36 22.00 333.23 3019.99
   21:08:29.556.27-Aug-2021 4647.50 4517.62 82.36 22.00 333.43 3019.99
   21:08:29.756.27-Aug-2021 4647.50 4517.51 82.36 22.00 333.63 3019.99
   21:08:29.956.27-Aug-2021 4647.50 4517.71 82.36 22.00 333.83 3019.99
   21:08:30.156.27-Aug-2021 4647.50 4517.67 82.36 22.00 334.03 3019.99
   21:08:30.356.27-Aug-2021 4647.50 4517.67 82.36 22.00 334.23 3019.99
   21:08:30.556.27-Aug-2021 4647.50 4517.61 82.36 22.00 334.43 3019.99
   21:08:30.756.27-Aug-2021 4647.50 4517.65 82.36 22.00 334.63 3019.99
   21:08:30.957.27-Aug-2021 4647.50 4517.64 82.36 22.00 334.83 3019.99
   21:08:31.157.27-Aug-2021 4647.50 4517.64 82.36 22.00 335.03 3019.99
   21:08:31.357.27-Aug-2021 4647.50 4517.64 82.36 22.00 335.23 3019.99
   21:08:31.557.27-Aug-2021 4647.50 4517.63 82.36 22.00 335.43 3019.99
   21:08:31.757.27-Aug-2021 4647.50 4517.63 82.36 22.00 335.63 3019.99
   21:08:31.957.27-Aug-2021 4647.50 4517.62 82.36 22.00 335.83 3019.99
   21:08:32.157.27-Aug-2021 4647.50 4517.62 82.36 22.00 336.03 3019.99
   21:08:32.357.27-Aug-2021 4647.50 4517.62 82.36 22.00 336.23 3019.99
   21:08:32.557.27-Aug-2021 4647.50 4517.64 82.36 22.00 336.43 3019.99
   21:08:32.757.27-Aug-2021 4647.50 4517.62 82.36 22.00 336.63 3019.99
   21:08:32.957.27-Aug-2021 4647.50 4517.54 82.36 22.00 336.83 3019.99
   21:08:33.157.27-Aug-2021 4647.50 4517.68 82.36 22.00 337.03 3019.99
   21:08:33.357.27-Aug-2021 4647.50 4517.68 82.36 22.00 337.23 3019.99
   21:08:33.557.27-Aug-2021 4647.50 4517.64 82.36 22.00 337.43 3019.99
   21:08:33.757.27-Aug-2021 4647.50 4517.63 82.36 22.00 337.63 3019.99
   21:08:33.957.27-Aug-2021 4647.50 4517.64 82.36 22.00 337.83 3019.99
   21:08:34.157.27-Aug-2021 4647.50 4517.65 82.36 22.00 338.03 3019.99
   21:08:34.357.27-Aug-2021 4647.50 4517.65 82.36 22.00 338.23 3019.99
   21:08:34.557.27-Aug-2021 4647.50 4517.64 82.36 22.00 338.43 3019.99
   21:08:34.757.27-Aug-2021 4647.50 4517.63 82.36 22.00 338.63 3019.99
   21:08:34.957.27-Aug-2021 4647.50 4517.65 82.36 22.00 338.83 3019.99
