~Version Information
 VERS.                  2.0:   CWLS log ASCII Standard -VERSION 2.0
 WRAP.                   NO:   One line per depth step
~Well Information Block
#MNEM.UNIT     VALUE/NAME     DESCRIPTION
#---------     -----------    ---------------------------
 STRT.S             23:43:00 27-Aug-21: START TIME 23:43:00 27-Aug-21
 STOP.S             23:50:14 27-Aug-21: STOP TIME  23:50:14 27-Aug-21
 STEP.S                   0.00: STEP TIME
 NULL.                 -999.25: NULL VALUE
 DFWT.                        :  DIST FWL TEXT
 DFST.                        :  DIST FSL TEXT
 DMF .             Drill Floor:  DRILL MEAS FROM
 STIM.      20.00.00 17-Aug-21:  START TIME
 DATE.      19.00.00 29-Aug-21:  END TIME
 SPUD.               15-Aug-21:  SPUD DATE
 NREF.                    Grid:  NORTH REFERENCE
 HPTY.       Minimum Curvature:  HOLE POS TYPE
 DMOD.             Drill Model:  DRILL MOD DESC
 SVYD.                  Survey:  SURVEY DESC
 ILTD.               Lithology:  INTERP LTH DESC
 FTOP.          Formation Tops:  FORM TOPS DESC
 RIG .              East Azeri:  RIG NAME
 PDAT.          Mean Sea Level:  PERMANENT DATUM
 FLD .                     ACG:  FIELD NAME
 SON .        AZ-XX-0907180857:  JOB NUMBER
 CTRY.              Azerbaijan:  COUNTRY NAME
 WELL.                    D23x:  WELL NAME
 SRVC.     Turan Drilling and Engineering:  CONTRACTOR
 COMP.     BP Exploration (Caspian Sea) Ltd.:  COMPANY
 UWI .            /AZE00000214:  UNIQUE WELL IDENTIFIER
 API .            /AZE00000214:  API NUMBER
 MDS .        Operator Entered:  MAG DATA SOURCE
 BASE.              Azerbaijan:  LOGGING EQUIPMENT BASE LOCATION
 REGN.                   EESSA:  REGION
 PROV.                    Baku:  PROVINCE
 STAT.                    Baku:  STATE NAME
 MWDS.                    Baku:  MWD SHOP
 DOE .                     N/A:  DOE NUMBER
 DCON.         Sperry Drilling:  DIRECTNL CONTR
 UNIT.                     N/A:  LOGGING EQUIPMENT ID
 WTYP.                Deviated:  WELL TYPE
 CNTY.                        :  COUNTY
 LOC .                        :  LOCATION
 LMF .             Drill Floor:  LOG MEASURED FROM
 TVDS.m                  43.60:  TVDSS CORRECTN
 LATI.deg                40.02:  LATITUDE
 LONG.deg                51.45:  LONGITUDE
 WHNS.m                  -7.04:  WELL HEAD N/S
 WHEW.m                  -0.67:  WELL HEAD E/W
 UTMX.m              538762.90:  UTM X
 UTMY.m             4431871.34:  UTM Y
 DFWL.m                   0.00:  DISTANCE FWL
 DFSL.m                   0.00:  DISTANCE FSL
 SDEP.m                4127.00:  START DEPTH
 TDD .m                5084.50:  TOTAL DEPTH (DRILLER)
 VSDR.deg               140.47:  VERT SEC DIRECT
 GVFD.g                   1.00:  GRAVITY FIELD
 MFLD.nT              50362.00:  MAGNETIC FIELD
 MDIP.deg                59.48:  MAGNETIC DIP
 MDEC.deg                 6.47:  MAGNETIC DECL
 GRDC.deg                 0.31:  GRID CORRECTION
 AZTC.deg                 6.16:  AZM TOTAL CORR
 EPD .m                   0.00:  ELEVATION
 EGL .m                   0.00:  GROUND ELEVATION
 WDMS.m                 151.80:  WD ELEV
 APD .m                  43.60:  DEPTH ABOVE PD
 DEP .m                4092.57:  DEPTH
 AGAP.m                  43.60:  AIR GAP
 VSEW.m                  -0.67:  VERT SEC E/W
 VSNS.m                  -7.04:  VERT SEC N/S
 EKB .m                  43.60:  KB ELEVATION
 EDF .m                  43.60:  DF ELEVATION
 TDL .m                 957.50:  TOTAL DEPTH (LOGGER)
 VSC .                       0:  VS TO CLOSURE
 MAGU.                 1851413:  MAGUTM CHECKSUM
~Parameter Information Block
#MNEM.UNIT       Value        Description
#---------     -----------    ---------------------------
 AV  .mps                 1.50:  Ann Velocity 
 AVMX.mps                 2.00:  Max Ann Veloc 
 AZIF.deg               184.66:  Azm, Final 
 BHAT.        Rotary Steerable:  BHA Type 
 BREV.rev               300.00:  Rev Bit Total 
 BROT.°/30m              -0.50:  Build Rotating 
 BS  .in                  8.50:  Bit Size 
 BSZ .in                  8.50:  Bit Size 
 BTPL.psig              370.00:  Bit Press Loss 
 CABU.                      No:  Customer Abuse 
 CGEO.      Behruz Shahbaliyev:  Customer Geo 
 COMM.                     Ì™‡:  Run Comments 1 
 TCS .hr                140.08:  Time Ciculation Ended 
 CV  .mps                 3.00:  Crit Velocity 
 CVMX.mps                 3.20:  Max Crit Veloc 
 DD1 .            Musa Ahmadov:  Direct Drillr 1 
 DD2 .           Hamid Ahmadov:  Direct Drillr 2 
 DDSV.               Geo-Pilot:  DD Service 
 DEFF.%                  98.40:  % Det Eff 
 DLRX.°/30m               3.40:  Dogleg Rot Max 
 DLSO.°/30m               1.45:  Dogleg Oriented 
 DLSX.°/30m               3.40:  Dogleg Str Max 
 DRET.      18.40.00 29-Aug-21:  Drill End Time 
 DRST.      21.00.00 20-Aug-21:  Drill Start Tim 
 DTIM.hr                 69.47:  Time Drilling 
 EDEP.m                5084.50:  End Depth 
 ENG1.      Artemiy Matviyanov:  Engineer 1 
 ENG2.         Almaz Almadatov:  Engineer 2 
 ETIM.      18.40.00 29-Aug-21:  End Time 
 FLOI.gpm               500.00:  Flow In 
 FLON.gpm               400.00:  Flow In Min 
 FLOS.cptm                0.00:  Fluid Loss 
 FLOX.gpm               500.00:  Flow In Max 
 DFT .        Mineral Oil Base:  Mud Type 
 HFLO.                      No:  High Flow 
 HPRE.                      No:  High Pressure 
 HTEM.                      No:  High Temp 
 HYDO.m                   1.80:  Hydro Offset 
 IFIN.deg                25.62:  Inc, Final 
 IMAX.deg                48.69:  Inc Max 
 IMIN.deg                24.01:  Inc Min 
 IMND.m                4962.57:  Inc Min Depth 
 IMXD.m                4119.01:  Inc Max Depth 
 JARR.                      No:  Jarring 
 LETM.      18.40.00 29-Aug-21:  Log End Time 
 LOST.hr                     0:  Lost Rig Time 
 LSTM.      21.00.00 20-Aug-21:  Log Start Time 
 MDCL.ppm             41500.00:  Mud Chlorides 
 MDES.     Inversion Oil/Synthetic:  Mud Desc 
 DFD .sg                  1.56:  Mud Density 
 MDMN.sg                  1.56:  Dens Mud Min 
 MDMX.sg                  1.56:  Dens Mud Max 
 MOIL.                      70:  Run Mud Oil % 
 MOWR.                   70:30:  Run Mud OWR 
 MSND.                     0.2:  Run Mud Sand % 
 MSOL.                    23.3:  Run Mud Solids% 
 DFV .spqt               78.00:  Mud Viscosity 
 MWOD.in                  6.75:  MWD Tool OD 
 MWSI.                      No:  Serv Intrp, MWD 
 OTIM.hr                218.30:  Time Operating 
 PCON.           Look Like New:  Pad Condition 
 PMAX.psia            11015.30:  Press Op, Max 
 PV  .cP                 38.00:  Mud PV 
 RUN .                     300:  Run Number 
 ROPA.m/hr               15.00:  ROP Avg 
 ROPN.m/hr                9.00:  ROP Min 
 ROPX.m/hr               17.00:  ROP Max 
 RPMA.rpm               120.00:  RPM Surface Avg 
 RPMN.rpm                90.00:  RPM Surface Min 
 RPMX.rpm               140.00:  RPM Surface Max 
 RRUN.                     300:  Rig Run Number 
 RTIM.hr                 31.53:  Time Reaming 
 SAZI.deg               331.64:  Azm, Start 
 SDEP.m                4127.00:  Start Depth 
 SIDD.                      No:  Serv Intrp, DD 
 SINC.deg                48.43:  Inc, Start 
 SPPA.psig             5830.00:  SPP Avg 
 SPPN.psig             5600.00:  SPP Min 
 SPPX.psig             5900.00:  SPP Max 
 STIM.      21.00.00 20-Aug-21:  Start Time 
 SVCS.                 DD, MWD:  Services 
 SVER.                    9.20:  Sperry Version 
 TDAT.m                 957.50:  Tot Depth Attmp 
 TDDF.                      No:  Trip for DD 
 TDLG.m                 957.50:  Tot Depth Loggd 
 TFF .                      No:  Trip for Fail 
 TQAA.f-kp               15.00:  Torque Abs Avg 
 TQAN.f-kp               12.00:  Torque Abs Min 
 TQAX.f-kp               19.00:  Torque Abs Max 
 TRRT.°/30m              -3.40:  Turn Rotating 
 MRT .                  EWR-M5:  Maximum Recorded Temperature 
 TTMX.degC              100.00:  Max Tool Temp 
 VS01.                90639251:  Virtual Str1 SN 
 VS02.                90634715:  Virtual Str2 SN 
 VS03.                90652479:  Virtual Str3 SN 
 VS04.                90642262:  Virtual Str4 SN 
 WBMN.klb                 0.00:  WOB Min 
 WITN.           Murad Guliyev:  Customer Rep 
 WITN.          Yashar Gaziyev:  Customer Rep 2 
 WOBA.klb                 9.00:  WOB Avg 
 WOBX.klb                12.00:  WOB Max 
 YP  .lhf2               30.00:  Yield Point 
~Curve Information Block
#MNEM.UNIT                 API CODE     Curve Description
#---------               -----------    ---------------------------
 TIME.HHMMSS            00 000 000 000:  GT Time & Date
 GTDEPTH.m              00 000 000 000:  GT Depth
 GTPQH.psia             00 000 000 000:  GT HR Quartz Pressure
 GTTQ.degC              00 000 000 000:  GT Quartz Temperature
 GTTN.NONE              00 000 000 000:  GT Test Number
 GTET.sec               00 000 000 000:  GT Elapsed Test Time
 GTTVD.m                00 000 000 000:  GT True Vertical Depth
#Other Information
#
#WARRANTY: Halliburton will use its best efforts to furnish customers with 
#accurate information and interpretations that are part of, and incident to, the services 
#provided.  However, Halliburton cannot and does not warrant the accuracy 
#or correctness of such information and interpretations.  Under no circumstances should any 
#such information or interpretation be relied upon as the sole basis for any drilling, 
#completion, production, or financial decision or any procedure involving any risk to the 
#safety of any drilling venture, drilling rig or its crew or any other third party.  The 
#Customer has full responsibility for all drilling, completion and production operation.  
#Halliburton makes no representations or warranties, either expressed or 
#implied, including, but not limited to, the implied warranties of merchantability or fitness 
#for a particular purpose, with respect to the services rendered.  In no event will 
#Halliburton be liable for failure to obtain any particular results or for 
#any damages, including, but not limited to, indirect, special or consequential damages, 
#resulting from the use of any information or interpretation provided by Halliburton.
#
~A           TIME           GTDEPTH  GTPQH  GTTQ  GTTN   GTET   GTTVD  
# ...
   23:43:45.333.27-Aug-2021 4669.00 7241.74 82.16 26.00  45.21 3039.49
   23:43:45.533.27-Aug-2021 4669.00 7206.21 82.15 26.00  45.41 3039.49
   23:43:45.733.27-Aug-2021 4669.00 7187.66 82.15 26.00  45.61 3039.49
   23:43:45.933.27-Aug-2021 4669.00 7160.46 82.15 26.00  45.81 3039.49
   23:43:46.133.27-Aug-2021 4669.00 7127.60 82.15 26.00  46.01 3039.49
   23:43:46.333.27-Aug-2021 4669.00 7127.60 82.15 26.00  46.21 3039.49
   23:43:46.533.27-Aug-2021 4669.00 7016.40 82.15 26.00  46.41 3039.49
   23:43:46.733.27-Aug-2021 4669.00 6945.79 82.15 26.00  46.61 3039.49
   23:43:46.933.27-Aug-2021 4669.00 6873.70 82.15 26.00  46.81 3039.49
   23:43:47.133.27-Aug-2021 4669.00 6796.62 82.15 26.00  47.01 3039.49
   23:43:47.333.27-Aug-2021 4669.00 6796.62 82.15 26.00  47.21 3039.49
   23:43:47.533.27-Aug-2021 4669.00 6796.62 82.15 26.00  47.41 3039.49
   23:43:47.733.27-Aug-2021 4669.00 6540.73 82.15 26.00  47.61 3039.49
   23:43:47.933.27-Aug-2021 4669.00 6472.62 82.15 26.00  47.81 3039.49
   23:43:48.133.27-Aug-2021 4669.00 6444.44 82.15 26.00  48.01 3039.49
   23:43:48.334.27-Aug-2021 4669.00 6444.44 82.15 26.00  48.21 3039.49
   23:43:48.534.27-Aug-2021 4669.00 6533.24 82.15 26.00  48.41 3039.49
   23:43:48.734.27-Aug-2021 4669.00 6658.93 82.15 26.00  48.61 3039.49
   23:43:48.934.27-Aug-2021 4669.00 6823.38 82.15 26.00  48.81 3039.49
   23:43:49.134.27-Aug-2021 4669.00 6796.28 82.15 26.00  49.01 3039.49
   23:43:49.334.27-Aug-2021 4669.00 6796.28 82.15 26.00  49.21 3039.49
   23:43:49.534.27-Aug-2021 4669.00 6669.17 82.15 26.00  49.41 3039.49
   23:43:49.734.27-Aug-2021 4669.00 6613.91 82.15 26.00  49.61 3039.49
   23:43:49.934.27-Aug-2021 4669.00 6548.74 82.15 26.00  49.81 3039.49
   23:43:50.134.27-Aug-2021 4669.00 6485.89 82.15 26.00  50.01 3039.49
   23:43:50.334.27-Aug-2021 4669.00 6485.89 82.15 26.00  50.21 3039.49
   23:43:50.534.27-Aug-2021 4669.00 6351.95 82.14 26.00  50.41 3039.49
   23:43:50.734.27-Aug-2021 4669.00 6284.41 82.14 26.00  50.61 3039.49
   23:43:50.934.27-Aug-2021 4669.00 6220.13 82.14 26.00  50.81 3039.49
   23:43:51.134.27-Aug-2021 4669.00 6170.60 82.14 26.00  51.01 3039.49
   23:43:51.334.27-Aug-2021 4669.00 6170.60 82.14 26.00  51.21 3039.49
   23:43:51.534.27-Aug-2021 4669.00 6070.82 82.14 26.00  51.41 3039.49
   23:43:51.734.27-Aug-2021 4669.00 6022.79 82.14 26.00  51.61 3039.49
   23:43:51.934.27-Aug-2021 4669.00 5974.09 82.14 26.00  51.81 3039.49
   23:43:52.134.27-Aug-2021 4669.00 5926.13 82.14 26.00  52.01 3039.49
   23:43:52.334.27-Aug-2021 4669.00 5926.13 82.14 26.00  52.21 3039.49
   23:43:52.534.27-Aug-2021 4669.00 5766.25 82.14 26.00  52.41 3039.49
   23:43:52.734.27-Aug-2021 4669.00 5676.49 82.14 26.00  52.61 3039.49
   23:43:52.934.27-Aug-2021 4669.00 5515.48 82.14 26.00  52.81 3039.49
   23:43:53.134.27-Aug-2021 4669.00 5366.97 82.14 26.00  53.01 3039.49
   23:43:53.334.27-Aug-2021 4669.00 5366.97 82.14 26.00  53.21 3039.49
   23:43:53.534.27-Aug-2021 4669.00 5125.85 82.13 26.00  53.41 3039.49
   23:43:53.734.27-Aug-2021 4669.00 5048.67 82.13 26.00  53.61 3039.49
   23:43:53.934.27-Aug-2021 4669.00 5004.13 82.13 26.00  53.81 3039.49
   23:43:54.134.27-Aug-2021 4669.00 4966.81 82.13 26.00  54.01 3039.49
   23:43:54.334.27-Aug-2021 4669.00 4966.81 82.13 26.00  54.21 3039.49
   23:43:54.534.27-Aug-2021 4669.00 4930.90 82.13 26.00  54.41 3039.49
   23:43:54.734.27-Aug-2021 4669.00 4918.86 82.13 26.00  54.61 3039.49
   23:43:54.934.27-Aug-2021 4669.00 4909.05 82.12 26.00  54.81 3039.49
   23:43:55.134.27-Aug-2021 4669.00 4902.53 82.12 26.00  55.01 3039.49
   23:43:55.334.27-Aug-2021 4669.00 4902.53 82.12 26.00  55.21 3039.49
   23:43:55.534.27-Aug-2021 4669.00 4899.72 82.12 26.00  55.41 3039.49
   23:43:55.734.27-Aug-2021 4669.00 4899.31 82.12 26.00  55.61 3039.49
   23:43:55.934.27-Aug-2021 4669.00 4895.50 82.12 26.00  55.81 3039.49
   23:43:56.134.27-Aug-2021 4669.00 4895.53 82.12 26.00  56.01 3039.49
   23:43:56.335.27-Aug-2021 4669.00 4895.53 82.12 26.00  56.21 3039.49
   23:43:56.535.27-Aug-2021 4669.00 4890.37 82.11 26.00  56.41 3039.49
   23:43:56.735.27-Aug-2021 4669.00 4888.05 82.11 26.00  56.61 3039.49
   23:43:56.935.27-Aug-2021 4669.00 4888.33 82.11 26.00  56.81 3039.49
   23:43:57.135.27-Aug-2021 4669.00 4887.26 82.11 26.00  57.01 3039.49
   23:43:57.335.27-Aug-2021 4669.00 4887.26 82.11 26.00  57.21 3039.49
   23:43:57.535.27-Aug-2021 4669.00 4577.21 82.11 26.00  57.41 3039.49
   23:43:57.735.27-Aug-2021 4669.00 4205.86 82.10 26.00  57.61 3039.49
   23:43:57.935.27-Aug-2021 4669.00 4163.99 82.10 26.00  57.81 3039.49
   23:43:58.135.27-Aug-2021 4669.00 4149.62 82.10 26.00  58.01 3039.49
   23:43:58.335.27-Aug-2021 4669.00 4149.62 82.10 26.00  58.21 3039.49
   23:43:58.535.27-Aug-2021 4669.00 4142.17 82.10 26.00  58.41 3039.49
   23:43:58.735.27-Aug-2021 4669.00 4136.72 82.10 26.00  58.61 3039.49
   23:43:58.935.27-Aug-2021 4669.00 4131.46 82.10 26.00  58.81 3039.49
   23:43:59.135.27-Aug-2021 4669.00 4126.67 82.10 26.00  59.01 3039.49
   23:43:59.335.27-Aug-2021 4669.00 4126.67 82.10 26.00  59.21 3039.49
   23:43:59.535.27-Aug-2021 4669.00 4126.51 82.09 26.00  59.41 3039.49
   23:43:59.735.27-Aug-2021 4669.00 4119.08 82.09 26.00  59.61 3039.49
   23:43:59.935.27-Aug-2021 4669.00 4117.21 82.09 26.00  59.81 3039.49
   23:44:00.135.27-Aug-2021 4669.00 4115.94 82.09 26.00  60.01 3039.49
   23:44:00.335.27-Aug-2021 4669.00 4115.94 82.09 26.00  60.21 3039.49
   23:44:00.535.27-Aug-2021 4669.00 4107.30 82.09 26.00  60.41 3039.49
   23:44:00.735.27-Aug-2021 4669.00 4104.32 82.08 26.00  60.61 3039.49
   23:44:00.935.27-Aug-2021 4669.00 4104.36 82.08 26.00  60.81 3039.49
   23:44:01.135.27-Aug-2021 4669.00 4101.19 82.08 26.00  61.01 3039.49
   23:44:01.335.27-Aug-2021 4669.00 4101.19 82.08 26.00  61.21 3039.49
   23:44:01.535.27-Aug-2021 4669.00 4098.99 82.08 26.00  61.41 3039.49
   23:44:01.735.27-Aug-2021 4669.00 4097.29 82.08 26.00  61.61 3039.49
   23:44:01.935.27-Aug-2021 4669.00 4095.43 82.08 26.00  61.81 3039.49
   23:44:02.135.27-Aug-2021 4669.00 4094.01 82.08 26.00  62.01 3039.49
   23:44:02.335.27-Aug-2021 4669.00 4094.01 82.08 26.00  62.21 3039.49
   23:44:02.535.27-Aug-2021 4669.00 4089.75 82.08 26.00  62.41 3039.49
   23:44:02.735.27-Aug-2021 4669.00 4089.21 82.07 26.00  62.61 3039.49
   23:44:02.935.27-Aug-2021 4669.00 4087.20 82.07 26.00  62.81 3039.49
   23:44:03.135.27-Aug-2021 4669.00 4085.63 82.07 26.00  63.01 3039.49
   23:44:03.335.27-Aug-2021 4669.00 4085.63 82.07 26.00  63.21 3039.49
   23:44:03.535.27-Aug-2021 4669.00 4081.39 82.07 26.00  63.41 3039.49
   23:44:03.735.27-Aug-2021 4669.00 4082.44 82.07 26.00  63.61 3039.49
   23:44:03.935.27-Aug-2021 4669.00 4080.97 82.07 26.00  63.81 3039.49
   23:44:04.135.27-Aug-2021 4669.00 4080.80 82.07 26.00  64.01 3039.49
   23:44:04.336.27-Aug-2021 4669.00 4080.80 82.07 26.00  64.21 3039.49
   23:44:04.536.27-Aug-2021 4669.00 4078.71 82.07 26.00  64.41 3039.49
   23:44:04.736.27-Aug-2021 4669.00 4079.39 82.07 26.00  64.61 3039.49
   23:44:04.936.27-Aug-2021 4669.00 4078.45 82.07 26.00  64.81 3039.49
   23:44:05.136.27-Aug-2021 4669.00 4077.48 82.06 26.00  65.01 3039.49
   23:44:05.336.27-Aug-2021 4669.00 4077.48 82.06 26.00  65.21 3039.49
   23:44:05.536.27-Aug-2021 4669.00 4077.29 82.06 26.00  65.41 3039.49
   23:44:05.736.27-Aug-2021 4669.00 4074.94 82.06 26.00  65.61 3039.49
   23:44:05.936.27-Aug-2021 4669.00 4075.10 82.06 26.00  65.81 3039.49
   23:44:06.136.27-Aug-2021 4669.00 4073.45 82.06 26.00  66.01 3039.49
   23:44:06.336.27-Aug-2021 4669.00 4073.45 82.06 26.00  66.21 3039.49
   23:44:06.536.27-Aug-2021 4669.00 4071.33 82.06 26.00  66.41 3039.49
   23:44:06.736.27-Aug-2021 4669.00 4070.38 82.06 26.00  66.61 3039.49
   23:44:06.936.27-Aug-2021 4669.00 4069.72 82.06 26.00  66.81 3039.49
   23:44:07.136.27-Aug-2021 4669.00 4070.68 82.06 26.00  67.01 3039.49
   23:44:07.336.27-Aug-2021 4669.00 4070.68 82.06 26.00  67.21 3039.49
   23:44:07.536.27-Aug-2021 4669.00 4070.68 82.06 26.00  67.41 3039.49
   23:44:07.736.27-Aug-2021 4669.00 4349.98 82.06 26.00  67.61 3039.49
