~Version Information
 VERS.                  2.0:   CWLS log ASCII Standard -VERSION 2.0
 WRAP.                   NO:   One line per depth step
~Well Information Block
#MNEM.UNIT     VALUE/NAME     DESCRIPTION
#---------     -----------    ---------------------------
 STRT.S             22:57:07 27-Aug-21: START TIME 22:57:07 27-Aug-21
 STOP.S             23:04:14 27-Aug-21: STOP TIME  23:04:14 27-Aug-21
 STEP.S                   0.00: STEP TIME
 NULL.                 -999.25: NULL VALUE
 DFWT.                        :  DIST FWL TEXT
 DFST.                        :  DIST FSL TEXT
 DMF .             Drill Floor:  DRILL MEAS FROM
 STIM.      20.00.00 17-Aug-21:  START TIME
 DATE.      19.00.00 29-Aug-21:  END TIME
 SPUD.               15-Aug-21:  SPUD DATE
 NREF.                    Grid:  NORTH REFERENCE
 HPTY.       Minimum Curvature:  HOLE POS TYPE
 DMOD.             Drill Model:  DRILL MOD DESC
 SVYD.                  Survey:  SURVEY DESC
 ILTD.               Lithology:  INTERP LTH DESC
 FTOP.          Formation Tops:  FORM TOPS DESC
 RIG .              East Azeri:  RIG NAME
 PDAT.          Mean Sea Level:  PERMANENT DATUM
 FLD .                     ACG:  FIELD NAME
 SON .        AZ-XX-0907180857:  JOB NUMBER
 CTRY.              Azerbaijan:  COUNTRY NAME
 WELL.                    D23x:  WELL NAME
 SRVC.     Turan Drilling and Engineering:  CONTRACTOR
 COMP.     BP Exploration (Caspian Sea) Ltd.:  COMPANY
 UWI .            /AZE00000214:  UNIQUE WELL IDENTIFIER
 API .            /AZE00000214:  API NUMBER
 MDS .        Operator Entered:  MAG DATA SOURCE
 BASE.              Azerbaijan:  LOGGING EQUIPMENT BASE LOCATION
 REGN.                   EESSA:  REGION
 PROV.                    Baku:  PROVINCE
 STAT.                    Baku:  STATE NAME
 MWDS.                    Baku:  MWD SHOP
 DOE .                     N/A:  DOE NUMBER
 DCON.         Sperry Drilling:  DIRECTNL CONTR
 UNIT.                     N/A:  LOGGING EQUIPMENT ID
 WTYP.                Deviated:  WELL TYPE
 CNTY.                        :  COUNTY
 LOC .                        :  LOCATION
 LMF .             Drill Floor:  LOG MEASURED FROM
 TVDS.m                  43.60:  TVDSS CORRECTN
 LATI.deg                40.02:  LATITUDE
 LONG.deg                51.45:  LONGITUDE
 WHNS.m                  -7.04:  WELL HEAD N/S
 WHEW.m                  -0.67:  WELL HEAD E/W
 UTMX.m              538762.90:  UTM X
 UTMY.m             4431871.34:  UTM Y
 DFWL.m                   0.00:  DISTANCE FWL
 DFSL.m                   0.00:  DISTANCE FSL
 SDEP.m                4127.00:  START DEPTH
 TDD .m                5084.50:  TOTAL DEPTH (DRILLER)
 VSDR.deg               140.47:  VERT SEC DIRECT
 GVFD.g                   1.00:  GRAVITY FIELD
 MFLD.nT              50362.00:  MAGNETIC FIELD
 MDIP.deg                59.48:  MAGNETIC DIP
 MDEC.deg                 6.47:  MAGNETIC DECL
 GRDC.deg                 0.31:  GRID CORRECTION
 AZTC.deg                 6.16:  AZM TOTAL CORR
 EPD .m                   0.00:  ELEVATION
 EGL .m                   0.00:  GROUND ELEVATION
 WDMS.m                 151.80:  WD ELEV
 APD .m                  43.60:  DEPTH ABOVE PD
 DEP .m                4092.57:  DEPTH
 AGAP.m                  43.60:  AIR GAP
 VSEW.m                  -0.67:  VERT SEC E/W
 VSNS.m                  -7.04:  VERT SEC N/S
 EKB .m                  43.60:  KB ELEVATION
 EDF .m                  43.60:  DF ELEVATION
 TDL .m                 957.50:  TOTAL DEPTH (LOGGER)
 VSC .                       0:  VS TO CLOSURE
 MAGU.                 1851413:  MAGUTM CHECKSUM
~Parameter Information Block
#MNEM.UNIT       Value        Description
#---------     -----------    ---------------------------
 AV  .mps                 1.50:  Ann Velocity 
 AVMX.mps                 2.00:  Max Ann Veloc 
 AZIF.deg               184.66:  Azm, Final 
 BHAT.        Rotary Steerable:  BHA Type 
 BREV.rev               300.00:  Rev Bit Total 
 BROT.°/30m              -0.50:  Build Rotating 
 BS  .in                  8.50:  Bit Size 
 BSZ .in                  8.50:  Bit Size 
 BTPL.psig              370.00:  Bit Press Loss 
 CABU.                      No:  Customer Abuse 
 CGEO.      Behruz Shahbaliyev:  Customer Geo 
 TCS .hr                140.08:  Time Ciculation Ended 
 CV  .mps                 3.00:  Crit Velocity 
 CVMX.mps                 3.20:  Max Crit Veloc 
 DD1 .            Musa Ahmadov:  Direct Drillr 1 
 DD2 .           Hamid Ahmadov:  Direct Drillr 2 
 DDSV.               Geo-Pilot:  DD Service 
 DEFF.%                  98.40:  % Det Eff 
 DLRX.°/30m               3.40:  Dogleg Rot Max 
 DLSO.°/30m               1.45:  Dogleg Oriented 
 DLSX.°/30m               3.40:  Dogleg Str Max 
 DRET.      18.40.00 29-Aug-21:  Drill End Time 
 DRST.      21.00.00 20-Aug-21:  Drill Start Tim 
 DTIM.hr                 69.47:  Time Drilling 
 EDEP.m                5084.50:  End Depth 
 ENG1.      Artemiy Matviyanov:  Engineer 1 
 ENG2.         Almaz Almadatov:  Engineer 2 
 ETIM.      18.40.00 29-Aug-21:  End Time 
 FLOI.gpm               500.00:  Flow In 
 FLON.gpm               400.00:  Flow In Min 
 FLOS.cptm                0.00:  Fluid Loss 
 FLOX.gpm               500.00:  Flow In Max 
 DFT .        Mineral Oil Base:  Mud Type 
 HFLO.                      No:  High Flow 
 HPRE.                      No:  High Pressure 
 HTEM.                      No:  High Temp 
 HYDO.m                   1.80:  Hydro Offset 
 IFIN.deg                25.62:  Inc, Final 
 IMAX.deg                48.69:  Inc Max 
 IMIN.deg                24.01:  Inc Min 
 IMND.m                4962.57:  Inc Min Depth 
 IMXD.m                4119.01:  Inc Max Depth 
 JARR.                      No:  Jarring 
 LETM.      18.40.00 29-Aug-21:  Log End Time 
 LOST.hr                     0:  Lost Rig Time 
 LSTM.      21.00.00 20-Aug-21:  Log Start Time 
 MDCL.ppm             41500.00:  Mud Chlorides 
 MDES.     Inversion Oil/Synthetic:  Mud Desc 
 DFD .sg                  1.56:  Mud Density 
 MDMN.sg                  1.56:  Dens Mud Min 
 MDMX.sg                  1.56:  Dens Mud Max 
 MOIL.                      70:  Run Mud Oil % 
 MOWR.                   70:30:  Run Mud OWR 
 MSND.                     0.2:  Run Mud Sand % 
 MSOL.                    23.3:  Run Mud Solids% 
 DFV .spqt               78.00:  Mud Viscosity 
 MWOD.in                  6.75:  MWD Tool OD 
 MWSI.                      No:  Serv Intrp, MWD 
 OTIM.hr                218.30:  Time Operating 
 PCON.           Look Like New:  Pad Condition 
 PMAX.psia            11015.30:  Press Op, Max 
 PV  .cP                 38.00:  Mud PV 
 RUN .                     300:  Run Number 
 ROPA.m/hr               15.00:  ROP Avg 
 ROPN.m/hr                9.00:  ROP Min 
 ROPX.m/hr               17.00:  ROP Max 
 RPMA.rpm               120.00:  RPM Surface Avg 
 RPMN.rpm                90.00:  RPM Surface Min 
 RPMX.rpm               140.00:  RPM Surface Max 
 RRUN.                     300:  Rig Run Number 
 RTIM.hr                 31.53:  Time Reaming 
 SAZI.deg               331.64:  Azm, Start 
 SDEP.m                4127.00:  Start Depth 
 SIDD.                      No:  Serv Intrp, DD 
 SINC.deg                48.43:  Inc, Start 
 SPPA.psig             5830.00:  SPP Avg 
 SPPN.psig             5600.00:  SPP Min 
 SPPX.psig             5900.00:  SPP Max 
 STIM.      21.00.00 20-Aug-21:  Start Time 
 SVCS.                 DD, MWD:  Services 
 SVER.                    9.20:  Sperry Version 
 TDAT.m                 957.50:  Tot Depth Attmp 
 TDDF.                      No:  Trip for DD 
 TDLG.m                 957.50:  Tot Depth Loggd 
 TFF .                      No:  Trip for Fail 
 TQAA.f-kp               15.00:  Torque Abs Avg 
 TQAN.f-kp               12.00:  Torque Abs Min 
 TQAX.f-kp               19.00:  Torque Abs Max 
 TRRT.°/30m              -3.40:  Turn Rotating 
 MRT .                  EWR-M5:  Maximum Recorded Temperature 
 TTMX.degC              100.00:  Max Tool Temp 
 VS01.                90639251:  Virtual Str1 SN 
 VS02.                90634715:  Virtual Str2 SN 
 VS03.                90652479:  Virtual Str3 SN 
 VS04.                90642262:  Virtual Str4 SN 
 WBMN.klb                 0.00:  WOB Min 
 WITN.           Murad Guliyev:  Customer Rep 
 WITN.          Yashar Gaziyev:  Customer Rep 2 
 WOBA.klb                 9.00:  WOB Avg 
 WOBX.klb                12.00:  WOB Max 
 YP  .lhf2               30.00:  Yield Point 
~Curve Information Block
#MNEM.UNIT                 API CODE     Curve Description
#---------               -----------    ---------------------------
 TIME.HHMMSS            00 000 000 000:  GT Time & Date
 GTDEPTH.m              00 000 000 000:  GT Depth
 GTPQH.psia             00 000 000 000:  GT HR Quartz Pressure
 GTTQ.degC              00 000 000 000:  GT Quartz Temperature
 GTTN.NONE              00 000 000 000:  GT Test Number
 GTET.sec               00 000 000 000:  GT Elapsed Test Time
 GTTVD.m                00 000 000 000:  GT True Vertical Depth
#Other Information
#
#WARRANTY: Halliburton will use its best efforts to furnish customers with 
#accurate information and interpretations that are part of, and incident to, the services 
#provided.  However, Halliburton cannot and does not warrant the accuracy 
#or correctness of such information and interpretations.  Under no circumstances should any 
#such information or interpretation be relied upon as the sole basis for any drilling, 
#completion, production, or financial decision or any procedure involving any risk to the 
#safety of any drilling venture, drilling rig or its crew or any other third party.  The 
#Customer has full responsibility for all drilling, completion and production operation.  
#Halliburton makes no representations or warranties, either expressed or 
#implied, including, but not limited to, the implied warranties of merchantability or fitness 
#for a particular purpose, with respect to the services rendered.  In no event will 
#Halliburton be liable for failure to obtain any particular results or for 
#any damages, including, but not limited to, indirect, special or consequential damages, 
#resulting from the use of any information or interpretation provided by Halliburton.
#
~A           TIME           GTDEPTH  GTPQH  GTTQ  GTTN   GTET   GTTVD  
# ...
   23:00:08.641.27-Aug-2021 4636.60 4500.61 82.24 25.00 180.82 3010.11
   23:00:08.841.27-Aug-2021 4636.60 4500.55 82.24 25.00 181.02 3010.11
   23:00:09.041.27-Aug-2021 4636.60 4500.55 82.24 25.00 181.22 3010.11
   23:00:09.241.27-Aug-2021 4636.60 4500.49 82.24 25.00 181.42 3010.11
   23:00:09.441.27-Aug-2021 4636.60 4500.47 82.24 25.00 181.62 3010.11
   23:00:09.641.27-Aug-2021 4636.60 4500.43 82.24 25.00 181.82 3010.11
   23:00:09.841.27-Aug-2021 4636.60 4500.44 82.24 25.00 182.02 3010.11
   23:00:10.041.27-Aug-2021 4636.60 4500.44 82.24 25.00 182.22 3010.11
   23:00:10.241.27-Aug-2021 4636.60 4500.39 82.24 25.00 182.42 3010.11
   23:00:10.441.27-Aug-2021 4636.60 4500.37 82.24 25.00 182.62 3010.11
   23:00:10.641.27-Aug-2021 4636.60 4500.35 82.24 25.00 182.82 3010.11
   23:00:10.841.27-Aug-2021 4636.60 4500.12 82.24 25.00 183.02 3010.11
   23:00:11.041.27-Aug-2021 4636.60 4500.12 82.24 25.00 183.22 3010.11
   23:00:11.241.27-Aug-2021 4636.60 4500.86 82.24 25.00 183.42 3010.11
   23:00:11.442.27-Aug-2021 4636.60 4500.78 82.24 25.00 183.62 3010.11
   23:00:11.642.27-Aug-2021 4636.60 4500.74 82.24 25.00 183.82 3010.11
   23:00:11.842.27-Aug-2021 4636.60 4500.71 82.24 25.00 184.02 3010.11
   23:00:12.042.27-Aug-2021 4636.60 4500.71 82.24 25.00 184.22 3010.11
   23:00:12.242.27-Aug-2021 4636.60 4500.65 82.24 25.00 184.42 3010.11
   23:00:12.442.27-Aug-2021 4636.60 4500.63 82.24 25.00 184.62 3010.11
   23:00:12.642.27-Aug-2021 4636.60 4500.60 82.24 25.00 184.82 3010.11
   23:00:12.842.27-Aug-2021 4636.60 4500.58 82.24 25.00 185.02 3010.11
   23:00:13.042.27-Aug-2021 4636.60 4500.58 82.24 25.00 185.22 3010.11
   23:00:13.242.27-Aug-2021 4636.60 4500.54 82.24 25.00 185.42 3010.11
   23:00:13.442.27-Aug-2021 4636.60 4500.54 82.24 25.00 185.62 3010.11
   23:00:13.642.27-Aug-2021 4636.60 4500.51 82.24 25.00 185.82 3010.11
   23:00:13.842.27-Aug-2021 4636.60 4500.50 82.24 25.00 186.02 3010.11
   23:00:14.042.27-Aug-2021 4636.60 4500.50 82.24 25.00 186.22 3010.11
   23:00:14.242.27-Aug-2021 4636.60 4500.43 82.24 25.00 186.42 3010.11
   23:00:14.442.27-Aug-2021 4636.60 4500.99 82.24 25.00 186.62 3010.11
   23:00:14.642.27-Aug-2021 4636.60 4500.92 82.24 25.00 186.82 3010.11
   23:00:14.842.27-Aug-2021 4636.60 4500.88 82.24 25.00 187.02 3010.11
   23:00:15.042.27-Aug-2021 4636.60 4500.88 82.24 25.00 187.22 3010.11
   23:00:15.242.27-Aug-2021 4636.60 4500.47 82.24 25.00 187.42 3010.11
   23:00:15.442.27-Aug-2021 4636.60 4500.92 82.24 25.00 187.62 3010.11
   23:00:15.642.27-Aug-2021 4636.60 4501.04 82.24 25.00 187.82 3010.11
   23:00:15.842.27-Aug-2021 4636.60 4500.98 82.24 25.00 188.02 3010.11
   23:00:16.042.27-Aug-2021 4636.60 4500.98 82.24 25.00 188.22 3010.11
   23:00:16.242.27-Aug-2021 4636.60 4500.28 82.24 25.00 188.42 3010.11
   23:00:16.442.27-Aug-2021 4636.60 4501.33 82.24 25.00 188.62 3010.11
   23:00:16.642.27-Aug-2021 4636.60 4501.07 82.24 25.00 188.82 3010.11
   23:00:16.842.27-Aug-2021 4636.60 4501.00 82.24 25.00 189.02 3010.11
   23:00:17.042.27-Aug-2021 4636.60 4501.00 82.24 25.00 189.22 3010.11
   23:00:17.242.27-Aug-2021 4636.60 4500.94 82.24 25.00 189.42 3010.11
   23:00:17.442.27-Aug-2021 4636.60 4500.92 82.24 25.00 189.62 3010.11
   23:00:17.642.27-Aug-2021 4636.60 4500.55 82.24 25.00 189.82 3010.11
   23:00:17.842.27-Aug-2021 4636.60 4500.99 82.24 25.00 190.02 3010.11
   23:00:18.042.27-Aug-2021 4636.60 4500.99 82.24 25.00 190.22 3010.11
   23:00:18.242.27-Aug-2021 4636.60 4501.05 82.24 25.00 190.42 3010.11
   23:00:18.442.27-Aug-2021 4636.60 4501.00 82.24 25.00 190.62 3010.11
   23:00:18.642.27-Aug-2021 4636.60 4500.99 82.24 25.00 190.82 3010.11
   23:00:18.842.27-Aug-2021 4636.60 4500.94 82.24 25.00 191.02 3010.11
   23:00:19.042.27-Aug-2021 4636.60 4500.94 82.24 25.00 191.22 3010.11
   23:00:19.242.27-Aug-2021 4636.60 4500.91 82.24 25.00 191.42 3010.11
   23:00:19.442.27-Aug-2021 4636.60 4500.90 82.24 25.00 191.62 3010.11
   23:00:19.642.27-Aug-2021 4636.60 4500.89 82.24 25.00 191.82 3010.11
   23:00:19.842.27-Aug-2021 4636.60 4500.88 82.24 25.00 192.02 3010.11
   23:00:20.042.27-Aug-2021 4636.60 4500.88 82.24 25.00 192.22 3010.11
   23:00:20.242.27-Aug-2021 4636.60 4500.85 82.24 25.00 192.42 3010.11
   23:00:20.442.27-Aug-2021 4636.60 4500.83 82.24 25.00 192.62 3010.11
   23:00:20.642.27-Aug-2021 4636.60 4500.83 82.24 25.00 192.82 3010.11
   23:00:20.842.27-Aug-2021 4636.60 4500.47 82.24 25.00 193.02 3010.11
   23:00:21.042.27-Aug-2021 4636.60 4500.47 82.24 25.00 193.22 3010.11
   23:00:21.243.27-Aug-2021 4636.60 4501.11 82.24 25.00 193.42 3010.11
   23:00:21.443.27-Aug-2021 4636.60 4501.07 82.24 25.00 193.62 3010.11
   23:00:21.643.27-Aug-2021 4636.60 4501.04 82.24 25.00 193.82 3010.11
   23:00:21.843.27-Aug-2021 4636.60 4501.01 82.24 25.00 194.02 3010.11
   23:00:22.043.27-Aug-2021 4636.60 4501.01 82.24 25.00 194.22 3010.11
   23:00:22.243.27-Aug-2021 4636.60 4500.98 82.24 25.00 194.42 3010.11
   23:00:22.443.27-Aug-2021 4636.60 4500.96 82.24 25.00 194.62 3010.11
   23:00:22.643.27-Aug-2021 4636.60 4500.96 82.24 25.00 194.82 3010.11
   23:00:22.843.27-Aug-2021 4636.60 4500.94 82.24 25.00 195.02 3010.11
   23:00:23.043.27-Aug-2021 4636.60 4500.94 82.24 25.00 195.22 3010.11
   23:00:23.243.27-Aug-2021 4636.60 4500.92 82.24 25.00 195.42 3010.11
   23:00:23.443.27-Aug-2021 4636.60 4500.91 82.24 25.00 195.62 3010.11
   23:00:23.643.27-Aug-2021 4636.60 4500.90 82.24 25.00 195.82 3010.11
   23:00:23.843.27-Aug-2021 4636.60 4500.90 82.24 25.00 196.02 3010.11
   23:00:24.043.27-Aug-2021 4636.60 4500.90 82.24 25.00 196.22 3010.11
   23:00:24.243.27-Aug-2021 4636.60 4500.68 82.24 25.00 196.42 3010.11
   23:00:24.443.27-Aug-2021 4636.60 4501.19 82.24 25.00 196.62 3010.11
   23:00:24.643.27-Aug-2021 4636.60 4501.14 82.24 25.00 196.82 3010.11
   23:00:24.843.27-Aug-2021 4636.60 4501.10 82.24 25.00 197.02 3010.11
   23:00:25.043.27-Aug-2021 4636.60 4501.10 82.24 25.00 197.22 3010.11
   23:00:25.243.27-Aug-2021 4636.60 4500.42 82.24 25.00 197.42 3010.11
   23:00:25.443.27-Aug-2021 4636.60 4501.40 82.24 25.00 197.62 3010.11
   23:00:25.643.27-Aug-2021 4636.60 4501.18 82.24 25.00 197.82 3010.11
   23:00:25.843.27-Aug-2021 4636.60 4501.14 82.24 25.00 198.02 3010.11
   23:00:26.043.27-Aug-2021 4636.60 4501.14 82.24 25.00 198.22 3010.11
   23:00:26.243.27-Aug-2021 4636.60 4500.46 82.24 25.00 198.42 3010.11
   23:00:26.443.27-Aug-2021 4636.60 4501.45 82.24 25.00 198.62 3010.11
   23:00:26.643.27-Aug-2021 4636.60 4501.23 82.24 25.00 198.82 3010.11
   23:00:26.843.27-Aug-2021 4636.60 4501.19 82.24 25.00 199.02 3010.11
   23:00:27.043.27-Aug-2021 4636.60 4501.19 82.24 25.00 199.22 3010.11
   23:00:27.243.27-Aug-2021 4636.60 4501.14 82.24 25.00 199.42 3010.11
   23:00:27.443.27-Aug-2021 4636.60 4501.10 82.24 25.00 199.62 3010.11
   23:00:27.643.27-Aug-2021 4636.60 4500.65 82.24 25.00 199.82 3010.11
   23:00:27.843.27-Aug-2021 4636.60 4501.30 82.24 25.00 200.02 3010.11
   23:00:28.043.27-Aug-2021 4636.60 4501.30 82.24 25.00 200.22 3010.11
   23:00:28.243.27-Aug-2021 4636.60 4501.15 82.24 25.00 200.42 3010.11
   23:00:28.443.27-Aug-2021 4636.60 4501.13 82.24 25.00 200.62 3010.11
   23:00:28.643.27-Aug-2021 4636.60 4501.11 82.24 25.00 200.82 3010.11
   23:00:28.843.27-Aug-2021 4636.60 4501.10 82.24 25.00 201.02 3010.11
   23:00:29.043.27-Aug-2021 4636.60 4501.10 82.24 25.00 201.22 3010.11
   23:00:29.243.27-Aug-2021 4636.60 4501.08 82.24 25.00 201.42 3010.11
   23:00:29.443.27-Aug-2021 4636.60 4501.07 82.24 25.00 201.62 3010.11
   23:00:29.643.27-Aug-2021 4636.60 4501.05 82.24 25.00 201.82 3010.11
   23:00:29.843.27-Aug-2021 4636.60 4501.06 82.24 25.00 202.02 3010.11
   23:00:30.043.27-Aug-2021 4636.60 4501.06 82.24 25.00 202.22 3010.11
   23:00:30.243.27-Aug-2021 4636.60 4501.04 82.24 25.00 202.42 3010.11
   23:00:30.443.27-Aug-2021 4636.60 4501.03 82.24 25.00 202.62 3010.11
   23:00:30.643.27-Aug-2021 4636.60 4500.69 82.24 25.00 202.82 3010.11
   23:00:30.843.27-Aug-2021 4636.60 4501.15 82.24 25.00 203.02 3010.11
   23:00:31.044.27-Aug-2021 4636.60 4501.15 82.24 25.00 203.22 3010.11
