~Version Information
 VERS.                  2.0:   CWLS log ASCII Standard -VERSION 2.0
 WRAP.                   NO:   One line per depth step
~Well Information Block
#MNEM.UNIT     VALUE/NAME     DESCRIPTION
#---------     -----------    ---------------------------
 STRT.S             21:24:04 27-Aug-21: START TIME 21:24:04 27-Aug-21
 STOP.S             21:30:54 27-Aug-21: STOP TIME  21:30:54 27-Aug-21
 STEP.S                   0.00: STEP TIME
 NULL.                 -999.25: NULL VALUE
 DFWT.                        :  DIST FWL TEXT
 DFST.                        :  DIST FSL TEXT
 DMF .             Drill Floor:  DRILL MEAS FROM
 STIM.      20.00.00 17-Aug-21:  START TIME
 DATE.      19.00.00 29-Aug-21:  END TIME
 SPUD.               15-Aug-21:  SPUD DATE
 NREF.                    Grid:  NORTH REFERENCE
 HPTY.       Minimum Curvature:  HOLE POS TYPE
 DMOD.             Drill Model:  DRILL MOD DESC
 SVYD.                  Survey:  SURVEY DESC
 ILTD.               Lithology:  INTERP LTH DESC
 FTOP.          Formation Tops:  FORM TOPS DESC
 RIG .              East Azeri:  RIG NAME
 PDAT.          Mean Sea Level:  PERMANENT DATUM
 FLD .                     ACG:  FIELD NAME
 SON .        AZ-XX-0907180857:  JOB NUMBER
 CTRY.              Azerbaijan:  COUNTRY NAME
 WELL.                    D23x:  WELL NAME
 SRVC.     Turan Drilling and Engineering:  CONTRACTOR
 COMP.     BP Exploration (Caspian Sea) Ltd.:  COMPANY
 UWI .            /AZE00000214:  UNIQUE WELL IDENTIFIER
 API .            /AZE00000214:  API NUMBER
 MDS .        Operator Entered:  MAG DATA SOURCE
 BASE.              Azerbaijan:  LOGGING EQUIPMENT BASE LOCATION
 REGN.                   EESSA:  REGION
 PROV.                    Baku:  PROVINCE
 STAT.                    Baku:  STATE NAME
 MWDS.                    Baku:  MWD SHOP
 DOE .                     N/A:  DOE NUMBER
 DCON.         Sperry Drilling:  DIRECTNL CONTR
 UNIT.                     N/A:  LOGGING EQUIPMENT ID
 WTYP.                Deviated:  WELL TYPE
 CNTY.                        :  COUNTY
 LOC .                        :  LOCATION
 LMF .             Drill Floor:  LOG MEASURED FROM
 TVDS.m                  43.60:  TVDSS CORRECTN
 LATI.deg                40.02:  LATITUDE
 LONG.deg                51.45:  LONGITUDE
 WHNS.m                  -7.04:  WELL HEAD N/S
 WHEW.m                  -0.67:  WELL HEAD E/W
 UTMX.m              538762.90:  UTM X
 UTMY.m             4431871.34:  UTM Y
 DFWL.m                   0.00:  DISTANCE FWL
 DFSL.m                   0.00:  DISTANCE FSL
 SDEP.m                4127.00:  START DEPTH
 TDD .m                5084.50:  TOTAL DEPTH (DRILLER)
 VSDR.deg               140.47:  VERT SEC DIRECT
 GVFD.g                   1.00:  GRAVITY FIELD
 MFLD.nT              50362.00:  MAGNETIC FIELD
 MDIP.deg                59.48:  MAGNETIC DIP
 MDEC.deg                 6.47:  MAGNETIC DECL
 GRDC.deg                 0.31:  GRID CORRECTION
 AZTC.deg                 6.16:  AZM TOTAL CORR
 EPD .m                   0.00:  ELEVATION
 EGL .m                   0.00:  GROUND ELEVATION
 WDMS.m                 151.80:  WD ELEV
 APD .m                  43.60:  DEPTH ABOVE PD
 DEP .m                4092.57:  DEPTH
 AGAP.m                  43.60:  AIR GAP
 VSEW.m                  -0.67:  VERT SEC E/W
 VSNS.m                  -7.04:  VERT SEC N/S
 EKB .m                  43.60:  KB ELEVATION
 EDF .m                  43.60:  DF ELEVATION
 TDL .m                 957.50:  TOTAL DEPTH (LOGGER)
 VSC .                       0:  VS TO CLOSURE
 MAGU.                 1851413:  MAGUTM CHECKSUM
~Parameter Information Block
#MNEM.UNIT       Value        Description
#---------     -----------    ---------------------------
 AV  .mps                 1.50:  Ann Velocity 
 AVMX.mps                 2.00:  Max Ann Veloc 
 AZIF.deg               184.66:  Azm, Final 
 BHAT.        Rotary Steerable:  BHA Type 
 BREV.rev               300.00:  Rev Bit Total 
 BROT.°/30m              -0.50:  Build Rotating 
 BS  .in                  8.50:  Bit Size 
 BSZ .in                  8.50:  Bit Size 
 BTPL.psig              370.00:  Bit Press Loss 
 CABU.                      No:  Customer Abuse 
 CGEO.      Behruz Shahbaliyev:  Customer Geo 
 COMM.                     tºv:  Run Comments 1 
 TCS .hr                140.08:  Time Ciculation Ended 
 CV  .mps                 3.00:  Crit Velocity 
 CVMX.mps                 3.20:  Max Crit Veloc 
 DD1 .            Musa Ahmadov:  Direct Drillr 1 
 DD2 .           Hamid Ahmadov:  Direct Drillr 2 
 DDSV.               Geo-Pilot:  DD Service 
 DEFF.%                  98.40:  % Det Eff 
 DLRX.°/30m               3.40:  Dogleg Rot Max 
 DLSO.°/30m               1.45:  Dogleg Oriented 
 DLSX.°/30m               3.40:  Dogleg Str Max 
 DRET.      18.40.00 29-Aug-21:  Drill End Time 
 DRST.      21.00.00 20-Aug-21:  Drill Start Tim 
 DTIM.hr                 69.47:  Time Drilling 
 EDEP.m                5084.50:  End Depth 
 ENG1.      Artemiy Matviyanov:  Engineer 1 
 ENG2.         Almaz Almadatov:  Engineer 2 
 ETIM.      18.40.00 29-Aug-21:  End Time 
 FLOI.gpm               500.00:  Flow In 
 FLON.gpm               400.00:  Flow In Min 
 FLOS.cptm                0.00:  Fluid Loss 
 FLOX.gpm               500.00:  Flow In Max 
 DFT .        Mineral Oil Base:  Mud Type 
 HFLO.                      No:  High Flow 
 HPRE.                      No:  High Pressure 
 HTEM.                      No:  High Temp 
 HYDO.m                   1.80:  Hydro Offset 
 IFIN.deg                25.62:  Inc, Final 
 IMAX.deg                48.69:  Inc Max 
 IMIN.deg                24.01:  Inc Min 
 IMND.m                4962.57:  Inc Min Depth 
 IMXD.m                4119.01:  Inc Max Depth 
 JARR.                      No:  Jarring 
 LETM.      18.40.00 29-Aug-21:  Log End Time 
 LOST.hr                     0:  Lost Rig Time 
 LSTM.      21.00.00 20-Aug-21:  Log Start Time 
 MDCL.ppm             41500.00:  Mud Chlorides 
 MDES.     Inversion Oil/Synthetic:  Mud Desc 
 DFD .sg                  1.56:  Mud Density 
 MDMN.sg                  1.56:  Dens Mud Min 
 MDMX.sg                  1.56:  Dens Mud Max 
 MOIL.                      70:  Run Mud Oil % 
 MOWR.                   70:30:  Run Mud OWR 
 MSND.                     0.2:  Run Mud Sand % 
 MSOL.                    23.3:  Run Mud Solids% 
 DFV .spqt               78.00:  Mud Viscosity 
 MWOD.in                  6.75:  MWD Tool OD 
 MWSI.                      No:  Serv Intrp, MWD 
 OTIM.hr                218.30:  Time Operating 
 PCON.           Look Like New:  Pad Condition 
 PMAX.psia            11015.30:  Press Op, Max 
 PV  .cP                 38.00:  Mud PV 
 RUN .                     300:  Run Number 
 ROPA.m/hr               15.00:  ROP Avg 
 ROPN.m/hr                9.00:  ROP Min 
 ROPX.m/hr               17.00:  ROP Max 
 RPMA.rpm               120.00:  RPM Surface Avg 
 RPMN.rpm                90.00:  RPM Surface Min 
 RPMX.rpm               140.00:  RPM Surface Max 
 RRUN.                     300:  Rig Run Number 
 RTIM.hr                 31.53:  Time Reaming 
 SAZI.deg               331.64:  Azm, Start 
 SDEP.m                4127.00:  Start Depth 
 SIDD.                      No:  Serv Intrp, DD 
 SINC.deg                48.43:  Inc, Start 
 SPPA.psig             5830.00:  SPP Avg 
 SPPN.psig             5600.00:  SPP Min 
 SPPX.psig             5900.00:  SPP Max 
 STIM.      21.00.00 20-Aug-21:  Start Time 
 SVCS.                 DD, MWD:  Services 
 SVER.                    9.20:  Sperry Version 
 TDAT.m                 957.50:  Tot Depth Attmp 
 TDDF.                      No:  Trip for DD 
 TDLG.m                 957.50:  Tot Depth Loggd 
 TFF .                      No:  Trip for Fail 
 TQAA.f-kp               15.00:  Torque Abs Avg 
 TQAN.f-kp               12.00:  Torque Abs Min 
 TQAX.f-kp               19.00:  Torque Abs Max 
 TRRT.°/30m              -3.40:  Turn Rotating 
 MRT .                  EWR-M5:  Maximum Recorded Temperature 
 TTMX.degC              100.00:  Max Tool Temp 
 VS01.                90639251:  Virtual Str1 SN 
 VS02.                90634715:  Virtual Str2 SN 
 VS03.                90652479:  Virtual Str3 SN 
 VS04.                90642262:  Virtual Str4 SN 
 WBMN.klb                 0.00:  WOB Min 
 WITN.           Murad Guliyev:  Customer Rep 
 WITN.          Yashar Gaziyev:  Customer Rep 2 
 WOBA.klb                 9.00:  WOB Avg 
 WOBX.klb                12.00:  WOB Max 
 YP  .lhf2               30.00:  Yield Point 
~Curve Information Block
#MNEM.UNIT                 API CODE     Curve Description
#---------               -----------    ---------------------------
 TIME.HHMMSS            00 000 000 000:  GT Time & Date
 GTDEPTH.m              00 000 000 000:  GT Depth
 GTPQH.psia             00 000 000 000:  GT HR Quartz Pressure
 GTTQ.degC              00 000 000 000:  GT Quartz Temperature
 GTTN.NONE              00 000 000 000:  GT Test Number
 GTET.sec               00 000 000 000:  GT Elapsed Test Time
 GTTVD.m                00 000 000 000:  GT True Vertical Depth
#Other Information
#
#WARRANTY: Halliburton will use its best efforts to furnish customers with 
#accurate information and interpretations that are part of, and incident to, the services 
#provided.  However, Halliburton cannot and does not warrant the accuracy 
#or correctness of such information and interpretations.  Under no circumstances should any 
#such information or interpretation be relied upon as the sole basis for any drilling, 
#completion, production, or financial decision or any procedure involving any risk to the 
#safety of any drilling venture, drilling rig or its crew or any other third party.  The 
#Customer has full responsibility for all drilling, completion and production operation.  
#Halliburton makes no representations or warranties, either expressed or 
#implied, including, but not limited to, the implied warranties of merchantability or fitness 
#for a particular purpose, with respect to the services rendered.  In no event will 
#Halliburton be liable for failure to obtain any particular results or for 
#any damages, including, but not limited to, indirect, special or consequential damages, 
#resulting from the use of any information or interpretation provided by Halliburton.
#
~A           TIME           GTDEPTH  GTPQH  GTTQ  GTTN   GTET   GTTVD  
# ...
   21:25:12.059.27-Aug-2021 4641.00 1238.20 82.29 23.00  67.81 3014.10
   21:25:12.259.27-Aug-2021 4641.00 1240.00 82.29 23.00  68.01 3014.10
   21:25:12.459.27-Aug-2021 4641.00 1240.00 82.29 23.00  68.21 3014.10
   21:25:12.659.27-Aug-2021 4641.00 1243.57 82.29 23.00  68.41 3014.10
   21:25:12.859.27-Aug-2021 4641.00 1244.80 82.29 23.00  68.61 3014.10
   21:25:13.059.27-Aug-2021 4641.00 1247.53 82.29 23.00  68.81 3014.10
   21:25:13.259.27-Aug-2021 4641.00 1249.05 82.29 23.00  69.01 3014.10
   21:25:13.459.27-Aug-2021 4641.00 1249.05 82.29 23.00  69.21 3014.10
   21:25:13.659.27-Aug-2021 4641.00 1251.97 82.29 23.00  69.41 3014.10
   21:25:13.859.27-Aug-2021 4641.00 1254.08 82.29 23.00  69.61 3014.10
   21:25:14.059.27-Aug-2021 4641.00 1256.02 82.29 23.00  69.81 3014.10
   21:25:14.259.27-Aug-2021 4641.00 1257.57 82.29 23.00  70.01 3014.10
   21:25:14.459.27-Aug-2021 4641.00 1257.57 82.29 23.00  70.21 3014.10
   21:25:14.659.27-Aug-2021 4641.00 1261.32 82.29 23.00  70.41 3014.10
   21:25:14.859.27-Aug-2021 4641.00 1262.96 82.29 23.00  70.61 3014.10
   21:25:15.059.27-Aug-2021 4641.00 1264.42 82.29 23.00  70.81 3014.10
   21:25:15.259.27-Aug-2021 4641.00 1265.98 82.29 23.00  71.01 3014.10
   21:25:15.459.27-Aug-2021 4641.00 1265.98 82.29 23.00  71.21 3014.10
   21:25:15.659.27-Aug-2021 4641.00 1269.02 82.29 23.00  71.41 3014.10
   21:25:15.859.27-Aug-2021 4641.00 1270.58 82.30 23.00  71.61 3014.10
   21:25:16.059.27-Aug-2021 4641.00 1272.05 82.30 23.00  71.81 3014.10
   21:25:16.259.27-Aug-2021 4641.00 1273.56 82.30 23.00  72.01 3014.10
   21:25:16.459.27-Aug-2021 4641.00 1273.56 82.30 23.00  72.21 3014.10
   21:25:16.659.27-Aug-2021 4641.00 1276.53 82.30 23.00  72.41 3014.10
   21:25:16.859.27-Aug-2021 4641.00 1278.01 82.30 23.00  72.61 3014.10
   21:25:17.059.27-Aug-2021 4641.00 1279.36 82.30 23.00  72.81 3014.10
   21:25:17.259.27-Aug-2021 4641.00 1280.70 82.30 23.00  73.01 3014.10
   21:25:17.459.27-Aug-2021 4641.00 1280.70 82.30 23.00  73.21 3014.10
   21:25:17.659.27-Aug-2021 4641.00 1282.84 82.30 23.00  73.41 3014.10
   21:25:17.859.27-Aug-2021 4641.00 1284.82 82.30 23.00  73.61 3014.10
   21:25:18.059.27-Aug-2021 4641.00 1285.98 82.30 23.00  73.81 3014.10
   21:25:18.259.27-Aug-2021 4641.00 1287.30 82.30 23.00  74.01 3014.10
   21:25:18.460.27-Aug-2021 4641.00 1287.30 82.30 23.00  74.21 3014.10
   21:25:18.660.27-Aug-2021 4641.00 1289.94 82.30 23.00  74.41 3014.10
   21:25:18.860.27-Aug-2021 4641.00 1291.10 82.30 23.00  74.61 3014.10
   21:25:19.060.27-Aug-2021 4641.00 1292.26 82.30 23.00  74.81 3014.10
   21:25:19.260.27-Aug-2021 4641.00 1293.42 82.30 23.00  75.01 3014.10
   21:25:19.460.27-Aug-2021 4641.00 1293.42 82.30 23.00  75.21 3014.10
   21:25:19.660.27-Aug-2021 4641.00 1295.71 82.30 23.00  75.41 3014.10
   21:25:19.860.27-Aug-2021 4641.00 1296.87 82.30 23.00  75.61 3014.10
   21:25:20.060.27-Aug-2021 4641.00 1298.02 82.30 23.00  75.81 3014.10
   21:25:20.260.27-Aug-2021 4641.00 1299.15 82.30 23.00  76.01 3014.10
   21:25:20.460.27-Aug-2021 4641.00 1299.15 82.30 23.00  76.21 3014.10
   21:25:20.660.27-Aug-2021 4641.00 1301.34 82.30 23.00  76.41 3014.10
   21:25:20.860.27-Aug-2021 4641.00 1301.85 82.30 23.00  76.61 3014.10
   21:25:21.060.27-Aug-2021 4641.00 1303.55 82.30 23.00  76.81 3014.10
   21:25:21.260.27-Aug-2021 4641.00 1304.48 82.30 23.00  77.01 3014.10
   21:25:21.460.27-Aug-2021 4641.00 1304.48 82.30 23.00  77.21 3014.10
   21:25:21.660.27-Aug-2021 4641.00 1306.48 82.31 23.00  77.41 3014.10
   21:25:21.860.27-Aug-2021 4641.00 1306.96 82.31 23.00  77.61 3014.10
   21:25:22.060.27-Aug-2021 4641.00 1308.88 82.31 23.00  77.81 3014.10
   21:25:22.260.27-Aug-2021 4641.00 1309.84 82.31 23.00  78.01 3014.10
   21:25:22.460.27-Aug-2021 4641.00 1309.84 82.31 23.00  78.21 3014.10
   21:25:22.660.27-Aug-2021 4641.00 1311.74 82.31 23.00  78.41 3014.10
   21:25:22.860.27-Aug-2021 4641.00 1312.78 82.31 23.00  78.61 3014.10
   21:25:23.060.27-Aug-2021 4641.00 1313.51 82.31 23.00  78.81 3014.10
   21:25:23.260.27-Aug-2021 4641.00 1314.83 82.31 23.00  79.01 3014.10
   21:25:23.460.27-Aug-2021 4641.00 1314.83 82.31 23.00  79.21 3014.10
   21:25:23.660.27-Aug-2021 4641.00 1316.94 82.31 23.00  79.41 3014.10
   21:25:23.860.27-Aug-2021 4641.00 1317.76 82.31 23.00  79.61 3014.10
   21:25:24.060.27-Aug-2021 4641.00 1318.67 82.31 23.00  79.81 3014.10
   21:25:24.260.27-Aug-2021 4641.00 1319.65 82.31 23.00  80.01 3014.10
   21:25:24.460.27-Aug-2021 4641.00 1319.65 82.31 23.00  80.21 3014.10
   21:25:24.660.27-Aug-2021 4641.00 1322.00 82.31 23.00  80.41 3014.10
   21:25:24.860.27-Aug-2021 4641.00 1322.82 82.31 23.00  80.61 3014.10
   21:25:25.060.27-Aug-2021 4641.00 1323.61 82.31 23.00  80.81 3014.10
   21:25:25.260.27-Aug-2021 4641.00 1324.46 82.31 23.00  81.01 3014.10
   21:25:25.460.27-Aug-2021 4641.00 1324.46 82.31 23.00  81.21 3014.10
   21:25:25.660.27-Aug-2021 4641.00 1326.16 82.31 23.00  81.41 3014.10
   21:25:25.860.27-Aug-2021 4641.00 1326.99 82.31 23.00  81.61 3014.10
   21:25:26.060.27-Aug-2021 4641.00 1327.83 82.31 23.00  81.81 3014.10
   21:25:26.260.27-Aug-2021 4641.00 1328.64 82.32 23.00  82.01 3014.10
   21:25:26.460.27-Aug-2021 4641.00 1328.64 82.32 23.00  82.21 3014.10
   21:25:26.660.27-Aug-2021 4641.00 1330.28 82.32 23.00  82.41 3014.10
   21:25:26.860.27-Aug-2021 4641.00 1331.09 82.32 23.00  82.61 3014.10
   21:25:27.060.27-Aug-2021 4641.00 1331.97 82.32 23.00  82.81 3014.10
   21:25:27.260.27-Aug-2021 4641.00 1332.83 82.32 23.00  83.01 3014.10
   21:25:27.460.27-Aug-2021 4641.00 1332.83 82.32 23.00  83.21 3014.10
   21:25:27.660.27-Aug-2021 4641.00 1334.00 82.32 23.00  83.41 3014.10
   21:25:27.860.27-Aug-2021 4641.00 1335.41 82.32 23.00  83.61 3014.10
   21:25:28.060.27-Aug-2021 4641.00 1336.10 82.32 23.00  83.81 3014.10
   21:25:28.261.27-Aug-2021 4641.00 1336.76 82.32 23.00  84.01 3014.10
   21:25:28.461.27-Aug-2021 4641.00 1336.76 82.32 23.00  84.21 3014.10
   21:25:28.661.27-Aug-2021 4641.00 1338.34 82.32 23.00  84.41 3014.10
   21:25:28.861.27-Aug-2021 4641.00 1339.05 82.32 23.00  84.61 3014.10
   21:25:29.061.27-Aug-2021 4641.00 1339.85 82.32 23.00  84.81 3014.10
   21:25:29.261.27-Aug-2021 4641.00 1340.58 82.32 23.00  85.01 3014.10
   21:25:29.461.27-Aug-2021 4641.00 1340.58 82.32 23.00  85.21 3014.10
   21:25:29.661.27-Aug-2021 4641.00 1342.14 82.32 23.00  85.41 3014.10
   21:25:29.861.27-Aug-2021 4641.00 1342.90 82.32 23.00  85.61 3014.10
   21:25:30.061.27-Aug-2021 4641.00 1343.67 82.32 23.00  85.81 3014.10
   21:25:30.261.27-Aug-2021 4641.00 1344.41 82.32 23.00  86.01 3014.10
   21:25:30.461.27-Aug-2021 4641.00 1344.41 82.32 23.00  86.21 3014.10
   21:25:30.661.27-Aug-2021 4641.00 1345.84 82.32 23.00  86.41 3014.10
   21:25:30.861.27-Aug-2021 4641.00 1345.84 82.32 23.00  86.61 3014.10
   21:25:31.061.27-Aug-2021 4641.00 1347.32 82.32 23.00  86.81 3014.10
   21:25:31.261.27-Aug-2021 4641.00 1347.84 82.33 23.00  87.01 3014.10
   21:25:31.461.27-Aug-2021 4641.00 1347.84 82.33 23.00  87.21 3014.10
   21:25:31.661.27-Aug-2021 4641.00 1348.42 82.33 23.00  87.41 3014.10
   21:25:31.861.27-Aug-2021 4641.00 1349.92 82.33 23.00  87.61 3014.10
   21:25:32.061.27-Aug-2021 4641.00 1350.41 82.33 23.00  87.81 3014.10
   21:25:32.261.27-Aug-2021 4641.00 1351.04 82.33 23.00  88.01 3014.10
   21:25:32.461.27-Aug-2021 4641.00 1351.04 82.33 23.00  88.21 3014.10
   21:25:32.661.27-Aug-2021 4641.00 1352.21 82.33 23.00  88.41 3014.10
   21:25:32.861.27-Aug-2021 4641.00 1353.23 82.33 23.00  88.61 3014.10
   21:25:33.061.27-Aug-2021 4641.00 1353.86 82.33 23.00  88.81 3014.10
   21:25:33.261.27-Aug-2021 4641.00 1353.92 82.33 23.00  89.01 3014.10
   21:25:33.461.27-Aug-2021 4641.00 1353.92 82.33 23.00  89.21 3014.10
   21:25:33.661.27-Aug-2021 4641.00 1356.12 82.33 23.00  89.41 3014.10
   21:25:33.861.27-Aug-2021 4641.00 1356.68 82.33 23.00  89.61 3014.10
   21:25:34.061.27-Aug-2021 4641.00 1357.35 82.33 23.00  89.81 3014.10
   21:25:34.261.27-Aug-2021 4641.00 1358.08 82.33 23.00  90.01 3014.10
   21:25:34.461.27-Aug-2021 4641.00 1358.08 82.33 23.00  90.21 3014.10
