~Version Information
 VERS.                  2.0:   CWLS log ASCII Standard -VERSION 2.0
 WRAP.                   NO:   One line per depth step
~Well Information Block
#MNEM.UNIT     VALUE/NAME     DESCRIPTION
#---------     -----------    ---------------------------
 STRT.S             13:07:39 27-Aug-21: START TIME 13:07:39 27-Aug-21
 STOP.S             13:14:54 27-Aug-21: STOP TIME  13:14:54 27-Aug-21
 STEP.S                   0.00: STEP TIME
 NULL.                 -999.25: NULL VALUE
 DFWT.                        :  DIST FWL TEXT
 DFST.                        :  DIST FSL TEXT
 DMF .             Drill Floor:  DRILL MEAS FROM
 STIM.      20.00.00 17-Aug-21:  START TIME
 DATE.      19.00.00 29-Aug-21:  END TIME
 SPUD.               15-Aug-21:  SPUD DATE
 NREF.                    Grid:  NORTH REFERENCE
 HPTY.       Minimum Curvature:  HOLE POS TYPE
 DMOD.             Drill Model:  DRILL MOD DESC
 SVYD.                  Survey:  SURVEY DESC
 ILTD.               Lithology:  INTERP LTH DESC
 FTOP.          Formation Tops:  FORM TOPS DESC
 RIG .              East Azeri:  RIG NAME
 PDAT.          Mean Sea Level:  PERMANENT DATUM
 FLD .                     ACG:  FIELD NAME
 SON .        AZ-XX-0907180857:  JOB NUMBER
 CTRY.              Azerbaijan:  COUNTRY NAME
 WELL.                    D23x:  WELL NAME
 SRVC.     Turan Drilling and Engineering:  CONTRACTOR
 COMP.     BP Exploration (Caspian Sea) Ltd.:  COMPANY
 UWI .            /AZE00000214:  UNIQUE WELL IDENTIFIER
 API .            /AZE00000214:  API NUMBER
 MDS .        Operator Entered:  MAG DATA SOURCE
 BASE.              Azerbaijan:  LOGGING EQUIPMENT BASE LOCATION
 REGN.                   EESSA:  REGION
 PROV.                    Baku:  PROVINCE
 STAT.                    Baku:  STATE NAME
 MWDS.                    Baku:  MWD SHOP
 DOE .                     N/A:  DOE NUMBER
 DCON.         Sperry Drilling:  DIRECTNL CONTR
 UNIT.                     N/A:  LOGGING EQUIPMENT ID
 WTYP.                Deviated:  WELL TYPE
 CNTY.                        :  COUNTY
 LOC .                        :  LOCATION
 LMF .             Drill Floor:  LOG MEASURED FROM
 TVDS.m                  43.60:  TVDSS CORRECTN
 LATI.deg                40.02:  LATITUDE
 LONG.deg                51.45:  LONGITUDE
 WHNS.m                  -7.04:  WELL HEAD N/S
 WHEW.m                  -0.67:  WELL HEAD E/W
 UTMX.m              538762.90:  UTM X
 UTMY.m             4431871.34:  UTM Y
 DFWL.m                   0.00:  DISTANCE FWL
 DFSL.m                   0.00:  DISTANCE FSL
 SDEP.m                4127.00:  START DEPTH
 TDD .m                5084.50:  TOTAL DEPTH (DRILLER)
 VSDR.deg               140.47:  VERT SEC DIRECT
 GVFD.g                   1.00:  GRAVITY FIELD
 MFLD.nT              50362.00:  MAGNETIC FIELD
 MDIP.deg                59.48:  MAGNETIC DIP
 MDEC.deg                 6.47:  MAGNETIC DECL
 GRDC.deg                 0.31:  GRID CORRECTION
 AZTC.deg                 6.16:  AZM TOTAL CORR
 EPD .m                   0.00:  ELEVATION
 EGL .m                   0.00:  GROUND ELEVATION
 WDMS.m                 151.80:  WD ELEV
 APD .m                  43.60:  DEPTH ABOVE PD
 DEP .m                4092.57:  DEPTH
 AGAP.m                  43.60:  AIR GAP
 VSEW.m                  -0.67:  VERT SEC E/W
 VSNS.m                  -7.04:  VERT SEC N/S
 EKB .m                  43.60:  KB ELEVATION
 EDF .m                  43.60:  DF ELEVATION
 TDL .m                 957.50:  TOTAL DEPTH (LOGGER)
 VSC .                       0:  VS TO CLOSURE
 MAGU.                 1851413:  MAGUTM CHECKSUM
~Parameter Information Block
#MNEM.UNIT       Value        Description
#---------     -----------    ---------------------------
 AV  .mps                 1.50:  Ann Velocity 
 AVMX.mps                 2.00:  Max Ann Veloc 
 AZIF.deg               184.66:  Azm, Final 
 BHAT.        Rotary Steerable:  BHA Type 
 BREV.rev               300.00:  Rev Bit Total 
 BROT.°/30m              -0.50:  Build Rotating 
 BS  .in                  8.50:  Bit Size 
 BSZ .in                  8.50:  Bit Size 
 BTPL.psig              370.00:  Bit Press Loss 
 CABU.                      No:  Customer Abuse 
 CGEO.      Behruz Shahbaliyev:  Customer Geo 
 COMM.                     ¤R:  Run Comments 1 
 TCS .hr                140.08:  Time Ciculation Ended 
 CV  .mps                 3.00:  Crit Velocity 
 CVMX.mps                 3.20:  Max Crit Veloc 
 DD1 .            Musa Ahmadov:  Direct Drillr 1 
 DD2 .           Hamid Ahmadov:  Direct Drillr 2 
 DDSV.               Geo-Pilot:  DD Service 
 DEFF.%                  98.40:  % Det Eff 
 DLRX.°/30m               3.40:  Dogleg Rot Max 
 DLSO.°/30m               1.45:  Dogleg Oriented 
 DLSX.°/30m               3.40:  Dogleg Str Max 
 DRET.      18.40.00 29-Aug-21:  Drill End Time 
 DRST.      21.00.00 20-Aug-21:  Drill Start Tim 
 DTIM.hr                 69.47:  Time Drilling 
 EDEP.m                5084.50:  End Depth 
 ENG1.      Artemiy Matviyanov:  Engineer 1 
 ENG2.         Almaz Almadatov:  Engineer 2 
 ETIM.      18.40.00 29-Aug-21:  End Time 
 FLOI.gpm               500.00:  Flow In 
 FLON.gpm               400.00:  Flow In Min 
 FLOS.cptm                0.00:  Fluid Loss 
 FLOX.gpm               500.00:  Flow In Max 
 DFT .        Mineral Oil Base:  Mud Type 
 HFLO.                      No:  High Flow 
 HPRE.                      No:  High Pressure 
 HTEM.                      No:  High Temp 
 HYDO.m                   1.80:  Hydro Offset 
 IFIN.deg                25.62:  Inc, Final 
 IMAX.deg                48.69:  Inc Max 
 IMIN.deg                24.01:  Inc Min 
 IMND.m                4962.57:  Inc Min Depth 
 IMXD.m                4119.01:  Inc Max Depth 
 JARR.                      No:  Jarring 
 LETM.      18.40.00 29-Aug-21:  Log End Time 
 LOST.hr                     0:  Lost Rig Time 
 LSTM.      21.00.00 20-Aug-21:  Log Start Time 
 MDCL.ppm             41500.00:  Mud Chlorides 
 MDES.     Inversion Oil/Synthetic:  Mud Desc 
 DFD .sg                  1.56:  Mud Density 
 MDMN.sg                  1.56:  Dens Mud Min 
 MDMX.sg                  1.56:  Dens Mud Max 
 MOIL.                      70:  Run Mud Oil % 
 MOWR.                   70:30:  Run Mud OWR 
 MSND.                     0.2:  Run Mud Sand % 
 MSOL.                    23.3:  Run Mud Solids% 
 DFV .spqt               78.00:  Mud Viscosity 
 MWOD.in                  6.75:  MWD Tool OD 
 MWSI.                      No:  Serv Intrp, MWD 
 OTIM.hr                218.30:  Time Operating 
 PCON.           Look Like New:  Pad Condition 
 PMAX.psia            11015.30:  Press Op, Max 
 PV  .cP                 38.00:  Mud PV 
 RUN .                     300:  Run Number 
 ROPA.m/hr               15.00:  ROP Avg 
 ROPN.m/hr                9.00:  ROP Min 
 ROPX.m/hr               17.00:  ROP Max 
 RPMA.rpm               120.00:  RPM Surface Avg 
 RPMN.rpm                90.00:  RPM Surface Min 
 RPMX.rpm               140.00:  RPM Surface Max 
 RRUN.                     300:  Rig Run Number 
 RTIM.hr                 31.53:  Time Reaming 
 SAZI.deg               331.64:  Azm, Start 
 SDEP.m                4127.00:  Start Depth 
 SIDD.                      No:  Serv Intrp, DD 
 SINC.deg                48.43:  Inc, Start 
 SPPA.psig             5830.00:  SPP Avg 
 SPPN.psig             5600.00:  SPP Min 
 SPPX.psig             5900.00:  SPP Max 
 STIM.      21.00.00 20-Aug-21:  Start Time 
 SVCS.                 DD, MWD:  Services 
 SVER.                    9.20:  Sperry Version 
 TDAT.m                 957.50:  Tot Depth Attmp 
 TDDF.                      No:  Trip for DD 
 TDLG.m                 957.50:  Tot Depth Loggd 
 TFF .                      No:  Trip for Fail 
 TQAA.f-kp               15.00:  Torque Abs Avg 
 TQAN.f-kp               12.00:  Torque Abs Min 
 TQAX.f-kp               19.00:  Torque Abs Max 
 TRRT.°/30m              -3.40:  Turn Rotating 
 MRT .                  EWR-M5:  Maximum Recorded Temperature 
 TTMX.degC              100.00:  Max Tool Temp 
 VS01.                90639251:  Virtual Str1 SN 
 VS02.                90634715:  Virtual Str2 SN 
 VS03.                90652479:  Virtual Str3 SN 
 VS04.                90642262:  Virtual Str4 SN 
 WBMN.klb                 0.00:  WOB Min 
 WITN.           Murad Guliyev:  Customer Rep 
 WITN.          Yashar Gaziyev:  Customer Rep 2 
 WOBA.klb                 9.00:  WOB Avg 
 WOBX.klb                12.00:  WOB Max 
 YP  .lhf2               30.00:  Yield Point 
~Curve Information Block
#MNEM.UNIT                 API CODE     Curve Description
#---------               -----------    ---------------------------
 TIME.HHMMSS            00 000 000 000:  GT Time & Date
 GTDEPTH.m              00 000 000 000:  GT Depth
 GTPQH.psia             00 000 000 000:  GT HR Quartz Pressure
 GTTQ.degC              00 000 000 000:  GT Quartz Temperature
 GTTN.NONE              00 000 000 000:  GT Test Number
 GTET.sec               00 000 000 000:  GT Elapsed Test Time
 GTTVD.m                00 000 000 000:  GT True Vertical Depth
#Other Information
#
#WARRANTY: Halliburton will use its best efforts to furnish customers with 
#accurate information and interpretations that are part of, and incident to, the services 
#provided.  However, Halliburton cannot and does not warrant the accuracy 
#or correctness of such information and interpretations.  Under no circumstances should any 
#such information or interpretation be relied upon as the sole basis for any drilling, 
#completion, production, or financial decision or any procedure involving any risk to the 
#safety of any drilling venture, drilling rig or its crew or any other third party.  The 
#Customer has full responsibility for all drilling, completion and production operation.  
#Halliburton makes no representations or warranties, either expressed or 
#implied, including, but not limited to, the implied warranties of merchantability or fitness 
#for a particular purpose, with respect to the services rendered.  In no event will 
#Halliburton be liable for failure to obtain any particular results or for 
#any damages, including, but not limited to, indirect, special or consequential damages, 
#resulting from the use of any information or interpretation provided by Halliburton.
#
~A           TIME           GTDEPTH  GTPQH  GTTQ  GTTN   GTET   GTTVD  
# ...
   13:12:56.653.27-Aug-2021 4901.50 5051.36 84.92 13.00 316.72 3249.95
   13:12:56.853.27-Aug-2021 4901.50 5051.36 84.92 13.00 316.92 3249.95
   13:12:57.053.27-Aug-2021 4901.50 5051.35 84.92 13.00 317.12 3249.95
   13:12:57.254.27-Aug-2021 4901.50 5051.35 84.92 13.00 317.32 3249.95
   13:12:57.454.27-Aug-2021 4901.50 5051.35 84.92 13.00 317.52 3249.95
   13:12:57.654.27-Aug-2021 4901.50 5051.38 84.92 13.00 317.72 3249.95
   13:12:57.854.27-Aug-2021 4901.50 5051.41 84.92 13.00 317.92 3249.95
   13:12:58.054.27-Aug-2021 4901.50 5051.38 84.92 13.00 318.12 3249.95
   13:12:58.255.27-Aug-2021 4901.50 5051.38 84.92 13.00 318.32 3249.95
   13:12:58.455.27-Aug-2021 4901.50 5051.38 84.92 13.00 318.52 3249.95
   13:12:58.655.27-Aug-2021 4901.50 5051.37 84.92 13.00 318.72 3249.95
   13:12:58.855.27-Aug-2021 4901.50 5051.37 84.92 13.00 318.92 3249.95
   13:12:59.055.27-Aug-2021 4901.50 5051.37 84.92 13.00 319.12 3249.95
   13:12:59.256.27-Aug-2021 4901.50 5051.38 84.92 13.00 319.32 3249.95
   13:12:59.456.27-Aug-2021 4901.50 5051.38 84.92 13.00 319.52 3249.95
   13:12:59.656.27-Aug-2021 4901.50 5051.39 84.92 13.00 319.73 3249.95
   13:12:59.856.27-Aug-2021 4901.50 5051.35 84.92 13.00 319.93 3249.95
   13:13:00.057.27-Aug-2021 4901.50 5051.40 84.92 13.00 320.13 3249.95
   13:13:00.257.27-Aug-2021 4901.50 5051.42 84.92 13.00 320.33 3249.95
   13:13:00.457.27-Aug-2021 4901.50 5051.42 84.92 13.00 320.53 3249.95
   13:13:00.657.27-Aug-2021 4901.50 5051.38 84.92 13.00 320.73 3249.95
   13:13:00.857.27-Aug-2021 4901.50 5051.39 84.92 13.00 320.93 3249.95
   13:13:01.058.27-Aug-2021 4901.50 5051.36 84.92 13.00 321.13 3249.95
   13:13:01.258.27-Aug-2021 4901.50 5051.40 84.92 13.00 321.33 3249.95
   13:13:01.458.27-Aug-2021 4901.50 5051.40 84.92 13.00 321.53 3249.95
   13:13:01.658.27-Aug-2021 4901.50 5051.38 84.92 13.00 321.73 3249.95
   13:13:01.858.27-Aug-2021 4901.50 5051.38 84.92 13.00 321.93 3249.95
   13:13:02.059.27-Aug-2021 4901.50 5051.39 84.92 13.00 322.13 3249.95
   13:13:02.259.27-Aug-2021 4901.50 5051.38 84.92 13.00 322.33 3249.95
   13:13:02.459.27-Aug-2021 4901.50 5051.38 84.92 13.00 322.53 3249.95
   13:13:02.659.27-Aug-2021 4901.50 5051.38 84.92 13.00 322.73 3249.95
   13:13:02.859.27-Aug-2021 4901.50 5051.38 84.92 13.00 322.93 3249.95
   13:13:03.060.27-Aug-2021 4901.50 5051.37 84.92 13.00 323.13 3249.95
   13:13:03.260.27-Aug-2021 4901.50 5051.38 84.92 13.00 323.33 3249.95
   13:13:03.460.27-Aug-2021 4901.50 5051.38 84.92 13.00 323.53 3249.95
   13:13:03.660.27-Aug-2021 4901.50 5051.36 84.92 13.00 323.73 3249.95
   13:13:03.860.27-Aug-2021 4901.50 5051.36 84.92 13.00 323.93 3249.95
   13:13:04.061.27-Aug-2021 4901.50 5051.34 84.92 13.00 324.13 3249.95
   13:13:04.261.27-Aug-2021 4901.50 5051.38 84.92 13.00 324.33 3249.95
   13:13:04.461.27-Aug-2021 4901.50 5051.38 84.92 13.00 324.53 3249.95
   13:13:04.661.27-Aug-2021 4901.50 5051.38 84.91 13.00 324.73 3249.95
   13:13:04.861.27-Aug-2021 4901.50 5051.38 84.91 13.00 324.93 3249.95
   13:13:05.062.27-Aug-2021 4901.50 5051.38 84.91 13.00 325.13 3249.95
   13:13:05.262.27-Aug-2021 4901.50 5051.38 84.91 13.00 325.33 3249.95
   13:13:05.462.27-Aug-2021 4901.50 5051.38 84.91 13.00 325.53 3249.95
   13:13:05.662.27-Aug-2021 4901.50 5051.37 84.91 13.00 325.73 3249.95
   13:13:05.862.27-Aug-2021 4901.50 5051.37 84.91 13.00 325.93 3249.95
   13:13:06.063.27-Aug-2021 4901.50 5051.38 84.91 13.00 326.13 3249.95
   13:13:06.263.27-Aug-2021 4901.50 5051.36 84.91 13.00 326.33 3249.95
   13:13:06.463.27-Aug-2021 4901.50 5051.36 84.91 13.00 326.53 3249.95
   13:13:06.663.27-Aug-2021 4901.50 5051.37 84.91 13.00 326.73 3249.95
   13:13:06.863.27-Aug-2021 4901.50 5051.36 84.91 13.00 326.93 3249.95
   13:13:07.064.27-Aug-2021 4901.50 5051.36 84.91 13.00 327.13 3249.95
   13:13:07.264.27-Aug-2021 4901.50 5051.35 84.91 13.00 327.33 3249.95
   13:13:07.464.27-Aug-2021 4901.50 5051.35 84.91 13.00 327.53 3249.95
   13:13:07.664.27-Aug-2021 4901.50 5051.45 84.91 13.00 327.73 3249.95
   13:13:07.864.27-Aug-2021 4901.50 5051.39 84.91 13.00 327.93 3249.95
   13:13:08.065.27-Aug-2021 4901.50 5051.37 84.91 13.00 328.13 3249.95
   13:13:08.265.27-Aug-2021 4901.50 5051.37 84.91 13.00 328.33 3249.95
   13:13:08.465.27-Aug-2021 4901.50 5051.37 84.91 13.00 328.53 3249.95
   13:13:08.665.27-Aug-2021 4901.50 5051.37 84.91 13.00 328.73 3249.95
   13:13:08.865.27-Aug-2021 4901.50 5051.35 84.91 13.00 328.93 3249.95
   13:13:09.066.27-Aug-2021 4901.50 5051.39 84.91 13.00 329.13 3249.95
   13:13:09.266.27-Aug-2021 4901.50 5051.41 84.91 13.00 329.33 3249.95
   13:13:09.466.27-Aug-2021 4901.50 5051.41 84.91 13.00 329.54 3249.95
   13:13:09.666.27-Aug-2021 4901.50 5051.39 84.91 13.00 329.74 3249.95
   13:13:09.866.27-Aug-2021 4901.50 5051.33 84.91 13.00 329.94 3249.95
   13:13:10.067.27-Aug-2021 4901.50 5051.45 84.91 13.00 330.14 3249.95
   13:13:10.267.27-Aug-2021 4901.50 5051.38 84.91 13.00 330.34 3249.95
   13:13:10.467.27-Aug-2021 4901.50 5051.38 84.91 13.00 330.54 3249.95
   13:13:10.667.27-Aug-2021 4901.50 5051.37 84.91 13.00 330.74 3249.95
   13:13:10.868.27-Aug-2021 4901.50 5051.37 84.91 13.00 330.94 3249.95
   13:13:11.068.27-Aug-2021 4901.50 5051.37 84.91 13.00 331.14 3249.95
   13:13:11.268.27-Aug-2021 4901.50 5051.42 84.91 13.00 331.34 3249.95
   13:13:11.468.27-Aug-2021 4901.50 5051.42 84.91 13.00 331.54 3249.95
   13:13:11.668.27-Aug-2021 4901.50 5051.39 84.91 13.00 331.74 3249.95
   13:13:11.869.27-Aug-2021 4901.50 5051.39 84.91 13.00 331.94 3249.95
   13:13:12.069.27-Aug-2021 4901.50 5051.38 84.91 13.00 332.14 3249.95
   13:13:12.269.27-Aug-2021 4901.50 5051.39 84.91 13.00 332.34 3249.95
   13:13:12.469.27-Aug-2021 4901.50 5051.39 84.91 13.00 332.54 3249.95
   13:13:12.669.27-Aug-2021 4901.50 5051.38 84.91 13.00 332.74 3249.95
   13:13:12.870.27-Aug-2021 4901.50 5051.37 84.91 13.00 332.94 3249.95
   13:13:13.070.27-Aug-2021 4901.50 5051.37 84.91 13.00 333.14 3249.95
   13:13:13.270.27-Aug-2021 4901.50 5051.38 84.91 13.00 333.34 3249.95
   13:13:13.470.27-Aug-2021 4901.50 5051.38 84.91 13.00 333.54 3249.95
   13:13:13.670.27-Aug-2021 4901.50 5051.37 84.91 13.00 333.74 3249.95
   13:13:13.871.27-Aug-2021 4901.50 5051.36 84.91 13.00 333.94 3249.95
   13:13:14.071.27-Aug-2021 4901.50 5051.31 84.91 13.00 334.14 3249.95
   13:13:14.271.27-Aug-2021 4901.50 5051.45 84.91 13.00 334.34 3249.95
   13:13:14.471.27-Aug-2021 4901.50 5051.45 84.91 13.00 334.54 3249.95
   13:13:14.671.27-Aug-2021 4901.50 5051.38 84.91 13.00 334.74 3249.95
   13:13:14.872.27-Aug-2021 4901.50 5051.36 84.91 13.00 334.94 3249.95
   13:13:15.072.27-Aug-2021 4901.50 5051.39 84.91 13.00 335.14 3249.95
   13:13:15.272.27-Aug-2021 4901.50 5051.36 84.91 13.00 335.34 3249.95
   13:13:15.472.27-Aug-2021 4901.50 5051.36 84.91 13.00 335.54 3249.95
   13:13:15.672.27-Aug-2021 4901.50 5051.37 84.91 13.00 335.74 3249.95
   13:13:15.873.27-Aug-2021 4901.50 5051.38 84.91 13.00 335.94 3249.95
   13:13:16.073.27-Aug-2021 4901.50 5051.37 84.91 13.00 336.14 3249.95
   13:13:16.273.27-Aug-2021 4901.50 5051.37 84.91 13.00 336.34 3249.95
   13:13:16.473.27-Aug-2021 4901.50 5051.37 84.91 13.00 336.54 3249.95
   13:13:16.673.27-Aug-2021 4901.50 5051.36 84.91 13.00 336.74 3249.95
   13:13:16.874.27-Aug-2021 4901.50 5051.37 84.91 13.00 336.94 3249.95
   13:13:17.074.27-Aug-2021 4901.50 5051.35 84.91 13.00 337.14 3249.95
   13:13:17.274.27-Aug-2021 4901.50 5051.35 84.91 13.00 337.34 3249.95
   13:13:17.474.27-Aug-2021 4901.50 5051.35 84.91 13.00 337.54 3249.95
   13:13:17.674.27-Aug-2021 4901.50 5051.38 84.91 13.00 337.74 3249.95
   13:13:17.875.27-Aug-2021 4901.50 5051.40 84.91 13.00 337.94 3249.95
   13:13:18.075.27-Aug-2021 4901.50 5051.37 84.91 13.00 338.14 3249.95
   13:13:18.275.27-Aug-2021 4901.50 5051.38 84.91 13.00 338.34 3249.95
   13:13:18.475.27-Aug-2021 4901.50 5051.38 84.91 13.00 338.54 3249.95
   13:13:18.675.27-Aug-2021 4901.50 5051.38 84.91 13.00 338.74 3249.95
   13:13:18.876.27-Aug-2021 4901.50 5051.31 84.91 13.00 338.94 3249.95
   13:13:19.076.27-Aug-2021 4901.50 5051.47 84.91 13.00 339.14 3249.95
