~Version Information
 VERS.                  2.0:   CWLS log ASCII Standard -VERSION 2.0
 WRAP.                   NO:   One line per depth step
~Well Information Block
#MNEM.UNIT     VALUE/NAME     DESCRIPTION
#---------     -----------    ---------------------------
 STRT.S             02:31:31 28-Aug-21: START TIME 02:31:31 28-Aug-21
 STOP.S             02:38:23 28-Aug-21: STOP TIME  02:38:23 28-Aug-21
 STEP.S                   0.00: STEP TIME
 NULL.                 -999.25: NULL VALUE
 DFWT.                        :  DIST FWL TEXT
 DFST.                        :  DIST FSL TEXT
 DMF .             Drill Floor:  DRILL MEAS FROM
 STIM.      20.00.00 17-Aug-21:  START TIME
 DATE.      19.00.00 29-Aug-21:  END TIME
 SPUD.               15-Aug-21:  SPUD DATE
 NREF.                    Grid:  NORTH REFERENCE
 HPTY.       Minimum Curvature:  HOLE POS TYPE
 DMOD.             Drill Model:  DRILL MOD DESC
 SVYD.                  Survey:  SURVEY DESC
 ILTD.               Lithology:  INTERP LTH DESC
 FTOP.          Formation Tops:  FORM TOPS DESC
 RIG .              East Azeri:  RIG NAME
 PDAT.          Mean Sea Level:  PERMANENT DATUM
 FLD .                     ACG:  FIELD NAME
 SON .        AZ-XX-0907180857:  JOB NUMBER
 CTRY.              Azerbaijan:  COUNTRY NAME
 WELL.                    D23x:  WELL NAME
 SRVC.     Turan Drilling and Engineering:  CONTRACTOR
 COMP.     BP Exploration (Caspian Sea) Ltd.:  COMPANY
 UWI .            /AZE00000214:  UNIQUE WELL IDENTIFIER
 API .            /AZE00000214:  API NUMBER
 MDS .        Operator Entered:  MAG DATA SOURCE
 BASE.              Azerbaijan:  LOGGING EQUIPMENT BASE LOCATION
 REGN.                   EESSA:  REGION
 PROV.                    Baku:  PROVINCE
 STAT.                    Baku:  STATE NAME
 MWDS.                    Baku:  MWD SHOP
 DOE .                     N/A:  DOE NUMBER
 DCON.         Sperry Drilling:  DIRECTNL CONTR
 UNIT.                     N/A:  LOGGING EQUIPMENT ID
 WTYP.                Deviated:  WELL TYPE
 CNTY.                        :  COUNTY
 LOC .                        :  LOCATION
 LMF .             Drill Floor:  LOG MEASURED FROM
 TVDS.m                  43.60:  TVDSS CORRECTN
 LATI.deg                40.02:  LATITUDE
 LONG.deg                51.45:  LONGITUDE
 WHNS.m                  -7.04:  WELL HEAD N/S
 WHEW.m                  -0.67:  WELL HEAD E/W
 UTMX.m              538762.90:  UTM X
 UTMY.m             4431871.34:  UTM Y
 DFWL.m                   0.00:  DISTANCE FWL
 DFSL.m                   0.00:  DISTANCE FSL
 SDEP.m                4127.00:  START DEPTH
 TDD .m                5084.50:  TOTAL DEPTH (DRILLER)
 VSDR.deg               140.47:  VERT SEC DIRECT
 GVFD.g                   1.00:  GRAVITY FIELD
 MFLD.nT              50362.00:  MAGNETIC FIELD
 MDIP.deg                59.48:  MAGNETIC DIP
 MDEC.deg                 6.47:  MAGNETIC DECL
 GRDC.deg                 0.31:  GRID CORRECTION
 AZTC.deg                 6.16:  AZM TOTAL CORR
 EPD .m                   0.00:  ELEVATION
 EGL .m                   0.00:  GROUND ELEVATION
 WDMS.m                 151.80:  WD ELEV
 APD .m                  43.60:  DEPTH ABOVE PD
 DEP .m                4092.57:  DEPTH
 AGAP.m                  43.60:  AIR GAP
 VSEW.m                  -0.67:  VERT SEC E/W
 VSNS.m                  -7.04:  VERT SEC N/S
 EKB .m                  43.60:  KB ELEVATION
 EDF .m                  43.60:  DF ELEVATION
 TDL .m                 957.50:  TOTAL DEPTH (LOGGER)
 VSC .                       0:  VS TO CLOSURE
 MAGU.                 1851413:  MAGUTM CHECKSUM
~Parameter Information Block
#MNEM.UNIT       Value        Description
#---------     -----------    ---------------------------
 AV  .mps                 1.50:  Ann Velocity 
 AVMX.mps                 2.00:  Max Ann Veloc 
 AZIF.deg               184.66:  Azm, Final 
 BHAT.        Rotary Steerable:  BHA Type 
 BREV.rev               300.00:  Rev Bit Total 
 BROT.°/30m              -0.50:  Build Rotating 
 BS  .in                  8.50:  Bit Size 
 BSZ .in                  8.50:  Bit Size 
 BTPL.psig              370.00:  Bit Press Loss 
 CABU.                      No:  Customer Abuse 
 CGEO.      Behruz Shahbaliyev:  Customer Geo 
 COMM.                     Œjp:  Run Comments 1 
 TCS .hr                140.08:  Time Ciculation Ended 
 CV  .mps                 3.00:  Crit Velocity 
 CVMX.mps                 3.20:  Max Crit Veloc 
 DD1 .            Musa Ahmadov:  Direct Drillr 1 
 DD2 .           Hamid Ahmadov:  Direct Drillr 2 
 DDSV.               Geo-Pilot:  DD Service 
 DEFF.%                  98.40:  % Det Eff 
 DLRX.°/30m               3.40:  Dogleg Rot Max 
 DLSO.°/30m               1.45:  Dogleg Oriented 
 DLSX.°/30m               3.40:  Dogleg Str Max 
 DRET.      18.40.00 29-Aug-21:  Drill End Time 
 DRST.      21.00.00 20-Aug-21:  Drill Start Tim 
 DTIM.hr                 69.47:  Time Drilling 
 EDEP.m                5084.50:  End Depth 
 ENG1.      Artemiy Matviyanov:  Engineer 1 
 ENG2.         Almaz Almadatov:  Engineer 2 
 ETIM.      18.40.00 29-Aug-21:  End Time 
 FLOI.gpm               500.00:  Flow In 
 FLON.gpm               400.00:  Flow In Min 
 FLOS.cptm                0.00:  Fluid Loss 
 FLOX.gpm               500.00:  Flow In Max 
 DFT .        Mineral Oil Base:  Mud Type 
 HFLO.                      No:  High Flow 
 HPRE.                      No:  High Pressure 
 HTEM.                      No:  High Temp 
 HYDO.m                   1.80:  Hydro Offset 
 IFIN.deg                25.62:  Inc, Final 
 IMAX.deg                48.69:  Inc Max 
 IMIN.deg                24.01:  Inc Min 
 IMND.m                4962.57:  Inc Min Depth 
 IMXD.m                4119.01:  Inc Max Depth 
 JARR.                      No:  Jarring 
 LETM.      18.40.00 29-Aug-21:  Log End Time 
 LOST.hr                     0:  Lost Rig Time 
 LSTM.      21.00.00 20-Aug-21:  Log Start Time 
 MDCL.ppm             41500.00:  Mud Chlorides 
 MDES.     Inversion Oil/Synthetic:  Mud Desc 
 DFD .sg                  1.56:  Mud Density 
 MDMN.sg                  1.56:  Dens Mud Min 
 MDMX.sg                  1.56:  Dens Mud Max 
 MOIL.                      70:  Run Mud Oil % 
 MOWR.                   70:30:  Run Mud OWR 
 MSND.                     0.2:  Run Mud Sand % 
 MSOL.                    23.3:  Run Mud Solids% 
 DFV .spqt               78.00:  Mud Viscosity 
 MWOD.in                  6.75:  MWD Tool OD 
 MWSI.                      No:  Serv Intrp, MWD 
 OTIM.hr                218.30:  Time Operating 
 PCON.           Look Like New:  Pad Condition 
 PMAX.psia            11015.30:  Press Op, Max 
 PV  .cP                 38.00:  Mud PV 
 RUN .                     300:  Run Number 
 ROPA.m/hr               15.00:  ROP Avg 
 ROPN.m/hr                9.00:  ROP Min 
 ROPX.m/hr               17.00:  ROP Max 
 RPMA.rpm               120.00:  RPM Surface Avg 
 RPMN.rpm                90.00:  RPM Surface Min 
 RPMX.rpm               140.00:  RPM Surface Max 
 RRUN.                     300:  Rig Run Number 
 RTIM.hr                 31.53:  Time Reaming 
 SAZI.deg               331.64:  Azm, Start 
 SDEP.m                4127.00:  Start Depth 
 SIDD.                      No:  Serv Intrp, DD 
 SINC.deg                48.43:  Inc, Start 
 SPPA.psig             5830.00:  SPP Avg 
 SPPN.psig             5600.00:  SPP Min 
 SPPX.psig             5900.00:  SPP Max 
 STIM.      21.00.00 20-Aug-21:  Start Time 
 SVCS.                 DD, MWD:  Services 
 SVER.                    9.20:  Sperry Version 
 TDAT.m                 957.50:  Tot Depth Attmp 
 TDDF.                      No:  Trip for DD 
 TDLG.m                 957.50:  Tot Depth Loggd 
 TFF .                      No:  Trip for Fail 
 TQAA.f-kp               15.00:  Torque Abs Avg 
 TQAN.f-kp               12.00:  Torque Abs Min 
 TQAX.f-kp               19.00:  Torque Abs Max 
 TRRT.°/30m              -3.40:  Turn Rotating 
 MRT .                  EWR-M5:  Maximum Recorded Temperature 
 TTMX.degC              100.00:  Max Tool Temp 
 VS01.                90639251:  Virtual Str1 SN 
 VS02.                90634715:  Virtual Str2 SN 
 VS03.                90652479:  Virtual Str3 SN 
 VS04.                90642262:  Virtual Str4 SN 
 WBMN.klb                 0.00:  WOB Min 
 WITN.           Murad Guliyev:  Customer Rep 
 WITN.          Yashar Gaziyev:  Customer Rep 2 
 WOBA.klb                 9.00:  WOB Avg 
 WOBX.klb                12.00:  WOB Max 
 YP  .lhf2               30.00:  Yield Point 
~Curve Information Block
#MNEM.UNIT                 API CODE     Curve Description
#---------               -----------    ---------------------------
 TIME.HHMMSS            00 000 000 000:  GT Time & Date
 GTDEPTH.m              00 000 000 000:  GT Depth
 GTPQH.psia             00 000 000 000:  GT HR Quartz Pressure
 GTTQ.degC              00 000 000 000:  GT Quartz Temperature
 GTTN.NONE              00 000 000 000:  GT Test Number
 GTET.sec               00 000 000 000:  GT Elapsed Test Time
 GTTVD.m                00 000 000 000:  GT True Vertical Depth
#Other Information
#
#WARRANTY: Halliburton will use its best efforts to furnish customers with 
#accurate information and interpretations that are part of, and incident to, the services 
#provided.  However, Halliburton cannot and does not warrant the accuracy 
#or correctness of such information and interpretations.  Under no circumstances should any 
#such information or interpretation be relied upon as the sole basis for any drilling, 
#completion, production, or financial decision or any procedure involving any risk to the 
#safety of any drilling venture, drilling rig or its crew or any other third party.  The 
#Customer has full responsibility for all drilling, completion and production operation.  
#Halliburton makes no representations or warranties, either expressed or 
#implied, including, but not limited to, the implied warranties of merchantability or fitness 
#for a particular purpose, with respect to the services rendered.  In no event will 
#Halliburton be liable for failure to obtain any particular results or for 
#any damages, including, but not limited to, indirect, special or consequential damages, 
#resulting from the use of any information or interpretation provided by Halliburton.
#
~A           TIME           GTDEPTH  GTPQH  GTTQ  GTTN   GTET   GTTVD  
# ...
   02:36:48.488.28-Aug-2021 4891.00 7787.47 80.66 28.00 316.50 3240.41
   02:36:48.688.28-Aug-2021 4891.00 7791.58 80.66 28.00 316.70 3240.41
   02:36:48.888.28-Aug-2021 4891.00 7790.25 80.66 28.00 316.90 3240.41
   02:36:49.088.28-Aug-2021 4891.00 7790.10 80.66 28.00 317.10 3240.41
   02:36:49.288.28-Aug-2021 4891.00 7790.10 80.66 28.00 317.30 3240.41
   02:36:49.488.28-Aug-2021 4891.00 7789.76 80.66 28.00 317.50 3240.41
   02:36:49.688.28-Aug-2021 4891.00 7789.52 80.66 28.00 317.70 3240.41
   02:36:49.888.28-Aug-2021 4891.00 7790.09 80.66 28.00 317.90 3240.41
   02:36:50.088.28-Aug-2021 4891.00 7790.13 80.66 28.00 318.10 3240.41
   02:36:50.289.28-Aug-2021 4891.00 7790.13 80.66 28.00 318.30 3240.41
   02:36:50.489.28-Aug-2021 4891.00 7790.74 80.66 28.00 318.50 3240.41
   02:36:50.689.28-Aug-2021 4891.00 7790.77 80.66 28.00 318.70 3240.41
   02:36:50.889.28-Aug-2021 4891.00 7790.60 80.66 28.00 318.90 3240.41
   02:36:51.089.28-Aug-2021 4891.00 7790.48 80.66 28.00 319.10 3240.41
   02:36:51.289.28-Aug-2021 4891.00 7790.48 80.66 28.00 319.30 3240.41
   02:36:51.489.28-Aug-2021 4891.00 7790.23 80.66 28.00 319.50 3240.41
   02:36:51.689.28-Aug-2021 4891.00 7795.89 80.66 28.00 319.70 3240.41
   02:36:51.889.28-Aug-2021 4891.00 7787.23 80.66 28.00 319.90 3240.41
   02:36:52.089.28-Aug-2021 4891.00 7791.70 80.66 28.00 320.10 3240.41
   02:36:52.289.28-Aug-2021 4891.00 7791.70 80.66 28.00 320.30 3240.41
   02:36:52.489.28-Aug-2021 4891.00 7790.25 80.66 28.00 320.50 3240.41
   02:36:52.689.28-Aug-2021 4891.00 7794.31 80.66 28.00 320.70 3240.41
   02:36:52.889.28-Aug-2021 4891.00 7788.60 80.66 28.00 320.90 3240.41
   02:36:53.089.28-Aug-2021 4891.00 7790.97 80.66 28.00 321.10 3240.41
   02:36:53.289.28-Aug-2021 4891.00 7790.97 80.66 28.00 321.30 3240.41
   02:36:53.490.28-Aug-2021 4891.00 7790.19 80.66 28.00 321.50 3240.41
   02:36:53.690.28-Aug-2021 4891.00 7790.35 80.66 28.00 321.70 3240.41
   02:36:53.890.28-Aug-2021 4891.00 7793.06 80.66 28.00 321.90 3240.41
   02:36:54.090.28-Aug-2021 4891.00 7790.40 80.66 28.00 322.10 3240.41
   02:36:54.290.28-Aug-2021 4891.00 7790.40 80.66 28.00 322.30 3240.41
   02:36:54.490.28-Aug-2021 4891.00 7791.10 80.66 28.00 322.50 3240.41
   02:36:54.690.28-Aug-2021 4891.00 7790.72 80.66 28.00 322.70 3240.41
   02:36:54.890.28-Aug-2021 4891.00 7796.24 80.66 28.00 322.90 3240.41
   02:36:55.090.28-Aug-2021 4891.00 7787.40 80.66 28.00 323.10 3240.41
   02:36:55.290.28-Aug-2021 4891.00 7787.40 80.66 28.00 323.30 3240.41
   02:36:55.490.28-Aug-2021 4891.00 7790.30 80.66 28.00 323.50 3240.41
   02:36:55.690.28-Aug-2021 4891.00 7789.89 80.66 28.00 323.70 3240.41
   02:36:55.890.28-Aug-2021 4891.00 7790.38 80.66 28.00 323.90 3240.41
   02:36:56.090.28-Aug-2021 4891.00 7789.95 80.66 28.00 324.10 3240.41
   02:36:56.290.28-Aug-2021 4891.00 7789.95 80.66 28.00 324.30 3240.41
   02:36:56.490.28-Aug-2021 4891.00 7790.26 80.66 28.00 324.50 3240.41
   02:36:56.691.28-Aug-2021 4891.00 7790.30 80.66 28.00 324.70 3240.41
   02:36:56.891.28-Aug-2021 4891.00 7790.68 80.66 28.00 324.90 3240.41
   02:36:57.091.28-Aug-2021 4891.00 7790.81 80.66 28.00 325.10 3240.41
   02:36:57.291.28-Aug-2021 4891.00 7790.81 80.66 28.00 325.30 3240.41
   02:36:57.491.28-Aug-2021 4891.00 7790.49 80.66 28.00 325.50 3240.41
   02:36:57.691.28-Aug-2021 4891.00 7790.59 80.66 28.00 325.70 3240.41
   02:36:57.891.28-Aug-2021 4891.00 7790.21 80.66 28.00 325.90 3240.41
   02:36:58.091.28-Aug-2021 4891.00 7793.01 80.66 28.00 326.10 3240.41
   02:36:58.291.28-Aug-2021 4891.00 7793.01 80.66 28.00 326.30 3240.41
   02:36:58.491.28-Aug-2021 4891.00 7790.91 80.66 28.00 326.50 3240.41
   02:36:58.691.28-Aug-2021 4891.00 7790.64 80.66 28.00 326.70 3240.41
   02:36:58.891.28-Aug-2021 4891.00 7790.17 80.66 28.00 326.90 3240.41
   02:36:59.091.28-Aug-2021 4891.00 7789.97 80.66 28.00 327.10 3240.41
   02:36:59.291.28-Aug-2021 4891.00 7789.97 80.66 28.00 327.30 3240.41
   02:36:59.491.28-Aug-2021 4891.00 7789.99 80.66 28.00 327.50 3240.41
   02:36:59.691.28-Aug-2021 4891.00 7789.85 80.66 28.00 327.70 3240.41
   02:36:59.892.28-Aug-2021 4891.00 7790.14 80.66 28.00 327.90 3240.41
   02:37:00.092.28-Aug-2021 4891.00 7790.59 80.66 28.00 328.10 3240.41
   02:37:00.292.28-Aug-2021 4891.00 7790.59 80.66 28.00 328.30 3240.41
   02:37:00.492.28-Aug-2021 4891.00 7790.85 80.66 28.00 328.50 3240.41
   02:37:00.692.28-Aug-2021 4891.00 7790.89 80.66 28.00 328.70 3240.41
   02:37:00.892.28-Aug-2021 4891.00 7790.68 80.66 28.00 328.90 3240.41
   02:37:01.092.28-Aug-2021 4891.00 7790.60 80.66 28.00 329.10 3240.41
   02:37:01.292.28-Aug-2021 4891.00 7790.60 80.66 28.00 329.30 3240.41
   02:37:01.492.28-Aug-2021 4891.00 7792.82 80.66 28.00 329.50 3240.41
   02:37:01.692.28-Aug-2021 4891.00 7790.88 80.66 28.00 329.70 3240.41
   02:37:01.892.28-Aug-2021 4891.00 7790.84 80.66 28.00 329.90 3240.41
   02:37:02.092.28-Aug-2021 4891.00 7790.65 80.66 28.00 330.10 3240.41
   02:37:02.292.28-Aug-2021 4891.00 7790.65 80.66 28.00 330.30 3240.41
   02:37:02.492.28-Aug-2021 4891.00 7790.02 80.66 28.00 330.50 3240.41
   02:37:02.692.28-Aug-2021 4891.00 7792.71 80.66 28.00 330.70 3240.41
   02:37:02.892.28-Aug-2021 4891.00 7790.22 80.66 28.00 330.90 3240.41
   02:37:03.093.28-Aug-2021 4891.00 7790.86 80.66 28.00 331.10 3240.41
   02:37:03.293.28-Aug-2021 4891.00 7790.86 80.66 28.00 331.30 3240.41
   02:37:03.493.28-Aug-2021 4891.00 7790.34 80.66 28.00 331.50 3240.41
   02:37:03.693.28-Aug-2021 4891.00 7790.23 80.66 28.00 331.70 3240.41
   02:37:03.893.28-Aug-2021 4891.00 7794.88 80.66 28.00 331.90 3240.41
   02:37:04.093.28-Aug-2021 4891.00 7788.70 80.66 28.00 332.10 3240.41
   02:37:04.293.28-Aug-2021 4891.00 7788.70 80.66 28.00 332.30 3240.41
   02:37:04.493.28-Aug-2021 4891.00 7791.20 80.66 28.00 332.50 3240.41
   02:37:04.693.28-Aug-2021 4891.00 7796.16 80.66 28.00 332.70 3240.41
   02:37:04.893.28-Aug-2021 4891.00 7787.92 80.66 28.00 332.90 3240.41
   02:37:05.093.28-Aug-2021 4891.00 7791.89 80.66 28.00 333.10 3240.41
   02:37:05.293.28-Aug-2021 4891.00 7791.89 80.66 28.00 333.30 3240.41
   02:37:05.493.28-Aug-2021 4891.00 7790.21 80.66 28.00 333.50 3240.41
   02:37:05.693.28-Aug-2021 4891.00 7790.30 80.66 28.00 333.71 3240.41
   02:37:05.893.28-Aug-2021 4891.00 7789.72 80.66 28.00 333.91 3240.41
   02:37:06.094.28-Aug-2021 4891.00 7789.99 80.66 28.00 334.11 3240.41
   02:37:06.294.28-Aug-2021 4891.00 7789.99 80.66 28.00 334.31 3240.41
   02:37:06.494.28-Aug-2021 4891.00 7790.33 80.66 28.00 334.51 3240.41
   02:37:06.694.28-Aug-2021 4891.00 7790.60 80.66 28.00 334.71 3240.41
   02:37:06.894.28-Aug-2021 4891.00 7790.94 80.66 28.00 334.91 3240.41
   02:37:07.094.28-Aug-2021 4891.00 7790.71 80.66 28.00 335.11 3240.41
   02:37:07.294.28-Aug-2021 4891.00 7790.71 80.66 28.00 335.31 3240.41
   02:37:07.494.28-Aug-2021 4891.00 7790.53 80.66 28.00 335.51 3240.41
   02:37:07.694.28-Aug-2021 4891.00 7790.62 80.66 28.00 335.71 3240.41
   02:37:07.894.28-Aug-2021 4891.00 7792.74 80.66 28.00 335.91 3240.41
   02:37:08.094.28-Aug-2021 4891.00 7791.04 80.66 28.00 336.11 3240.41
   02:37:08.294.28-Aug-2021 4891.00 7791.04 80.66 28.00 336.31 3240.41
   02:37:08.494.28-Aug-2021 4891.00 7790.96 80.66 28.00 336.51 3240.41
   02:37:08.694.28-Aug-2021 4891.00 7790.42 80.66 28.00 336.71 3240.41
   02:37:08.894.28-Aug-2021 4891.00 7790.18 80.66 28.00 336.91 3240.41
   02:37:09.094.28-Aug-2021 4891.00 7789.98 80.66 28.00 337.11 3240.41
   02:37:09.295.28-Aug-2021 4891.00 7789.98 80.66 28.00 337.31 3240.41
   02:37:09.495.28-Aug-2021 4891.00 7790.35 80.69 28.00 337.51 3240.41
   02:37:09.695.28-Aug-2021 4891.00 7790.27 80.66 28.00 337.71 3240.41
   02:37:09.895.28-Aug-2021 4891.00 7791.13 80.66 28.00 337.91 3240.41
   02:37:10.095.28-Aug-2021 4891.00 7790.93 80.66 28.00 338.11 3240.41
   02:37:10.295.28-Aug-2021 4891.00 7790.93 80.66 28.00 338.31 3240.41
   02:37:10.495.28-Aug-2021 4891.00 7791.06 80.66 28.00 338.51 3240.41
   02:37:10.695.28-Aug-2021 4891.00 7791.14 80.66 28.00 338.71 3240.41
   02:37:10.895.28-Aug-2021 4891.00 7790.89 80.66 28.00 338.91 3240.41
