~Version Information
 VERS.                  2.0:   CWLS log ASCII Standard -VERSION 2.0
 WRAP.                   NO:   One line per depth step
~Well Information Block
#MNEM.UNIT     VALUE/NAME     DESCRIPTION
#---------     -----------    ---------------------------
 STRT.S             10:06:49 27-Aug-21: START TIME 10:06:49 27-Aug-21
 STOP.S             10:13:57 27-Aug-21: STOP TIME  10:13:57 27-Aug-21
 STEP.S                   0.00: STEP TIME
 NULL.                 -999.25: NULL VALUE
 DFWT.                        :  DIST FWL TEXT
 DFST.                        :  DIST FSL TEXT
 DMF .             Drill Floor:  DRILL MEAS FROM
 STIM.      20.00.00 17-Aug-21:  START TIME
 DATE.      19.00.00 29-Aug-21:  END TIME
 SPUD.               15-Aug-21:  SPUD DATE
 NREF.                    Grid:  NORTH REFERENCE
 HPTY.       Minimum Curvature:  HOLE POS TYPE
 DMOD.             Drill Model:  DRILL MOD DESC
 SVYD.                  Survey:  SURVEY DESC
 ILTD.               Lithology:  INTERP LTH DESC
 FTOP.          Formation Tops:  FORM TOPS DESC
 RIG .              East Azeri:  RIG NAME
 PDAT.          Mean Sea Level:  PERMANENT DATUM
 FLD .                     ACG:  FIELD NAME
 SON .        AZ-XX-0907180857:  JOB NUMBER
 CTRY.              Azerbaijan:  COUNTRY NAME
 WELL.                    D23x:  WELL NAME
 SRVC.     Turan Drilling and Engineering:  CONTRACTOR
 COMP.     BP Exploration (Caspian Sea) Ltd.:  COMPANY
 UWI .            /AZE00000214:  UNIQUE WELL IDENTIFIER
 API .            /AZE00000214:  API NUMBER
 MDS .        Operator Entered:  MAG DATA SOURCE
 BASE.              Azerbaijan:  LOGGING EQUIPMENT BASE LOCATION
 REGN.                   EESSA:  REGION
 PROV.                    Baku:  PROVINCE
 STAT.                    Baku:  STATE NAME
 MWDS.                    Baku:  MWD SHOP
 DOE .                     N/A:  DOE NUMBER
 DCON.         Sperry Drilling:  DIRECTNL CONTR
 UNIT.                     N/A:  LOGGING EQUIPMENT ID
 WTYP.                Deviated:  WELL TYPE
 CNTY.                        :  COUNTY
 LOC .                        :  LOCATION
 LMF .             Drill Floor:  LOG MEASURED FROM
 TVDS.m                  43.60:  TVDSS CORRECTN
 LATI.deg                40.02:  LATITUDE
 LONG.deg                51.45:  LONGITUDE
 WHNS.m                  -7.04:  WELL HEAD N/S
 WHEW.m                  -0.67:  WELL HEAD E/W
 UTMX.m              538762.90:  UTM X
 UTMY.m             4431871.34:  UTM Y
 DFWL.m                   0.00:  DISTANCE FWL
 DFSL.m                   0.00:  DISTANCE FSL
 SDEP.m                4127.00:  START DEPTH
 TDD .m                5084.50:  TOTAL DEPTH (DRILLER)
 VSDR.deg               140.47:  VERT SEC DIRECT
 GVFD.g                   1.00:  GRAVITY FIELD
 MFLD.nT              50362.00:  MAGNETIC FIELD
 MDIP.deg                59.48:  MAGNETIC DIP
 MDEC.deg                 6.47:  MAGNETIC DECL
 GRDC.deg                 0.31:  GRID CORRECTION
 AZTC.deg                 6.16:  AZM TOTAL CORR
 EPD .m                   0.00:  ELEVATION
 EGL .m                   0.00:  GROUND ELEVATION
 WDMS.m                 151.80:  WD ELEV
 APD .m                  43.60:  DEPTH ABOVE PD
 DEP .m                4092.57:  DEPTH
 AGAP.m                  43.60:  AIR GAP
 VSEW.m                  -0.67:  VERT SEC E/W
 VSNS.m                  -7.04:  VERT SEC N/S
 EKB .m                  43.60:  KB ELEVATION
 EDF .m                  43.60:  DF ELEVATION
 TDL .m                 957.50:  TOTAL DEPTH (LOGGER)
 VSC .                       0:  VS TO CLOSURE
 MAGU.                 1851413:  MAGUTM CHECKSUM
~Parameter Information Block
#MNEM.UNIT       Value        Description
#---------     -----------    ---------------------------
 AV  .mps                 1.50:  Ann Velocity 
 AVMX.mps                 2.00:  Max Ann Veloc 
 AZIF.deg               184.66:  Azm, Final 
 BHAT.        Rotary Steerable:  BHA Type 
 BREV.rev               300.00:  Rev Bit Total 
 BROT.°/30m              -0.50:  Build Rotating 
 BS  .in                  8.50:  Bit Size 
 BSZ .in                  8.50:  Bit Size 
 BTPL.psig              370.00:  Bit Press Loss 
 CABU.                      No:  Customer Abuse 
 CGEO.      Behruz Shahbaliyev:  Customer Geo 
 COMM.                     Ììg:  Run Comments 1 
 TCS .hr                140.08:  Time Ciculation Ended 
 CV  .mps                 3.00:  Crit Velocity 
 CVMX.mps                 3.20:  Max Crit Veloc 
 DD1 .            Musa Ahmadov:  Direct Drillr 1 
 DD2 .           Hamid Ahmadov:  Direct Drillr 2 
 DDSV.               Geo-Pilot:  DD Service 
 DEFF.%                  98.40:  % Det Eff 
 DLRX.°/30m               3.40:  Dogleg Rot Max 
 DLSO.°/30m               1.45:  Dogleg Oriented 
 DLSX.°/30m               3.40:  Dogleg Str Max 
 DRET.      18.40.00 29-Aug-21:  Drill End Time 
 DRST.      21.00.00 20-Aug-21:  Drill Start Tim 
 DTIM.hr                 69.47:  Time Drilling 
 EDEP.m                5084.50:  End Depth 
 ENG1.      Artemiy Matviyanov:  Engineer 1 
 ENG2.         Almaz Almadatov:  Engineer 2 
 ETIM.      18.40.00 29-Aug-21:  End Time 
 FLOI.gpm               500.00:  Flow In 
 FLON.gpm               400.00:  Flow In Min 
 FLOS.cptm                0.00:  Fluid Loss 
 FLOX.gpm               500.00:  Flow In Max 
 DFT .        Mineral Oil Base:  Mud Type 
 HFLO.                      No:  High Flow 
 HPRE.                      No:  High Pressure 
 HTEM.                      No:  High Temp 
 HYDO.m                   1.80:  Hydro Offset 
 IFIN.deg                25.62:  Inc, Final 
 IMAX.deg                48.69:  Inc Max 
 IMIN.deg                24.01:  Inc Min 
 IMND.m                4962.57:  Inc Min Depth 
 IMXD.m                4119.01:  Inc Max Depth 
 JARR.                      No:  Jarring 
 LETM.      18.40.00 29-Aug-21:  Log End Time 
 LOST.hr                     0:  Lost Rig Time 
 LSTM.      21.00.00 20-Aug-21:  Log Start Time 
 MDCL.ppm             41500.00:  Mud Chlorides 
 MDES.     Inversion Oil/Synthetic:  Mud Desc 
 DFD .sg                  1.56:  Mud Density 
 MDMN.sg                  1.56:  Dens Mud Min 
 MDMX.sg                  1.56:  Dens Mud Max 
 MOIL.                      70:  Run Mud Oil % 
 MOWR.                   70:30:  Run Mud OWR 
 MSND.                     0.2:  Run Mud Sand % 
 MSOL.                    23.3:  Run Mud Solids% 
 DFV .spqt               78.00:  Mud Viscosity 
 MWOD.in                  6.75:  MWD Tool OD 
 MWSI.                      No:  Serv Intrp, MWD 
 OTIM.hr                218.30:  Time Operating 
 PCON.           Look Like New:  Pad Condition 
 PMAX.psia            11015.30:  Press Op, Max 
 PV  .cP                 38.00:  Mud PV 
 RUN .                     300:  Run Number 
 ROPA.m/hr               15.00:  ROP Avg 
 ROPN.m/hr                9.00:  ROP Min 
 ROPX.m/hr               17.00:  ROP Max 
 RPMA.rpm               120.00:  RPM Surface Avg 
 RPMN.rpm                90.00:  RPM Surface Min 
 RPMX.rpm               140.00:  RPM Surface Max 
 RRUN.                     300:  Rig Run Number 
 RTIM.hr                 31.53:  Time Reaming 
 SAZI.deg               331.64:  Azm, Start 
 SDEP.m                4127.00:  Start Depth 
 SIDD.                      No:  Serv Intrp, DD 
 SINC.deg                48.43:  Inc, Start 
 SPPA.psig             5830.00:  SPP Avg 
 SPPN.psig             5600.00:  SPP Min 
 SPPX.psig             5900.00:  SPP Max 
 STIM.      21.00.00 20-Aug-21:  Start Time 
 SVCS.                 DD, MWD:  Services 
 SVER.                    9.20:  Sperry Version 
 TDAT.m                 957.50:  Tot Depth Attmp 
 TDDF.                      No:  Trip for DD 
 TDLG.m                 957.50:  Tot Depth Loggd 
 TFF .                      No:  Trip for Fail 
 TQAA.f-kp               15.00:  Torque Abs Avg 
 TQAN.f-kp               12.00:  Torque Abs Min 
 TQAX.f-kp               19.00:  Torque Abs Max 
 TRRT.°/30m              -3.40:  Turn Rotating 
 MRT .                  EWR-M5:  Maximum Recorded Temperature 
 TTMX.degC              100.00:  Max Tool Temp 
 VS01.                90639251:  Virtual Str1 SN 
 VS02.                90634715:  Virtual Str2 SN 
 VS03.                90652479:  Virtual Str3 SN 
 VS04.                90642262:  Virtual Str4 SN 
 WBMN.klb                 0.00:  WOB Min 
 WITN.           Murad Guliyev:  Customer Rep 
 WITN.          Yashar Gaziyev:  Customer Rep 2 
 WOBA.klb                 9.00:  WOB Avg 
 WOBX.klb                12.00:  WOB Max 
 YP  .lhf2               30.00:  Yield Point 
~Curve Information Block
#MNEM.UNIT                 API CODE     Curve Description
#---------               -----------    ---------------------------
 TIME.HHMMSS            00 000 000 000:  GT Time & Date
 GTDEPTH.m              00 000 000 000:  GT Depth
 GTPQH.psia             00 000 000 000:  GT HR Quartz Pressure
 GTTQ.degC              00 000 000 000:  GT Quartz Temperature
 GTTN.NONE              00 000 000 000:  GT Test Number
 GTET.sec               00 000 000 000:  GT Elapsed Test Time
 GTTVD.m                00 000 000 000:  GT True Vertical Depth
#Other Information
#
#WARRANTY: Halliburton will use its best efforts to furnish customers with 
#accurate information and interpretations that are part of, and incident to, the services 
#provided.  However, Halliburton cannot and does not warrant the accuracy 
#or correctness of such information and interpretations.  Under no circumstances should any 
#such information or interpretation be relied upon as the sole basis for any drilling, 
#completion, production, or financial decision or any procedure involving any risk to the 
#safety of any drilling venture, drilling rig or its crew or any other third party.  The 
#Customer has full responsibility for all drilling, completion and production operation.  
#Halliburton makes no representations or warranties, either expressed or 
#implied, including, but not limited to, the implied warranties of merchantability or fitness 
#for a particular purpose, with respect to the services rendered.  In no event will 
#Halliburton be liable for failure to obtain any particular results or for 
#any damages, including, but not limited to, indirect, special or consequential damages, 
#resulting from the use of any information or interpretation provided by Halliburton.
#
~A           TIME           GTDEPTH  GTPQH  GTTQ  GTTN  GTET   GTTVD  
# ...
   10:13:42.640.27-Aug-2021 4958.50 7889.84 86.02 8.00 413.51 3301.91
   10:13:42.840.27-Aug-2021 4958.50 7889.84 86.02 8.00 413.71 3301.91
   10:13:43.039.27-Aug-2021 4958.50 7890.28 86.02 8.00 413.91 3301.91
   10:13:43.239.27-Aug-2021 4958.50 7889.25 86.02 8.00 414.11 3301.91
   10:13:43.439.27-Aug-2021 4958.50 7894.31 86.02 8.00 414.31 3301.91
   10:13:43.639.27-Aug-2021 4958.50 7887.06 86.02 8.00 414.51 3301.91
   10:13:43.838.27-Aug-2021 4958.50 7887.06 86.02 8.00 414.70 3301.91
   10:13:44.038.27-Aug-2021 4958.50 7888.71 86.02 8.00 414.90 3301.91
   10:13:44.238.27-Aug-2021 4958.50 7887.73 86.02 8.00 415.10 3301.91
   10:13:44.438.27-Aug-2021 4958.50 7887.72 86.02 8.00 415.30 3301.91
   10:13:44.638.27-Aug-2021 4958.50 7887.75 86.02 8.00 415.50 3301.91
   10:13:44.837.27-Aug-2021 4958.50 7887.75 86.02 8.00 415.70 3301.91
   10:13:45.037.27-Aug-2021 4958.50 7888.31 86.02 8.00 415.90 3301.91
   10:13:45.237.27-Aug-2021 4958.50 7888.83 86.01 8.00 416.10 3301.91
   10:13:45.437.27-Aug-2021 4958.50 7889.36 86.02 8.00 416.30 3301.91
   10:13:45.636.27-Aug-2021 4958.50 7889.57 86.01 8.00 416.50 3301.91
   10:13:45.836.27-Aug-2021 4958.50 7889.57 86.01 8.00 416.70 3301.91
   10:13:46.036.27-Aug-2021 4958.50 7890.09 86.01 8.00 416.90 3301.91
   10:13:46.236.27-Aug-2021 4958.50 7889.58 86.01 8.00 417.10 3301.91
   10:13:46.435.27-Aug-2021 4958.50 7889.09 86.01 8.00 417.30 3301.91
   10:13:46.635.27-Aug-2021 4958.50 7890.82 86.01 8.00 417.50 3301.91
   10:13:46.835.27-Aug-2021 4958.50 7890.82 86.01 8.00 417.70 3301.91
   10:13:47.035.27-Aug-2021 4958.50 7890.20 86.01 8.00 417.90 3301.91
   10:13:47.234.27-Aug-2021 4958.50 7889.11 86.01 8.00 418.10 3301.91
   10:13:47.434.27-Aug-2021 4958.50 7888.47 86.01 8.00 418.30 3301.91
   10:13:47.634.27-Aug-2021 4958.50 7888.18 86.01 8.00 418.50 3301.91
   10:13:47.834.27-Aug-2021 4958.50 7888.18 86.01 8.00 418.70 3301.91
   10:13:48.033.27-Aug-2021 4958.50 7888.24 86.01 8.00 418.90 3301.91
   10:13:48.233.27-Aug-2021 4958.50 7887.88 86.01 8.00 419.10 3301.91
   10:13:48.433.27-Aug-2021 4958.50 7888.22 86.01 8.00 419.30 3301.91
   10:13:48.633.27-Aug-2021 4958.50 7888.72 86.01 8.00 419.50 3301.91
   10:13:48.833.27-Aug-2021 4958.50 7888.72 86.01 8.00 419.70 3301.91
   10:13:49.032.27-Aug-2021 4958.50 7889.68 86.01 8.00 419.90 3301.91
   10:13:49.232.27-Aug-2021 4958.50 7889.46 86.01 8.00 420.10 3301.91
   10:13:49.432.27-Aug-2021 4958.50 7889.27 86.01 8.00 420.30 3301.91
   10:13:49.632.27-Aug-2021 4958.50 7889.18 86.01 8.00 420.50 3301.91
   10:13:49.831.27-Aug-2021 4958.50 7889.18 86.01 8.00 420.70 3301.91
   10:13:50.031.27-Aug-2021 4958.50 7890.88 86.01 8.00 420.90 3301.91
   10:13:50.231.27-Aug-2021 4958.50 7890.37 86.01 8.00 421.10 3301.91
   10:13:50.431.27-Aug-2021 4958.50 7889.97 86.01 8.00 421.30 3301.91
   10:13:50.630.27-Aug-2021 4958.50 7889.41 86.01 8.00 421.50 3301.91
   10:13:50.830.27-Aug-2021 4958.50 7889.41 86.01 8.00 421.70 3301.91
   10:13:51.030.27-Aug-2021 4958.50 7888.60 86.01 8.00 421.90 3301.91
   10:13:51.230.27-Aug-2021 4958.50 7894.14 86.01 8.00 422.10 3301.91
   10:13:51.429.27-Aug-2021 4958.50 7887.51 86.01 8.00 422.30 3301.91
   10:13:51.629.27-Aug-2021 4958.50 7888.54 86.01 8.00 422.50 3301.91
   10:13:51.829.27-Aug-2021 4958.50 7888.54 86.01 8.00 422.70 3301.91
   10:13:52.029.27-Aug-2021 4958.50 7888.32 86.01 8.00 422.90 3301.91
   10:13:52.228.27-Aug-2021 4958.50 7888.78 86.01 8.00 423.09 3301.91
   10:13:52.428.27-Aug-2021 4958.50 7888.58 86.01 8.00 423.29 3301.91
   10:13:52.628.27-Aug-2021 4958.50 7891.73 86.01 8.00 423.49 3301.91
   10:13:52.828.27-Aug-2021 4958.50 7891.73 86.01 8.00 423.69 3301.91
   10:13:53.028.27-Aug-2021 4958.50 7888.38 86.01 8.00 423.89 3301.91
   10:13:53.227.27-Aug-2021 4958.50 7893.75 86.01 8.00 424.09 3301.91
   10:13:53.427.27-Aug-2021 4958.50 7887.14 86.01 8.00 424.29 3301.91
   10:13:53.627.27-Aug-2021 4958.50 7890.18 86.01 8.00 424.49 3301.91
   10:13:53.827.27-Aug-2021 4958.50 7890.18 86.01 8.00 424.69 3301.91
   10:13:54.026.27-Aug-2021 4958.50 7888.16 86.01 8.00 424.89 3301.91
   10:13:54.226.27-Aug-2021 4958.50 7887.03 86.01 8.00 425.09 3301.91
   10:13:54.426.27-Aug-2021 4958.50 7886.60 86.01 8.00 425.29 3301.91
   10:13:54.626.27-Aug-2021 4958.50 7887.24 86.01 8.00 425.49 3301.91
   10:13:54.825.27-Aug-2021 4958.50 7887.24 86.01 8.00 425.69 3301.91
   10:13:55.025.27-Aug-2021 4958.50 7887.48 86.01 8.00 425.89 3301.91
   10:13:55.225.27-Aug-2021 4958.50 7888.04 86.01 8.00 426.09 3301.91
   10:13:55.425.27-Aug-2021 4958.50 7888.52 86.01 8.00 426.29 3301.91
   10:13:55.624.27-Aug-2021 4958.50 7888.67 86.01 8.00 426.49 3301.91
   10:13:55.824.27-Aug-2021 4958.50 7888.67 86.01 8.00 426.69 3301.91
   10:13:56.024.27-Aug-2021 4958.50 7888.21 86.01 8.00 426.89 3301.91
   10:13:56.224.27-Aug-2021 4958.50 7887.92 86.01 8.00 427.09 3301.91
   10:13:56.423.27-Aug-2021 4958.50 7889.18 86.01 8.00 427.29 3301.91
   10:13:56.623.27-Aug-2021 4958.50 7889.11 86.01 8.00 427.49 3301.91
   10:13:56.823.27-Aug-2021 4958.50 7889.11 86.01 8.00 427.69 3301.91
   10:13:57.023.27-Aug-2021 4958.50 7887.70 86.01 8.00 427.89 3301.91
   10:13:57.223.27-Aug-2021 4958.50 7887.11 86.01 8.00 428.09 3301.91
   10:13:57.422.27-Aug-2021 4958.50 7886.89 86.01 8.00 428.29 3301.91
