~Version Information
 VERS.                  2.0:   CWLS log ASCII Standard -VERSION 2.0
 WRAP.                   NO:   One line per depth step
~Well Information Block
#MNEM.UNIT     VALUE/NAME     DESCRIPTION
#---------     -----------    ---------------------------
 STRT.S             04:10:22 28-Aug-21: START TIME 04:10:22 28-Aug-21
 STOP.S             04:17:14 28-Aug-21: STOP TIME  04:17:14 28-Aug-21
 STEP.S                   0.00: STEP TIME
 NULL.                 -999.25: NULL VALUE
 DFWT.                        :  DIST FWL TEXT
 DFST.                        :  DIST FSL TEXT
 DMF .             Drill Floor:  DRILL MEAS FROM
 STIM.      20.00.00 17-Aug-21:  START TIME
 DATE.      19.00.00 29-Aug-21:  END TIME
 SPUD.               15-Aug-21:  SPUD DATE
 NREF.                    Grid:  NORTH REFERENCE
 HPTY.       Minimum Curvature:  HOLE POS TYPE
 DMOD.             Drill Model:  DRILL MOD DESC
 SVYD.                  Survey:  SURVEY DESC
 ILTD.               Lithology:  INTERP LTH DESC
 FTOP.          Formation Tops:  FORM TOPS DESC
 RIG .              East Azeri:  RIG NAME
 PDAT.          Mean Sea Level:  PERMANENT DATUM
 FLD .                     ACG:  FIELD NAME
 SON .        AZ-XX-0907180857:  JOB NUMBER
 CTRY.              Azerbaijan:  COUNTRY NAME
 WELL.                    D23x:  WELL NAME
 SRVC.     Turan Drilling and Engineering:  CONTRACTOR
 COMP.     BP Exploration (Caspian Sea) Ltd.:  COMPANY
 UWI .            /AZE00000214:  UNIQUE WELL IDENTIFIER
 API .            /AZE00000214:  API NUMBER
 MDS .        Operator Entered:  MAG DATA SOURCE
 BASE.              Azerbaijan:  LOGGING EQUIPMENT BASE LOCATION
 REGN.                   EESSA:  REGION
 PROV.                    Baku:  PROVINCE
 STAT.                    Baku:  STATE NAME
 MWDS.                    Baku:  MWD SHOP
 DOE .                     N/A:  DOE NUMBER
 DCON.         Sperry Drilling:  DIRECTNL CONTR
 UNIT.                     N/A:  LOGGING EQUIPMENT ID
 WTYP.                Deviated:  WELL TYPE
 CNTY.                        :  COUNTY
 LOC .                        :  LOCATION
 LMF .             Drill Floor:  LOG MEASURED FROM
 TVDS.m                  43.60:  TVDSS CORRECTN
 LATI.deg                40.02:  LATITUDE
 LONG.deg                51.45:  LONGITUDE
 WHNS.m                  -7.04:  WELL HEAD N/S
 WHEW.m                  -0.67:  WELL HEAD E/W
 UTMX.m              538762.90:  UTM X
 UTMY.m             4431871.34:  UTM Y
 DFWL.m                   0.00:  DISTANCE FWL
 DFSL.m                   0.00:  DISTANCE FSL
 SDEP.m                4127.00:  START DEPTH
 TDD .m                5084.50:  TOTAL DEPTH (DRILLER)
 VSDR.deg               140.47:  VERT SEC DIRECT
 GVFD.g                   1.00:  GRAVITY FIELD
 MFLD.nT              50362.00:  MAGNETIC FIELD
 MDIP.deg                59.48:  MAGNETIC DIP
 MDEC.deg                 6.47:  MAGNETIC DECL
 GRDC.deg                 0.31:  GRID CORRECTION
 AZTC.deg                 6.16:  AZM TOTAL CORR
 EPD .m                   0.00:  ELEVATION
 EGL .m                   0.00:  GROUND ELEVATION
 WDMS.m                 151.80:  WD ELEV
 APD .m                  43.60:  DEPTH ABOVE PD
 DEP .m                4092.57:  DEPTH
 AGAP.m                  43.60:  AIR GAP
 VSEW.m                  -0.67:  VERT SEC E/W
 VSNS.m                  -7.04:  VERT SEC N/S
 EKB .m                  43.60:  KB ELEVATION
 EDF .m                  43.60:  DF ELEVATION
 TDL .m                 957.50:  TOTAL DEPTH (LOGGER)
 VSC .                       0:  VS TO CLOSURE
 MAGU.                 1851413:  MAGUTM CHECKSUM
~Parameter Information Block
#MNEM.UNIT       Value        Description
#---------     -----------    ---------------------------
 AV  .mps                 1.50:  Ann Velocity 
 AVMX.mps                 2.00:  Max Ann Veloc 
 AZIF.deg               184.66:  Azm, Final 
 BHAT.        Rotary Steerable:  BHA Type 
 BREV.rev               300.00:  Rev Bit Total 
 BROT.°/30m              -0.50:  Build Rotating 
 BS  .in                  8.50:  Bit Size 
 BSZ .in                  8.50:  Bit Size 
 BTPL.psig              370.00:  Bit Press Loss 
 CABU.                      No:  Customer Abuse 
 CGEO.      Behruz Shahbaliyev:  Customer Geo 
 COMM.                     LÁp:  Run Comments 1 
 TCS .hr                140.08:  Time Ciculation Ended 
 CV  .mps                 3.00:  Crit Velocity 
 CVMX.mps                 3.20:  Max Crit Veloc 
 DD1 .            Musa Ahmadov:  Direct Drillr 1 
 DD2 .           Hamid Ahmadov:  Direct Drillr 2 
 DDSV.               Geo-Pilot:  DD Service 
 DEFF.%                  98.40:  % Det Eff 
 DLRX.°/30m               3.40:  Dogleg Rot Max 
 DLSO.°/30m               1.45:  Dogleg Oriented 
 DLSX.°/30m               3.40:  Dogleg Str Max 
 DRET.      18.40.00 29-Aug-21:  Drill End Time 
 DRST.      21.00.00 20-Aug-21:  Drill Start Tim 
 DTIM.hr                 69.47:  Time Drilling 
 EDEP.m                5084.50:  End Depth 
 ENG1.      Artemiy Matviyanov:  Engineer 1 
 ENG2.         Almaz Almadatov:  Engineer 2 
 ETIM.      18.40.00 29-Aug-21:  End Time 
 FLOI.gpm               500.00:  Flow In 
 FLON.gpm               400.00:  Flow In Min 
 FLOS.cptm                0.00:  Fluid Loss 
 FLOX.gpm               500.00:  Flow In Max 
 DFT .        Mineral Oil Base:  Mud Type 
 HFLO.                      No:  High Flow 
 HPRE.                      No:  High Pressure 
 HTEM.                      No:  High Temp 
 HYDO.m                   1.80:  Hydro Offset 
 IFIN.deg                25.62:  Inc, Final 
 IMAX.deg                48.69:  Inc Max 
 IMIN.deg                24.01:  Inc Min 
 IMND.m                4962.57:  Inc Min Depth 
 IMXD.m                4119.01:  Inc Max Depth 
 JARR.                      No:  Jarring 
 LETM.      18.40.00 29-Aug-21:  Log End Time 
 LOST.hr                     0:  Lost Rig Time 
 LSTM.      21.00.00 20-Aug-21:  Log Start Time 
 MDCL.ppm             41500.00:  Mud Chlorides 
 MDES.     Inversion Oil/Synthetic:  Mud Desc 
 DFD .sg                  1.56:  Mud Density 
 MDMN.sg                  1.56:  Dens Mud Min 
 MDMX.sg                  1.56:  Dens Mud Max 
 MOIL.                      70:  Run Mud Oil % 
 MOWR.                   70:30:  Run Mud OWR 
 MSND.                     0.2:  Run Mud Sand % 
 MSOL.                    23.3:  Run Mud Solids% 
 DFV .spqt               78.00:  Mud Viscosity 
 MWOD.in                  6.75:  MWD Tool OD 
 MWSI.                      No:  Serv Intrp, MWD 
 OTIM.hr                218.30:  Time Operating 
 PCON.           Look Like New:  Pad Condition 
 PMAX.psia            11015.30:  Press Op, Max 
 PV  .cP                 38.00:  Mud PV 
 RUN .                     300:  Run Number 
 ROPA.m/hr               15.00:  ROP Avg 
 ROPN.m/hr                9.00:  ROP Min 
 ROPX.m/hr               17.00:  ROP Max 
 RPMA.rpm               120.00:  RPM Surface Avg 
 RPMN.rpm                90.00:  RPM Surface Min 
 RPMX.rpm               140.00:  RPM Surface Max 
 RRUN.                     300:  Rig Run Number 
 RTIM.hr                 31.53:  Time Reaming 
 SAZI.deg               331.64:  Azm, Start 
 SDEP.m                4127.00:  Start Depth 
 SIDD.                      No:  Serv Intrp, DD 
 SINC.deg                48.43:  Inc, Start 
 SPPA.psig             5830.00:  SPP Avg 
 SPPN.psig             5600.00:  SPP Min 
 SPPX.psig             5900.00:  SPP Max 
 STIM.      21.00.00 20-Aug-21:  Start Time 
 SVCS.                 DD, MWD:  Services 
 SVER.                    9.20:  Sperry Version 
 TDAT.m                 957.50:  Tot Depth Attmp 
 TDDF.                      No:  Trip for DD 
 TDLG.m                 957.50:  Tot Depth Loggd 
 TFF .                      No:  Trip for Fail 
 TQAA.f-kp               15.00:  Torque Abs Avg 
 TQAN.f-kp               12.00:  Torque Abs Min 
 TQAX.f-kp               19.00:  Torque Abs Max 
 TRRT.°/30m              -3.40:  Turn Rotating 
 MRT .                  EWR-M5:  Maximum Recorded Temperature 
 TTMX.degC              100.00:  Max Tool Temp 
 VS01.                90639251:  Virtual Str1 SN 
 VS02.                90634715:  Virtual Str2 SN 
 VS03.                90652479:  Virtual Str3 SN 
 VS04.                90642262:  Virtual Str4 SN 
 WBMN.klb                 0.00:  WOB Min 
 WITN.           Murad Guliyev:  Customer Rep 
 WITN.          Yashar Gaziyev:  Customer Rep 2 
 WOBA.klb                 9.00:  WOB Avg 
 WOBX.klb                12.00:  WOB Max 
 YP  .lhf2               30.00:  Yield Point 
~Curve Information Block
#MNEM.UNIT                 API CODE     Curve Description
#---------               -----------    ---------------------------
 TIME.HHMMSS            00 000 000 000:  GT Time & Date
 GTDEPTH.m              00 000 000 000:  GT Depth
 GTPQH.psia             00 000 000 000:  GT HR Quartz Pressure
 GTTQ.degC              00 000 000 000:  GT Quartz Temperature
 GTTN.NONE              00 000 000 000:  GT Test Number
 GTET.sec               00 000 000 000:  GT Elapsed Test Time
 GTTVD.m                00 000 000 000:  GT True Vertical Depth
#Other Information
#
#WARRANTY: Halliburton will use its best efforts to furnish customers with 
#accurate information and interpretations that are part of, and incident to, the services 
#provided.  However, Halliburton cannot and does not warrant the accuracy 
#or correctness of such information and interpretations.  Under no circumstances should any 
#such information or interpretation be relied upon as the sole basis for any drilling, 
#completion, production, or financial decision or any procedure involving any risk to the 
#safety of any drilling venture, drilling rig or its crew or any other third party.  The 
#Customer has full responsibility for all drilling, completion and production operation.  
#Halliburton makes no representations or warranties, either expressed or 
#implied, including, but not limited to, the implied warranties of merchantability or fitness 
#for a particular purpose, with respect to the services rendered.  In no event will 
#Halliburton be liable for failure to obtain any particular results or for 
#any damages, including, but not limited to, indirect, special or consequential damages, 
#resulting from the use of any information or interpretation provided by Halliburton.
#
~A           TIME           GTDEPTH  GTPQH  GTTQ  GTTN   GTET   GTTVD  
# ...
   04:11:30.716.28-Aug-2021 4978.00 7959.30 80.49 29.00  67.90 3319.69
   04:11:30.916.28-Aug-2021 4978.00 7959.54 80.49 29.00  68.10 3319.69
   04:11:31.117.28-Aug-2021 4978.00 7959.54 80.49 29.00  68.30 3319.69
   04:11:31.317.28-Aug-2021 4978.00 7959.65 80.49 29.00  68.50 3319.69
   04:11:31.517.28-Aug-2021 4978.00 7959.26 80.49 29.00  68.70 3319.69
   04:11:31.718.28-Aug-2021 4978.00 7958.85 80.49 29.00  68.90 3319.69
   04:11:31.918.28-Aug-2021 4978.00 7959.42 80.49 29.00  69.10 3319.69
   04:11:32.118.28-Aug-2021 4978.00 7959.42 80.49 29.00  69.30 3319.69
   04:11:32.318.28-Aug-2021 4978.00 7960.66 80.49 29.00  69.50 3319.69
   04:11:32.519.28-Aug-2021 4978.00 7960.70 80.49 29.00  69.70 3319.69
   04:11:32.719.28-Aug-2021 4978.00 7960.60 80.49 29.00  69.90 3319.69
   04:11:32.919.28-Aug-2021 4978.00 7960.56 80.49 29.00  70.10 3319.69
   04:11:33.120.28-Aug-2021 4978.00 7960.56 80.49 29.00  70.30 3319.69
   04:11:33.320.28-Aug-2021 4978.00 7960.57 80.49 29.00  70.50 3319.69
   04:11:33.520.28-Aug-2021 4978.00 7961.92 80.49 29.00  70.70 3319.69
   04:11:33.720.28-Aug-2021 4978.00 7962.82 80.49 29.00  70.90 3319.69
   04:11:33.921.28-Aug-2021 4978.00 7961.43 80.49 29.00  71.10 3319.69
   04:11:34.121.28-Aug-2021 4978.00 7961.43 80.49 29.00  71.30 3319.69
   04:11:34.321.28-Aug-2021 4978.00 7965.38 80.49 29.00  71.50 3319.69
   04:11:34.522.28-Aug-2021 4978.00 7959.88 80.49 29.00  71.70 3319.69
   04:11:34.722.28-Aug-2021 4978.00 7960.72 80.49 29.00  71.90 3319.69
   04:11:34.922.28-Aug-2021 4978.00 7960.19 80.49 29.00  72.10 3319.69
   04:11:35.122.28-Aug-2021 4978.00 7960.19 80.49 29.00  72.30 3319.69
   04:11:35.323.28-Aug-2021 4978.00 7965.45 80.49 29.00  72.50 3319.69
   04:11:35.523.28-Aug-2021 4978.00 7960.17 80.49 29.00  72.70 3319.69
   04:11:35.723.28-Aug-2021 4978.00 7961.07 80.49 29.00  72.90 3319.69
   04:11:35.923.28-Aug-2021 4978.00 7961.03 80.49 29.00  73.10 3319.69
   04:11:36.124.28-Aug-2021 4978.00 7961.03 80.49 29.00  73.30 3319.69
   04:11:36.324.28-Aug-2021 4978.00 7961.83 80.49 29.00  73.50 3319.69
   04:11:36.524.28-Aug-2021 4978.00 7961.58 80.49 29.00  73.70 3319.69
   04:11:36.725.28-Aug-2021 4978.00 7964.71 80.49 29.00  73.90 3319.69
   04:11:36.925.28-Aug-2021 4978.00 7962.00 80.49 29.00  74.10 3319.69
   04:11:37.125.28-Aug-2021 4978.00 7962.00 80.49 29.00  74.30 3319.69
   04:11:37.325.28-Aug-2021 4978.00 7961.90 80.49 29.00  74.50 3319.69
   04:11:37.526.28-Aug-2021 4978.00 7961.93 80.49 29.00  74.70 3319.69
   04:11:37.726.28-Aug-2021 4978.00 7961.58 80.48 29.00  74.91 3319.69
   04:11:37.926.28-Aug-2021 4978.00 7961.17 80.48 29.00  75.11 3319.69
   04:11:38.127.28-Aug-2021 4978.00 7961.17 80.48 29.00  75.31 3319.69
   04:11:38.327.28-Aug-2021 4978.00 7961.04 80.48 29.00  75.51 3319.69
   04:11:38.527.28-Aug-2021 4978.00 7961.40 80.48 29.00  75.71 3319.69
   04:11:38.727.28-Aug-2021 4978.00 7962.44 80.48 29.00  75.91 3319.69
   04:11:38.928.28-Aug-2021 4978.00 7962.77 80.48 29.00  76.11 3319.69
   04:11:39.128.28-Aug-2021 4978.00 7962.77 80.48 29.00  76.31 3319.69
   04:11:39.328.28-Aug-2021 4978.00 7962.28 80.48 29.00  76.51 3319.69
   04:11:39.529.28-Aug-2021 4978.00 7962.18 80.48 29.00  76.71 3319.69
   04:11:39.729.28-Aug-2021 4978.00 7962.24 80.48 29.00  76.91 3319.69
   04:11:39.929.28-Aug-2021 4978.00 7967.20 80.48 29.00  77.11 3319.69
   04:11:40.129.28-Aug-2021 4978.00 7967.20 80.48 29.00  77.31 3319.69
   04:11:40.330.28-Aug-2021 4978.00 7962.10 80.48 29.00  77.51 3319.69
   04:11:40.530.28-Aug-2021 4978.00 7961.72 80.48 29.00  77.71 3319.69
   04:11:40.730.28-Aug-2021 4978.00 7961.80 80.48 29.00  77.91 3319.69
   04:11:40.931.28-Aug-2021 4978.00 7961.81 80.48 29.00  78.11 3319.69
   04:11:41.131.28-Aug-2021 4978.00 7961.81 80.48 29.00  78.31 3319.69
   04:11:41.331.28-Aug-2021 4978.00 7961.36 80.48 29.00  78.51 3319.69
   04:11:41.531.28-Aug-2021 4978.00 7961.40 80.48 29.00  78.71 3319.69
   04:11:41.732.28-Aug-2021 4978.00 7961.79 80.48 29.00  78.91 3319.69
   04:11:41.932.28-Aug-2021 4978.00 7963.00 80.48 29.00  79.11 3319.69
   04:11:42.132.28-Aug-2021 4978.00 7963.00 80.48 29.00  79.31 3319.69
   04:11:42.333.28-Aug-2021 4978.00 7963.23 80.48 29.00  79.51 3319.69
   04:11:42.533.28-Aug-2021 4978.00 7962.93 80.48 29.00  79.71 3319.69
   04:11:42.733.28-Aug-2021 4978.00 7962.88 80.48 29.00  79.91 3319.69
   04:11:42.933.28-Aug-2021 4978.00 7962.89 80.48 29.00  80.11 3319.69
   04:11:43.134.28-Aug-2021 4978.00 7962.89 80.48 29.00  80.31 3319.69
   04:11:43.334.28-Aug-2021 4978.00 7967.36 80.48 29.00  80.51 3319.69
   04:11:43.534.28-Aug-2021 4978.00 7961.72 80.48 29.00  80.71 3319.69
   04:11:43.734.28-Aug-2021 4978.00 7963.45 80.48 29.00  80.91 3319.69
   04:11:43.935.28-Aug-2021 4978.00 7962.56 80.48 29.00  81.11 3319.69
   04:11:44.135.28-Aug-2021 4978.00 7962.56 80.48 29.00  81.31 3319.69
   04:11:44.335.28-Aug-2021 4978.00 7961.89 80.48 29.00  81.51 3319.69
   04:11:44.536.28-Aug-2021 4978.00 7963.69 80.48 29.00  81.71 3319.69
   04:11:44.736.28-Aug-2021 4978.00 7962.09 80.48 29.00  81.92 3319.69
   04:11:44.936.28-Aug-2021 4978.00 7962.04 80.48 29.00  82.12 3319.69
   04:11:45.136.28-Aug-2021 4978.00 7962.04 80.48 29.00  82.32 3319.69
   04:11:45.337.28-Aug-2021 4978.00 7964.30 80.48 29.00  82.52 3319.69
   04:11:45.537.28-Aug-2021 4978.00 7963.22 80.48 29.00  82.72 3319.69
   04:11:45.737.28-Aug-2021 4978.00 7963.92 80.48 29.00  82.92 3319.69
   04:11:45.938.28-Aug-2021 4978.00 7965.11 80.48 29.00  83.12 3319.69
   04:11:46.138.28-Aug-2021 4978.00 7965.11 80.48 29.00  83.32 3319.69
   04:11:46.338.28-Aug-2021 4978.00 7963.48 80.48 29.00  83.52 3319.69
   04:11:46.538.28-Aug-2021 4978.00 7963.06 80.48 29.00  83.72 3319.69
   04:11:46.739.28-Aug-2021 4978.00 7962.89 80.48 29.00  83.92 3319.69
   04:11:46.939.28-Aug-2021 4978.00 7963.01 80.48 29.00  84.12 3319.69
   04:11:47.139.28-Aug-2021 4978.00 7963.01 80.48 29.00  84.32 3319.69
   04:11:47.340.28-Aug-2021 4978.00 7963.22 80.48 29.00  84.52 3319.69
   04:11:47.540.28-Aug-2021 4978.00 7963.44 80.48 29.00  84.72 3319.69
   04:11:47.740.28-Aug-2021 4978.00 7963.70 80.48 29.00  84.92 3319.69
   04:11:47.940.28-Aug-2021 4978.00 7964.36 80.48 29.00  85.12 3319.69
   04:11:48.141.28-Aug-2021 4978.00 7964.36 80.48 29.00  85.32 3319.69
   04:11:48.341.28-Aug-2021 4978.00 7964.25 80.48 29.00  85.52 3319.69
   04:11:48.541.28-Aug-2021 4978.00 7964.24 80.48 29.00  85.72 3319.69
   04:11:48.742.28-Aug-2021 4978.00 7964.16 80.48 29.00  85.92 3319.69
   04:11:48.942.28-Aug-2021 4978.00 7963.97 80.48 29.00  86.12 3319.69
   04:11:49.142.28-Aug-2021 4978.00 7963.97 80.48 29.00  86.32 3319.69
   04:11:49.342.28-Aug-2021 4978.00 7965.07 80.48 29.00  86.52 3319.69
   04:11:49.543.28-Aug-2021 4978.00 7964.11 80.48 29.00  86.72 3319.69
   04:11:49.743.28-Aug-2021 4978.00 7963.90 80.48 29.00  86.92 3319.69
   04:11:49.943.28-Aug-2021 4978.00 7963.74 80.48 29.00  87.12 3319.69
   04:11:50.143.28-Aug-2021 4978.00 7963.74 80.48 29.00  87.32 3319.69
   04:11:50.344.28-Aug-2021 4978.00 7963.85 80.48 29.00  87.52 3319.69
   04:11:50.544.28-Aug-2021 4978.00 7963.47 80.48 29.00  87.72 3319.69
   04:11:50.744.28-Aug-2021 4978.00 7963.63 80.48 29.00  87.92 3319.69
   04:11:50.945.28-Aug-2021 4978.00 7963.88 80.48 29.00  88.12 3319.69
   04:11:51.145.28-Aug-2021 4978.00 7963.88 80.48 29.00  88.32 3319.69
   04:11:51.345.28-Aug-2021 4978.00 7965.18 80.48 29.00  88.52 3319.69
   04:11:51.545.28-Aug-2021 4978.00 7965.03 80.48 29.00  88.72 3319.69
   04:11:51.746.28-Aug-2021 4978.00 7964.91 80.48 29.00  88.92 3319.69
   04:11:51.946.28-Aug-2021 4978.00 7964.96 80.48 29.00  89.13 3319.69
   04:11:52.146.28-Aug-2021 4978.00 7964.96 80.48 29.00  89.33 3319.69
   04:11:52.347.28-Aug-2021 4978.00 7964.91 80.48 29.00  89.53 3319.69
   04:11:52.547.28-Aug-2021 4978.00 7970.06 80.48 29.00  89.73 3319.69
   04:11:52.747.28-Aug-2021 4978.00 7963.80 80.48 29.00  89.93 3319.69
   04:11:52.947.28-Aug-2021 4978.00 7964.55 80.48 29.00  90.13 3319.69
   04:11:53.148.28-Aug-2021 4978.00 7964.55 80.48 29.00  90.33 3319.69
