~Version Information
 VERS.                  2.0:   CWLS log ASCII Standard -VERSION 2.0
 WRAP.                   NO:   One line per depth step
~Well Information Block
#MNEM.UNIT     VALUE/NAME     DESCRIPTION
#---------     -----------    ---------------------------
 STRT.S             15:52:10 27-Aug-21: START TIME 15:52:10 27-Aug-21
 STOP.S             15:59:26 27-Aug-21: STOP TIME  15:59:26 27-Aug-21
 STEP.S                   0.00: STEP TIME
 NULL.                 -999.25: NULL VALUE
 DFWT.                        :  DIST FWL TEXT
 DFST.                        :  DIST FSL TEXT
 DMF .             Drill Floor:  DRILL MEAS FROM
 STIM.      20.00.00 17-Aug-21:  START TIME
 DATE.      19.00.00 29-Aug-21:  END TIME
 SPUD.               15-Aug-21:  SPUD DATE
 NREF.                    Grid:  NORTH REFERENCE
 HPTY.       Minimum Curvature:  HOLE POS TYPE
 DMOD.             Drill Model:  DRILL MOD DESC
 SVYD.                  Survey:  SURVEY DESC
 ILTD.               Lithology:  INTERP LTH DESC
 FTOP.          Formation Tops:  FORM TOPS DESC
 RIG .              East Azeri:  RIG NAME
 PDAT.          Mean Sea Level:  PERMANENT DATUM
 FLD .                     ACG:  FIELD NAME
 SON .        AZ-XX-0907180857:  JOB NUMBER
 CTRY.              Azerbaijan:  COUNTRY NAME
 WELL.                    D23x:  WELL NAME
 SRVC.     Turan Drilling and Engineering:  CONTRACTOR
 COMP.     BP Exploration (Caspian Sea) Ltd.:  COMPANY
 UWI .            /AZE00000214:  UNIQUE WELL IDENTIFIER
 API .            /AZE00000214:  API NUMBER
 MDS .        Operator Entered:  MAG DATA SOURCE
 BASE.              Azerbaijan:  LOGGING EQUIPMENT BASE LOCATION
 REGN.                   EESSA:  REGION
 PROV.                    Baku:  PROVINCE
 STAT.                    Baku:  STATE NAME
 MWDS.                    Baku:  MWD SHOP
 DOE .                     N/A:  DOE NUMBER
 DCON.         Sperry Drilling:  DIRECTNL CONTR
 UNIT.                     N/A:  LOGGING EQUIPMENT ID
 WTYP.                Deviated:  WELL TYPE
 CNTY.                        :  COUNTY
 LOC .                        :  LOCATION
 LMF .             Drill Floor:  LOG MEASURED FROM
 TVDS.m                  43.60:  TVDSS CORRECTN
 LATI.deg                40.02:  LATITUDE
 LONG.deg                51.45:  LONGITUDE
 WHNS.m                  -7.04:  WELL HEAD N/S
 WHEW.m                  -0.67:  WELL HEAD E/W
 UTMX.m              538762.90:  UTM X
 UTMY.m             4431871.34:  UTM Y
 DFWL.m                   0.00:  DISTANCE FWL
 DFSL.m                   0.00:  DISTANCE FSL
 SDEP.m                4127.00:  START DEPTH
 TDD .m                5084.50:  TOTAL DEPTH (DRILLER)
 VSDR.deg               140.47:  VERT SEC DIRECT
 GVFD.g                   1.00:  GRAVITY FIELD
 MFLD.nT              50362.00:  MAGNETIC FIELD
 MDIP.deg                59.48:  MAGNETIC DIP
 MDEC.deg                 6.47:  MAGNETIC DECL
 GRDC.deg                 0.31:  GRID CORRECTION
 AZTC.deg                 6.16:  AZM TOTAL CORR
 EPD .m                   0.00:  ELEVATION
 EGL .m                   0.00:  GROUND ELEVATION
 WDMS.m                 151.80:  WD ELEV
 APD .m                  43.60:  DEPTH ABOVE PD
 DEP .m                4092.57:  DEPTH
 AGAP.m                  43.60:  AIR GAP
 VSEW.m                  -0.67:  VERT SEC E/W
 VSNS.m                  -7.04:  VERT SEC N/S
 EKB .m                  43.60:  KB ELEVATION
 EDF .m                  43.60:  DF ELEVATION
 TDL .m                 957.50:  TOTAL DEPTH (LOGGER)
 VSC .                       0:  VS TO CLOSURE
 MAGU.                 1851413:  MAGUTM CHECKSUM
~Parameter Information Block
#MNEM.UNIT       Value        Description
#---------     -----------    ---------------------------
 AV  .mps                 1.50:  Ann Velocity 
 AVMX.mps                 2.00:  Max Ann Veloc 
 AZIF.deg               184.66:  Azm, Final 
 BHAT.        Rotary Steerable:  BHA Type 
 BREV.rev               300.00:  Rev Bit Total 
 BROT.°/30m              -0.50:  Build Rotating 
 BS  .in                  8.50:  Bit Size 
 BSZ .in                  8.50:  Bit Size 
 BTPL.psig              370.00:  Bit Press Loss 
 CABU.                      No:  Customer Abuse 
 CGEO.      Behruz Shahbaliyev:  Customer Geo 
 COMM.                     Ìu:  Run Comments 1 
 TCS .hr                140.08:  Time Ciculation Ended 
 CV  .mps                 3.00:  Crit Velocity 
 CVMX.mps                 3.20:  Max Crit Veloc 
 DD1 .            Musa Ahmadov:  Direct Drillr 1 
 DD2 .           Hamid Ahmadov:  Direct Drillr 2 
 DDSV.               Geo-Pilot:  DD Service 
 DEFF.%                  98.40:  % Det Eff 
 DLRX.°/30m               3.40:  Dogleg Rot Max 
 DLSO.°/30m               1.45:  Dogleg Oriented 
 DLSX.°/30m               3.40:  Dogleg Str Max 
 DRET.      18.40.00 29-Aug-21:  Drill End Time 
 DRST.      21.00.00 20-Aug-21:  Drill Start Tim 
 DTIM.hr                 69.47:  Time Drilling 
 EDEP.m                5084.50:  End Depth 
 ENG1.      Artemiy Matviyanov:  Engineer 1 
 ENG2.         Almaz Almadatov:  Engineer 2 
 ETIM.      18.40.00 29-Aug-21:  End Time 
 FLOI.gpm               500.00:  Flow In 
 FLON.gpm               400.00:  Flow In Min 
 FLOS.cptm                0.00:  Fluid Loss 
 FLOX.gpm               500.00:  Flow In Max 
 DFT .        Mineral Oil Base:  Mud Type 
 HFLO.                      No:  High Flow 
 HPRE.                      No:  High Pressure 
 HTEM.                      No:  High Temp 
 HYDO.m                   1.80:  Hydro Offset 
 IFIN.deg                25.62:  Inc, Final 
 IMAX.deg                48.69:  Inc Max 
 IMIN.deg                24.01:  Inc Min 
 IMND.m                4962.57:  Inc Min Depth 
 IMXD.m                4119.01:  Inc Max Depth 
 JARR.                      No:  Jarring 
 LETM.      18.40.00 29-Aug-21:  Log End Time 
 LOST.hr                     0:  Lost Rig Time 
 LSTM.      21.00.00 20-Aug-21:  Log Start Time 
 MDCL.ppm             41500.00:  Mud Chlorides 
 MDES.     Inversion Oil/Synthetic:  Mud Desc 
 DFD .sg                  1.56:  Mud Density 
 MDMN.sg                  1.56:  Dens Mud Min 
 MDMX.sg                  1.56:  Dens Mud Max 
 MOIL.                      70:  Run Mud Oil % 
 MOWR.                   70:30:  Run Mud OWR 
 MSND.                     0.2:  Run Mud Sand % 
 MSOL.                    23.3:  Run Mud Solids% 
 DFV .spqt               78.00:  Mud Viscosity 
 MWOD.in                  6.75:  MWD Tool OD 
 MWSI.                      No:  Serv Intrp, MWD 
 OTIM.hr                218.30:  Time Operating 
 PCON.           Look Like New:  Pad Condition 
 PMAX.psia            11015.30:  Press Op, Max 
 PV  .cP                 38.00:  Mud PV 
 RUN .                     300:  Run Number 
 ROPA.m/hr               15.00:  ROP Avg 
 ROPN.m/hr                9.00:  ROP Min 
 ROPX.m/hr               17.00:  ROP Max 
 RPMA.rpm               120.00:  RPM Surface Avg 
 RPMN.rpm                90.00:  RPM Surface Min 
 RPMX.rpm               140.00:  RPM Surface Max 
 RRUN.                     300:  Rig Run Number 
 RTIM.hr                 31.53:  Time Reaming 
 SAZI.deg               331.64:  Azm, Start 
 SDEP.m                4127.00:  Start Depth 
 SIDD.                      No:  Serv Intrp, DD 
 SINC.deg                48.43:  Inc, Start 
 SPPA.psig             5830.00:  SPP Avg 
 SPPN.psig             5600.00:  SPP Min 
 SPPX.psig             5900.00:  SPP Max 
 STIM.      21.00.00 20-Aug-21:  Start Time 
 SVCS.                 DD, MWD:  Services 
 SVER.                    9.20:  Sperry Version 
 TDAT.m                 957.50:  Tot Depth Attmp 
 TDDF.                      No:  Trip for DD 
 TDLG.m                 957.50:  Tot Depth Loggd 
 TFF .                      No:  Trip for Fail 
 TQAA.f-kp               15.00:  Torque Abs Avg 
 TQAN.f-kp               12.00:  Torque Abs Min 
 TQAX.f-kp               19.00:  Torque Abs Max 
 TRRT.°/30m              -3.40:  Turn Rotating 
 MRT .                  EWR-M5:  Maximum Recorded Temperature 
 TTMX.degC              100.00:  Max Tool Temp 
 VS01.                90639251:  Virtual Str1 SN 
 VS02.                90634715:  Virtual Str2 SN 
 VS03.                90652479:  Virtual Str3 SN 
 VS04.                90642262:  Virtual Str4 SN 
 WBMN.klb                 0.00:  WOB Min 
 WITN.           Murad Guliyev:  Customer Rep 
 WITN.          Yashar Gaziyev:  Customer Rep 2 
 WOBA.klb                 9.00:  WOB Avg 
 WOBX.klb                12.00:  WOB Max 
 YP  .lhf2               30.00:  Yield Point 
~Curve Information Block
#MNEM.UNIT                 API CODE     Curve Description
#---------               -----------    ---------------------------
 TIME.HHMMSS            00 000 000 000:  GT Time & Date
 GTDEPTH.m              00 000 000 000:  GT Depth
 GTPQH.psia             00 000 000 000:  GT HR Quartz Pressure
 GTTQ.degC              00 000 000 000:  GT Quartz Temperature
 GTTN.NONE              00 000 000 000:  GT Test Number
 GTET.sec               00 000 000 000:  GT Elapsed Test Time
 GTTVD.m                00 000 000 000:  GT True Vertical Depth
#Other Information
#
#WARRANTY: Halliburton will use its best efforts to furnish customers with 
#accurate information and interpretations that are part of, and incident to, the services 
#provided.  However, Halliburton cannot and does not warrant the accuracy 
#or correctness of such information and interpretations.  Under no circumstances should any 
#such information or interpretation be relied upon as the sole basis for any drilling, 
#completion, production, or financial decision or any procedure involving any risk to the 
#safety of any drilling venture, drilling rig or its crew or any other third party.  The 
#Customer has full responsibility for all drilling, completion and production operation.  
#Halliburton makes no representations or warranties, either expressed or 
#implied, including, but not limited to, the implied warranties of merchantability or fitness 
#for a particular purpose, with respect to the services rendered.  In no event will 
#Halliburton be liable for failure to obtain any particular results or for 
#any damages, including, but not limited to, indirect, special or consequential damages, 
#resulting from the use of any information or interpretation provided by Halliburton.
#
~A           TIME           GTDEPTH  GTPQH  GTTQ  GTTN   GTET   GTTVD  
   15:52:10.771.27-Aug-2021 4817.00 7600.67 83.76 16.00   0.00 3173.43
   15:52:10.971.27-Aug-2021 4817.00 7600.67 83.76 16.00   0.20 3173.43
   15:52:11.172.27-Aug-2021 4817.00 7600.94 83.76 16.00   0.40 3173.43
   15:52:11.372.27-Aug-2021 4817.00 7601.33 83.76 16.00   0.60 3173.43
   15:52:11.572.27-Aug-2021 4817.00 7600.90 83.76 16.00   0.80 3173.43
   15:52:11.773.27-Aug-2021 4817.00 7600.70 83.76 16.00   1.00 3173.43
   15:52:11.973.27-Aug-2021 4817.00 7600.70 83.76 16.00   1.20 3173.43
   15:52:12.173.27-Aug-2021 4817.00 7599.98 83.76 16.00   1.40 3173.43
   15:52:12.374.27-Aug-2021 4817.00 7599.63 83.76 16.00   1.60 3173.43
   15:52:12.574.27-Aug-2021 4817.00 7599.60 83.76 16.00   1.80 3173.43
   15:52:12.774.27-Aug-2021 4817.00 7599.39 83.76 16.00   2.00 3173.43
   15:52:12.975.27-Aug-2021 4817.00 7599.39 83.76 16.00   2.20 3173.43
   15:52:13.175.27-Aug-2021 4817.00 7604.19 83.76 16.00   2.40 3173.43
   15:52:13.375.27-Aug-2021 4817.00 7597.84 83.76 16.00   2.60 3173.43
   15:52:13.576.27-Aug-2021 4817.00 7600.16 83.76 16.00   2.80 3173.43
   15:52:13.776.27-Aug-2021 4817.00 7601.23 83.76 16.00   3.00 3173.43
   15:52:13.976.27-Aug-2021 4817.00 7601.23 83.76 16.00   3.21 3173.43
   15:52:14.176.27-Aug-2021 4817.00 7605.48 83.76 16.00   3.41 3173.43
   15:52:14.377.27-Aug-2021 4817.00 7598.66 83.76 16.00   3.61 3173.43
   15:52:14.577.27-Aug-2021 4817.00 7601.05 83.76 16.00   3.81 3173.43
   15:52:14.777.27-Aug-2021 4817.00 7602.51 83.76 16.00   4.01 3173.43
   15:52:14.978.27-Aug-2021 4817.00 7602.51 83.76 16.00   4.21 3173.43
   15:52:15.178.27-Aug-2021 4817.00 7601.60 83.75 16.00   4.41 3173.43
   15:52:15.378.27-Aug-2021 4817.00 7601.68 83.75 16.00   4.61 3173.43
   15:52:15.579.27-Aug-2021 4817.00 7606.74 83.75 16.00   4.81 3173.43
   15:52:15.779.27-Aug-2021 4817.00 7600.62 83.75 16.00   5.01 3173.43
   15:52:15.979.27-Aug-2021 4817.00 7600.62 83.75 16.00   5.21 3173.43
   15:52:16.180.27-Aug-2021 4817.00 7600.62 83.75 16.00   5.41 3173.43
   15:52:16.380.27-Aug-2021 4817.00 7605.43 83.75 16.00   5.61 3173.43
   15:52:16.580.27-Aug-2021 4817.00 7603.56 83.75 16.00   5.81 3173.43
   15:52:16.781.27-Aug-2021 4817.00 7604.46 83.75 16.00   6.01 3173.43
   15:52:16.981.27-Aug-2021 4817.00 7604.46 83.75 16.00   6.21 3173.43
   15:52:17.181.27-Aug-2021 4817.00 7608.73 83.75 16.00   6.41 3173.43
   15:52:17.382.27-Aug-2021 4817.00 7603.56 83.75 16.00   6.61 3173.43
   15:52:17.582.27-Aug-2021 4817.00 7604.51 83.75 16.00   6.81 3173.43
   15:52:17.782.27-Aug-2021 4817.00 7606.71 83.75 16.00   7.01 3173.43
   15:52:17.983.27-Aug-2021 4817.00 7606.71 83.75 16.00   7.21 3173.43
   15:52:18.183.27-Aug-2021 4817.00 7606.00 83.75 16.00   7.41 3173.43
   15:52:18.383.27-Aug-2021 4817.00 7606.96 83.75 16.00   7.61 3173.43
   15:52:18.583.27-Aug-2021 4817.00 7608.15 83.75 16.00   7.81 3173.43
   15:52:18.784.27-Aug-2021 4817.00 7609.30 83.75 16.00   8.01 3173.43
   15:52:18.984.27-Aug-2021 4817.00 7609.30 83.75 16.00   8.21 3173.43
   15:52:19.184.27-Aug-2021 4817.00 7608.83 83.75 16.00   8.41 3173.43
   15:52:19.385.27-Aug-2021 4817.00 7608.75 83.75 16.00   8.61 3173.43
   15:52:19.585.27-Aug-2021 4817.00 7608.06 83.75 16.00   8.81 3173.43
   15:52:19.785.27-Aug-2021 4817.00 7608.61 83.75 16.00   9.01 3173.43
   15:52:19.986.27-Aug-2021 4817.00 7608.61 83.75 16.00   9.21 3173.43
   15:52:20.186.27-Aug-2021 4817.00 7606.78 83.75 16.00   9.41 3173.43
   15:52:20.386.27-Aug-2021 4817.00 7609.14 83.75 16.00   9.62 3173.43
   15:52:20.587.27-Aug-2021 4817.00 7609.71 83.75 16.00   9.82 3173.43
   15:52:20.787.27-Aug-2021 4817.00 7609.06 83.75 16.00  10.02 3173.43
   15:52:20.987.27-Aug-2021 4817.00 7609.06 83.75 16.00  10.22 3173.43
   15:52:21.188.27-Aug-2021 4817.00 7608.69 83.75 16.00  10.42 3173.43
   15:52:21.388.27-Aug-2021 4817.00 7609.09 83.75 16.00  10.62 3173.43
   15:52:21.588.27-Aug-2021 4817.00 7609.44 83.75 16.00  10.82 3173.43
   15:52:21.789.27-Aug-2021 4817.00 7609.58 83.75 16.00  11.02 3173.43
   15:52:21.989.27-Aug-2021 4817.00 7609.58 83.75 16.00  11.22 3173.43
   15:52:22.189.27-Aug-2021 4817.00 7610.11 83.75 16.00  11.42 3173.43
   15:52:22.390.27-Aug-2021 4817.00 7610.16 83.75 16.00  11.62 3173.43
   15:52:22.590.27-Aug-2021 4817.00 7610.27 83.75 16.00  11.82 3173.43
   15:52:22.790.27-Aug-2021 4817.00 7610.61 83.75 16.00  12.02 3173.43
   15:52:22.990.27-Aug-2021 4817.00 7610.61 83.75 16.00  12.22 3173.43
   15:52:23.191.27-Aug-2021 4817.00 7611.04 83.75 16.00  12.42 3173.43
   15:52:23.391.27-Aug-2021 4817.00 7611.18 83.75 16.00  12.62 3173.43
   15:52:23.591.27-Aug-2021 4817.00 7612.43 83.75 16.00  12.82 3173.43
   15:52:23.792.27-Aug-2021 4817.00 7613.98 83.75 16.00  13.02 3173.43
   15:52:23.992.27-Aug-2021 4817.00 7613.98 83.75 16.00  13.22 3173.43
   15:52:24.192.27-Aug-2021 4817.00 7612.99 83.75 16.00  13.42 3173.43
   15:52:24.393.27-Aug-2021 4817.00 7612.92 83.75 16.00  13.62 3173.43
   15:52:24.593.27-Aug-2021 4817.00 7612.54 83.75 16.00  13.82 3173.43
   15:52:24.793.27-Aug-2021 4817.00 7613.31 83.75 16.00  14.02 3173.43
   15:52:24.994.27-Aug-2021 4817.00 7613.31 83.75 16.00  14.22 3173.43
   15:52:25.194.27-Aug-2021 4817.00 7613.71 83.75 16.00  14.42 3173.43
   15:52:25.394.27-Aug-2021 4817.00 7614.48 83.75 16.00  14.62 3173.43
   15:52:25.595.27-Aug-2021 4817.00 7614.56 83.75 16.00  14.82 3173.43
   15:52:25.795.27-Aug-2021 4817.00 7614.84 83.74 16.00  15.02 3173.43
   15:52:25.995.27-Aug-2021 4817.00 7614.84 83.74 16.00  15.22 3173.43
   15:52:26.196.27-Aug-2021 4817.00 7615.19 83.74 16.00  15.42 3173.43
   15:52:26.396.27-Aug-2021 4817.00 7615.39 83.74 16.00  15.62 3173.43
   15:52:26.596.27-Aug-2021 4817.00 7615.35 83.74 16.00  15.83 3173.43
   15:52:26.797.27-Aug-2021 4817.00 7616.39 83.74 16.00  16.03 3173.43
   15:52:26.997.27-Aug-2021 4817.00 7616.39 83.74 16.00  16.23 3173.43
   15:52:27.197.27-Aug-2021 4817.00 7615.60 83.74 16.00  16.43 3173.43
   15:52:27.397.27-Aug-2021 4817.00 7616.61 83.74 16.00  16.63 3173.43
   15:52:27.598.27-Aug-2021 4817.00 7616.43 83.74 16.00  16.83 3173.43
   15:52:27.798.27-Aug-2021 4817.00 7615.77 83.74 16.00  17.03 3173.43
   15:52:27.998.27-Aug-2021 4817.00 7615.77 83.74 16.00  17.23 3173.43
   15:52:28.199.27-Aug-2021 4817.00 7618.02 83.74 16.00  17.43 3173.43
   15:52:28.399.27-Aug-2021 4817.00 7616.88 83.74 16.00  17.63 3173.43
   15:52:28.599.27-Aug-2021 4817.00 7618.22 83.74 16.00  17.83 3173.43
   15:52:28.800.27-Aug-2021 4817.00 7617.67 83.74 16.00  18.03 3173.43
   15:52:29.000.27-Aug-2021 4817.00 7617.67 83.74 16.00  18.23 3173.43
   15:52:29.200.27-Aug-2021 4817.00 7622.30 83.74 16.00  18.43 3173.43
   15:52:29.401.27-Aug-2021 4817.00 7615.99 83.74 16.00  18.63 3173.43
   15:52:29.601.27-Aug-2021 4817.00 7617.94 83.74 16.00  18.83 3173.43
   15:52:29.801.27-Aug-2021 4817.00 7619.06 83.74 16.00  19.03 3173.43
   15:52:30.002.27-Aug-2021 4817.00 7619.06 83.74 16.00  19.23 3173.43
   15:52:30.202.27-Aug-2021 4817.00 7618.09 83.74 16.00  19.43 3173.43
   15:52:30.402.27-Aug-2021 4817.00 7621.69 83.74 16.00  19.63 3173.43
   15:52:30.603.27-Aug-2021 4817.00 7617.87 83.74 16.00  19.83 3173.43
   15:52:30.803.27-Aug-2021 4817.00 7619.20 83.74 16.00  20.03 3173.43
   15:52:31.003.27-Aug-2021 4817.00 7619.20 83.74 16.00  20.23 3173.43
   15:52:31.204.27-Aug-2021 4817.00 7621.12 83.74 16.00  20.43 3173.43
   15:52:31.404.27-Aug-2021 4817.00 7619.74 83.74 16.00  20.63 3173.43
   15:52:31.604.27-Aug-2021 4817.00 7619.98 83.74 16.00  20.83 3173.43
   15:52:31.804.27-Aug-2021 4817.00 7620.42 83.74 16.00  21.03 3173.43
   15:52:32.005.27-Aug-2021 4817.00 7620.42 83.74 16.00  21.23 3173.43
   15:52:32.205.27-Aug-2021 4817.00 7624.06 83.74 16.00  21.43 3173.43
   15:52:32.405.27-Aug-2021 4817.00 7620.23 83.74 16.00  21.63 3173.43
   15:52:32.606.27-Aug-2021 4817.00 7621.73 83.74 16.00  21.83 3173.43
   15:52:32.806.27-Aug-2021 4817.00 7622.56 83.74 16.00  22.04 3173.43
   15:52:33.006.27-Aug-2021 4817.00 7622.56 83.74 16.00  22.24 3173.43
   15:52:33.207.27-Aug-2021 4817.00 7622.10 83.74 16.00  22.44 3173.43
