~Version Information
 VERS.                  2.0:   CWLS log ASCII Standard -VERSION 2.0
 WRAP.                   NO:   One line per depth step
~Well Information Block
#MNEM.UNIT     VALUE/NAME     DESCRIPTION
#---------     -----------    ---------------------------
 STRT.S             05:06:54 18-Jan-20: START TIME 05:06:54 18-Jan-20
 STOP.S             05:17:00 18-Jan-20: STOP TIME  05:17:00 18-Jan-20
 STEP.S                   0.00: STEP TIME
 NULL.                 -999.25: NULL VALUE
 DFWT.                        :  DIST FWL TEXT
 DFST.                        :  DIST FSL TEXT
 DMF .             Drill Floor:  DRILL MEAS FROM
 STIM.      09.30.00 26-Dec-19:  START TIME
 DATE.      08.00.00 20-Jan-20:  END TIME
 SPUD.               23-Nov-19:  SPUD DATE
 NREF.                    Grid:  NORTH REFERENCE
 HPTY.       Minimum Curvature:  HOLE POS TYPE
 DMOD.             Drill Model:  DRILL MOD DESC
 SVYD.                  Survey:  SURVEY DESC
 ILTD.               Lithology:  INTERP LTH DESC
 FTOP.          Formation Tops:  FORM TOPS DESC
 SON .        AZ-XX-0906192647:  JOB NUMBER
 WTYP.                Deviated:  WELL TYPE
 COMP.     BP Exploration (Caspian Sea) Ltd:  COMPANY
 BASE.              Azerbaijan:  LOGGING EQUIPMENT BASE LOCATION
 REGN.                 Eurasia:  REGION
 FLD .                     ACG:  FIELD NAME
 SRVC.              KCA Deutag:  CONTRACTOR
 MWDS.                    Baku:  MWD SHOP
 WELL.     A10 (Slot 20) - SCP:  WELL NAME
 JOBN.        AZ-XX-0906192647:  JOB TICKET NUMB
 RIG .                 Chirag1:  RIG NAME
 DCON.     Halliburton Sperry Drilling:  DIRECTNL CONTR
 UNIT.                     N/A:  LOGGING EQUIPMENT ID
 PDAT.          Mean Sea Level:  PERMANENT DATUM
 MDS .        Operator Entered:  MAG DATA SOURCE
 CTRY.              Azerbaijan:  COUNTRY NAME
 UWI .            /AZE00000090:  UNIQUE WELL IDENTIFIER
 API .            /AZE00000090:  API NUMBER
 CNTY.                        :  COUNTY
 PROV.                        :  PROVINCE
 STAT.                        :  STATE
 LOC .                        :  LOCATION
 LMF .             Drill Floor:  LOG MEASURED FROM
 TVDS.m                  36.60:  TVDSS CORRECTN
 LATI.deg                40.08:  LATITUDE
 LONG.deg                51.24:  LONGITUDE
 WHNS.m                  -7.94:  WELL HEAD N/S
 WHEW.m                   1.56:  WELL HEAD E/W
 UTMX.m              520429.26:  UTM X
 UTMY.m             4438973.87:  UTM Y
 DFWL.m                   0.00:  DISTANCE FWL
 DFSL.m                   0.00:  DISTANCE FSL
 SDEP.m                1455.00:  START DEPTH
 TDD .m                3878.01:  TOTAL DEPTH (DRILLER)
 VSDR.deg               112.75:  VERT SEC DIRECT
 GVFD.g                   1.00:  GRAVITY FIELD
 MFLD.nT              50256.00:  MAGNETIC FIELD
 MDIP.deg                59.52:  MAGNETIC DIP
 MDEC.deg                 6.43:  MAGNETIC DECL
 GRDC.deg                 0.16:  GRID CORRECTION
 AZTC.deg                 6.27:  AZM TOTAL CORR
 EPD .m                   0.00:  ELEVATION
 EGL .m                   0.00:  GROUND ELEVATION
 WDMS.m                 121.00:  WD ELEV
 APD .m                  36.60:  DEPTH ABOVE PD
 AGAP.m                  36.60:  AIR GAP
 VSEW.m                   1.56:  VERT SEC E/W
 VSNS.m                  -7.94:  VERT SEC N/S
 DEP .m                1140.01:  DEPTH
 EKB .m                  36.60:  KB ELEVATION
 EDF .m                  36.60:  DF ELEVATION
 TDL .m                1293.00:  TOTAL DEPTH (LOGGER)
 VSC .                       0:  VS TO CLOSURE
 MAGU.                 1849164:  MAGUTM CHECKSUM
~Parameter Information Block
#MNEM.UNIT       Value        Description
#---------     -----------    ---------------------------
 AV  .mps                 2.40:  Ann Velocity 
 AVMX.mps                 2.55:  Max Ann Veloc 
 AZIF.deg               134.35:  Azm, Final 
 BHAT.        Rotary Steerable:  BHA Type 
 BREV.rev               847.00:  Rev Bit Total 
 BROT.�/30m              -2.51:  Build Rotating 
 BS  .in                  8.50:  Bit Size 
 BSZ .in                  8.50:  Bit Size 
 BTPL.psig              700.00:  Bit Press Loss 
 CABU.                     Yes:  Customer Abuse 
 CGEO.          Ilgar Gurbanov:  Customer Geo 
 COMM.                     ��L:  Run Comments 1 
 TCS .hr                140.40:  Time Ciculation Ended 
 CV  .mps                 2.27:  Crit Velocity 
 CVMX.mps                 2.45:  Max Crit Veloc 
 DD1 .         Intigam Rahimov:  Direct Drillr 1 
 DD2 .         Rasim Ibrahimov:  Direct Drillr 2 
 DDSV.                 iCruise:  DD Service 
 DEFF.%                  99.00:  % Det Eff 
 DLRX.�/30m               3.28:  Dogleg Rot Max 
 DLSO.�/30m               0.00:  Dogleg Oriented 
 DLSX.�/30m               0.00:  Dogleg Str Max 
 DRET.      23.30.00 18-Jan-20:  Drill End Time 
 DRST.      01.45.00 11-Jan-20:  Drill Start Tim 
 DTIM.hr                 94.00:  Time Drilling 
 EDEP.m                3878.01:  End Depth 
 ENG1.       Dauren Baktybayev:  Engineer 1 
 ENG2.      Natik Hasanaghayev:  Engineer 2 
 ENG3.          Rustam Safarov:  Engineer 3 
 ETIM.      08.00.00 20-Jan-20:  End Time 
 FLOI.gpm               532.00:  Flow In 
 FLON.gpm               500.00:  Flow In Min 
 FLOS.cptm                0.00:  Fluid Loss 
 FLOX.gpm               540.00:  Flow In Max 
 FTRO.       Formation Presure:  FTWD Run Obj 
 HPRE.                     Yes:  High Pressure 
 HTEM.                      No:  High Temp 
 HYDO.m                   1.80:  Hydro Offset 
 IFIN.deg                39.86:  Inc, Final 
 IMAX.deg                59.73:  Inc Max 
 IMIN.deg                39.25:  Inc Min 
 IMND.m                3816.77:  Inc Min Depth 
 IMXD.m                2596.33:  Inc Max Depth 
 JARR.                      No:  Jarring 
 LETM.      23.30.00 18-Jan-20:  Log End Time 
 LOST.hr                     0:  Lost Rig Time 
 LSTM.      01.45.00 11-Jan-20:  Log Start Time 
 MDCL.ppm             41500.00:  Mud Chlorides 
 MDES.     Inversion Oil/Synthetic:  Mud Desc 
 DFD .sg                  1.48:  Mud Density 
 MDMN.sg                  1.48:  Dens Mud Min 
 MDMX.sg                  1.48:  Dens Mud Max 
 MOIL.                      54:  Run Mud Oil % 
 MOWR.                   72:28:  Run Mud OWR 
 MSND.                       0:  Run Mud Sand % 
 MSOL.                      23:  Run Mud Solids% 
 DFV .spqt               86.00:  Mud Viscosity 
 MWOD.in                  6.75:  MWD Tool OD 
 MWSI.                      No:  Serv Intrp, MWD 
 OTIM.hr                223.40:  Time Operating 
 PCON.           Look Like New:  Pad Condition 
 PMAX.psia            32446.79:  Press Op, Max 
 PV  .cP                 49.00:  Mud PV 
 RUN .                     200:  Run Number 
 ROPA.m/hr               12.48:  ROP Avg 
 ROPN.m/hr                8.00:  ROP Min 
 ROPX.m/hr               27.00:  ROP Max 
 RPMA.rpm               121.00:  RPM Surface Avg 
 RPMN.rpm                60.00:  RPM Surface Min 
 RPMX.rpm               140.00:  RPM Surface Max 
 RRUN.                    L202:  Rig Run Number 
 RTIM.hr                  7.25:  Time Reaming 
 SAZI.deg               123.49:  Azm, Start 
 SDEP.m                2585.01:  Start Depth 
 SIDD.                      No:  Serv Intrp, DD 
 SINC.deg                59.93:  Inc, Start 
 SPPA.psig             3539.00:  SPP Avg 
 SPPN.psig             3050.00:  SPP Min 
 SPPX.psig             3950.00:  SPP Max 
 STIM.      19.00.00 10-Jan-20:  Start Time 
 SVCS.                 DD, MWD:  Services 
 SVER.                    9.20:  Sperry Version 
 TDAT.m                1293.00:  Tot Depth Attmp 
 TDDF.                      No:  Trip for DD 
 TDLG.m                1293.00:  Tot Depth Loggd 
 TFF .                      No:  Trip for Fail 
 TQAA.f-kp               16.00:  Torque Abs Avg 
 TQAN.f-kp               11.00:  Torque Abs Min 
 TQAX.f-kp               18.00:  Torque Abs Max 
 TRRT.�/30m               1.25:  Turn Rotating 
 MRT .                  EWR-M5:  Maximum Recorded Temperature 
 TTMX.degC               84.00:  Max Tool Temp 
 VS01.          AZ90514619R5C6:  Virtual Str1 SN 
 VS02.        AZ90552592N2L2C6:  Virtual Str2 SN 
 VS03.        AZ90571337Z1W1C6:  Virtual Str3 SN 
 VS04.         AZ90513690K23C6:  Virtual Str4 SN 
 VS05.           AZ90594857F11:  Virtual Str5 SN 
 VS06.                13102166:  Virtual Str6 SN 
 WBMN.klb                 7.00:  WOB Min 
 WITN.            Peter Wilson:  Customer Rep 
 WOBA.klb                 9.95:  WOB Avg 
 WOBX.klb                10.00:  WOB Max 
 YP  .lhf2               36.00:  Yield Point 
~Curve Information Block
#MNEM.UNIT                 API CODE     Curve Description
#---------               -----------    ---------------------------
 TIME.HHMMSS            00 000 000 000:  GT Time & Date
 GTDEPTH.m              00 000 000 000:  GT Depth
 GTPQH.psia             00 000 000 000:  GT HR Quartz Pressure
 GTTQ.degC              00 000 000 000:  GT Quartz Temperature
 GTTN.NONE              00 000 000 000:  GT Test Number
 GTET.sec               00 000 000 000:  GT Elapsed Test Time
 GTTVD.m                00 000 000 000:  GT True Vertical Depth
#Other Information
#
#WARRANTY: Halliburton will use its best efforts to furnish customers with 
#accurate information and interpretations that are part of, and incident to, the services 
#provided.  However, Halliburton cannot and does not warrant the accuracy 
#or correctness of such information and interpretations.  Under no circumstances should any 
#such information or interpretation be relied upon as the sole basis for any drilling, 
#completion, production, or financial decision or any procedure involving any risk to the 
#safety of any drilling venture, drilling rig or its crew or any other third party.  The 
#Customer has full responsibility for all drilling, completion and production operation.  
#Halliburton makes no representations or warranties, either expressed or 
#implied, including, but not limited to, the implied warranties of merchantability or fitness 
#for a particular purpose, with respect to the services rendered.  In no event will 
#Halliburton be liable for failure to obtain any particular results or for 
#any damages, including, but not limited to, indirect, special or consequential damages, 
#resulting from the use of any information or interpretation provided by Halliburton.
#
~A           TIME           GTDEPTH  GTPQH  GTTQ  GTTN  GTET   GTTVD  
   05:06:54.946.18-Jan-2020 3717.16 -999.25 79.03 1.00   0.00 2797.33
   05:06:55.146.18-Jan-2020 3717.16    0.00 79.03 1.00   0.20 2797.33
   05:06:55.346.18-Jan-2020 3717.16    0.00 79.03 1.00   0.40 2797.33
   05:06:55.546.18-Jan-2020 3717.16 6314.02 79.03 1.00   0.60 2797.33
   05:06:55.746.18-Jan-2020 3717.16 6311.82 79.03 1.00   0.80 2797.33
   05:06:55.946.18-Jan-2020 3717.16 6309.62 79.03 1.00   1.00 2797.33
   05:06:56.146.18-Jan-2020 3717.16 6309.62 79.03 1.00   1.20 2797.33
   05:06:56.347.18-Jan-2020 3717.16 6323.76 79.03 1.00   1.40 2797.33
   05:06:56.547.18-Jan-2020 3717.16 6310.96 79.03 1.00   1.60 2797.33
   05:06:56.747.18-Jan-2020 3717.16 6310.04 79.03 1.00   1.80 2797.33
   05:06:56.947.18-Jan-2020 3717.16 6310.74 79.03 1.00   2.00 2797.33
   05:06:57.147.18-Jan-2020 3717.16 6310.74 79.03 1.00   2.20 2797.33
   05:06:57.347.18-Jan-2020 3717.16 6322.28 79.03 1.00   2.40 2797.33
   05:06:57.547.18-Jan-2020 3717.16 6316.26 79.03 1.00   2.60 2797.33
   05:06:57.747.18-Jan-2020 3717.16 6314.42 79.03 1.00   2.80 2797.33
   05:06:57.947.18-Jan-2020 3717.16 6317.27 79.03 1.00   3.00 2797.33
   05:06:58.147.18-Jan-2020 3717.16 6317.27 79.03 1.00   3.20 2797.33
   05:06:58.347.18-Jan-2020 3717.16 6317.90 79.03 1.00   3.40 2797.33
   05:06:58.547.18-Jan-2020 3717.16 6324.59 79.03 1.00   3.60 2797.33
   05:06:58.747.18-Jan-2020 3717.16 6316.22 79.03 1.00   3.80 2797.33
   05:06:58.947.18-Jan-2020 3717.16 6317.32 79.03 1.00   4.00 2797.33
   05:06:59.147.18-Jan-2020 3717.16 6317.32 79.03 1.00   4.20 2797.33
   05:06:59.347.18-Jan-2020 3717.16 6328.28 79.03 1.00   4.40 2797.33
   05:06:59.547.18-Jan-2020 3717.16 6313.15 79.03 1.00   4.60 2797.33
   05:06:59.748.18-Jan-2020 3717.16 6313.82 79.03 1.00   4.80 2797.33
   05:06:59.948.18-Jan-2020 3717.16 6316.51 79.03 1.00   5.00 2797.33
   05:07:00.148.18-Jan-2020 3717.16 6316.51 79.03 1.00   5.20 2797.33
   05:07:00.348.18-Jan-2020 3717.16 6314.58 79.03 1.00   5.40 2797.33
   05:07:00.548.18-Jan-2020 3717.16 6315.81 79.03 1.00   5.60 2797.33
   05:07:00.748.18-Jan-2020 3717.16 6314.85 79.03 1.00   5.80 2797.33
   05:07:00.948.18-Jan-2020 3717.16 6316.05 79.03 1.00   6.00 2797.33
   05:07:01.148.18-Jan-2020 3717.16 6316.05 79.03 1.00   6.20 2797.33
   05:07:01.348.18-Jan-2020 3717.16 6319.83 79.02 1.00   6.40 2797.33
   05:07:01.548.18-Jan-2020 3717.16 6318.80 79.02 1.00   6.60 2797.33
   05:07:01.748.18-Jan-2020 3717.16 6317.42 79.02 1.00   6.80 2797.33
   05:07:01.948.18-Jan-2020 3717.16 6320.35 79.02 1.00   7.00 2797.33
   05:07:02.148.18-Jan-2020 3717.16 6320.35 79.02 1.00   7.20 2797.33
   05:07:02.348.18-Jan-2020 3717.16 6320.91 79.02 1.00   7.40 2797.33
   05:07:02.548.18-Jan-2020 3717.16 6318.54 79.02 1.00   7.60 2797.33
   05:07:02.748.18-Jan-2020 3717.16 6331.46 79.02 1.00   7.80 2797.33
   05:07:02.948.18-Jan-2020 3717.16 6318.49 79.02 1.00   8.00 2797.33
   05:07:03.148.18-Jan-2020 3717.16 6318.49 79.02 1.00   8.20 2797.33
   05:07:03.349.18-Jan-2020 3717.16 6319.26 79.02 1.00   8.40 2797.33
   05:07:03.549.18-Jan-2020 3717.16 6318.79 79.02 1.00   8.60 2797.33
   05:07:03.749.18-Jan-2020 3717.16 6318.35 79.02 1.00   8.80 2797.33
   05:07:03.949.18-Jan-2020 3717.16 6320.23 79.02 1.00   9.00 2797.33
   05:07:04.149.18-Jan-2020 3717.16 6320.23 79.02 1.00   9.20 2797.33
   05:07:04.349.18-Jan-2020 3717.16 6319.41 79.02 1.00   9.40 2797.33
   05:07:04.549.18-Jan-2020 3717.16 6320.85 79.02 1.00   9.60 2797.33
   05:07:04.749.18-Jan-2020 3717.16 6320.59 79.02 1.00   9.80 2797.33
   05:07:04.949.18-Jan-2020 3717.16 6322.15 79.02 1.00  10.00 2797.33
   05:07:05.149.18-Jan-2020 3717.16 6322.15 79.02 1.00  10.20 2797.33
   05:07:05.349.18-Jan-2020 3717.16 6321.18 79.02 1.00  10.40 2797.33
   05:07:05.549.18-Jan-2020 3717.16 6322.85 79.02 1.00  10.60 2797.33
   05:07:05.749.18-Jan-2020 3717.16 6323.63 79.02 1.00  10.80 2797.33
   05:07:05.949.18-Jan-2020 3717.16 6328.64 79.02 1.00  11.00 2797.33
   05:07:06.149.18-Jan-2020 3717.16 6328.64 79.02 1.00  11.20 2797.33
   05:07:06.349.18-Jan-2020 3717.16 6320.08 79.02 1.00  11.40 2797.33
   05:07:06.549.18-Jan-2020 3717.16 6323.67 79.02 1.00  11.60 2797.33
   05:07:06.750.18-Jan-2020 3717.16 6321.65 79.02 1.00  11.80 2797.33
   05:07:06.950.18-Jan-2020 3717.16 6330.87 79.02 1.00  12.00 2797.33
   05:07:07.150.18-Jan-2020 3717.16 6330.87 79.02 1.00  12.20 2797.33
   05:07:07.350.18-Jan-2020 3717.16 6321.31 79.02 1.00  12.40 2797.33
   05:07:07.550.18-Jan-2020 3717.16 6325.23 79.02 1.00  12.60 2797.33
   05:07:07.750.18-Jan-2020 3717.16 6322.22 79.02 1.00  12.80 2797.33
   05:07:07.950.18-Jan-2020 3717.16 6330.85 79.02 1.00  13.00 2797.33
   05:07:08.150.18-Jan-2020 3717.16 6330.85 79.02 1.00  13.20 2797.33
   05:07:08.350.18-Jan-2020 3717.16 6323.88 79.02 1.00  13.40 2797.33
   05:07:08.550.18-Jan-2020 3717.16 6326.19 79.02 1.00  13.60 2797.33
   05:07:08.750.18-Jan-2020 3717.16 6327.97 79.02 1.00  13.80 2797.33
   05:07:08.950.18-Jan-2020 3717.16 6334.74 79.02 1.00  14.00 2797.33
   05:07:09.150.18-Jan-2020 3717.16 6334.74 79.02 1.00  14.20 2797.33
   05:07:09.350.18-Jan-2020 3717.16 6325.31 79.02 1.00  14.40 2797.33
   05:07:09.550.18-Jan-2020 3717.16 6327.23 79.02 1.00  14.60 2797.33
   05:07:09.750.18-Jan-2020 3717.16 6337.22 79.02 1.00  14.80 2797.33
   05:07:09.950.18-Jan-2020 3717.16 6330.64 79.02 1.00  15.00 2797.33
   05:07:10.150.18-Jan-2020 3717.16 6330.64 79.02 1.00  15.20 2797.33
   05:07:10.351.18-Jan-2020 3717.16 6333.79 79.02 1.00  15.40 2797.33
   05:07:10.551.18-Jan-2020 3717.16 6331.83 79.02 1.00  15.60 2797.33
   05:07:10.751.18-Jan-2020 3717.16 6327.45 79.02 1.00  15.80 2797.33
   05:07:10.951.18-Jan-2020 3717.16 6331.31 79.02 1.00  16.00 2797.33
   05:07:11.151.18-Jan-2020 3717.16 6331.31 79.02 1.00  16.20 2797.33
   05:07:11.351.18-Jan-2020 3717.16 6327.51 79.02 1.00  16.40 2797.33
   05:07:11.551.18-Jan-2020 3717.16 6328.72 79.02 1.00  16.60 2797.33
   05:07:11.751.18-Jan-2020 3717.16 6332.34 79.02 1.00  16.80 2797.33
   05:07:11.951.18-Jan-2020 3717.16 6332.03 79.01 1.00  17.00 2797.33
   05:07:12.151.18-Jan-2020 3717.16 6332.03 79.01 1.00  17.20 2797.33
   05:07:12.351.18-Jan-2020 3717.16 6332.41 79.01 1.00  17.40 2797.33
   05:07:12.551.18-Jan-2020 3717.16 6334.25 79.01 1.00  17.60 2797.33
   05:07:12.751.18-Jan-2020 3717.16 6331.89 79.01 1.00  17.81 2797.33
   05:07:12.951.18-Jan-2020 3717.16 6330.73 79.01 1.00  18.01 2797.33
   05:07:13.151.18-Jan-2020 3717.16 6330.73 79.01 1.00  18.21 2797.33
   05:07:13.351.18-Jan-2020 3717.16 6334.81 79.01 1.00  18.41 2797.33
   05:07:13.551.18-Jan-2020 3717.16 6333.28 79.01 1.00  18.61 2797.33
   05:07:13.751.18-Jan-2020 3717.16 6332.39 79.01 1.00  18.81 2797.33
   05:07:13.952.18-Jan-2020 3717.16 6343.39 79.01 1.00  19.01 2797.33
   05:07:14.152.18-Jan-2020 3717.16 6343.39 79.01 1.00  19.21 2797.33
   05:07:14.352.18-Jan-2020 3717.16 6330.36 79.01 1.00  19.41 2797.33
   05:07:14.552.18-Jan-2020 3717.16 6334.30 79.01 1.00  19.61 2797.33
   05:07:14.752.18-Jan-2020 3717.16 6332.06 79.01 1.00  19.81 2797.33
   05:07:14.952.18-Jan-2020 3717.16 6330.94 79.01 1.00  20.01 2797.33
   05:07:15.152.18-Jan-2020 3717.16 6330.94 79.01 1.00  20.21 2797.33
   05:07:15.352.18-Jan-2020 3717.16 6333.14 79.01 1.00  20.41 2797.33
   05:07:15.552.18-Jan-2020 3717.16 6333.35 79.01 1.00  20.61 2797.33
   05:07:15.752.18-Jan-2020 3717.16 6332.73 79.01 1.00  20.81 2797.33
   05:07:15.952.18-Jan-2020 3717.16 6333.21 79.01 1.00  21.01 2797.33
   05:07:16.152.18-Jan-2020 3717.16 6333.21 79.01 1.00  21.21 2797.33
   05:07:16.352.18-Jan-2020 3717.16 6345.10 79.01 1.00  21.41 2797.33
   05:07:16.552.18-Jan-2020 3717.16 6332.47 79.01 1.00  21.61 2797.33
   05:07:16.752.18-Jan-2020 3717.16 6336.40 79.01 1.00  21.81 2797.33
   05:07:16.952.18-Jan-2020 3717.16 6337.12 79.01 1.00  22.01 2797.33
   05:07:17.152.18-Jan-2020 3717.16 6337.12 79.01 1.00  22.21 2797.33
   05:07:17.353.18-Jan-2020 3717.16 6332.30 79.01 1.00  22.41 2797.33
   05:07:17.553.18-Jan-2020 3717.16 6345.82 79.01 1.00  22.61 2797.33
   05:07:17.753.18-Jan-2020 3717.16 6333.07 79.01 1.00  22.81 2797.33
