~Version Information
 VERS.                  2.0:   CWLS log ASCII Standard -VERSION 2.0
 WRAP.                   NO:   One line per depth step
~Well Information Block
#MNEM.UNIT     VALUE/NAME     DESCRIPTION
#---------     -----------    ---------------------------
 STRT.S             05:06:54 18-Jan-20: START TIME 05:06:54 18-Jan-20
 STOP.S             05:17:00 18-Jan-20: STOP TIME  05:17:00 18-Jan-20
 STEP.S                   0.00: STEP TIME
 NULL.                 -999.25: NULL VALUE
 DFWT.                        :  DIST FWL TEXT
 DFST.                        :  DIST FSL TEXT
 DMF .             Drill Floor:  DRILL MEAS FROM
 STIM.      09.30.00 26-Dec-19:  START TIME
 DATE.      08.00.00 20-Jan-20:  END TIME
 SPUD.               23-Nov-19:  SPUD DATE
 NREF.                    Grid:  NORTH REFERENCE
 HPTY.       Minimum Curvature:  HOLE POS TYPE
 DMOD.             Drill Model:  DRILL MOD DESC
 SVYD.                  Survey:  SURVEY DESC
 ILTD.               Lithology:  INTERP LTH DESC
 FTOP.          Formation Tops:  FORM TOPS DESC
 SON .        AZ-XX-0906192647:  JOB NUMBER
 WTYP.                Deviated:  WELL TYPE
 COMP.     BP Exploration (Caspian Sea) Ltd:  COMPANY
 BASE.              Azerbaijan:  LOGGING EQUIPMENT BASE LOCATION
 REGN.                 Eurasia:  REGION
 FLD .                     ACG:  FIELD NAME
 SRVC.              KCA Deutag:  CONTRACTOR
 MWDS.                    Baku:  MWD SHOP
 WELL.     A10 (Slot 20) - SCP:  WELL NAME
 JOBN.        AZ-XX-0906192647:  JOB TICKET NUMB
 RIG .                 Chirag1:  RIG NAME
 DCON.     Halliburton Sperry Drilling:  DIRECTNL CONTR
 UNIT.                     N/A:  LOGGING EQUIPMENT ID
 PDAT.          Mean Sea Level:  PERMANENT DATUM
 MDS .        Operator Entered:  MAG DATA SOURCE
 CTRY.              Azerbaijan:  COUNTRY NAME
 UWI .            /AZE00000090:  UNIQUE WELL IDENTIFIER
 API .            /AZE00000090:  API NUMBER
 CNTY.                        :  COUNTY
 PROV.                        :  PROVINCE
 STAT.                        :  STATE
 LOC .                        :  LOCATION
 LMF .             Drill Floor:  LOG MEASURED FROM
 TVDS.m                  36.60:  TVDSS CORRECTN
 LATI.deg                40.08:  LATITUDE
 LONG.deg                51.24:  LONGITUDE
 WHNS.m                  -7.94:  WELL HEAD N/S
 WHEW.m                   1.56:  WELL HEAD E/W
 UTMX.m              520429.26:  UTM X
 UTMY.m             4438973.87:  UTM Y
 DFWL.m                   0.00:  DISTANCE FWL
 DFSL.m                   0.00:  DISTANCE FSL
 SDEP.m                1455.00:  START DEPTH
 TDD .m                3878.01:  TOTAL DEPTH (DRILLER)
 VSDR.deg               112.75:  VERT SEC DIRECT
 GVFD.g                   1.00:  GRAVITY FIELD
 MFLD.nT              50256.00:  MAGNETIC FIELD
 MDIP.deg                59.52:  MAGNETIC DIP
 MDEC.deg                 6.43:  MAGNETIC DECL
 GRDC.deg                 0.16:  GRID CORRECTION
 AZTC.deg                 6.27:  AZM TOTAL CORR
 EPD .m                   0.00:  ELEVATION
 EGL .m                   0.00:  GROUND ELEVATION
 WDMS.m                 121.00:  WD ELEV
 APD .m                  36.60:  DEPTH ABOVE PD
 AGAP.m                  36.60:  AIR GAP
 VSEW.m                   1.56:  VERT SEC E/W
 VSNS.m                  -7.94:  VERT SEC N/S
 DEP .m                1140.01:  DEPTH
 EKB .m                  36.60:  KB ELEVATION
 EDF .m                  36.60:  DF ELEVATION
 TDL .m                1293.00:  TOTAL DEPTH (LOGGER)
 VSC .                       0:  VS TO CLOSURE
 MAGU.                 1849164:  MAGUTM CHECKSUM
~Parameter Information Block
#MNEM.UNIT       Value        Description
#---------     -----------    ---------------------------
 AV  .mps                 2.40:  Ann Velocity 
 AVMX.mps                 2.55:  Max Ann Veloc 
 AZIF.deg               134.35:  Azm, Final 
 BHAT.        Rotary Steerable:  BHA Type 
 BREV.rev               847.00:  Rev Bit Total 
 BROT.�/30m              -2.51:  Build Rotating 
 BS  .in                  8.50:  Bit Size 
 BSZ .in                  8.50:  Bit Size 
 BTPL.psig              700.00:  Bit Press Loss 
 CABU.                     Yes:  Customer Abuse 
 CGEO.          Ilgar Gurbanov:  Customer Geo 
 COMM.                     ��L:  Run Comments 1 
 TCS .hr                140.40:  Time Ciculation Ended 
 CV  .mps                 2.27:  Crit Velocity 
 CVMX.mps                 2.45:  Max Crit Veloc 
 DD1 .         Intigam Rahimov:  Direct Drillr 1 
 DD2 .         Rasim Ibrahimov:  Direct Drillr 2 
 DDSV.                 iCruise:  DD Service 
 DEFF.%                  99.00:  % Det Eff 
 DLRX.�/30m               3.28:  Dogleg Rot Max 
 DLSO.�/30m               0.00:  Dogleg Oriented 
 DLSX.�/30m               0.00:  Dogleg Str Max 
 DRET.      23.30.00 18-Jan-20:  Drill End Time 
 DRST.      01.45.00 11-Jan-20:  Drill Start Tim 
 DTIM.hr                 94.00:  Time Drilling 
 EDEP.m                3878.01:  End Depth 
 ENG1.       Dauren Baktybayev:  Engineer 1 
 ENG2.      Natik Hasanaghayev:  Engineer 2 
 ENG3.          Rustam Safarov:  Engineer 3 
 ETIM.      08.00.00 20-Jan-20:  End Time 
 FLOI.gpm               532.00:  Flow In 
 FLON.gpm               500.00:  Flow In Min 
 FLOS.cptm                0.00:  Fluid Loss 
 FLOX.gpm               540.00:  Flow In Max 
 FTRO.       Formation Presure:  FTWD Run Obj 
 HPRE.                     Yes:  High Pressure 
 HTEM.                      No:  High Temp 
 HYDO.m                   1.80:  Hydro Offset 
 IFIN.deg                39.86:  Inc, Final 
 IMAX.deg                59.73:  Inc Max 
 IMIN.deg                39.25:  Inc Min 
 IMND.m                3816.77:  Inc Min Depth 
 IMXD.m                2596.33:  Inc Max Depth 
 JARR.                      No:  Jarring 
 LETM.      23.30.00 18-Jan-20:  Log End Time 
 LOST.hr                     0:  Lost Rig Time 
 LSTM.      01.45.00 11-Jan-20:  Log Start Time 
 MDCL.ppm             41500.00:  Mud Chlorides 
 MDES.     Inversion Oil/Synthetic:  Mud Desc 
 DFD .sg                  1.48:  Mud Density 
 MDMN.sg                  1.48:  Dens Mud Min 
 MDMX.sg                  1.48:  Dens Mud Max 
 MOIL.                      54:  Run Mud Oil % 
 MOWR.                   72:28:  Run Mud OWR 
 MSND.                       0:  Run Mud Sand % 
 MSOL.                      23:  Run Mud Solids% 
 DFV .spqt               86.00:  Mud Viscosity 
 MWOD.in                  6.75:  MWD Tool OD 
 MWSI.                      No:  Serv Intrp, MWD 
 OTIM.hr                223.40:  Time Operating 
 PCON.           Look Like New:  Pad Condition 
 PMAX.psia            32446.79:  Press Op, Max 
 PV  .cP                 49.00:  Mud PV 
 RUN .                     200:  Run Number 
 ROPA.m/hr               12.48:  ROP Avg 
 ROPN.m/hr                8.00:  ROP Min 
 ROPX.m/hr               27.00:  ROP Max 
 RPMA.rpm               121.00:  RPM Surface Avg 
 RPMN.rpm                60.00:  RPM Surface Min 
 RPMX.rpm               140.00:  RPM Surface Max 
 RRUN.                    L202:  Rig Run Number 
 RTIM.hr                  7.25:  Time Reaming 
 SAZI.deg               123.49:  Azm, Start 
 SDEP.m                2585.01:  Start Depth 
 SIDD.                      No:  Serv Intrp, DD 
 SINC.deg                59.93:  Inc, Start 
 SPPA.psig             3539.00:  SPP Avg 
 SPPN.psig             3050.00:  SPP Min 
 SPPX.psig             3950.00:  SPP Max 
 STIM.      19.00.00 10-Jan-20:  Start Time 
 SVCS.                 DD, MWD:  Services 
 SVER.                    9.20:  Sperry Version 
 TDAT.m                1293.00:  Tot Depth Attmp 
 TDDF.                      No:  Trip for DD 
 TDLG.m                1293.00:  Tot Depth Loggd 
 TFF .                      No:  Trip for Fail 
 TQAA.f-kp               16.00:  Torque Abs Avg 
 TQAN.f-kp               11.00:  Torque Abs Min 
 TQAX.f-kp               18.00:  Torque Abs Max 
 TRRT.�/30m               1.25:  Turn Rotating 
 MRT .                  EWR-M5:  Maximum Recorded Temperature 
 TTMX.degC               84.00:  Max Tool Temp 
 VS01.          AZ90514619R5C6:  Virtual Str1 SN 
 VS02.        AZ90552592N2L2C6:  Virtual Str2 SN 
 VS03.        AZ90571337Z1W1C6:  Virtual Str3 SN 
 VS04.         AZ90513690K23C6:  Virtual Str4 SN 
 VS05.           AZ90594857F11:  Virtual Str5 SN 
 VS06.                13102166:  Virtual Str6 SN 
 WBMN.klb                 7.00:  WOB Min 
 WITN.            Peter Wilson:  Customer Rep 
 WOBA.klb                 9.95:  WOB Avg 
 WOBX.klb                10.00:  WOB Max 
 YP  .lhf2               36.00:  Yield Point 
~Curve Information Block
#MNEM.UNIT                 API CODE     Curve Description
#---------               -----------    ---------------------------
 TIME.HHMMSS            00 000 000 000:  GT Time & Date
 GTDEPTH.m              00 000 000 000:  GT Depth
 GTPQH.psia             00 000 000 000:  GT HR Quartz Pressure
 GTTQ.degC              00 000 000 000:  GT Quartz Temperature
 GTTN.NONE              00 000 000 000:  GT Test Number
 GTET.sec               00 000 000 000:  GT Elapsed Test Time
 GTTVD.m                00 000 000 000:  GT True Vertical Depth
#Other Information
#
#WARRANTY: Halliburton will use its best efforts to furnish customers with 
#accurate information and interpretations that are part of, and incident to, the services 
#provided.  However, Halliburton cannot and does not warrant the accuracy 
#or correctness of such information and interpretations.  Under no circumstances should any 
#such information or interpretation be relied upon as the sole basis for any drilling, 
#completion, production, or financial decision or any procedure involving any risk to the 
#safety of any drilling venture, drilling rig or its crew or any other third party.  The 
#Customer has full responsibility for all drilling, completion and production operation.  
#Halliburton makes no representations or warranties, either expressed or 
#implied, including, but not limited to, the implied warranties of merchantability or fitness 
#for a particular purpose, with respect to the services rendered.  In no event will 
#Halliburton be liable for failure to obtain any particular results or for 
#any damages, including, but not limited to, indirect, special or consequential damages, 
#resulting from the use of any information or interpretation provided by Halliburton.
#
~A           TIME           GTDEPTH  GTPQH  GTTQ  GTTN  GTET   GTTVD  
# ...
   05:15:44.096.18-Jan-2020 3717.16 6349.80 78.69 1.00 529.15 2797.33
   05:15:44.296.18-Jan-2020 3717.16 6349.80 78.69 1.00 529.35 2797.33
   05:15:44.496.18-Jan-2020 3717.16 6359.58 78.69 1.00 529.55 2797.33
   05:15:44.696.18-Jan-2020 3717.16 6353.20 78.69 1.00 529.75 2797.33
   05:15:44.896.18-Jan-2020 3717.16 6349.88 78.69 1.00 529.95 2797.33
   05:15:45.096.18-Jan-2020 3717.16 6349.81 78.69 1.00 530.15 2797.33
   05:15:45.296.18-Jan-2020 3717.16 6349.81 78.69 1.00 530.35 2797.33
   05:15:45.496.18-Jan-2020 3717.16 6356.78 78.69 1.00 530.55 2797.33
   05:15:45.696.18-Jan-2020 3717.16 6350.91 78.69 1.00 530.75 2797.33
   05:15:45.896.18-Jan-2020 3717.16 6346.50 78.69 1.00 530.95 2797.33
   05:15:46.097.18-Jan-2020 3717.16 6353.28 78.69 1.00 531.15 2797.33
   05:15:46.297.18-Jan-2020 3717.16 6353.28 78.69 1.00 531.35 2797.33
   05:15:46.497.18-Jan-2020 3717.16 6360.56 78.69 1.00 531.55 2797.33
   05:15:46.697.18-Jan-2020 3717.16 6351.04 78.69 1.00 531.75 2797.33
   05:15:46.897.18-Jan-2020 3717.16 6351.35 78.69 1.00 531.95 2797.33
   05:15:47.097.18-Jan-2020 3717.16 6350.97 78.69 1.00 532.15 2797.33
   05:15:47.297.18-Jan-2020 3717.16 6350.97 78.69 1.00 532.35 2797.33
   05:15:47.497.18-Jan-2020 3717.16 6352.71 78.69 1.00 532.55 2797.33
   05:15:47.697.18-Jan-2020 3717.16 6351.48 78.69 1.00 532.75 2797.33
   05:15:47.897.18-Jan-2020 3717.16 6350.28 78.69 1.00 532.95 2797.33
   05:15:48.097.18-Jan-2020 3717.16 6351.07 78.69 1.00 533.15 2797.33
   05:15:48.297.18-Jan-2020 3717.16 6351.07 78.69 1.00 533.35 2797.33
   05:15:48.497.18-Jan-2020 3717.16 6353.26 78.69 1.00 533.55 2797.33
   05:15:48.697.18-Jan-2020 3717.16 6351.51 78.69 1.00 533.75 2797.33
   05:15:48.897.18-Jan-2020 3717.16 6349.05 78.69 1.00 533.95 2797.33
   05:15:49.097.18-Jan-2020 3717.16 6351.22 78.69 1.00 534.15 2797.33
   05:15:49.297.18-Jan-2020 3717.16 6351.22 78.69 1.00 534.35 2797.33
   05:15:49.498.18-Jan-2020 3717.16 6352.63 78.69 1.00 534.55 2797.33
   05:15:49.698.18-Jan-2020 3717.16 6350.82 78.69 1.00 534.75 2797.33
   05:15:49.898.18-Jan-2020 3717.16 6360.92 78.69 1.00 534.95 2797.33
   05:15:50.098.18-Jan-2020 3717.16 6353.33 78.69 1.00 535.15 2797.33
   05:15:50.298.18-Jan-2020 3717.16 6353.33 78.69 1.00 535.35 2797.33
   05:15:50.498.18-Jan-2020 3717.16 6354.31 78.69 1.00 535.55 2797.33
   05:15:50.698.18-Jan-2020 3717.16 6351.71 78.69 1.00 535.75 2797.33
   05:15:50.898.18-Jan-2020 3717.16 6351.40 78.69 1.00 535.95 2797.33
   05:15:51.098.18-Jan-2020 3717.16 6351.51 78.69 1.00 536.15 2797.33
   05:15:51.298.18-Jan-2020 3717.16 6351.51 78.69 1.00 536.35 2797.33
   05:15:51.498.18-Jan-2020 3717.16 6349.63 78.69 1.00 536.55 2797.33
   05:15:51.698.18-Jan-2020 3717.16 6350.23 78.69 1.00 536.75 2797.33
   05:15:51.898.18-Jan-2020 3717.16 6350.11 78.69 1.00 536.95 2797.33
   05:15:52.098.18-Jan-2020 3717.16 6351.16 78.69 1.00 537.15 2797.33
   05:15:52.298.18-Jan-2020 3717.16 6351.16 78.69 1.00 537.35 2797.33
   05:15:52.498.18-Jan-2020 3717.16 6352.19 78.68 1.00 537.55 2797.33
   05:15:52.698.18-Jan-2020 3717.16 6350.31 78.68 1.00 537.75 2797.33
   05:15:52.898.18-Jan-2020 3717.16 6354.91 78.68 1.00 537.95 2797.33
   05:15:53.099.18-Jan-2020 3717.16 6350.56 78.68 1.00 538.15 2797.33
   05:15:53.299.18-Jan-2020 3717.16 6350.56 78.68 1.00 538.35 2797.33
   05:15:53.499.18-Jan-2020 3717.16 6353.74 78.68 1.00 538.55 2797.33
   05:15:53.699.18-Jan-2020 3717.16 6349.17 78.68 1.00 538.75 2797.33
   05:15:53.899.18-Jan-2020 3717.16 6352.25 78.68 1.00 538.95 2797.33
   05:15:54.099.18-Jan-2020 3717.16 6349.27 78.68 1.00 539.15 2797.33
   05:15:54.299.18-Jan-2020 3717.16 6349.27 78.68 1.00 539.35 2797.33
   05:15:54.499.18-Jan-2020 3717.16 6356.03 78.68 1.00 539.55 2797.33
   05:15:54.699.18-Jan-2020 3717.16 6353.54 78.68 1.00 539.75 2797.33
   05:15:54.899.18-Jan-2020 3717.16 6348.11 78.68 1.00 539.95 2797.33
   05:15:55.099.18-Jan-2020 3717.16 6360.15 78.68 1.00 540.15 2797.33
   05:15:55.299.18-Jan-2020 3717.16 6360.15 78.68 1.00 540.35 2797.33
   05:15:55.499.18-Jan-2020 3717.16 6349.99 78.68 1.00 540.55 2797.33
   05:15:55.699.18-Jan-2020 3717.16 6351.62 78.68 1.00 540.75 2797.33
   05:15:55.899.18-Jan-2020 3717.16 6350.07 78.68 1.00 540.95 2797.33
   05:15:56.099.18-Jan-2020 3717.16 6352.69 78.68 1.00 541.15 2797.33
   05:15:56.299.18-Jan-2020 3717.16 6352.69 78.68 1.00 541.35 2797.33
   05:15:56.500.18-Jan-2020 3717.16 6352.13 78.68 1.00 541.55 2797.33
   05:15:56.700.18-Jan-2020 3717.16 6350.26 78.68 1.00 541.75 2797.33
   05:15:56.900.18-Jan-2020 3717.16 6349.30 78.68 1.00 541.95 2797.33
   05:15:57.100.18-Jan-2020 3717.16 6350.55 78.68 1.00 542.15 2797.33
   05:15:57.300.18-Jan-2020 3717.16 6350.55 78.68 1.00 542.35 2797.33
   05:15:57.500.18-Jan-2020 3717.16 6352.86 78.68 1.00 542.55 2797.33
   05:15:57.700.18-Jan-2020 3717.16 6350.46 78.68 1.00 542.75 2797.33
   05:15:57.900.18-Jan-2020 3717.16 6352.56 78.68 1.00 542.95 2797.33
   05:15:58.100.18-Jan-2020 3717.16 6352.19 78.68 1.00 543.15 2797.33
   05:15:58.300.18-Jan-2020 3717.16 6352.19 78.68 1.00 543.35 2797.33
   05:15:58.500.18-Jan-2020 3717.16 6351.04 78.68 1.00 543.55 2797.33
   05:15:58.700.18-Jan-2020 3717.16 6363.62 78.68 1.00 543.75 2797.33
   05:15:58.900.18-Jan-2020 3717.16 6351.09 78.68 1.00 543.95 2797.33
   05:15:59.100.18-Jan-2020 3717.16 6349.44 78.68 1.00 544.15 2797.33
   05:15:59.300.18-Jan-2020 3717.16 6349.44 78.68 1.00 544.35 2797.33
   05:15:59.500.18-Jan-2020 3717.16 6352.13 78.68 1.00 544.55 2797.33
   05:15:59.700.18-Jan-2020 3717.16 6351.80 78.68 1.00 544.75 2797.33
   05:15:59.900.18-Jan-2020 3717.16 6351.65 78.68 1.00 544.95 2797.33
   05:16:00.101.18-Jan-2020 3717.16 6350.88 78.68 1.00 545.15 2797.33
   05:16:00.301.18-Jan-2020 3717.16 6350.88 78.68 1.00 545.35 2797.33
   05:16:00.501.18-Jan-2020 3717.16 6351.32 78.68 1.00 545.55 2797.33
   05:16:00.701.18-Jan-2020 3717.16 6350.44 78.68 1.00 545.75 2797.33
   05:16:00.901.18-Jan-2020 3717.16 6351.67 78.68 1.00 545.95 2797.33
   05:16:01.101.18-Jan-2020 3717.16 6361.33 78.68 1.00 546.15 2797.33
   05:16:01.301.18-Jan-2020 3717.16 6361.33 78.68 1.00 546.35 2797.33
   05:16:01.501.18-Jan-2020 3717.16 6349.54 78.68 1.00 546.55 2797.33
   05:16:01.701.18-Jan-2020 3717.16 6353.70 78.68 1.00 546.75 2797.33
   05:16:01.901.18-Jan-2020 3717.16 6350.59 78.68 1.00 546.95 2797.33
   05:16:02.101.18-Jan-2020 3717.16 6358.37 78.68 1.00 547.15 2797.33
   05:16:02.301.18-Jan-2020 3717.16 6358.37 78.68 1.00 547.35 2797.33
   05:16:02.501.18-Jan-2020 3717.16 6348.60 78.68 1.00 547.56 2797.33
   05:16:02.701.18-Jan-2020 3717.16 6351.36 78.68 1.00 547.76 2797.33
   05:16:02.901.18-Jan-2020 3717.16 6347.81 78.68 1.00 547.96 2797.33
   05:16:03.101.18-Jan-2020 3717.16 6349.10 78.68 1.00 548.16 2797.33
   05:16:03.301.18-Jan-2020 3717.16 6349.10 78.68 1.00 548.36 2797.33
   05:16:03.501.18-Jan-2020 3717.16 6351.79 78.68 1.00 548.56 2797.33
   05:16:03.702.18-Jan-2020 3717.16 6346.91 78.68 1.00 548.76 2797.33
   05:16:03.902.18-Jan-2020 3717.16 6354.40 78.68 1.00 548.96 2797.33
   05:16:04.102.18-Jan-2020 3717.16 6350.07 78.68 1.00 549.16 2797.33
   05:16:04.302.18-Jan-2020 3717.16 6350.07 78.68 1.00 549.36 2797.33
   05:16:04.502.18-Jan-2020 3717.16 6351.17 78.68 1.00 549.56 2797.33
   05:16:04.702.18-Jan-2020 3717.16 6351.37 78.68 1.00 549.76 2797.33
   05:16:04.902.18-Jan-2020 3717.16 6352.34 78.68 1.00 549.96 2797.33
   05:16:05.102.18-Jan-2020 3717.16 6352.51 78.68 1.00 550.16 2797.33
   05:16:05.302.18-Jan-2020 3717.16 6352.51 78.68 1.00 550.36 2797.33
   05:16:05.502.18-Jan-2020 3717.16 6349.34 78.68 1.00 550.56 2797.33
   05:16:05.702.18-Jan-2020 3717.16 6349.92 78.68 1.00 550.76 2797.33
   05:16:05.902.18-Jan-2020 3717.16 6348.95 78.68 1.00 550.96 2797.33
   05:16:06.102.18-Jan-2020 3717.16 6353.21 78.67 1.00 551.16 2797.33
   05:16:06.302.18-Jan-2020 3717.16 6353.21 78.67 1.00 551.36 2797.33
   05:16:06.502.18-Jan-2020 3717.16 6350.77 78.67 1.00 551.56 2797.33
   05:16:06.702.18-Jan-2020 3717.16 6347.63 78.67 1.00 551.76 2797.33
   05:16:06.902.18-Jan-2020 3717.16 6350.55 78.67 1.00 551.96 2797.33
