~Version Information
 VERS.                  2.0:   CWLS log ASCII Standard -VERSION 2.0
 WRAP.                   NO:   One line per depth step
~Well Information Block
#MNEM.UNIT     VALUE/NAME     DESCRIPTION
#---------     -----------    ---------------------------
 STRT.S             05:06:54 18-Jan-20: START TIME 05:06:54 18-Jan-20
 STOP.S             05:17:00 18-Jan-20: STOP TIME  05:17:00 18-Jan-20
 STEP.S                   0.00: STEP TIME
 NULL.                 -999.25: NULL VALUE
 DFWT.                        :  DIST FWL TEXT
 DFST.                        :  DIST FSL TEXT
 DMF .             Drill Floor:  DRILL MEAS FROM
 STIM.      09.30.00 26-Dec-19:  START TIME
 DATE.      08.00.00 20-Jan-20:  END TIME
 SPUD.               23-Nov-19:  SPUD DATE
 NREF.                    Grid:  NORTH REFERENCE
 HPTY.       Minimum Curvature:  HOLE POS TYPE
 DMOD.             Drill Model:  DRILL MOD DESC
 SVYD.                  Survey:  SURVEY DESC
 ILTD.               Lithology:  INTERP LTH DESC
 FTOP.          Formation Tops:  FORM TOPS DESC
 SON .        AZ-XX-0906192647:  JOB NUMBER
 WTYP.                Deviated:  WELL TYPE
 COMP.     BP Exploration (Caspian Sea) Ltd:  COMPANY
 BASE.              Azerbaijan:  LOGGING EQUIPMENT BASE LOCATION
 REGN.                 Eurasia:  REGION
 FLD .                     ACG:  FIELD NAME
 SRVC.              KCA Deutag:  CONTRACTOR
 MWDS.                    Baku:  MWD SHOP
 WELL.     A10 (Slot 20) - SCP:  WELL NAME
 JOBN.        AZ-XX-0906192647:  JOB TICKET NUMB
 RIG .                 Chirag1:  RIG NAME
 DCON.     Halliburton Sperry Drilling:  DIRECTNL CONTR
 UNIT.                     N/A:  LOGGING EQUIPMENT ID
 PDAT.          Mean Sea Level:  PERMANENT DATUM
 MDS .        Operator Entered:  MAG DATA SOURCE
 CTRY.              Azerbaijan:  COUNTRY NAME
 UWI .            /AZE00000090:  UNIQUE WELL IDENTIFIER
 API .            /AZE00000090:  API NUMBER
 CNTY.                        :  COUNTY
 PROV.                        :  PROVINCE
 STAT.                        :  STATE
 LOC .                        :  LOCATION
 LMF .             Drill Floor:  LOG MEASURED FROM
 TVDS.m                  36.60:  TVDSS CORRECTN
 LATI.deg                40.08:  LATITUDE
 LONG.deg                51.24:  LONGITUDE
 WHNS.m                  -7.94:  WELL HEAD N/S
 WHEW.m                   1.56:  WELL HEAD E/W
 UTMX.m              520429.26:  UTM X
 UTMY.m             4438973.87:  UTM Y
 DFWL.m                   0.00:  DISTANCE FWL
 DFSL.m                   0.00:  DISTANCE FSL
 SDEP.m                1455.00:  START DEPTH
 TDD .m                3878.01:  TOTAL DEPTH (DRILLER)
 VSDR.deg               112.75:  VERT SEC DIRECT
 GVFD.g                   1.00:  GRAVITY FIELD
 MFLD.nT              50256.00:  MAGNETIC FIELD
 MDIP.deg                59.52:  MAGNETIC DIP
 MDEC.deg                 6.43:  MAGNETIC DECL
 GRDC.deg                 0.16:  GRID CORRECTION
 AZTC.deg                 6.27:  AZM TOTAL CORR
 EPD .m                   0.00:  ELEVATION
 EGL .m                   0.00:  GROUND ELEVATION
 WDMS.m                 121.00:  WD ELEV
 APD .m                  36.60:  DEPTH ABOVE PD
 AGAP.m                  36.60:  AIR GAP
 VSEW.m                   1.56:  VERT SEC E/W
 VSNS.m                  -7.94:  VERT SEC N/S
 DEP .m                1140.01:  DEPTH
 EKB .m                  36.60:  KB ELEVATION
 EDF .m                  36.60:  DF ELEVATION
 TDL .m                1293.00:  TOTAL DEPTH (LOGGER)
 VSC .                       0:  VS TO CLOSURE
 MAGU.                 1849164:  MAGUTM CHECKSUM
~Parameter Information Block
#MNEM.UNIT       Value        Description
#---------     -----------    ---------------------------
 AV  .mps                 2.40:  Ann Velocity 
 AVMX.mps                 2.55:  Max Ann Veloc 
 AZIF.deg               134.35:  Azm, Final 
 BHAT.        Rotary Steerable:  BHA Type 
 BREV.rev               847.00:  Rev Bit Total 
 BROT.�/30m              -2.51:  Build Rotating 
 BS  .in                  8.50:  Bit Size 
 BSZ .in                  8.50:  Bit Size 
 BTPL.psig              700.00:  Bit Press Loss 
 CABU.                     Yes:  Customer Abuse 
 CGEO.          Ilgar Gurbanov:  Customer Geo 
 COMM.                     ��L:  Run Comments 1 
 TCS .hr                140.40:  Time Ciculation Ended 
 CV  .mps                 2.27:  Crit Velocity 
 CVMX.mps                 2.45:  Max Crit Veloc 
 DD1 .         Intigam Rahimov:  Direct Drillr 1 
 DD2 .         Rasim Ibrahimov:  Direct Drillr 2 
 DDSV.                 iCruise:  DD Service 
 DEFF.%                  99.00:  % Det Eff 
 DLRX.�/30m               3.28:  Dogleg Rot Max 
 DLSO.�/30m               0.00:  Dogleg Oriented 
 DLSX.�/30m               0.00:  Dogleg Str Max 
 DRET.      23.30.00 18-Jan-20:  Drill End Time 
 DRST.      01.45.00 11-Jan-20:  Drill Start Tim 
 DTIM.hr                 94.00:  Time Drilling 
 EDEP.m                3878.01:  End Depth 
 ENG1.       Dauren Baktybayev:  Engineer 1 
 ENG2.      Natik Hasanaghayev:  Engineer 2 
 ENG3.          Rustam Safarov:  Engineer 3 
 ETIM.      08.00.00 20-Jan-20:  End Time 
 FLOI.gpm               532.00:  Flow In 
 FLON.gpm               500.00:  Flow In Min 
 FLOS.cptm                0.00:  Fluid Loss 
 FLOX.gpm               540.00:  Flow In Max 
 FTRO.       Formation Presure:  FTWD Run Obj 
 HPRE.                     Yes:  High Pressure 
 HTEM.                      No:  High Temp 
 HYDO.m                   1.80:  Hydro Offset 
 IFIN.deg                39.86:  Inc, Final 
 IMAX.deg                59.73:  Inc Max 
 IMIN.deg                39.25:  Inc Min 
 IMND.m                3816.77:  Inc Min Depth 
 IMXD.m                2596.33:  Inc Max Depth 
 JARR.                      No:  Jarring 
 LETM.      23.30.00 18-Jan-20:  Log End Time 
 LOST.hr                     0:  Lost Rig Time 
 LSTM.      01.45.00 11-Jan-20:  Log Start Time 
 MDCL.ppm             41500.00:  Mud Chlorides 
 MDES.     Inversion Oil/Synthetic:  Mud Desc 
 DFD .sg                  1.48:  Mud Density 
 MDMN.sg                  1.48:  Dens Mud Min 
 MDMX.sg                  1.48:  Dens Mud Max 
 MOIL.                      54:  Run Mud Oil % 
 MOWR.                   72:28:  Run Mud OWR 
 MSND.                       0:  Run Mud Sand % 
 MSOL.                      23:  Run Mud Solids% 
 DFV .spqt               86.00:  Mud Viscosity 
 MWOD.in                  6.75:  MWD Tool OD 
 MWSI.                      No:  Serv Intrp, MWD 
 OTIM.hr                223.40:  Time Operating 
 PCON.           Look Like New:  Pad Condition 
 PMAX.psia            32446.79:  Press Op, Max 
 PV  .cP                 49.00:  Mud PV 
 RUN .                     200:  Run Number 
 ROPA.m/hr               12.48:  ROP Avg 
 ROPN.m/hr                8.00:  ROP Min 
 ROPX.m/hr               27.00:  ROP Max 
 RPMA.rpm               121.00:  RPM Surface Avg 
 RPMN.rpm                60.00:  RPM Surface Min 
 RPMX.rpm               140.00:  RPM Surface Max 
 RRUN.                    L202:  Rig Run Number 
 RTIM.hr                  7.25:  Time Reaming 
 SAZI.deg               123.49:  Azm, Start 
 SDEP.m                2585.01:  Start Depth 
 SIDD.                      No:  Serv Intrp, DD 
 SINC.deg                59.93:  Inc, Start 
 SPPA.psig             3539.00:  SPP Avg 
 SPPN.psig             3050.00:  SPP Min 
 SPPX.psig             3950.00:  SPP Max 
 STIM.      19.00.00 10-Jan-20:  Start Time 
 SVCS.                 DD, MWD:  Services 
 SVER.                    9.20:  Sperry Version 
 TDAT.m                1293.00:  Tot Depth Attmp 
 TDDF.                      No:  Trip for DD 
 TDLG.m                1293.00:  Tot Depth Loggd 
 TFF .                      No:  Trip for Fail 
 TQAA.f-kp               16.00:  Torque Abs Avg 
 TQAN.f-kp               11.00:  Torque Abs Min 
 TQAX.f-kp               18.00:  Torque Abs Max 
 TRRT.�/30m               1.25:  Turn Rotating 
 MRT .                  EWR-M5:  Maximum Recorded Temperature 
 TTMX.degC               84.00:  Max Tool Temp 
 VS01.          AZ90514619R5C6:  Virtual Str1 SN 
 VS02.        AZ90552592N2L2C6:  Virtual Str2 SN 
 VS03.        AZ90571337Z1W1C6:  Virtual Str3 SN 
 VS04.         AZ90513690K23C6:  Virtual Str4 SN 
 VS05.           AZ90594857F11:  Virtual Str5 SN 
 VS06.                13102166:  Virtual Str6 SN 
 WBMN.klb                 7.00:  WOB Min 
 WITN.            Peter Wilson:  Customer Rep 
 WOBA.klb                 9.95:  WOB Avg 
 WOBX.klb                10.00:  WOB Max 
 YP  .lhf2               36.00:  Yield Point 
~Curve Information Block
#MNEM.UNIT                 API CODE     Curve Description
#---------               -----------    ---------------------------
 TIME.HHMMSS            00 000 000 000:  GT Time & Date
 GTDEPTH.m              00 000 000 000:  GT Depth
 GTPQH.psia             00 000 000 000:  GT HR Quartz Pressure
 GTTQ.degC              00 000 000 000:  GT Quartz Temperature
 GTTN.NONE              00 000 000 000:  GT Test Number
 GTET.sec               00 000 000 000:  GT Elapsed Test Time
 GTTVD.m                00 000 000 000:  GT True Vertical Depth
#Other Information
#
#WARRANTY: Halliburton will use its best efforts to furnish customers with 
#accurate information and interpretations that are part of, and incident to, the services 
#provided.  However, Halliburton cannot and does not warrant the accuracy 
#or correctness of such information and interpretations.  Under no circumstances should any 
#such information or interpretation be relied upon as the sole basis for any drilling, 
#completion, production, or financial decision or any procedure involving any risk to the 
#safety of any drilling venture, drilling rig or its crew or any other third party.  The 
#Customer has full responsibility for all drilling, completion and production operation.  
#Halliburton makes no representations or warranties, either expressed or 
#implied, including, but not limited to, the implied warranties of merchantability or fitness 
#for a particular purpose, with respect to the services rendered.  In no event will 
#Halliburton be liable for failure to obtain any particular results or for 
#any damages, including, but not limited to, indirect, special or consequential damages, 
#resulting from the use of any information or interpretation provided by Halliburton.
#
~A           TIME           GTDEPTH  GTPQH  GTTQ  GTTN  GTET   GTTVD  
# ...
   05:13:26.057.18-Jan-2020 3717.16 6354.89 78.78 1.00 391.11 2797.33
   05:13:26.257.18-Jan-2020 3717.16 6354.89 78.78 1.00 391.31 2797.33
   05:13:26.457.18-Jan-2020 3717.16 6356.56 78.78 1.00 391.51 2797.33
   05:13:26.657.18-Jan-2020 3717.16 6351.78 78.78 1.00 391.71 2797.33
   05:13:26.857.18-Jan-2020 3717.16 6352.70 78.78 1.00 391.91 2797.33
   05:13:27.057.18-Jan-2020 3717.16 6352.33 78.78 1.00 392.11 2797.33
   05:13:27.257.18-Jan-2020 3717.16 6352.33 78.78 1.00 392.31 2797.33
   05:13:27.457.18-Jan-2020 3717.16 6351.90 78.78 1.00 392.51 2797.33
   05:13:27.657.18-Jan-2020 3717.16 6353.82 78.78 1.00 392.71 2797.33
   05:13:27.857.18-Jan-2020 3717.16 6351.89 78.78 1.00 392.91 2797.33
   05:13:28.057.18-Jan-2020 3717.16 6352.66 78.78 1.00 393.11 2797.33
   05:13:28.258.18-Jan-2020 3717.16 6352.66 78.78 1.00 393.31 2797.33
   05:13:28.458.18-Jan-2020 3717.16 6354.69 78.78 1.00 393.51 2797.33
   05:13:28.658.18-Jan-2020 3717.16 6356.57 78.78 1.00 393.71 2797.33
   05:13:28.858.18-Jan-2020 3717.16 6358.04 78.78 1.00 393.91 2797.33
   05:13:29.058.18-Jan-2020 3717.16 6355.16 78.78 1.00 394.11 2797.33
   05:13:29.258.18-Jan-2020 3717.16 6355.16 78.78 1.00 394.31 2797.33
   05:13:29.458.18-Jan-2020 3717.16 6353.92 78.78 1.00 394.51 2797.33
   05:13:29.658.18-Jan-2020 3717.16 6351.89 78.78 1.00 394.71 2797.33
   05:13:29.858.18-Jan-2020 3717.16 6354.99 78.78 1.00 394.91 2797.33
   05:13:30.058.18-Jan-2020 3717.16 6352.15 78.78 1.00 395.11 2797.33
   05:13:30.258.18-Jan-2020 3717.16 6352.15 78.78 1.00 395.31 2797.33
   05:13:30.458.18-Jan-2020 3717.16 6357.44 78.78 1.00 395.51 2797.33
   05:13:30.658.18-Jan-2020 3717.16 6356.24 78.78 1.00 395.71 2797.33
   05:13:30.858.18-Jan-2020 3717.16 6350.30 78.78 1.00 395.91 2797.33
   05:13:31.058.18-Jan-2020 3717.16 6356.45 78.78 1.00 396.11 2797.33
   05:13:31.258.18-Jan-2020 3717.16 6356.45 78.78 1.00 396.31 2797.33
   05:13:31.458.18-Jan-2020 3717.16 6365.96 78.78 1.00 396.51 2797.33
   05:13:31.658.18-Jan-2020 3717.16 6353.47 78.78 1.00 396.71 2797.33
   05:13:31.859.18-Jan-2020 3717.16 6352.87 78.78 1.00 396.91 2797.33
   05:13:32.059.18-Jan-2020 3717.16 6358.32 78.78 1.00 397.11 2797.33
   05:13:32.259.18-Jan-2020 3717.16 6358.32 78.78 1.00 397.31 2797.33
   05:13:32.459.18-Jan-2020 3717.16 6355.32 78.78 1.00 397.51 2797.33
   05:13:32.659.18-Jan-2020 3717.16 6352.61 78.78 1.00 397.71 2797.33
   05:13:32.859.18-Jan-2020 3717.16 6354.16 78.78 1.00 397.91 2797.33
   05:13:33.059.18-Jan-2020 3717.16 6352.61 78.78 1.00 398.11 2797.33
   05:13:33.259.18-Jan-2020 3717.16 6352.61 78.78 1.00 398.31 2797.33
   05:13:33.459.18-Jan-2020 3717.16 6355.48 78.78 1.00 398.51 2797.33
   05:13:33.659.18-Jan-2020 3717.16 6354.47 78.78 1.00 398.71 2797.33
   05:13:33.859.18-Jan-2020 3717.16 6351.84 78.78 1.00 398.91 2797.33
   05:13:34.059.18-Jan-2020 3717.16 6353.29 78.78 1.00 399.11 2797.33
   05:13:34.259.18-Jan-2020 3717.16 6353.29 78.78 1.00 399.31 2797.33
   05:13:34.459.18-Jan-2020 3717.16 6354.74 78.78 1.00 399.51 2797.33
   05:13:34.659.18-Jan-2020 3717.16 6354.55 78.78 1.00 399.71 2797.33
   05:13:34.859.18-Jan-2020 3717.16 6361.11 78.78 1.00 399.91 2797.33
   05:13:35.059.18-Jan-2020 3717.16 6359.58 78.78 1.00 400.11 2797.33
   05:13:35.260.18-Jan-2020 3717.16 6359.58 78.78 1.00 400.31 2797.33
   05:13:35.460.18-Jan-2020 3717.16 6357.23 78.78 1.00 400.51 2797.33
   05:13:35.660.18-Jan-2020 3717.16 6353.70 78.78 1.00 400.71 2797.33
   05:13:35.860.18-Jan-2020 3717.16 6355.18 78.78 1.00 400.91 2797.33
   05:13:36.060.18-Jan-2020 3717.16 6352.43 78.77 1.00 401.11 2797.33
   05:13:36.260.18-Jan-2020 3717.16 6352.43 78.77 1.00 401.31 2797.33
   05:13:36.460.18-Jan-2020 3717.16 6353.34 78.77 1.00 401.51 2797.33
   05:13:36.660.18-Jan-2020 3717.16 6353.11 78.77 1.00 401.71 2797.33
   05:13:36.860.18-Jan-2020 3717.16 6353.40 78.77 1.00 401.91 2797.33
   05:13:37.060.18-Jan-2020 3717.16 6353.86 78.77 1.00 402.11 2797.33
   05:13:37.260.18-Jan-2020 3717.16 6353.86 78.77 1.00 402.31 2797.33
   05:13:37.460.18-Jan-2020 3717.16 6356.45 78.77 1.00 402.51 2797.33
   05:13:37.660.18-Jan-2020 3717.16 6354.69 78.77 1.00 402.71 2797.33
   05:13:37.860.18-Jan-2020 3717.16 6358.29 78.77 1.00 402.91 2797.33
   05:13:38.060.18-Jan-2020 3717.16 6356.09 78.77 1.00 403.11 2797.33
   05:13:38.260.18-Jan-2020 3717.16 6356.09 78.77 1.00 403.31 2797.33
   05:13:38.460.18-Jan-2020 3717.16 6363.51 78.77 1.00 403.51 2797.33
   05:13:38.660.18-Jan-2020 3717.16 6355.51 78.77 1.00 403.71 2797.33
   05:13:38.861.18-Jan-2020 3717.16 6354.93 78.77 1.00 403.91 2797.33
   05:13:39.061.18-Jan-2020 3717.16 6353.76 78.77 1.00 404.11 2797.33
   05:13:39.261.18-Jan-2020 3717.16 6353.76 78.77 1.00 404.31 2797.33
   05:13:39.461.18-Jan-2020 3717.16 6352.57 78.77 1.00 404.51 2797.33
   05:13:39.661.18-Jan-2020 3717.16 6361.33 78.77 1.00 404.71 2797.33
   05:13:39.861.18-Jan-2020 3717.16 6353.76 78.77 1.00 404.91 2797.33
   05:13:40.061.18-Jan-2020 3717.16 6354.67 78.77 1.00 405.11 2797.33
   05:13:40.261.18-Jan-2020 3717.16 6354.67 78.77 1.00 405.31 2797.33
   05:13:40.461.18-Jan-2020 3717.16 6363.49 78.77 1.00 405.51 2797.33
   05:13:40.661.18-Jan-2020 3717.16 6357.13 78.77 1.00 405.71 2797.33
   05:13:40.861.18-Jan-2020 3717.16 6352.51 78.77 1.00 405.91 2797.33
   05:13:41.061.18-Jan-2020 3717.16 6357.74 78.77 1.00 406.11 2797.33
   05:13:41.261.18-Jan-2020 3717.16 6357.74 78.77 1.00 406.32 2797.33
   05:13:41.461.18-Jan-2020 3717.16 6355.42 78.77 1.00 406.52 2797.33
   05:13:41.661.18-Jan-2020 3717.16 6354.16 78.77 1.00 406.72 2797.33
   05:13:41.861.18-Jan-2020 3717.16 6353.49 78.77 1.00 406.92 2797.33
   05:13:42.061.18-Jan-2020 3717.16 6353.49 78.77 1.00 407.12 2797.33
   05:13:42.261.18-Jan-2020 3717.16 6353.49 78.77 1.00 407.32 2797.33
   05:13:42.462.18-Jan-2020 3717.16 6356.69 78.77 1.00 407.52 2797.33
   05:13:42.662.18-Jan-2020 3717.16 6355.27 78.77 1.00 407.72 2797.33
   05:13:42.862.18-Jan-2020 3717.16 6352.79 78.77 1.00 407.92 2797.33
   05:13:43.062.18-Jan-2020 3717.16 6353.26 78.77 1.00 408.12 2797.33
   05:13:43.262.18-Jan-2020 3717.16 6353.26 78.77 1.00 408.32 2797.33
   05:13:43.462.18-Jan-2020 3717.16 6356.22 78.77 1.00 408.52 2797.33
   05:13:43.662.18-Jan-2020 3717.16 6354.31 78.77 1.00 408.72 2797.33
   05:13:43.862.18-Jan-2020 3717.16 6355.11 78.77 1.00 408.92 2797.33
   05:13:44.062.18-Jan-2020 3717.16 6363.15 78.77 1.00 409.12 2797.33
   05:13:44.262.18-Jan-2020 3717.16 6363.15 78.77 1.00 409.32 2797.33
   05:13:44.462.18-Jan-2020 3717.16 6355.32 78.77 1.00 409.52 2797.33
   05:13:44.662.18-Jan-2020 3717.16 6355.32 78.77 1.00 409.72 2797.33
   05:13:44.862.18-Jan-2020 3717.16 6354.34 78.77 1.00 409.92 2797.33
   05:13:45.062.18-Jan-2020 3717.16 6353.84 78.77 1.00 410.12 2797.33
   05:13:45.262.18-Jan-2020 3717.16 6353.84 78.77 1.00 410.32 2797.33
   05:13:45.462.18-Jan-2020 3717.16 6353.13 78.77 1.00 410.52 2797.33
   05:13:45.662.18-Jan-2020 3717.16 6353.14 78.77 1.00 410.72 2797.33
   05:13:45.863.18-Jan-2020 3717.16 6353.11 78.77 1.00 410.92 2797.33
   05:13:46.063.18-Jan-2020 3717.16 6353.95 78.77 1.00 411.12 2797.33
   05:13:46.263.18-Jan-2020 3717.16 6353.95 78.77 1.00 411.32 2797.33
   05:13:46.463.18-Jan-2020 3717.16 6360.86 78.77 1.00 411.52 2797.33
   05:13:46.663.18-Jan-2020 3717.16 6354.77 78.77 1.00 411.72 2797.33
   05:13:46.863.18-Jan-2020 3717.16 6357.86 78.77 1.00 411.92 2797.33
   05:13:47.063.18-Jan-2020 3717.16 6355.57 78.77 1.00 412.12 2797.33
   05:13:47.263.18-Jan-2020 3717.16 6355.57 78.77 1.00 412.32 2797.33
   05:13:47.463.18-Jan-2020 3717.16 6362.77 78.77 1.00 412.52 2797.33
   05:13:47.663.18-Jan-2020 3717.16 6356.01 78.77 1.00 412.72 2797.33
   05:13:47.863.18-Jan-2020 3717.16 6354.77 78.77 1.00 412.92 2797.33
   05:13:48.063.18-Jan-2020 3717.16 6353.30 78.77 1.00 413.12 2797.33
   05:13:48.263.18-Jan-2020 3717.16 6353.30 78.77 1.00 413.32 2797.33
   05:13:48.463.18-Jan-2020 3717.16 6352.41 78.77 1.00 413.52 2797.33
   05:13:48.663.18-Jan-2020 3717.16 6362.17 78.77 1.00 413.72 2797.33
   05:13:48.863.18-Jan-2020 3717.16 6352.68 78.77 1.00 413.92 2797.33
