~Version Information
 VERS.                  2.0:   CWLS log ASCII Standard -VERSION 2.0
 WRAP.                   NO:   One line per depth step
~Well Information Block
#MNEM.UNIT     VALUE/NAME     DESCRIPTION
#---------     -----------    ---------------------------
 STRT.S             05:06:54 18-Jan-20: START TIME 05:06:54 18-Jan-20
 STOP.S             05:17:00 18-Jan-20: STOP TIME  05:17:00 18-Jan-20
 STEP.S                   0.00: STEP TIME
 NULL.                 -999.25: NULL VALUE
 DFWT.                        :  DIST FWL TEXT
 DFST.                        :  DIST FSL TEXT
 DMF .             Drill Floor:  DRILL MEAS FROM
 STIM.      09.30.00 26-Dec-19:  START TIME
 DATE.      08.00.00 20-Jan-20:  END TIME
 SPUD.               23-Nov-19:  SPUD DATE
 NREF.                    Grid:  NORTH REFERENCE
 HPTY.       Minimum Curvature:  HOLE POS TYPE
 DMOD.             Drill Model:  DRILL MOD DESC
 SVYD.                  Survey:  SURVEY DESC
 ILTD.               Lithology:  INTERP LTH DESC
 FTOP.          Formation Tops:  FORM TOPS DESC
 SON .        AZ-XX-0906192647:  JOB NUMBER
 WTYP.                Deviated:  WELL TYPE
 COMP.     BP Exploration (Caspian Sea) Ltd:  COMPANY
 BASE.              Azerbaijan:  LOGGING EQUIPMENT BASE LOCATION
 REGN.                 Eurasia:  REGION
 FLD .                     ACG:  FIELD NAME
 SRVC.              KCA Deutag:  CONTRACTOR
 MWDS.                    Baku:  MWD SHOP
 WELL.     A10 (Slot 20) - SCP:  WELL NAME
 JOBN.        AZ-XX-0906192647:  JOB TICKET NUMB
 RIG .                 Chirag1:  RIG NAME
 DCON.     Halliburton Sperry Drilling:  DIRECTNL CONTR
 UNIT.                     N/A:  LOGGING EQUIPMENT ID
 PDAT.          Mean Sea Level:  PERMANENT DATUM
 MDS .        Operator Entered:  MAG DATA SOURCE
 CTRY.              Azerbaijan:  COUNTRY NAME
 UWI .            /AZE00000090:  UNIQUE WELL IDENTIFIER
 API .            /AZE00000090:  API NUMBER
 CNTY.                        :  COUNTY
 PROV.                        :  PROVINCE
 STAT.                        :  STATE
 LOC .                        :  LOCATION
 LMF .             Drill Floor:  LOG MEASURED FROM
 TVDS.m                  36.60:  TVDSS CORRECTN
 LATI.deg                40.08:  LATITUDE
 LONG.deg                51.24:  LONGITUDE
 WHNS.m                  -7.94:  WELL HEAD N/S
 WHEW.m                   1.56:  WELL HEAD E/W
 UTMX.m              520429.26:  UTM X
 UTMY.m             4438973.87:  UTM Y
 DFWL.m                   0.00:  DISTANCE FWL
 DFSL.m                   0.00:  DISTANCE FSL
 SDEP.m                1455.00:  START DEPTH
 TDD .m                3878.01:  TOTAL DEPTH (DRILLER)
 VSDR.deg               112.75:  VERT SEC DIRECT
 GVFD.g                   1.00:  GRAVITY FIELD
 MFLD.nT              50256.00:  MAGNETIC FIELD
 MDIP.deg                59.52:  MAGNETIC DIP
 MDEC.deg                 6.43:  MAGNETIC DECL
 GRDC.deg                 0.16:  GRID CORRECTION
 AZTC.deg                 6.27:  AZM TOTAL CORR
 EPD .m                   0.00:  ELEVATION
 EGL .m                   0.00:  GROUND ELEVATION
 WDMS.m                 121.00:  WD ELEV
 APD .m                  36.60:  DEPTH ABOVE PD
 AGAP.m                  36.60:  AIR GAP
 VSEW.m                   1.56:  VERT SEC E/W
 VSNS.m                  -7.94:  VERT SEC N/S
 DEP .m                1140.01:  DEPTH
 EKB .m                  36.60:  KB ELEVATION
 EDF .m                  36.60:  DF ELEVATION
 TDL .m                1293.00:  TOTAL DEPTH (LOGGER)
 VSC .                       0:  VS TO CLOSURE
 MAGU.                 1849164:  MAGUTM CHECKSUM
~Parameter Information Block
#MNEM.UNIT       Value        Description
#---------     -----------    ---------------------------
 AV  .mps                 2.40:  Ann Velocity 
 AVMX.mps                 2.55:  Max Ann Veloc 
 AZIF.deg               134.35:  Azm, Final 
 BHAT.        Rotary Steerable:  BHA Type 
 BREV.rev               847.00:  Rev Bit Total 
 BROT.�/30m              -2.51:  Build Rotating 
 BS  .in                  8.50:  Bit Size 
 BSZ .in                  8.50:  Bit Size 
 BTPL.psig              700.00:  Bit Press Loss 
 CABU.                     Yes:  Customer Abuse 
 CGEO.          Ilgar Gurbanov:  Customer Geo 
 COMM.                     ��L:  Run Comments 1 
 TCS .hr                140.40:  Time Ciculation Ended 
 CV  .mps                 2.27:  Crit Velocity 
 CVMX.mps                 2.45:  Max Crit Veloc 
 DD1 .         Intigam Rahimov:  Direct Drillr 1 
 DD2 .         Rasim Ibrahimov:  Direct Drillr 2 
 DDSV.                 iCruise:  DD Service 
 DEFF.%                  99.00:  % Det Eff 
 DLRX.�/30m               3.28:  Dogleg Rot Max 
 DLSO.�/30m               0.00:  Dogleg Oriented 
 DLSX.�/30m               0.00:  Dogleg Str Max 
 DRET.      23.30.00 18-Jan-20:  Drill End Time 
 DRST.      01.45.00 11-Jan-20:  Drill Start Tim 
 DTIM.hr                 94.00:  Time Drilling 
 EDEP.m                3878.01:  End Depth 
 ENG1.       Dauren Baktybayev:  Engineer 1 
 ENG2.      Natik Hasanaghayev:  Engineer 2 
 ENG3.          Rustam Safarov:  Engineer 3 
 ETIM.      08.00.00 20-Jan-20:  End Time 
 FLOI.gpm               532.00:  Flow In 
 FLON.gpm               500.00:  Flow In Min 
 FLOS.cptm                0.00:  Fluid Loss 
 FLOX.gpm               540.00:  Flow In Max 
 FTRO.       Formation Presure:  FTWD Run Obj 
 HPRE.                     Yes:  High Pressure 
 HTEM.                      No:  High Temp 
 HYDO.m                   1.80:  Hydro Offset 
 IFIN.deg                39.86:  Inc, Final 
 IMAX.deg                59.73:  Inc Max 
 IMIN.deg                39.25:  Inc Min 
 IMND.m                3816.77:  Inc Min Depth 
 IMXD.m                2596.33:  Inc Max Depth 
 JARR.                      No:  Jarring 
 LETM.      23.30.00 18-Jan-20:  Log End Time 
 LOST.hr                     0:  Lost Rig Time 
 LSTM.      01.45.00 11-Jan-20:  Log Start Time 
 MDCL.ppm             41500.00:  Mud Chlorides 
 MDES.     Inversion Oil/Synthetic:  Mud Desc 
 DFD .sg                  1.48:  Mud Density 
 MDMN.sg                  1.48:  Dens Mud Min 
 MDMX.sg                  1.48:  Dens Mud Max 
 MOIL.                      54:  Run Mud Oil % 
 MOWR.                   72:28:  Run Mud OWR 
 MSND.                       0:  Run Mud Sand % 
 MSOL.                      23:  Run Mud Solids% 
 DFV .spqt               86.00:  Mud Viscosity 
 MWOD.in                  6.75:  MWD Tool OD 
 MWSI.                      No:  Serv Intrp, MWD 
 OTIM.hr                223.40:  Time Operating 
 PCON.           Look Like New:  Pad Condition 
 PMAX.psia            32446.79:  Press Op, Max 
 PV  .cP                 49.00:  Mud PV 
 RUN .                     200:  Run Number 
 ROPA.m/hr               12.48:  ROP Avg 
 ROPN.m/hr                8.00:  ROP Min 
 ROPX.m/hr               27.00:  ROP Max 
 RPMA.rpm               121.00:  RPM Surface Avg 
 RPMN.rpm                60.00:  RPM Surface Min 
 RPMX.rpm               140.00:  RPM Surface Max 
 RRUN.                    L202:  Rig Run Number 
 RTIM.hr                  7.25:  Time Reaming 
 SAZI.deg               123.49:  Azm, Start 
 SDEP.m                2585.01:  Start Depth 
 SIDD.                      No:  Serv Intrp, DD 
 SINC.deg                59.93:  Inc, Start 
 SPPA.psig             3539.00:  SPP Avg 
 SPPN.psig             3050.00:  SPP Min 
 SPPX.psig             3950.00:  SPP Max 
 STIM.      19.00.00 10-Jan-20:  Start Time 
 SVCS.                 DD, MWD:  Services 
 SVER.                    9.20:  Sperry Version 
 TDAT.m                1293.00:  Tot Depth Attmp 
 TDDF.                      No:  Trip for DD 
 TDLG.m                1293.00:  Tot Depth Loggd 
 TFF .                      No:  Trip for Fail 
 TQAA.f-kp               16.00:  Torque Abs Avg 
 TQAN.f-kp               11.00:  Torque Abs Min 
 TQAX.f-kp               18.00:  Torque Abs Max 
 TRRT.�/30m               1.25:  Turn Rotating 
 MRT .                  EWR-M5:  Maximum Recorded Temperature 
 TTMX.degC               84.00:  Max Tool Temp 
 VS01.          AZ90514619R5C6:  Virtual Str1 SN 
 VS02.        AZ90552592N2L2C6:  Virtual Str2 SN 
 VS03.        AZ90571337Z1W1C6:  Virtual Str3 SN 
 VS04.         AZ90513690K23C6:  Virtual Str4 SN 
 VS05.           AZ90594857F11:  Virtual Str5 SN 
 VS06.                13102166:  Virtual Str6 SN 
 WBMN.klb                 7.00:  WOB Min 
 WITN.            Peter Wilson:  Customer Rep 
 WOBA.klb                 9.95:  WOB Avg 
 WOBX.klb                10.00:  WOB Max 
 YP  .lhf2               36.00:  Yield Point 
~Curve Information Block
#MNEM.UNIT                 API CODE     Curve Description
#---------               -----------    ---------------------------
 TIME.HHMMSS            00 000 000 000:  GT Time & Date
 GTDEPTH.m              00 000 000 000:  GT Depth
 GTPQH.psia             00 000 000 000:  GT HR Quartz Pressure
 GTTQ.degC              00 000 000 000:  GT Quartz Temperature
 GTTN.NONE              00 000 000 000:  GT Test Number
 GTET.sec               00 000 000 000:  GT Elapsed Test Time
 GTTVD.m                00 000 000 000:  GT True Vertical Depth
#Other Information
#
#WARRANTY: Halliburton will use its best efforts to furnish customers with 
#accurate information and interpretations that are part of, and incident to, the services 
#provided.  However, Halliburton cannot and does not warrant the accuracy 
#or correctness of such information and interpretations.  Under no circumstances should any 
#such information or interpretation be relied upon as the sole basis for any drilling, 
#completion, production, or financial decision or any procedure involving any risk to the 
#safety of any drilling venture, drilling rig or its crew or any other third party.  The 
#Customer has full responsibility for all drilling, completion and production operation.  
#Halliburton makes no representations or warranties, either expressed or 
#implied, including, but not limited to, the implied warranties of merchantability or fitness 
#for a particular purpose, with respect to the services rendered.  In no event will 
#Halliburton be liable for failure to obtain any particular results or for 
#any damages, including, but not limited to, indirect, special or consequential damages, 
#resulting from the use of any information or interpretation provided by Halliburton.
#
~A           TIME           GTDEPTH  GTPQH  GTTQ  GTTN  GTET   GTTVD  
# ...
   05:09:58.998.18-Jan-2020 3717.16 6357.85 78.89 1.00 184.05 2797.33
   05:09:59.198.18-Jan-2020 3717.16 6357.85 78.89 1.00 184.25 2797.33
   05:09:59.398.18-Jan-2020 3717.16 6357.96 78.89 1.00 184.45 2797.33
   05:09:59.598.18-Jan-2020 3717.16 6357.78 78.89 1.00 184.65 2797.33
   05:09:59.799.18-Jan-2020 3717.16 6358.12 78.89 1.00 184.85 2797.33
   05:09:59.999.18-Jan-2020 3717.16 6366.67 78.89 1.00 185.05 2797.33
   05:10:00.199.18-Jan-2020 3717.16 6366.67 78.89 1.00 185.25 2797.33
   05:10:00.399.18-Jan-2020 3717.16 6358.54 78.89 1.00 185.45 2797.33
   05:10:00.599.18-Jan-2020 3717.16 6361.77 78.89 1.00 185.65 2797.33
   05:10:00.799.18-Jan-2020 3717.16 6358.65 78.89 1.00 185.85 2797.33
   05:10:00.999.18-Jan-2020 3717.16 6363.50 78.89 1.00 186.05 2797.33
   05:10:01.199.18-Jan-2020 3717.16 6363.50 78.89 1.00 186.25 2797.33
   05:10:01.399.18-Jan-2020 3717.16 6356.24 78.89 1.00 186.45 2797.33
   05:10:01.599.18-Jan-2020 3717.16 6358.55 78.89 1.00 186.65 2797.33
   05:10:01.799.18-Jan-2020 3717.16 6355.84 78.89 1.00 186.85 2797.33
   05:10:01.999.18-Jan-2020 3717.16 6356.59 78.89 1.00 187.05 2797.33
   05:10:02.199.18-Jan-2020 3717.16 6356.59 78.89 1.00 187.25 2797.33
   05:10:02.399.18-Jan-2020 3717.16 6367.05 78.89 1.00 187.45 2797.33
   05:10:02.599.18-Jan-2020 3717.16 6355.93 78.89 1.00 187.65 2797.33
   05:10:02.799.18-Jan-2020 3717.16 6357.50 78.89 1.00 187.85 2797.33
   05:10:02.999.18-Jan-2020 3717.16 6367.17 78.89 1.00 188.05 2797.33
   05:10:03.199.18-Jan-2020 3717.16 6367.17 78.89 1.00 188.25 2797.33
   05:10:03.400.18-Jan-2020 3717.16 6356.46 78.89 1.00 188.45 2797.33
   05:10:03.600.18-Jan-2020 3717.16 6359.41 78.89 1.00 188.65 2797.33
   05:10:03.800.18-Jan-2020 3717.16 6360.47 78.89 1.00 188.85 2797.33
   05:10:04.000.18-Jan-2020 3717.16 6360.19 78.89 1.00 189.05 2797.33
   05:10:04.200.18-Jan-2020 3717.16 6360.19 78.89 1.00 189.25 2797.33
   05:10:04.400.18-Jan-2020 3717.16 6357.62 78.89 1.00 189.45 2797.33
   05:10:04.600.18-Jan-2020 3717.16 6358.02 78.89 1.00 189.65 2797.33
   05:10:04.800.18-Jan-2020 3717.16 6357.47 78.89 1.00 189.85 2797.33
   05:10:05.000.18-Jan-2020 3717.16 6359.65 78.89 1.00 190.05 2797.33
   05:10:05.200.18-Jan-2020 3717.16 6359.65 78.89 1.00 190.25 2797.33
   05:10:05.400.18-Jan-2020 3717.16 6358.92 78.89 1.00 190.45 2797.33
   05:10:05.600.18-Jan-2020 3717.16 6357.15 78.89 1.00 190.65 2797.33
   05:10:05.800.18-Jan-2020 3717.16 6359.48 78.89 1.00 190.85 2797.33
   05:10:06.000.18-Jan-2020 3717.16 6360.04 78.89 1.00 191.05 2797.33
   05:10:06.200.18-Jan-2020 3717.16 6360.04 78.89 1.00 191.25 2797.33
   05:10:06.400.18-Jan-2020 3717.16 6358.39 78.89 1.00 191.45 2797.33
   05:10:06.600.18-Jan-2020 3717.16 6371.60 78.89 1.00 191.65 2797.33
   05:10:06.800.18-Jan-2020 3717.16 6357.37 78.89 1.00 191.85 2797.33
   05:10:07.001.18-Jan-2020 3717.16 6358.06 78.89 1.00 192.05 2797.33
   05:10:07.201.18-Jan-2020 3717.16 6358.06 78.89 1.00 192.25 2797.33
   05:10:07.401.18-Jan-2020 3717.16 6360.08 78.89 1.00 192.45 2797.33
   05:10:07.601.18-Jan-2020 3717.16 6359.34 78.89 1.00 192.65 2797.33
   05:10:07.801.18-Jan-2020 3717.16 6358.79 78.89 1.00 192.85 2797.33
   05:10:08.001.18-Jan-2020 3717.16 6358.31 78.89 1.00 193.05 2797.33
   05:10:08.201.18-Jan-2020 3717.16 6358.31 78.89 1.00 193.25 2797.33
   05:10:08.401.18-Jan-2020 3717.16 6359.13 78.89 1.00 193.45 2797.33
   05:10:08.601.18-Jan-2020 3717.16 6358.81 78.89 1.00 193.65 2797.33
   05:10:08.801.18-Jan-2020 3717.16 6359.35 78.89 1.00 193.85 2797.33
   05:10:09.001.18-Jan-2020 3717.16 6369.68 78.89 1.00 194.05 2797.33
   05:10:09.201.18-Jan-2020 3717.16 6369.68 78.89 1.00 194.26 2797.33
   05:10:09.401.18-Jan-2020 3717.16 6359.71 78.89 1.00 194.46 2797.33
   05:10:09.601.18-Jan-2020 3717.16 6363.67 78.89 1.00 194.66 2797.33
   05:10:09.801.18-Jan-2020 3717.16 6359.76 78.89 1.00 194.86 2797.33
   05:10:10.001.18-Jan-2020 3717.16 6371.76 78.89 1.00 195.06 2797.33
   05:10:10.201.18-Jan-2020 3717.16 6371.76 78.89 1.00 195.26 2797.33
   05:10:10.402.18-Jan-2020 3717.16 6359.16 78.89 1.00 195.46 2797.33
   05:10:10.602.18-Jan-2020 3717.16 6359.97 78.89 1.00 195.66 2797.33
   05:10:10.802.18-Jan-2020 3717.16 6358.84 78.89 1.00 195.86 2797.33
   05:10:11.002.18-Jan-2020 3717.16 6358.06 78.89 1.00 196.06 2797.33
   05:10:11.202.18-Jan-2020 3717.16 6358.06 78.89 1.00 196.26 2797.33
   05:10:11.402.18-Jan-2020 3717.16 6362.09 78.89 1.00 196.46 2797.33
   05:10:11.602.18-Jan-2020 3717.16 6355.95 78.89 1.00 196.66 2797.33
   05:10:11.802.18-Jan-2020 3717.16 6362.75 78.89 1.00 196.86 2797.33
   05:10:12.002.18-Jan-2020 3717.16 6358.41 78.89 1.00 197.06 2797.33
   05:10:12.202.18-Jan-2020 3717.16 6358.41 78.89 1.00 197.26 2797.33
   05:10:12.402.18-Jan-2020 3717.16 6356.95 78.89 1.00 197.46 2797.33
   05:10:12.602.18-Jan-2020 3717.16 6359.14 78.89 1.00 197.66 2797.33
   05:10:12.802.18-Jan-2020 3717.16 6362.47 78.89 1.00 197.86 2797.33
   05:10:13.002.18-Jan-2020 3717.16 6360.72 78.89 1.00 198.06 2797.33
   05:10:13.202.18-Jan-2020 3717.16 6360.72 78.89 1.00 198.26 2797.33
   05:10:13.402.18-Jan-2020 3717.16 6358.13 78.88 1.00 198.46 2797.33
   05:10:13.602.18-Jan-2020 3717.16 6358.14 78.88 1.00 198.66 2797.33
   05:10:13.802.18-Jan-2020 3717.16 6357.83 78.88 1.00 198.86 2797.33
   05:10:14.003.18-Jan-2020 3717.16 6361.42 78.88 1.00 199.06 2797.33
   05:10:14.203.18-Jan-2020 3717.16 6361.42 78.88 1.00 199.26 2797.33
   05:10:14.403.18-Jan-2020 3717.16 6359.72 78.88 1.00 199.46 2797.33
   05:10:14.603.18-Jan-2020 3717.16 6356.41 78.88 1.00 199.66 2797.33
   05:10:14.803.18-Jan-2020 3717.16 6359.27 78.88 1.00 199.86 2797.33
   05:10:15.003.18-Jan-2020 3717.16 6360.15 78.88 1.00 200.06 2797.33
   05:10:15.203.18-Jan-2020 3717.16 6360.15 78.88 1.00 200.26 2797.33
   05:10:15.403.18-Jan-2020 3717.16 6358.61 78.88 1.00 200.46 2797.33
   05:10:15.603.18-Jan-2020 3717.16 6367.27 78.88 1.00 200.66 2797.33
   05:10:15.803.18-Jan-2020 3717.16 6363.33 78.88 1.00 200.86 2797.33
   05:10:16.003.18-Jan-2020 3717.16 6358.98 78.88 1.00 201.06 2797.33
   05:10:16.203.18-Jan-2020 3717.16 6358.98 78.88 1.00 201.26 2797.33
   05:10:16.403.18-Jan-2020 3717.16 6359.43 78.88 1.00 201.46 2797.33
   05:10:16.603.18-Jan-2020 3717.16 6360.13 78.88 1.00 201.66 2797.33
   05:10:16.803.18-Jan-2020 3717.16 6357.45 78.88 1.00 201.86 2797.33
   05:10:17.003.18-Jan-2020 3717.16 6359.25 78.88 1.00 202.06 2797.33
   05:10:17.203.18-Jan-2020 3717.16 6359.25 78.88 1.00 202.26 2797.33
   05:10:17.403.18-Jan-2020 3717.16 6358.90 78.88 1.00 202.46 2797.33
   05:10:17.604.18-Jan-2020 3717.16 6357.62 78.88 1.00 202.66 2797.33
   05:10:17.804.18-Jan-2020 3717.16 6359.67 78.88 1.00 202.86 2797.33
   05:10:18.004.18-Jan-2020 3717.16 6362.53 78.88 1.00 203.06 2797.33
   05:10:18.204.18-Jan-2020 3717.16 6362.53 78.88 1.00 203.26 2797.33
   05:10:18.404.18-Jan-2020 3717.16 6358.74 78.88 1.00 203.46 2797.33
   05:10:18.604.18-Jan-2020 3717.16 6363.70 78.88 1.00 203.66 2797.33
   05:10:18.804.18-Jan-2020 3717.16 6359.93 78.88 1.00 203.86 2797.33
   05:10:19.004.18-Jan-2020 3717.16 6358.42 78.88 1.00 204.06 2797.33
   05:10:19.204.18-Jan-2020 3717.16 6358.42 78.88 1.00 204.26 2797.33
   05:10:19.404.18-Jan-2020 3717.16 6357.49 78.88 1.00 204.46 2797.33
   05:10:19.604.18-Jan-2020 3717.16 6357.19 78.88 1.00 204.66 2797.33
   05:10:19.804.18-Jan-2020 3717.16 6358.40 78.88 1.00 204.86 2797.33
   05:10:20.004.18-Jan-2020 3717.16 6358.32 78.88 1.00 205.06 2797.33
   05:10:20.204.18-Jan-2020 3717.16 6358.32 78.88 1.00 205.26 2797.33
   05:10:20.404.18-Jan-2020 3717.16 6365.30 78.88 1.00 205.46 2797.33
   05:10:20.604.18-Jan-2020 3717.16 6358.76 78.88 1.00 205.66 2797.33
   05:10:20.804.18-Jan-2020 3717.16 6357.65 78.88 1.00 205.86 2797.33
   05:10:21.005.18-Jan-2020 3717.16 6361.37 78.88 1.00 206.06 2797.33
   05:10:21.205.18-Jan-2020 3717.16 6361.37 78.88 1.00 206.26 2797.33
   05:10:21.405.18-Jan-2020 3717.16 6367.33 78.88 1.00 206.46 2797.33
   05:10:21.605.18-Jan-2020 3717.16 6361.32 78.88 1.00 206.66 2797.33
   05:10:21.805.18-Jan-2020 3717.16 6358.09 78.88 1.00 206.86 2797.33
