~Version Information
 VERS.                  2.0:   CWLS log ASCII Standard -VERSION 2.0
 WRAP.                   NO:   One line per depth step
~Well Information Block
#MNEM.UNIT     VALUE/NAME     DESCRIPTION
#---------     -----------    ---------------------------
 STRT.S             05:06:54 18-Jan-20: START TIME 05:06:54 18-Jan-20
 STOP.S             05:17:00 18-Jan-20: STOP TIME  05:17:00 18-Jan-20
 STEP.S                   0.00: STEP TIME
 NULL.                 -999.25: NULL VALUE
 DFWT.                        :  DIST FWL TEXT
 DFST.                        :  DIST FSL TEXT
 DMF .             Drill Floor:  DRILL MEAS FROM
 STIM.      09.30.00 26-Dec-19:  START TIME
 DATE.      08.00.00 20-Jan-20:  END TIME
 SPUD.               23-Nov-19:  SPUD DATE
 NREF.                    Grid:  NORTH REFERENCE
 HPTY.       Minimum Curvature:  HOLE POS TYPE
 DMOD.             Drill Model:  DRILL MOD DESC
 SVYD.                  Survey:  SURVEY DESC
 ILTD.               Lithology:  INTERP LTH DESC
 FTOP.          Formation Tops:  FORM TOPS DESC
 SON .        AZ-XX-0906192647:  JOB NUMBER
 WTYP.                Deviated:  WELL TYPE
 COMP.     BP Exploration (Caspian Sea) Ltd:  COMPANY
 BASE.              Azerbaijan:  LOGGING EQUIPMENT BASE LOCATION
 REGN.                 Eurasia:  REGION
 FLD .                     ACG:  FIELD NAME
 SRVC.              KCA Deutag:  CONTRACTOR
 MWDS.                    Baku:  MWD SHOP
 WELL.     A10 (Slot 20) - SCP:  WELL NAME
 JOBN.        AZ-XX-0906192647:  JOB TICKET NUMB
 RIG .                 Chirag1:  RIG NAME
 DCON.     Halliburton Sperry Drilling:  DIRECTNL CONTR
 UNIT.                     N/A:  LOGGING EQUIPMENT ID
 PDAT.          Mean Sea Level:  PERMANENT DATUM
 MDS .        Operator Entered:  MAG DATA SOURCE
 CTRY.              Azerbaijan:  COUNTRY NAME
 UWI .            /AZE00000090:  UNIQUE WELL IDENTIFIER
 API .            /AZE00000090:  API NUMBER
 CNTY.                        :  COUNTY
 PROV.                        :  PROVINCE
 STAT.                        :  STATE
 LOC .                        :  LOCATION
 LMF .             Drill Floor:  LOG MEASURED FROM
 TVDS.m                  36.60:  TVDSS CORRECTN
 LATI.deg                40.08:  LATITUDE
 LONG.deg                51.24:  LONGITUDE
 WHNS.m                  -7.94:  WELL HEAD N/S
 WHEW.m                   1.56:  WELL HEAD E/W
 UTMX.m              520429.26:  UTM X
 UTMY.m             4438973.87:  UTM Y
 DFWL.m                   0.00:  DISTANCE FWL
 DFSL.m                   0.00:  DISTANCE FSL
 SDEP.m                1455.00:  START DEPTH
 TDD .m                3878.01:  TOTAL DEPTH (DRILLER)
 VSDR.deg               112.75:  VERT SEC DIRECT
 GVFD.g                   1.00:  GRAVITY FIELD
 MFLD.nT              50256.00:  MAGNETIC FIELD
 MDIP.deg                59.52:  MAGNETIC DIP
 MDEC.deg                 6.43:  MAGNETIC DECL
 GRDC.deg                 0.16:  GRID CORRECTION
 AZTC.deg                 6.27:  AZM TOTAL CORR
 EPD .m                   0.00:  ELEVATION
 EGL .m                   0.00:  GROUND ELEVATION
 WDMS.m                 121.00:  WD ELEV
 APD .m                  36.60:  DEPTH ABOVE PD
 AGAP.m                  36.60:  AIR GAP
 VSEW.m                   1.56:  VERT SEC E/W
 VSNS.m                  -7.94:  VERT SEC N/S
 DEP .m                1140.01:  DEPTH
 EKB .m                  36.60:  KB ELEVATION
 EDF .m                  36.60:  DF ELEVATION
 TDL .m                1293.00:  TOTAL DEPTH (LOGGER)
 VSC .                       0:  VS TO CLOSURE
 MAGU.                 1849164:  MAGUTM CHECKSUM
~Parameter Information Block
#MNEM.UNIT       Value        Description
#---------     -----------    ---------------------------
 AV  .mps                 2.40:  Ann Velocity 
 AVMX.mps                 2.55:  Max Ann Veloc 
 AZIF.deg               134.35:  Azm, Final 
 BHAT.        Rotary Steerable:  BHA Type 
 BREV.rev               847.00:  Rev Bit Total 
 BROT.�/30m              -2.51:  Build Rotating 
 BS  .in                  8.50:  Bit Size 
 BSZ .in                  8.50:  Bit Size 
 BTPL.psig              700.00:  Bit Press Loss 
 CABU.                     Yes:  Customer Abuse 
 CGEO.          Ilgar Gurbanov:  Customer Geo 
 COMM.                     ��L:  Run Comments 1 
 TCS .hr                140.40:  Time Ciculation Ended 
 CV  .mps                 2.27:  Crit Velocity 
 CVMX.mps                 2.45:  Max Crit Veloc 
 DD1 .         Intigam Rahimov:  Direct Drillr 1 
 DD2 .         Rasim Ibrahimov:  Direct Drillr 2 
 DDSV.                 iCruise:  DD Service 
 DEFF.%                  99.00:  % Det Eff 
 DLRX.�/30m               3.28:  Dogleg Rot Max 
 DLSO.�/30m               0.00:  Dogleg Oriented 
 DLSX.�/30m               0.00:  Dogleg Str Max 
 DRET.      23.30.00 18-Jan-20:  Drill End Time 
 DRST.      01.45.00 11-Jan-20:  Drill Start Tim 
 DTIM.hr                 94.00:  Time Drilling 
 EDEP.m                3878.01:  End Depth 
 ENG1.       Dauren Baktybayev:  Engineer 1 
 ENG2.      Natik Hasanaghayev:  Engineer 2 
 ENG3.          Rustam Safarov:  Engineer 3 
 ETIM.      08.00.00 20-Jan-20:  End Time 
 FLOI.gpm               532.00:  Flow In 
 FLON.gpm               500.00:  Flow In Min 
 FLOS.cptm                0.00:  Fluid Loss 
 FLOX.gpm               540.00:  Flow In Max 
 FTRO.       Formation Presure:  FTWD Run Obj 
 HPRE.                     Yes:  High Pressure 
 HTEM.                      No:  High Temp 
 HYDO.m                   1.80:  Hydro Offset 
 IFIN.deg                39.86:  Inc, Final 
 IMAX.deg                59.73:  Inc Max 
 IMIN.deg                39.25:  Inc Min 
 IMND.m                3816.77:  Inc Min Depth 
 IMXD.m                2596.33:  Inc Max Depth 
 JARR.                      No:  Jarring 
 LETM.      23.30.00 18-Jan-20:  Log End Time 
 LOST.hr                     0:  Lost Rig Time 
 LSTM.      01.45.00 11-Jan-20:  Log Start Time 
 MDCL.ppm             41500.00:  Mud Chlorides 
 MDES.     Inversion Oil/Synthetic:  Mud Desc 
 DFD .sg                  1.48:  Mud Density 
 MDMN.sg                  1.48:  Dens Mud Min 
 MDMX.sg                  1.48:  Dens Mud Max 
 MOIL.                      54:  Run Mud Oil % 
 MOWR.                   72:28:  Run Mud OWR 
 MSND.                       0:  Run Mud Sand % 
 MSOL.                      23:  Run Mud Solids% 
 DFV .spqt               86.00:  Mud Viscosity 
 MWOD.in                  6.75:  MWD Tool OD 
 MWSI.                      No:  Serv Intrp, MWD 
 OTIM.hr                223.40:  Time Operating 
 PCON.           Look Like New:  Pad Condition 
 PMAX.psia            32446.79:  Press Op, Max 
 PV  .cP                 49.00:  Mud PV 
 RUN .                     200:  Run Number 
 ROPA.m/hr               12.48:  ROP Avg 
 ROPN.m/hr                8.00:  ROP Min 
 ROPX.m/hr               27.00:  ROP Max 
 RPMA.rpm               121.00:  RPM Surface Avg 
 RPMN.rpm                60.00:  RPM Surface Min 
 RPMX.rpm               140.00:  RPM Surface Max 
 RRUN.                    L202:  Rig Run Number 
 RTIM.hr                  7.25:  Time Reaming 
 SAZI.deg               123.49:  Azm, Start 
 SDEP.m                2585.01:  Start Depth 
 SIDD.                      No:  Serv Intrp, DD 
 SINC.deg                59.93:  Inc, Start 
 SPPA.psig             3539.00:  SPP Avg 
 SPPN.psig             3050.00:  SPP Min 
 SPPX.psig             3950.00:  SPP Max 
 STIM.      19.00.00 10-Jan-20:  Start Time 
 SVCS.                 DD, MWD:  Services 
 SVER.                    9.20:  Sperry Version 
 TDAT.m                1293.00:  Tot Depth Attmp 
 TDDF.                      No:  Trip for DD 
 TDLG.m                1293.00:  Tot Depth Loggd 
 TFF .                      No:  Trip for Fail 
 TQAA.f-kp               16.00:  Torque Abs Avg 
 TQAN.f-kp               11.00:  Torque Abs Min 
 TQAX.f-kp               18.00:  Torque Abs Max 
 TRRT.�/30m               1.25:  Turn Rotating 
 MRT .                  EWR-M5:  Maximum Recorded Temperature 
 TTMX.degC               84.00:  Max Tool Temp 
 VS01.          AZ90514619R5C6:  Virtual Str1 SN 
 VS02.        AZ90552592N2L2C6:  Virtual Str2 SN 
 VS03.        AZ90571337Z1W1C6:  Virtual Str3 SN 
 VS04.         AZ90513690K23C6:  Virtual Str4 SN 
 VS05.           AZ90594857F11:  Virtual Str5 SN 
 VS06.                13102166:  Virtual Str6 SN 
 WBMN.klb                 7.00:  WOB Min 
 WITN.            Peter Wilson:  Customer Rep 
 WOBA.klb                 9.95:  WOB Avg 
 WOBX.klb                10.00:  WOB Max 
 YP  .lhf2               36.00:  Yield Point 
~Curve Information Block
#MNEM.UNIT                 API CODE     Curve Description
#---------               -----------    ---------------------------
 TIME.HHMMSS            00 000 000 000:  GT Time & Date
 GTDEPTH.m              00 000 000 000:  GT Depth
 GTPQH.psia             00 000 000 000:  GT HR Quartz Pressure
 GTTQ.degC              00 000 000 000:  GT Quartz Temperature
 GTTN.NONE              00 000 000 000:  GT Test Number
 GTET.sec               00 000 000 000:  GT Elapsed Test Time
 GTTVD.m                00 000 000 000:  GT True Vertical Depth
#Other Information
#
#WARRANTY: Halliburton will use its best efforts to furnish customers with 
#accurate information and interpretations that are part of, and incident to, the services 
#provided.  However, Halliburton cannot and does not warrant the accuracy 
#or correctness of such information and interpretations.  Under no circumstances should any 
#such information or interpretation be relied upon as the sole basis for any drilling, 
#completion, production, or financial decision or any procedure involving any risk to the 
#safety of any drilling venture, drilling rig or its crew or any other third party.  The 
#Customer has full responsibility for all drilling, completion and production operation.  
#Halliburton makes no representations or warranties, either expressed or 
#implied, including, but not limited to, the implied warranties of merchantability or fitness 
#for a particular purpose, with respect to the services rendered.  In no event will 
#Halliburton be liable for failure to obtain any particular results or for 
#any damages, including, but not limited to, indirect, special or consequential damages, 
#resulting from the use of any information or interpretation provided by Halliburton.
#
~A           TIME           GTDEPTH  GTPQH  GTTQ  GTTN  GTET   GTTVD  
# ...
   05:07:40.959.18-Jan-2020 3717.16 6345.84 78.99 1.00  46.01 2797.33
   05:07:41.159.18-Jan-2020 3717.16 6345.84 78.99 1.00  46.21 2797.33
   05:07:41.359.18-Jan-2020 3717.16 6349.44 78.99 1.00  46.41 2797.33
   05:07:41.559.18-Jan-2020 3717.16 6346.86 78.99 1.00  46.61 2797.33
   05:07:41.759.18-Jan-2020 3717.16 6346.64 78.99 1.00  46.81 2797.33
   05:07:41.959.18-Jan-2020 3717.16 6351.20 78.99 1.00  47.01 2797.33
   05:07:42.160.18-Jan-2020 3717.16 6351.20 78.99 1.00  47.21 2797.33
   05:07:42.360.18-Jan-2020 3717.16 6349.09 78.99 1.00  47.41 2797.33
   05:07:42.560.18-Jan-2020 3717.16 6346.08 78.99 1.00  47.61 2797.33
   05:07:42.760.18-Jan-2020 3717.16 6356.14 78.99 1.00  47.81 2797.33
   05:07:42.960.18-Jan-2020 3717.16 6347.21 78.99 1.00  48.01 2797.33
   05:07:43.160.18-Jan-2020 3717.16 6347.21 78.99 1.00  48.21 2797.33
   05:07:43.360.18-Jan-2020 3717.16 6347.74 78.99 1.00  48.41 2797.33
   05:07:43.560.18-Jan-2020 3717.16 6345.69 78.99 1.00  48.61 2797.33
   05:07:43.760.18-Jan-2020 3717.16 6345.69 78.99 1.00  48.81 2797.33
   05:07:43.960.18-Jan-2020 3717.16 6346.01 78.99 1.00  49.01 2797.33
   05:07:44.160.18-Jan-2020 3717.16 6346.01 78.99 1.00  49.21 2797.33
   05:07:44.360.18-Jan-2020 3717.16 6346.63 78.99 1.00  49.41 2797.33
   05:07:44.560.18-Jan-2020 3717.16 6347.69 78.98 1.00  49.61 2797.33
   05:07:44.760.18-Jan-2020 3717.16 6346.48 78.98 1.00  49.81 2797.33
   05:07:44.960.18-Jan-2020 3717.16 6348.46 78.98 1.00  50.01 2797.33
   05:07:45.160.18-Jan-2020 3717.16 6348.46 78.98 1.00  50.21 2797.33
   05:07:45.360.18-Jan-2020 3717.16 6355.01 78.98 1.00  50.41 2797.33
   05:07:45.560.18-Jan-2020 3717.16 6350.70 78.98 1.00  50.61 2797.33
   05:07:45.761.18-Jan-2020 3717.16 6349.69 78.98 1.00  50.81 2797.33
   05:07:45.961.18-Jan-2020 3717.16 6346.61 78.98 1.00  51.01 2797.33
   05:07:46.161.18-Jan-2020 3717.16 6346.61 78.98 1.00  51.21 2797.33
   05:07:46.361.18-Jan-2020 3717.16 6352.89 78.98 1.00  51.41 2797.33
   05:07:46.561.18-Jan-2020 3717.16 6345.31 78.98 1.00  51.61 2797.33
   05:07:46.761.18-Jan-2020 3717.16 6348.98 78.98 1.00  51.81 2797.33
   05:07:46.961.18-Jan-2020 3717.16 6346.53 78.98 1.00  52.01 2797.33
   05:07:47.161.18-Jan-2020 3717.16 6346.53 78.98 1.00  52.21 2797.33
   05:07:47.361.18-Jan-2020 3717.16 6350.61 78.98 1.00  52.41 2797.33
   05:07:47.561.18-Jan-2020 3717.16 6346.27 78.98 1.00  52.61 2797.33
   05:07:47.761.18-Jan-2020 3717.16 6350.51 78.98 1.00  52.81 2797.33
   05:07:47.961.18-Jan-2020 3717.16 6350.94 78.98 1.00  53.02 2797.33
   05:07:48.161.18-Jan-2020 3717.16 6350.94 78.98 1.00  53.22 2797.33
   05:07:48.361.18-Jan-2020 3717.16 6350.03 78.98 1.00  53.42 2797.33
   05:07:48.561.18-Jan-2020 3717.16 6348.29 78.98 1.00  53.62 2797.33
   05:07:48.761.18-Jan-2020 3717.16 6350.65 78.98 1.00  53.82 2797.33
   05:07:48.961.18-Jan-2020 3717.16 6351.49 78.98 1.00  54.02 2797.33
   05:07:49.162.18-Jan-2020 3717.16 6351.49 78.98 1.00  54.22 2797.33
   05:07:49.362.18-Jan-2020 3717.16 6350.94 78.98 1.00  54.42 2797.33
   05:07:49.562.18-Jan-2020 3717.16 6347.44 78.98 1.00  54.62 2797.33
   05:07:49.762.18-Jan-2020 3717.16 6348.95 78.98 1.00  54.82 2797.33
   05:07:49.962.18-Jan-2020 3717.16 6351.42 78.98 1.00  55.02 2797.33
   05:07:50.162.18-Jan-2020 3717.16 6351.42 78.98 1.00  55.22 2797.33
   05:07:50.362.18-Jan-2020 3717.16 6349.12 78.98 1.00  55.42 2797.33
   05:07:50.562.18-Jan-2020 3717.16 6348.86 78.98 1.00  55.62 2797.33
   05:07:50.762.18-Jan-2020 3717.16 6348.73 78.98 1.00  55.82 2797.33
   05:07:50.962.18-Jan-2020 3717.16 6352.03 78.98 1.00  56.02 2797.33
   05:07:51.162.18-Jan-2020 3717.16 6352.03 78.98 1.00  56.22 2797.33
   05:07:51.362.18-Jan-2020 3717.16 6350.32 78.98 1.00  56.42 2797.33
   05:07:51.562.18-Jan-2020 3717.16 6356.69 78.98 1.00  56.62 2797.33
   05:07:51.762.18-Jan-2020 3717.16 6355.29 78.98 1.00  56.82 2797.33
   05:07:51.962.18-Jan-2020 3717.16 6348.72 78.98 1.00  57.02 2797.33
   05:07:52.162.18-Jan-2020 3717.16 6348.72 78.98 1.00  57.22 2797.33
   05:07:52.362.18-Jan-2020 3717.16 6351.05 78.98 1.00  57.42 2797.33
   05:07:52.562.18-Jan-2020 3717.16 6350.10 78.98 1.00  57.62 2797.33
   05:07:52.763.18-Jan-2020 3717.16 6351.39 78.98 1.00  57.82 2797.33
   05:07:52.963.18-Jan-2020 3717.16 6349.75 78.98 1.00  58.02 2797.33
   05:07:53.163.18-Jan-2020 3717.16 6349.75 78.98 1.00  58.22 2797.33
   05:07:53.363.18-Jan-2020 3717.16 6348.57 78.98 1.00  58.42 2797.33
   05:07:53.563.18-Jan-2020 3717.16 6350.57 78.98 1.00  58.62 2797.33
   05:07:53.763.18-Jan-2020 3717.16 6350.33 78.98 1.00  58.82 2797.33
   05:07:53.963.18-Jan-2020 3717.16 6355.82 78.98 1.00  59.02 2797.33
   05:07:54.163.18-Jan-2020 3717.16 6355.82 78.98 1.00  59.22 2797.33
   05:07:54.363.18-Jan-2020 3717.16 6350.51 78.98 1.00  59.42 2797.33
   05:07:54.563.18-Jan-2020 3717.16 6354.11 78.98 1.00  59.62 2797.33
   05:07:54.763.18-Jan-2020 3717.16 6350.83 78.98 1.00  59.82 2797.33
   05:07:54.963.18-Jan-2020 3717.16 6349.91 78.98 1.00  60.02 2797.33
   05:07:55.163.18-Jan-2020 3717.16 6349.91 78.98 1.00  60.22 2797.33
   05:07:55.363.18-Jan-2020 3717.16 6353.49 78.98 1.00  60.42 2797.33
   05:07:55.563.18-Jan-2020 3717.16 6348.63 78.98 1.00  60.62 2797.33
   05:07:55.763.18-Jan-2020 3717.16 6352.40 78.98 1.00  60.82 2797.33
   05:07:55.963.18-Jan-2020 3717.16 6349.05 78.98 1.00  61.02 2797.33
   05:07:56.163.18-Jan-2020 3717.16 6349.05 78.98 1.00  61.22 2797.33
   05:07:56.364.18-Jan-2020 3717.16 6353.17 78.97 1.00  61.42 2797.33
   05:07:56.564.18-Jan-2020 3717.16 6348.00 78.97 1.00  61.62 2797.33
   05:07:56.764.18-Jan-2020 3717.16 6353.11 78.97 1.00  61.82 2797.33
   05:07:56.964.18-Jan-2020 3717.16 6358.46 78.97 1.00  62.02 2797.33
   05:07:57.164.18-Jan-2020 3717.16 6358.46 78.97 1.00  62.22 2797.33
   05:07:57.364.18-Jan-2020 3717.16 6350.15 78.97 1.00  62.42 2797.33
   05:07:57.564.18-Jan-2020 3717.16 6352.14 78.97 1.00  62.62 2797.33
   05:07:57.764.18-Jan-2020 3717.16 6351.09 78.97 1.00  62.82 2797.33
   05:07:57.964.18-Jan-2020 3717.16 6353.64 78.97 1.00  63.02 2797.33
   05:07:58.164.18-Jan-2020 3717.16 6353.64 78.97 1.00  63.22 2797.33
   05:07:58.364.18-Jan-2020 3717.16 6351.46 78.97 1.00  63.42 2797.33
   05:07:58.564.18-Jan-2020 3717.16 6350.56 78.97 1.00  63.62 2797.33
   05:07:58.764.18-Jan-2020 3717.16 6350.83 78.97 1.00  63.82 2797.33
   05:07:58.964.18-Jan-2020 3717.16 6354.83 78.97 1.00  64.02 2797.33
   05:07:59.164.18-Jan-2020 3717.16 6354.83 78.97 1.00  64.22 2797.33
   05:07:59.364.18-Jan-2020 3717.16 6352.13 78.97 1.00  64.42 2797.33
   05:07:59.564.18-Jan-2020 3717.16 6351.10 78.97 1.00  64.62 2797.33
   05:07:59.765.18-Jan-2020 3717.16 6353.61 78.97 1.00  64.82 2797.33
   05:07:59.965.18-Jan-2020 3717.16 6354.00 78.97 1.00  65.02 2797.33
   05:08:00.165.18-Jan-2020 3717.16 6354.00 78.97 1.00  65.22 2797.33
   05:08:00.365.18-Jan-2020 3717.16 6352.82 78.97 1.00  65.42 2797.33
   05:08:00.565.18-Jan-2020 3717.16 6364.62 78.97 1.00  65.62 2797.33
   05:08:00.765.18-Jan-2020 3717.16 6351.93 78.97 1.00  65.82 2797.33
   05:08:00.965.18-Jan-2020 3717.16 6351.20 78.97 1.00  66.02 2797.33
   05:08:01.165.18-Jan-2020 3717.16 6351.20 78.97 1.00  66.22 2797.33
   05:08:01.365.18-Jan-2020 3717.16 6353.18 78.97 1.00  66.42 2797.33
   05:08:01.565.18-Jan-2020 3717.16 6352.92 78.97 1.00  66.62 2797.33
   05:08:01.765.18-Jan-2020 3717.16 6353.11 78.97 1.00  66.82 2797.33
   05:08:01.965.18-Jan-2020 3717.16 6352.29 78.97 1.00  67.02 2797.33
   05:08:02.165.18-Jan-2020 3717.16 6352.29 78.97 1.00  67.22 2797.33
   05:08:02.365.18-Jan-2020 3717.16 6352.50 78.97 1.00  67.42 2797.33
   05:08:02.565.18-Jan-2020 3717.16 6352.63 78.97 1.00  67.62 2797.33
   05:08:02.765.18-Jan-2020 3717.16 6352.96 78.97 1.00  67.82 2797.33
   05:08:02.965.18-Jan-2020 3717.16 6363.01 78.97 1.00  68.02 2797.33
   05:08:03.165.18-Jan-2020 3717.16 6363.01 78.97 1.00  68.22 2797.33
   05:08:03.366.18-Jan-2020 3717.16 6353.91 78.97 1.00  68.42 2797.33
   05:08:03.566.18-Jan-2020 3717.16 6355.25 78.97 1.00  68.62 2797.33
   05:08:03.766.18-Jan-2020 3717.16 6353.28 78.97 1.00  68.82 2797.33
