~Version Information
 VERS.                  2.0:   CWLS log ASCII Standard -VERSION 2.0
 WRAP.                   NO:   One line per depth step
~Well Information Block
#MNEM.UNIT     VALUE/NAME     DESCRIPTION
#---------     -----------    ---------------------------
 STRT.S             05:06:54 18-Jan-20: START TIME 05:06:54 18-Jan-20
 STOP.S             05:17:00 18-Jan-20: STOP TIME  05:17:00 18-Jan-20
 STEP.S                   0.00: STEP TIME
 NULL.                 -999.25: NULL VALUE
 DFWT.                        :  DIST FWL TEXT
 DFST.                        :  DIST FSL TEXT
 DMF .             Drill Floor:  DRILL MEAS FROM
 STIM.      09.30.00 26-Dec-19:  START TIME
 DATE.      08.00.00 20-Jan-20:  END TIME
 SPUD.               23-Nov-19:  SPUD DATE
 NREF.                    Grid:  NORTH REFERENCE
 HPTY.       Minimum Curvature:  HOLE POS TYPE
 DMOD.             Drill Model:  DRILL MOD DESC
 SVYD.                  Survey:  SURVEY DESC
 ILTD.               Lithology:  INTERP LTH DESC
 FTOP.          Formation Tops:  FORM TOPS DESC
 SON .        AZ-XX-0906192647:  JOB NUMBER
 WTYP.                Deviated:  WELL TYPE
 COMP.     BP Exploration (Caspian Sea) Ltd:  COMPANY
 BASE.              Azerbaijan:  LOGGING EQUIPMENT BASE LOCATION
 REGN.                 Eurasia:  REGION
 FLD .                     ACG:  FIELD NAME
 SRVC.              KCA Deutag:  CONTRACTOR
 MWDS.                    Baku:  MWD SHOP
 WELL.     A10 (Slot 20) - SCP:  WELL NAME
 JOBN.        AZ-XX-0906192647:  JOB TICKET NUMB
 RIG .                 Chirag1:  RIG NAME
 DCON.     Halliburton Sperry Drilling:  DIRECTNL CONTR
 UNIT.                     N/A:  LOGGING EQUIPMENT ID
 PDAT.          Mean Sea Level:  PERMANENT DATUM
 MDS .        Operator Entered:  MAG DATA SOURCE
 CTRY.              Azerbaijan:  COUNTRY NAME
 UWI .            /AZE00000090:  UNIQUE WELL IDENTIFIER
 API .            /AZE00000090:  API NUMBER
 CNTY.                        :  COUNTY
 PROV.                        :  PROVINCE
 STAT.                        :  STATE
 LOC .                        :  LOCATION
 LMF .             Drill Floor:  LOG MEASURED FROM
 TVDS.m                  36.60:  TVDSS CORRECTN
 LATI.deg                40.08:  LATITUDE
 LONG.deg                51.24:  LONGITUDE
 WHNS.m                  -7.94:  WELL HEAD N/S
 WHEW.m                   1.56:  WELL HEAD E/W
 UTMX.m              520429.26:  UTM X
 UTMY.m             4438973.87:  UTM Y
 DFWL.m                   0.00:  DISTANCE FWL
 DFSL.m                   0.00:  DISTANCE FSL
 SDEP.m                1455.00:  START DEPTH
 TDD .m                3878.01:  TOTAL DEPTH (DRILLER)
 VSDR.deg               112.75:  VERT SEC DIRECT
 GVFD.g                   1.00:  GRAVITY FIELD
 MFLD.nT              50256.00:  MAGNETIC FIELD
 MDIP.deg                59.52:  MAGNETIC DIP
 MDEC.deg                 6.43:  MAGNETIC DECL
 GRDC.deg                 0.16:  GRID CORRECTION
 AZTC.deg                 6.27:  AZM TOTAL CORR
 EPD .m                   0.00:  ELEVATION
 EGL .m                   0.00:  GROUND ELEVATION
 WDMS.m                 121.00:  WD ELEV
 APD .m                  36.60:  DEPTH ABOVE PD
 AGAP.m                  36.60:  AIR GAP
 VSEW.m                   1.56:  VERT SEC E/W
 VSNS.m                  -7.94:  VERT SEC N/S
 DEP .m                1140.01:  DEPTH
 EKB .m                  36.60:  KB ELEVATION
 EDF .m                  36.60:  DF ELEVATION
 TDL .m                1293.00:  TOTAL DEPTH (LOGGER)
 VSC .                       0:  VS TO CLOSURE
 MAGU.                 1849164:  MAGUTM CHECKSUM
~Parameter Information Block
#MNEM.UNIT       Value        Description
#---------     -----------    ---------------------------
 AV  .mps                 2.40:  Ann Velocity 
 AVMX.mps                 2.55:  Max Ann Veloc 
 AZIF.deg               134.35:  Azm, Final 
 BHAT.        Rotary Steerable:  BHA Type 
 BREV.rev               847.00:  Rev Bit Total 
 BROT.�/30m              -2.51:  Build Rotating 
 BS  .in                  8.50:  Bit Size 
 BSZ .in                  8.50:  Bit Size 
 BTPL.psig              700.00:  Bit Press Loss 
 CABU.                     Yes:  Customer Abuse 
 CGEO.          Ilgar Gurbanov:  Customer Geo 
 COMM.                     ��L:  Run Comments 1 
 TCS .hr                140.40:  Time Ciculation Ended 
 CV  .mps                 2.27:  Crit Velocity 
 CVMX.mps                 2.45:  Max Crit Veloc 
 DD1 .         Intigam Rahimov:  Direct Drillr 1 
 DD2 .         Rasim Ibrahimov:  Direct Drillr 2 
 DDSV.                 iCruise:  DD Service 
 DEFF.%                  99.00:  % Det Eff 
 DLRX.�/30m               3.28:  Dogleg Rot Max 
 DLSO.�/30m               0.00:  Dogleg Oriented 
 DLSX.�/30m               0.00:  Dogleg Str Max 
 DRET.      23.30.00 18-Jan-20:  Drill End Time 
 DRST.      01.45.00 11-Jan-20:  Drill Start Tim 
 DTIM.hr                 94.00:  Time Drilling 
 EDEP.m                3878.01:  End Depth 
 ENG1.       Dauren Baktybayev:  Engineer 1 
 ENG2.      Natik Hasanaghayev:  Engineer 2 
 ENG3.          Rustam Safarov:  Engineer 3 
 ETIM.      08.00.00 20-Jan-20:  End Time 
 FLOI.gpm               532.00:  Flow In 
 FLON.gpm               500.00:  Flow In Min 
 FLOS.cptm                0.00:  Fluid Loss 
 FLOX.gpm               540.00:  Flow In Max 
 FTRO.       Formation Presure:  FTWD Run Obj 
 HPRE.                     Yes:  High Pressure 
 HTEM.                      No:  High Temp 
 HYDO.m                   1.80:  Hydro Offset 
 IFIN.deg                39.86:  Inc, Final 
 IMAX.deg                59.73:  Inc Max 
 IMIN.deg                39.25:  Inc Min 
 IMND.m                3816.77:  Inc Min Depth 
 IMXD.m                2596.33:  Inc Max Depth 
 JARR.                      No:  Jarring 
 LETM.      23.30.00 18-Jan-20:  Log End Time 
 LOST.hr                     0:  Lost Rig Time 
 LSTM.      01.45.00 11-Jan-20:  Log Start Time 
 MDCL.ppm             41500.00:  Mud Chlorides 
 MDES.     Inversion Oil/Synthetic:  Mud Desc 
 DFD .sg                  1.48:  Mud Density 
 MDMN.sg                  1.48:  Dens Mud Min 
 MDMX.sg                  1.48:  Dens Mud Max 
 MOIL.                      54:  Run Mud Oil % 
 MOWR.                   72:28:  Run Mud OWR 
 MSND.                       0:  Run Mud Sand % 
 MSOL.                      23:  Run Mud Solids% 
 DFV .spqt               86.00:  Mud Viscosity 
 MWOD.in                  6.75:  MWD Tool OD 
 MWSI.                      No:  Serv Intrp, MWD 
 OTIM.hr                223.40:  Time Operating 
 PCON.           Look Like New:  Pad Condition 
 PMAX.psia            32446.79:  Press Op, Max 
 PV  .cP                 49.00:  Mud PV 
 RUN .                     200:  Run Number 
 ROPA.m/hr               12.48:  ROP Avg 
 ROPN.m/hr                8.00:  ROP Min 
 ROPX.m/hr               27.00:  ROP Max 
 RPMA.rpm               121.00:  RPM Surface Avg 
 RPMN.rpm                60.00:  RPM Surface Min 
 RPMX.rpm               140.00:  RPM Surface Max 
 RRUN.                    L202:  Rig Run Number 
 RTIM.hr                  7.25:  Time Reaming 
 SAZI.deg               123.49:  Azm, Start 
 SDEP.m                2585.01:  Start Depth 
 SIDD.                      No:  Serv Intrp, DD 
 SINC.deg                59.93:  Inc, Start 
 SPPA.psig             3539.00:  SPP Avg 
 SPPN.psig             3050.00:  SPP Min 
 SPPX.psig             3950.00:  SPP Max 
 STIM.      19.00.00 10-Jan-20:  Start Time 
 SVCS.                 DD, MWD:  Services 
 SVER.                    9.20:  Sperry Version 
 TDAT.m                1293.00:  Tot Depth Attmp 
 TDDF.                      No:  Trip for DD 
 TDLG.m                1293.00:  Tot Depth Loggd 
 TFF .                      No:  Trip for Fail 
 TQAA.f-kp               16.00:  Torque Abs Avg 
 TQAN.f-kp               11.00:  Torque Abs Min 
 TQAX.f-kp               18.00:  Torque Abs Max 
 TRRT.�/30m               1.25:  Turn Rotating 
 MRT .                  EWR-M5:  Maximum Recorded Temperature 
 TTMX.degC               84.00:  Max Tool Temp 
 VS01.          AZ90514619R5C6:  Virtual Str1 SN 
 VS02.        AZ90552592N2L2C6:  Virtual Str2 SN 
 VS03.        AZ90571337Z1W1C6:  Virtual Str3 SN 
 VS04.         AZ90513690K23C6:  Virtual Str4 SN 
 VS05.           AZ90594857F11:  Virtual Str5 SN 
 VS06.                13102166:  Virtual Str6 SN 
 WBMN.klb                 7.00:  WOB Min 
 WITN.            Peter Wilson:  Customer Rep 
 WOBA.klb                 9.95:  WOB Avg 
 WOBX.klb                10.00:  WOB Max 
 YP  .lhf2               36.00:  Yield Point 
~Curve Information Block
#MNEM.UNIT                 API CODE     Curve Description
#---------               -----------    ---------------------------
 TIME.HHMMSS            00 000 000 000:  GT Time & Date
 GTDEPTH.m              00 000 000 000:  GT Depth
 GTPQH.psia             00 000 000 000:  GT HR Quartz Pressure
 GTTQ.degC              00 000 000 000:  GT Quartz Temperature
 GTTN.NONE              00 000 000 000:  GT Test Number
 GTET.sec               00 000 000 000:  GT Elapsed Test Time
 GTTVD.m                00 000 000 000:  GT True Vertical Depth
#Other Information
#
#WARRANTY: Halliburton will use its best efforts to furnish customers with 
#accurate information and interpretations that are part of, and incident to, the services 
#provided.  However, Halliburton cannot and does not warrant the accuracy 
#or correctness of such information and interpretations.  Under no circumstances should any 
#such information or interpretation be relied upon as the sole basis for any drilling, 
#completion, production, or financial decision or any procedure involving any risk to the 
#safety of any drilling venture, drilling rig or its crew or any other third party.  The 
#Customer has full responsibility for all drilling, completion and production operation.  
#Halliburton makes no representations or warranties, either expressed or 
#implied, including, but not limited to, the implied warranties of merchantability or fitness 
#for a particular purpose, with respect to the services rendered.  In no event will 
#Halliburton be liable for failure to obtain any particular results or for 
#any damages, including, but not limited to, indirect, special or consequential damages, 
#resulting from the use of any information or interpretation provided by Halliburton.
#
~A           TIME           GTDEPTH  GTPQH  GTTQ  GTTN  GTET   GTTVD  
# ...
   05:10:45.011.18-Jan-2020 3717.16 6356.60 78.87 1.00 230.07 2797.33
   05:10:45.211.18-Jan-2020 3717.16 6356.60 78.87 1.00 230.27 2797.33
   05:10:45.411.18-Jan-2020 3717.16 6356.71 78.87 1.00 230.47 2797.33
   05:10:45.611.18-Jan-2020 3717.16 6364.03 78.87 1.00 230.67 2797.33
   05:10:45.812.18-Jan-2020 3717.16 6359.87 78.87 1.00 230.87 2797.33
   05:10:46.012.18-Jan-2020 3717.16 6359.36 78.87 1.00 231.07 2797.33
   05:10:46.212.18-Jan-2020 3717.16 6359.36 78.87 1.00 231.27 2797.33
   05:10:46.412.18-Jan-2020 3717.16 6358.29 78.87 1.00 231.47 2797.33
   05:10:46.612.18-Jan-2020 3717.16 6357.02 78.87 1.00 231.67 2797.33
   05:10:46.812.18-Jan-2020 3717.16 6366.93 78.87 1.00 231.87 2797.33
   05:10:47.012.18-Jan-2020 3717.16 6358.93 78.87 1.00 232.07 2797.33
   05:10:47.212.18-Jan-2020 3717.16 6358.93 78.87 1.00 232.27 2797.33
   05:10:47.412.18-Jan-2020 3717.16 6356.93 78.87 1.00 232.47 2797.33
   05:10:47.612.18-Jan-2020 3717.16 6356.91 78.87 1.00 232.67 2797.33
   05:10:47.812.18-Jan-2020 3717.16 6355.48 78.87 1.00 232.87 2797.33
   05:10:48.012.18-Jan-2020 3717.16 6367.04 78.87 1.00 233.07 2797.33
   05:10:48.212.18-Jan-2020 3717.16 6367.04 78.87 1.00 233.27 2797.33
   05:10:48.412.18-Jan-2020 3717.16 6357.28 78.87 1.00 233.47 2797.33
   05:10:48.612.18-Jan-2020 3717.16 6360.44 78.87 1.00 233.67 2797.33
   05:10:48.812.18-Jan-2020 3717.16 6358.78 78.87 1.00 233.87 2797.33
   05:10:49.012.18-Jan-2020 3717.16 6369.68 78.87 1.00 234.07 2797.33
   05:10:49.212.18-Jan-2020 3717.16 6369.68 78.87 1.00 234.27 2797.33
   05:10:49.413.18-Jan-2020 3717.16 6358.08 78.87 1.00 234.47 2797.33
   05:10:49.613.18-Jan-2020 3717.16 6361.11 78.87 1.00 234.67 2797.33
   05:10:49.813.18-Jan-2020 3717.16 6359.65 78.87 1.00 234.87 2797.33
   05:10:50.013.18-Jan-2020 3717.16 6356.55 78.87 1.00 235.07 2797.33
   05:10:50.213.18-Jan-2020 3717.16 6356.55 78.87 1.00 235.27 2797.33
   05:10:50.413.18-Jan-2020 3717.16 6356.66 78.87 1.00 235.47 2797.33
   05:10:50.613.18-Jan-2020 3717.16 6357.72 78.87 1.00 235.67 2797.33
   05:10:50.813.18-Jan-2020 3717.16 6359.15 78.87 1.00 235.87 2797.33
   05:10:51.013.18-Jan-2020 3717.16 6358.65 78.86 1.00 236.07 2797.33
   05:10:51.213.18-Jan-2020 3717.16 6358.65 78.86 1.00 236.27 2797.33
   05:10:51.413.18-Jan-2020 3717.16 6355.81 78.86 1.00 236.47 2797.33
   05:10:51.613.18-Jan-2020 3717.16 6356.76 78.86 1.00 236.67 2797.33
   05:10:51.813.18-Jan-2020 3717.16 6360.23 78.86 1.00 236.87 2797.33
   05:10:52.013.18-Jan-2020 3717.16 6358.82 78.86 1.00 237.07 2797.33
   05:10:52.213.18-Jan-2020 3717.16 6358.82 78.86 1.00 237.27 2797.33
   05:10:52.413.18-Jan-2020 3717.16 6364.36 78.86 1.00 237.47 2797.33
   05:10:52.613.18-Jan-2020 3717.16 6363.42 78.86 1.00 237.67 2797.33
   05:10:52.814.18-Jan-2020 3717.16 6357.88 78.86 1.00 237.87 2797.33
   05:10:53.014.18-Jan-2020 3717.16 6359.81 78.86 1.00 238.07 2797.33
   05:10:53.214.18-Jan-2020 3717.16 6359.81 78.86 1.00 238.27 2797.33
   05:10:53.414.18-Jan-2020 3717.16 6357.25 78.86 1.00 238.47 2797.33
   05:10:53.614.18-Jan-2020 3717.16 6356.95 78.86 1.00 238.67 2797.33
   05:10:53.814.18-Jan-2020 3717.16 6356.13 78.86 1.00 238.87 2797.33
   05:10:54.014.18-Jan-2020 3717.16 6357.60 78.86 1.00 239.07 2797.33
   05:10:54.214.18-Jan-2020 3717.16 6357.60 78.86 1.00 239.27 2797.33
   05:10:54.414.18-Jan-2020 3717.16 6357.35 78.86 1.00 239.47 2797.33
   05:10:54.614.18-Jan-2020 3717.16 6357.03 78.86 1.00 239.67 2797.33
   05:10:54.814.18-Jan-2020 3717.16 6361.67 78.86 1.00 239.87 2797.33
   05:10:55.014.18-Jan-2020 3717.16 6360.59 78.86 1.00 240.07 2797.33
   05:10:55.214.18-Jan-2020 3717.16 6360.59 78.86 1.00 240.27 2797.33
   05:10:55.414.18-Jan-2020 3717.16 6362.17 78.86 1.00 240.47 2797.33
   05:10:55.614.18-Jan-2020 3717.16 6358.23 78.86 1.00 240.67 2797.33
   05:10:55.814.18-Jan-2020 3717.16 6357.56 78.86 1.00 240.87 2797.33
   05:10:56.014.18-Jan-2020 3717.16 6365.59 78.86 1.00 241.07 2797.33
   05:10:56.214.18-Jan-2020 3717.16 6365.59 78.86 1.00 241.27 2797.33
   05:10:56.415.18-Jan-2020 3717.16 6356.85 78.86 1.00 241.47 2797.33
   05:10:56.615.18-Jan-2020 3717.16 6357.89 78.86 1.00 241.67 2797.33
   05:10:56.815.18-Jan-2020 3717.16 6356.39 78.86 1.00 241.87 2797.33
   05:10:57.015.18-Jan-2020 3717.16 6356.75 78.86 1.00 242.07 2797.33
   05:10:57.215.18-Jan-2020 3717.16 6356.75 78.86 1.00 242.27 2797.33
   05:10:57.415.18-Jan-2020 3717.16 6355.75 78.86 1.00 242.47 2797.33
   05:10:57.615.18-Jan-2020 3717.16 6356.78 78.86 1.00 242.67 2797.33
   05:10:57.815.18-Jan-2020 3717.16 6360.90 78.86 1.00 242.87 2797.33
   05:10:58.015.18-Jan-2020 3717.16 6371.28 78.86 1.00 243.07 2797.33
   05:10:58.215.18-Jan-2020 3717.16 6371.28 78.86 1.00 243.27 2797.33
   05:10:58.415.18-Jan-2020 3717.16 6357.45 78.86 1.00 243.47 2797.33
   05:10:58.615.18-Jan-2020 3717.16 6360.80 78.86 1.00 243.67 2797.33
   05:10:58.815.18-Jan-2020 3717.16 6361.16 78.86 1.00 243.87 2797.33
   05:10:59.015.18-Jan-2020 3717.16 6358.71 78.86 1.00 244.07 2797.33
   05:10:59.215.18-Jan-2020 3717.16 6358.71 78.86 1.00 244.27 2797.33
   05:10:59.415.18-Jan-2020 3717.16 6357.12 78.86 1.00 244.47 2797.33
   05:10:59.615.18-Jan-2020 3717.16 6357.99 78.86 1.00 244.67 2797.33
   05:10:59.815.18-Jan-2020 3717.16 6358.68 78.86 1.00 244.87 2797.33
   05:11:00.016.18-Jan-2020 3717.16 6361.48 78.86 1.00 245.07 2797.33
   05:11:00.216.18-Jan-2020 3717.16 6361.48 78.86 1.00 245.27 2797.33
   05:11:00.416.18-Jan-2020 3717.16 6357.26 78.86 1.00 245.47 2797.33
   05:11:00.616.18-Jan-2020 3717.16 6357.65 78.86 1.00 245.67 2797.33
   05:11:00.816.18-Jan-2020 3717.16 6360.06 78.86 1.00 245.87 2797.33
   05:11:01.016.18-Jan-2020 3717.16 6359.49 78.86 1.00 246.07 2797.33
   05:11:01.216.18-Jan-2020 3717.16 6359.49 78.86 1.00 246.27 2797.33
   05:11:01.416.18-Jan-2020 3717.16 6365.96 78.86 1.00 246.47 2797.33
   05:11:01.616.18-Jan-2020 3717.16 6362.63 78.86 1.00 246.67 2797.33
   05:11:01.816.18-Jan-2020 3717.16 6357.70 78.86 1.00 246.87 2797.33
   05:11:02.016.18-Jan-2020 3717.16 6359.92 78.86 1.00 247.07 2797.33
   05:11:02.216.18-Jan-2020 3717.16 6359.92 78.86 1.00 247.27 2797.33
   05:11:02.416.18-Jan-2020 3717.16 6357.69 78.86 1.00 247.47 2797.33
   05:11:02.616.18-Jan-2020 3717.16 6358.51 78.86 1.00 247.67 2797.33
   05:11:02.816.18-Jan-2020 3717.16 6356.61 78.86 1.00 247.87 2797.33
   05:11:03.016.18-Jan-2020 3717.16 6357.64 78.86 1.00 248.07 2797.33
   05:11:03.216.18-Jan-2020 3717.16 6357.64 78.86 1.00 248.27 2797.33
   05:11:03.417.18-Jan-2020 3717.16 6357.47 78.86 1.00 248.47 2797.33
   05:11:03.617.18-Jan-2020 3717.16 6357.82 78.86 1.00 248.67 2797.33
   05:11:03.817.18-Jan-2020 3717.16 6363.50 78.86 1.00 248.87 2797.33
   05:11:04.017.18-Jan-2020 3717.16 6360.18 78.86 1.00 249.07 2797.33
   05:11:04.217.18-Jan-2020 3717.16 6360.18 78.86 1.00 249.27 2797.33
   05:11:04.417.18-Jan-2020 3717.16 6362.31 78.86 1.00 249.47 2797.33
   05:11:04.617.18-Jan-2020 3717.16 6358.26 78.86 1.00 249.67 2797.33
   05:11:04.817.18-Jan-2020 3717.16 6364.49 78.86 1.00 249.87 2797.33
   05:11:05.017.18-Jan-2020 3717.16 6362.46 78.86 1.00 250.07 2797.33
   05:11:05.217.18-Jan-2020 3717.16 6362.46 78.86 1.00 250.27 2797.33
   05:11:05.417.18-Jan-2020 3717.16 6358.38 78.86 1.00 250.47 2797.33
   05:11:05.617.18-Jan-2020 3717.16 6356.64 78.86 1.00 250.67 2797.33
   05:11:05.817.18-Jan-2020 3717.16 6356.62 78.86 1.00 250.87 2797.33
   05:11:06.017.18-Jan-2020 3717.16 6356.13 78.86 1.00 251.07 2797.33
   05:11:06.217.18-Jan-2020 3717.16 6356.13 78.86 1.00 251.27 2797.33
   05:11:06.417.18-Jan-2020 3717.16 6358.42 78.86 1.00 251.47 2797.33
   05:11:06.617.18-Jan-2020 3717.16 6356.44 78.86 1.00 251.67 2797.33
   05:11:06.817.18-Jan-2020 3717.16 6360.28 78.86 1.00 251.87 2797.33
   05:11:07.018.18-Jan-2020 3717.16 6365.89 78.86 1.00 252.07 2797.33
   05:11:07.218.18-Jan-2020 3717.16 6365.89 78.86 1.00 252.27 2797.33
   05:11:07.418.18-Jan-2020 3717.16 6356.30 78.86 1.00 252.47 2797.33
   05:11:07.618.18-Jan-2020 3717.16 6361.72 78.86 1.00 252.67 2797.33
   05:11:07.818.18-Jan-2020 3717.16 6359.05 78.86 1.00 252.87 2797.33
