~Version Information
 VERS.                  2.0:   CWLS log ASCII Standard -VERSION 2.0
 WRAP.                   NO:   One line per depth step
~Well Information Block
#MNEM.UNIT     VALUE/NAME     DESCRIPTION
#---------     -----------    ---------------------------
 STRT.S             05:06:54 18-Jan-20: START TIME 05:06:54 18-Jan-20
 STOP.S             05:17:00 18-Jan-20: STOP TIME  05:17:00 18-Jan-20
 STEP.S                   0.00: STEP TIME
 NULL.                 -999.25: NULL VALUE
 DFWT.                        :  DIST FWL TEXT
 DFST.                        :  DIST FSL TEXT
 DMF .             Drill Floor:  DRILL MEAS FROM
 STIM.      09.30.00 26-Dec-19:  START TIME
 DATE.      08.00.00 20-Jan-20:  END TIME
 SPUD.               23-Nov-19:  SPUD DATE
 NREF.                    Grid:  NORTH REFERENCE
 HPTY.       Minimum Curvature:  HOLE POS TYPE
 DMOD.             Drill Model:  DRILL MOD DESC
 SVYD.                  Survey:  SURVEY DESC
 ILTD.               Lithology:  INTERP LTH DESC
 FTOP.          Formation Tops:  FORM TOPS DESC
 SON .        AZ-XX-0906192647:  JOB NUMBER
 WTYP.                Deviated:  WELL TYPE
 COMP.     BP Exploration (Caspian Sea) Ltd:  COMPANY
 BASE.              Azerbaijan:  LOGGING EQUIPMENT BASE LOCATION
 REGN.                 Eurasia:  REGION
 FLD .                     ACG:  FIELD NAME
 SRVC.              KCA Deutag:  CONTRACTOR
 MWDS.                    Baku:  MWD SHOP
 WELL.     A10 (Slot 20) - SCP:  WELL NAME
 JOBN.        AZ-XX-0906192647:  JOB TICKET NUMB
 RIG .                 Chirag1:  RIG NAME
 DCON.     Halliburton Sperry Drilling:  DIRECTNL CONTR
 UNIT.                     N/A:  LOGGING EQUIPMENT ID
 PDAT.          Mean Sea Level:  PERMANENT DATUM
 MDS .        Operator Entered:  MAG DATA SOURCE
 CTRY.              Azerbaijan:  COUNTRY NAME
 UWI .            /AZE00000090:  UNIQUE WELL IDENTIFIER
 API .            /AZE00000090:  API NUMBER
 CNTY.                        :  COUNTY
 PROV.                        :  PROVINCE
 STAT.                        :  STATE
 LOC .                        :  LOCATION
 LMF .             Drill Floor:  LOG MEASURED FROM
 TVDS.m                  36.60:  TVDSS CORRECTN
 LATI.deg                40.08:  LATITUDE
 LONG.deg                51.24:  LONGITUDE
 WHNS.m                  -7.94:  WELL HEAD N/S
 WHEW.m                   1.56:  WELL HEAD E/W
 UTMX.m              520429.26:  UTM X
 UTMY.m             4438973.87:  UTM Y
 DFWL.m                   0.00:  DISTANCE FWL
 DFSL.m                   0.00:  DISTANCE FSL
 SDEP.m                1455.00:  START DEPTH
 TDD .m                3878.01:  TOTAL DEPTH (DRILLER)
 VSDR.deg               112.75:  VERT SEC DIRECT
 GVFD.g                   1.00:  GRAVITY FIELD
 MFLD.nT              50256.00:  MAGNETIC FIELD
 MDIP.deg                59.52:  MAGNETIC DIP
 MDEC.deg                 6.43:  MAGNETIC DECL
 GRDC.deg                 0.16:  GRID CORRECTION
 AZTC.deg                 6.27:  AZM TOTAL CORR
 EPD .m                   0.00:  ELEVATION
 EGL .m                   0.00:  GROUND ELEVATION
 WDMS.m                 121.00:  WD ELEV
 APD .m                  36.60:  DEPTH ABOVE PD
 AGAP.m                  36.60:  AIR GAP
 VSEW.m                   1.56:  VERT SEC E/W
 VSNS.m                  -7.94:  VERT SEC N/S
 DEP .m                1140.01:  DEPTH
 EKB .m                  36.60:  KB ELEVATION
 EDF .m                  36.60:  DF ELEVATION
 TDL .m                1293.00:  TOTAL DEPTH (LOGGER)
 VSC .                       0:  VS TO CLOSURE
 MAGU.                 1849164:  MAGUTM CHECKSUM
~Parameter Information Block
#MNEM.UNIT       Value        Description
#---------     -----------    ---------------------------
 AV  .mps                 2.40:  Ann Velocity 
 AVMX.mps                 2.55:  Max Ann Veloc 
 AZIF.deg               134.35:  Azm, Final 
 BHAT.        Rotary Steerable:  BHA Type 
 BREV.rev               847.00:  Rev Bit Total 
 BROT.�/30m              -2.51:  Build Rotating 
 BS  .in                  8.50:  Bit Size 
 BSZ .in                  8.50:  Bit Size 
 BTPL.psig              700.00:  Bit Press Loss 
 CABU.                     Yes:  Customer Abuse 
 CGEO.          Ilgar Gurbanov:  Customer Geo 
 COMM.                     ��L:  Run Comments 1 
 TCS .hr                140.40:  Time Ciculation Ended 
 CV  .mps                 2.27:  Crit Velocity 
 CVMX.mps                 2.45:  Max Crit Veloc 
 DD1 .         Intigam Rahimov:  Direct Drillr 1 
 DD2 .         Rasim Ibrahimov:  Direct Drillr 2 
 DDSV.                 iCruise:  DD Service 
 DEFF.%                  99.00:  % Det Eff 
 DLRX.�/30m               3.28:  Dogleg Rot Max 
 DLSO.�/30m               0.00:  Dogleg Oriented 
 DLSX.�/30m               0.00:  Dogleg Str Max 
 DRET.      23.30.00 18-Jan-20:  Drill End Time 
 DRST.      01.45.00 11-Jan-20:  Drill Start Tim 
 DTIM.hr                 94.00:  Time Drilling 
 EDEP.m                3878.01:  End Depth 
 ENG1.       Dauren Baktybayev:  Engineer 1 
 ENG2.      Natik Hasanaghayev:  Engineer 2 
 ENG3.          Rustam Safarov:  Engineer 3 
 ETIM.      08.00.00 20-Jan-20:  End Time 
 FLOI.gpm               532.00:  Flow In 
 FLON.gpm               500.00:  Flow In Min 
 FLOS.cptm                0.00:  Fluid Loss 
 FLOX.gpm               540.00:  Flow In Max 
 FTRO.       Formation Presure:  FTWD Run Obj 
 HPRE.                     Yes:  High Pressure 
 HTEM.                      No:  High Temp 
 HYDO.m                   1.80:  Hydro Offset 
 IFIN.deg                39.86:  Inc, Final 
 IMAX.deg                59.73:  Inc Max 
 IMIN.deg                39.25:  Inc Min 
 IMND.m                3816.77:  Inc Min Depth 
 IMXD.m                2596.33:  Inc Max Depth 
 JARR.                      No:  Jarring 
 LETM.      23.30.00 18-Jan-20:  Log End Time 
 LOST.hr                     0:  Lost Rig Time 
 LSTM.      01.45.00 11-Jan-20:  Log Start Time 
 MDCL.ppm             41500.00:  Mud Chlorides 
 MDES.     Inversion Oil/Synthetic:  Mud Desc 
 DFD .sg                  1.48:  Mud Density 
 MDMN.sg                  1.48:  Dens Mud Min 
 MDMX.sg                  1.48:  Dens Mud Max 
 MOIL.                      54:  Run Mud Oil % 
 MOWR.                   72:28:  Run Mud OWR 
 MSND.                       0:  Run Mud Sand % 
 MSOL.                      23:  Run Mud Solids% 
 DFV .spqt               86.00:  Mud Viscosity 
 MWOD.in                  6.75:  MWD Tool OD 
 MWSI.                      No:  Serv Intrp, MWD 
 OTIM.hr                223.40:  Time Operating 
 PCON.           Look Like New:  Pad Condition 
 PMAX.psia            32446.79:  Press Op, Max 
 PV  .cP                 49.00:  Mud PV 
 RUN .                     200:  Run Number 
 ROPA.m/hr               12.48:  ROP Avg 
 ROPN.m/hr                8.00:  ROP Min 
 ROPX.m/hr               27.00:  ROP Max 
 RPMA.rpm               121.00:  RPM Surface Avg 
 RPMN.rpm                60.00:  RPM Surface Min 
 RPMX.rpm               140.00:  RPM Surface Max 
 RRUN.                    L202:  Rig Run Number 
 RTIM.hr                  7.25:  Time Reaming 
 SAZI.deg               123.49:  Azm, Start 
 SDEP.m                2585.01:  Start Depth 
 SIDD.                      No:  Serv Intrp, DD 
 SINC.deg                59.93:  Inc, Start 
 SPPA.psig             3539.00:  SPP Avg 
 SPPN.psig             3050.00:  SPP Min 
 SPPX.psig             3950.00:  SPP Max 
 STIM.      19.00.00 10-Jan-20:  Start Time 
 SVCS.                 DD, MWD:  Services 
 SVER.                    9.20:  Sperry Version 
 TDAT.m                1293.00:  Tot Depth Attmp 
 TDDF.                      No:  Trip for DD 
 TDLG.m                1293.00:  Tot Depth Loggd 
 TFF .                      No:  Trip for Fail 
 TQAA.f-kp               16.00:  Torque Abs Avg 
 TQAN.f-kp               11.00:  Torque Abs Min 
 TQAX.f-kp               18.00:  Torque Abs Max 
 TRRT.�/30m               1.25:  Turn Rotating 
 MRT .                  EWR-M5:  Maximum Recorded Temperature 
 TTMX.degC               84.00:  Max Tool Temp 
 VS01.          AZ90514619R5C6:  Virtual Str1 SN 
 VS02.        AZ90552592N2L2C6:  Virtual Str2 SN 
 VS03.        AZ90571337Z1W1C6:  Virtual Str3 SN 
 VS04.         AZ90513690K23C6:  Virtual Str4 SN 
 VS05.           AZ90594857F11:  Virtual Str5 SN 
 VS06.                13102166:  Virtual Str6 SN 
 WBMN.klb                 7.00:  WOB Min 
 WITN.            Peter Wilson:  Customer Rep 
 WOBA.klb                 9.95:  WOB Avg 
 WOBX.klb                10.00:  WOB Max 
 YP  .lhf2               36.00:  Yield Point 
~Curve Information Block
#MNEM.UNIT                 API CODE     Curve Description
#---------               -----------    ---------------------------
 TIME.HHMMSS            00 000 000 000:  GT Time & Date
 GTDEPTH.m              00 000 000 000:  GT Depth
 GTPQH.psia             00 000 000 000:  GT HR Quartz Pressure
 GTTQ.degC              00 000 000 000:  GT Quartz Temperature
 GTTN.NONE              00 000 000 000:  GT Test Number
 GTET.sec               00 000 000 000:  GT Elapsed Test Time
 GTTVD.m                00 000 000 000:  GT True Vertical Depth
#Other Information
#
#WARRANTY: Halliburton will use its best efforts to furnish customers with 
#accurate information and interpretations that are part of, and incident to, the services 
#provided.  However, Halliburton cannot and does not warrant the accuracy 
#or correctness of such information and interpretations.  Under no circumstances should any 
#such information or interpretation be relied upon as the sole basis for any drilling, 
#completion, production, or financial decision or any procedure involving any risk to the 
#safety of any drilling venture, drilling rig or its crew or any other third party.  The 
#Customer has full responsibility for all drilling, completion and production operation.  
#Halliburton makes no representations or warranties, either expressed or 
#implied, including, but not limited to, the implied warranties of merchantability or fitness 
#for a particular purpose, with respect to the services rendered.  In no event will 
#Halliburton be liable for failure to obtain any particular results or for 
#any damages, including, but not limited to, indirect, special or consequential damages, 
#resulting from the use of any information or interpretation provided by Halliburton.
#
~A           TIME           GTDEPTH  GTPQH  GTTQ  GTTN  GTET   GTTVD  
# ...
   05:11:31.024.18-Jan-2020 3717.16 6357.17 78.84 1.00 276.08 2797.33
   05:11:31.224.18-Jan-2020 3717.16 6357.17 78.84 1.00 276.28 2797.33
   05:11:31.424.18-Jan-2020 3717.16 6358.96 78.84 1.00 276.48 2797.33
   05:11:31.625.18-Jan-2020 3717.16 6357.35 78.84 1.00 276.68 2797.33
   05:11:31.825.18-Jan-2020 3717.16 6366.69 78.84 1.00 276.88 2797.33
   05:11:32.025.18-Jan-2020 3717.16 6359.63 78.84 1.00 277.08 2797.33
   05:11:32.225.18-Jan-2020 3717.16 6359.63 78.84 1.00 277.28 2797.33
   05:11:32.425.18-Jan-2020 3717.16 6355.77 78.84 1.00 277.48 2797.33
   05:11:32.625.18-Jan-2020 3717.16 6355.66 78.84 1.00 277.68 2797.33
   05:11:32.825.18-Jan-2020 3717.16 6354.91 78.84 1.00 277.88 2797.33
   05:11:33.025.18-Jan-2020 3717.16 6363.14 78.84 1.00 278.08 2797.33
   05:11:33.225.18-Jan-2020 3717.16 6363.14 78.84 1.00 278.28 2797.33
   05:11:33.425.18-Jan-2020 3717.16 6354.45 78.84 1.00 278.48 2797.33
   05:11:33.625.18-Jan-2020 3717.16 6360.22 78.84 1.00 278.68 2797.33
   05:11:33.825.18-Jan-2020 3717.16 6356.13 78.84 1.00 278.88 2797.33
   05:11:34.025.18-Jan-2020 3717.16 6365.29 78.84 1.00 279.08 2797.33
   05:11:34.225.18-Jan-2020 3717.16 6365.29 78.84 1.00 279.28 2797.33
   05:11:34.425.18-Jan-2020 3717.16 6358.41 78.84 1.00 279.48 2797.33
   05:11:34.625.18-Jan-2020 3717.16 6359.01 78.84 1.00 279.68 2797.33
   05:11:34.825.18-Jan-2020 3717.16 6357.66 78.84 1.00 279.88 2797.33
   05:11:35.025.18-Jan-2020 3717.16 6356.92 78.84 1.00 280.08 2797.33
   05:11:35.226.18-Jan-2020 3717.16 6356.92 78.84 1.00 280.28 2797.33
   05:11:35.426.18-Jan-2020 3717.16 6355.79 78.84 1.00 280.48 2797.33
   05:11:35.626.18-Jan-2020 3717.16 6355.34 78.84 1.00 280.68 2797.33
   05:11:35.826.18-Jan-2020 3717.16 6359.15 78.84 1.00 280.88 2797.33
   05:11:36.026.18-Jan-2020 3717.16 6357.55 78.84 1.00 281.08 2797.33
   05:11:36.226.18-Jan-2020 3717.16 6357.55 78.84 1.00 281.28 2797.33
   05:11:36.426.18-Jan-2020 3717.16 6354.23 78.84 1.00 281.48 2797.33
   05:11:36.626.18-Jan-2020 3717.16 6356.91 78.84 1.00 281.68 2797.33
   05:11:36.826.18-Jan-2020 3717.16 6358.59 78.84 1.00 281.88 2797.33
   05:11:37.026.18-Jan-2020 3717.16 6357.69 78.84 1.00 282.08 2797.33
   05:11:37.226.18-Jan-2020 3717.16 6357.69 78.84 1.00 282.28 2797.33
   05:11:37.426.18-Jan-2020 3717.16 6365.72 78.84 1.00 282.48 2797.33
   05:11:37.626.18-Jan-2020 3717.16 6360.07 78.84 1.00 282.68 2797.33
   05:11:37.826.18-Jan-2020 3717.16 6355.45 78.84 1.00 282.88 2797.33
   05:11:38.026.18-Jan-2020 3717.16 6361.01 78.84 1.00 283.08 2797.33
   05:11:38.226.18-Jan-2020 3717.16 6361.01 78.84 1.00 283.28 2797.33
   05:11:38.426.18-Jan-2020 3717.16 6357.43 78.84 1.00 283.48 2797.33
   05:11:38.626.18-Jan-2020 3717.16 6354.97 78.84 1.00 283.68 2797.33
   05:11:38.827.18-Jan-2020 3717.16 6356.90 78.84 1.00 283.88 2797.33
   05:11:39.027.18-Jan-2020 3717.16 6355.59 78.84 1.00 284.08 2797.33
   05:11:39.227.18-Jan-2020 3717.16 6355.59 78.84 1.00 284.28 2797.33
   05:11:39.427.18-Jan-2020 3717.16 6355.95 78.84 1.00 284.48 2797.33
   05:11:39.627.18-Jan-2020 3717.16 6356.90 78.84 1.00 284.68 2797.33
   05:11:39.827.18-Jan-2020 3717.16 6362.79 78.84 1.00 284.88 2797.33
   05:11:40.027.18-Jan-2020 3717.16 6357.36 78.84 1.00 285.08 2797.33
   05:11:40.227.18-Jan-2020 3717.16 6357.36 78.84 1.00 285.28 2797.33
   05:11:40.427.18-Jan-2020 3717.16 6359.92 78.84 1.00 285.48 2797.33
   05:11:40.627.18-Jan-2020 3717.16 6356.88 78.84 1.00 285.68 2797.33
   05:11:40.827.18-Jan-2020 3717.16 6361.14 78.84 1.00 285.88 2797.33
   05:11:41.027.18-Jan-2020 3717.16 6361.88 78.84 1.00 286.08 2797.33
   05:11:41.227.18-Jan-2020 3717.16 6361.88 78.84 1.00 286.28 2797.33
   05:11:41.427.18-Jan-2020 3717.16 6357.54 78.84 1.00 286.48 2797.33
   05:11:41.627.18-Jan-2020 3717.16 6354.40 78.84 1.00 286.68 2797.33
   05:11:41.827.18-Jan-2020 3717.16 6355.67 78.84 1.00 286.88 2797.33
   05:11:42.027.18-Jan-2020 3717.16 6354.08 78.84 1.00 287.08 2797.33
   05:11:42.228.18-Jan-2020 3717.16 6354.08 78.84 1.00 287.28 2797.33
   05:11:42.428.18-Jan-2020 3717.16 6354.14 78.84 1.00 287.48 2797.33
   05:11:42.628.18-Jan-2020 3717.16 6355.64 78.84 1.00 287.68 2797.33
   05:11:42.828.18-Jan-2020 3717.16 6365.55 78.84 1.00 287.88 2797.33
   05:11:43.028.18-Jan-2020 3717.16 6361.25 78.84 1.00 288.08 2797.33
   05:11:43.228.18-Jan-2020 3717.16 6361.25 78.84 1.00 288.28 2797.33
   05:11:43.428.18-Jan-2020 3717.16 6357.00 78.84 1.00 288.48 2797.33
   05:11:43.628.18-Jan-2020 3717.16 6358.69 78.84 1.00 288.68 2797.33
   05:11:43.828.18-Jan-2020 3717.16 6357.06 78.84 1.00 288.88 2797.33
   05:11:44.028.18-Jan-2020 3717.16 6358.38 78.84 1.00 289.08 2797.33
   05:11:44.228.18-Jan-2020 3717.16 6358.38 78.84 1.00 289.28 2797.33
   05:11:44.428.18-Jan-2020 3717.16 6356.71 78.84 1.00 289.48 2797.33
   05:11:44.628.18-Jan-2020 3717.16 6355.15 78.84 1.00 289.68 2797.33
   05:11:44.828.18-Jan-2020 3717.16 6357.70 78.84 1.00 289.88 2797.33
   05:11:45.028.18-Jan-2020 3717.16 6358.65 78.84 1.00 290.08 2797.33
   05:11:45.228.18-Jan-2020 3717.16 6358.65 78.84 1.00 290.28 2797.33
   05:11:45.428.18-Jan-2020 3717.16 6355.19 78.84 1.00 290.48 2797.33
   05:11:45.628.18-Jan-2020 3717.16 6357.05 78.84 1.00 290.68 2797.33
   05:11:45.829.18-Jan-2020 3717.16 6358.35 78.84 1.00 290.88 2797.33
   05:11:46.029.18-Jan-2020 3717.16 6356.21 78.84 1.00 291.08 2797.33
   05:11:46.229.18-Jan-2020 3717.16 6356.21 78.84 1.00 291.28 2797.33
   05:11:46.429.18-Jan-2020 3717.16 6368.50 78.84 1.00 291.48 2797.33
   05:11:46.629.18-Jan-2020 3717.16 6356.13 78.84 1.00 291.68 2797.33
   05:11:46.829.18-Jan-2020 3717.16 6355.17 78.84 1.00 291.88 2797.33
   05:11:47.029.18-Jan-2020 3717.16 6359.62 78.84 1.00 292.08 2797.33
   05:11:47.229.18-Jan-2020 3717.16 6359.62 78.84 1.00 292.28 2797.33
   05:11:47.429.18-Jan-2020 3717.16 6357.44 78.84 1.00 292.48 2797.33
   05:11:47.629.18-Jan-2020 3717.16 6356.44 78.84 1.00 292.68 2797.33
   05:11:47.829.18-Jan-2020 3717.16 6356.34 78.84 1.00 292.88 2797.33
   05:11:48.029.18-Jan-2020 3717.16 6356.09 78.84 1.00 293.08 2797.33
   05:11:48.229.18-Jan-2020 3717.16 6356.09 78.84 1.00 293.28 2797.33
   05:11:48.429.18-Jan-2020 3717.16 6357.18 78.84 1.00 293.48 2797.33
   05:11:48.629.18-Jan-2020 3717.16 6356.95 78.84 1.00 293.68 2797.33
   05:11:48.829.18-Jan-2020 3717.16 6368.30 78.83 1.00 293.88 2797.33
   05:11:49.029.18-Jan-2020 3717.16 6354.47 78.83 1.00 294.08 2797.33
   05:11:49.229.18-Jan-2020 3717.16 6354.47 78.83 1.00 294.28 2797.33
   05:11:49.430.18-Jan-2020 3717.16 6360.52 78.83 1.00 294.48 2797.33
   05:11:49.630.18-Jan-2020 3717.16 6357.93 78.83 1.00 294.68 2797.33
   05:11:49.830.18-Jan-2020 3717.16 6368.51 78.83 1.00 294.88 2797.33
   05:11:50.030.18-Jan-2020 3717.16 6357.39 78.83 1.00 295.08 2797.33
   05:11:50.230.18-Jan-2020 3717.16 6357.39 78.83 1.00 295.28 2797.33
   05:11:50.430.18-Jan-2020 3717.16 6357.01 78.83 1.00 295.48 2797.33
   05:11:50.630.18-Jan-2020 3717.16 6355.65 78.83 1.00 295.68 2797.33
   05:11:50.830.18-Jan-2020 3717.16 6354.38 78.83 1.00 295.88 2797.33
   05:11:51.030.18-Jan-2020 3717.16 6354.19 78.83 1.00 296.08 2797.33
   05:11:51.230.18-Jan-2020 3717.16 6354.19 78.83 1.00 296.28 2797.33
   05:11:51.430.18-Jan-2020 3717.16 6356.21 78.83 1.00 296.48 2797.33
   05:11:51.630.18-Jan-2020 3717.16 6358.13 78.83 1.00 296.68 2797.33
   05:11:51.830.18-Jan-2020 3717.16 6356.85 78.83 1.00 296.88 2797.33
   05:11:52.030.18-Jan-2020 3717.16 6365.86 78.83 1.00 297.08 2797.33
   05:11:52.230.18-Jan-2020 3717.16 6365.86 78.83 1.00 297.28 2797.33
   05:11:52.430.18-Jan-2020 3717.16 6357.82 78.83 1.00 297.48 2797.33
   05:11:52.630.18-Jan-2020 3717.16 6358.98 78.83 1.00 297.68 2797.33
   05:11:52.831.18-Jan-2020 3717.16 6357.91 78.83 1.00 297.88 2797.33
   05:11:53.031.18-Jan-2020 3717.16 6357.00 78.83 1.00 298.08 2797.33
   05:11:53.231.18-Jan-2020 3717.16 6357.00 78.83 1.00 298.28 2797.33
   05:11:53.431.18-Jan-2020 3717.16 6355.58 78.83 1.00 298.48 2797.33
   05:11:53.631.18-Jan-2020 3717.16 6354.91 78.83 1.00 298.68 2797.33
   05:11:53.831.18-Jan-2020 3717.16 6357.42 78.83 1.00 298.88 2797.33
