~Version Information
 VERS.                  2.0:   CWLS log ASCII Standard -VERSION 2.0
 WRAP.                   NO:   One line per depth step
~Well Information Block
#MNEM.UNIT     VALUE/NAME     DESCRIPTION
#---------     -----------    ---------------------------
 STRT.S             05:06:54 18-Jan-20: START TIME 05:06:54 18-Jan-20
 STOP.S             05:17:00 18-Jan-20: STOP TIME  05:17:00 18-Jan-20
 STEP.S                   0.00: STEP TIME
 NULL.                 -999.25: NULL VALUE
 DFWT.                        :  DIST FWL TEXT
 DFST.                        :  DIST FSL TEXT
 DMF .             Drill Floor:  DRILL MEAS FROM
 STIM.      09.30.00 26-Dec-19:  START TIME
 DATE.      08.00.00 20-Jan-20:  END TIME
 SPUD.               23-Nov-19:  SPUD DATE
 NREF.                    Grid:  NORTH REFERENCE
 HPTY.       Minimum Curvature:  HOLE POS TYPE
 DMOD.             Drill Model:  DRILL MOD DESC
 SVYD.                  Survey:  SURVEY DESC
 ILTD.               Lithology:  INTERP LTH DESC
 FTOP.          Formation Tops:  FORM TOPS DESC
 SON .        AZ-XX-0906192647:  JOB NUMBER
 WTYP.                Deviated:  WELL TYPE
 COMP.     BP Exploration (Caspian Sea) Ltd:  COMPANY
 BASE.              Azerbaijan:  LOGGING EQUIPMENT BASE LOCATION
 REGN.                 Eurasia:  REGION
 FLD .                     ACG:  FIELD NAME
 SRVC.              KCA Deutag:  CONTRACTOR
 MWDS.                    Baku:  MWD SHOP
 WELL.     A10 (Slot 20) - SCP:  WELL NAME
 JOBN.        AZ-XX-0906192647:  JOB TICKET NUMB
 RIG .                 Chirag1:  RIG NAME
 DCON.     Halliburton Sperry Drilling:  DIRECTNL CONTR
 UNIT.                     N/A:  LOGGING EQUIPMENT ID
 PDAT.          Mean Sea Level:  PERMANENT DATUM
 MDS .        Operator Entered:  MAG DATA SOURCE
 CTRY.              Azerbaijan:  COUNTRY NAME
 UWI .            /AZE00000090:  UNIQUE WELL IDENTIFIER
 API .            /AZE00000090:  API NUMBER
 CNTY.                        :  COUNTY
 PROV.                        :  PROVINCE
 STAT.                        :  STATE
 LOC .                        :  LOCATION
 LMF .             Drill Floor:  LOG MEASURED FROM
 TVDS.m                  36.60:  TVDSS CORRECTN
 LATI.deg                40.08:  LATITUDE
 LONG.deg                51.24:  LONGITUDE
 WHNS.m                  -7.94:  WELL HEAD N/S
 WHEW.m                   1.56:  WELL HEAD E/W
 UTMX.m              520429.26:  UTM X
 UTMY.m             4438973.87:  UTM Y
 DFWL.m                   0.00:  DISTANCE FWL
 DFSL.m                   0.00:  DISTANCE FSL
 SDEP.m                1455.00:  START DEPTH
 TDD .m                3878.01:  TOTAL DEPTH (DRILLER)
 VSDR.deg               112.75:  VERT SEC DIRECT
 GVFD.g                   1.00:  GRAVITY FIELD
 MFLD.nT              50256.00:  MAGNETIC FIELD
 MDIP.deg                59.52:  MAGNETIC DIP
 MDEC.deg                 6.43:  MAGNETIC DECL
 GRDC.deg                 0.16:  GRID CORRECTION
 AZTC.deg                 6.27:  AZM TOTAL CORR
 EPD .m                   0.00:  ELEVATION
 EGL .m                   0.00:  GROUND ELEVATION
 WDMS.m                 121.00:  WD ELEV
 APD .m                  36.60:  DEPTH ABOVE PD
 AGAP.m                  36.60:  AIR GAP
 VSEW.m                   1.56:  VERT SEC E/W
 VSNS.m                  -7.94:  VERT SEC N/S
 DEP .m                1140.01:  DEPTH
 EKB .m                  36.60:  KB ELEVATION
 EDF .m                  36.60:  DF ELEVATION
 TDL .m                1293.00:  TOTAL DEPTH (LOGGER)
 VSC .                       0:  VS TO CLOSURE
 MAGU.                 1849164:  MAGUTM CHECKSUM
~Parameter Information Block
#MNEM.UNIT       Value        Description
#---------     -----------    ---------------------------
 AV  .mps                 2.40:  Ann Velocity 
 AVMX.mps                 2.55:  Max Ann Veloc 
 AZIF.deg               134.35:  Azm, Final 
 BHAT.        Rotary Steerable:  BHA Type 
 BREV.rev               847.00:  Rev Bit Total 
 BROT.�/30m              -2.51:  Build Rotating 
 BS  .in                  8.50:  Bit Size 
 BSZ .in                  8.50:  Bit Size 
 BTPL.psig              700.00:  Bit Press Loss 
 CABU.                     Yes:  Customer Abuse 
 CGEO.          Ilgar Gurbanov:  Customer Geo 
 COMM.                     ��L:  Run Comments 1 
 TCS .hr                140.40:  Time Ciculation Ended 
 CV  .mps                 2.27:  Crit Velocity 
 CVMX.mps                 2.45:  Max Crit Veloc 
 DD1 .         Intigam Rahimov:  Direct Drillr 1 
 DD2 .         Rasim Ibrahimov:  Direct Drillr 2 
 DDSV.                 iCruise:  DD Service 
 DEFF.%                  99.00:  % Det Eff 
 DLRX.�/30m               3.28:  Dogleg Rot Max 
 DLSO.�/30m               0.00:  Dogleg Oriented 
 DLSX.�/30m               0.00:  Dogleg Str Max 
 DRET.      23.30.00 18-Jan-20:  Drill End Time 
 DRST.      01.45.00 11-Jan-20:  Drill Start Tim 
 DTIM.hr                 94.00:  Time Drilling 
 EDEP.m                3878.01:  End Depth 
 ENG1.       Dauren Baktybayev:  Engineer 1 
 ENG2.      Natik Hasanaghayev:  Engineer 2 
 ENG3.          Rustam Safarov:  Engineer 3 
 ETIM.      08.00.00 20-Jan-20:  End Time 
 FLOI.gpm               532.00:  Flow In 
 FLON.gpm               500.00:  Flow In Min 
 FLOS.cptm                0.00:  Fluid Loss 
 FLOX.gpm               540.00:  Flow In Max 
 FTRO.       Formation Presure:  FTWD Run Obj 
 HPRE.                     Yes:  High Pressure 
 HTEM.                      No:  High Temp 
 HYDO.m                   1.80:  Hydro Offset 
 IFIN.deg                39.86:  Inc, Final 
 IMAX.deg                59.73:  Inc Max 
 IMIN.deg                39.25:  Inc Min 
 IMND.m                3816.77:  Inc Min Depth 
 IMXD.m                2596.33:  Inc Max Depth 
 JARR.                      No:  Jarring 
 LETM.      23.30.00 18-Jan-20:  Log End Time 
 LOST.hr                     0:  Lost Rig Time 
 LSTM.      01.45.00 11-Jan-20:  Log Start Time 
 MDCL.ppm             41500.00:  Mud Chlorides 
 MDES.     Inversion Oil/Synthetic:  Mud Desc 
 DFD .sg                  1.48:  Mud Density 
 MDMN.sg                  1.48:  Dens Mud Min 
 MDMX.sg                  1.48:  Dens Mud Max 
 MOIL.                      54:  Run Mud Oil % 
 MOWR.                   72:28:  Run Mud OWR 
 MSND.                       0:  Run Mud Sand % 
 MSOL.                      23:  Run Mud Solids% 
 DFV .spqt               86.00:  Mud Viscosity 
 MWOD.in                  6.75:  MWD Tool OD 
 MWSI.                      No:  Serv Intrp, MWD 
 OTIM.hr                223.40:  Time Operating 
 PCON.           Look Like New:  Pad Condition 
 PMAX.psia            32446.79:  Press Op, Max 
 PV  .cP                 49.00:  Mud PV 
 RUN .                     200:  Run Number 
 ROPA.m/hr               12.48:  ROP Avg 
 ROPN.m/hr                8.00:  ROP Min 
 ROPX.m/hr               27.00:  ROP Max 
 RPMA.rpm               121.00:  RPM Surface Avg 
 RPMN.rpm                60.00:  RPM Surface Min 
 RPMX.rpm               140.00:  RPM Surface Max 
 RRUN.                    L202:  Rig Run Number 
 RTIM.hr                  7.25:  Time Reaming 
 SAZI.deg               123.49:  Azm, Start 
 SDEP.m                2585.01:  Start Depth 
 SIDD.                      No:  Serv Intrp, DD 
 SINC.deg                59.93:  Inc, Start 
 SPPA.psig             3539.00:  SPP Avg 
 SPPN.psig             3050.00:  SPP Min 
 SPPX.psig             3950.00:  SPP Max 
 STIM.      19.00.00 10-Jan-20:  Start Time 
 SVCS.                 DD, MWD:  Services 
 SVER.                    9.20:  Sperry Version 
 TDAT.m                1293.00:  Tot Depth Attmp 
 TDDF.                      No:  Trip for DD 
 TDLG.m                1293.00:  Tot Depth Loggd 
 TFF .                      No:  Trip for Fail 
 TQAA.f-kp               16.00:  Torque Abs Avg 
 TQAN.f-kp               11.00:  Torque Abs Min 
 TQAX.f-kp               18.00:  Torque Abs Max 
 TRRT.�/30m               1.25:  Turn Rotating 
 MRT .                  EWR-M5:  Maximum Recorded Temperature 
 TTMX.degC               84.00:  Max Tool Temp 
 VS01.          AZ90514619R5C6:  Virtual Str1 SN 
 VS02.        AZ90552592N2L2C6:  Virtual Str2 SN 
 VS03.        AZ90571337Z1W1C6:  Virtual Str3 SN 
 VS04.         AZ90513690K23C6:  Virtual Str4 SN 
 VS05.           AZ90594857F11:  Virtual Str5 SN 
 VS06.                13102166:  Virtual Str6 SN 
 WBMN.klb                 7.00:  WOB Min 
 WITN.            Peter Wilson:  Customer Rep 
 WOBA.klb                 9.95:  WOB Avg 
 WOBX.klb                10.00:  WOB Max 
 YP  .lhf2               36.00:  Yield Point 
~Curve Information Block
#MNEM.UNIT                 API CODE     Curve Description
#---------               -----------    ---------------------------
 TIME.HHMMSS            00 000 000 000:  GT Time & Date
 GTDEPTH.m              00 000 000 000:  GT Depth
 GTPQH.psia             00 000 000 000:  GT HR Quartz Pressure
 GTTQ.degC              00 000 000 000:  GT Quartz Temperature
 GTTN.NONE              00 000 000 000:  GT Test Number
 GTET.sec               00 000 000 000:  GT Elapsed Test Time
 GTTVD.m                00 000 000 000:  GT True Vertical Depth
#Other Information
#
#WARRANTY: Halliburton will use its best efforts to furnish customers with 
#accurate information and interpretations that are part of, and incident to, the services 
#provided.  However, Halliburton cannot and does not warrant the accuracy 
#or correctness of such information and interpretations.  Under no circumstances should any 
#such information or interpretation be relied upon as the sole basis for any drilling, 
#completion, production, or financial decision or any procedure involving any risk to the 
#safety of any drilling venture, drilling rig or its crew or any other third party.  The 
#Customer has full responsibility for all drilling, completion and production operation.  
#Halliburton makes no representations or warranties, either expressed or 
#implied, including, but not limited to, the implied warranties of merchantability or fitness 
#for a particular purpose, with respect to the services rendered.  In no event will 
#Halliburton be liable for failure to obtain any particular results or for 
#any damages, including, but not limited to, indirect, special or consequential damages, 
#resulting from the use of any information or interpretation provided by Halliburton.
#
~A           TIME           GTDEPTH  GTPQH  GTTQ  GTTN  GTET   GTTVD  
# ...
   05:08:03.966.18-Jan-2020 3717.16 6351.30 78.97 1.00  69.02 2797.33
   05:08:04.166.18-Jan-2020 3717.16 6351.30 78.97 1.00  69.22 2797.33
   05:08:04.366.18-Jan-2020 3717.16 6352.79 78.97 1.00  69.42 2797.33
   05:08:04.566.18-Jan-2020 3717.16 6352.73 78.97 1.00  69.62 2797.33
   05:08:04.766.18-Jan-2020 3717.16 6351.55 78.97 1.00  69.82 2797.33
   05:08:04.966.18-Jan-2020 3717.16 6352.06 78.97 1.00  70.02 2797.33
   05:08:05.166.18-Jan-2020 3717.16 6352.06 78.97 1.00  70.22 2797.33
   05:08:05.366.18-Jan-2020 3717.16 6355.48 78.97 1.00  70.42 2797.33
   05:08:05.566.18-Jan-2020 3717.16 6351.25 78.97 1.00  70.62 2797.33
   05:08:05.766.18-Jan-2020 3717.16 6362.13 78.97 1.00  70.82 2797.33
   05:08:05.966.18-Jan-2020 3717.16 6358.64 78.97 1.00  71.02 2797.33
   05:08:06.166.18-Jan-2020 3717.16 6358.64 78.97 1.00  71.22 2797.33
   05:08:06.366.18-Jan-2020 3717.16 6354.84 78.97 1.00  71.42 2797.33
   05:08:06.566.18-Jan-2020 3717.16 6350.78 78.97 1.00  71.62 2797.33
   05:08:06.766.18-Jan-2020 3717.16 6355.04 78.97 1.00  71.82 2797.33
   05:08:06.967.18-Jan-2020 3717.16 6354.28 78.97 1.00  72.02 2797.33
   05:08:07.167.18-Jan-2020 3717.16 6354.28 78.97 1.00  72.22 2797.33
   05:08:07.367.18-Jan-2020 3717.16 6351.48 78.97 1.00  72.42 2797.33
   05:08:07.567.18-Jan-2020 3717.16 6352.79 78.97 1.00  72.62 2797.33
   05:08:07.767.18-Jan-2020 3717.16 6352.80 78.97 1.00  72.82 2797.33
   05:08:07.967.18-Jan-2020 3717.16 6356.43 78.97 1.00  73.02 2797.33
   05:08:08.167.18-Jan-2020 3717.16 6356.43 78.97 1.00  73.22 2797.33
   05:08:08.367.18-Jan-2020 3717.16 6353.29 78.97 1.00  73.42 2797.33
   05:08:08.567.18-Jan-2020 3717.16 6355.41 78.96 1.00  73.62 2797.33
   05:08:08.767.18-Jan-2020 3717.16 6355.16 78.96 1.00  73.82 2797.33
   05:08:08.967.18-Jan-2020 3717.16 6354.85 78.96 1.00  74.02 2797.33
   05:08:09.167.18-Jan-2020 3717.16 6354.85 78.96 1.00  74.22 2797.33
   05:08:09.367.18-Jan-2020 3717.16 6367.02 78.96 1.00  74.42 2797.33
   05:08:09.567.18-Jan-2020 3717.16 6353.14 78.96 1.00  74.62 2797.33
   05:08:09.767.18-Jan-2020 3717.16 6353.21 78.96 1.00  74.82 2797.33
   05:08:09.967.18-Jan-2020 3717.16 6355.45 78.96 1.00  75.02 2797.33
   05:08:10.167.18-Jan-2020 3717.16 6355.45 78.96 1.00  75.22 2797.33
   05:08:10.368.18-Jan-2020 3717.16 6354.06 78.96 1.00  75.42 2797.33
   05:08:10.568.18-Jan-2020 3717.16 6355.54 78.96 1.00  75.62 2797.33
   05:08:10.768.18-Jan-2020 3717.16 6354.45 78.96 1.00  75.82 2797.33
   05:08:10.968.18-Jan-2020 3717.16 6352.68 78.96 1.00  76.02 2797.33
   05:08:11.168.18-Jan-2020 3717.16 6352.68 78.96 1.00  76.22 2797.33
   05:08:11.368.18-Jan-2020 3717.16 6354.36 78.96 1.00  76.42 2797.33
   05:08:11.568.18-Jan-2020 3717.16 6354.80 78.96 1.00  76.62 2797.33
   05:08:11.768.18-Jan-2020 3717.16 6364.87 78.96 1.00  76.82 2797.33
   05:08:11.968.18-Jan-2020 3717.16 6353.74 78.96 1.00  77.02 2797.33
   05:08:12.168.18-Jan-2020 3717.16 6353.74 78.96 1.00  77.22 2797.33
   05:08:12.368.18-Jan-2020 3717.16 6357.39 78.96 1.00  77.42 2797.33
   05:08:12.568.18-Jan-2020 3717.16 6353.40 78.96 1.00  77.62 2797.33
   05:08:12.768.18-Jan-2020 3717.16 6366.16 78.96 1.00  77.82 2797.33
   05:08:12.968.18-Jan-2020 3717.16 6353.52 78.96 1.00  78.02 2797.33
   05:08:13.168.18-Jan-2020 3717.16 6353.52 78.96 1.00  78.22 2797.33
   05:08:13.368.18-Jan-2020 3717.16 6354.24 78.96 1.00  78.42 2797.33
   05:08:13.568.18-Jan-2020 3717.16 6353.76 78.96 1.00  78.62 2797.33
   05:08:13.768.18-Jan-2020 3717.16 6352.42 78.96 1.00  78.82 2797.33
   05:08:13.969.18-Jan-2020 3717.16 6361.19 78.96 1.00  79.02 2797.33
   05:08:14.169.18-Jan-2020 3717.16 6361.19 78.96 1.00  79.22 2797.33
   05:08:14.369.18-Jan-2020 3717.16 6351.66 78.96 1.00  79.42 2797.33
   05:08:14.569.18-Jan-2020 3717.16 6367.62 78.96 1.00  79.62 2797.33
   05:08:14.769.18-Jan-2020 3717.16 6357.17 78.96 1.00  79.82 2797.33
   05:08:14.969.18-Jan-2020 3717.16 6353.33 78.96 1.00  80.02 2797.33
   05:08:15.169.18-Jan-2020 3717.16 6353.33 78.96 1.00  80.22 2797.33
   05:08:15.369.18-Jan-2020 3717.16 6355.83 78.96 1.00  80.42 2797.33
   05:08:15.569.18-Jan-2020 3717.16 6357.17 78.96 1.00  80.62 2797.33
   05:08:15.769.18-Jan-2020 3717.16 6357.40 78.96 1.00  80.82 2797.33
   05:08:15.969.18-Jan-2020 3717.16 6356.13 78.96 1.00  81.02 2797.33
   05:08:16.169.18-Jan-2020 3717.16 6356.13 78.96 1.00  81.22 2797.33
   05:08:16.369.18-Jan-2020 3717.16 6353.91 78.96 1.00  81.42 2797.33
   05:08:16.569.18-Jan-2020 3717.16 6355.61 78.96 1.00  81.62 2797.33
   05:08:16.769.18-Jan-2020 3717.16 6358.24 78.96 1.00  81.82 2797.33
   05:08:16.969.18-Jan-2020 3717.16 6355.59 78.96 1.00  82.02 2797.33
   05:08:17.169.18-Jan-2020 3717.16 6355.59 78.96 1.00  82.22 2797.33
   05:08:17.369.18-Jan-2020 3717.16 6356.67 78.96 1.00  82.42 2797.33
   05:08:17.570.18-Jan-2020 3717.16 6355.75 78.96 1.00  82.62 2797.33
   05:08:17.770.18-Jan-2020 3717.16 6354.65 78.96 1.00  82.82 2797.33
   05:08:17.970.18-Jan-2020 3717.16 6355.14 78.96 1.00  83.02 2797.33
   05:08:18.170.18-Jan-2020 3717.16 6355.14 78.96 1.00  83.22 2797.33
   05:08:18.370.18-Jan-2020 3717.16 6357.32 78.96 1.00  83.42 2797.33
   05:08:18.570.18-Jan-2020 3717.16 6355.20 78.96 1.00  83.62 2797.33
   05:08:18.770.18-Jan-2020 3717.16 6355.96 78.96 1.00  83.82 2797.33
   05:08:18.970.18-Jan-2020 3717.16 6356.13 78.96 1.00  84.02 2797.33
   05:08:19.170.18-Jan-2020 3717.16 6356.13 78.96 1.00  84.22 2797.33
   05:08:19.370.18-Jan-2020 3717.16 6355.62 78.96 1.00  84.42 2797.33
   05:08:19.570.18-Jan-2020 3717.16 6353.79 78.96 1.00  84.62 2797.33
   05:08:19.770.18-Jan-2020 3717.16 6353.41 78.96 1.00  84.82 2797.33
   05:08:19.970.18-Jan-2020 3717.16 6354.41 78.96 1.00  85.02 2797.33
   05:08:20.170.18-Jan-2020 3717.16 6354.41 78.96 1.00  85.22 2797.33
   05:08:20.370.18-Jan-2020 3717.16 6354.72 78.96 1.00  85.42 2797.33
   05:08:20.570.18-Jan-2020 3717.16 6363.03 78.96 1.00  85.62 2797.33
   05:08:20.770.18-Jan-2020 3717.16 6355.85 78.96 1.00  85.82 2797.33
   05:08:20.971.18-Jan-2020 3717.16 6356.72 78.96 1.00  86.02 2797.33
   05:08:21.171.18-Jan-2020 3717.16 6356.72 78.96 1.00  86.22 2797.33
   05:08:21.371.18-Jan-2020 3717.16 6354.90 78.96 1.00  86.42 2797.33
   05:08:21.571.18-Jan-2020 3717.16 6367.60 78.95 1.00  86.62 2797.33
   05:08:21.771.18-Jan-2020 3717.16 6355.40 78.95 1.00  86.82 2797.33
   05:08:21.971.18-Jan-2020 3717.16 6354.53 78.95 1.00  87.02 2797.33
   05:08:22.171.18-Jan-2020 3717.16 6354.53 78.95 1.00  87.22 2797.33
   05:08:22.371.18-Jan-2020 3717.16 6354.49 78.95 1.00  87.42 2797.33
   05:08:22.571.18-Jan-2020 3717.16 6353.73 78.95 1.00  87.62 2797.33
   05:08:22.771.18-Jan-2020 3717.16 6361.85 78.95 1.00  87.82 2797.33
   05:08:22.971.18-Jan-2020 3717.16 6356.42 78.95 1.00  88.02 2797.33
   05:08:23.171.18-Jan-2020 3717.16 6356.42 78.95 1.00  88.22 2797.33
   05:08:23.371.18-Jan-2020 3717.16 6359.93 78.95 1.00  88.43 2797.33
   05:08:23.571.18-Jan-2020 3717.16 6363.39 78.95 1.00  88.63 2797.33
   05:08:23.771.18-Jan-2020 3717.16 6358.81 78.95 1.00  88.83 2797.33
   05:08:23.971.18-Jan-2020 3717.16 6353.15 78.95 1.00  89.03 2797.33
   05:08:24.171.18-Jan-2020 3717.16 6353.15 78.95 1.00  89.23 2797.33
   05:08:24.371.18-Jan-2020 3717.16 6357.00 78.95 1.00  89.43 2797.33
   05:08:24.572.18-Jan-2020 3717.16 6357.70 78.95 1.00  89.63 2797.33
   05:08:24.772.18-Jan-2020 3717.16 6356.49 78.95 1.00  89.83 2797.33
   05:08:24.972.18-Jan-2020 3717.16 6355.67 78.95 1.00  90.03 2797.33
   05:08:25.172.18-Jan-2020 3717.16 6355.67 78.95 1.00  90.23 2797.33
   05:08:25.372.18-Jan-2020 3717.16 6356.44 78.95 1.00  90.43 2797.33
   05:08:25.572.18-Jan-2020 3717.16 6359.81 78.95 1.00  90.63 2797.33
   05:08:25.772.18-Jan-2020 3717.16 6358.12 78.95 1.00  90.83 2797.33
   05:08:25.972.18-Jan-2020 3717.16 6356.25 78.95 1.00  91.03 2797.33
   05:08:26.172.18-Jan-2020 3717.16 6356.25 78.95 1.00  91.23 2797.33
   05:08:26.372.18-Jan-2020 3717.16 6358.98 78.95 1.00  91.43 2797.33
   05:08:26.572.18-Jan-2020 3717.16 6357.38 78.95 1.00  91.63 2797.33
   05:08:26.772.18-Jan-2020 3717.16 6357.80 78.95 1.00  91.83 2797.33
