~Version Information
 VERS.                  2.0:   CWLS log ASCII Standard -VERSION 2.0
 WRAP.                   NO:   One line per depth step
~Well Information Block
#MNEM.UNIT     VALUE/NAME     DESCRIPTION
#---------     -----------    ---------------------------
 STRT.S             05:06:54 18-Jan-20: START TIME 05:06:54 18-Jan-20
 STOP.S             05:17:00 18-Jan-20: STOP TIME  05:17:00 18-Jan-20
 STEP.S                   0.00: STEP TIME
 NULL.                 -999.25: NULL VALUE
 DFWT.                        :  DIST FWL TEXT
 DFST.                        :  DIST FSL TEXT
 DMF .             Drill Floor:  DRILL MEAS FROM
 STIM.      09.30.00 26-Dec-19:  START TIME
 DATE.      08.00.00 20-Jan-20:  END TIME
 SPUD.               23-Nov-19:  SPUD DATE
 NREF.                    Grid:  NORTH REFERENCE
 HPTY.       Minimum Curvature:  HOLE POS TYPE
 DMOD.             Drill Model:  DRILL MOD DESC
 SVYD.                  Survey:  SURVEY DESC
 ILTD.               Lithology:  INTERP LTH DESC
 FTOP.          Formation Tops:  FORM TOPS DESC
 SON .        AZ-XX-0906192647:  JOB NUMBER
 WTYP.                Deviated:  WELL TYPE
 COMP.     BP Exploration (Caspian Sea) Ltd:  COMPANY
 BASE.              Azerbaijan:  LOGGING EQUIPMENT BASE LOCATION
 REGN.                 Eurasia:  REGION
 FLD .                     ACG:  FIELD NAME
 SRVC.              KCA Deutag:  CONTRACTOR
 MWDS.                    Baku:  MWD SHOP
 WELL.     A10 (Slot 20) - SCP:  WELL NAME
 JOBN.        AZ-XX-0906192647:  JOB TICKET NUMB
 RIG .                 Chirag1:  RIG NAME
 DCON.     Halliburton Sperry Drilling:  DIRECTNL CONTR
 UNIT.                     N/A:  LOGGING EQUIPMENT ID
 PDAT.          Mean Sea Level:  PERMANENT DATUM
 MDS .        Operator Entered:  MAG DATA SOURCE
 CTRY.              Azerbaijan:  COUNTRY NAME
 UWI .            /AZE00000090:  UNIQUE WELL IDENTIFIER
 API .            /AZE00000090:  API NUMBER
 CNTY.                        :  COUNTY
 PROV.                        :  PROVINCE
 STAT.                        :  STATE
 LOC .                        :  LOCATION
 LMF .             Drill Floor:  LOG MEASURED FROM
 TVDS.m                  36.60:  TVDSS CORRECTN
 LATI.deg                40.08:  LATITUDE
 LONG.deg                51.24:  LONGITUDE
 WHNS.m                  -7.94:  WELL HEAD N/S
 WHEW.m                   1.56:  WELL HEAD E/W
 UTMX.m              520429.26:  UTM X
 UTMY.m             4438973.87:  UTM Y
 DFWL.m                   0.00:  DISTANCE FWL
 DFSL.m                   0.00:  DISTANCE FSL
 SDEP.m                1455.00:  START DEPTH
 TDD .m                3878.01:  TOTAL DEPTH (DRILLER)
 VSDR.deg               112.75:  VERT SEC DIRECT
 GVFD.g                   1.00:  GRAVITY FIELD
 MFLD.nT              50256.00:  MAGNETIC FIELD
 MDIP.deg                59.52:  MAGNETIC DIP
 MDEC.deg                 6.43:  MAGNETIC DECL
 GRDC.deg                 0.16:  GRID CORRECTION
 AZTC.deg                 6.27:  AZM TOTAL CORR
 EPD .m                   0.00:  ELEVATION
 EGL .m                   0.00:  GROUND ELEVATION
 WDMS.m                 121.00:  WD ELEV
 APD .m                  36.60:  DEPTH ABOVE PD
 AGAP.m                  36.60:  AIR GAP
 VSEW.m                   1.56:  VERT SEC E/W
 VSNS.m                  -7.94:  VERT SEC N/S
 DEP .m                1140.01:  DEPTH
 EKB .m                  36.60:  KB ELEVATION
 EDF .m                  36.60:  DF ELEVATION
 TDL .m                1293.00:  TOTAL DEPTH (LOGGER)
 VSC .                       0:  VS TO CLOSURE
 MAGU.                 1849164:  MAGUTM CHECKSUM
~Parameter Information Block
#MNEM.UNIT       Value        Description
#---------     -----------    ---------------------------
 AV  .mps                 2.40:  Ann Velocity 
 AVMX.mps                 2.55:  Max Ann Veloc 
 AZIF.deg               134.35:  Azm, Final 
 BHAT.        Rotary Steerable:  BHA Type 
 BREV.rev               847.00:  Rev Bit Total 
 BROT.�/30m              -2.51:  Build Rotating 
 BS  .in                  8.50:  Bit Size 
 BSZ .in                  8.50:  Bit Size 
 BTPL.psig              700.00:  Bit Press Loss 
 CABU.                     Yes:  Customer Abuse 
 CGEO.          Ilgar Gurbanov:  Customer Geo 
 COMM.                     ��L:  Run Comments 1 
 TCS .hr                140.40:  Time Ciculation Ended 
 CV  .mps                 2.27:  Crit Velocity 
 CVMX.mps                 2.45:  Max Crit Veloc 
 DD1 .         Intigam Rahimov:  Direct Drillr 1 
 DD2 .         Rasim Ibrahimov:  Direct Drillr 2 
 DDSV.                 iCruise:  DD Service 
 DEFF.%                  99.00:  % Det Eff 
 DLRX.�/30m               3.28:  Dogleg Rot Max 
 DLSO.�/30m               0.00:  Dogleg Oriented 
 DLSX.�/30m               0.00:  Dogleg Str Max 
 DRET.      23.30.00 18-Jan-20:  Drill End Time 
 DRST.      01.45.00 11-Jan-20:  Drill Start Tim 
 DTIM.hr                 94.00:  Time Drilling 
 EDEP.m                3878.01:  End Depth 
 ENG1.       Dauren Baktybayev:  Engineer 1 
 ENG2.      Natik Hasanaghayev:  Engineer 2 
 ENG3.          Rustam Safarov:  Engineer 3 
 ETIM.      08.00.00 20-Jan-20:  End Time 
 FLOI.gpm               532.00:  Flow In 
 FLON.gpm               500.00:  Flow In Min 
 FLOS.cptm                0.00:  Fluid Loss 
 FLOX.gpm               540.00:  Flow In Max 
 FTRO.       Formation Presure:  FTWD Run Obj 
 HPRE.                     Yes:  High Pressure 
 HTEM.                      No:  High Temp 
 HYDO.m                   1.80:  Hydro Offset 
 IFIN.deg                39.86:  Inc, Final 
 IMAX.deg                59.73:  Inc Max 
 IMIN.deg                39.25:  Inc Min 
 IMND.m                3816.77:  Inc Min Depth 
 IMXD.m                2596.33:  Inc Max Depth 
 JARR.                      No:  Jarring 
 LETM.      23.30.00 18-Jan-20:  Log End Time 
 LOST.hr                     0:  Lost Rig Time 
 LSTM.      01.45.00 11-Jan-20:  Log Start Time 
 MDCL.ppm             41500.00:  Mud Chlorides 
 MDES.     Inversion Oil/Synthetic:  Mud Desc 
 DFD .sg                  1.48:  Mud Density 
 MDMN.sg                  1.48:  Dens Mud Min 
 MDMX.sg                  1.48:  Dens Mud Max 
 MOIL.                      54:  Run Mud Oil % 
 MOWR.                   72:28:  Run Mud OWR 
 MSND.                       0:  Run Mud Sand % 
 MSOL.                      23:  Run Mud Solids% 
 DFV .spqt               86.00:  Mud Viscosity 
 MWOD.in                  6.75:  MWD Tool OD 
 MWSI.                      No:  Serv Intrp, MWD 
 OTIM.hr                223.40:  Time Operating 
 PCON.           Look Like New:  Pad Condition 
 PMAX.psia            32446.79:  Press Op, Max 
 PV  .cP                 49.00:  Mud PV 
 RUN .                     200:  Run Number 
 ROPA.m/hr               12.48:  ROP Avg 
 ROPN.m/hr                8.00:  ROP Min 
 ROPX.m/hr               27.00:  ROP Max 
 RPMA.rpm               121.00:  RPM Surface Avg 
 RPMN.rpm                60.00:  RPM Surface Min 
 RPMX.rpm               140.00:  RPM Surface Max 
 RRUN.                    L202:  Rig Run Number 
 RTIM.hr                  7.25:  Time Reaming 
 SAZI.deg               123.49:  Azm, Start 
 SDEP.m                2585.01:  Start Depth 
 SIDD.                      No:  Serv Intrp, DD 
 SINC.deg                59.93:  Inc, Start 
 SPPA.psig             3539.00:  SPP Avg 
 SPPN.psig             3050.00:  SPP Min 
 SPPX.psig             3950.00:  SPP Max 
 STIM.      19.00.00 10-Jan-20:  Start Time 
 SVCS.                 DD, MWD:  Services 
 SVER.                    9.20:  Sperry Version 
 TDAT.m                1293.00:  Tot Depth Attmp 
 TDDF.                      No:  Trip for DD 
 TDLG.m                1293.00:  Tot Depth Loggd 
 TFF .                      No:  Trip for Fail 
 TQAA.f-kp               16.00:  Torque Abs Avg 
 TQAN.f-kp               11.00:  Torque Abs Min 
 TQAX.f-kp               18.00:  Torque Abs Max 
 TRRT.�/30m               1.25:  Turn Rotating 
 MRT .                  EWR-M5:  Maximum Recorded Temperature 
 TTMX.degC               84.00:  Max Tool Temp 
 VS01.          AZ90514619R5C6:  Virtual Str1 SN 
 VS02.        AZ90552592N2L2C6:  Virtual Str2 SN 
 VS03.        AZ90571337Z1W1C6:  Virtual Str3 SN 
 VS04.         AZ90513690K23C6:  Virtual Str4 SN 
 VS05.           AZ90594857F11:  Virtual Str5 SN 
 VS06.                13102166:  Virtual Str6 SN 
 WBMN.klb                 7.00:  WOB Min 
 WITN.            Peter Wilson:  Customer Rep 
 WOBA.klb                 9.95:  WOB Avg 
 WOBX.klb                10.00:  WOB Max 
 YP  .lhf2               36.00:  Yield Point 
~Curve Information Block
#MNEM.UNIT                 API CODE     Curve Description
#---------               -----------    ---------------------------
 TIME.HHMMSS            00 000 000 000:  GT Time & Date
 GTDEPTH.m              00 000 000 000:  GT Depth
 GTPQH.psia             00 000 000 000:  GT HR Quartz Pressure
 GTTQ.degC              00 000 000 000:  GT Quartz Temperature
 GTTN.NONE              00 000 000 000:  GT Test Number
 GTET.sec               00 000 000 000:  GT Elapsed Test Time
 GTTVD.m                00 000 000 000:  GT True Vertical Depth
#Other Information
#
#WARRANTY: Halliburton will use its best efforts to furnish customers with 
#accurate information and interpretations that are part of, and incident to, the services 
#provided.  However, Halliburton cannot and does not warrant the accuracy 
#or correctness of such information and interpretations.  Under no circumstances should any 
#such information or interpretation be relied upon as the sole basis for any drilling, 
#completion, production, or financial decision or any procedure involving any risk to the 
#safety of any drilling venture, drilling rig or its crew or any other third party.  The 
#Customer has full responsibility for all drilling, completion and production operation.  
#Halliburton makes no representations or warranties, either expressed or 
#implied, including, but not limited to, the implied warranties of merchantability or fitness 
#for a particular purpose, with respect to the services rendered.  In no event will 
#Halliburton be liable for failure to obtain any particular results or for 
#any damages, including, but not limited to, indirect, special or consequential damages, 
#resulting from the use of any information or interpretation provided by Halliburton.
#
~A           TIME           GTDEPTH  GTPQH  GTTQ  GTTN  GTET   GTTVD  
# ...
   05:12:40.044.18-Jan-2020 3717.16 6356.10 78.81 1.00 345.10 2797.33
   05:12:40.244.18-Jan-2020 3717.16 6356.10 78.81 1.00 345.30 2797.33
   05:12:40.444.18-Jan-2020 3717.16 6354.88 78.81 1.00 345.50 2797.33
   05:12:40.644.18-Jan-2020 3717.16 6364.12 78.81 1.00 345.70 2797.33
   05:12:40.844.18-Jan-2020 3717.16 6355.88 78.81 1.00 345.90 2797.33
   05:12:41.044.18-Jan-2020 3717.16 6355.97 78.81 1.00 346.10 2797.33
   05:12:41.244.18-Jan-2020 3717.16 6355.97 78.81 1.00 346.30 2797.33
   05:12:41.444.18-Jan-2020 3717.16 6355.22 78.81 1.00 346.50 2797.33
   05:12:41.644.18-Jan-2020 3717.16 6354.24 78.81 1.00 346.70 2797.33
   05:12:41.844.18-Jan-2020 3717.16 6353.54 78.81 1.00 346.90 2797.33
   05:12:42.044.18-Jan-2020 3717.16 6354.80 78.81 1.00 347.10 2797.33
   05:12:42.244.18-Jan-2020 3717.16 6354.80 78.81 1.00 347.30 2797.33
   05:12:42.445.18-Jan-2020 3717.16 6354.63 78.81 1.00 347.50 2797.33
   05:12:42.645.18-Jan-2020 3717.16 6353.44 78.81 1.00 347.70 2797.33
   05:12:42.845.18-Jan-2020 3717.16 6354.60 78.81 1.00 347.90 2797.33
   05:12:43.045.18-Jan-2020 3717.16 6360.14 78.81 1.00 348.10 2797.33
   05:12:43.245.18-Jan-2020 3717.16 6360.14 78.81 1.00 348.30 2797.33
   05:12:43.445.18-Jan-2020 3717.16 6357.15 78.81 1.00 348.50 2797.33
   05:12:43.645.18-Jan-2020 3717.16 6356.49 78.81 1.00 348.70 2797.33
   05:12:43.845.18-Jan-2020 3717.16 6354.24 78.81 1.00 348.90 2797.33
   05:12:44.045.18-Jan-2020 3717.16 6365.78 78.80 1.00 349.10 2797.33
   05:12:44.245.18-Jan-2020 3717.16 6365.78 78.80 1.00 349.30 2797.33
   05:12:44.445.18-Jan-2020 3717.16 6352.10 78.80 1.00 349.50 2797.33
   05:12:44.645.18-Jan-2020 3717.16 6354.89 78.80 1.00 349.70 2797.33
   05:12:44.845.18-Jan-2020 3717.16 6352.39 78.80 1.00 349.90 2797.33
   05:12:45.045.18-Jan-2020 3717.16 6352.95 78.80 1.00 350.10 2797.33
   05:12:45.245.18-Jan-2020 3717.16 6352.95 78.80 1.00 350.30 2797.33
   05:12:45.445.18-Jan-2020 3717.16 6352.03 78.80 1.00 350.50 2797.33
   05:12:45.645.18-Jan-2020 3717.16 6351.40 78.80 1.00 350.70 2797.33
   05:12:45.846.18-Jan-2020 3717.16 6357.47 78.80 1.00 350.90 2797.33
   05:12:46.046.18-Jan-2020 3717.16 6361.02 78.80 1.00 351.10 2797.33
   05:12:46.246.18-Jan-2020 3717.16 6361.02 78.80 1.00 351.30 2797.33
   05:12:46.446.18-Jan-2020 3717.16 6353.02 78.80 1.00 351.50 2797.33
   05:12:46.646.18-Jan-2020 3717.16 6357.14 78.80 1.00 351.70 2797.33
   05:12:46.846.18-Jan-2020 3717.16 6356.62 78.80 1.00 351.90 2797.33
   05:12:47.046.18-Jan-2020 3717.16 6356.04 78.80 1.00 352.10 2797.33
   05:12:47.246.18-Jan-2020 3717.16 6356.04 78.80 1.00 352.30 2797.33
   05:12:47.446.18-Jan-2020 3717.16 6353.20 78.80 1.00 352.50 2797.33
   05:12:47.646.18-Jan-2020 3717.16 6354.29 78.80 1.00 352.70 2797.33
   05:12:47.846.18-Jan-2020 3717.16 6354.07 78.80 1.00 352.90 2797.33
   05:12:48.046.18-Jan-2020 3717.16 6357.70 78.80 1.00 353.10 2797.33
   05:12:48.246.18-Jan-2020 3717.16 6357.70 78.80 1.00 353.30 2797.33
   05:12:48.446.18-Jan-2020 3717.16 6354.05 78.80 1.00 353.50 2797.33
   05:12:48.646.18-Jan-2020 3717.16 6351.91 78.80 1.00 353.70 2797.33
   05:12:48.846.18-Jan-2020 3717.16 6355.56 78.80 1.00 353.90 2797.33
   05:12:49.046.18-Jan-2020 3717.16 6355.89 78.80 1.00 354.10 2797.33
   05:12:49.246.18-Jan-2020 3717.16 6355.89 78.80 1.00 354.30 2797.33
   05:12:49.447.18-Jan-2020 3717.16 6354.59 78.80 1.00 354.50 2797.33
   05:12:49.647.18-Jan-2020 3717.16 6366.78 78.80 1.00 354.70 2797.33
   05:12:49.847.18-Jan-2020 3717.16 6354.13 78.80 1.00 354.90 2797.33
   05:12:50.047.18-Jan-2020 3717.16 6353.59 78.80 1.00 355.10 2797.33
   05:12:50.247.18-Jan-2020 3717.16 6353.59 78.80 1.00 355.30 2797.33
   05:12:50.447.18-Jan-2020 3717.16 6354.10 78.80 1.00 355.50 2797.33
   05:12:50.647.18-Jan-2020 3717.16 6354.81 78.80 1.00 355.70 2797.33
   05:12:50.847.18-Jan-2020 3717.16 6352.19 78.80 1.00 355.90 2797.33
   05:12:51.047.18-Jan-2020 3717.16 6354.06 78.80 1.00 356.10 2797.33
   05:12:51.247.18-Jan-2020 3717.16 6354.06 78.80 1.00 356.30 2797.33
   05:12:51.447.18-Jan-2020 3717.16 6354.05 78.80 1.00 356.50 2797.33
   05:12:51.647.18-Jan-2020 3717.16 6353.25 78.80 1.00 356.70 2797.33
   05:12:51.847.18-Jan-2020 3717.16 6354.23 78.80 1.00 356.90 2797.33
   05:12:52.047.18-Jan-2020 3717.16 6362.96 78.80 1.00 357.10 2797.33
   05:12:52.247.18-Jan-2020 3717.16 6362.96 78.80 1.00 357.30 2797.33
   05:12:52.447.18-Jan-2020 3717.16 6355.81 78.80 1.00 357.50 2797.33
   05:12:52.647.18-Jan-2020 3717.16 6357.90 78.80 1.00 357.70 2797.33
   05:12:52.847.18-Jan-2020 3717.16 6355.32 78.80 1.00 357.90 2797.33
   05:12:53.048.18-Jan-2020 3717.16 6362.63 78.80 1.00 358.10 2797.33
   05:12:53.248.18-Jan-2020 3717.16 6362.63 78.80 1.00 358.30 2797.33
   05:12:53.448.18-Jan-2020 3717.16 6353.11 78.80 1.00 358.50 2797.33
   05:12:53.648.18-Jan-2020 3717.16 6356.73 78.80 1.00 358.70 2797.33
   05:12:53.848.18-Jan-2020 3717.16 6353.04 78.80 1.00 358.90 2797.33
   05:12:54.048.18-Jan-2020 3717.16 6353.47 78.80 1.00 359.10 2797.33
   05:12:54.248.18-Jan-2020 3717.16 6353.47 78.80 1.00 359.30 2797.33
   05:12:54.448.18-Jan-2020 3717.16 6357.45 78.80 1.00 359.50 2797.33
   05:12:54.648.18-Jan-2020 3717.16 6352.30 78.80 1.00 359.70 2797.33
   05:12:54.848.18-Jan-2020 3717.16 6357.47 78.80 1.00 359.90 2797.33
   05:12:55.048.18-Jan-2020 3717.16 6361.73 78.80 1.00 360.10 2797.33
   05:12:55.248.18-Jan-2020 3717.16 6361.73 78.80 1.00 360.30 2797.33
   05:12:55.448.18-Jan-2020 3717.16 6353.21 78.80 1.00 360.50 2797.33
   05:12:55.648.18-Jan-2020 3717.16 6356.21 78.80 1.00 360.70 2797.33
   05:12:55.848.18-Jan-2020 3717.16 6356.54 78.80 1.00 360.90 2797.33
   05:12:56.048.18-Jan-2020 3717.16 6356.10 78.80 1.00 361.10 2797.33
   05:12:56.248.18-Jan-2020 3717.16 6356.10 78.80 1.00 361.30 2797.33
   05:12:56.449.18-Jan-2020 3717.16 6353.96 78.80 1.00 361.50 2797.33
   05:12:56.649.18-Jan-2020 3717.16 6354.22 78.80 1.00 361.70 2797.33
   05:12:56.849.18-Jan-2020 3717.16 6354.42 78.80 1.00 361.90 2797.33
   05:12:57.049.18-Jan-2020 3717.16 6357.26 78.80 1.00 362.10 2797.33
   05:12:57.249.18-Jan-2020 3717.16 6357.26 78.80 1.00 362.30 2797.33
   05:12:57.449.18-Jan-2020 3717.16 6355.00 78.80 1.00 362.50 2797.33
   05:12:57.649.18-Jan-2020 3717.16 6353.94 78.80 1.00 362.70 2797.33
   05:12:57.849.18-Jan-2020 3717.16 6356.36 78.80 1.00 362.90 2797.33
   05:12:58.049.18-Jan-2020 3717.16 6357.38 78.80 1.00 363.10 2797.33
   05:12:58.249.18-Jan-2020 3717.16 6357.38 78.80 1.00 363.30 2797.33
   05:12:58.449.18-Jan-2020 3717.16 6355.57 78.80 1.00 363.50 2797.33
   05:12:58.649.18-Jan-2020 3717.16 6368.50 78.80 1.00 363.70 2797.33
   05:12:58.849.18-Jan-2020 3717.16 6354.69 78.80 1.00 363.90 2797.33
   05:12:59.049.18-Jan-2020 3717.16 6355.65 78.80 1.00 364.10 2797.33
   05:12:59.249.18-Jan-2020 3717.16 6355.65 78.80 1.00 364.30 2797.33
   05:12:59.449.18-Jan-2020 3717.16 6356.65 78.80 1.00 364.50 2797.33
   05:12:59.649.18-Jan-2020 3717.16 6355.90 78.80 1.00 364.70 2797.33
   05:12:59.849.18-Jan-2020 3717.16 6355.18 78.80 1.00 364.90 2797.33
   05:13:00.050.18-Jan-2020 3717.16 6354.76 78.80 1.00 365.10 2797.33
   05:13:00.250.18-Jan-2020 3717.16 6354.76 78.80 1.00 365.30 2797.33
   05:13:00.450.18-Jan-2020 3717.16 6355.13 78.80 1.00 365.50 2797.33
   05:13:00.650.18-Jan-2020 3717.16 6355.18 78.80 1.00 365.70 2797.33
   05:13:00.850.18-Jan-2020 3717.16 6355.18 78.80 1.00 365.90 2797.33
   05:13:01.050.18-Jan-2020 3717.16 6363.32 78.80 1.00 366.10 2797.33
   05:13:01.250.18-Jan-2020 3717.16 6363.32 78.80 1.00 366.30 2797.33
   05:13:01.450.18-Jan-2020 3717.16 6355.48 78.80 1.00 366.50 2797.33
   05:13:01.650.18-Jan-2020 3717.16 6359.03 78.80 1.00 366.70 2797.33
   05:13:01.850.18-Jan-2020 3717.16 6354.79 78.80 1.00 366.90 2797.33
   05:13:02.050.18-Jan-2020 3717.16 6366.75 78.79 1.00 367.10 2797.33
   05:13:02.250.18-Jan-2020 3717.16 6366.75 78.79 1.00 367.30 2797.33
   05:13:02.450.18-Jan-2020 3717.16 6353.85 78.79 1.00 367.50 2797.33
   05:13:02.650.18-Jan-2020 3717.16 6354.60 78.79 1.00 367.70 2797.33
   05:13:02.850.18-Jan-2020 3717.16 6354.38 78.79 1.00 367.90 2797.33
