~Version Information
 VERS.                  2.0:   CWLS log ASCII Standard -VERSION 2.0
 WRAP.                   NO:   One line per depth step
~Well Information Block
#MNEM.UNIT     VALUE/NAME     DESCRIPTION
#---------     -----------    ---------------------------
 STRT.S             05:06:54 18-Jan-20: START TIME 05:06:54 18-Jan-20
 STOP.S             05:17:00 18-Jan-20: STOP TIME  05:17:00 18-Jan-20
 STEP.S                   0.00: STEP TIME
 NULL.                 -999.25: NULL VALUE
 DFWT.                        :  DIST FWL TEXT
 DFST.                        :  DIST FSL TEXT
 DMF .             Drill Floor:  DRILL MEAS FROM
 STIM.      09.30.00 26-Dec-19:  START TIME
 DATE.      08.00.00 20-Jan-20:  END TIME
 SPUD.               23-Nov-19:  SPUD DATE
 NREF.                    Grid:  NORTH REFERENCE
 HPTY.       Minimum Curvature:  HOLE POS TYPE
 DMOD.             Drill Model:  DRILL MOD DESC
 SVYD.                  Survey:  SURVEY DESC
 ILTD.               Lithology:  INTERP LTH DESC
 FTOP.          Formation Tops:  FORM TOPS DESC
 SON .        AZ-XX-0906192647:  JOB NUMBER
 WTYP.                Deviated:  WELL TYPE
 COMP.     BP Exploration (Caspian Sea) Ltd:  COMPANY
 BASE.              Azerbaijan:  LOGGING EQUIPMENT BASE LOCATION
 REGN.                 Eurasia:  REGION
 FLD .                     ACG:  FIELD NAME
 SRVC.              KCA Deutag:  CONTRACTOR
 MWDS.                    Baku:  MWD SHOP
 WELL.     A10 (Slot 20) - SCP:  WELL NAME
 JOBN.        AZ-XX-0906192647:  JOB TICKET NUMB
 RIG .                 Chirag1:  RIG NAME
 DCON.     Halliburton Sperry Drilling:  DIRECTNL CONTR
 UNIT.                     N/A:  LOGGING EQUIPMENT ID
 PDAT.          Mean Sea Level:  PERMANENT DATUM
 MDS .        Operator Entered:  MAG DATA SOURCE
 CTRY.              Azerbaijan:  COUNTRY NAME
 UWI .            /AZE00000090:  UNIQUE WELL IDENTIFIER
 API .            /AZE00000090:  API NUMBER
 CNTY.                        :  COUNTY
 PROV.                        :  PROVINCE
 STAT.                        :  STATE
 LOC .                        :  LOCATION
 LMF .             Drill Floor:  LOG MEASURED FROM
 TVDS.m                  36.60:  TVDSS CORRECTN
 LATI.deg                40.08:  LATITUDE
 LONG.deg                51.24:  LONGITUDE
 WHNS.m                  -7.94:  WELL HEAD N/S
 WHEW.m                   1.56:  WELL HEAD E/W
 UTMX.m              520429.26:  UTM X
 UTMY.m             4438973.87:  UTM Y
 DFWL.m                   0.00:  DISTANCE FWL
 DFSL.m                   0.00:  DISTANCE FSL
 SDEP.m                1455.00:  START DEPTH
 TDD .m                3878.01:  TOTAL DEPTH (DRILLER)
 VSDR.deg               112.75:  VERT SEC DIRECT
 GVFD.g                   1.00:  GRAVITY FIELD
 MFLD.nT              50256.00:  MAGNETIC FIELD
 MDIP.deg                59.52:  MAGNETIC DIP
 MDEC.deg                 6.43:  MAGNETIC DECL
 GRDC.deg                 0.16:  GRID CORRECTION
 AZTC.deg                 6.27:  AZM TOTAL CORR
 EPD .m                   0.00:  ELEVATION
 EGL .m                   0.00:  GROUND ELEVATION
 WDMS.m                 121.00:  WD ELEV
 APD .m                  36.60:  DEPTH ABOVE PD
 AGAP.m                  36.60:  AIR GAP
 VSEW.m                   1.56:  VERT SEC E/W
 VSNS.m                  -7.94:  VERT SEC N/S
 DEP .m                1140.01:  DEPTH
 EKB .m                  36.60:  KB ELEVATION
 EDF .m                  36.60:  DF ELEVATION
 TDL .m                1293.00:  TOTAL DEPTH (LOGGER)
 VSC .                       0:  VS TO CLOSURE
 MAGU.                 1849164:  MAGUTM CHECKSUM
~Parameter Information Block
#MNEM.UNIT       Value        Description
#---------     -----------    ---------------------------
 AV  .mps                 2.40:  Ann Velocity 
 AVMX.mps                 2.55:  Max Ann Veloc 
 AZIF.deg               134.35:  Azm, Final 
 BHAT.        Rotary Steerable:  BHA Type 
 BREV.rev               847.00:  Rev Bit Total 
 BROT.�/30m              -2.51:  Build Rotating 
 BS  .in                  8.50:  Bit Size 
 BSZ .in                  8.50:  Bit Size 
 BTPL.psig              700.00:  Bit Press Loss 
 CABU.                     Yes:  Customer Abuse 
 CGEO.          Ilgar Gurbanov:  Customer Geo 
 COMM.                     ��L:  Run Comments 1 
 TCS .hr                140.40:  Time Ciculation Ended 
 CV  .mps                 2.27:  Crit Velocity 
 CVMX.mps                 2.45:  Max Crit Veloc 
 DD1 .         Intigam Rahimov:  Direct Drillr 1 
 DD2 .         Rasim Ibrahimov:  Direct Drillr 2 
 DDSV.                 iCruise:  DD Service 
 DEFF.%                  99.00:  % Det Eff 
 DLRX.�/30m               3.28:  Dogleg Rot Max 
 DLSO.�/30m               0.00:  Dogleg Oriented 
 DLSX.�/30m               0.00:  Dogleg Str Max 
 DRET.      23.30.00 18-Jan-20:  Drill End Time 
 DRST.      01.45.00 11-Jan-20:  Drill Start Tim 
 DTIM.hr                 94.00:  Time Drilling 
 EDEP.m                3878.01:  End Depth 
 ENG1.       Dauren Baktybayev:  Engineer 1 
 ENG2.      Natik Hasanaghayev:  Engineer 2 
 ENG3.          Rustam Safarov:  Engineer 3 
 ETIM.      08.00.00 20-Jan-20:  End Time 
 FLOI.gpm               532.00:  Flow In 
 FLON.gpm               500.00:  Flow In Min 
 FLOS.cptm                0.00:  Fluid Loss 
 FLOX.gpm               540.00:  Flow In Max 
 FTRO.       Formation Presure:  FTWD Run Obj 
 HPRE.                     Yes:  High Pressure 
 HTEM.                      No:  High Temp 
 HYDO.m                   1.80:  Hydro Offset 
 IFIN.deg                39.86:  Inc, Final 
 IMAX.deg                59.73:  Inc Max 
 IMIN.deg                39.25:  Inc Min 
 IMND.m                3816.77:  Inc Min Depth 
 IMXD.m                2596.33:  Inc Max Depth 
 JARR.                      No:  Jarring 
 LETM.      23.30.00 18-Jan-20:  Log End Time 
 LOST.hr                     0:  Lost Rig Time 
 LSTM.      01.45.00 11-Jan-20:  Log Start Time 
 MDCL.ppm             41500.00:  Mud Chlorides 
 MDES.     Inversion Oil/Synthetic:  Mud Desc 
 DFD .sg                  1.48:  Mud Density 
 MDMN.sg                  1.48:  Dens Mud Min 
 MDMX.sg                  1.48:  Dens Mud Max 
 MOIL.                      54:  Run Mud Oil % 
 MOWR.                   72:28:  Run Mud OWR 
 MSND.                       0:  Run Mud Sand % 
 MSOL.                      23:  Run Mud Solids% 
 DFV .spqt               86.00:  Mud Viscosity 
 MWOD.in                  6.75:  MWD Tool OD 
 MWSI.                      No:  Serv Intrp, MWD 
 OTIM.hr                223.40:  Time Operating 
 PCON.           Look Like New:  Pad Condition 
 PMAX.psia            32446.79:  Press Op, Max 
 PV  .cP                 49.00:  Mud PV 
 RUN .                     200:  Run Number 
 ROPA.m/hr               12.48:  ROP Avg 
 ROPN.m/hr                8.00:  ROP Min 
 ROPX.m/hr               27.00:  ROP Max 
 RPMA.rpm               121.00:  RPM Surface Avg 
 RPMN.rpm                60.00:  RPM Surface Min 
 RPMX.rpm               140.00:  RPM Surface Max 
 RRUN.                    L202:  Rig Run Number 
 RTIM.hr                  7.25:  Time Reaming 
 SAZI.deg               123.49:  Azm, Start 
 SDEP.m                2585.01:  Start Depth 
 SIDD.                      No:  Serv Intrp, DD 
 SINC.deg                59.93:  Inc, Start 
 SPPA.psig             3539.00:  SPP Avg 
 SPPN.psig             3050.00:  SPP Min 
 SPPX.psig             3950.00:  SPP Max 
 STIM.      19.00.00 10-Jan-20:  Start Time 
 SVCS.                 DD, MWD:  Services 
 SVER.                    9.20:  Sperry Version 
 TDAT.m                1293.00:  Tot Depth Attmp 
 TDDF.                      No:  Trip for DD 
 TDLG.m                1293.00:  Tot Depth Loggd 
 TFF .                      No:  Trip for Fail 
 TQAA.f-kp               16.00:  Torque Abs Avg 
 TQAN.f-kp               11.00:  Torque Abs Min 
 TQAX.f-kp               18.00:  Torque Abs Max 
 TRRT.�/30m               1.25:  Turn Rotating 
 MRT .                  EWR-M5:  Maximum Recorded Temperature 
 TTMX.degC               84.00:  Max Tool Temp 
 VS01.          AZ90514619R5C6:  Virtual Str1 SN 
 VS02.        AZ90552592N2L2C6:  Virtual Str2 SN 
 VS03.        AZ90571337Z1W1C6:  Virtual Str3 SN 
 VS04.         AZ90513690K23C6:  Virtual Str4 SN 
 VS05.           AZ90594857F11:  Virtual Str5 SN 
 VS06.                13102166:  Virtual Str6 SN 
 WBMN.klb                 7.00:  WOB Min 
 WITN.            Peter Wilson:  Customer Rep 
 WOBA.klb                 9.95:  WOB Avg 
 WOBX.klb                10.00:  WOB Max 
 YP  .lhf2               36.00:  Yield Point 
~Curve Information Block
#MNEM.UNIT                 API CODE     Curve Description
#---------               -----------    ---------------------------
 TIME.HHMMSS            00 000 000 000:  GT Time & Date
 GTDEPTH.m              00 000 000 000:  GT Depth
 GTPQH.psia             00 000 000 000:  GT HR Quartz Pressure
 GTTQ.degC              00 000 000 000:  GT Quartz Temperature
 GTTN.NONE              00 000 000 000:  GT Test Number
 GTET.sec               00 000 000 000:  GT Elapsed Test Time
 GTTVD.m                00 000 000 000:  GT True Vertical Depth
#Other Information
#
#WARRANTY: Halliburton will use its best efforts to furnish customers with 
#accurate information and interpretations that are part of, and incident to, the services 
#provided.  However, Halliburton cannot and does not warrant the accuracy 
#or correctness of such information and interpretations.  Under no circumstances should any 
#such information or interpretation be relied upon as the sole basis for any drilling, 
#completion, production, or financial decision or any procedure involving any risk to the 
#safety of any drilling venture, drilling rig or its crew or any other third party.  The 
#Customer has full responsibility for all drilling, completion and production operation.  
#Halliburton makes no representations or warranties, either expressed or 
#implied, including, but not limited to, the implied warranties of merchantability or fitness 
#for a particular purpose, with respect to the services rendered.  In no event will 
#Halliburton be liable for failure to obtain any particular results or for 
#any damages, including, but not limited to, indirect, special or consequential damages, 
#resulting from the use of any information or interpretation provided by Halliburton.
#
~A           TIME           GTDEPTH  GTPQH  GTTQ  GTTN  GTET   GTTVD  
# ...
   05:08:49.979.18-Jan-2020 3717.16 6357.52 78.93 1.00 115.03 2797.33
   05:08:50.179.18-Jan-2020 3717.16 6357.52 78.93 1.00 115.23 2797.33
   05:08:50.379.18-Jan-2020 3717.16 6355.90 78.93 1.00 115.43 2797.33
   05:08:50.579.18-Jan-2020 3717.16 6364.17 78.93 1.00 115.63 2797.33
   05:08:50.779.18-Jan-2020 3717.16 6359.15 78.93 1.00 115.83 2797.33
   05:08:50.979.18-Jan-2020 3717.16 6359.01 78.93 1.00 116.03 2797.33
   05:08:51.179.18-Jan-2020 3717.16 6359.01 78.93 1.00 116.23 2797.33
   05:08:51.379.18-Jan-2020 3717.16 6358.40 78.93 1.00 116.43 2797.33
   05:08:51.579.18-Jan-2020 3717.16 6358.11 78.93 1.00 116.63 2797.33
   05:08:51.779.18-Jan-2020 3717.16 6357.71 78.93 1.00 116.83 2797.33
   05:08:51.979.18-Jan-2020 3717.16 6361.03 78.93 1.00 117.03 2797.33
   05:08:52.179.18-Jan-2020 3717.16 6361.03 78.93 1.00 117.23 2797.33
   05:08:52.379.18-Jan-2020 3717.16 6358.23 78.93 1.00 117.43 2797.33
   05:08:52.579.18-Jan-2020 3717.16 6356.12 78.93 1.00 117.63 2797.33
   05:08:52.780.18-Jan-2020 3717.16 6356.49 78.93 1.00 117.83 2797.33
   05:08:52.980.18-Jan-2020 3717.16 6357.04 78.93 1.00 118.03 2797.33
   05:08:53.180.18-Jan-2020 3717.16 6357.04 78.93 1.00 118.23 2797.33
   05:08:53.380.18-Jan-2020 3717.16 6359.17 78.93 1.00 118.43 2797.33
   05:08:53.580.18-Jan-2020 3717.16 6355.73 78.93 1.00 118.63 2797.33
   05:08:53.780.18-Jan-2020 3717.16 6358.14 78.93 1.00 118.83 2797.33
   05:08:53.980.18-Jan-2020 3717.16 6358.28 78.93 1.00 119.03 2797.33
   05:08:54.180.18-Jan-2020 3717.16 6358.28 78.93 1.00 119.23 2797.33
   05:08:54.380.18-Jan-2020 3717.16 6356.50 78.93 1.00 119.43 2797.33
   05:08:54.580.18-Jan-2020 3717.16 6367.42 78.93 1.00 119.63 2797.33
   05:08:54.780.18-Jan-2020 3717.16 6360.10 78.93 1.00 119.83 2797.33
   05:08:54.980.18-Jan-2020 3717.16 6356.39 78.93 1.00 120.03 2797.33
   05:08:55.180.18-Jan-2020 3717.16 6356.39 78.93 1.00 120.23 2797.33
   05:08:55.380.18-Jan-2020 3717.16 6357.95 78.93 1.00 120.43 2797.33
   05:08:55.580.18-Jan-2020 3717.16 6357.58 78.93 1.00 120.63 2797.33
   05:08:55.780.18-Jan-2020 3717.16 6358.13 78.93 1.00 120.83 2797.33
   05:08:55.980.18-Jan-2020 3717.16 6356.69 78.93 1.00 121.03 2797.33
   05:08:56.180.18-Jan-2020 3717.16 6356.69 78.93 1.00 121.23 2797.33
   05:08:56.381.18-Jan-2020 3717.16 6357.80 78.93 1.00 121.43 2797.33
   05:08:56.581.18-Jan-2020 3717.16 6357.49 78.93 1.00 121.63 2797.33
   05:08:56.781.18-Jan-2020 3717.16 6358.68 78.93 1.00 121.83 2797.33
   05:08:56.981.18-Jan-2020 3717.16 6365.52 78.93 1.00 122.03 2797.33
   05:08:57.181.18-Jan-2020 3717.16 6365.52 78.93 1.00 122.23 2797.33
   05:08:57.381.18-Jan-2020 3717.16 6356.89 78.93 1.00 122.43 2797.33
   05:08:57.581.18-Jan-2020 3717.16 6362.44 78.93 1.00 122.63 2797.33
   05:08:57.781.18-Jan-2020 3717.16 6357.94 78.93 1.00 122.83 2797.33
   05:08:57.981.18-Jan-2020 3717.16 6364.37 78.93 1.00 123.03 2797.33
   05:08:58.181.18-Jan-2020 3717.16 6364.37 78.93 1.00 123.23 2797.33
   05:08:58.381.18-Jan-2020 3717.16 6357.52 78.93 1.00 123.43 2797.33
   05:08:58.581.18-Jan-2020 3717.16 6358.96 78.93 1.00 123.64 2797.33
   05:08:58.781.18-Jan-2020 3717.16 6356.58 78.93 1.00 123.84 2797.33
   05:08:58.981.18-Jan-2020 3717.16 6357.26 78.93 1.00 124.04 2797.33
   05:08:59.181.18-Jan-2020 3717.16 6357.26 78.93 1.00 124.24 2797.33
   05:08:59.381.18-Jan-2020 3717.16 6368.49 78.93 1.00 124.44 2797.33
   05:08:59.581.18-Jan-2020 3717.16 6356.84 78.93 1.00 124.64 2797.33
   05:08:59.782.18-Jan-2020 3717.16 6359.49 78.93 1.00 124.84 2797.33
   05:08:59.982.18-Jan-2020 3717.16 6368.27 78.93 1.00 125.04 2797.33
   05:09:00.182.18-Jan-2020 3717.16 6368.27 78.93 1.00 125.24 2797.33
   05:09:00.382.18-Jan-2020 3717.16 6357.07 78.93 1.00 125.44 2797.33
   05:09:00.582.18-Jan-2020 3717.16 6360.77 78.93 1.00 125.64 2797.33
   05:09:00.782.18-Jan-2020 3717.16 6360.70 78.93 1.00 125.84 2797.33
   05:09:00.982.18-Jan-2020 3717.16 6360.78 78.93 1.00 126.04 2797.33
   05:09:01.182.18-Jan-2020 3717.16 6360.78 78.93 1.00 126.24 2797.33
   05:09:01.382.18-Jan-2020 3717.16 6357.85 78.93 1.00 126.44 2797.33
   05:09:01.582.18-Jan-2020 3717.16 6357.89 78.93 1.00 126.64 2797.33
   05:09:01.782.18-Jan-2020 3717.16 6357.21 78.93 1.00 126.84 2797.33
   05:09:01.982.18-Jan-2020 3717.16 6359.49 78.93 1.00 127.04 2797.33
   05:09:02.182.18-Jan-2020 3717.16 6359.49 78.93 1.00 127.24 2797.33
   05:09:02.382.18-Jan-2020 3717.16 6358.80 78.93 1.00 127.44 2797.33
   05:09:02.582.18-Jan-2020 3717.16 6357.13 78.93 1.00 127.64 2797.33
   05:09:02.782.18-Jan-2020 3717.16 6359.57 78.93 1.00 127.84 2797.33
   05:09:02.982.18-Jan-2020 3717.16 6360.13 78.93 1.00 128.04 2797.33
   05:09:03.182.18-Jan-2020 3717.16 6360.13 78.93 1.00 128.24 2797.33
   05:09:03.383.18-Jan-2020 3717.16 6358.72 78.93 1.00 128.44 2797.33
   05:09:03.583.18-Jan-2020 3717.16 6371.50 78.93 1.00 128.64 2797.33
   05:09:03.783.18-Jan-2020 3717.16 6357.33 78.93 1.00 128.84 2797.33
   05:09:03.983.18-Jan-2020 3717.16 6357.48 78.93 1.00 129.04 2797.33
   05:09:04.183.18-Jan-2020 3717.16 6357.48 78.93 1.00 129.24 2797.33
   05:09:04.383.18-Jan-2020 3717.16 6359.05 78.93 1.00 129.44 2797.33
   05:09:04.583.18-Jan-2020 3717.16 6358.11 78.92 1.00 129.64 2797.33
   05:09:04.783.18-Jan-2020 3717.16 6358.09 78.93 1.00 129.84 2797.33
   05:09:04.983.18-Jan-2020 3717.16 6357.41 78.92 1.00 130.04 2797.33
   05:09:05.183.18-Jan-2020 3717.16 6357.41 78.92 1.00 130.24 2797.33
   05:09:05.383.18-Jan-2020 3717.16 6357.68 78.92 1.00 130.44 2797.33
   05:09:05.583.18-Jan-2020 3717.16 6358.54 78.92 1.00 130.64 2797.33
   05:09:05.783.18-Jan-2020 3717.16 6357.82 78.92 1.00 130.84 2797.33
   05:09:05.983.18-Jan-2020 3717.16 6369.48 78.92 1.00 131.04 2797.33
   05:09:06.183.18-Jan-2020 3717.16 6369.48 78.92 1.00 131.24 2797.33
   05:09:06.383.18-Jan-2020 3717.16 6359.33 78.92 1.00 131.44 2797.33
   05:09:06.583.18-Jan-2020 3717.16 6362.04 78.92 1.00 131.64 2797.33
   05:09:06.783.18-Jan-2020 3717.16 6358.87 78.92 1.00 131.84 2797.33
   05:09:06.984.18-Jan-2020 3717.16 6370.37 78.92 1.00 132.04 2797.33
   05:09:07.184.18-Jan-2020 3717.16 6370.37 78.92 1.00 132.24 2797.33
   05:09:07.384.18-Jan-2020 3717.16 6357.91 78.92 1.00 132.44 2797.33
   05:09:07.584.18-Jan-2020 3717.16 6358.39 78.92 1.00 132.64 2797.33
   05:09:07.784.18-Jan-2020 3717.16 6358.37 78.92 1.00 132.84 2797.33
   05:09:07.984.18-Jan-2020 3717.16 6356.05 78.92 1.00 133.04 2797.33
   05:09:08.184.18-Jan-2020 3717.16 6356.05 78.92 1.00 133.24 2797.33
   05:09:08.384.18-Jan-2020 3717.16 6364.36 78.92 1.00 133.44 2797.33
   05:09:08.584.18-Jan-2020 3717.16 6359.35 78.92 1.00 133.64 2797.33
   05:09:08.784.18-Jan-2020 3717.16 6360.42 78.92 1.00 133.84 2797.33
   05:09:08.984.18-Jan-2020 3717.16 6360.14 78.92 1.00 134.04 2797.33
   05:09:09.184.18-Jan-2020 3717.16 6360.14 78.92 1.00 134.24 2797.33
   05:09:09.384.18-Jan-2020 3717.16 6359.60 78.92 1.00 134.44 2797.33
   05:09:09.584.18-Jan-2020 3717.16 6360.94 78.92 1.00 134.64 2797.33
   05:09:09.784.18-Jan-2020 3717.16 6362.05 78.92 1.00 134.84 2797.33
   05:09:09.984.18-Jan-2020 3717.16 6361.19 78.92 1.00 135.04 2797.33
   05:09:10.184.18-Jan-2020 3717.16 6361.19 78.92 1.00 135.24 2797.33
   05:09:10.385.18-Jan-2020 3717.16 6359.78 78.92 1.00 135.44 2797.33
   05:09:10.585.18-Jan-2020 3717.16 6358.56 78.92 1.00 135.64 2797.33
   05:09:10.785.18-Jan-2020 3717.16 6359.39 78.92 1.00 135.84 2797.33
   05:09:10.985.18-Jan-2020 3717.16 6360.15 78.92 1.00 136.04 2797.33
   05:09:11.185.18-Jan-2020 3717.16 6360.15 78.92 1.00 136.24 2797.33
   05:09:11.385.18-Jan-2020 3717.16 6358.30 78.92 1.00 136.44 2797.33
   05:09:11.585.18-Jan-2020 3717.16 6358.03 78.92 1.00 136.64 2797.33
   05:09:11.785.18-Jan-2020 3717.16 6358.31 78.92 1.00 136.84 2797.33
   05:09:11.985.18-Jan-2020 3717.16 6361.34 78.92 1.00 137.04 2797.33
   05:09:12.185.18-Jan-2020 3717.16 6361.34 78.92 1.00 137.24 2797.33
   05:09:12.385.18-Jan-2020 3717.16 6359.12 78.92 1.00 137.44 2797.33
   05:09:12.585.18-Jan-2020 3717.16 6368.79 78.92 1.00 137.64 2797.33
   05:09:12.785.18-Jan-2020 3717.16 6361.31 78.92 1.00 137.84 2797.33
