~Version Information
 VERS.                  2.0:   CWLS log ASCII Standard -VERSION 2.0
 WRAP.                   NO:   One line per depth step
~Well Information Block
#MNEM.UNIT     VALUE/NAME     DESCRIPTION
#---------     -----------    ---------------------------
 STRT.S             05:06:54 18-Jan-20: START TIME 05:06:54 18-Jan-20
 STOP.S             05:17:00 18-Jan-20: STOP TIME  05:17:00 18-Jan-20
 STEP.S                   0.00: STEP TIME
 NULL.                 -999.25: NULL VALUE
 DFWT.                        :  DIST FWL TEXT
 DFST.                        :  DIST FSL TEXT
 DMF .             Drill Floor:  DRILL MEAS FROM
 STIM.      09.30.00 26-Dec-19:  START TIME
 DATE.      08.00.00 20-Jan-20:  END TIME
 SPUD.               23-Nov-19:  SPUD DATE
 NREF.                    Grid:  NORTH REFERENCE
 HPTY.       Minimum Curvature:  HOLE POS TYPE
 DMOD.             Drill Model:  DRILL MOD DESC
 SVYD.                  Survey:  SURVEY DESC
 ILTD.               Lithology:  INTERP LTH DESC
 FTOP.          Formation Tops:  FORM TOPS DESC
 SON .        AZ-XX-0906192647:  JOB NUMBER
 WTYP.                Deviated:  WELL TYPE
 COMP.     BP Exploration (Caspian Sea) Ltd:  COMPANY
 BASE.              Azerbaijan:  LOGGING EQUIPMENT BASE LOCATION
 REGN.                 Eurasia:  REGION
 FLD .                     ACG:  FIELD NAME
 SRVC.              KCA Deutag:  CONTRACTOR
 MWDS.                    Baku:  MWD SHOP
 WELL.     A10 (Slot 20) - SCP:  WELL NAME
 JOBN.        AZ-XX-0906192647:  JOB TICKET NUMB
 RIG .                 Chirag1:  RIG NAME
 DCON.     Halliburton Sperry Drilling:  DIRECTNL CONTR
 UNIT.                     N/A:  LOGGING EQUIPMENT ID
 PDAT.          Mean Sea Level:  PERMANENT DATUM
 MDS .        Operator Entered:  MAG DATA SOURCE
 CTRY.              Azerbaijan:  COUNTRY NAME
 UWI .            /AZE00000090:  UNIQUE WELL IDENTIFIER
 API .            /AZE00000090:  API NUMBER
 CNTY.                        :  COUNTY
 PROV.                        :  PROVINCE
 STAT.                        :  STATE
 LOC .                        :  LOCATION
 LMF .             Drill Floor:  LOG MEASURED FROM
 TVDS.m                  36.60:  TVDSS CORRECTN
 LATI.deg                40.08:  LATITUDE
 LONG.deg                51.24:  LONGITUDE
 WHNS.m                  -7.94:  WELL HEAD N/S
 WHEW.m                   1.56:  WELL HEAD E/W
 UTMX.m              520429.26:  UTM X
 UTMY.m             4438973.87:  UTM Y
 DFWL.m                   0.00:  DISTANCE FWL
 DFSL.m                   0.00:  DISTANCE FSL
 SDEP.m                1455.00:  START DEPTH
 TDD .m                3878.01:  TOTAL DEPTH (DRILLER)
 VSDR.deg               112.75:  VERT SEC DIRECT
 GVFD.g                   1.00:  GRAVITY FIELD
 MFLD.nT              50256.00:  MAGNETIC FIELD
 MDIP.deg                59.52:  MAGNETIC DIP
 MDEC.deg                 6.43:  MAGNETIC DECL
 GRDC.deg                 0.16:  GRID CORRECTION
 AZTC.deg                 6.27:  AZM TOTAL CORR
 EPD .m                   0.00:  ELEVATION
 EGL .m                   0.00:  GROUND ELEVATION
 WDMS.m                 121.00:  WD ELEV
 APD .m                  36.60:  DEPTH ABOVE PD
 AGAP.m                  36.60:  AIR GAP
 VSEW.m                   1.56:  VERT SEC E/W
 VSNS.m                  -7.94:  VERT SEC N/S
 DEP .m                1140.01:  DEPTH
 EKB .m                  36.60:  KB ELEVATION
 EDF .m                  36.60:  DF ELEVATION
 TDL .m                1293.00:  TOTAL DEPTH (LOGGER)
 VSC .                       0:  VS TO CLOSURE
 MAGU.                 1849164:  MAGUTM CHECKSUM
~Parameter Information Block
#MNEM.UNIT       Value        Description
#---------     -----------    ---------------------------
 AV  .mps                 2.40:  Ann Velocity 
 AVMX.mps                 2.55:  Max Ann Veloc 
 AZIF.deg               134.35:  Azm, Final 
 BHAT.        Rotary Steerable:  BHA Type 
 BREV.rev               847.00:  Rev Bit Total 
 BROT.�/30m              -2.51:  Build Rotating 
 BS  .in                  8.50:  Bit Size 
 BSZ .in                  8.50:  Bit Size 
 BTPL.psig              700.00:  Bit Press Loss 
 CABU.                     Yes:  Customer Abuse 
 CGEO.          Ilgar Gurbanov:  Customer Geo 
 COMM.                     ��L:  Run Comments 1 
 TCS .hr                140.40:  Time Ciculation Ended 
 CV  .mps                 2.27:  Crit Velocity 
 CVMX.mps                 2.45:  Max Crit Veloc 
 DD1 .         Intigam Rahimov:  Direct Drillr 1 
 DD2 .         Rasim Ibrahimov:  Direct Drillr 2 
 DDSV.                 iCruise:  DD Service 
 DEFF.%                  99.00:  % Det Eff 
 DLRX.�/30m               3.28:  Dogleg Rot Max 
 DLSO.�/30m               0.00:  Dogleg Oriented 
 DLSX.�/30m               0.00:  Dogleg Str Max 
 DRET.      23.30.00 18-Jan-20:  Drill End Time 
 DRST.      01.45.00 11-Jan-20:  Drill Start Tim 
 DTIM.hr                 94.00:  Time Drilling 
 EDEP.m                3878.01:  End Depth 
 ENG1.       Dauren Baktybayev:  Engineer 1 
 ENG2.      Natik Hasanaghayev:  Engineer 2 
 ENG3.          Rustam Safarov:  Engineer 3 
 ETIM.      08.00.00 20-Jan-20:  End Time 
 FLOI.gpm               532.00:  Flow In 
 FLON.gpm               500.00:  Flow In Min 
 FLOS.cptm                0.00:  Fluid Loss 
 FLOX.gpm               540.00:  Flow In Max 
 FTRO.       Formation Presure:  FTWD Run Obj 
 HPRE.                     Yes:  High Pressure 
 HTEM.                      No:  High Temp 
 HYDO.m                   1.80:  Hydro Offset 
 IFIN.deg                39.86:  Inc, Final 
 IMAX.deg                59.73:  Inc Max 
 IMIN.deg                39.25:  Inc Min 
 IMND.m                3816.77:  Inc Min Depth 
 IMXD.m                2596.33:  Inc Max Depth 
 JARR.                      No:  Jarring 
 LETM.      23.30.00 18-Jan-20:  Log End Time 
 LOST.hr                     0:  Lost Rig Time 
 LSTM.      01.45.00 11-Jan-20:  Log Start Time 
 MDCL.ppm             41500.00:  Mud Chlorides 
 MDES.     Inversion Oil/Synthetic:  Mud Desc 
 DFD .sg                  1.48:  Mud Density 
 MDMN.sg                  1.48:  Dens Mud Min 
 MDMX.sg                  1.48:  Dens Mud Max 
 MOIL.                      54:  Run Mud Oil % 
 MOWR.                   72:28:  Run Mud OWR 
 MSND.                       0:  Run Mud Sand % 
 MSOL.                      23:  Run Mud Solids% 
 DFV .spqt               86.00:  Mud Viscosity 
 MWOD.in                  6.75:  MWD Tool OD 
 MWSI.                      No:  Serv Intrp, MWD 
 OTIM.hr                223.40:  Time Operating 
 PCON.           Look Like New:  Pad Condition 
 PMAX.psia            32446.79:  Press Op, Max 
 PV  .cP                 49.00:  Mud PV 
 RUN .                     200:  Run Number 
 ROPA.m/hr               12.48:  ROP Avg 
 ROPN.m/hr                8.00:  ROP Min 
 ROPX.m/hr               27.00:  ROP Max 
 RPMA.rpm               121.00:  RPM Surface Avg 
 RPMN.rpm                60.00:  RPM Surface Min 
 RPMX.rpm               140.00:  RPM Surface Max 
 RRUN.                    L202:  Rig Run Number 
 RTIM.hr                  7.25:  Time Reaming 
 SAZI.deg               123.49:  Azm, Start 
 SDEP.m                2585.01:  Start Depth 
 SIDD.                      No:  Serv Intrp, DD 
 SINC.deg                59.93:  Inc, Start 
 SPPA.psig             3539.00:  SPP Avg 
 SPPN.psig             3050.00:  SPP Min 
 SPPX.psig             3950.00:  SPP Max 
 STIM.      19.00.00 10-Jan-20:  Start Time 
 SVCS.                 DD, MWD:  Services 
 SVER.                    9.20:  Sperry Version 
 TDAT.m                1293.00:  Tot Depth Attmp 
 TDDF.                      No:  Trip for DD 
 TDLG.m                1293.00:  Tot Depth Loggd 
 TFF .                      No:  Trip for Fail 
 TQAA.f-kp               16.00:  Torque Abs Avg 
 TQAN.f-kp               11.00:  Torque Abs Min 
 TQAX.f-kp               18.00:  Torque Abs Max 
 TRRT.�/30m               1.25:  Turn Rotating 
 MRT .                  EWR-M5:  Maximum Recorded Temperature 
 TTMX.degC               84.00:  Max Tool Temp 
 VS01.          AZ90514619R5C6:  Virtual Str1 SN 
 VS02.        AZ90552592N2L2C6:  Virtual Str2 SN 
 VS03.        AZ90571337Z1W1C6:  Virtual Str3 SN 
 VS04.         AZ90513690K23C6:  Virtual Str4 SN 
 VS05.           AZ90594857F11:  Virtual Str5 SN 
 VS06.                13102166:  Virtual Str6 SN 
 WBMN.klb                 7.00:  WOB Min 
 WITN.            Peter Wilson:  Customer Rep 
 WOBA.klb                 9.95:  WOB Avg 
 WOBX.klb                10.00:  WOB Max 
 YP  .lhf2               36.00:  Yield Point 
~Curve Information Block
#MNEM.UNIT                 API CODE     Curve Description
#---------               -----------    ---------------------------
 TIME.HHMMSS            00 000 000 000:  GT Time & Date
 GTDEPTH.m              00 000 000 000:  GT Depth
 GTPQH.psia             00 000 000 000:  GT HR Quartz Pressure
 GTTQ.degC              00 000 000 000:  GT Quartz Temperature
 GTTN.NONE              00 000 000 000:  GT Test Number
 GTET.sec               00 000 000 000:  GT Elapsed Test Time
 GTTVD.m                00 000 000 000:  GT True Vertical Depth
#Other Information
#
#WARRANTY: Halliburton will use its best efforts to furnish customers with 
#accurate information and interpretations that are part of, and incident to, the services 
#provided.  However, Halliburton cannot and does not warrant the accuracy 
#or correctness of such information and interpretations.  Under no circumstances should any 
#such information or interpretation be relied upon as the sole basis for any drilling, 
#completion, production, or financial decision or any procedure involving any risk to the 
#safety of any drilling venture, drilling rig or its crew or any other third party.  The 
#Customer has full responsibility for all drilling, completion and production operation.  
#Halliburton makes no representations or warranties, either expressed or 
#implied, including, but not limited to, the implied warranties of merchantability or fitness 
#for a particular purpose, with respect to the services rendered.  In no event will 
#Halliburton be liable for failure to obtain any particular results or for 
#any damages, including, but not limited to, indirect, special or consequential damages, 
#resulting from the use of any information or interpretation provided by Halliburton.
#
~A           TIME           GTDEPTH  GTPQH  GTTQ  GTTN  GTET   GTTVD  
# ...
   05:09:35.992.18-Jan-2020 3717.16 6364.86 78.91 1.00 161.05 2797.33
   05:09:36.192.18-Jan-2020 3717.16 6364.86 78.91 1.00 161.25 2797.33
   05:09:36.392.18-Jan-2020 3717.16 6360.76 78.91 1.00 161.45 2797.33
   05:09:36.592.18-Jan-2020 3717.16 6359.74 78.91 1.00 161.65 2797.33
   05:09:36.792.18-Jan-2020 3717.16 6362.21 78.91 1.00 161.85 2797.33
   05:09:36.992.18-Jan-2020 3717.16 6359.91 78.91 1.00 162.05 2797.33
   05:09:37.192.18-Jan-2020 3717.16 6359.91 78.91 1.00 162.25 2797.33
   05:09:37.392.18-Jan-2020 3717.16 6359.09 78.91 1.00 162.45 2797.33
   05:09:37.592.18-Jan-2020 3717.16 6358.34 78.90 1.00 162.65 2797.33
   05:09:37.792.18-Jan-2020 3717.16 6359.86 78.90 1.00 162.85 2797.33
   05:09:37.992.18-Jan-2020 3717.16 6361.34 78.90 1.00 163.05 2797.33
   05:09:38.192.18-Jan-2020 3717.16 6361.34 78.90 1.00 163.25 2797.33
   05:09:38.392.18-Jan-2020 3717.16 6358.27 78.90 1.00 163.45 2797.33
   05:09:38.592.18-Jan-2020 3717.16 6361.29 78.90 1.00 163.65 2797.33
   05:09:38.793.18-Jan-2020 3717.16 6360.66 78.90 1.00 163.85 2797.33
   05:09:38.993.18-Jan-2020 3717.16 6360.71 78.90 1.00 164.05 2797.33
   05:09:39.193.18-Jan-2020 3717.16 6360.71 78.90 1.00 164.25 2797.33
   05:09:39.393.18-Jan-2020 3717.16 6372.52 78.90 1.00 164.45 2797.33
   05:09:39.593.18-Jan-2020 3717.16 6357.98 78.90 1.00 164.65 2797.33
   05:09:39.793.18-Jan-2020 3717.16 6358.38 78.90 1.00 164.85 2797.33
   05:09:39.993.18-Jan-2020 3717.16 6360.89 78.90 1.00 165.05 2797.33
   05:09:40.193.18-Jan-2020 3717.16 6360.89 78.90 1.00 165.25 2797.33
   05:09:40.393.18-Jan-2020 3717.16 6358.75 78.90 1.00 165.45 2797.33
   05:09:40.593.18-Jan-2020 3717.16 6358.46 78.90 1.00 165.65 2797.33
   05:09:40.793.18-Jan-2020 3717.16 6357.73 78.90 1.00 165.85 2797.33
   05:09:40.993.18-Jan-2020 3717.16 6357.25 78.90 1.00 166.05 2797.33
   05:09:41.193.18-Jan-2020 3717.16 6357.25 78.90 1.00 166.25 2797.33
   05:09:41.393.18-Jan-2020 3717.16 6358.53 78.90 1.00 166.45 2797.33
   05:09:41.593.18-Jan-2020 3717.16 6359.32 78.90 1.00 166.65 2797.33
   05:09:41.793.18-Jan-2020 3717.16 6369.51 78.90 1.00 166.85 2797.33
   05:09:41.993.18-Jan-2020 3717.16 6357.43 78.90 1.00 167.05 2797.33
   05:09:42.194.18-Jan-2020 3717.16 6357.43 78.90 1.00 167.25 2797.33
   05:09:42.394.18-Jan-2020 3717.16 6362.19 78.90 1.00 167.45 2797.33
   05:09:42.594.18-Jan-2020 3717.16 6359.03 78.90 1.00 167.65 2797.33
   05:09:42.794.18-Jan-2020 3717.16 6365.11 78.90 1.00 167.85 2797.33
   05:09:42.994.18-Jan-2020 3717.16 6364.44 78.90 1.00 168.05 2797.33
   05:09:43.194.18-Jan-2020 3717.16 6364.44 78.90 1.00 168.25 2797.33
   05:09:43.394.18-Jan-2020 3717.16 6359.38 78.90 1.00 168.45 2797.33
   05:09:43.594.18-Jan-2020 3717.16 6357.38 78.90 1.00 168.65 2797.33
   05:09:43.794.18-Jan-2020 3717.16 6357.55 78.90 1.00 168.85 2797.33
   05:09:43.994.18-Jan-2020 3717.16 6363.03 78.90 1.00 169.05 2797.33
   05:09:44.194.18-Jan-2020 3717.16 6363.03 78.90 1.00 169.25 2797.33
   05:09:44.394.18-Jan-2020 3717.16 6356.81 78.90 1.00 169.45 2797.33
   05:09:44.594.18-Jan-2020 3717.16 6361.69 78.90 1.00 169.65 2797.33
   05:09:44.794.18-Jan-2020 3717.16 6358.97 78.90 1.00 169.85 2797.33
   05:09:44.994.18-Jan-2020 3717.16 6358.90 78.90 1.00 170.05 2797.33
   05:09:45.194.18-Jan-2020 3717.16 6358.90 78.90 1.00 170.25 2797.33
   05:09:45.394.18-Jan-2020 3717.16 6357.80 78.90 1.00 170.45 2797.33
   05:09:45.594.18-Jan-2020 3717.16 6359.54 78.90 1.00 170.65 2797.33
   05:09:45.795.18-Jan-2020 3717.16 6362.29 78.90 1.00 170.85 2797.33
   05:09:45.995.18-Jan-2020 3717.16 6360.12 78.90 1.00 171.05 2797.33
   05:09:46.195.18-Jan-2020 3717.16 6360.12 78.90 1.00 171.25 2797.33
   05:09:46.395.18-Jan-2020 3717.16 6357.87 78.90 1.00 171.45 2797.33
   05:09:46.595.18-Jan-2020 3717.16 6358.58 78.90 1.00 171.65 2797.33
   05:09:46.795.18-Jan-2020 3717.16 6359.94 78.90 1.00 171.85 2797.33
   05:09:46.995.18-Jan-2020 3717.16 6360.71 78.90 1.00 172.05 2797.33
   05:09:47.195.18-Jan-2020 3717.16 6360.71 78.90 1.00 172.25 2797.33
   05:09:47.395.18-Jan-2020 3717.16 6358.12 78.90 1.00 172.45 2797.33
   05:09:47.595.18-Jan-2020 3717.16 6356.41 78.90 1.00 172.65 2797.33
   05:09:47.795.18-Jan-2020 3717.16 6358.79 78.90 1.00 172.85 2797.33
   05:09:47.995.18-Jan-2020 3717.16 6360.85 78.90 1.00 173.05 2797.33
   05:09:48.195.18-Jan-2020 3717.16 6360.85 78.90 1.00 173.25 2797.33
   05:09:48.395.18-Jan-2020 3717.16 6359.20 78.90 1.00 173.45 2797.33
   05:09:48.595.18-Jan-2020 3717.16 6365.14 78.90 1.00 173.65 2797.33
   05:09:48.795.18-Jan-2020 3717.16 6364.99 78.90 1.00 173.85 2797.33
   05:09:48.995.18-Jan-2020 3717.16 6358.90 78.90 1.00 174.05 2797.33
   05:09:49.195.18-Jan-2020 3717.16 6358.90 78.90 1.00 174.25 2797.33
   05:09:49.396.18-Jan-2020 3717.16 6359.00 78.90 1.00 174.45 2797.33
   05:09:49.596.18-Jan-2020 3717.16 6358.99 78.90 1.00 174.65 2797.33
   05:09:49.796.18-Jan-2020 3717.16 6356.83 78.90 1.00 174.85 2797.33
   05:09:49.996.18-Jan-2020 3717.16 6358.34 78.90 1.00 175.05 2797.33
   05:09:50.196.18-Jan-2020 3717.16 6358.34 78.90 1.00 175.25 2797.33
   05:09:50.396.18-Jan-2020 3717.16 6357.86 78.90 1.00 175.45 2797.33
   05:09:50.596.18-Jan-2020 3717.16 6357.63 78.90 1.00 175.65 2797.33
   05:09:50.796.18-Jan-2020 3717.16 6357.55 78.90 1.00 175.85 2797.33
   05:09:50.996.18-Jan-2020 3717.16 6362.23 78.90 1.00 176.05 2797.33
   05:09:51.196.18-Jan-2020 3717.16 6362.23 78.90 1.00 176.25 2797.33
   05:09:51.396.18-Jan-2020 3717.16 6358.90 78.90 1.00 176.45 2797.33
   05:09:51.596.18-Jan-2020 3717.16 6361.92 78.90 1.00 176.65 2797.33
   05:09:51.796.18-Jan-2020 3717.16 6359.70 78.90 1.00 176.85 2797.33
   05:09:51.996.18-Jan-2020 3717.16 6356.93 78.90 1.00 177.05 2797.33
   05:09:52.196.18-Jan-2020 3717.16 6356.93 78.90 1.00 177.25 2797.33
   05:09:52.396.18-Jan-2020 3717.16 6359.07 78.90 1.00 177.45 2797.33
   05:09:52.596.18-Jan-2020 3717.16 6360.01 78.90 1.00 177.65 2797.33
   05:09:52.797.18-Jan-2020 3717.16 6357.27 78.90 1.00 177.85 2797.33
   05:09:52.997.18-Jan-2020 3717.16 6359.04 78.90 1.00 178.05 2797.33
   05:09:53.197.18-Jan-2020 3717.16 6359.04 78.90 1.00 178.25 2797.33
   05:09:53.397.18-Jan-2020 3717.16 6365.70 78.90 1.00 178.45 2797.33
   05:09:53.597.18-Jan-2020 3717.16 6359.30 78.90 1.00 178.65 2797.33
   05:09:53.797.18-Jan-2020 3717.16 6357.83 78.90 1.00 178.85 2797.33
   05:09:53.997.18-Jan-2020 3717.16 6362.40 78.90 1.00 179.05 2797.33
   05:09:54.197.18-Jan-2020 3717.16 6362.40 78.90 1.00 179.25 2797.33
   05:09:54.397.18-Jan-2020 3717.16 6360.66 78.90 1.00 179.45 2797.33
   05:09:54.597.18-Jan-2020 3717.16 6359.01 78.90 1.00 179.65 2797.33
   05:09:54.797.18-Jan-2020 3717.16 6361.16 78.90 1.00 179.85 2797.33
   05:09:54.997.18-Jan-2020 3717.16 6360.19 78.90 1.00 180.05 2797.33
   05:09:55.197.18-Jan-2020 3717.16 6360.19 78.90 1.00 180.25 2797.33
   05:09:55.397.18-Jan-2020 3717.16 6357.70 78.89 1.00 180.45 2797.33
   05:09:55.597.18-Jan-2020 3717.16 6359.19 78.89 1.00 180.65 2797.33
   05:09:55.797.18-Jan-2020 3717.16 6356.61 78.89 1.00 180.85 2797.33
   05:09:55.997.18-Jan-2020 3717.16 6359.59 78.89 1.00 181.05 2797.33
   05:09:56.197.18-Jan-2020 3717.16 6359.59 78.89 1.00 181.25 2797.33
   05:09:56.398.18-Jan-2020 3717.16 6359.68 78.89 1.00 181.45 2797.33
   05:09:56.598.18-Jan-2020 3717.16 6356.55 78.89 1.00 181.65 2797.33
   05:09:56.798.18-Jan-2020 3717.16 6358.40 78.89 1.00 181.85 2797.33
   05:09:56.998.18-Jan-2020 3717.16 6360.03 78.89 1.00 182.05 2797.33
   05:09:57.198.18-Jan-2020 3717.16 6360.03 78.89 1.00 182.25 2797.33
   05:09:57.398.18-Jan-2020 3717.16 6358.28 78.89 1.00 182.45 2797.33
   05:09:57.598.18-Jan-2020 3717.16 6367.00 78.89 1.00 182.65 2797.33
   05:09:57.798.18-Jan-2020 3717.16 6362.01 78.89 1.00 182.85 2797.33
   05:09:57.998.18-Jan-2020 3717.16 6356.29 78.89 1.00 183.05 2797.33
   05:09:58.198.18-Jan-2020 3717.16 6356.29 78.89 1.00 183.25 2797.33
   05:09:58.398.18-Jan-2020 3717.16 6357.83 78.89 1.00 183.45 2797.33
   05:09:58.598.18-Jan-2020 3717.16 6359.31 78.89 1.00 183.65 2797.33
   05:09:58.798.18-Jan-2020 3717.16 6358.11 78.89 1.00 183.85 2797.33
