~Version Information
 VERS.                  2.0:   CWLS log ASCII Standard -VERSION 2.0
 WRAP.                   NO:   One line per depth step
~Well Information Block
#MNEM.UNIT     VALUE/NAME     DESCRIPTION
#---------     -----------    ---------------------------
 STRT.S             05:06:54 18-Jan-20: START TIME 05:06:54 18-Jan-20
 STOP.S             05:17:00 18-Jan-20: STOP TIME  05:17:00 18-Jan-20
 STEP.S                   0.00: STEP TIME
 NULL.                 -999.25: NULL VALUE
 DFWT.                        :  DIST FWL TEXT
 DFST.                        :  DIST FSL TEXT
 DMF .             Drill Floor:  DRILL MEAS FROM
 STIM.      09.30.00 26-Dec-19:  START TIME
 DATE.      08.00.00 20-Jan-20:  END TIME
 SPUD.               23-Nov-19:  SPUD DATE
 NREF.                    Grid:  NORTH REFERENCE
 HPTY.       Minimum Curvature:  HOLE POS TYPE
 DMOD.             Drill Model:  DRILL MOD DESC
 SVYD.                  Survey:  SURVEY DESC
 ILTD.               Lithology:  INTERP LTH DESC
 FTOP.          Formation Tops:  FORM TOPS DESC
 SON .        AZ-XX-0906192647:  JOB NUMBER
 WTYP.                Deviated:  WELL TYPE
 COMP.     BP Exploration (Caspian Sea) Ltd:  COMPANY
 BASE.              Azerbaijan:  LOGGING EQUIPMENT BASE LOCATION
 REGN.                 Eurasia:  REGION
 FLD .                     ACG:  FIELD NAME
 SRVC.              KCA Deutag:  CONTRACTOR
 MWDS.                    Baku:  MWD SHOP
 WELL.     A10 (Slot 20) - SCP:  WELL NAME
 JOBN.        AZ-XX-0906192647:  JOB TICKET NUMB
 RIG .                 Chirag1:  RIG NAME
 DCON.     Halliburton Sperry Drilling:  DIRECTNL CONTR
 UNIT.                     N/A:  LOGGING EQUIPMENT ID
 PDAT.          Mean Sea Level:  PERMANENT DATUM
 MDS .        Operator Entered:  MAG DATA SOURCE
 CTRY.              Azerbaijan:  COUNTRY NAME
 UWI .            /AZE00000090:  UNIQUE WELL IDENTIFIER
 API .            /AZE00000090:  API NUMBER
 CNTY.                        :  COUNTY
 PROV.                        :  PROVINCE
 STAT.                        :  STATE
 LOC .                        :  LOCATION
 LMF .             Drill Floor:  LOG MEASURED FROM
 TVDS.m                  36.60:  TVDSS CORRECTN
 LATI.deg                40.08:  LATITUDE
 LONG.deg                51.24:  LONGITUDE
 WHNS.m                  -7.94:  WELL HEAD N/S
 WHEW.m                   1.56:  WELL HEAD E/W
 UTMX.m              520429.26:  UTM X
 UTMY.m             4438973.87:  UTM Y
 DFWL.m                   0.00:  DISTANCE FWL
 DFSL.m                   0.00:  DISTANCE FSL
 SDEP.m                1455.00:  START DEPTH
 TDD .m                3878.01:  TOTAL DEPTH (DRILLER)
 VSDR.deg               112.75:  VERT SEC DIRECT
 GVFD.g                   1.00:  GRAVITY FIELD
 MFLD.nT              50256.00:  MAGNETIC FIELD
 MDIP.deg                59.52:  MAGNETIC DIP
 MDEC.deg                 6.43:  MAGNETIC DECL
 GRDC.deg                 0.16:  GRID CORRECTION
 AZTC.deg                 6.27:  AZM TOTAL CORR
 EPD .m                   0.00:  ELEVATION
 EGL .m                   0.00:  GROUND ELEVATION
 WDMS.m                 121.00:  WD ELEV
 APD .m                  36.60:  DEPTH ABOVE PD
 AGAP.m                  36.60:  AIR GAP
 VSEW.m                   1.56:  VERT SEC E/W
 VSNS.m                  -7.94:  VERT SEC N/S
 DEP .m                1140.01:  DEPTH
 EKB .m                  36.60:  KB ELEVATION
 EDF .m                  36.60:  DF ELEVATION
 TDL .m                1293.00:  TOTAL DEPTH (LOGGER)
 VSC .                       0:  VS TO CLOSURE
 MAGU.                 1849164:  MAGUTM CHECKSUM
~Parameter Information Block
#MNEM.UNIT       Value        Description
#---------     -----------    ---------------------------
 AV  .mps                 2.40:  Ann Velocity 
 AVMX.mps                 2.55:  Max Ann Veloc 
 AZIF.deg               134.35:  Azm, Final 
 BHAT.        Rotary Steerable:  BHA Type 
 BREV.rev               847.00:  Rev Bit Total 
 BROT.�/30m              -2.51:  Build Rotating 
 BS  .in                  8.50:  Bit Size 
 BSZ .in                  8.50:  Bit Size 
 BTPL.psig              700.00:  Bit Press Loss 
 CABU.                     Yes:  Customer Abuse 
 CGEO.          Ilgar Gurbanov:  Customer Geo 
 COMM.                     ��L:  Run Comments 1 
 TCS .hr                140.40:  Time Ciculation Ended 
 CV  .mps                 2.27:  Crit Velocity 
 CVMX.mps                 2.45:  Max Crit Veloc 
 DD1 .         Intigam Rahimov:  Direct Drillr 1 
 DD2 .         Rasim Ibrahimov:  Direct Drillr 2 
 DDSV.                 iCruise:  DD Service 
 DEFF.%                  99.00:  % Det Eff 
 DLRX.�/30m               3.28:  Dogleg Rot Max 
 DLSO.�/30m               0.00:  Dogleg Oriented 
 DLSX.�/30m               0.00:  Dogleg Str Max 
 DRET.      23.30.00 18-Jan-20:  Drill End Time 
 DRST.      01.45.00 11-Jan-20:  Drill Start Tim 
 DTIM.hr                 94.00:  Time Drilling 
 EDEP.m                3878.01:  End Depth 
 ENG1.       Dauren Baktybayev:  Engineer 1 
 ENG2.      Natik Hasanaghayev:  Engineer 2 
 ENG3.          Rustam Safarov:  Engineer 3 
 ETIM.      08.00.00 20-Jan-20:  End Time 
 FLOI.gpm               532.00:  Flow In 
 FLON.gpm               500.00:  Flow In Min 
 FLOS.cptm                0.00:  Fluid Loss 
 FLOX.gpm               540.00:  Flow In Max 
 FTRO.       Formation Presure:  FTWD Run Obj 
 HPRE.                     Yes:  High Pressure 
 HTEM.                      No:  High Temp 
 HYDO.m                   1.80:  Hydro Offset 
 IFIN.deg                39.86:  Inc, Final 
 IMAX.deg                59.73:  Inc Max 
 IMIN.deg                39.25:  Inc Min 
 IMND.m                3816.77:  Inc Min Depth 
 IMXD.m                2596.33:  Inc Max Depth 
 JARR.                      No:  Jarring 
 LETM.      23.30.00 18-Jan-20:  Log End Time 
 LOST.hr                     0:  Lost Rig Time 
 LSTM.      01.45.00 11-Jan-20:  Log Start Time 
 MDCL.ppm             41500.00:  Mud Chlorides 
 MDES.     Inversion Oil/Synthetic:  Mud Desc 
 DFD .sg                  1.48:  Mud Density 
 MDMN.sg                  1.48:  Dens Mud Min 
 MDMX.sg                  1.48:  Dens Mud Max 
 MOIL.                      54:  Run Mud Oil % 
 MOWR.                   72:28:  Run Mud OWR 
 MSND.                       0:  Run Mud Sand % 
 MSOL.                      23:  Run Mud Solids% 
 DFV .spqt               86.00:  Mud Viscosity 
 MWOD.in                  6.75:  MWD Tool OD 
 MWSI.                      No:  Serv Intrp, MWD 
 OTIM.hr                223.40:  Time Operating 
 PCON.           Look Like New:  Pad Condition 
 PMAX.psia            32446.79:  Press Op, Max 
 PV  .cP                 49.00:  Mud PV 
 RUN .                     200:  Run Number 
 ROPA.m/hr               12.48:  ROP Avg 
 ROPN.m/hr                8.00:  ROP Min 
 ROPX.m/hr               27.00:  ROP Max 
 RPMA.rpm               121.00:  RPM Surface Avg 
 RPMN.rpm                60.00:  RPM Surface Min 
 RPMX.rpm               140.00:  RPM Surface Max 
 RRUN.                    L202:  Rig Run Number 
 RTIM.hr                  7.25:  Time Reaming 
 SAZI.deg               123.49:  Azm, Start 
 SDEP.m                2585.01:  Start Depth 
 SIDD.                      No:  Serv Intrp, DD 
 SINC.deg                59.93:  Inc, Start 
 SPPA.psig             3539.00:  SPP Avg 
 SPPN.psig             3050.00:  SPP Min 
 SPPX.psig             3950.00:  SPP Max 
 STIM.      19.00.00 10-Jan-20:  Start Time 
 SVCS.                 DD, MWD:  Services 
 SVER.                    9.20:  Sperry Version 
 TDAT.m                1293.00:  Tot Depth Attmp 
 TDDF.                      No:  Trip for DD 
 TDLG.m                1293.00:  Tot Depth Loggd 
 TFF .                      No:  Trip for Fail 
 TQAA.f-kp               16.00:  Torque Abs Avg 
 TQAN.f-kp               11.00:  Torque Abs Min 
 TQAX.f-kp               18.00:  Torque Abs Max 
 TRRT.�/30m               1.25:  Turn Rotating 
 MRT .                  EWR-M5:  Maximum Recorded Temperature 
 TTMX.degC               84.00:  Max Tool Temp 
 VS01.          AZ90514619R5C6:  Virtual Str1 SN 
 VS02.        AZ90552592N2L2C6:  Virtual Str2 SN 
 VS03.        AZ90571337Z1W1C6:  Virtual Str3 SN 
 VS04.         AZ90513690K23C6:  Virtual Str4 SN 
 VS05.           AZ90594857F11:  Virtual Str5 SN 
 VS06.                13102166:  Virtual Str6 SN 
 WBMN.klb                 7.00:  WOB Min 
 WITN.            Peter Wilson:  Customer Rep 
 WOBA.klb                 9.95:  WOB Avg 
 WOBX.klb                10.00:  WOB Max 
 YP  .lhf2               36.00:  Yield Point 
~Curve Information Block
#MNEM.UNIT                 API CODE     Curve Description
#---------               -----------    ---------------------------
 TIME.HHMMSS            00 000 000 000:  GT Time & Date
 GTDEPTH.m              00 000 000 000:  GT Depth
 GTPQH.psia             00 000 000 000:  GT HR Quartz Pressure
 GTTQ.degC              00 000 000 000:  GT Quartz Temperature
 GTTN.NONE              00 000 000 000:  GT Test Number
 GTET.sec               00 000 000 000:  GT Elapsed Test Time
 GTTVD.m                00 000 000 000:  GT True Vertical Depth
#Other Information
#
#WARRANTY: Halliburton will use its best efforts to furnish customers with 
#accurate information and interpretations that are part of, and incident to, the services 
#provided.  However, Halliburton cannot and does not warrant the accuracy 
#or correctness of such information and interpretations.  Under no circumstances should any 
#such information or interpretation be relied upon as the sole basis for any drilling, 
#completion, production, or financial decision or any procedure involving any risk to the 
#safety of any drilling venture, drilling rig or its crew or any other third party.  The 
#Customer has full responsibility for all drilling, completion and production operation.  
#Halliburton makes no representations or warranties, either expressed or 
#implied, including, but not limited to, the implied warranties of merchantability or fitness 
#for a particular purpose, with respect to the services rendered.  In no event will 
#Halliburton be liable for failure to obtain any particular results or for 
#any damages, including, but not limited to, indirect, special or consequential damages, 
#resulting from the use of any information or interpretation provided by Halliburton.
#
~A           TIME           GTDEPTH  GTPQH  GTTQ  GTTN  GTET   GTTVD  
# ...
   05:13:49.063.18-Jan-2020 3717.16 6354.92 78.77 1.00 414.12 2797.33
   05:13:49.263.18-Jan-2020 3717.16 6354.92 78.77 1.00 414.32 2797.33
   05:13:49.464.18-Jan-2020 3717.16 6359.05 78.77 1.00 414.52 2797.33
   05:13:49.664.18-Jan-2020 3717.16 6351.89 78.77 1.00 414.72 2797.33
   05:13:49.864.18-Jan-2020 3717.16 6356.91 78.77 1.00 414.92 2797.33
   05:13:50.064.18-Jan-2020 3717.16 6354.36 78.77 1.00 415.12 2797.33
   05:13:50.264.18-Jan-2020 3717.16 6354.36 78.77 1.00 415.32 2797.33
   05:13:50.464.18-Jan-2020 3717.16 6355.39 78.77 1.00 415.52 2797.33
   05:13:50.664.18-Jan-2020 3717.16 6354.87 78.77 1.00 415.72 2797.33
   05:13:50.864.18-Jan-2020 3717.16 6352.76 78.77 1.00 415.92 2797.33
   05:13:51.064.18-Jan-2020 3717.16 6352.67 78.77 1.00 416.12 2797.33
   05:13:51.264.18-Jan-2020 3717.16 6352.67 78.77 1.00 416.32 2797.33
   05:13:51.464.18-Jan-2020 3717.16 6355.83 78.77 1.00 416.52 2797.33
   05:13:51.664.18-Jan-2020 3717.16 6354.38 78.77 1.00 416.72 2797.33
   05:13:51.864.18-Jan-2020 3717.16 6351.98 78.77 1.00 416.92 2797.33
   05:13:52.064.18-Jan-2020 3717.16 6355.21 78.77 1.00 417.12 2797.33
   05:13:52.264.18-Jan-2020 3717.16 6355.21 78.77 1.00 417.32 2797.33
   05:13:52.464.18-Jan-2020 3717.16 6353.97 78.76 1.00 417.52 2797.33
   05:13:52.664.18-Jan-2020 3717.16 6352.18 78.76 1.00 417.72 2797.33
   05:13:52.864.18-Jan-2020 3717.16 6363.26 78.76 1.00 417.92 2797.33
   05:13:53.065.18-Jan-2020 3717.16 6354.38 78.76 1.00 418.12 2797.33
   05:13:53.265.18-Jan-2020 3717.16 6354.38 78.76 1.00 418.32 2797.33
   05:13:53.465.18-Jan-2020 3717.16 6353.72 78.76 1.00 418.52 2797.33
   05:13:53.665.18-Jan-2020 3717.16 6353.95 78.76 1.00 418.72 2797.33
   05:13:53.865.18-Jan-2020 3717.16 6353.24 78.76 1.00 418.92 2797.33
   05:13:54.065.18-Jan-2020 3717.16 6353.07 78.76 1.00 419.12 2797.33
   05:13:54.265.18-Jan-2020 3717.16 6353.07 78.76 1.00 419.32 2797.33
   05:13:54.465.18-Jan-2020 3717.16 6351.45 78.76 1.00 419.52 2797.33
   05:13:54.665.18-Jan-2020 3717.16 6353.75 78.76 1.00 419.72 2797.33
   05:13:54.865.18-Jan-2020 3717.16 6352.27 78.76 1.00 419.92 2797.33
   05:13:55.065.18-Jan-2020 3717.16 6353.39 78.76 1.00 420.12 2797.33
   05:13:55.265.18-Jan-2020 3717.16 6353.39 78.76 1.00 420.32 2797.33
   05:13:55.465.18-Jan-2020 3717.16 6353.83 78.76 1.00 420.52 2797.33
   05:13:55.665.18-Jan-2020 3717.16 6354.34 78.76 1.00 420.72 2797.33
   05:13:55.865.18-Jan-2020 3717.16 6354.94 78.76 1.00 420.92 2797.33
   05:13:56.065.18-Jan-2020 3717.16 6352.10 78.76 1.00 421.12 2797.33
   05:13:56.265.18-Jan-2020 3717.16 6352.10 78.76 1.00 421.32 2797.33
   05:13:56.466.18-Jan-2020 3717.16 6358.23 78.76 1.00 421.52 2797.33
   05:13:56.666.18-Jan-2020 3717.16 6350.64 78.76 1.00 421.72 2797.33
   05:13:56.866.18-Jan-2020 3717.16 6353.42 78.76 1.00 421.92 2797.33
   05:13:57.066.18-Jan-2020 3717.16 6350.77 78.76 1.00 422.12 2797.33
   05:13:57.266.18-Jan-2020 3717.16 6350.77 78.76 1.00 422.32 2797.33
   05:13:57.466.18-Jan-2020 3717.16 6349.82 78.76 1.00 422.52 2797.33
   05:13:57.666.18-Jan-2020 3717.16 6360.41 78.76 1.00 422.72 2797.33
   05:13:57.866.18-Jan-2020 3717.16 6353.57 78.76 1.00 422.92 2797.33
   05:13:58.066.18-Jan-2020 3717.16 6355.14 78.76 1.00 423.12 2797.33
   05:13:58.266.18-Jan-2020 3717.16 6355.14 78.76 1.00 423.32 2797.33
   05:13:58.466.18-Jan-2020 3717.16 6353.89 78.76 1.00 423.52 2797.33
   05:13:58.666.18-Jan-2020 3717.16 6352.27 78.76 1.00 423.72 2797.33
   05:13:58.866.18-Jan-2020 3717.16 6362.39 78.76 1.00 423.92 2797.33
   05:13:59.066.18-Jan-2020 3717.16 6356.40 78.76 1.00 424.12 2797.33
   05:13:59.266.18-Jan-2020 3717.16 6356.40 78.76 1.00 424.32 2797.33
   05:13:59.466.18-Jan-2020 3717.16 6354.53 78.76 1.00 424.52 2797.33
   05:13:59.666.18-Jan-2020 3717.16 6352.75 78.76 1.00 424.72 2797.33
   05:13:59.866.18-Jan-2020 3717.16 6353.21 78.76 1.00 424.92 2797.33
   05:14:00.067.18-Jan-2020 3717.16 6352.82 78.76 1.00 425.12 2797.33
   05:14:00.267.18-Jan-2020 3717.16 6352.82 78.76 1.00 425.32 2797.33
   05:14:00.467.18-Jan-2020 3717.16 6354.45 78.76 1.00 425.52 2797.33
   05:14:00.667.18-Jan-2020 3717.16 6354.25 78.76 1.00 425.72 2797.33
   05:14:00.867.18-Jan-2020 3717.16 6352.26 78.76 1.00 425.92 2797.33
   05:14:01.067.18-Jan-2020 3717.16 6352.16 78.76 1.00 426.12 2797.33
   05:14:01.267.18-Jan-2020 3717.16 6352.16 78.76 1.00 426.32 2797.33
   05:14:01.467.18-Jan-2020 3717.16 6353.55 78.76 1.00 426.52 2797.33
   05:14:01.667.18-Jan-2020 3717.16 6354.77 78.76 1.00 426.72 2797.33
   05:14:01.867.18-Jan-2020 3717.16 6353.69 78.76 1.00 426.92 2797.33
   05:14:02.067.18-Jan-2020 3717.16 6351.96 78.76 1.00 427.12 2797.33
   05:14:02.267.18-Jan-2020 3717.16 6351.96 78.76 1.00 427.32 2797.33
   05:14:02.467.18-Jan-2020 3717.16 6356.89 78.76 1.00 427.52 2797.33
   05:14:02.667.18-Jan-2020 3717.16 6351.84 78.76 1.00 427.72 2797.33
   05:14:02.867.18-Jan-2020 3717.16 6355.57 78.76 1.00 427.92 2797.33
   05:14:03.067.18-Jan-2020 3717.16 6351.16 78.76 1.00 428.12 2797.33
   05:14:03.267.18-Jan-2020 3717.16 6351.16 78.76 1.00 428.32 2797.33
   05:14:03.467.18-Jan-2020 3717.16 6351.97 78.76 1.00 428.52 2797.33
   05:14:03.668.18-Jan-2020 3717.16 6352.70 78.76 1.00 428.72 2797.33
   05:14:03.868.18-Jan-2020 3717.16 6352.00 78.76 1.00 428.92 2797.33
   05:14:04.068.18-Jan-2020 3717.16 6351.68 78.76 1.00 429.12 2797.33
   05:14:04.268.18-Jan-2020 3717.16 6351.68 78.76 1.00 429.32 2797.33
   05:14:04.468.18-Jan-2020 3717.16 6350.57 78.76 1.00 429.52 2797.33
   05:14:04.668.18-Jan-2020 3717.16 6359.96 78.76 1.00 429.72 2797.33
   05:14:04.868.18-Jan-2020 3717.16 6355.80 78.76 1.00 429.92 2797.33
   05:14:05.068.18-Jan-2020 3717.16 6353.84 78.76 1.00 430.12 2797.33
   05:14:05.268.18-Jan-2020 3717.16 6353.84 78.76 1.00 430.32 2797.33
   05:14:05.468.18-Jan-2020 3717.16 6352.52 78.76 1.00 430.52 2797.33
   05:14:05.668.18-Jan-2020 3717.16 6360.18 78.76 1.00 430.72 2797.33
   05:14:05.868.18-Jan-2020 3717.16 6355.01 78.76 1.00 430.92 2797.33
   05:14:06.068.18-Jan-2020 3717.16 6351.46 78.76 1.00 431.12 2797.33
   05:14:06.268.18-Jan-2020 3717.16 6351.46 78.76 1.00 431.32 2797.33
   05:14:06.468.18-Jan-2020 3717.16 6351.33 78.76 1.00 431.52 2797.33
   05:14:06.668.18-Jan-2020 3717.16 6350.80 78.76 1.00 431.72 2797.33
   05:14:06.868.18-Jan-2020 3717.16 6357.76 78.76 1.00 431.92 2797.33
   05:14:07.069.18-Jan-2020 3717.16 6354.78 78.76 1.00 432.12 2797.33
   05:14:07.269.18-Jan-2020 3717.16 6354.78 78.76 1.00 432.32 2797.33
   05:14:07.469.18-Jan-2020 3717.16 6361.55 78.76 1.00 432.52 2797.33
   05:14:07.669.18-Jan-2020 3717.16 6358.06 78.76 1.00 432.72 2797.33
   05:14:07.869.18-Jan-2020 3717.16 6352.18 78.76 1.00 432.92 2797.33
   05:14:08.069.18-Jan-2020 3717.16 6353.40 78.76 1.00 433.12 2797.33
   05:14:08.269.18-Jan-2020 3717.16 6353.40 78.76 1.00 433.32 2797.33
   05:14:08.469.18-Jan-2020 3717.16 6354.14 78.75 1.00 433.52 2797.33
   05:14:08.669.18-Jan-2020 3717.16 6354.47 78.75 1.00 433.72 2797.33
   05:14:08.869.18-Jan-2020 3717.16 6353.25 78.75 1.00 433.92 2797.33
   05:14:09.069.18-Jan-2020 3717.16 6352.41 78.75 1.00 434.12 2797.33
   05:14:09.269.18-Jan-2020 3717.16 6352.41 78.75 1.00 434.32 2797.33
   05:14:09.469.18-Jan-2020 3717.16 6352.71 78.75 1.00 434.52 2797.33
   05:14:09.669.18-Jan-2020 3717.16 6354.44 78.75 1.00 434.72 2797.33
   05:14:09.869.18-Jan-2020 3717.16 6354.56 78.75 1.00 434.92 2797.33
   05:14:10.069.18-Jan-2020 3717.16 6352.06 78.75 1.00 435.12 2797.33
   05:14:10.269.18-Jan-2020 3717.16 6352.06 78.75 1.00 435.32 2797.33
   05:14:10.469.18-Jan-2020 3717.16 6354.10 78.75 1.00 435.52 2797.33
   05:14:10.670.18-Jan-2020 3717.16 6352.83 78.75 1.00 435.72 2797.33
   05:14:10.870.18-Jan-2020 3717.16 6353.28 78.75 1.00 435.92 2797.33
   05:14:11.070.18-Jan-2020 3717.16 6364.59 78.75 1.00 436.12 2797.33
   05:14:11.270.18-Jan-2020 3717.16 6364.59 78.75 1.00 436.32 2797.33
   05:14:11.470.18-Jan-2020 3717.16 6350.51 78.75 1.00 436.52 2797.33
   05:14:11.670.18-Jan-2020 3717.16 6355.33 78.75 1.00 436.72 2797.33
   05:14:11.870.18-Jan-2020 3717.16 6352.97 78.75 1.00 436.92 2797.33
