~Version Information
 VERS.                  2.0:   CWLS log ASCII Standard -VERSION 2.0
 WRAP.                   NO:   One line per depth step
~Well Information Block
#MNEM.UNIT     VALUE/NAME     DESCRIPTION
#---------     -----------    ---------------------------
 STRT.S             05:06:54 18-Jan-20: START TIME 05:06:54 18-Jan-20
 STOP.S             05:17:00 18-Jan-20: STOP TIME  05:17:00 18-Jan-20
 STEP.S                   0.00: STEP TIME
 NULL.                 -999.25: NULL VALUE
 DFWT.                        :  DIST FWL TEXT
 DFST.                        :  DIST FSL TEXT
 DMF .             Drill Floor:  DRILL MEAS FROM
 STIM.      09.30.00 26-Dec-19:  START TIME
 DATE.      08.00.00 20-Jan-20:  END TIME
 SPUD.               23-Nov-19:  SPUD DATE
 NREF.                    Grid:  NORTH REFERENCE
 HPTY.       Minimum Curvature:  HOLE POS TYPE
 DMOD.             Drill Model:  DRILL MOD DESC
 SVYD.                  Survey:  SURVEY DESC
 ILTD.               Lithology:  INTERP LTH DESC
 FTOP.          Formation Tops:  FORM TOPS DESC
 SON .        AZ-XX-0906192647:  JOB NUMBER
 WTYP.                Deviated:  WELL TYPE
 COMP.     BP Exploration (Caspian Sea) Ltd:  COMPANY
 BASE.              Azerbaijan:  LOGGING EQUIPMENT BASE LOCATION
 REGN.                 Eurasia:  REGION
 FLD .                     ACG:  FIELD NAME
 SRVC.              KCA Deutag:  CONTRACTOR
 MWDS.                    Baku:  MWD SHOP
 WELL.     A10 (Slot 20) - SCP:  WELL NAME
 JOBN.        AZ-XX-0906192647:  JOB TICKET NUMB
 RIG .                 Chirag1:  RIG NAME
 DCON.     Halliburton Sperry Drilling:  DIRECTNL CONTR
 UNIT.                     N/A:  LOGGING EQUIPMENT ID
 PDAT.          Mean Sea Level:  PERMANENT DATUM
 MDS .        Operator Entered:  MAG DATA SOURCE
 CTRY.              Azerbaijan:  COUNTRY NAME
 UWI .            /AZE00000090:  UNIQUE WELL IDENTIFIER
 API .            /AZE00000090:  API NUMBER
 CNTY.                        :  COUNTY
 PROV.                        :  PROVINCE
 STAT.                        :  STATE
 LOC .                        :  LOCATION
 LMF .             Drill Floor:  LOG MEASURED FROM
 TVDS.m                  36.60:  TVDSS CORRECTN
 LATI.deg                40.08:  LATITUDE
 LONG.deg                51.24:  LONGITUDE
 WHNS.m                  -7.94:  WELL HEAD N/S
 WHEW.m                   1.56:  WELL HEAD E/W
 UTMX.m              520429.26:  UTM X
 UTMY.m             4438973.87:  UTM Y
 DFWL.m                   0.00:  DISTANCE FWL
 DFSL.m                   0.00:  DISTANCE FSL
 SDEP.m                1455.00:  START DEPTH
 TDD .m                3878.01:  TOTAL DEPTH (DRILLER)
 VSDR.deg               112.75:  VERT SEC DIRECT
 GVFD.g                   1.00:  GRAVITY FIELD
 MFLD.nT              50256.00:  MAGNETIC FIELD
 MDIP.deg                59.52:  MAGNETIC DIP
 MDEC.deg                 6.43:  MAGNETIC DECL
 GRDC.deg                 0.16:  GRID CORRECTION
 AZTC.deg                 6.27:  AZM TOTAL CORR
 EPD .m                   0.00:  ELEVATION
 EGL .m                   0.00:  GROUND ELEVATION
 WDMS.m                 121.00:  WD ELEV
 APD .m                  36.60:  DEPTH ABOVE PD
 AGAP.m                  36.60:  AIR GAP
 VSEW.m                   1.56:  VERT SEC E/W
 VSNS.m                  -7.94:  VERT SEC N/S
 DEP .m                1140.01:  DEPTH
 EKB .m                  36.60:  KB ELEVATION
 EDF .m                  36.60:  DF ELEVATION
 TDL .m                1293.00:  TOTAL DEPTH (LOGGER)
 VSC .                       0:  VS TO CLOSURE
 MAGU.                 1849164:  MAGUTM CHECKSUM
~Parameter Information Block
#MNEM.UNIT       Value        Description
#---------     -----------    ---------------------------
 AV  .mps                 2.40:  Ann Velocity 
 AVMX.mps                 2.55:  Max Ann Veloc 
 AZIF.deg               134.35:  Azm, Final 
 BHAT.        Rotary Steerable:  BHA Type 
 BREV.rev               847.00:  Rev Bit Total 
 BROT.�/30m              -2.51:  Build Rotating 
 BS  .in                  8.50:  Bit Size 
 BSZ .in                  8.50:  Bit Size 
 BTPL.psig              700.00:  Bit Press Loss 
 CABU.                     Yes:  Customer Abuse 
 CGEO.          Ilgar Gurbanov:  Customer Geo 
 COMM.                     ��L:  Run Comments 1 
 TCS .hr                140.40:  Time Ciculation Ended 
 CV  .mps                 2.27:  Crit Velocity 
 CVMX.mps                 2.45:  Max Crit Veloc 
 DD1 .         Intigam Rahimov:  Direct Drillr 1 
 DD2 .         Rasim Ibrahimov:  Direct Drillr 2 
 DDSV.                 iCruise:  DD Service 
 DEFF.%                  99.00:  % Det Eff 
 DLRX.�/30m               3.28:  Dogleg Rot Max 
 DLSO.�/30m               0.00:  Dogleg Oriented 
 DLSX.�/30m               0.00:  Dogleg Str Max 
 DRET.      23.30.00 18-Jan-20:  Drill End Time 
 DRST.      01.45.00 11-Jan-20:  Drill Start Tim 
 DTIM.hr                 94.00:  Time Drilling 
 EDEP.m                3878.01:  End Depth 
 ENG1.       Dauren Baktybayev:  Engineer 1 
 ENG2.      Natik Hasanaghayev:  Engineer 2 
 ENG3.          Rustam Safarov:  Engineer 3 
 ETIM.      08.00.00 20-Jan-20:  End Time 
 FLOI.gpm               532.00:  Flow In 
 FLON.gpm               500.00:  Flow In Min 
 FLOS.cptm                0.00:  Fluid Loss 
 FLOX.gpm               540.00:  Flow In Max 
 FTRO.       Formation Presure:  FTWD Run Obj 
 HPRE.                     Yes:  High Pressure 
 HTEM.                      No:  High Temp 
 HYDO.m                   1.80:  Hydro Offset 
 IFIN.deg                39.86:  Inc, Final 
 IMAX.deg                59.73:  Inc Max 
 IMIN.deg                39.25:  Inc Min 
 IMND.m                3816.77:  Inc Min Depth 
 IMXD.m                2596.33:  Inc Max Depth 
 JARR.                      No:  Jarring 
 LETM.      23.30.00 18-Jan-20:  Log End Time 
 LOST.hr                     0:  Lost Rig Time 
 LSTM.      01.45.00 11-Jan-20:  Log Start Time 
 MDCL.ppm             41500.00:  Mud Chlorides 
 MDES.     Inversion Oil/Synthetic:  Mud Desc 
 DFD .sg                  1.48:  Mud Density 
 MDMN.sg                  1.48:  Dens Mud Min 
 MDMX.sg                  1.48:  Dens Mud Max 
 MOIL.                      54:  Run Mud Oil % 
 MOWR.                   72:28:  Run Mud OWR 
 MSND.                       0:  Run Mud Sand % 
 MSOL.                      23:  Run Mud Solids% 
 DFV .spqt               86.00:  Mud Viscosity 
 MWOD.in                  6.75:  MWD Tool OD 
 MWSI.                      No:  Serv Intrp, MWD 
 OTIM.hr                223.40:  Time Operating 
 PCON.           Look Like New:  Pad Condition 
 PMAX.psia            32446.79:  Press Op, Max 
 PV  .cP                 49.00:  Mud PV 
 RUN .                     200:  Run Number 
 ROPA.m/hr               12.48:  ROP Avg 
 ROPN.m/hr                8.00:  ROP Min 
 ROPX.m/hr               27.00:  ROP Max 
 RPMA.rpm               121.00:  RPM Surface Avg 
 RPMN.rpm                60.00:  RPM Surface Min 
 RPMX.rpm               140.00:  RPM Surface Max 
 RRUN.                    L202:  Rig Run Number 
 RTIM.hr                  7.25:  Time Reaming 
 SAZI.deg               123.49:  Azm, Start 
 SDEP.m                2585.01:  Start Depth 
 SIDD.                      No:  Serv Intrp, DD 
 SINC.deg                59.93:  Inc, Start 
 SPPA.psig             3539.00:  SPP Avg 
 SPPN.psig             3050.00:  SPP Min 
 SPPX.psig             3950.00:  SPP Max 
 STIM.      19.00.00 10-Jan-20:  Start Time 
 SVCS.                 DD, MWD:  Services 
 SVER.                    9.20:  Sperry Version 
 TDAT.m                1293.00:  Tot Depth Attmp 
 TDDF.                      No:  Trip for DD 
 TDLG.m                1293.00:  Tot Depth Loggd 
 TFF .                      No:  Trip for Fail 
 TQAA.f-kp               16.00:  Torque Abs Avg 
 TQAN.f-kp               11.00:  Torque Abs Min 
 TQAX.f-kp               18.00:  Torque Abs Max 
 TRRT.�/30m               1.25:  Turn Rotating 
 MRT .                  EWR-M5:  Maximum Recorded Temperature 
 TTMX.degC               84.00:  Max Tool Temp 
 VS01.          AZ90514619R5C6:  Virtual Str1 SN 
 VS02.        AZ90552592N2L2C6:  Virtual Str2 SN 
 VS03.        AZ90571337Z1W1C6:  Virtual Str3 SN 
 VS04.         AZ90513690K23C6:  Virtual Str4 SN 
 VS05.           AZ90594857F11:  Virtual Str5 SN 
 VS06.                13102166:  Virtual Str6 SN 
 WBMN.klb                 7.00:  WOB Min 
 WITN.            Peter Wilson:  Customer Rep 
 WOBA.klb                 9.95:  WOB Avg 
 WOBX.klb                10.00:  WOB Max 
 YP  .lhf2               36.00:  Yield Point 
~Curve Information Block
#MNEM.UNIT                 API CODE     Curve Description
#---------               -----------    ---------------------------
 TIME.HHMMSS            00 000 000 000:  GT Time & Date
 GTDEPTH.m              00 000 000 000:  GT Depth
 GTPQH.psia             00 000 000 000:  GT HR Quartz Pressure
 GTTQ.degC              00 000 000 000:  GT Quartz Temperature
 GTTN.NONE              00 000 000 000:  GT Test Number
 GTET.sec               00 000 000 000:  GT Elapsed Test Time
 GTTVD.m                00 000 000 000:  GT True Vertical Depth
#Other Information
#
#WARRANTY: Halliburton will use its best efforts to furnish customers with 
#accurate information and interpretations that are part of, and incident to, the services 
#provided.  However, Halliburton cannot and does not warrant the accuracy 
#or correctness of such information and interpretations.  Under no circumstances should any 
#such information or interpretation be relied upon as the sole basis for any drilling, 
#completion, production, or financial decision or any procedure involving any risk to the 
#safety of any drilling venture, drilling rig or its crew or any other third party.  The 
#Customer has full responsibility for all drilling, completion and production operation.  
#Halliburton makes no representations or warranties, either expressed or 
#implied, including, but not limited to, the implied warranties of merchantability or fitness 
#for a particular purpose, with respect to the services rendered.  In no event will 
#Halliburton be liable for failure to obtain any particular results or for 
#any damages, including, but not limited to, indirect, special or consequential damages, 
#resulting from the use of any information or interpretation provided by Halliburton.
#
~A           TIME           GTDEPTH  GTPQH  GTTQ  GTTN  GTET   GTTVD  
# ...
   05:14:35.076.18-Jan-2020 3717.16 6351.98 78.74 1.00 460.13 2797.33
   05:14:35.277.18-Jan-2020 3717.16 6351.98 78.74 1.00 460.33 2797.33
   05:14:35.477.18-Jan-2020 3717.16 6350.75 78.74 1.00 460.53 2797.33
   05:14:35.677.18-Jan-2020 3717.16 6352.84 78.74 1.00 460.73 2797.33
   05:14:35.877.18-Jan-2020 3717.16 6353.31 78.74 1.00 460.93 2797.33
   05:14:36.077.18-Jan-2020 3717.16 6354.33 78.74 1.00 461.13 2797.33
   05:14:36.277.18-Jan-2020 3717.16 6354.33 78.74 1.00 461.33 2797.33
   05:14:36.477.18-Jan-2020 3717.16 6352.16 78.74 1.00 461.53 2797.33
   05:14:36.677.18-Jan-2020 3717.16 6351.56 78.74 1.00 461.73 2797.33
   05:14:36.877.18-Jan-2020 3717.16 6355.23 78.74 1.00 461.93 2797.33
   05:14:37.077.18-Jan-2020 3717.16 6352.94 78.74 1.00 462.13 2797.33
   05:14:37.277.18-Jan-2020 3717.16 6352.94 78.74 1.00 462.33 2797.33
   05:14:37.477.18-Jan-2020 3717.16 6352.54 78.74 1.00 462.53 2797.33
   05:14:37.677.18-Jan-2020 3717.16 6354.24 78.74 1.00 462.73 2797.33
   05:14:37.877.18-Jan-2020 3717.16 6352.27 78.74 1.00 462.93 2797.33
   05:14:38.077.18-Jan-2020 3717.16 6352.68 78.74 1.00 463.13 2797.33
   05:14:38.277.18-Jan-2020 3717.16 6352.68 78.74 1.00 463.33 2797.33
   05:14:38.477.18-Jan-2020 3717.16 6352.24 78.74 1.00 463.53 2797.33
   05:14:38.677.18-Jan-2020 3717.16 6350.63 78.74 1.00 463.73 2797.33
   05:14:38.878.18-Jan-2020 3717.16 6353.79 78.74 1.00 463.93 2797.33
   05:14:39.078.18-Jan-2020 3717.16 6353.82 78.74 1.00 464.13 2797.33
   05:14:39.278.18-Jan-2020 3717.16 6353.82 78.74 1.00 464.33 2797.33
   05:14:39.478.18-Jan-2020 3717.16 6353.54 78.74 1.00 464.53 2797.33
   05:14:39.678.18-Jan-2020 3717.16 6351.75 78.73 1.00 464.73 2797.33
   05:14:39.878.18-Jan-2020 3717.16 6351.06 78.73 1.00 464.93 2797.33
   05:14:40.078.18-Jan-2020 3717.16 6350.25 78.73 1.00 465.13 2797.33
   05:14:40.278.18-Jan-2020 3717.16 6350.25 78.73 1.00 465.33 2797.33
   05:14:40.478.18-Jan-2020 3717.16 6351.14 78.73 1.00 465.53 2797.33
   05:14:40.678.18-Jan-2020 3717.16 6363.29 78.73 1.00 465.73 2797.33
   05:14:40.878.18-Jan-2020 3717.16 6350.50 78.73 1.00 465.93 2797.33
   05:14:41.078.18-Jan-2020 3717.16 6351.33 78.73 1.00 466.13 2797.33
   05:14:41.278.18-Jan-2020 3717.16 6351.33 78.73 1.00 466.33 2797.33
   05:14:41.478.18-Jan-2020 3717.16 6351.34 78.73 1.00 466.53 2797.33
   05:14:41.678.18-Jan-2020 3717.16 6351.29 78.73 1.00 466.73 2797.33
   05:14:41.878.18-Jan-2020 3717.16 6360.92 78.73 1.00 466.93 2797.33
   05:14:42.078.18-Jan-2020 3717.16 6353.90 78.73 1.00 467.13 2797.33
   05:14:42.278.18-Jan-2020 3717.16 6353.90 78.73 1.00 467.33 2797.33
   05:14:42.479.18-Jan-2020 3717.16 6351.42 78.73 1.00 467.53 2797.33
   05:14:42.679.18-Jan-2020 3717.16 6349.96 78.73 1.00 467.73 2797.33
   05:14:42.879.18-Jan-2020 3717.16 6350.15 78.73 1.00 467.93 2797.33
   05:14:43.079.18-Jan-2020 3717.16 6355.86 78.73 1.00 468.13 2797.33
   05:14:43.279.18-Jan-2020 3717.16 6355.86 78.73 1.00 468.33 2797.33
   05:14:43.479.18-Jan-2020 3717.16 6351.42 78.73 1.00 468.53 2797.33
   05:14:43.679.18-Jan-2020 3717.16 6354.82 78.73 1.00 468.73 2797.33
   05:14:43.879.18-Jan-2020 3717.16 6352.20 78.73 1.00 468.93 2797.33
   05:14:44.079.18-Jan-2020 3717.16 6358.96 78.73 1.00 469.13 2797.33
   05:14:44.279.18-Jan-2020 3717.16 6358.96 78.73 1.00 469.33 2797.33
   05:14:44.479.18-Jan-2020 3717.16 6352.02 78.73 1.00 469.53 2797.33
   05:14:44.679.18-Jan-2020 3717.16 6356.61 78.73 1.00 469.73 2797.33
   05:14:44.879.18-Jan-2020 3717.16 6352.92 78.73 1.00 469.93 2797.33
   05:14:45.079.18-Jan-2020 3717.16 6351.80 78.73 1.00 470.13 2797.33
   05:14:45.279.18-Jan-2020 3717.16 6351.80 78.73 1.00 470.33 2797.33
   05:14:45.479.18-Jan-2020 3717.16 6352.41 78.73 1.00 470.53 2797.33
   05:14:45.679.18-Jan-2020 3717.16 6351.30 78.73 1.00 470.73 2797.33
   05:14:45.880.18-Jan-2020 3717.16 6353.14 78.73 1.00 470.93 2797.33
   05:14:46.080.18-Jan-2020 3717.16 6353.31 78.73 1.00 471.13 2797.33
   05:14:46.280.18-Jan-2020 3717.16 6353.31 78.73 1.00 471.33 2797.33
   05:14:46.480.18-Jan-2020 3717.16 6350.51 78.73 1.00 471.53 2797.33
   05:14:46.680.18-Jan-2020 3717.16 6351.17 78.73 1.00 471.73 2797.33
   05:14:46.880.18-Jan-2020 3717.16 6353.86 78.73 1.00 471.93 2797.33
   05:14:47.080.18-Jan-2020 3717.16 6355.00 78.73 1.00 472.13 2797.33
   05:14:47.280.18-Jan-2020 3717.16 6355.00 78.73 1.00 472.33 2797.33
   05:14:47.480.18-Jan-2020 3717.16 6352.08 78.73 1.00 472.53 2797.33
   05:14:47.680.18-Jan-2020 3717.16 6365.32 78.73 1.00 472.73 2797.33
   05:14:47.880.18-Jan-2020 3717.16 6353.46 78.73 1.00 472.93 2797.33
   05:14:48.080.18-Jan-2020 3717.16 6352.44 78.73 1.00 473.13 2797.33
   05:14:48.280.18-Jan-2020 3717.16 6352.44 78.73 1.00 473.33 2797.33
   05:14:48.480.18-Jan-2020 3717.16 6352.39 78.73 1.00 473.53 2797.33
   05:14:48.680.18-Jan-2020 3717.16 6350.03 78.73 1.00 473.73 2797.33
   05:14:48.880.18-Jan-2020 3717.16 6351.30 78.73 1.00 473.93 2797.33
   05:14:49.080.18-Jan-2020 3717.16 6352.14 78.73 1.00 474.13 2797.33
   05:14:49.280.18-Jan-2020 3717.16 6352.14 78.73 1.00 474.33 2797.33
   05:14:49.481.18-Jan-2020 3717.16 6351.78 78.73 1.00 474.53 2797.33
   05:14:49.681.18-Jan-2020 3717.16 6352.16 78.73 1.00 474.73 2797.33
   05:14:49.881.18-Jan-2020 3717.16 6351.02 78.73 1.00 474.93 2797.33
   05:14:50.081.18-Jan-2020 3717.16 6361.99 78.73 1.00 475.13 2797.33
   05:14:50.281.18-Jan-2020 3717.16 6361.99 78.73 1.00 475.33 2797.33
   05:14:50.481.18-Jan-2020 3717.16 6354.51 78.73 1.00 475.53 2797.33
   05:14:50.681.18-Jan-2020 3717.16 6356.08 78.73 1.00 475.73 2797.33
   05:14:50.881.18-Jan-2020 3717.16 6353.25 78.73 1.00 475.93 2797.33
   05:14:51.081.18-Jan-2020 3717.16 6363.05 78.73 1.00 476.13 2797.33
   05:14:51.281.18-Jan-2020 3717.16 6363.05 78.73 1.00 476.33 2797.33
   05:14:51.481.18-Jan-2020 3717.16 6350.09 78.73 1.00 476.53 2797.33
   05:14:51.681.18-Jan-2020 3717.16 6352.36 78.73 1.00 476.73 2797.33
   05:14:51.881.18-Jan-2020 3717.16 6351.05 78.73 1.00 476.94 2797.33
   05:14:52.081.18-Jan-2020 3717.16 6350.19 78.73 1.00 477.14 2797.33
   05:14:52.281.18-Jan-2020 3717.16 6350.19 78.73 1.00 477.34 2797.33
   05:14:52.481.18-Jan-2020 3717.16 6352.50 78.73 1.00 477.54 2797.33
   05:14:52.681.18-Jan-2020 3717.16 6349.72 78.73 1.00 477.74 2797.33
   05:14:52.881.18-Jan-2020 3717.16 6364.45 78.73 1.00 477.94 2797.33
   05:14:53.082.18-Jan-2020 3717.16 6356.56 78.73 1.00 478.14 2797.33
   05:14:53.282.18-Jan-2020 3717.16 6356.56 78.73 1.00 478.34 2797.33
   05:14:53.482.18-Jan-2020 3717.16 6354.85 78.73 1.00 478.54 2797.33
   05:14:53.682.18-Jan-2020 3717.16 6351.62 78.73 1.00 478.74 2797.33
   05:14:53.882.18-Jan-2020 3717.16 6354.33 78.73 1.00 478.94 2797.33
   05:14:54.082.18-Jan-2020 3717.16 6353.13 78.73 1.00 479.14 2797.33
   05:14:54.282.18-Jan-2020 3717.16 6353.13 78.73 1.00 479.34 2797.33
   05:14:54.482.18-Jan-2020 3717.16 6350.50 78.72 1.00 479.54 2797.33
   05:14:54.682.18-Jan-2020 3717.16 6351.13 78.73 1.00 479.74 2797.33
   05:14:54.882.18-Jan-2020 3717.16 6351.74 78.72 1.00 479.94 2797.33
   05:14:55.082.18-Jan-2020 3717.16 6354.15 78.72 1.00 480.14 2797.33
   05:14:55.282.18-Jan-2020 3717.16 6354.15 78.72 1.00 480.34 2797.33
   05:14:55.482.18-Jan-2020 3717.16 6351.18 78.72 1.00 480.54 2797.33
   05:14:55.682.18-Jan-2020 3717.16 6353.40 78.72 1.00 480.74 2797.33
   05:14:55.882.18-Jan-2020 3717.16 6352.15 78.72 1.00 480.94 2797.33
   05:14:56.082.18-Jan-2020 3717.16 6352.35 78.72 1.00 481.14 2797.33
   05:14:56.282.18-Jan-2020 3717.16 6352.35 78.72 1.00 481.34 2797.33
   05:14:56.483.18-Jan-2020 3717.16 6361.91 78.72 1.00 481.54 2797.33
   05:14:56.683.18-Jan-2020 3717.16 6352.95 78.72 1.00 481.74 2797.33
   05:14:56.883.18-Jan-2020 3717.16 6352.54 78.72 1.00 481.94 2797.33
   05:14:57.083.18-Jan-2020 3717.16 6351.62 78.72 1.00 482.14 2797.33
   05:14:57.283.18-Jan-2020 3717.16 6351.62 78.72 1.00 482.34 2797.33
   05:14:57.483.18-Jan-2020 3717.16 6351.55 78.72 1.00 482.54 2797.33
   05:14:57.683.18-Jan-2020 3717.16 6352.79 78.72 1.00 482.74 2797.33
   05:14:57.883.18-Jan-2020 3717.16 6351.08 78.72 1.00 482.94 2797.33
