~Version Information
 VERS.                  2.0:   CWLS log ASCII Standard -VERSION 2.0
 WRAP.                   NO:   One line per depth step
~Well Information Block
#MNEM.UNIT     VALUE/NAME     DESCRIPTION
#---------     -----------    ---------------------------
 STRT.S             05:06:54 18-Jan-20: START TIME 05:06:54 18-Jan-20
 STOP.S             05:17:00 18-Jan-20: STOP TIME  05:17:00 18-Jan-20
 STEP.S                   0.00: STEP TIME
 NULL.                 -999.25: NULL VALUE
 DFWT.                        :  DIST FWL TEXT
 DFST.                        :  DIST FSL TEXT
 DMF .             Drill Floor:  DRILL MEAS FROM
 STIM.      09.30.00 26-Dec-19:  START TIME
 DATE.      08.00.00 20-Jan-20:  END TIME
 SPUD.               23-Nov-19:  SPUD DATE
 NREF.                    Grid:  NORTH REFERENCE
 HPTY.       Minimum Curvature:  HOLE POS TYPE
 DMOD.             Drill Model:  DRILL MOD DESC
 SVYD.                  Survey:  SURVEY DESC
 ILTD.               Lithology:  INTERP LTH DESC
 FTOP.          Formation Tops:  FORM TOPS DESC
 SON .        AZ-XX-0906192647:  JOB NUMBER
 WTYP.                Deviated:  WELL TYPE
 COMP.     BP Exploration (Caspian Sea) Ltd:  COMPANY
 BASE.              Azerbaijan:  LOGGING EQUIPMENT BASE LOCATION
 REGN.                 Eurasia:  REGION
 FLD .                     ACG:  FIELD NAME
 SRVC.              KCA Deutag:  CONTRACTOR
 MWDS.                    Baku:  MWD SHOP
 WELL.     A10 (Slot 20) - SCP:  WELL NAME
 JOBN.        AZ-XX-0906192647:  JOB TICKET NUMB
 RIG .                 Chirag1:  RIG NAME
 DCON.     Halliburton Sperry Drilling:  DIRECTNL CONTR
 UNIT.                     N/A:  LOGGING EQUIPMENT ID
 PDAT.          Mean Sea Level:  PERMANENT DATUM
 MDS .        Operator Entered:  MAG DATA SOURCE
 CTRY.              Azerbaijan:  COUNTRY NAME
 UWI .            /AZE00000090:  UNIQUE WELL IDENTIFIER
 API .            /AZE00000090:  API NUMBER
 CNTY.                        :  COUNTY
 PROV.                        :  PROVINCE
 STAT.                        :  STATE
 LOC .                        :  LOCATION
 LMF .             Drill Floor:  LOG MEASURED FROM
 TVDS.m                  36.60:  TVDSS CORRECTN
 LATI.deg                40.08:  LATITUDE
 LONG.deg                51.24:  LONGITUDE
 WHNS.m                  -7.94:  WELL HEAD N/S
 WHEW.m                   1.56:  WELL HEAD E/W
 UTMX.m              520429.26:  UTM X
 UTMY.m             4438973.87:  UTM Y
 DFWL.m                   0.00:  DISTANCE FWL
 DFSL.m                   0.00:  DISTANCE FSL
 SDEP.m                1455.00:  START DEPTH
 TDD .m                3878.01:  TOTAL DEPTH (DRILLER)
 VSDR.deg               112.75:  VERT SEC DIRECT
 GVFD.g                   1.00:  GRAVITY FIELD
 MFLD.nT              50256.00:  MAGNETIC FIELD
 MDIP.deg                59.52:  MAGNETIC DIP
 MDEC.deg                 6.43:  MAGNETIC DECL
 GRDC.deg                 0.16:  GRID CORRECTION
 AZTC.deg                 6.27:  AZM TOTAL CORR
 EPD .m                   0.00:  ELEVATION
 EGL .m                   0.00:  GROUND ELEVATION
 WDMS.m                 121.00:  WD ELEV
 APD .m                  36.60:  DEPTH ABOVE PD
 AGAP.m                  36.60:  AIR GAP
 VSEW.m                   1.56:  VERT SEC E/W
 VSNS.m                  -7.94:  VERT SEC N/S
 DEP .m                1140.01:  DEPTH
 EKB .m                  36.60:  KB ELEVATION
 EDF .m                  36.60:  DF ELEVATION
 TDL .m                1293.00:  TOTAL DEPTH (LOGGER)
 VSC .                       0:  VS TO CLOSURE
 MAGU.                 1849164:  MAGUTM CHECKSUM
~Parameter Information Block
#MNEM.UNIT       Value        Description
#---------     -----------    ---------------------------
 AV  .mps                 2.40:  Ann Velocity 
 AVMX.mps                 2.55:  Max Ann Veloc 
 AZIF.deg               134.35:  Azm, Final 
 BHAT.        Rotary Steerable:  BHA Type 
 BREV.rev               847.00:  Rev Bit Total 
 BROT.�/30m              -2.51:  Build Rotating 
 BS  .in                  8.50:  Bit Size 
 BSZ .in                  8.50:  Bit Size 
 BTPL.psig              700.00:  Bit Press Loss 
 CABU.                     Yes:  Customer Abuse 
 CGEO.          Ilgar Gurbanov:  Customer Geo 
 COMM.                     ��L:  Run Comments 1 
 TCS .hr                140.40:  Time Ciculation Ended 
 CV  .mps                 2.27:  Crit Velocity 
 CVMX.mps                 2.45:  Max Crit Veloc 
 DD1 .         Intigam Rahimov:  Direct Drillr 1 
 DD2 .         Rasim Ibrahimov:  Direct Drillr 2 
 DDSV.                 iCruise:  DD Service 
 DEFF.%                  99.00:  % Det Eff 
 DLRX.�/30m               3.28:  Dogleg Rot Max 
 DLSO.�/30m               0.00:  Dogleg Oriented 
 DLSX.�/30m               0.00:  Dogleg Str Max 
 DRET.      23.30.00 18-Jan-20:  Drill End Time 
 DRST.      01.45.00 11-Jan-20:  Drill Start Tim 
 DTIM.hr                 94.00:  Time Drilling 
 EDEP.m                3878.01:  End Depth 
 ENG1.       Dauren Baktybayev:  Engineer 1 
 ENG2.      Natik Hasanaghayev:  Engineer 2 
 ENG3.          Rustam Safarov:  Engineer 3 
 ETIM.      08.00.00 20-Jan-20:  End Time 
 FLOI.gpm               532.00:  Flow In 
 FLON.gpm               500.00:  Flow In Min 
 FLOS.cptm                0.00:  Fluid Loss 
 FLOX.gpm               540.00:  Flow In Max 
 FTRO.       Formation Presure:  FTWD Run Obj 
 HPRE.                     Yes:  High Pressure 
 HTEM.                      No:  High Temp 
 HYDO.m                   1.80:  Hydro Offset 
 IFIN.deg                39.86:  Inc, Final 
 IMAX.deg                59.73:  Inc Max 
 IMIN.deg                39.25:  Inc Min 
 IMND.m                3816.77:  Inc Min Depth 
 IMXD.m                2596.33:  Inc Max Depth 
 JARR.                      No:  Jarring 
 LETM.      23.30.00 18-Jan-20:  Log End Time 
 LOST.hr                     0:  Lost Rig Time 
 LSTM.      01.45.00 11-Jan-20:  Log Start Time 
 MDCL.ppm             41500.00:  Mud Chlorides 
 MDES.     Inversion Oil/Synthetic:  Mud Desc 
 DFD .sg                  1.48:  Mud Density 
 MDMN.sg                  1.48:  Dens Mud Min 
 MDMX.sg                  1.48:  Dens Mud Max 
 MOIL.                      54:  Run Mud Oil % 
 MOWR.                   72:28:  Run Mud OWR 
 MSND.                       0:  Run Mud Sand % 
 MSOL.                      23:  Run Mud Solids% 
 DFV .spqt               86.00:  Mud Viscosity 
 MWOD.in                  6.75:  MWD Tool OD 
 MWSI.                      No:  Serv Intrp, MWD 
 OTIM.hr                223.40:  Time Operating 
 PCON.           Look Like New:  Pad Condition 
 PMAX.psia            32446.79:  Press Op, Max 
 PV  .cP                 49.00:  Mud PV 
 RUN .                     200:  Run Number 
 ROPA.m/hr               12.48:  ROP Avg 
 ROPN.m/hr                8.00:  ROP Min 
 ROPX.m/hr               27.00:  ROP Max 
 RPMA.rpm               121.00:  RPM Surface Avg 
 RPMN.rpm                60.00:  RPM Surface Min 
 RPMX.rpm               140.00:  RPM Surface Max 
 RRUN.                    L202:  Rig Run Number 
 RTIM.hr                  7.25:  Time Reaming 
 SAZI.deg               123.49:  Azm, Start 
 SDEP.m                2585.01:  Start Depth 
 SIDD.                      No:  Serv Intrp, DD 
 SINC.deg                59.93:  Inc, Start 
 SPPA.psig             3539.00:  SPP Avg 
 SPPN.psig             3050.00:  SPP Min 
 SPPX.psig             3950.00:  SPP Max 
 STIM.      19.00.00 10-Jan-20:  Start Time 
 SVCS.                 DD, MWD:  Services 
 SVER.                    9.20:  Sperry Version 
 TDAT.m                1293.00:  Tot Depth Attmp 
 TDDF.                      No:  Trip for DD 
 TDLG.m                1293.00:  Tot Depth Loggd 
 TFF .                      No:  Trip for Fail 
 TQAA.f-kp               16.00:  Torque Abs Avg 
 TQAN.f-kp               11.00:  Torque Abs Min 
 TQAX.f-kp               18.00:  Torque Abs Max 
 TRRT.�/30m               1.25:  Turn Rotating 
 MRT .                  EWR-M5:  Maximum Recorded Temperature 
 TTMX.degC               84.00:  Max Tool Temp 
 VS01.          AZ90514619R5C6:  Virtual Str1 SN 
 VS02.        AZ90552592N2L2C6:  Virtual Str2 SN 
 VS03.        AZ90571337Z1W1C6:  Virtual Str3 SN 
 VS04.         AZ90513690K23C6:  Virtual Str4 SN 
 VS05.           AZ90594857F11:  Virtual Str5 SN 
 VS06.                13102166:  Virtual Str6 SN 
 WBMN.klb                 7.00:  WOB Min 
 WITN.            Peter Wilson:  Customer Rep 
 WOBA.klb                 9.95:  WOB Avg 
 WOBX.klb                10.00:  WOB Max 
 YP  .lhf2               36.00:  Yield Point 
~Curve Information Block
#MNEM.UNIT                 API CODE     Curve Description
#---------               -----------    ---------------------------
 TIME.HHMMSS            00 000 000 000:  GT Time & Date
 GTDEPTH.m              00 000 000 000:  GT Depth
 GTPQH.psia             00 000 000 000:  GT HR Quartz Pressure
 GTTQ.degC              00 000 000 000:  GT Quartz Temperature
 GTTN.NONE              00 000 000 000:  GT Test Number
 GTET.sec               00 000 000 000:  GT Elapsed Test Time
 GTTVD.m                00 000 000 000:  GT True Vertical Depth
#Other Information
#
#WARRANTY: Halliburton will use its best efforts to furnish customers with 
#accurate information and interpretations that are part of, and incident to, the services 
#provided.  However, Halliburton cannot and does not warrant the accuracy 
#or correctness of such information and interpretations.  Under no circumstances should any 
#such information or interpretation be relied upon as the sole basis for any drilling, 
#completion, production, or financial decision or any procedure involving any risk to the 
#safety of any drilling venture, drilling rig or its crew or any other third party.  The 
#Customer has full responsibility for all drilling, completion and production operation.  
#Halliburton makes no representations or warranties, either expressed or 
#implied, including, but not limited to, the implied warranties of merchantability or fitness 
#for a particular purpose, with respect to the services rendered.  In no event will 
#Halliburton be liable for failure to obtain any particular results or for 
#any damages, including, but not limited to, indirect, special or consequential damages, 
#resulting from the use of any information or interpretation provided by Halliburton.
#
~A           TIME           GTDEPTH  GTPQH  GTTQ  GTTN  GTET   GTTVD  
# ...
   05:16:30.109.18-Jan-2020 3717.16 6349.34 78.66 1.00 575.16 2797.33
   05:16:30.309.18-Jan-2020 3717.16 6349.34 78.66 1.00 575.36 2797.33
   05:16:30.509.18-Jan-2020 3717.16 6353.35 78.66 1.00 575.56 2797.33
   05:16:30.709.18-Jan-2020 3717.16 6346.93 78.66 1.00 575.76 2797.33
   05:16:30.909.18-Jan-2020 3717.16 6352.52 78.66 1.00 575.96 2797.33
   05:16:31.109.18-Jan-2020 3717.16 6356.53 78.66 1.00 576.16 2797.33
   05:16:31.309.18-Jan-2020 3717.16 6356.53 78.66 1.00 576.36 2797.33
   05:16:31.509.18-Jan-2020 3717.16 6348.15 78.66 1.00 576.56 2797.33
   05:16:31.709.18-Jan-2020 3717.16 6352.19 78.66 1.00 576.76 2797.33
   05:16:31.910.18-Jan-2020 3717.16 6350.54 78.66 1.00 576.96 2797.33
   05:16:32.110.18-Jan-2020 3717.16 6352.98 78.66 1.00 577.16 2797.33
   05:16:32.310.18-Jan-2020 3717.16 6352.98 78.66 1.00 577.36 2797.33
   05:16:32.510.18-Jan-2020 3717.16 6350.82 78.66 1.00 577.56 2797.33
   05:16:32.710.18-Jan-2020 3717.16 6349.87 78.66 1.00 577.76 2797.33
   05:16:32.910.18-Jan-2020 3717.16 6350.22 78.66 1.00 577.96 2797.33
   05:16:33.110.18-Jan-2020 3717.16 6353.05 78.66 1.00 578.16 2797.33
   05:16:33.310.18-Jan-2020 3717.16 6353.05 78.66 1.00 578.36 2797.33
   05:16:33.510.18-Jan-2020 3717.16 6350.88 78.65 1.00 578.56 2797.33
   05:16:33.710.18-Jan-2020 3717.16 6348.74 78.65 1.00 578.76 2797.33
   05:16:33.910.18-Jan-2020 3717.16 6351.42 78.65 1.00 578.96 2797.33
   05:16:34.110.18-Jan-2020 3717.16 6351.59 78.65 1.00 579.16 2797.33
   05:16:34.310.18-Jan-2020 3717.16 6351.59 78.65 1.00 579.36 2797.33
   05:16:34.510.18-Jan-2020 3717.16 6349.71 78.65 1.00 579.56 2797.33
   05:16:34.710.18-Jan-2020 3717.16 6362.94 78.65 1.00 579.76 2797.33
   05:16:34.910.18-Jan-2020 3717.16 6348.56 78.65 1.00 579.96 2797.33
   05:16:35.110.18-Jan-2020 3717.16 6349.37 78.65 1.00 580.16 2797.33
   05:16:35.310.18-Jan-2020 3717.16 6349.37 78.65 1.00 580.36 2797.33
   05:16:35.511.18-Jan-2020 3717.16 6350.83 78.65 1.00 580.56 2797.33
   05:16:35.711.18-Jan-2020 3717.16 6349.55 78.65 1.00 580.76 2797.33
   05:16:35.911.18-Jan-2020 3717.16 6349.99 78.65 1.00 580.96 2797.33
   05:16:36.111.18-Jan-2020 3717.16 6348.91 78.65 1.00 581.16 2797.33
   05:16:36.311.18-Jan-2020 3717.16 6348.91 78.65 1.00 581.36 2797.33
   05:16:36.511.18-Jan-2020 3717.16 6349.84 78.65 1.00 581.56 2797.33
   05:16:36.711.18-Jan-2020 3717.16 6349.76 78.65 1.00 581.76 2797.33
   05:16:36.911.18-Jan-2020 3717.16 6350.43 78.65 1.00 581.96 2797.33
   05:16:37.111.18-Jan-2020 3717.16 6360.37 78.65 1.00 582.16 2797.33
   05:16:37.311.18-Jan-2020 3717.16 6360.37 78.65 1.00 582.36 2797.33
   05:16:37.511.18-Jan-2020 3717.16 6350.78 78.65 1.00 582.56 2797.33
   05:16:37.711.18-Jan-2020 3717.16 6354.08 78.65 1.00 582.77 2797.33
   05:16:37.911.18-Jan-2020 3717.16 6350.83 78.65 1.00 582.97 2797.33
   05:16:38.111.18-Jan-2020 3717.16 6350.18 78.65 1.00 583.17 2797.33
   05:16:38.311.18-Jan-2020 3717.16 6350.18 78.65 1.00 583.37 2797.33
   05:16:38.511.18-Jan-2020 3717.16 6351.90 78.65 1.00 583.57 2797.33
   05:16:38.711.18-Jan-2020 3717.16 6350.06 78.65 1.00 583.77 2797.33
   05:16:38.912.18-Jan-2020 3717.16 6350.05 78.65 1.00 583.97 2797.33
   05:16:39.112.18-Jan-2020 3717.16 6349.56 78.65 1.00 584.17 2797.33
   05:16:39.312.18-Jan-2020 3717.16 6349.56 78.65 1.00 584.37 2797.33
   05:16:39.512.18-Jan-2020 3717.16 6351.08 78.65 1.00 584.57 2797.33
   05:16:39.712.18-Jan-2020 3717.16 6348.55 78.65 1.00 584.77 2797.33
   05:16:39.912.18-Jan-2020 3717.16 6353.32 78.65 1.00 584.97 2797.33
   05:16:40.112.18-Jan-2020 3717.16 6360.29 78.65 1.00 585.17 2797.33
   05:16:40.312.18-Jan-2020 3717.16 6360.29 78.65 1.00 585.37 2797.33
   05:16:40.512.18-Jan-2020 3717.16 6351.47 78.65 1.00 585.57 2797.33
   05:16:40.712.18-Jan-2020 3717.16 6349.94 78.65 1.00 585.77 2797.33
   05:16:40.912.18-Jan-2020 3717.16 6351.40 78.65 1.00 585.97 2797.33
   05:16:41.112.18-Jan-2020 3717.16 6351.84 78.65 1.00 586.17 2797.33
   05:16:41.312.18-Jan-2020 3717.16 6351.84 78.65 1.00 586.37 2797.33
   05:16:41.512.18-Jan-2020 3717.16 6349.22 78.65 1.00 586.57 2797.33
   05:16:41.712.18-Jan-2020 3717.16 6348.21 78.65 1.00 586.77 2797.33
   05:16:41.912.18-Jan-2020 3717.16 6350.56 78.65 1.00 586.97 2797.33
   05:16:42.112.18-Jan-2020 3717.16 6352.06 78.65 1.00 587.17 2797.33
   05:16:42.312.18-Jan-2020 3717.16 6352.06 78.65 1.00 587.37 2797.33
   05:16:42.513.18-Jan-2020 3717.16 6348.83 78.65 1.00 587.57 2797.33
   05:16:42.713.18-Jan-2020 3717.16 6350.74 78.65 1.00 587.77 2797.33
   05:16:42.913.18-Jan-2020 3717.16 6351.13 78.65 1.00 587.97 2797.33
   05:16:43.113.18-Jan-2020 3717.16 6351.50 78.65 1.00 588.17 2797.33
   05:16:43.313.18-Jan-2020 3717.16 6351.50 78.65 1.00 588.37 2797.33
   05:16:43.513.18-Jan-2020 3717.16 6359.80 78.65 1.00 588.57 2797.33
   05:16:43.713.18-Jan-2020 3717.16 6353.60 78.65 1.00 588.77 2797.33
   05:16:43.913.18-Jan-2020 3717.16 6348.15 78.65 1.00 588.97 2797.33
   05:16:44.113.18-Jan-2020 3717.16 6352.96 78.65 1.00 589.17 2797.33
   05:16:44.313.18-Jan-2020 3717.16 6352.96 78.65 1.00 589.37 2797.33
   05:16:44.513.18-Jan-2020 3717.16 6350.82 78.65 1.00 589.57 2797.33
   05:16:44.713.18-Jan-2020 3717.16 6349.87 78.65 1.00 589.77 2797.33
   05:16:44.913.18-Jan-2020 3717.16 6350.80 78.65 1.00 589.97 2797.33
   05:16:45.113.18-Jan-2020 3717.16 6347.67 78.65 1.00 590.17 2797.33
   05:16:45.313.18-Jan-2020 3717.16 6347.67 78.65 1.00 590.37 2797.33
   05:16:45.513.18-Jan-2020 3717.16 6349.11 78.65 1.00 590.57 2797.33
   05:16:45.713.18-Jan-2020 3717.16 6350.36 78.65 1.00 590.77 2797.33
   05:16:45.913.18-Jan-2020 3717.16 6357.53 78.65 1.00 590.97 2797.33
   05:16:46.114.18-Jan-2020 3717.16 6351.47 78.65 1.00 591.17 2797.33
   05:16:46.314.18-Jan-2020 3717.16 6351.47 78.65 1.00 591.37 2797.33
   05:16:46.514.18-Jan-2020 3717.16 6353.41 78.65 1.00 591.57 2797.33
   05:16:46.714.18-Jan-2020 3717.16 6349.77 78.64 1.00 591.77 2797.33
   05:16:46.914.18-Jan-2020 3717.16 6349.01 78.65 1.00 591.97 2797.33
   05:16:47.114.18-Jan-2020 3717.16 6362.73 78.64 1.00 592.17 2797.33
   05:16:47.314.18-Jan-2020 3717.16 6362.73 78.64 1.00 592.37 2797.33
   05:16:47.514.18-Jan-2020 3717.16 6349.03 78.64 1.00 592.57 2797.33
   05:16:47.714.18-Jan-2020 3717.16 6350.50 78.64 1.00 592.77 2797.33
   05:16:47.914.18-Jan-2020 3717.16 6350.21 78.64 1.00 592.97 2797.33
   05:16:48.114.18-Jan-2020 3717.16 6354.26 78.64 1.00 593.17 2797.33
   05:16:48.314.18-Jan-2020 3717.16 6354.26 78.64 1.00 593.37 2797.33
   05:16:48.514.18-Jan-2020 3717.16 6347.08 78.64 1.00 593.57 2797.33
   05:16:48.714.18-Jan-2020 3717.16 6353.54 78.64 1.00 593.77 2797.33
   05:16:48.914.18-Jan-2020 3717.16 6362.75 78.64 1.00 593.97 2797.33
   05:16:49.114.18-Jan-2020 3717.16 6351.15 78.64 1.00 594.17 2797.33
   05:16:49.314.18-Jan-2020 3717.16 6351.15 78.64 1.00 594.37 2797.33
   05:16:49.515.18-Jan-2020 3717.16 6351.69 78.64 1.00 594.57 2797.33
   05:16:49.715.18-Jan-2020 3717.16 6351.79 78.64 1.00 594.77 2797.33
   05:16:49.915.18-Jan-2020 3717.16 6352.22 78.64 1.00 594.97 2797.33
   05:16:50.115.18-Jan-2020 3717.16 6353.51 78.64 1.00 595.17 2797.33
   05:16:50.315.18-Jan-2020 3717.16 6353.51 78.64 1.00 595.37 2797.33
   05:16:50.515.18-Jan-2020 3717.16 6350.03 78.64 1.00 595.57 2797.33
   05:16:50.715.18-Jan-2020 3717.16 6349.87 78.64 1.00 595.77 2797.33
   05:16:50.915.18-Jan-2020 3717.16 6353.41 78.64 1.00 595.97 2797.33
   05:16:51.115.18-Jan-2020 3717.16 6352.02 78.64 1.00 596.17 2797.33
   05:16:51.315.18-Jan-2020 3717.16 6352.02 78.64 1.00 596.37 2797.33
   05:16:51.515.18-Jan-2020 3717.16 6348.91 78.64 1.00 596.57 2797.33
   05:16:51.715.18-Jan-2020 3717.16 6351.74 78.64 1.00 596.77 2797.33
   05:16:51.915.18-Jan-2020 3717.16 6350.57 78.64 1.00 596.97 2797.33
   05:16:52.115.18-Jan-2020 3717.16 6347.88 78.64 1.00 597.17 2797.33
   05:16:52.315.18-Jan-2020 3717.16 6347.88 78.64 1.00 597.37 2797.33
   05:16:52.515.18-Jan-2020 3717.16 6349.69 78.64 1.00 597.57 2797.33
   05:16:52.715.18-Jan-2020 3717.16 6356.59 78.64 1.00 597.77 2797.33
   05:16:52.915.18-Jan-2020 3717.16 6353.13 78.64 1.00 597.97 2797.33
