~Version Information
 VERS.                  2.0:   CWLS log ASCII Standard -VERSION 2.0
 WRAP.                   NO:   One line per depth step
~Well Information Block
#MNEM.UNIT     VALUE/NAME     DESCRIPTION
#---------     -----------    ---------------------------
 STRT.S             05:06:54 18-Jan-20: START TIME 05:06:54 18-Jan-20
 STOP.S             05:17:00 18-Jan-20: STOP TIME  05:17:00 18-Jan-20
 STEP.S                   0.00: STEP TIME
 NULL.                 -999.25: NULL VALUE
 DFWT.                        :  DIST FWL TEXT
 DFST.                        :  DIST FSL TEXT
 DMF .             Drill Floor:  DRILL MEAS FROM
 STIM.      09.30.00 26-Dec-19:  START TIME
 DATE.      08.00.00 20-Jan-20:  END TIME
 SPUD.               23-Nov-19:  SPUD DATE
 NREF.                    Grid:  NORTH REFERENCE
 HPTY.       Minimum Curvature:  HOLE POS TYPE
 DMOD.             Drill Model:  DRILL MOD DESC
 SVYD.                  Survey:  SURVEY DESC
 ILTD.               Lithology:  INTERP LTH DESC
 FTOP.          Formation Tops:  FORM TOPS DESC
 SON .        AZ-XX-0906192647:  JOB NUMBER
 WTYP.                Deviated:  WELL TYPE
 COMP.     BP Exploration (Caspian Sea) Ltd:  COMPANY
 BASE.              Azerbaijan:  LOGGING EQUIPMENT BASE LOCATION
 REGN.                 Eurasia:  REGION
 FLD .                     ACG:  FIELD NAME
 SRVC.              KCA Deutag:  CONTRACTOR
 MWDS.                    Baku:  MWD SHOP
 WELL.     A10 (Slot 20) - SCP:  WELL NAME
 JOBN.        AZ-XX-0906192647:  JOB TICKET NUMB
 RIG .                 Chirag1:  RIG NAME
 DCON.     Halliburton Sperry Drilling:  DIRECTNL CONTR
 UNIT.                     N/A:  LOGGING EQUIPMENT ID
 PDAT.          Mean Sea Level:  PERMANENT DATUM
 MDS .        Operator Entered:  MAG DATA SOURCE
 CTRY.              Azerbaijan:  COUNTRY NAME
 UWI .            /AZE00000090:  UNIQUE WELL IDENTIFIER
 API .            /AZE00000090:  API NUMBER
 CNTY.                        :  COUNTY
 PROV.                        :  PROVINCE
 STAT.                        :  STATE
 LOC .                        :  LOCATION
 LMF .             Drill Floor:  LOG MEASURED FROM
 TVDS.m                  36.60:  TVDSS CORRECTN
 LATI.deg                40.08:  LATITUDE
 LONG.deg                51.24:  LONGITUDE
 WHNS.m                  -7.94:  WELL HEAD N/S
 WHEW.m                   1.56:  WELL HEAD E/W
 UTMX.m              520429.26:  UTM X
 UTMY.m             4438973.87:  UTM Y
 DFWL.m                   0.00:  DISTANCE FWL
 DFSL.m                   0.00:  DISTANCE FSL
 SDEP.m                1455.00:  START DEPTH
 TDD .m                3878.01:  TOTAL DEPTH (DRILLER)
 VSDR.deg               112.75:  VERT SEC DIRECT
 GVFD.g                   1.00:  GRAVITY FIELD
 MFLD.nT              50256.00:  MAGNETIC FIELD
 MDIP.deg                59.52:  MAGNETIC DIP
 MDEC.deg                 6.43:  MAGNETIC DECL
 GRDC.deg                 0.16:  GRID CORRECTION
 AZTC.deg                 6.27:  AZM TOTAL CORR
 EPD .m                   0.00:  ELEVATION
 EGL .m                   0.00:  GROUND ELEVATION
 WDMS.m                 121.00:  WD ELEV
 APD .m                  36.60:  DEPTH ABOVE PD
 AGAP.m                  36.60:  AIR GAP
 VSEW.m                   1.56:  VERT SEC E/W
 VSNS.m                  -7.94:  VERT SEC N/S
 DEP .m                1140.01:  DEPTH
 EKB .m                  36.60:  KB ELEVATION
 EDF .m                  36.60:  DF ELEVATION
 TDL .m                1293.00:  TOTAL DEPTH (LOGGER)
 VSC .                       0:  VS TO CLOSURE
 MAGU.                 1849164:  MAGUTM CHECKSUM
~Parameter Information Block
#MNEM.UNIT       Value        Description
#---------     -----------    ---------------------------
 AV  .mps                 2.40:  Ann Velocity 
 AVMX.mps                 2.55:  Max Ann Veloc 
 AZIF.deg               134.35:  Azm, Final 
 BHAT.        Rotary Steerable:  BHA Type 
 BREV.rev               847.00:  Rev Bit Total 
 BROT.�/30m              -2.51:  Build Rotating 
 BS  .in                  8.50:  Bit Size 
 BSZ .in                  8.50:  Bit Size 
 BTPL.psig              700.00:  Bit Press Loss 
 CABU.                     Yes:  Customer Abuse 
 CGEO.          Ilgar Gurbanov:  Customer Geo 
 COMM.                     ��L:  Run Comments 1 
 TCS .hr                140.40:  Time Ciculation Ended 
 CV  .mps                 2.27:  Crit Velocity 
 CVMX.mps                 2.45:  Max Crit Veloc 
 DD1 .         Intigam Rahimov:  Direct Drillr 1 
 DD2 .         Rasim Ibrahimov:  Direct Drillr 2 
 DDSV.                 iCruise:  DD Service 
 DEFF.%                  99.00:  % Det Eff 
 DLRX.�/30m               3.28:  Dogleg Rot Max 
 DLSO.�/30m               0.00:  Dogleg Oriented 
 DLSX.�/30m               0.00:  Dogleg Str Max 
 DRET.      23.30.00 18-Jan-20:  Drill End Time 
 DRST.      01.45.00 11-Jan-20:  Drill Start Tim 
 DTIM.hr                 94.00:  Time Drilling 
 EDEP.m                3878.01:  End Depth 
 ENG1.       Dauren Baktybayev:  Engineer 1 
 ENG2.      Natik Hasanaghayev:  Engineer 2 
 ENG3.          Rustam Safarov:  Engineer 3 
 ETIM.      08.00.00 20-Jan-20:  End Time 
 FLOI.gpm               532.00:  Flow In 
 FLON.gpm               500.00:  Flow In Min 
 FLOS.cptm                0.00:  Fluid Loss 
 FLOX.gpm               540.00:  Flow In Max 
 FTRO.       Formation Presure:  FTWD Run Obj 
 HPRE.                     Yes:  High Pressure 
 HTEM.                      No:  High Temp 
 HYDO.m                   1.80:  Hydro Offset 
 IFIN.deg                39.86:  Inc, Final 
 IMAX.deg                59.73:  Inc Max 
 IMIN.deg                39.25:  Inc Min 
 IMND.m                3816.77:  Inc Min Depth 
 IMXD.m                2596.33:  Inc Max Depth 
 JARR.                      No:  Jarring 
 LETM.      23.30.00 18-Jan-20:  Log End Time 
 LOST.hr                     0:  Lost Rig Time 
 LSTM.      01.45.00 11-Jan-20:  Log Start Time 
 MDCL.ppm             41500.00:  Mud Chlorides 
 MDES.     Inversion Oil/Synthetic:  Mud Desc 
 DFD .sg                  1.48:  Mud Density 
 MDMN.sg                  1.48:  Dens Mud Min 
 MDMX.sg                  1.48:  Dens Mud Max 
 MOIL.                      54:  Run Mud Oil % 
 MOWR.                   72:28:  Run Mud OWR 
 MSND.                       0:  Run Mud Sand % 
 MSOL.                      23:  Run Mud Solids% 
 DFV .spqt               86.00:  Mud Viscosity 
 MWOD.in                  6.75:  MWD Tool OD 
 MWSI.                      No:  Serv Intrp, MWD 
 OTIM.hr                223.40:  Time Operating 
 PCON.           Look Like New:  Pad Condition 
 PMAX.psia            32446.79:  Press Op, Max 
 PV  .cP                 49.00:  Mud PV 
 RUN .                     200:  Run Number 
 ROPA.m/hr               12.48:  ROP Avg 
 ROPN.m/hr                8.00:  ROP Min 
 ROPX.m/hr               27.00:  ROP Max 
 RPMA.rpm               121.00:  RPM Surface Avg 
 RPMN.rpm                60.00:  RPM Surface Min 
 RPMX.rpm               140.00:  RPM Surface Max 
 RRUN.                    L202:  Rig Run Number 
 RTIM.hr                  7.25:  Time Reaming 
 SAZI.deg               123.49:  Azm, Start 
 SDEP.m                2585.01:  Start Depth 
 SIDD.                      No:  Serv Intrp, DD 
 SINC.deg                59.93:  Inc, Start 
 SPPA.psig             3539.00:  SPP Avg 
 SPPN.psig             3050.00:  SPP Min 
 SPPX.psig             3950.00:  SPP Max 
 STIM.      19.00.00 10-Jan-20:  Start Time 
 SVCS.                 DD, MWD:  Services 
 SVER.                    9.20:  Sperry Version 
 TDAT.m                1293.00:  Tot Depth Attmp 
 TDDF.                      No:  Trip for DD 
 TDLG.m                1293.00:  Tot Depth Loggd 
 TFF .                      No:  Trip for Fail 
 TQAA.f-kp               16.00:  Torque Abs Avg 
 TQAN.f-kp               11.00:  Torque Abs Min 
 TQAX.f-kp               18.00:  Torque Abs Max 
 TRRT.�/30m               1.25:  Turn Rotating 
 MRT .                  EWR-M5:  Maximum Recorded Temperature 
 TTMX.degC               84.00:  Max Tool Temp 
 VS01.          AZ90514619R5C6:  Virtual Str1 SN 
 VS02.        AZ90552592N2L2C6:  Virtual Str2 SN 
 VS03.        AZ90571337Z1W1C6:  Virtual Str3 SN 
 VS04.         AZ90513690K23C6:  Virtual Str4 SN 
 VS05.           AZ90594857F11:  Virtual Str5 SN 
 VS06.                13102166:  Virtual Str6 SN 
 WBMN.klb                 7.00:  WOB Min 
 WITN.            Peter Wilson:  Customer Rep 
 WOBA.klb                 9.95:  WOB Avg 
 WOBX.klb                10.00:  WOB Max 
 YP  .lhf2               36.00:  Yield Point 
~Curve Information Block
#MNEM.UNIT                 API CODE     Curve Description
#---------               -----------    ---------------------------
 TIME.HHMMSS            00 000 000 000:  GT Time & Date
 GTDEPTH.m              00 000 000 000:  GT Depth
 GTPQH.psia             00 000 000 000:  GT HR Quartz Pressure
 GTTQ.degC              00 000 000 000:  GT Quartz Temperature
 GTTN.NONE              00 000 000 000:  GT Test Number
 GTET.sec               00 000 000 000:  GT Elapsed Test Time
 GTTVD.m                00 000 000 000:  GT True Vertical Depth
#Other Information
#
#WARRANTY: Halliburton will use its best efforts to furnish customers with 
#accurate information and interpretations that are part of, and incident to, the services 
#provided.  However, Halliburton cannot and does not warrant the accuracy 
#or correctness of such information and interpretations.  Under no circumstances should any 
#such information or interpretation be relied upon as the sole basis for any drilling, 
#completion, production, or financial decision or any procedure involving any risk to the 
#safety of any drilling venture, drilling rig or its crew or any other third party.  The 
#Customer has full responsibility for all drilling, completion and production operation.  
#Halliburton makes no representations or warranties, either expressed or 
#implied, including, but not limited to, the implied warranties of merchantability or fitness 
#for a particular purpose, with respect to the services rendered.  In no event will 
#Halliburton be liable for failure to obtain any particular results or for 
#any damages, including, but not limited to, indirect, special or consequential damages, 
#resulting from the use of any information or interpretation provided by Halliburton.
#
~A           TIME           GTDEPTH  GTPQH  GTTQ  GTTN  GTET   GTTVD  
# ...
   05:11:54.031.18-Jan-2020 3717.16 6358.26 78.83 1.00 299.08 2797.33
   05:11:54.231.18-Jan-2020 3717.16 6358.26 78.83 1.00 299.28 2797.33
   05:11:54.431.18-Jan-2020 3717.16 6353.97 78.83 1.00 299.48 2797.33
   05:11:54.631.18-Jan-2020 3717.16 6356.18 78.83 1.00 299.68 2797.33
   05:11:54.831.18-Jan-2020 3717.16 6357.42 78.83 1.00 299.88 2797.33
   05:11:55.031.18-Jan-2020 3717.16 6356.76 78.83 1.00 300.08 2797.33
   05:11:55.231.18-Jan-2020 3717.16 6356.76 78.83 1.00 300.29 2797.33
   05:11:55.431.18-Jan-2020 3717.16 6365.72 78.83 1.00 300.49 2797.33
   05:11:55.631.18-Jan-2020 3717.16 6358.04 78.83 1.00 300.69 2797.33
   05:11:55.831.18-Jan-2020 3717.16 6355.57 78.83 1.00 300.89 2797.33
   05:11:56.031.18-Jan-2020 3717.16 6358.98 78.83 1.00 301.09 2797.33
   05:11:56.231.18-Jan-2020 3717.16 6358.98 78.83 1.00 301.29 2797.33
   05:11:56.432.18-Jan-2020 3717.16 6355.91 78.83 1.00 301.49 2797.33
   05:11:56.632.18-Jan-2020 3717.16 6354.31 78.83 1.00 301.69 2797.33
   05:11:56.832.18-Jan-2020 3717.16 6355.33 78.83 1.00 301.89 2797.33
   05:11:57.032.18-Jan-2020 3717.16 6354.73 78.83 1.00 302.09 2797.33
   05:11:57.232.18-Jan-2020 3717.16 6354.73 78.83 1.00 302.29 2797.33
   05:11:57.432.18-Jan-2020 3717.16 6354.73 78.83 1.00 302.49 2797.33
   05:11:57.632.18-Jan-2020 3717.16 6356.17 78.83 1.00 302.69 2797.33
   05:11:57.832.18-Jan-2020 3717.16 6362.41 78.83 1.00 302.89 2797.33
   05:11:58.032.18-Jan-2020 3717.16 6357.09 78.83 1.00 303.09 2797.33
   05:11:58.232.18-Jan-2020 3717.16 6357.09 78.83 1.00 303.29 2797.33
   05:11:58.432.18-Jan-2020 3717.16 6361.13 78.83 1.00 303.49 2797.33
   05:11:58.632.18-Jan-2020 3717.16 6356.21 78.83 1.00 303.69 2797.33
   05:11:58.832.18-Jan-2020 3717.16 6362.72 78.83 1.00 303.89 2797.33
   05:11:59.032.18-Jan-2020 3717.16 6361.84 78.83 1.00 304.09 2797.33
   05:11:59.232.18-Jan-2020 3717.16 6361.84 78.83 1.00 304.29 2797.33
   05:11:59.432.18-Jan-2020 3717.16 6357.41 78.83 1.00 304.49 2797.33
   05:11:59.632.18-Jan-2020 3717.16 6354.90 78.83 1.00 304.69 2797.33
   05:11:59.832.18-Jan-2020 3717.16 6356.02 78.83 1.00 304.89 2797.33
   05:12:00.033.18-Jan-2020 3717.16 6354.14 78.83 1.00 305.09 2797.33
   05:12:00.233.18-Jan-2020 3717.16 6354.14 78.83 1.00 305.29 2797.33
   05:12:00.433.18-Jan-2020 3717.16 6356.80 78.83 1.00 305.49 2797.33
   05:12:00.633.18-Jan-2020 3717.16 6356.55 78.83 1.00 305.69 2797.33
   05:12:00.833.18-Jan-2020 3717.16 6367.43 78.83 1.00 305.89 2797.33
   05:12:01.033.18-Jan-2020 3717.16 6359.74 78.83 1.00 306.09 2797.33
   05:12:01.233.18-Jan-2020 3717.16 6359.74 78.83 1.00 306.29 2797.33
   05:12:01.433.18-Jan-2020 3717.16 6358.49 78.83 1.00 306.49 2797.33
   05:12:01.633.18-Jan-2020 3717.16 6356.67 78.83 1.00 306.69 2797.33
   05:12:01.833.18-Jan-2020 3717.16 6357.41 78.83 1.00 306.89 2797.33
   05:12:02.033.18-Jan-2020 3717.16 6357.08 78.83 1.00 307.09 2797.33
   05:12:02.233.18-Jan-2020 3717.16 6357.08 78.83 1.00 307.29 2797.33
   05:12:02.433.18-Jan-2020 3717.16 6355.66 78.83 1.00 307.49 2797.33
   05:12:02.633.18-Jan-2020 3717.16 6354.78 78.83 1.00 307.69 2797.33
   05:12:02.833.18-Jan-2020 3717.16 6356.62 78.83 1.00 307.89 2797.33
   05:12:03.033.18-Jan-2020 3717.16 6357.37 78.83 1.00 308.09 2797.33
   05:12:03.233.18-Jan-2020 3717.16 6357.37 78.83 1.00 308.29 2797.33
   05:12:03.434.18-Jan-2020 3717.16 6354.56 78.83 1.00 308.49 2797.33
   05:12:03.634.18-Jan-2020 3717.16 6358.18 78.83 1.00 308.69 2797.33
   05:12:03.834.18-Jan-2020 3717.16 6356.40 78.83 1.00 308.89 2797.33
   05:12:04.034.18-Jan-2020 3717.16 6356.79 78.83 1.00 309.09 2797.33
   05:12:04.234.18-Jan-2020 3717.16 6356.79 78.83 1.00 309.29 2797.33
   05:12:04.434.18-Jan-2020 3717.16 6366.28 78.83 1.00 309.49 2797.33
   05:12:04.634.18-Jan-2020 3717.16 6356.54 78.83 1.00 309.69 2797.33
   05:12:04.834.18-Jan-2020 3717.16 6356.66 78.83 1.00 309.89 2797.33
   05:12:05.034.18-Jan-2020 3717.16 6357.22 78.83 1.00 310.09 2797.33
   05:12:05.234.18-Jan-2020 3717.16 6357.22 78.83 1.00 310.29 2797.33
   05:12:05.434.18-Jan-2020 3717.16 6356.51 78.83 1.00 310.49 2797.33
   05:12:05.634.18-Jan-2020 3717.16 6354.70 78.83 1.00 310.69 2797.33
   05:12:05.834.18-Jan-2020 3717.16 6355.35 78.83 1.00 310.89 2797.33
   05:12:06.034.18-Jan-2020 3717.16 6353.56 78.83 1.00 311.09 2797.33
   05:12:06.234.18-Jan-2020 3717.16 6353.56 78.83 1.00 311.29 2797.33
   05:12:06.434.18-Jan-2020 3717.16 6354.72 78.83 1.00 311.49 2797.33
   05:12:06.634.18-Jan-2020 3717.16 6355.63 78.83 1.00 311.69 2797.33
   05:12:06.834.18-Jan-2020 3717.16 6363.04 78.83 1.00 311.89 2797.33
   05:12:07.035.18-Jan-2020 3717.16 6356.01 78.83 1.00 312.09 2797.33
   05:12:07.235.18-Jan-2020 3717.16 6356.01 78.83 1.00 312.29 2797.33
   05:12:07.435.18-Jan-2020 3717.16 6357.32 78.82 1.00 312.49 2797.33
   05:12:07.635.18-Jan-2020 3717.16 6355.78 78.82 1.00 312.69 2797.33
   05:12:07.835.18-Jan-2020 3717.16 6367.45 78.82 1.00 312.89 2797.33
   05:12:08.035.18-Jan-2020 3717.16 6356.56 78.82 1.00 313.09 2797.33
   05:12:08.235.18-Jan-2020 3717.16 6356.56 78.82 1.00 313.29 2797.33
   05:12:08.435.18-Jan-2020 3717.16 6356.47 78.82 1.00 313.49 2797.33
   05:12:08.635.18-Jan-2020 3717.16 6354.30 78.82 1.00 313.69 2797.33
   05:12:08.835.18-Jan-2020 3717.16 6354.70 78.82 1.00 313.89 2797.33
   05:12:09.035.18-Jan-2020 3717.16 6359.83 78.82 1.00 314.09 2797.33
   05:12:09.235.18-Jan-2020 3717.16 6359.83 78.82 1.00 314.29 2797.33
   05:12:09.435.18-Jan-2020 3717.16 6353.89 78.82 1.00 314.49 2797.33
   05:12:09.635.18-Jan-2020 3717.16 6359.67 78.82 1.00 314.69 2797.33
   05:12:09.835.18-Jan-2020 3717.16 6368.02 78.82 1.00 314.89 2797.33
   05:12:10.035.18-Jan-2020 3717.16 6355.88 78.82 1.00 315.09 2797.33
   05:12:10.235.18-Jan-2020 3717.16 6355.88 78.82 1.00 315.29 2797.33
   05:12:10.435.18-Jan-2020 3717.16 6358.35 78.82 1.00 315.49 2797.33
   05:12:10.636.18-Jan-2020 3717.16 6358.81 78.82 1.00 315.69 2797.33
   05:12:10.836.18-Jan-2020 3717.16 6357.00 78.82 1.00 315.89 2797.33
   05:12:11.036.18-Jan-2020 3717.16 6357.00 78.82 1.00 316.09 2797.33
   05:12:11.236.18-Jan-2020 3717.16 6357.00 78.82 1.00 316.29 2797.33
   05:12:11.436.18-Jan-2020 3717.16 6354.91 78.82 1.00 316.49 2797.33
   05:12:11.636.18-Jan-2020 3717.16 6355.39 78.82 1.00 316.69 2797.33
   05:12:11.836.18-Jan-2020 3717.16 6357.91 78.82 1.00 316.89 2797.33
   05:12:12.036.18-Jan-2020 3717.16 6357.17 78.82 1.00 317.09 2797.33
   05:12:12.236.18-Jan-2020 3717.16 6357.17 78.82 1.00 317.29 2797.33
   05:12:12.436.18-Jan-2020 3717.16 6354.69 78.82 1.00 317.49 2797.33
   05:12:12.636.18-Jan-2020 3717.16 6357.48 78.82 1.00 317.69 2797.33
   05:12:12.836.18-Jan-2020 3717.16 6356.67 78.82 1.00 317.89 2797.33
   05:12:13.036.18-Jan-2020 3717.16 6355.97 78.82 1.00 318.09 2797.33
   05:12:13.236.18-Jan-2020 3717.16 6355.97 78.82 1.00 318.29 2797.33
   05:12:13.436.18-Jan-2020 3717.16 6361.44 78.82 1.00 318.49 2797.33
   05:12:13.636.18-Jan-2020 3717.16 6354.37 78.82 1.00 318.69 2797.33
   05:12:13.836.18-Jan-2020 3717.16 6358.36 78.82 1.00 318.89 2797.33
   05:12:14.037.18-Jan-2020 3717.16 6356.74 78.82 1.00 319.09 2797.33
   05:12:14.237.18-Jan-2020 3717.16 6356.74 78.82 1.00 319.29 2797.33
   05:12:14.437.18-Jan-2020 3717.16 6356.16 78.82 1.00 319.49 2797.33
   05:12:14.637.18-Jan-2020 3717.16 6354.63 78.82 1.00 319.69 2797.33
   05:12:14.837.18-Jan-2020 3717.16 6354.93 78.82 1.00 319.89 2797.33
   05:12:15.037.18-Jan-2020 3717.16 6355.06 78.82 1.00 320.09 2797.33
   05:12:15.237.18-Jan-2020 3717.16 6355.06 78.82 1.00 320.29 2797.33
   05:12:15.437.18-Jan-2020 3717.16 6356.18 78.82 1.00 320.49 2797.33
   05:12:15.637.18-Jan-2020 3717.16 6362.04 78.82 1.00 320.69 2797.33
   05:12:15.837.18-Jan-2020 3717.16 6358.69 78.82 1.00 320.89 2797.33
   05:12:16.037.18-Jan-2020 3717.16 6354.50 78.82 1.00 321.09 2797.33
   05:12:16.237.18-Jan-2020 3717.16 6354.50 78.82 1.00 321.29 2797.33
   05:12:16.437.18-Jan-2020 3717.16 6357.42 78.82 1.00 321.49 2797.33
   05:12:16.637.18-Jan-2020 3717.16 6361.73 78.82 1.00 321.69 2797.33
   05:12:16.837.18-Jan-2020 3717.16 6361.38 78.82 1.00 321.89 2797.33
