~Version Information
 VERS.                  2.0:   CWLS log ASCII Standard -VERSION 2.0
 WRAP.                   NO:   One line per depth step
~Well Information Block
#MNEM.UNIT     VALUE/NAME     DESCRIPTION
#---------     -----------    ---------------------------
 STRT.S             05:06:54 18-Jan-20: START TIME 05:06:54 18-Jan-20
 STOP.S             05:17:00 18-Jan-20: STOP TIME  05:17:00 18-Jan-20
 STEP.S                   0.00: STEP TIME
 NULL.                 -999.25: NULL VALUE
 DFWT.                        :  DIST FWL TEXT
 DFST.                        :  DIST FSL TEXT
 DMF .             Drill Floor:  DRILL MEAS FROM
 STIM.      09.30.00 26-Dec-19:  START TIME
 DATE.      08.00.00 20-Jan-20:  END TIME
 SPUD.               23-Nov-19:  SPUD DATE
 NREF.                    Grid:  NORTH REFERENCE
 HPTY.       Minimum Curvature:  HOLE POS TYPE
 DMOD.             Drill Model:  DRILL MOD DESC
 SVYD.                  Survey:  SURVEY DESC
 ILTD.               Lithology:  INTERP LTH DESC
 FTOP.          Formation Tops:  FORM TOPS DESC
 SON .        AZ-XX-0906192647:  JOB NUMBER
 WTYP.                Deviated:  WELL TYPE
 COMP.     BP Exploration (Caspian Sea) Ltd:  COMPANY
 BASE.              Azerbaijan:  LOGGING EQUIPMENT BASE LOCATION
 REGN.                 Eurasia:  REGION
 FLD .                     ACG:  FIELD NAME
 SRVC.              KCA Deutag:  CONTRACTOR
 MWDS.                    Baku:  MWD SHOP
 WELL.     A10 (Slot 20) - SCP:  WELL NAME
 JOBN.        AZ-XX-0906192647:  JOB TICKET NUMB
 RIG .                 Chirag1:  RIG NAME
 DCON.     Halliburton Sperry Drilling:  DIRECTNL CONTR
 UNIT.                     N/A:  LOGGING EQUIPMENT ID
 PDAT.          Mean Sea Level:  PERMANENT DATUM
 MDS .        Operator Entered:  MAG DATA SOURCE
 CTRY.              Azerbaijan:  COUNTRY NAME
 UWI .            /AZE00000090:  UNIQUE WELL IDENTIFIER
 API .            /AZE00000090:  API NUMBER
 CNTY.                        :  COUNTY
 PROV.                        :  PROVINCE
 STAT.                        :  STATE
 LOC .                        :  LOCATION
 LMF .             Drill Floor:  LOG MEASURED FROM
 TVDS.m                  36.60:  TVDSS CORRECTN
 LATI.deg                40.08:  LATITUDE
 LONG.deg                51.24:  LONGITUDE
 WHNS.m                  -7.94:  WELL HEAD N/S
 WHEW.m                   1.56:  WELL HEAD E/W
 UTMX.m              520429.26:  UTM X
 UTMY.m             4438973.87:  UTM Y
 DFWL.m                   0.00:  DISTANCE FWL
 DFSL.m                   0.00:  DISTANCE FSL
 SDEP.m                1455.00:  START DEPTH
 TDD .m                3878.01:  TOTAL DEPTH (DRILLER)
 VSDR.deg               112.75:  VERT SEC DIRECT
 GVFD.g                   1.00:  GRAVITY FIELD
 MFLD.nT              50256.00:  MAGNETIC FIELD
 MDIP.deg                59.52:  MAGNETIC DIP
 MDEC.deg                 6.43:  MAGNETIC DECL
 GRDC.deg                 0.16:  GRID CORRECTION
 AZTC.deg                 6.27:  AZM TOTAL CORR
 EPD .m                   0.00:  ELEVATION
 EGL .m                   0.00:  GROUND ELEVATION
 WDMS.m                 121.00:  WD ELEV
 APD .m                  36.60:  DEPTH ABOVE PD
 AGAP.m                  36.60:  AIR GAP
 VSEW.m                   1.56:  VERT SEC E/W
 VSNS.m                  -7.94:  VERT SEC N/S
 DEP .m                1140.01:  DEPTH
 EKB .m                  36.60:  KB ELEVATION
 EDF .m                  36.60:  DF ELEVATION
 TDL .m                1293.00:  TOTAL DEPTH (LOGGER)
 VSC .                       0:  VS TO CLOSURE
 MAGU.                 1849164:  MAGUTM CHECKSUM
~Parameter Information Block
#MNEM.UNIT       Value        Description
#---------     -----------    ---------------------------
 AV  .mps                 2.40:  Ann Velocity 
 AVMX.mps                 2.55:  Max Ann Veloc 
 AZIF.deg               134.35:  Azm, Final 
 BHAT.        Rotary Steerable:  BHA Type 
 BREV.rev               847.00:  Rev Bit Total 
 BROT.�/30m              -2.51:  Build Rotating 
 BS  .in                  8.50:  Bit Size 
 BSZ .in                  8.50:  Bit Size 
 BTPL.psig              700.00:  Bit Press Loss 
 CABU.                     Yes:  Customer Abuse 
 CGEO.          Ilgar Gurbanov:  Customer Geo 
 COMM.                     ��L:  Run Comments 1 
 TCS .hr                140.40:  Time Ciculation Ended 
 CV  .mps                 2.27:  Crit Velocity 
 CVMX.mps                 2.45:  Max Crit Veloc 
 DD1 .         Intigam Rahimov:  Direct Drillr 1 
 DD2 .         Rasim Ibrahimov:  Direct Drillr 2 
 DDSV.                 iCruise:  DD Service 
 DEFF.%                  99.00:  % Det Eff 
 DLRX.�/30m               3.28:  Dogleg Rot Max 
 DLSO.�/30m               0.00:  Dogleg Oriented 
 DLSX.�/30m               0.00:  Dogleg Str Max 
 DRET.      23.30.00 18-Jan-20:  Drill End Time 
 DRST.      01.45.00 11-Jan-20:  Drill Start Tim 
 DTIM.hr                 94.00:  Time Drilling 
 EDEP.m                3878.01:  End Depth 
 ENG1.       Dauren Baktybayev:  Engineer 1 
 ENG2.      Natik Hasanaghayev:  Engineer 2 
 ENG3.          Rustam Safarov:  Engineer 3 
 ETIM.      08.00.00 20-Jan-20:  End Time 
 FLOI.gpm               532.00:  Flow In 
 FLON.gpm               500.00:  Flow In Min 
 FLOS.cptm                0.00:  Fluid Loss 
 FLOX.gpm               540.00:  Flow In Max 
 FTRO.       Formation Presure:  FTWD Run Obj 
 HPRE.                     Yes:  High Pressure 
 HTEM.                      No:  High Temp 
 HYDO.m                   1.80:  Hydro Offset 
 IFIN.deg                39.86:  Inc, Final 
 IMAX.deg                59.73:  Inc Max 
 IMIN.deg                39.25:  Inc Min 
 IMND.m                3816.77:  Inc Min Depth 
 IMXD.m                2596.33:  Inc Max Depth 
 JARR.                      No:  Jarring 
 LETM.      23.30.00 18-Jan-20:  Log End Time 
 LOST.hr                     0:  Lost Rig Time 
 LSTM.      01.45.00 11-Jan-20:  Log Start Time 
 MDCL.ppm             41500.00:  Mud Chlorides 
 MDES.     Inversion Oil/Synthetic:  Mud Desc 
 DFD .sg                  1.48:  Mud Density 
 MDMN.sg                  1.48:  Dens Mud Min 
 MDMX.sg                  1.48:  Dens Mud Max 
 MOIL.                      54:  Run Mud Oil % 
 MOWR.                   72:28:  Run Mud OWR 
 MSND.                       0:  Run Mud Sand % 
 MSOL.                      23:  Run Mud Solids% 
 DFV .spqt               86.00:  Mud Viscosity 
 MWOD.in                  6.75:  MWD Tool OD 
 MWSI.                      No:  Serv Intrp, MWD 
 OTIM.hr                223.40:  Time Operating 
 PCON.           Look Like New:  Pad Condition 
 PMAX.psia            32446.79:  Press Op, Max 
 PV  .cP                 49.00:  Mud PV 
 RUN .                     200:  Run Number 
 ROPA.m/hr               12.48:  ROP Avg 
 ROPN.m/hr                8.00:  ROP Min 
 ROPX.m/hr               27.00:  ROP Max 
 RPMA.rpm               121.00:  RPM Surface Avg 
 RPMN.rpm                60.00:  RPM Surface Min 
 RPMX.rpm               140.00:  RPM Surface Max 
 RRUN.                    L202:  Rig Run Number 
 RTIM.hr                  7.25:  Time Reaming 
 SAZI.deg               123.49:  Azm, Start 
 SDEP.m                2585.01:  Start Depth 
 SIDD.                      No:  Serv Intrp, DD 
 SINC.deg                59.93:  Inc, Start 
 SPPA.psig             3539.00:  SPP Avg 
 SPPN.psig             3050.00:  SPP Min 
 SPPX.psig             3950.00:  SPP Max 
 STIM.      19.00.00 10-Jan-20:  Start Time 
 SVCS.                 DD, MWD:  Services 
 SVER.                    9.20:  Sperry Version 
 TDAT.m                1293.00:  Tot Depth Attmp 
 TDDF.                      No:  Trip for DD 
 TDLG.m                1293.00:  Tot Depth Loggd 
 TFF .                      No:  Trip for Fail 
 TQAA.f-kp               16.00:  Torque Abs Avg 
 TQAN.f-kp               11.00:  Torque Abs Min 
 TQAX.f-kp               18.00:  Torque Abs Max 
 TRRT.�/30m               1.25:  Turn Rotating 
 MRT .                  EWR-M5:  Maximum Recorded Temperature 
 TTMX.degC               84.00:  Max Tool Temp 
 VS01.          AZ90514619R5C6:  Virtual Str1 SN 
 VS02.        AZ90552592N2L2C6:  Virtual Str2 SN 
 VS03.        AZ90571337Z1W1C6:  Virtual Str3 SN 
 VS04.         AZ90513690K23C6:  Virtual Str4 SN 
 VS05.           AZ90594857F11:  Virtual Str5 SN 
 VS06.                13102166:  Virtual Str6 SN 
 WBMN.klb                 7.00:  WOB Min 
 WITN.            Peter Wilson:  Customer Rep 
 WOBA.klb                 9.95:  WOB Avg 
 WOBX.klb                10.00:  WOB Max 
 YP  .lhf2               36.00:  Yield Point 
~Curve Information Block
#MNEM.UNIT                 API CODE     Curve Description
#---------               -----------    ---------------------------
 TIME.HHMMSS            00 000 000 000:  GT Time & Date
 GTDEPTH.m              00 000 000 000:  GT Depth
 GTPQH.psia             00 000 000 000:  GT HR Quartz Pressure
 GTTQ.degC              00 000 000 000:  GT Quartz Temperature
 GTTN.NONE              00 000 000 000:  GT Test Number
 GTET.sec               00 000 000 000:  GT Elapsed Test Time
 GTTVD.m                00 000 000 000:  GT True Vertical Depth
#Other Information
#
#WARRANTY: Halliburton will use its best efforts to furnish customers with 
#accurate information and interpretations that are part of, and incident to, the services 
#provided.  However, Halliburton cannot and does not warrant the accuracy 
#or correctness of such information and interpretations.  Under no circumstances should any 
#such information or interpretation be relied upon as the sole basis for any drilling, 
#completion, production, or financial decision or any procedure involving any risk to the 
#safety of any drilling venture, drilling rig or its crew or any other third party.  The 
#Customer has full responsibility for all drilling, completion and production operation.  
#Halliburton makes no representations or warranties, either expressed or 
#implied, including, but not limited to, the implied warranties of merchantability or fitness 
#for a particular purpose, with respect to the services rendered.  In no event will 
#Halliburton be liable for failure to obtain any particular results or for 
#any damages, including, but not limited to, indirect, special or consequential damages, 
#resulting from the use of any information or interpretation provided by Halliburton.
#
~A           TIME           GTDEPTH  GTPQH  GTTQ  GTTN  GTET   GTTVD  
# ...
   05:15:21.089.18-Jan-2020 3717.16 6350.23 78.71 1.00 506.14 2797.33
   05:15:21.290.18-Jan-2020 3717.16 6350.23 78.71 1.00 506.34 2797.33
   05:15:21.490.18-Jan-2020 3717.16 6350.14 78.71 1.00 506.54 2797.33
   05:15:21.690.18-Jan-2020 3717.16 6354.66 78.71 1.00 506.74 2797.33
   05:15:21.890.18-Jan-2020 3717.16 6352.77 78.71 1.00 506.94 2797.33
   05:15:22.090.18-Jan-2020 3717.16 6352.06 78.71 1.00 507.14 2797.33
   05:15:22.290.18-Jan-2020 3717.16 6352.06 78.71 1.00 507.34 2797.33
   05:15:22.490.18-Jan-2020 3717.16 6351.56 78.71 1.00 507.54 2797.33
   05:15:22.690.18-Jan-2020 3717.16 6352.61 78.71 1.00 507.74 2797.33
   05:15:22.890.18-Jan-2020 3717.16 6352.40 78.71 1.00 507.94 2797.33
   05:15:23.090.18-Jan-2020 3717.16 6351.34 78.71 1.00 508.14 2797.33
   05:15:23.290.18-Jan-2020 3717.16 6351.34 78.71 1.00 508.34 2797.33
   05:15:23.490.18-Jan-2020 3717.16 6353.82 78.71 1.00 508.54 2797.33
   05:15:23.690.18-Jan-2020 3717.16 6349.46 78.71 1.00 508.74 2797.33
   05:15:23.890.18-Jan-2020 3717.16 6354.47 78.71 1.00 508.94 2797.33
   05:15:24.090.18-Jan-2020 3717.16 6349.84 78.70 1.00 509.14 2797.33
   05:15:24.290.18-Jan-2020 3717.16 6349.84 78.70 1.00 509.34 2797.33
   05:15:24.490.18-Jan-2020 3717.16 6348.51 78.70 1.00 509.54 2797.33
   05:15:24.690.18-Jan-2020 3717.16 6349.84 78.70 1.00 509.74 2797.33
   05:15:24.891.18-Jan-2020 3717.16 6348.53 78.70 1.00 509.94 2797.33
   05:15:25.091.18-Jan-2020 3717.16 6349.86 78.70 1.00 510.14 2797.33
   05:15:25.291.18-Jan-2020 3717.16 6349.86 78.70 1.00 510.34 2797.33
   05:15:25.491.18-Jan-2020 3717.16 6350.80 78.70 1.00 510.54 2797.33
   05:15:25.691.18-Jan-2020 3717.16 6356.91 78.70 1.00 510.74 2797.33
   05:15:25.891.18-Jan-2020 3717.16 6351.92 78.70 1.00 510.94 2797.33
   05:15:26.091.18-Jan-2020 3717.16 6351.23 78.70 1.00 511.14 2797.33
   05:15:26.291.18-Jan-2020 3717.16 6351.23 78.70 1.00 511.34 2797.33
   05:15:26.491.18-Jan-2020 3717.16 6351.39 78.70 1.00 511.54 2797.33
   05:15:26.691.18-Jan-2020 3717.16 6358.28 78.70 1.00 511.74 2797.33
   05:15:26.891.18-Jan-2020 3717.16 6354.41 78.70 1.00 511.94 2797.33
   05:15:27.091.18-Jan-2020 3717.16 6348.77 78.70 1.00 512.15 2797.33
   05:15:27.291.18-Jan-2020 3717.16 6348.77 78.70 1.00 512.35 2797.33
   05:15:27.491.18-Jan-2020 3717.16 6348.99 78.70 1.00 512.55 2797.33
   05:15:27.691.18-Jan-2020 3717.16 6349.94 78.70 1.00 512.75 2797.33
   05:15:27.891.18-Jan-2020 3717.16 6357.67 78.70 1.00 512.95 2797.33
   05:15:28.091.18-Jan-2020 3717.16 6351.65 78.70 1.00 513.15 2797.33
   05:15:28.292.18-Jan-2020 3717.16 6351.65 78.70 1.00 513.35 2797.33
   05:15:28.492.18-Jan-2020 3717.16 6353.96 78.70 1.00 513.55 2797.33
   05:15:28.692.18-Jan-2020 3717.16 6360.62 78.70 1.00 513.75 2797.33
   05:15:28.892.18-Jan-2020 3717.16 6352.35 78.70 1.00 513.95 2797.33
   05:15:29.092.18-Jan-2020 3717.16 6351.46 78.70 1.00 514.15 2797.33
   05:15:29.292.18-Jan-2020 3717.16 6351.46 78.70 1.00 514.35 2797.33
   05:15:29.492.18-Jan-2020 3717.16 6353.57 78.70 1.00 514.55 2797.33
   05:15:29.692.18-Jan-2020 3717.16 6352.43 78.70 1.00 514.75 2797.33
   05:15:29.892.18-Jan-2020 3717.16 6352.73 78.70 1.00 514.95 2797.33
   05:15:30.092.18-Jan-2020 3717.16 6350.13 78.70 1.00 515.15 2797.33
   05:15:30.292.18-Jan-2020 3717.16 6350.13 78.70 1.00 515.35 2797.33
   05:15:30.492.18-Jan-2020 3717.16 6350.89 78.70 1.00 515.55 2797.33
   05:15:30.692.18-Jan-2020 3717.16 6353.62 78.70 1.00 515.75 2797.33
   05:15:30.892.18-Jan-2020 3717.16 6352.19 78.70 1.00 515.95 2797.33
   05:15:31.092.18-Jan-2020 3717.16 6349.92 78.70 1.00 516.15 2797.33
   05:15:31.292.18-Jan-2020 3717.16 6349.92 78.70 1.00 516.35 2797.33
   05:15:31.492.18-Jan-2020 3717.16 6351.99 78.70 1.00 516.55 2797.33
   05:15:31.692.18-Jan-2020 3717.16 6351.09 78.70 1.00 516.75 2797.33
   05:15:31.893.18-Jan-2020 3717.16 6350.46 78.70 1.00 516.95 2797.33
   05:15:32.093.18-Jan-2020 3717.16 6359.14 78.70 1.00 517.15 2797.33
   05:15:32.293.18-Jan-2020 3717.16 6359.14 78.70 1.00 517.35 2797.33
   05:15:32.493.18-Jan-2020 3717.16 6348.10 78.70 1.00 517.55 2797.33
   05:15:32.693.18-Jan-2020 3717.16 6352.79 78.70 1.00 517.75 2797.33
   05:15:32.893.18-Jan-2020 3717.16 6350.39 78.70 1.00 517.95 2797.33
   05:15:33.093.18-Jan-2020 3717.16 6350.84 78.70 1.00 518.15 2797.33
   05:15:33.293.18-Jan-2020 3717.16 6350.84 78.70 1.00 518.35 2797.33
   05:15:33.493.18-Jan-2020 3717.16 6349.89 78.70 1.00 518.55 2797.33
   05:15:33.693.18-Jan-2020 3717.16 6349.33 78.70 1.00 518.75 2797.33
   05:15:33.893.18-Jan-2020 3717.16 6349.38 78.70 1.00 518.95 2797.33
   05:15:34.093.18-Jan-2020 3717.16 6349.60 78.70 1.00 519.15 2797.33
   05:15:34.293.18-Jan-2020 3717.16 6349.60 78.70 1.00 519.35 2797.33
   05:15:34.493.18-Jan-2020 3717.16 6358.21 78.70 1.00 519.55 2797.33
   05:15:34.693.18-Jan-2020 3717.16 6350.74 78.70 1.00 519.75 2797.33
   05:15:34.893.18-Jan-2020 3717.16 6349.15 78.70 1.00 519.95 2797.33
   05:15:35.093.18-Jan-2020 3717.16 6353.29 78.70 1.00 520.15 2797.33
   05:15:35.293.18-Jan-2020 3717.16 6353.29 78.70 1.00 520.35 2797.33
   05:15:35.494.18-Jan-2020 3717.16 6348.75 78.70 1.00 520.55 2797.33
   05:15:35.694.18-Jan-2020 3717.16 6362.58 78.70 1.00 520.75 2797.33
   05:15:35.894.18-Jan-2020 3717.16 6349.40 78.70 1.00 520.95 2797.33
   05:15:36.094.18-Jan-2020 3717.16 6348.60 78.70 1.00 521.15 2797.33
   05:15:36.294.18-Jan-2020 3717.16 6348.60 78.70 1.00 521.35 2797.33
   05:15:36.494.18-Jan-2020 3717.16 6349.82 78.70 1.00 521.55 2797.33
   05:15:36.694.18-Jan-2020 3717.16 6348.72 78.70 1.00 521.75 2797.33
   05:15:36.894.18-Jan-2020 3717.16 6357.73 78.70 1.00 521.95 2797.33
   05:15:37.094.18-Jan-2020 3717.16 6350.67 78.70 1.00 522.15 2797.33
   05:15:37.294.18-Jan-2020 3717.16 6350.67 78.70 1.00 522.35 2797.33
   05:15:37.494.18-Jan-2020 3717.16 6361.71 78.70 1.00 522.55 2797.33
   05:15:37.694.18-Jan-2020 3717.16 6352.29 78.70 1.00 522.75 2797.33
   05:15:37.894.18-Jan-2020 3717.16 6351.99 78.70 1.00 522.95 2797.33
   05:15:38.094.18-Jan-2020 3717.16 6349.94 78.69 1.00 523.15 2797.33
   05:15:38.294.18-Jan-2020 3717.16 6349.94 78.69 1.00 523.35 2797.33
   05:15:38.494.18-Jan-2020 3717.16 6351.83 78.69 1.00 523.55 2797.33
   05:15:38.694.18-Jan-2020 3717.16 6353.69 78.69 1.00 523.75 2797.33
   05:15:38.895.18-Jan-2020 3717.16 6349.83 78.69 1.00 523.95 2797.33
   05:15:39.095.18-Jan-2020 3717.16 6350.15 78.69 1.00 524.15 2797.33
   05:15:39.295.18-Jan-2020 3717.16 6350.15 78.69 1.00 524.35 2797.33
   05:15:39.495.18-Jan-2020 3717.16 6352.68 78.69 1.00 524.55 2797.33
   05:15:39.695.18-Jan-2020 3717.16 6352.88 78.69 1.00 524.75 2797.33
   05:15:39.895.18-Jan-2020 3717.16 6350.55 78.69 1.00 524.95 2797.33
   05:15:40.095.18-Jan-2020 3717.16 6351.24 78.69 1.00 525.15 2797.33
   05:15:40.295.18-Jan-2020 3717.16 6351.24 78.69 1.00 525.35 2797.33
   05:15:40.495.18-Jan-2020 3717.16 6351.64 78.69 1.00 525.55 2797.33
   05:15:40.695.18-Jan-2020 3717.16 6350.21 78.69 1.00 525.75 2797.33
   05:15:40.895.18-Jan-2020 3717.16 6360.39 78.69 1.00 525.95 2797.33
   05:15:41.095.18-Jan-2020 3717.16 6353.52 78.69 1.00 526.15 2797.33
   05:15:41.295.18-Jan-2020 3717.16 6353.52 78.69 1.00 526.35 2797.33
   05:15:41.495.18-Jan-2020 3717.16 6351.99 78.69 1.00 526.55 2797.33
   05:15:41.695.18-Jan-2020 3717.16 6351.55 78.69 1.00 526.75 2797.33
   05:15:41.895.18-Jan-2020 3717.16 6350.69 78.69 1.00 526.95 2797.33
   05:15:42.095.18-Jan-2020 3717.16 6351.54 78.69 1.00 527.15 2797.33
   05:15:42.295.18-Jan-2020 3717.16 6351.54 78.69 1.00 527.35 2797.33
   05:15:42.496.18-Jan-2020 3717.16 6348.83 78.69 1.00 527.55 2797.33
   05:15:42.696.18-Jan-2020 3717.16 6349.24 78.69 1.00 527.75 2797.33
   05:15:42.896.18-Jan-2020 3717.16 6350.07 78.69 1.00 527.95 2797.33
   05:15:43.096.18-Jan-2020 3717.16 6351.19 78.69 1.00 528.15 2797.33
   05:15:43.296.18-Jan-2020 3717.16 6351.19 78.69 1.00 528.35 2797.33
   05:15:43.496.18-Jan-2020 3717.16 6353.79 78.69 1.00 528.55 2797.33
   05:15:43.696.18-Jan-2020 3717.16 6348.53 78.69 1.00 528.75 2797.33
   05:15:43.896.18-Jan-2020 3717.16 6354.66 78.69 1.00 528.95 2797.33
