~Version Information
 VERS.                  2.0:   CWLS log ASCII Standard -VERSION 2.0
 WRAP.                   NO:   One line per depth step
~Well Information Block
#MNEM.UNIT     VALUE/NAME     DESCRIPTION
#---------     -----------    ---------------------------
 STRT.S             17:36:42 18-Jan-20: START TIME 17:36:42 18-Jan-20
 STOP.S             17:44:57 18-Jan-20: STOP TIME  17:44:57 18-Jan-20
 STEP.S                   0.00: STEP TIME
 NULL.                 -999.25: NULL VALUE
 DFWT.                        :  DIST FWL TEXT
 DFST.                        :  DIST FSL TEXT
 DMF .             Drill Floor:  DRILL MEAS FROM
 STIM.      09.30.00 26-Dec-19:  START TIME
 DATE.      08.00.00 20-Jan-20:  END TIME
 SPUD.               23-Nov-19:  SPUD DATE
 NREF.                    Grid:  NORTH REFERENCE
 HPTY.       Minimum Curvature:  HOLE POS TYPE
 DMOD.             Drill Model:  DRILL MOD DESC
 SVYD.                  Survey:  SURVEY DESC
 ILTD.               Lithology:  INTERP LTH DESC
 FTOP.          Formation Tops:  FORM TOPS DESC
 SON .        AZ-XX-0906192647:  JOB NUMBER
 WTYP.                Deviated:  WELL TYPE
 COMP.     BP Exploration (Caspian Sea) Ltd:  COMPANY
 BASE.              Azerbaijan:  LOGGING EQUIPMENT BASE LOCATION
 REGN.                 Eurasia:  REGION
 FLD .                     ACG:  FIELD NAME
 SRVC.              KCA Deutag:  CONTRACTOR
 MWDS.                    Baku:  MWD SHOP
 WELL.     A10 (Slot 20) - SCP:  WELL NAME
 JOBN.        AZ-XX-0906192647:  JOB TICKET NUMB
 RIG .                 Chirag1:  RIG NAME
 DCON.     Halliburton Sperry Drilling:  DIRECTNL CONTR
 UNIT.                     N/A:  LOGGING EQUIPMENT ID
 PDAT.          Mean Sea Level:  PERMANENT DATUM
 MDS .        Operator Entered:  MAG DATA SOURCE
 CTRY.              Azerbaijan:  COUNTRY NAME
 UWI .            /AZE00000090:  UNIQUE WELL IDENTIFIER
 API .            /AZE00000090:  API NUMBER
 CNTY.                        :  COUNTY
 PROV.                        :  PROVINCE
 STAT.                        :  STATE
 LOC .                        :  LOCATION
 LMF .             Drill Floor:  LOG MEASURED FROM
 TVDS.m                  36.60:  TVDSS CORRECTN
 LATI.deg                40.08:  LATITUDE
 LONG.deg                51.24:  LONGITUDE
 WHNS.m                  -7.94:  WELL HEAD N/S
 WHEW.m                   1.56:  WELL HEAD E/W
 UTMX.m              520429.26:  UTM X
 UTMY.m             4438973.87:  UTM Y
 DFWL.m                   0.00:  DISTANCE FWL
 DFSL.m                   0.00:  DISTANCE FSL
 SDEP.m                1455.00:  START DEPTH
 TDD .m                3878.01:  TOTAL DEPTH (DRILLER)
 VSDR.deg               112.75:  VERT SEC DIRECT
 GVFD.g                   1.00:  GRAVITY FIELD
 MFLD.nT              50256.00:  MAGNETIC FIELD
 MDIP.deg                59.52:  MAGNETIC DIP
 MDEC.deg                 6.43:  MAGNETIC DECL
 GRDC.deg                 0.16:  GRID CORRECTION
 AZTC.deg                 6.27:  AZM TOTAL CORR
 EPD .m                   0.00:  ELEVATION
 EGL .m                   0.00:  GROUND ELEVATION
 WDMS.m                 121.00:  WD ELEV
 APD .m                  36.60:  DEPTH ABOVE PD
 AGAP.m                  36.60:  AIR GAP
 VSEW.m                   1.56:  VERT SEC E/W
 VSNS.m                  -7.94:  VERT SEC N/S
 DEP .m                1140.01:  DEPTH
 EKB .m                  36.60:  KB ELEVATION
 EDF .m                  36.60:  DF ELEVATION
 TDL .m                1293.00:  TOTAL DEPTH (LOGGER)
 VSC .                       0:  VS TO CLOSURE
 MAGU.                 1849164:  MAGUTM CHECKSUM
~Parameter Information Block
#MNEM.UNIT       Value        Description
#---------     -----------    ---------------------------
 AV  .mps                 2.40:  Ann Velocity 
 AVMX.mps                 2.55:  Max Ann Veloc 
 AZIF.deg               134.35:  Azm, Final 
 BHAT.        Rotary Steerable:  BHA Type 
 BREV.rev               847.00:  Rev Bit Total 
 BROT.°/30m              -2.51:  Build Rotating 
 BS  .in                  8.50:  Bit Size 
 BSZ .in                  8.50:  Bit Size 
 BTPL.psig              700.00:  Bit Press Loss 
 CABU.                     Yes:  Customer Abuse 
 CGEO.          Ilgar Gurbanov:  Customer Geo 
 COMM.                     Ä_:  Run Comments 1 
 TCS .hr                140.40:  Time Ciculation Ended 
 CV  .mps                 2.27:  Crit Velocity 
 CVMX.mps                 2.45:  Max Crit Veloc 
 DD1 .         Intigam Rahimov:  Direct Drillr 1 
 DD2 .         Rasim Ibrahimov:  Direct Drillr 2 
 DDSV.                 iCruise:  DD Service 
 DEFF.%                  99.00:  % Det Eff 
 DLRX.°/30m               3.28:  Dogleg Rot Max 
 DLSO.°/30m               0.00:  Dogleg Oriented 
 DLSX.°/30m               0.00:  Dogleg Str Max 
 DRET.      23.30.00 18-Jan-20:  Drill End Time 
 DRST.      01.45.00 11-Jan-20:  Drill Start Tim 
 DTIM.hr                 94.00:  Time Drilling 
 EDEP.m                3878.01:  End Depth 
 ENG1.       Dauren Baktybayev:  Engineer 1 
 ENG2.      Natik Hasanaghayev:  Engineer 2 
 ENG3.          Rustam Safarov:  Engineer 3 
 ETIM.      08.00.00 20-Jan-20:  End Time 
 FLOI.gpm               532.00:  Flow In 
 FLON.gpm               500.00:  Flow In Min 
 FLOS.cptm                0.00:  Fluid Loss 
 FLOX.gpm               540.00:  Flow In Max 
 FTRO.       Formation Presure:  FTWD Run Obj 
 HPRE.                     Yes:  High Pressure 
 HTEM.                      No:  High Temp 
 HYDO.m                   1.80:  Hydro Offset 
 IFIN.deg                39.86:  Inc, Final 
 IMAX.deg                59.73:  Inc Max 
 IMIN.deg                39.25:  Inc Min 
 IMND.m                3816.77:  Inc Min Depth 
 IMXD.m                2596.33:  Inc Max Depth 
 JARR.                      No:  Jarring 
 LETM.      23.30.00 18-Jan-20:  Log End Time 
 LOST.hr                     0:  Lost Rig Time 
 LSTM.      01.45.00 11-Jan-20:  Log Start Time 
 MDCL.ppm             41500.00:  Mud Chlorides 
 MDES.     Inversion Oil/Synthetic:  Mud Desc 
 DFD .sg                  1.48:  Mud Density 
 MDMN.sg                  1.48:  Dens Mud Min 
 MDMX.sg                  1.48:  Dens Mud Max 
 MOIL.                      54:  Run Mud Oil % 
 MOWR.                   72:28:  Run Mud OWR 
 MSND.                       0:  Run Mud Sand % 
 MSOL.                      23:  Run Mud Solids% 
 DFV .spqt               86.00:  Mud Viscosity 
 MWOD.in                  6.75:  MWD Tool OD 
 MWSI.                      No:  Serv Intrp, MWD 
 OTIM.hr                223.40:  Time Operating 
 PCON.           Look Like New:  Pad Condition 
 PMAX.psia            32446.79:  Press Op, Max 
 PV  .cP                 49.00:  Mud PV 
 RUN .                     200:  Run Number 
 ROPA.m/hr               12.48:  ROP Avg 
 ROPN.m/hr                8.00:  ROP Min 
 ROPX.m/hr               27.00:  ROP Max 
 RPMA.rpm               121.00:  RPM Surface Avg 
 RPMN.rpm                60.00:  RPM Surface Min 
 RPMX.rpm               140.00:  RPM Surface Max 
 RRUN.                    L202:  Rig Run Number 
 RTIM.hr                  7.25:  Time Reaming 
 SAZI.deg               123.49:  Azm, Start 
 SDEP.m                2585.01:  Start Depth 
 SIDD.                      No:  Serv Intrp, DD 
 SINC.deg                59.93:  Inc, Start 
 SPPA.psig             3539.00:  SPP Avg 
 SPPN.psig             3050.00:  SPP Min 
 SPPX.psig             3950.00:  SPP Max 
 STIM.      19.00.00 10-Jan-20:  Start Time 
 SVCS.                 DD, MWD:  Services 
 SVER.                    9.20:  Sperry Version 
 TDAT.m                1293.00:  Tot Depth Attmp 
 TDDF.                      No:  Trip for DD 
 TDLG.m                1293.00:  Tot Depth Loggd 
 TFF .                      No:  Trip for Fail 
 TQAA.f-kp               16.00:  Torque Abs Avg 
 TQAN.f-kp               11.00:  Torque Abs Min 
 TQAX.f-kp               18.00:  Torque Abs Max 
 TRRT.°/30m               1.25:  Turn Rotating 
 MRT .                  EWR-M5:  Maximum Recorded Temperature 
 TTMX.degC               84.00:  Max Tool Temp 
 VS01.          AZ90514619R5C6:  Virtual Str1 SN 
 VS02.        AZ90552592N2L2C6:  Virtual Str2 SN 
 VS03.        AZ90571337Z1W1C6:  Virtual Str3 SN 
 VS04.         AZ90513690K23C6:  Virtual Str4 SN 
 VS05.           AZ90594857F11:  Virtual Str5 SN 
 VS06.                13102166:  Virtual Str6 SN 
 WBMN.klb                 7.00:  WOB Min 
 WITN.            Peter Wilson:  Customer Rep 
 WOBA.klb                 9.95:  WOB Avg 
 WOBX.klb                10.00:  WOB Max 
 YP  .lhf2               36.00:  Yield Point 
~Curve Information Block
#MNEM.UNIT                 API CODE     Curve Description
#---------               -----------    ---------------------------
 TIME.HHMMSS            00 000 000 000:  GT Time & Date
 GTDEPTH.m              00 000 000 000:  GT Depth
 GTPQH.psia             00 000 000 000:  GT HR Quartz Pressure
 GTTQ.degC              00 000 000 000:  GT Quartz Temperature
 GTTN.NONE              00 000 000 000:  GT Test Number
 GTET.sec               00 000 000 000:  GT Elapsed Test Time
 GTTVD.m                00 000 000 000:  GT True Vertical Depth
#Other Information
#
#WARRANTY: Halliburton will use its best efforts to furnish customers with 
#accurate information and interpretations that are part of, and incident to, the services 
#provided.  However, Halliburton cannot and does not warrant the accuracy 
#or correctness of such information and interpretations.  Under no circumstances should any 
#such information or interpretation be relied upon as the sole basis for any drilling, 
#completion, production, or financial decision or any procedure involving any risk to the 
#safety of any drilling venture, drilling rig or its crew or any other third party.  The 
#Customer has full responsibility for all drilling, completion and production operation.  
#Halliburton makes no representations or warranties, either expressed or 
#implied, including, but not limited to, the implied warranties of merchantability or fitness 
#for a particular purpose, with respect to the services rendered.  In no event will 
#Halliburton be liable for failure to obtain any particular results or for 
#any damages, including, but not limited to, indirect, special or consequential damages, 
#resulting from the use of any information or interpretation provided by Halliburton.
#
~A           TIME           GTDEPTH  GTPQH  GTTQ  GTTN  GTET   GTTVD  
# ...
   17:40:32.910.18-Jan-2020 3785.01 3858.33 81.95 6.00 230.02 2848.88
   17:40:33.110.18-Jan-2020 3785.01 3858.33 81.95 6.00 230.22 2848.88
   17:40:33.310.18-Jan-2020 3785.01 3858.50 81.95 6.00 230.42 2848.88
   17:40:33.510.18-Jan-2020 3785.01 3858.34 81.95 6.00 230.62 2848.88
   17:40:33.710.18-Jan-2020 3785.01 3858.48 81.95 6.00 230.82 2848.88
   17:40:33.910.18-Jan-2020 3785.01 3858.43 81.95 6.00 231.02 2848.88
   17:40:34.110.18-Jan-2020 3785.01 3858.43 81.95 6.00 231.22 2848.88
   17:40:34.310.18-Jan-2020 3785.01 3856.18 81.95 6.00 231.42 2848.88
   17:40:34.510.18-Jan-2020 3785.01 3858.30 81.95 6.00 231.62 2848.88
   17:40:34.710.18-Jan-2020 3785.01 3858.55 81.95 6.00 231.82 2848.88
   17:40:34.910.18-Jan-2020 3785.01 3858.61 81.95 6.00 232.02 2848.88
   17:40:35.110.18-Jan-2020 3785.01 3858.61 81.95 6.00 232.22 2848.88
   17:40:35.310.18-Jan-2020 3785.01 3857.27 81.95 6.00 232.42 2848.88
   17:40:35.510.18-Jan-2020 3785.01 3858.78 81.95 6.00 232.62 2848.88
   17:40:35.710.18-Jan-2020 3785.01 3858.79 81.95 6.00 232.82 2848.88
   17:40:35.910.18-Jan-2020 3785.01 3858.47 81.95 6.00 233.02 2848.88
   17:40:36.110.18-Jan-2020 3785.01 3858.47 81.95 6.00 233.22 2848.88
   17:40:36.310.18-Jan-2020 3785.01 3858.49 81.94 6.00 233.42 2848.88
   17:40:36.510.18-Jan-2020 3785.01 3858.29 81.94 6.00 233.62 2848.88
   17:40:36.710.18-Jan-2020 3785.01 3858.37 81.94 6.00 233.82 2848.88
   17:40:36.910.18-Jan-2020 3785.01 3858.57 81.94 6.00 234.02 2848.88
   17:40:37.110.18-Jan-2020 3785.01 3858.57 81.94 6.00 234.22 2848.88
   17:40:37.310.18-Jan-2020 3785.01 3858.24 81.94 6.00 234.42 2848.88
   17:40:37.510.18-Jan-2020 3785.01 3858.33 81.94 6.00 234.62 2848.88
   17:40:37.710.18-Jan-2020 3785.01 3857.48 81.94 6.00 234.82 2848.88
   17:40:37.910.18-Jan-2020 3785.01 3858.86 81.94 6.00 235.02 2848.88
   17:40:38.110.18-Jan-2020 3785.01 3858.86 81.94 6.00 235.22 2848.88
   17:40:38.310.18-Jan-2020 3785.01 3857.42 81.94 6.00 235.42 2848.88
   17:40:38.510.18-Jan-2020 3785.01 3858.99 81.94 6.00 235.62 2848.88
   17:40:38.710.18-Jan-2020 3785.01 3858.58 81.94 6.00 235.82 2848.88
   17:40:38.910.18-Jan-2020 3785.01 3858.55 81.94 6.00 236.02 2848.88
   17:40:39.110.18-Jan-2020 3785.01 3858.55 81.94 6.00 236.22 2848.88
   17:40:39.310.18-Jan-2020 3785.01 3859.04 81.94 6.00 236.42 2848.88
   17:40:39.510.18-Jan-2020 3785.01 3858.84 81.94 6.00 236.62 2848.88
   17:40:39.710.18-Jan-2020 3785.01 3858.57 81.94 6.00 236.82 2848.88
   17:40:39.910.18-Jan-2020 3785.01 3858.41 81.94 6.00 237.02 2848.88
   17:40:40.110.18-Jan-2020 3785.01 3858.41 81.94 6.00 237.22 2848.88
   17:40:40.310.18-Jan-2020 3785.01 3858.28 81.94 6.00 237.42 2848.88
   17:40:40.510.18-Jan-2020 3785.01 3857.54 81.94 6.00 237.62 2848.88
   17:40:40.710.18-Jan-2020 3785.01 3859.05 81.94 6.00 237.82 2848.88
   17:40:40.911.18-Jan-2020 3785.01 3858.88 81.94 6.00 238.02 2848.88
   17:40:41.111.18-Jan-2020 3785.01 3858.88 81.94 6.00 238.22 2848.88
   17:40:41.311.18-Jan-2020 3785.01 3858.61 81.94 6.00 238.42 2848.88
   17:40:41.511.18-Jan-2020 3785.01 3858.48 81.94 6.00 238.62 2848.88
   17:40:41.711.18-Jan-2020 3785.01 3858.45 81.94 6.00 238.82 2848.88
   17:40:41.911.18-Jan-2020 3785.01 3858.45 81.94 6.00 239.02 2848.88
   17:40:42.111.18-Jan-2020 3785.01 3858.45 81.94 6.00 239.22 2848.88
   17:40:42.311.18-Jan-2020 3785.01 3858.46 81.94 6.00 239.42 2848.88
   17:40:42.511.18-Jan-2020 3785.01 3858.48 81.94 6.00 239.62 2848.88
   17:40:42.711.18-Jan-2020 3785.01 3858.51 81.94 6.00 239.82 2848.88
   17:40:42.911.18-Jan-2020 3785.01 3858.33 81.94 6.00 240.02 2848.88
   17:40:43.111.18-Jan-2020 3785.01 3858.33 81.94 6.00 240.22 2848.88
   17:40:43.311.18-Jan-2020 3785.01 3858.40 81.93 6.00 240.42 2848.88
   17:40:43.511.18-Jan-2020 3785.01 3858.46 81.93 6.00 240.62 2848.88
   17:40:43.711.18-Jan-2020 3785.01 3858.49 81.93 6.00 240.82 2848.88
   17:40:43.911.18-Jan-2020 3785.01 3857.91 81.93 6.00 241.02 2848.88
   17:40:44.111.18-Jan-2020 3785.01 3857.91 81.93 6.00 241.22 2848.88
   17:40:44.311.18-Jan-2020 3785.01 3858.80 81.93 6.00 241.42 2848.88
   17:40:44.511.18-Jan-2020 3785.01 3858.81 81.93 6.00 241.62 2848.88
   17:40:44.711.18-Jan-2020 3785.01 3858.45 81.93 6.00 241.82 2848.88
   17:40:44.911.18-Jan-2020 3785.01 3858.74 81.93 6.00 242.02 2848.88
   17:40:45.111.18-Jan-2020 3785.01 3858.74 81.93 6.00 242.22 2848.88
   17:40:45.311.18-Jan-2020 3785.01 3858.31 81.93 6.00 242.42 2848.88
   17:40:45.511.18-Jan-2020 3785.01 3858.45 81.93 6.00 242.62 2848.88
   17:40:45.711.18-Jan-2020 3785.01 3858.65 81.93 6.00 242.82 2848.88
   17:40:45.911.18-Jan-2020 3785.01 3858.38 81.93 6.00 243.02 2848.88
   17:40:46.111.18-Jan-2020 3785.01 3858.38 81.93 6.00 243.22 2848.88
   17:40:46.311.18-Jan-2020 3785.01 3857.50 81.93 6.00 243.42 2848.88
   17:40:46.511.18-Jan-2020 3785.01 3858.72 81.93 6.00 243.62 2848.88
   17:40:46.711.18-Jan-2020 3785.01 3858.64 81.93 6.00 243.82 2848.88
   17:40:46.911.18-Jan-2020 3785.01 3858.33 81.93 6.00 244.02 2848.88
   17:40:47.111.18-Jan-2020 3785.01 3858.33 81.93 6.00 244.22 2848.88
   17:40:47.311.18-Jan-2020 3785.01 3858.62 81.93 6.00 244.42 2848.88
   17:40:47.511.18-Jan-2020 3785.01 3858.83 81.93 6.00 244.62 2848.88
   17:40:47.711.18-Jan-2020 3785.01 3858.03 81.93 6.00 244.82 2848.88
   17:40:47.911.18-Jan-2020 3785.01 3858.42 81.93 6.00 245.02 2848.88
   17:40:48.111.18-Jan-2020 3785.01 3858.42 81.93 6.00 245.22 2848.88
   17:40:48.311.18-Jan-2020 3785.01 3858.82 81.93 6.00 245.42 2848.88
   17:40:48.511.18-Jan-2020 3785.01 3858.26 81.93 6.00 245.62 2848.88
   17:40:48.711.18-Jan-2020 3785.01 3858.70 81.93 6.00 245.82 2848.88
   17:40:48.911.18-Jan-2020 3785.01 3858.42 81.93 6.00 246.02 2848.88
   17:40:49.111.18-Jan-2020 3785.01 3858.42 81.93 6.00 246.22 2848.88
   17:40:49.311.18-Jan-2020 3785.01 3858.89 81.93 6.00 246.42 2848.88
   17:40:49.511.18-Jan-2020 3785.01 3858.86 81.93 6.00 246.62 2848.88
   17:40:49.711.18-Jan-2020 3785.01 3858.82 81.93 6.00 246.82 2848.88
   17:40:49.911.18-Jan-2020 3785.01 3858.57 81.93 6.00 247.02 2848.88
   17:40:50.111.18-Jan-2020 3785.01 3858.57 81.93 6.00 247.22 2848.88
   17:40:50.311.18-Jan-2020 3785.01 3858.32 81.92 6.00 247.42 2848.88
   17:40:50.511.18-Jan-2020 3785.01 3858.50 81.92 6.00 247.62 2848.88
   17:40:50.711.18-Jan-2020 3785.01 3858.49 81.92 6.00 247.82 2848.88
   17:40:50.911.18-Jan-2020 3785.01 3858.42 81.92 6.00 248.02 2848.88
   17:40:51.111.18-Jan-2020 3785.01 3858.42 81.92 6.00 248.22 2848.88
   17:40:51.311.18-Jan-2020 3785.01 3858.63 81.92 6.00 248.42 2848.88
   17:40:51.511.18-Jan-2020 3785.01 3858.61 81.92 6.00 248.62 2848.88
   17:40:51.711.18-Jan-2020 3785.01 3858.50 81.92 6.00 248.82 2848.88
   17:40:51.911.18-Jan-2020 3785.01 3858.32 81.92 6.00 249.02 2848.88
   17:40:52.111.18-Jan-2020 3785.01 3858.32 81.92 6.00 249.22 2848.88
   17:40:52.311.18-Jan-2020 3785.01 3858.52 81.92 6.00 249.42 2848.88
   17:40:52.511.18-Jan-2020 3785.01 3858.41 81.92 6.00 249.62 2848.88
   17:40:52.711.18-Jan-2020 3785.01 3857.39 81.92 6.00 249.82 2848.88
   17:40:52.911.18-Jan-2020 3785.01 3859.01 81.92 6.00 250.02 2848.88
   17:40:53.111.18-Jan-2020 3785.01 3859.01 81.92 6.00 250.22 2848.88
   17:40:53.311.18-Jan-2020 3785.01 3858.67 81.92 6.00 250.42 2848.88
   17:40:53.511.18-Jan-2020 3785.01 3858.73 81.92 6.00 250.62 2848.88
   17:40:53.711.18-Jan-2020 3785.01 3858.49 81.92 6.00 250.82 2848.88
   17:40:53.911.18-Jan-2020 3785.01 3858.36 81.92 6.00 251.02 2848.88
   17:40:54.111.18-Jan-2020 3785.01 3858.36 81.92 6.00 251.22 2848.88
   17:40:54.312.18-Jan-2020 3785.01 3858.59 81.92 6.00 251.42 2848.88
   17:40:54.512.18-Jan-2020 3785.01 3858.42 81.92 6.00 251.62 2848.88
   17:40:54.712.18-Jan-2020 3785.01 3858.39 81.92 6.00 251.82 2848.88
   17:40:54.912.18-Jan-2020 3785.01 3858.34 81.92 6.00 252.02 2848.88
   17:40:55.112.18-Jan-2020 3785.01 3858.34 81.92 6.00 252.22 2848.88
   17:40:55.312.18-Jan-2020 3785.01 3858.92 81.92 6.00 252.42 2848.88
   17:40:55.512.18-Jan-2020 3785.01 3858.71 81.92 6.00 252.62 2848.88
   17:40:55.712.18-Jan-2020 3785.01 3857.79 81.92 6.00 252.82 2848.88
