~Version Information
 VERS.                  2.0:   CWLS log ASCII Standard -VERSION 2.0
 WRAP.                   NO:   One line per depth step
~Well Information Block
#MNEM.UNIT     VALUE/NAME     DESCRIPTION
#---------     -----------    ---------------------------
 STRT.S             17:36:42 18-Jan-20: START TIME 17:36:42 18-Jan-20
 STOP.S             17:44:57 18-Jan-20: STOP TIME  17:44:57 18-Jan-20
 STEP.S                   0.00: STEP TIME
 NULL.                 -999.25: NULL VALUE
 DFWT.                        :  DIST FWL TEXT
 DFST.                        :  DIST FSL TEXT
 DMF .             Drill Floor:  DRILL MEAS FROM
 STIM.      09.30.00 26-Dec-19:  START TIME
 DATE.      08.00.00 20-Jan-20:  END TIME
 SPUD.               23-Nov-19:  SPUD DATE
 NREF.                    Grid:  NORTH REFERENCE
 HPTY.       Minimum Curvature:  HOLE POS TYPE
 DMOD.             Drill Model:  DRILL MOD DESC
 SVYD.                  Survey:  SURVEY DESC
 ILTD.               Lithology:  INTERP LTH DESC
 FTOP.          Formation Tops:  FORM TOPS DESC
 SON .        AZ-XX-0906192647:  JOB NUMBER
 WTYP.                Deviated:  WELL TYPE
 COMP.     BP Exploration (Caspian Sea) Ltd:  COMPANY
 BASE.              Azerbaijan:  LOGGING EQUIPMENT BASE LOCATION
 REGN.                 Eurasia:  REGION
 FLD .                     ACG:  FIELD NAME
 SRVC.              KCA Deutag:  CONTRACTOR
 MWDS.                    Baku:  MWD SHOP
 WELL.     A10 (Slot 20) - SCP:  WELL NAME
 JOBN.        AZ-XX-0906192647:  JOB TICKET NUMB
 RIG .                 Chirag1:  RIG NAME
 DCON.     Halliburton Sperry Drilling:  DIRECTNL CONTR
 UNIT.                     N/A:  LOGGING EQUIPMENT ID
 PDAT.          Mean Sea Level:  PERMANENT DATUM
 MDS .        Operator Entered:  MAG DATA SOURCE
 CTRY.              Azerbaijan:  COUNTRY NAME
 UWI .            /AZE00000090:  UNIQUE WELL IDENTIFIER
 API .            /AZE00000090:  API NUMBER
 CNTY.                        :  COUNTY
 PROV.                        :  PROVINCE
 STAT.                        :  STATE
 LOC .                        :  LOCATION
 LMF .             Drill Floor:  LOG MEASURED FROM
 TVDS.m                  36.60:  TVDSS CORRECTN
 LATI.deg                40.08:  LATITUDE
 LONG.deg                51.24:  LONGITUDE
 WHNS.m                  -7.94:  WELL HEAD N/S
 WHEW.m                   1.56:  WELL HEAD E/W
 UTMX.m              520429.26:  UTM X
 UTMY.m             4438973.87:  UTM Y
 DFWL.m                   0.00:  DISTANCE FWL
 DFSL.m                   0.00:  DISTANCE FSL
 SDEP.m                1455.00:  START DEPTH
 TDD .m                3878.01:  TOTAL DEPTH (DRILLER)
 VSDR.deg               112.75:  VERT SEC DIRECT
 GVFD.g                   1.00:  GRAVITY FIELD
 MFLD.nT              50256.00:  MAGNETIC FIELD
 MDIP.deg                59.52:  MAGNETIC DIP
 MDEC.deg                 6.43:  MAGNETIC DECL
 GRDC.deg                 0.16:  GRID CORRECTION
 AZTC.deg                 6.27:  AZM TOTAL CORR
 EPD .m                   0.00:  ELEVATION
 EGL .m                   0.00:  GROUND ELEVATION
 WDMS.m                 121.00:  WD ELEV
 APD .m                  36.60:  DEPTH ABOVE PD
 AGAP.m                  36.60:  AIR GAP
 VSEW.m                   1.56:  VERT SEC E/W
 VSNS.m                  -7.94:  VERT SEC N/S
 DEP .m                1140.01:  DEPTH
 EKB .m                  36.60:  KB ELEVATION
 EDF .m                  36.60:  DF ELEVATION
 TDL .m                1293.00:  TOTAL DEPTH (LOGGER)
 VSC .                       0:  VS TO CLOSURE
 MAGU.                 1849164:  MAGUTM CHECKSUM
~Parameter Information Block
#MNEM.UNIT       Value        Description
#---------     -----------    ---------------------------
 AV  .mps                 2.40:  Ann Velocity 
 AVMX.mps                 2.55:  Max Ann Veloc 
 AZIF.deg               134.35:  Azm, Final 
 BHAT.        Rotary Steerable:  BHA Type 
 BREV.rev               847.00:  Rev Bit Total 
 BROT.°/30m              -2.51:  Build Rotating 
 BS  .in                  8.50:  Bit Size 
 BSZ .in                  8.50:  Bit Size 
 BTPL.psig              700.00:  Bit Press Loss 
 CABU.                     Yes:  Customer Abuse 
 CGEO.          Ilgar Gurbanov:  Customer Geo 
 COMM.                     Ä_:  Run Comments 1 
 TCS .hr                140.40:  Time Ciculation Ended 
 CV  .mps                 2.27:  Crit Velocity 
 CVMX.mps                 2.45:  Max Crit Veloc 
 DD1 .         Intigam Rahimov:  Direct Drillr 1 
 DD2 .         Rasim Ibrahimov:  Direct Drillr 2 
 DDSV.                 iCruise:  DD Service 
 DEFF.%                  99.00:  % Det Eff 
 DLRX.°/30m               3.28:  Dogleg Rot Max 
 DLSO.°/30m               0.00:  Dogleg Oriented 
 DLSX.°/30m               0.00:  Dogleg Str Max 
 DRET.      23.30.00 18-Jan-20:  Drill End Time 
 DRST.      01.45.00 11-Jan-20:  Drill Start Tim 
 DTIM.hr                 94.00:  Time Drilling 
 EDEP.m                3878.01:  End Depth 
 ENG1.       Dauren Baktybayev:  Engineer 1 
 ENG2.      Natik Hasanaghayev:  Engineer 2 
 ENG3.          Rustam Safarov:  Engineer 3 
 ETIM.      08.00.00 20-Jan-20:  End Time 
 FLOI.gpm               532.00:  Flow In 
 FLON.gpm               500.00:  Flow In Min 
 FLOS.cptm                0.00:  Fluid Loss 
 FLOX.gpm               540.00:  Flow In Max 
 FTRO.       Formation Presure:  FTWD Run Obj 
 HPRE.                     Yes:  High Pressure 
 HTEM.                      No:  High Temp 
 HYDO.m                   1.80:  Hydro Offset 
 IFIN.deg                39.86:  Inc, Final 
 IMAX.deg                59.73:  Inc Max 
 IMIN.deg                39.25:  Inc Min 
 IMND.m                3816.77:  Inc Min Depth 
 IMXD.m                2596.33:  Inc Max Depth 
 JARR.                      No:  Jarring 
 LETM.      23.30.00 18-Jan-20:  Log End Time 
 LOST.hr                     0:  Lost Rig Time 
 LSTM.      01.45.00 11-Jan-20:  Log Start Time 
 MDCL.ppm             41500.00:  Mud Chlorides 
 MDES.     Inversion Oil/Synthetic:  Mud Desc 
 DFD .sg                  1.48:  Mud Density 
 MDMN.sg                  1.48:  Dens Mud Min 
 MDMX.sg                  1.48:  Dens Mud Max 
 MOIL.                      54:  Run Mud Oil % 
 MOWR.                   72:28:  Run Mud OWR 
 MSND.                       0:  Run Mud Sand % 
 MSOL.                      23:  Run Mud Solids% 
 DFV .spqt               86.00:  Mud Viscosity 
 MWOD.in                  6.75:  MWD Tool OD 
 MWSI.                      No:  Serv Intrp, MWD 
 OTIM.hr                223.40:  Time Operating 
 PCON.           Look Like New:  Pad Condition 
 PMAX.psia            32446.79:  Press Op, Max 
 PV  .cP                 49.00:  Mud PV 
 RUN .                     200:  Run Number 
 ROPA.m/hr               12.48:  ROP Avg 
 ROPN.m/hr                8.00:  ROP Min 
 ROPX.m/hr               27.00:  ROP Max 
 RPMA.rpm               121.00:  RPM Surface Avg 
 RPMN.rpm                60.00:  RPM Surface Min 
 RPMX.rpm               140.00:  RPM Surface Max 
 RRUN.                    L202:  Rig Run Number 
 RTIM.hr                  7.25:  Time Reaming 
 SAZI.deg               123.49:  Azm, Start 
 SDEP.m                2585.01:  Start Depth 
 SIDD.                      No:  Serv Intrp, DD 
 SINC.deg                59.93:  Inc, Start 
 SPPA.psig             3539.00:  SPP Avg 
 SPPN.psig             3050.00:  SPP Min 
 SPPX.psig             3950.00:  SPP Max 
 STIM.      19.00.00 10-Jan-20:  Start Time 
 SVCS.                 DD, MWD:  Services 
 SVER.                    9.20:  Sperry Version 
 TDAT.m                1293.00:  Tot Depth Attmp 
 TDDF.                      No:  Trip for DD 
 TDLG.m                1293.00:  Tot Depth Loggd 
 TFF .                      No:  Trip for Fail 
 TQAA.f-kp               16.00:  Torque Abs Avg 
 TQAN.f-kp               11.00:  Torque Abs Min 
 TQAX.f-kp               18.00:  Torque Abs Max 
 TRRT.°/30m               1.25:  Turn Rotating 
 MRT .                  EWR-M5:  Maximum Recorded Temperature 
 TTMX.degC               84.00:  Max Tool Temp 
 VS01.          AZ90514619R5C6:  Virtual Str1 SN 
 VS02.        AZ90552592N2L2C6:  Virtual Str2 SN 
 VS03.        AZ90571337Z1W1C6:  Virtual Str3 SN 
 VS04.         AZ90513690K23C6:  Virtual Str4 SN 
 VS05.           AZ90594857F11:  Virtual Str5 SN 
 VS06.                13102166:  Virtual Str6 SN 
 WBMN.klb                 7.00:  WOB Min 
 WITN.            Peter Wilson:  Customer Rep 
 WOBA.klb                 9.95:  WOB Avg 
 WOBX.klb                10.00:  WOB Max 
 YP  .lhf2               36.00:  Yield Point 
~Curve Information Block
#MNEM.UNIT                 API CODE     Curve Description
#---------               -----------    ---------------------------
 TIME.HHMMSS            00 000 000 000:  GT Time & Date
 GTDEPTH.m              00 000 000 000:  GT Depth
 GTPQH.psia             00 000 000 000:  GT HR Quartz Pressure
 GTTQ.degC              00 000 000 000:  GT Quartz Temperature
 GTTN.NONE              00 000 000 000:  GT Test Number
 GTET.sec               00 000 000 000:  GT Elapsed Test Time
 GTTVD.m                00 000 000 000:  GT True Vertical Depth
#Other Information
#
#WARRANTY: Halliburton will use its best efforts to furnish customers with 
#accurate information and interpretations that are part of, and incident to, the services 
#provided.  However, Halliburton cannot and does not warrant the accuracy 
#or correctness of such information and interpretations.  Under no circumstances should any 
#such information or interpretation be relied upon as the sole basis for any drilling, 
#completion, production, or financial decision or any procedure involving any risk to the 
#safety of any drilling venture, drilling rig or its crew or any other third party.  The 
#Customer has full responsibility for all drilling, completion and production operation.  
#Halliburton makes no representations or warranties, either expressed or 
#implied, including, but not limited to, the implied warranties of merchantability or fitness 
#for a particular purpose, with respect to the services rendered.  In no event will 
#Halliburton be liable for failure to obtain any particular results or for 
#any damages, including, but not limited to, indirect, special or consequential damages, 
#resulting from the use of any information or interpretation provided by Halliburton.
#
~A           TIME           GTDEPTH  GTPQH  GTTQ  GTTN  GTET   GTTVD  
# ...
   17:40:55.912.18-Jan-2020 3785.01 3859.12 81.92 6.00 253.02 2848.88
   17:40:56.112.18-Jan-2020 3785.01 3859.12 81.92 6.00 253.22 2848.88
   17:40:56.312.18-Jan-2020 3785.01 3858.47 81.92 6.00 253.42 2848.88
   17:40:56.512.18-Jan-2020 3785.01 3857.52 81.92 6.00 253.62 2848.88
   17:40:56.712.18-Jan-2020 3785.01 3859.03 81.92 6.00 253.82 2848.88
   17:40:56.912.18-Jan-2020 3785.01 3858.76 81.92 6.00 254.02 2848.88
   17:40:57.112.18-Jan-2020 3785.01 3858.76 81.92 6.00 254.22 2848.88
   17:40:57.312.18-Jan-2020 3785.01 3858.46 81.91 6.00 254.42 2848.88
   17:40:57.512.18-Jan-2020 3785.01 3857.58 81.91 6.00 254.62 2848.88
   17:40:57.712.18-Jan-2020 3785.01 3858.53 81.91 6.00 254.82 2848.88
   17:40:57.912.18-Jan-2020 3785.01 3859.01 81.91 6.00 255.02 2848.88
   17:40:58.112.18-Jan-2020 3785.01 3859.01 81.91 6.00 255.22 2848.88
   17:40:58.312.18-Jan-2020 3785.01 3858.51 81.91 6.00 255.42 2848.88
   17:40:58.512.18-Jan-2020 3785.01 3858.39 81.91 6.00 255.62 2848.88
   17:40:58.712.18-Jan-2020 3785.01 3858.45 81.91 6.00 255.82 2848.88
   17:40:58.912.18-Jan-2020 3785.01 3858.45 81.91 6.00 256.02 2848.88
   17:40:59.112.18-Jan-2020 3785.01 3858.45 81.91 6.00 256.22 2848.88
   17:40:59.312.18-Jan-2020 3785.01 3858.45 81.91 6.00 256.42 2848.88
   17:40:59.512.18-Jan-2020 3785.01 3858.50 81.91 6.00 256.62 2848.88
   17:40:59.712.18-Jan-2020 3785.01 3858.43 81.91 6.00 256.82 2848.88
   17:40:59.912.18-Jan-2020 3785.01 3858.56 81.91 6.00 257.02 2848.88
   17:41:00.112.18-Jan-2020 3785.01 3858.56 81.91 6.00 257.22 2848.88
   17:41:00.312.18-Jan-2020 3785.01 3858.51 81.91 6.00 257.42 2848.88
   17:41:00.512.18-Jan-2020 3785.01 3858.62 81.91 6.00 257.62 2848.88
   17:41:00.712.18-Jan-2020 3785.01 3858.37 81.91 6.00 257.82 2848.88
   17:41:00.912.18-Jan-2020 3785.01 3858.49 81.91 6.00 258.02 2848.88
   17:41:01.112.18-Jan-2020 3785.01 3858.49 81.91 6.00 258.22 2848.88
   17:41:01.312.18-Jan-2020 3785.01 3858.98 81.91 6.00 258.42 2848.88
   17:41:01.512.18-Jan-2020 3785.01 3858.91 81.91 6.00 258.62 2848.88
   17:41:01.712.18-Jan-2020 3785.01 3858.78 81.91 6.00 258.82 2848.88
   17:41:01.912.18-Jan-2020 3785.01 3858.55 81.91 6.00 259.02 2848.88
   17:41:02.112.18-Jan-2020 3785.01 3858.55 81.91 6.00 259.22 2848.88
   17:41:02.312.18-Jan-2020 3785.01 3858.57 81.91 6.00 259.42 2848.88
   17:41:02.512.18-Jan-2020 3785.01 3858.33 81.91 6.00 259.62 2848.88
   17:41:02.712.18-Jan-2020 3785.01 3858.56 81.91 6.00 259.82 2848.88
   17:41:02.912.18-Jan-2020 3785.01 3858.36 81.91 6.00 260.02 2848.88
   17:41:03.112.18-Jan-2020 3785.01 3858.36 81.91 6.00 260.22 2848.88
   17:41:03.312.18-Jan-2020 3785.01 3858.24 81.91 6.00 260.42 2848.88
   17:41:03.512.18-Jan-2020 3785.01 3857.52 81.91 6.00 260.62 2848.88
   17:41:03.712.18-Jan-2020 3785.01 3859.08 81.91 6.00 260.82 2848.88
   17:41:03.912.18-Jan-2020 3785.01 3858.85 81.91 6.00 261.02 2848.88
   17:41:04.112.18-Jan-2020 3785.01 3858.85 81.91 6.00 261.22 2848.88
   17:41:04.312.18-Jan-2020 3785.01 3859.07 81.90 6.00 261.42 2848.88
   17:41:04.512.18-Jan-2020 3785.01 3858.83 81.90 6.00 261.62 2848.88
   17:41:04.712.18-Jan-2020 3785.01 3858.73 81.90 6.00 261.82 2848.88
   17:41:04.912.18-Jan-2020 3785.01 3857.57 81.90 6.00 262.02 2848.88
   17:41:05.112.18-Jan-2020 3785.01 3857.57 81.90 6.00 262.22 2848.88
   17:41:05.312.18-Jan-2020 3785.01 3858.89 81.90 6.00 262.42 2848.88
   17:41:05.512.18-Jan-2020 3785.01 3858.59 81.90 6.00 262.62 2848.88
   17:41:05.712.18-Jan-2020 3785.01 3858.54 81.90 6.00 262.82 2848.88
   17:41:05.912.18-Jan-2020 3785.01 3858.34 81.90 6.00 263.02 2848.88
   17:41:06.112.18-Jan-2020 3785.01 3858.34 81.90 6.00 263.22 2848.88
   17:41:06.312.18-Jan-2020 3785.01 3857.65 81.90 6.00 263.42 2848.88
   17:41:06.512.18-Jan-2020 3785.01 3859.16 81.90 6.00 263.62 2848.88
   17:41:06.712.18-Jan-2020 3785.01 3858.92 81.90 6.00 263.82 2848.88
   17:41:06.912.18-Jan-2020 3785.01 3858.65 81.90 6.00 264.02 2848.88
   17:41:07.112.18-Jan-2020 3785.01 3858.65 81.90 6.00 264.22 2848.88
   17:41:07.312.18-Jan-2020 3785.01 3858.43 81.90 6.00 264.42 2848.88
   17:41:07.512.18-Jan-2020 3785.01 3858.44 81.90 6.00 264.62 2848.88
   17:41:07.712.18-Jan-2020 3785.01 3858.46 81.90 6.00 264.82 2848.88
   17:41:07.913.18-Jan-2020 3785.01 3858.54 81.90 6.00 265.02 2848.88
   17:41:08.113.18-Jan-2020 3785.01 3858.54 81.90 6.00 265.22 2848.88
   17:41:08.313.18-Jan-2020 3785.01 3858.57 81.90 6.00 265.42 2848.88
   17:41:08.513.18-Jan-2020 3785.01 3858.46 81.90 6.00 265.62 2848.88
   17:41:08.713.18-Jan-2020 3785.01 3858.50 81.90 6.00 265.82 2848.88
   17:41:08.913.18-Jan-2020 3785.01 3858.48 81.90 6.00 266.02 2848.88
   17:41:09.113.18-Jan-2020 3785.01 3858.48 81.90 6.00 266.22 2848.88
   17:41:09.313.18-Jan-2020 3785.01 3858.59 81.90 6.00 266.42 2848.88
   17:41:09.513.18-Jan-2020 3785.01 3858.52 81.90 6.00 266.62 2848.88
   17:41:09.713.18-Jan-2020 3785.01 3857.94 81.90 6.00 266.82 2848.88
   17:41:09.913.18-Jan-2020 3785.01 3858.00 81.90 6.00 267.02 2848.88
   17:41:10.113.18-Jan-2020 3785.01 3858.00 81.90 6.00 267.22 2848.88
   17:41:10.313.18-Jan-2020 3785.01 3858.72 81.90 6.00 267.42 2848.88
   17:41:10.513.18-Jan-2020 3785.01 3858.60 81.90 6.00 267.62 2848.88
   17:41:10.713.18-Jan-2020 3785.01 3858.73 81.90 6.00 267.82 2848.88
   17:41:10.913.18-Jan-2020 3785.01 3858.38 81.90 6.00 268.02 2848.88
   17:41:11.113.18-Jan-2020 3785.01 3858.38 81.90 6.00 268.22 2848.88
   17:41:11.313.18-Jan-2020 3785.01 3858.60 81.90 6.00 268.42 2848.88
   17:41:11.513.18-Jan-2020 3785.01 3858.53 81.90 6.00 268.62 2848.88
   17:41:11.713.18-Jan-2020 3785.01 3858.37 81.89 6.00 268.82 2848.88
   17:41:11.913.18-Jan-2020 3785.01 3858.40 81.89 6.00 269.02 2848.88
   17:41:12.113.18-Jan-2020 3785.01 3858.40 81.89 6.00 269.22 2848.88
   17:41:12.313.18-Jan-2020 3785.01 3858.77 81.89 6.00 269.42 2848.88
   17:41:12.513.18-Jan-2020 3785.01 3858.61 81.89 6.00 269.62 2848.88
   17:41:12.713.18-Jan-2020 3785.01 3858.49 81.89 6.00 269.82 2848.88
   17:41:12.913.18-Jan-2020 3785.01 3858.37 81.89 6.00 270.02 2848.88
   17:41:13.113.18-Jan-2020 3785.01 3858.37 81.89 6.00 270.22 2848.88
   17:41:13.313.18-Jan-2020 3785.01 3858.84 81.89 6.00 270.42 2848.88
   17:41:13.513.18-Jan-2020 3785.01 3858.03 81.89 6.00 270.62 2848.88
   17:41:13.713.18-Jan-2020 3785.01 3858.37 81.89 6.00 270.82 2848.88
   17:41:13.913.18-Jan-2020 3785.01 3858.66 81.89 6.00 271.02 2848.88
   17:41:14.113.18-Jan-2020 3785.01 3858.66 81.89 6.00 271.22 2848.88
   17:41:14.313.18-Jan-2020 3785.01 3858.51 81.89 6.00 271.42 2848.88
   17:41:14.513.18-Jan-2020 3785.01 3858.58 81.89 6.00 271.62 2848.88
   17:41:14.713.18-Jan-2020 3785.01 3858.35 81.89 6.00 271.82 2848.88
   17:41:14.913.18-Jan-2020 3785.01 3857.62 81.89 6.00 272.02 2848.88
   17:41:15.113.18-Jan-2020 3785.01 3857.62 81.89 6.00 272.22 2848.88
   17:41:15.313.18-Jan-2020 3785.01 3858.90 81.89 6.00 272.42 2848.88
   17:41:15.513.18-Jan-2020 3785.01 3858.62 81.89 6.00 272.62 2848.88
   17:41:15.713.18-Jan-2020 3785.01 3858.72 81.89 6.00 272.82 2848.88
   17:41:15.913.18-Jan-2020 3785.01 3858.64 81.89 6.00 273.02 2848.88
   17:41:16.113.18-Jan-2020 3785.01 3858.64 81.89 6.00 273.22 2848.88
   17:41:16.313.18-Jan-2020 3785.01 3858.37 81.89 6.00 273.42 2848.88
   17:41:16.513.18-Jan-2020 3785.01 3858.58 81.89 6.00 273.62 2848.88
   17:41:16.713.18-Jan-2020 3785.01 3858.57 81.89 6.00 273.82 2848.88
   17:41:16.913.18-Jan-2020 3785.01 3858.52 81.89 6.00 274.02 2848.88
   17:41:17.113.18-Jan-2020 3785.01 3858.52 81.89 6.00 274.22 2848.88
   17:41:17.313.18-Jan-2020 3785.01 3858.21 81.89 6.00 274.42 2848.88
   17:41:17.513.18-Jan-2020 3785.01 3858.48 81.89 6.00 274.62 2848.88
   17:41:17.713.18-Jan-2020 3785.01 3858.26 81.89 6.00 274.82 2848.88
   17:41:17.913.18-Jan-2020 3785.01 3858.64 81.89 6.00 275.02 2848.88
   17:41:18.113.18-Jan-2020 3785.01 3858.64 81.89 6.00 275.22 2848.88
   17:41:18.313.18-Jan-2020 3785.01 3858.55 81.89 6.00 275.42 2848.88
   17:41:18.513.18-Jan-2020 3785.01 3857.39 81.89 6.00 275.62 2848.88
   17:41:18.713.18-Jan-2020 3785.01 3859.03 81.89 6.00 275.82 2848.88
