~Version Information
 VERS.                  2.0:   CWLS log ASCII Standard -VERSION 2.0
 WRAP.                   NO:   One line per depth step
~Well Information Block
#MNEM.UNIT     VALUE/NAME     DESCRIPTION
#---------     -----------    ---------------------------
 STRT.S             13:51:43 18-Jan-20: START TIME 13:51:43 18-Jan-20
 STOP.S             13:59:59 18-Jan-20: STOP TIME  13:59:59 18-Jan-20
 STEP.S                   0.00: STEP TIME
 NULL.                 -999.25: NULL VALUE
 DFWT.                        :  DIST FWL TEXT
 DFST.                        :  DIST FSL TEXT
 DMF .             Drill Floor:  DRILL MEAS FROM
 STIM.      09.30.00 26-Dec-19:  START TIME
 DATE.      08.00.00 20-Jan-20:  END TIME
 SPUD.               23-Nov-19:  SPUD DATE
 NREF.                    Grid:  NORTH REFERENCE
 HPTY.       Minimum Curvature:  HOLE POS TYPE
 DMOD.             Drill Model:  DRILL MOD DESC
 SVYD.                  Survey:  SURVEY DESC
 ILTD.               Lithology:  INTERP LTH DESC
 FTOP.          Formation Tops:  FORM TOPS DESC
 SON .        AZ-XX-0906192647:  JOB NUMBER
 WTYP.                Deviated:  WELL TYPE
 COMP.     BP Exploration (Caspian Sea) Ltd:  COMPANY
 BASE.              Azerbaijan:  LOGGING EQUIPMENT BASE LOCATION
 REGN.                 Eurasia:  REGION
 FLD .                     ACG:  FIELD NAME
 SRVC.              KCA Deutag:  CONTRACTOR
 MWDS.                    Baku:  MWD SHOP
 WELL.     A10 (Slot 20) - SCP:  WELL NAME
 JOBN.        AZ-XX-0906192647:  JOB TICKET NUMB
 RIG .                 Chirag1:  RIG NAME
 DCON.     Halliburton Sperry Drilling:  DIRECTNL CONTR
 UNIT.                     N/A:  LOGGING EQUIPMENT ID
 PDAT.          Mean Sea Level:  PERMANENT DATUM
 MDS .        Operator Entered:  MAG DATA SOURCE
 CTRY.              Azerbaijan:  COUNTRY NAME
 UWI .            /AZE00000090:  UNIQUE WELL IDENTIFIER
 API .            /AZE00000090:  API NUMBER
 CNTY.                        :  COUNTY
 PROV.                        :  PROVINCE
 STAT.                        :  STATE
 LOC .                        :  LOCATION
 LMF .             Drill Floor:  LOG MEASURED FROM
 TVDS.m                  36.60:  TVDSS CORRECTN
 LATI.deg                40.08:  LATITUDE
 LONG.deg                51.24:  LONGITUDE
 WHNS.m                  -7.94:  WELL HEAD N/S
 WHEW.m                   1.56:  WELL HEAD E/W
 UTMX.m              520429.26:  UTM X
 UTMY.m             4438973.87:  UTM Y
 DFWL.m                   0.00:  DISTANCE FWL
 DFSL.m                   0.00:  DISTANCE FSL
 SDEP.m                1455.00:  START DEPTH
 TDD .m                3878.01:  TOTAL DEPTH (DRILLER)
 VSDR.deg               112.75:  VERT SEC DIRECT
 GVFD.g                   1.00:  GRAVITY FIELD
 MFLD.nT              50256.00:  MAGNETIC FIELD
 MDIP.deg                59.52:  MAGNETIC DIP
 MDEC.deg                 6.43:  MAGNETIC DECL
 GRDC.deg                 0.16:  GRID CORRECTION
 AZTC.deg                 6.27:  AZM TOTAL CORR
 EPD .m                   0.00:  ELEVATION
 EGL .m                   0.00:  GROUND ELEVATION
 WDMS.m                 121.00:  WD ELEV
 APD .m                  36.60:  DEPTH ABOVE PD
 AGAP.m                  36.60:  AIR GAP
 VSEW.m                   1.56:  VERT SEC E/W
 VSNS.m                  -7.94:  VERT SEC N/S
 DEP .m                1140.01:  DEPTH
 EKB .m                  36.60:  KB ELEVATION
 EDF .m                  36.60:  DF ELEVATION
 TDL .m                1293.00:  TOTAL DEPTH (LOGGER)
 VSC .                       0:  VS TO CLOSURE
 MAGU.                 1849164:  MAGUTM CHECKSUM
~Parameter Information Block
#MNEM.UNIT       Value        Description
#---------     -----------    ---------------------------
 AV  .mps                 2.40:  Ann Velocity 
 AVMX.mps                 2.55:  Max Ann Veloc 
 AZIF.deg               134.35:  Azm, Final 
 BHAT.        Rotary Steerable:  BHA Type 
 BREV.rev               847.00:  Rev Bit Total 
 BROT.°/30m              -2.51:  Build Rotating 
 BS  .in                  8.50:  Bit Size 
 BSZ .in                  8.50:  Bit Size 
 BTPL.psig              700.00:  Bit Press Loss 
 CABU.                     Yes:  Customer Abuse 
 CGEO.          Ilgar Gurbanov:  Customer Geo 
 COMM.                     üÓ~:  Run Comments 1 
 TCS .hr                140.40:  Time Ciculation Ended 
 CV  .mps                 2.27:  Crit Velocity 
 CVMX.mps                 2.45:  Max Crit Veloc 
 DD1 .         Intigam Rahimov:  Direct Drillr 1 
 DD2 .         Rasim Ibrahimov:  Direct Drillr 2 
 DDSV.                 iCruise:  DD Service 
 DEFF.%                  99.00:  % Det Eff 
 DLRX.°/30m               3.28:  Dogleg Rot Max 
 DLSO.°/30m               0.00:  Dogleg Oriented 
 DLSX.°/30m               0.00:  Dogleg Str Max 
 DRET.      23.30.00 18-Jan-20:  Drill End Time 
 DRST.      01.45.00 11-Jan-20:  Drill Start Tim 
 DTIM.hr                 94.00:  Time Drilling 
 EDEP.m                3878.01:  End Depth 
 ENG1.       Dauren Baktybayev:  Engineer 1 
 ENG2.      Natik Hasanaghayev:  Engineer 2 
 ENG3.          Rustam Safarov:  Engineer 3 
 ETIM.      08.00.00 20-Jan-20:  End Time 
 FLOI.gpm               532.00:  Flow In 
 FLON.gpm               500.00:  Flow In Min 
 FLOS.cptm                0.00:  Fluid Loss 
 FLOX.gpm               540.00:  Flow In Max 
 FTRO.       Formation Presure:  FTWD Run Obj 
 HPRE.                     Yes:  High Pressure 
 HTEM.                      No:  High Temp 
 HYDO.m                   1.80:  Hydro Offset 
 IFIN.deg                39.86:  Inc, Final 
 IMAX.deg                59.73:  Inc Max 
 IMIN.deg                39.25:  Inc Min 
 IMND.m                3816.77:  Inc Min Depth 
 IMXD.m                2596.33:  Inc Max Depth 
 JARR.                      No:  Jarring 
 LETM.      23.30.00 18-Jan-20:  Log End Time 
 LOST.hr                     0:  Lost Rig Time 
 LSTM.      01.45.00 11-Jan-20:  Log Start Time 
 MDCL.ppm             41500.00:  Mud Chlorides 
 MDES.     Inversion Oil/Synthetic:  Mud Desc 
 DFD .sg                  1.48:  Mud Density 
 MDMN.sg                  1.48:  Dens Mud Min 
 MDMX.sg                  1.48:  Dens Mud Max 
 MOIL.                      54:  Run Mud Oil % 
 MOWR.                   72:28:  Run Mud OWR 
 MSND.                       0:  Run Mud Sand % 
 MSOL.                      23:  Run Mud Solids% 
 DFV .spqt               86.00:  Mud Viscosity 
 MWOD.in                  6.75:  MWD Tool OD 
 MWSI.                      No:  Serv Intrp, MWD 
 OTIM.hr                223.40:  Time Operating 
 PCON.           Look Like New:  Pad Condition 
 PMAX.psia            32446.79:  Press Op, Max 
 PV  .cP                 49.00:  Mud PV 
 RUN .                     200:  Run Number 
 ROPA.m/hr               12.48:  ROP Avg 
 ROPN.m/hr                8.00:  ROP Min 
 ROPX.m/hr               27.00:  ROP Max 
 RPMA.rpm               121.00:  RPM Surface Avg 
 RPMN.rpm                60.00:  RPM Surface Min 
 RPMX.rpm               140.00:  RPM Surface Max 
 RRUN.                    L202:  Rig Run Number 
 RTIM.hr                  7.25:  Time Reaming 
 SAZI.deg               123.49:  Azm, Start 
 SDEP.m                2585.01:  Start Depth 
 SIDD.                      No:  Serv Intrp, DD 
 SINC.deg                59.93:  Inc, Start 
 SPPA.psig             3539.00:  SPP Avg 
 SPPN.psig             3050.00:  SPP Min 
 SPPX.psig             3950.00:  SPP Max 
 STIM.      19.00.00 10-Jan-20:  Start Time 
 SVCS.                 DD, MWD:  Services 
 SVER.                    9.20:  Sperry Version 
 TDAT.m                1293.00:  Tot Depth Attmp 
 TDDF.                      No:  Trip for DD 
 TDLG.m                1293.00:  Tot Depth Loggd 
 TFF .                      No:  Trip for Fail 
 TQAA.f-kp               16.00:  Torque Abs Avg 
 TQAN.f-kp               11.00:  Torque Abs Min 
 TQAX.f-kp               18.00:  Torque Abs Max 
 TRRT.°/30m               1.25:  Turn Rotating 
 MRT .                  EWR-M5:  Maximum Recorded Temperature 
 TTMX.degC               84.00:  Max Tool Temp 
 VS01.          AZ90514619R5C6:  Virtual Str1 SN 
 VS02.        AZ90552592N2L2C6:  Virtual Str2 SN 
 VS03.        AZ90571337Z1W1C6:  Virtual Str3 SN 
 VS04.         AZ90513690K23C6:  Virtual Str4 SN 
 VS05.           AZ90594857F11:  Virtual Str5 SN 
 VS06.                13102166:  Virtual Str6 SN 
 WBMN.klb                 7.00:  WOB Min 
 WITN.            Peter Wilson:  Customer Rep 
 WOBA.klb                 9.95:  WOB Avg 
 WOBX.klb                10.00:  WOB Max 
 YP  .lhf2               36.00:  Yield Point 
~Curve Information Block
#MNEM.UNIT                 API CODE     Curve Description
#---------               -----------    ---------------------------
 TIME.HHMMSS            00 000 000 000:  GT Time & Date
 GTDEPTH.m              00 000 000 000:  GT Depth
 GTPQH.psia             00 000 000 000:  GT HR Quartz Pressure
 GTTQ.degC              00 000 000 000:  GT Quartz Temperature
 GTTN.NONE              00 000 000 000:  GT Test Number
 GTET.sec               00 000 000 000:  GT Elapsed Test Time
 GTTVD.m                00 000 000 000:  GT True Vertical Depth
#Other Information
#
#WARRANTY: Halliburton will use its best efforts to furnish customers with 
#accurate information and interpretations that are part of, and incident to, the services 
#provided.  However, Halliburton cannot and does not warrant the accuracy 
#or correctness of such information and interpretations.  Under no circumstances should any 
#such information or interpretation be relied upon as the sole basis for any drilling, 
#completion, production, or financial decision or any procedure involving any risk to the 
#safety of any drilling venture, drilling rig or its crew or any other third party.  The 
#Customer has full responsibility for all drilling, completion and production operation.  
#Halliburton makes no representations or warranties, either expressed or 
#implied, including, but not limited to, the implied warranties of merchantability or fitness 
#for a particular purpose, with respect to the services rendered.  In no event will 
#Halliburton be liable for failure to obtain any particular results or for 
#any damages, including, but not limited to, indirect, special or consequential damages, 
#resulting from the use of any information or interpretation provided by Halliburton.
#
~A           TIME           GTDEPTH  GTPQH  GTTQ  GTTN  GTET   GTTVD  
# ...
   13:56:42.627.18-Jan-2020 3754.01 3694.99 79.49 5.00 299.10 2824.94
   13:56:42.827.18-Jan-2020 3754.01 3694.99 79.49 5.00 299.30 2824.94
   13:56:43.027.18-Jan-2020 3754.01 3695.02 79.49 5.00 299.50 2824.94
   13:56:43.227.18-Jan-2020 3754.01 3695.58 79.49 5.00 299.70 2824.94
   13:56:43.427.18-Jan-2020 3754.01 3695.17 79.49 5.00 299.90 2824.94
   13:56:43.627.18-Jan-2020 3754.01 3695.30 79.49 5.00 300.10 2824.94
   13:56:43.827.18-Jan-2020 3754.01 3695.30 79.49 5.00 300.30 2824.94
   13:56:44.027.18-Jan-2020 3754.01 3695.60 79.49 5.00 300.50 2824.94
   13:56:44.227.18-Jan-2020 3754.01 3695.28 79.49 5.00 300.70 2824.94
   13:56:44.427.18-Jan-2020 3754.01 3695.51 79.49 5.00 300.90 2824.94
   13:56:44.627.18-Jan-2020 3754.01 3695.19 79.49 5.00 301.10 2824.94
   13:56:44.827.18-Jan-2020 3754.01 3695.19 79.49 5.00 301.30 2824.94
   13:56:45.027.18-Jan-2020 3754.01 3695.39 79.49 5.00 301.50 2824.94
   13:56:45.227.18-Jan-2020 3754.01 3695.40 79.49 5.00 301.70 2824.94
   13:56:45.428.18-Jan-2020 3754.01 3695.26 79.49 5.00 301.90 2824.94
   13:56:45.628.18-Jan-2020 3754.01 3694.46 79.49 5.00 302.10 2824.94
   13:56:45.828.18-Jan-2020 3754.01 3694.46 79.49 5.00 302.30 2824.94
   13:56:46.028.18-Jan-2020 3754.01 3693.56 79.49 5.00 302.50 2824.94
   13:56:46.228.18-Jan-2020 3754.01 3696.33 79.48 5.00 302.70 2824.94
   13:56:46.428.18-Jan-2020 3754.01 3695.05 79.48 5.00 302.90 2824.94
   13:56:46.628.18-Jan-2020 3754.01 3695.39 79.48 5.00 303.10 2824.94
   13:56:46.828.18-Jan-2020 3754.01 3695.39 79.48 5.00 303.30 2824.94
   13:56:47.028.18-Jan-2020 3754.01 3695.51 79.48 5.00 303.50 2824.94
   13:56:47.228.18-Jan-2020 3754.01 3695.40 79.48 5.00 303.70 2824.94
   13:56:47.428.18-Jan-2020 3754.01 3695.31 79.48 5.00 303.90 2824.94
   13:56:47.628.18-Jan-2020 3754.01 3695.41 79.48 5.00 304.10 2824.94
   13:56:47.828.18-Jan-2020 3754.01 3695.41 79.48 5.00 304.30 2824.94
   13:56:48.028.18-Jan-2020 3754.01 3695.52 79.48 5.00 304.50 2824.94
   13:56:48.228.18-Jan-2020 3754.01 3696.97 79.48 5.00 304.70 2824.94
   13:56:48.428.18-Jan-2020 3754.01 3693.41 79.48 5.00 304.90 2824.94
   13:56:48.629.18-Jan-2020 3754.01 3696.26 79.48 5.00 305.10 2824.94
   13:56:48.829.18-Jan-2020 3754.01 3696.26 79.48 5.00 305.30 2824.94
   13:56:49.029.18-Jan-2020 3754.01 3697.35 79.48 5.00 305.50 2824.94
   13:56:49.229.18-Jan-2020 3754.01 3693.04 79.48 5.00 305.70 2824.94
   13:56:49.429.18-Jan-2020 3754.01 3696.66 79.48 5.00 305.90 2824.94
   13:56:49.629.18-Jan-2020 3754.01 3694.26 79.48 5.00 306.10 2824.94
   13:56:49.829.18-Jan-2020 3754.01 3694.26 79.48 5.00 306.30 2824.94
   13:56:50.029.18-Jan-2020 3754.01 3695.27 79.48 5.00 306.50 2824.94
   13:56:50.229.18-Jan-2020 3754.01 3697.47 79.48 5.00 306.70 2824.94
   13:56:50.429.18-Jan-2020 3754.01 3692.53 79.48 5.00 306.90 2824.94
   13:56:50.629.18-Jan-2020 3754.01 3696.52 79.48 5.00 307.10 2824.94
   13:56:50.829.18-Jan-2020 3754.01 3696.52 79.48 5.00 307.30 2824.94
   13:56:51.029.18-Jan-2020 3754.01 3695.47 79.48 5.00 307.50 2824.94
   13:56:51.229.18-Jan-2020 3754.01 3694.06 79.48 5.00 307.70 2824.94
   13:56:51.429.18-Jan-2020 3754.01 3695.99 79.48 5.00 307.90 2824.94
   13:56:51.630.18-Jan-2020 3754.01 3694.80 79.48 5.00 308.10 2824.94
   13:56:51.830.18-Jan-2020 3754.01 3694.80 79.48 5.00 308.30 2824.94
   13:56:52.030.18-Jan-2020 3754.01 3695.19 79.48 5.00 308.50 2824.94
   13:56:52.230.18-Jan-2020 3754.01 3695.35 79.48 5.00 308.70 2824.94
   13:56:52.430.18-Jan-2020 3754.01 3695.20 79.48 5.00 308.90 2824.94
   13:56:52.630.18-Jan-2020 3754.01 3695.33 79.48 5.00 309.10 2824.94
   13:56:52.830.18-Jan-2020 3754.01 3695.33 79.48 5.00 309.30 2824.94
   13:56:53.030.18-Jan-2020 3754.01 3695.45 79.48 5.00 309.50 2824.94
   13:56:53.230.18-Jan-2020 3754.01 3695.24 79.48 5.00 309.70 2824.94
   13:56:53.430.18-Jan-2020 3754.01 3695.32 79.48 5.00 309.90 2824.94
   13:56:53.630.18-Jan-2020 3754.01 3695.57 79.48 5.00 310.10 2824.94
   13:56:53.830.18-Jan-2020 3754.01 3695.57 79.48 5.00 310.30 2824.94
   13:56:54.030.18-Jan-2020 3754.01 3695.35 79.48 5.00 310.50 2824.94
   13:56:54.230.18-Jan-2020 3754.01 3694.44 79.48 5.00 310.70 2824.94
   13:56:54.430.18-Jan-2020 3754.01 3697.73 79.48 5.00 310.90 2824.94
   13:56:54.630.18-Jan-2020 3754.01 3693.77 79.48 5.00 311.10 2824.94
   13:56:54.831.18-Jan-2020 3754.01 3693.77 79.48 5.00 311.30 2824.94
   13:56:55.031.18-Jan-2020 3754.01 3694.91 79.48 5.00 311.50 2824.94
   13:56:55.231.18-Jan-2020 3754.01 3695.61 79.48 5.00 311.70 2824.94
   13:56:55.431.18-Jan-2020 3754.01 3695.15 79.48 5.00 311.90 2824.94
   13:56:55.631.18-Jan-2020 3754.01 3695.26 79.48 5.00 312.10 2824.94
   13:56:55.831.18-Jan-2020 3754.01 3695.26 79.48 5.00 312.30 2824.94
   13:56:56.031.18-Jan-2020 3754.01 3695.39 79.48 5.00 312.50 2824.94
   13:56:56.231.18-Jan-2020 3754.01 3695.41 79.48 5.00 312.70 2824.94
   13:56:56.431.18-Jan-2020 3754.01 3677.14 79.48 5.00 312.90 2824.94
   13:56:56.631.18-Jan-2020 3754.01 3622.36 79.48 5.00 313.10 2824.94
   13:56:56.831.18-Jan-2020 3754.01 3622.36 79.48 5.00 313.30 2824.94
   13:56:57.031.18-Jan-2020 3754.01 3608.70 79.48 5.00 313.50 2824.94
   13:56:57.231.18-Jan-2020 3754.01 3610.75 79.48 5.00 313.70 2824.94
   13:56:57.431.18-Jan-2020 3754.01 3609.37 79.48 5.00 313.90 2824.94
   13:56:57.631.18-Jan-2020 3754.01 3607.75 79.48 5.00 314.10 2824.94
   13:56:57.832.18-Jan-2020 3754.01 3607.75 79.48 5.00 314.30 2824.94
   13:56:58.032.18-Jan-2020 3754.01 3607.73 79.48 5.00 314.50 2824.94
   13:56:58.232.18-Jan-2020 3754.01 3609.86 79.48 5.00 314.70 2824.94
   13:56:58.432.18-Jan-2020 3754.01 3607.00 79.48 5.00 314.90 2824.94
   13:56:58.632.18-Jan-2020 3754.01 3605.23 79.48 5.00 315.10 2824.94
   13:56:58.832.18-Jan-2020 3754.01 3605.23 79.48 5.00 315.30 2824.94
   13:56:59.032.18-Jan-2020 3754.01 3605.32 79.48 5.00 315.50 2824.94
   13:56:59.232.18-Jan-2020 3754.01 3609.70 79.48 5.00 315.70 2824.94
   13:56:59.432.18-Jan-2020 3754.01 3605.73 79.48 5.00 315.90 2824.94
   13:56:59.632.18-Jan-2020 3754.01 3607.07 79.48 5.00 316.10 2824.94
   13:56:59.832.18-Jan-2020 3754.01 3607.07 79.48 5.00 316.30 2824.94
   13:57:00.032.18-Jan-2020 3754.01 3606.84 79.48 5.00 316.50 2824.94
   13:57:00.232.18-Jan-2020 3754.01 3606.40 79.48 5.00 316.70 2824.94
   13:57:00.432.18-Jan-2020 3754.01 3607.40 79.48 5.00 316.90 2824.94
   13:57:00.632.18-Jan-2020 3754.01 3604.48 79.48 5.00 317.10 2824.94
   13:57:00.832.18-Jan-2020 3754.01 3604.48 79.48 5.00 317.30 2824.94
   13:57:01.033.18-Jan-2020 3754.01 3605.49 79.48 5.00 317.50 2824.94
   13:57:01.233.18-Jan-2020 3754.01 3605.25 79.48 5.00 317.70 2824.94
   13:57:01.433.18-Jan-2020 3754.01 3607.49 79.48 5.00 317.90 2824.94
   13:57:01.633.18-Jan-2020 3754.01 3606.77 79.48 5.00 318.10 2824.94
   13:57:01.833.18-Jan-2020 3754.01 3606.77 79.48 5.00 318.30 2824.94
   13:57:02.033.18-Jan-2020 3754.01 3612.50 79.48 5.00 318.50 2824.94
   13:57:02.233.18-Jan-2020 3754.01 3609.59 79.48 5.00 318.70 2824.94
   13:57:02.433.18-Jan-2020 3754.01 3606.11 79.48 5.00 318.90 2824.94
   13:57:02.633.18-Jan-2020 3754.01 3606.27 79.48 5.00 319.10 2824.94
   13:57:02.833.18-Jan-2020 3754.01 3606.27 79.48 5.00 319.30 2824.94
   13:57:03.033.18-Jan-2020 3754.01 3606.15 79.48 5.00 319.50 2824.94
   13:57:03.233.18-Jan-2020 3754.01 3602.99 79.48 5.00 319.70 2824.94
   13:57:03.433.18-Jan-2020 3754.01 3608.43 79.48 5.00 319.90 2824.94
   13:57:03.633.18-Jan-2020 3754.01 3606.13 79.48 5.00 320.10 2824.94
   13:57:03.833.18-Jan-2020 3754.01 3606.13 79.48 5.00 320.30 2824.94
   13:57:04.034.18-Jan-2020 3754.01 3606.11 79.48 5.00 320.50 2824.94
   13:57:04.234.18-Jan-2020 3754.01 3607.16 79.48 5.00 320.70 2824.94
   13:57:04.434.18-Jan-2020 3754.01 3606.73 79.48 5.00 320.90 2824.94
   13:57:04.634.18-Jan-2020 3754.01 3604.90 79.48 5.00 321.10 2824.94
   13:57:04.834.18-Jan-2020 3754.01 3604.90 79.48 5.00 321.30 2824.94
   13:57:05.034.18-Jan-2020 3754.01 3605.38 79.48 5.00 321.50 2824.94
   13:57:05.234.18-Jan-2020 3754.01 3605.95 79.48 5.00 321.70 2824.94
   13:57:05.434.18-Jan-2020 3754.01 3607.13 79.48 5.00 321.90 2824.94
