~Version Information
 VERS.                  2.0:   CWLS log ASCII Standard -VERSION 2.0
 WRAP.                   NO:   One line per depth step
~Well Information Block
#MNEM.UNIT     VALUE/NAME     DESCRIPTION
#---------     -----------    ---------------------------
 STRT.S             13:31:21 18-Jan-20: START TIME 13:31:21 18-Jan-20
 STOP.S             13:39:29 18-Jan-20: STOP TIME  13:39:29 18-Jan-20
 STEP.S                   0.00: STEP TIME
 NULL.                 -999.25: NULL VALUE
 DFWT.                        :  DIST FWL TEXT
 DFST.                        :  DIST FSL TEXT
 DMF .             Drill Floor:  DRILL MEAS FROM
 STIM.      09.30.00 26-Dec-19:  START TIME
 DATE.      08.00.00 20-Jan-20:  END TIME
 SPUD.               23-Nov-19:  SPUD DATE
 NREF.                    Grid:  NORTH REFERENCE
 HPTY.       Minimum Curvature:  HOLE POS TYPE
 DMOD.             Drill Model:  DRILL MOD DESC
 SVYD.                  Survey:  SURVEY DESC
 ILTD.               Lithology:  INTERP LTH DESC
 FTOP.          Formation Tops:  FORM TOPS DESC
 SON .        AZ-XX-0906192647:  JOB NUMBER
 WTYP.                Deviated:  WELL TYPE
 COMP.     BP Exploration (Caspian Sea) Ltd:  COMPANY
 BASE.              Azerbaijan:  LOGGING EQUIPMENT BASE LOCATION
 REGN.                 Eurasia:  REGION
 FLD .                     ACG:  FIELD NAME
 SRVC.              KCA Deutag:  CONTRACTOR
 MWDS.                    Baku:  MWD SHOP
 WELL.     A10 (Slot 20) - SCP:  WELL NAME
 JOBN.        AZ-XX-0906192647:  JOB TICKET NUMB
 RIG .                 Chirag1:  RIG NAME
 DCON.     Halliburton Sperry Drilling:  DIRECTNL CONTR
 UNIT.                     N/A:  LOGGING EQUIPMENT ID
 PDAT.          Mean Sea Level:  PERMANENT DATUM
 MDS .        Operator Entered:  MAG DATA SOURCE
 CTRY.              Azerbaijan:  COUNTRY NAME
 UWI .            /AZE00000090:  UNIQUE WELL IDENTIFIER
 API .            /AZE00000090:  API NUMBER
 CNTY.                        :  COUNTY
 PROV.                        :  PROVINCE
 STAT.                        :  STATE
 LOC .                        :  LOCATION
 LMF .             Drill Floor:  LOG MEASURED FROM
 TVDS.m                  36.60:  TVDSS CORRECTN
 LATI.deg                40.08:  LATITUDE
 LONG.deg                51.24:  LONGITUDE
 WHNS.m                  -7.94:  WELL HEAD N/S
 WHEW.m                   1.56:  WELL HEAD E/W
 UTMX.m              520429.26:  UTM X
 UTMY.m             4438973.87:  UTM Y
 DFWL.m                   0.00:  DISTANCE FWL
 DFSL.m                   0.00:  DISTANCE FSL
 SDEP.m                1455.00:  START DEPTH
 TDD .m                3878.01:  TOTAL DEPTH (DRILLER)
 VSDR.deg               112.75:  VERT SEC DIRECT
 GVFD.g                   1.00:  GRAVITY FIELD
 MFLD.nT              50256.00:  MAGNETIC FIELD
 MDIP.deg                59.52:  MAGNETIC DIP
 MDEC.deg                 6.43:  MAGNETIC DECL
 GRDC.deg                 0.16:  GRID CORRECTION
 AZTC.deg                 6.27:  AZM TOTAL CORR
 EPD .m                   0.00:  ELEVATION
 EGL .m                   0.00:  GROUND ELEVATION
 WDMS.m                 121.00:  WD ELEV
 APD .m                  36.60:  DEPTH ABOVE PD
 AGAP.m                  36.60:  AIR GAP
 VSEW.m                   1.56:  VERT SEC E/W
 VSNS.m                  -7.94:  VERT SEC N/S
 DEP .m                1140.01:  DEPTH
 EKB .m                  36.60:  KB ELEVATION
 EDF .m                  36.60:  DF ELEVATION
 TDL .m                1293.00:  TOTAL DEPTH (LOGGER)
 VSC .                       0:  VS TO CLOSURE
 MAGU.                 1849164:  MAGUTM CHECKSUM
~Parameter Information Block
#MNEM.UNIT       Value        Description
#---------     -----------    ---------------------------
 AV  .mps                 2.40:  Ann Velocity 
 AVMX.mps                 2.55:  Max Ann Veloc 
 AZIF.deg               134.35:  Azm, Final 
 BHAT.        Rotary Steerable:  BHA Type 
 BREV.rev               847.00:  Rev Bit Total 
 BROT.°/30m              -2.51:  Build Rotating 
 BS  .in                  8.50:  Bit Size 
 BSZ .in                  8.50:  Bit Size 
 BTPL.psig              700.00:  Bit Press Loss 
 CABU.                     Yes:  Customer Abuse 
 CGEO.          Ilgar Gurbanov:  Customer Geo 
 COMM.                     ¸P:  Run Comments 1 
 TCS .hr                140.40:  Time Ciculation Ended 
 CV  .mps                 2.27:  Crit Velocity 
 CVMX.mps                 2.45:  Max Crit Veloc 
 DD1 .         Intigam Rahimov:  Direct Drillr 1 
 DD2 .         Rasim Ibrahimov:  Direct Drillr 2 
 DDSV.                 iCruise:  DD Service 
 DEFF.%                  99.00:  % Det Eff 
 DLRX.°/30m               3.28:  Dogleg Rot Max 
 DLSO.°/30m               0.00:  Dogleg Oriented 
 DLSX.°/30m               0.00:  Dogleg Str Max 
 DRET.      23.30.00 18-Jan-20:  Drill End Time 
 DRST.      01.45.00 11-Jan-20:  Drill Start Tim 
 DTIM.hr                 94.00:  Time Drilling 
 EDEP.m                3878.01:  End Depth 
 ENG1.       Dauren Baktybayev:  Engineer 1 
 ENG2.      Natik Hasanaghayev:  Engineer 2 
 ENG3.          Rustam Safarov:  Engineer 3 
 ETIM.      08.00.00 20-Jan-20:  End Time 
 FLOI.gpm               532.00:  Flow In 
 FLON.gpm               500.00:  Flow In Min 
 FLOS.cptm                0.00:  Fluid Loss 
 FLOX.gpm               540.00:  Flow In Max 
 FTRO.       Formation Presure:  FTWD Run Obj 
 HPRE.                     Yes:  High Pressure 
 HTEM.                      No:  High Temp 
 HYDO.m                   1.80:  Hydro Offset 
 IFIN.deg                39.86:  Inc, Final 
 IMAX.deg                59.73:  Inc Max 
 IMIN.deg                39.25:  Inc Min 
 IMND.m                3816.77:  Inc Min Depth 
 IMXD.m                2596.33:  Inc Max Depth 
 JARR.                      No:  Jarring 
 LETM.      23.30.00 18-Jan-20:  Log End Time 
 LOST.hr                     0:  Lost Rig Time 
 LSTM.      01.45.00 11-Jan-20:  Log Start Time 
 MDCL.ppm             41500.00:  Mud Chlorides 
 MDES.     Inversion Oil/Synthetic:  Mud Desc 
 DFD .sg                  1.48:  Mud Density 
 MDMN.sg                  1.48:  Dens Mud Min 
 MDMX.sg                  1.48:  Dens Mud Max 
 MOIL.                      54:  Run Mud Oil % 
 MOWR.                   72:28:  Run Mud OWR 
 MSND.                       0:  Run Mud Sand % 
 MSOL.                      23:  Run Mud Solids% 
 DFV .spqt               86.00:  Mud Viscosity 
 MWOD.in                  6.75:  MWD Tool OD 
 MWSI.                      No:  Serv Intrp, MWD 
 OTIM.hr                223.40:  Time Operating 
 PCON.           Look Like New:  Pad Condition 
 PMAX.psia            32446.79:  Press Op, Max 
 PV  .cP                 49.00:  Mud PV 
 RUN .                     200:  Run Number 
 ROPA.m/hr               12.48:  ROP Avg 
 ROPN.m/hr                8.00:  ROP Min 
 ROPX.m/hr               27.00:  ROP Max 
 RPMA.rpm               121.00:  RPM Surface Avg 
 RPMN.rpm                60.00:  RPM Surface Min 
 RPMX.rpm               140.00:  RPM Surface Max 
 RRUN.                    L202:  Rig Run Number 
 RTIM.hr                  7.25:  Time Reaming 
 SAZI.deg               123.49:  Azm, Start 
 SDEP.m                2585.01:  Start Depth 
 SIDD.                      No:  Serv Intrp, DD 
 SINC.deg                59.93:  Inc, Start 
 SPPA.psig             3539.00:  SPP Avg 
 SPPN.psig             3050.00:  SPP Min 
 SPPX.psig             3950.00:  SPP Max 
 STIM.      19.00.00 10-Jan-20:  Start Time 
 SVCS.                 DD, MWD:  Services 
 SVER.                    9.20:  Sperry Version 
 TDAT.m                1293.00:  Tot Depth Attmp 
 TDDF.                      No:  Trip for DD 
 TDLG.m                1293.00:  Tot Depth Loggd 
 TFF .                      No:  Trip for Fail 
 TQAA.f-kp               16.00:  Torque Abs Avg 
 TQAN.f-kp               11.00:  Torque Abs Min 
 TQAX.f-kp               18.00:  Torque Abs Max 
 TRRT.°/30m               1.25:  Turn Rotating 
 MRT .                  EWR-M5:  Maximum Recorded Temperature 
 TTMX.degC               84.00:  Max Tool Temp 
 VS01.          AZ90514619R5C6:  Virtual Str1 SN 
 VS02.        AZ90552592N2L2C6:  Virtual Str2 SN 
 VS03.        AZ90571337Z1W1C6:  Virtual Str3 SN 
 VS04.         AZ90513690K23C6:  Virtual Str4 SN 
 VS05.           AZ90594857F11:  Virtual Str5 SN 
 VS06.                13102166:  Virtual Str6 SN 
 WBMN.klb                 7.00:  WOB Min 
 WITN.            Peter Wilson:  Customer Rep 
 WOBA.klb                 9.95:  WOB Avg 
 WOBX.klb                10.00:  WOB Max 
 YP  .lhf2               36.00:  Yield Point 
~Curve Information Block
#MNEM.UNIT                 API CODE     Curve Description
#---------               -----------    ---------------------------
 TIME.HHMMSS            00 000 000 000:  GT Time & Date
 GTDEPTH.m              00 000 000 000:  GT Depth
 GTPQH.psia             00 000 000 000:  GT HR Quartz Pressure
 GTTQ.degC              00 000 000 000:  GT Quartz Temperature
 GTTN.NONE              00 000 000 000:  GT Test Number
 GTET.sec               00 000 000 000:  GT Elapsed Test Time
 GTTVD.m                00 000 000 000:  GT True Vertical Depth
#Other Information
#
#WARRANTY: Halliburton will use its best efforts to furnish customers with 
#accurate information and interpretations that are part of, and incident to, the services 
#provided.  However, Halliburton cannot and does not warrant the accuracy 
#or correctness of such information and interpretations.  Under no circumstances should any 
#such information or interpretation be relied upon as the sole basis for any drilling, 
#completion, production, or financial decision or any procedure involving any risk to the 
#safety of any drilling venture, drilling rig or its crew or any other third party.  The 
#Customer has full responsibility for all drilling, completion and production operation.  
#Halliburton makes no representations or warranties, either expressed or 
#implied, including, but not limited to, the implied warranties of merchantability or fitness 
#for a particular purpose, with respect to the services rendered.  In no event will 
#Halliburton be liable for failure to obtain any particular results or for 
#any damages, including, but not limited to, indirect, special or consequential damages, 
#resulting from the use of any information or interpretation provided by Halliburton.
#
~A           TIME           GTDEPTH  GTPQH  GTTQ  GTTN  GTET   GTTVD  
# ...
   13:34:48.202.18-Jan-2020 3754.51  436.78 81.02 4.00 207.07 2825.33
   13:34:48.402.18-Jan-2020 3754.51  436.78 81.02 4.00 207.27 2825.33
   13:34:48.602.18-Jan-2020 3754.51  436.86 81.02 4.00 207.47 2825.33
   13:34:48.802.18-Jan-2020 3754.51  436.72 81.02 4.00 207.67 2825.33
   13:34:49.002.18-Jan-2020 3754.51  436.56 81.02 4.00 207.87 2825.33
   13:34:49.202.18-Jan-2020 3754.51  436.46 81.02 4.00 208.07 2825.33
   13:34:49.402.18-Jan-2020 3754.51  436.46 81.02 4.00 208.27 2825.33
   13:34:49.602.18-Jan-2020 3754.51  436.52 81.02 4.00 208.47 2825.33
   13:34:49.802.18-Jan-2020 3754.51  436.37 81.02 4.00 208.67 2825.33
   13:34:50.002.18-Jan-2020 3754.51  436.39 81.02 4.00 208.87 2825.33
   13:34:50.202.18-Jan-2020 3754.51  436.27 81.02 4.00 209.07 2825.33
   13:34:50.402.18-Jan-2020 3754.51  436.27 81.02 4.00 209.27 2825.33
   13:34:50.602.18-Jan-2020 3754.51  436.21 81.02 4.00 209.47 2825.33
   13:34:50.802.18-Jan-2020 3754.51  434.91 81.02 4.00 209.67 2825.33
   13:34:51.003.18-Jan-2020 3754.51  436.80 81.02 4.00 209.87 2825.33
   13:34:51.203.18-Jan-2020 3754.51  437.35 81.02 4.00 210.07 2825.33
   13:34:51.403.18-Jan-2020 3754.51  437.35 81.02 4.00 210.27 2825.33
   13:34:51.603.18-Jan-2020 3754.51  438.14 81.02 4.00 210.47 2825.33
   13:34:51.803.18-Jan-2020 3754.51  438.35 81.02 4.00 210.67 2825.33
   13:34:52.003.18-Jan-2020 3754.51  438.16 81.02 4.00 210.87 2825.33
   13:34:52.203.18-Jan-2020 3754.51  438.13 81.02 4.00 211.07 2825.33
   13:34:52.403.18-Jan-2020 3754.51  438.13 81.02 4.00 211.27 2825.33
   13:34:52.603.18-Jan-2020 3754.51  438.00 81.01 4.00 211.47 2825.33
   13:34:52.803.18-Jan-2020 3754.51  438.01 81.01 4.00 211.67 2825.33
   13:34:53.003.18-Jan-2020 3754.51  437.52 81.01 4.00 211.87 2825.33
   13:34:53.203.18-Jan-2020 3754.51  437.22 81.01 4.00 212.07 2825.33
   13:34:53.403.18-Jan-2020 3754.51  437.22 81.01 4.00 212.27 2825.33
   13:34:53.603.18-Jan-2020 3754.51  440.08 81.01 4.00 212.47 2825.33
   13:34:53.803.18-Jan-2020 3754.51  439.92 81.01 4.00 212.67 2825.33
   13:34:54.004.18-Jan-2020 3754.51  439.96 81.01 4.00 212.87 2825.33
   13:34:54.204.18-Jan-2020 3754.51  439.60 81.01 4.00 213.07 2825.33
   13:34:54.404.18-Jan-2020 3754.51  439.60 81.01 4.00 213.27 2825.33
   13:34:54.604.18-Jan-2020 3754.51  441.22 81.01 4.00 213.47 2825.33
   13:34:54.804.18-Jan-2020 3754.51  441.66 81.01 4.00 213.67 2825.33
   13:34:55.004.18-Jan-2020 3754.51  441.12 81.01 4.00 213.87 2825.33
   13:34:55.204.18-Jan-2020 3754.51  441.15 81.01 4.00 214.07 2825.33
   13:34:55.404.18-Jan-2020 3754.51  441.15 81.01 4.00 214.27 2825.33
   13:34:55.604.18-Jan-2020 3754.51  443.58 81.01 4.00 214.47 2825.33
   13:34:55.804.18-Jan-2020 3754.51  443.43 81.01 4.00 214.67 2825.33
   13:34:56.004.18-Jan-2020 3754.51  443.30 81.01 4.00 214.87 2825.33
   13:34:56.204.18-Jan-2020 3754.51  443.22 81.01 4.00 215.07 2825.33
   13:34:56.404.18-Jan-2020 3754.51  443.22 81.01 4.00 215.27 2825.33
   13:34:56.604.18-Jan-2020 3754.51  444.69 81.01 4.00 215.47 2825.33
   13:34:56.804.18-Jan-2020 3754.51  444.81 81.01 4.00 215.67 2825.33
   13:34:57.004.18-Jan-2020 3754.51  445.02 81.01 4.00 215.87 2825.33
   13:34:57.205.18-Jan-2020 3754.51  445.03 81.01 4.00 216.07 2825.33
   13:34:57.405.18-Jan-2020 3754.51  445.03 81.01 4.00 216.27 2825.33
   13:34:57.605.18-Jan-2020 3754.51  445.06 81.01 4.00 216.47 2825.33
   13:34:57.805.18-Jan-2020 3754.51  445.00 81.01 4.00 216.67 2825.33
   13:34:58.005.18-Jan-2020 3754.51  444.97 81.01 4.00 216.87 2825.33
   13:34:58.205.18-Jan-2020 3754.51  444.84 81.00 4.00 217.07 2825.33
   13:34:58.405.18-Jan-2020 3754.51  444.84 81.00 4.00 217.27 2825.33
   13:34:58.605.18-Jan-2020 3754.51  444.73 81.00 4.00 217.47 2825.33
   13:34:58.805.18-Jan-2020 3754.51  444.75 81.00 4.00 217.67 2825.33
   13:34:59.005.18-Jan-2020 3754.51  444.61 81.00 4.00 217.87 2825.33
   13:34:59.205.18-Jan-2020 3754.51  444.65 81.00 4.00 218.07 2825.33
   13:34:59.405.18-Jan-2020 3754.51  444.65 81.00 4.00 218.27 2825.33
   13:34:59.605.18-Jan-2020 3754.51  444.58 81.00 4.00 218.47 2825.33
   13:34:59.805.18-Jan-2020 3754.51  442.66 81.00 4.00 218.67 2825.33
   13:35:00.005.18-Jan-2020 3754.51  445.69 81.00 4.00 218.87 2825.33
   13:35:00.206.18-Jan-2020 3754.51  445.94 81.00 4.00 219.07 2825.33
   13:35:00.406.18-Jan-2020 3754.51  445.94 81.00 4.00 219.27 2825.33
   13:35:00.606.18-Jan-2020 3754.51  446.00 81.00 4.00 219.47 2825.33
   13:35:00.806.18-Jan-2020 3754.51  446.02 81.00 4.00 219.67 2825.33
   13:35:01.006.18-Jan-2020 3754.51  446.16 81.00 4.00 219.87 2825.33
   13:35:01.206.18-Jan-2020 3754.51  445.85 81.00 4.00 220.07 2825.33
   13:35:01.406.18-Jan-2020 3754.51  445.85 81.00 4.00 220.27 2825.33
   13:35:01.606.18-Jan-2020 3754.51  445.87 81.00 4.00 220.47 2825.33
   13:35:01.806.18-Jan-2020 3754.51  445.87 81.00 4.00 220.67 2825.33
   13:35:02.006.18-Jan-2020 3754.51  444.49 81.00 4.00 220.87 2825.33
   13:35:02.206.18-Jan-2020 3754.51  446.43 81.00 4.00 221.07 2825.33
   13:35:02.406.18-Jan-2020 3754.51  446.43 81.00 4.00 221.27 2825.33
   13:35:02.606.18-Jan-2020 3754.51  447.32 81.00 4.00 221.47 2825.33
   13:35:02.806.18-Jan-2020 3754.51  447.41 81.00 4.00 221.67 2825.33
   13:35:03.006.18-Jan-2020 3754.51  447.37 81.00 4.00 221.87 2825.33
   13:35:03.206.18-Jan-2020 3754.51  446.59 81.00 4.00 222.07 2825.33
   13:35:03.407.18-Jan-2020 3754.51  446.59 81.00 4.00 222.27 2825.33
   13:35:03.607.18-Jan-2020 3754.51  448.15 81.00 4.00 222.47 2825.33
   13:35:03.807.18-Jan-2020 3754.51  449.12 80.99 4.00 222.67 2825.33
   13:35:04.007.18-Jan-2020 3754.51  449.04 80.99 4.00 222.87 2825.33
   13:35:04.207.18-Jan-2020 3754.51  447.10 80.99 4.00 223.07 2825.33
   13:35:04.407.18-Jan-2020 3754.51  447.10 80.99 4.00 223.27 2825.33
   13:35:04.607.18-Jan-2020 3754.51  449.17 80.99 4.00 223.47 2825.33
   13:35:04.807.18-Jan-2020 3754.51  449.15 80.99 4.00 223.67 2825.33
   13:35:05.007.18-Jan-2020 3754.51  449.08 80.99 4.00 223.87 2825.33
   13:35:05.207.18-Jan-2020 3754.51  448.53 80.99 4.00 224.07 2825.33
   13:35:05.407.18-Jan-2020 3754.51  448.53 80.99 4.00 224.27 2825.33
   13:35:05.607.18-Jan-2020 3754.51  449.46 80.99 4.00 224.47 2825.33
   13:35:05.807.18-Jan-2020 3754.51  450.28 80.99 4.00 224.67 2825.33
   13:35:06.007.18-Jan-2020 3754.51  450.08 80.99 4.00 224.87 2825.33
   13:35:06.207.18-Jan-2020 3754.51  450.01 80.99 4.00 225.07 2825.33
   13:35:06.408.18-Jan-2020 3754.51  450.01 80.99 4.00 225.27 2825.33
   13:35:06.608.18-Jan-2020 3754.51  449.63 80.99 4.00 225.47 2825.33
   13:35:06.808.18-Jan-2020 3754.51  449.69 80.99 4.00 225.67 2825.33
   13:35:07.008.18-Jan-2020 3754.51  449.71 80.99 4.00 225.87 2825.33
   13:35:07.208.18-Jan-2020 3754.51  449.63 80.99 4.00 226.07 2825.33
   13:35:07.408.18-Jan-2020 3754.51  449.63 80.99 4.00 226.27 2825.33
   13:35:07.608.18-Jan-2020 3754.51  449.39 80.99 4.00 226.47 2825.33
   13:35:07.808.18-Jan-2020 3754.51  449.35 80.99 4.00 226.67 2825.33
   13:35:08.008.18-Jan-2020 3754.51  449.28 80.99 4.00 226.87 2825.33
   13:35:08.208.18-Jan-2020 3754.51  449.31 80.99 4.00 227.07 2825.33
   13:35:08.408.18-Jan-2020 3754.51  449.31 80.99 4.00 227.27 2825.33
   13:35:08.608.18-Jan-2020 3754.51  448.61 80.99 4.00 227.47 2825.33
   13:35:08.808.18-Jan-2020 3754.51  448.50 80.99 4.00 227.67 2825.33
   13:35:09.008.18-Jan-2020 3754.51  449.86 80.99 4.00 227.87 2825.33
   13:35:09.208.18-Jan-2020 3754.51  450.91 80.99 4.00 228.07 2825.33
   13:35:09.408.18-Jan-2020 3754.51  450.91 80.99 4.00 228.27 2825.33
   13:35:09.609.18-Jan-2020 3754.51  450.58 80.98 4.00 228.47 2825.33
   13:35:09.809.18-Jan-2020 3754.51  450.30 80.98 4.00 228.67 2825.33
   13:35:10.009.18-Jan-2020 3754.51  450.34 80.98 4.00 228.87 2825.33
   13:35:10.209.18-Jan-2020 3754.51  450.24 80.98 4.00 229.07 2825.33
   13:35:10.409.18-Jan-2020 3754.51  450.24 80.98 4.00 229.27 2825.33
   13:35:10.609.18-Jan-2020 3754.51  450.25 80.98 4.00 229.47 2825.33
   13:35:10.809.18-Jan-2020 3754.51  450.17 80.98 4.00 229.67 2825.33
   13:35:11.009.18-Jan-2020 3754.51  448.44 80.98 4.00 229.87 2825.33
