~Version Information
 VERS.                  2.0:   CWLS log ASCII Standard -VERSION 2.0
 WRAP.                   NO:   One line per depth step
~Well Information Block
#MNEM.UNIT     VALUE/NAME     DESCRIPTION
#---------     -----------    ---------------------------
 STRT.S             13:51:43 18-Jan-20: START TIME 13:51:43 18-Jan-20
 STOP.S             13:59:59 18-Jan-20: STOP TIME  13:59:59 18-Jan-20
 STEP.S                   0.00: STEP TIME
 NULL.                 -999.25: NULL VALUE
 DFWT.                        :  DIST FWL TEXT
 DFST.                        :  DIST FSL TEXT
 DMF .             Drill Floor:  DRILL MEAS FROM
 STIM.      09.30.00 26-Dec-19:  START TIME
 DATE.      08.00.00 20-Jan-20:  END TIME
 SPUD.               23-Nov-19:  SPUD DATE
 NREF.                    Grid:  NORTH REFERENCE
 HPTY.       Minimum Curvature:  HOLE POS TYPE
 DMOD.             Drill Model:  DRILL MOD DESC
 SVYD.                  Survey:  SURVEY DESC
 ILTD.               Lithology:  INTERP LTH DESC
 FTOP.          Formation Tops:  FORM TOPS DESC
 SON .        AZ-XX-0906192647:  JOB NUMBER
 WTYP.                Deviated:  WELL TYPE
 COMP.     BP Exploration (Caspian Sea) Ltd:  COMPANY
 BASE.              Azerbaijan:  LOGGING EQUIPMENT BASE LOCATION
 REGN.                 Eurasia:  REGION
 FLD .                     ACG:  FIELD NAME
 SRVC.              KCA Deutag:  CONTRACTOR
 MWDS.                    Baku:  MWD SHOP
 WELL.     A10 (Slot 20) - SCP:  WELL NAME
 JOBN.        AZ-XX-0906192647:  JOB TICKET NUMB
 RIG .                 Chirag1:  RIG NAME
 DCON.     Halliburton Sperry Drilling:  DIRECTNL CONTR
 UNIT.                     N/A:  LOGGING EQUIPMENT ID
 PDAT.          Mean Sea Level:  PERMANENT DATUM
 MDS .        Operator Entered:  MAG DATA SOURCE
 CTRY.              Azerbaijan:  COUNTRY NAME
 UWI .            /AZE00000090:  UNIQUE WELL IDENTIFIER
 API .            /AZE00000090:  API NUMBER
 CNTY.                        :  COUNTY
 PROV.                        :  PROVINCE
 STAT.                        :  STATE
 LOC .                        :  LOCATION
 LMF .             Drill Floor:  LOG MEASURED FROM
 TVDS.m                  36.60:  TVDSS CORRECTN
 LATI.deg                40.08:  LATITUDE
 LONG.deg                51.24:  LONGITUDE
 WHNS.m                  -7.94:  WELL HEAD N/S
 WHEW.m                   1.56:  WELL HEAD E/W
 UTMX.m              520429.26:  UTM X
 UTMY.m             4438973.87:  UTM Y
 DFWL.m                   0.00:  DISTANCE FWL
 DFSL.m                   0.00:  DISTANCE FSL
 SDEP.m                1455.00:  START DEPTH
 TDD .m                3878.01:  TOTAL DEPTH (DRILLER)
 VSDR.deg               112.75:  VERT SEC DIRECT
 GVFD.g                   1.00:  GRAVITY FIELD
 MFLD.nT              50256.00:  MAGNETIC FIELD
 MDIP.deg                59.52:  MAGNETIC DIP
 MDEC.deg                 6.43:  MAGNETIC DECL
 GRDC.deg                 0.16:  GRID CORRECTION
 AZTC.deg                 6.27:  AZM TOTAL CORR
 EPD .m                   0.00:  ELEVATION
 EGL .m                   0.00:  GROUND ELEVATION
 WDMS.m                 121.00:  WD ELEV
 APD .m                  36.60:  DEPTH ABOVE PD
 AGAP.m                  36.60:  AIR GAP
 VSEW.m                   1.56:  VERT SEC E/W
 VSNS.m                  -7.94:  VERT SEC N/S
 DEP .m                1140.01:  DEPTH
 EKB .m                  36.60:  KB ELEVATION
 EDF .m                  36.60:  DF ELEVATION
 TDL .m                1293.00:  TOTAL DEPTH (LOGGER)
 VSC .                       0:  VS TO CLOSURE
 MAGU.                 1849164:  MAGUTM CHECKSUM
~Parameter Information Block
#MNEM.UNIT       Value        Description
#---------     -----------    ---------------------------
 AV  .mps                 2.40:  Ann Velocity 
 AVMX.mps                 2.55:  Max Ann Veloc 
 AZIF.deg               134.35:  Azm, Final 
 BHAT.        Rotary Steerable:  BHA Type 
 BREV.rev               847.00:  Rev Bit Total 
 BROT.°/30m              -2.51:  Build Rotating 
 BS  .in                  8.50:  Bit Size 
 BSZ .in                  8.50:  Bit Size 
 BTPL.psig              700.00:  Bit Press Loss 
 CABU.                     Yes:  Customer Abuse 
 CGEO.          Ilgar Gurbanov:  Customer Geo 
 COMM.                     üÓ~:  Run Comments 1 
 TCS .hr                140.40:  Time Ciculation Ended 
 CV  .mps                 2.27:  Crit Velocity 
 CVMX.mps                 2.45:  Max Crit Veloc 
 DD1 .         Intigam Rahimov:  Direct Drillr 1 
 DD2 .         Rasim Ibrahimov:  Direct Drillr 2 
 DDSV.                 iCruise:  DD Service 
 DEFF.%                  99.00:  % Det Eff 
 DLRX.°/30m               3.28:  Dogleg Rot Max 
 DLSO.°/30m               0.00:  Dogleg Oriented 
 DLSX.°/30m               0.00:  Dogleg Str Max 
 DRET.      23.30.00 18-Jan-20:  Drill End Time 
 DRST.      01.45.00 11-Jan-20:  Drill Start Tim 
 DTIM.hr                 94.00:  Time Drilling 
 EDEP.m                3878.01:  End Depth 
 ENG1.       Dauren Baktybayev:  Engineer 1 
 ENG2.      Natik Hasanaghayev:  Engineer 2 
 ENG3.          Rustam Safarov:  Engineer 3 
 ETIM.      08.00.00 20-Jan-20:  End Time 
 FLOI.gpm               532.00:  Flow In 
 FLON.gpm               500.00:  Flow In Min 
 FLOS.cptm                0.00:  Fluid Loss 
 FLOX.gpm               540.00:  Flow In Max 
 FTRO.       Formation Presure:  FTWD Run Obj 
 HPRE.                     Yes:  High Pressure 
 HTEM.                      No:  High Temp 
 HYDO.m                   1.80:  Hydro Offset 
 IFIN.deg                39.86:  Inc, Final 
 IMAX.deg                59.73:  Inc Max 
 IMIN.deg                39.25:  Inc Min 
 IMND.m                3816.77:  Inc Min Depth 
 IMXD.m                2596.33:  Inc Max Depth 
 JARR.                      No:  Jarring 
 LETM.      23.30.00 18-Jan-20:  Log End Time 
 LOST.hr                     0:  Lost Rig Time 
 LSTM.      01.45.00 11-Jan-20:  Log Start Time 
 MDCL.ppm             41500.00:  Mud Chlorides 
 MDES.     Inversion Oil/Synthetic:  Mud Desc 
 DFD .sg                  1.48:  Mud Density 
 MDMN.sg                  1.48:  Dens Mud Min 
 MDMX.sg                  1.48:  Dens Mud Max 
 MOIL.                      54:  Run Mud Oil % 
 MOWR.                   72:28:  Run Mud OWR 
 MSND.                       0:  Run Mud Sand % 
 MSOL.                      23:  Run Mud Solids% 
 DFV .spqt               86.00:  Mud Viscosity 
 MWOD.in                  6.75:  MWD Tool OD 
 MWSI.                      No:  Serv Intrp, MWD 
 OTIM.hr                223.40:  Time Operating 
 PCON.           Look Like New:  Pad Condition 
 PMAX.psia            32446.79:  Press Op, Max 
 PV  .cP                 49.00:  Mud PV 
 RUN .                     200:  Run Number 
 ROPA.m/hr               12.48:  ROP Avg 
 ROPN.m/hr                8.00:  ROP Min 
 ROPX.m/hr               27.00:  ROP Max 
 RPMA.rpm               121.00:  RPM Surface Avg 
 RPMN.rpm                60.00:  RPM Surface Min 
 RPMX.rpm               140.00:  RPM Surface Max 
 RRUN.                    L202:  Rig Run Number 
 RTIM.hr                  7.25:  Time Reaming 
 SAZI.deg               123.49:  Azm, Start 
 SDEP.m                2585.01:  Start Depth 
 SIDD.                      No:  Serv Intrp, DD 
 SINC.deg                59.93:  Inc, Start 
 SPPA.psig             3539.00:  SPP Avg 
 SPPN.psig             3050.00:  SPP Min 
 SPPX.psig             3950.00:  SPP Max 
 STIM.      19.00.00 10-Jan-20:  Start Time 
 SVCS.                 DD, MWD:  Services 
 SVER.                    9.20:  Sperry Version 
 TDAT.m                1293.00:  Tot Depth Attmp 
 TDDF.                      No:  Trip for DD 
 TDLG.m                1293.00:  Tot Depth Loggd 
 TFF .                      No:  Trip for Fail 
 TQAA.f-kp               16.00:  Torque Abs Avg 
 TQAN.f-kp               11.00:  Torque Abs Min 
 TQAX.f-kp               18.00:  Torque Abs Max 
 TRRT.°/30m               1.25:  Turn Rotating 
 MRT .                  EWR-M5:  Maximum Recorded Temperature 
 TTMX.degC               84.00:  Max Tool Temp 
 VS01.          AZ90514619R5C6:  Virtual Str1 SN 
 VS02.        AZ90552592N2L2C6:  Virtual Str2 SN 
 VS03.        AZ90571337Z1W1C6:  Virtual Str3 SN 
 VS04.         AZ90513690K23C6:  Virtual Str4 SN 
 VS05.           AZ90594857F11:  Virtual Str5 SN 
 VS06.                13102166:  Virtual Str6 SN 
 WBMN.klb                 7.00:  WOB Min 
 WITN.            Peter Wilson:  Customer Rep 
 WOBA.klb                 9.95:  WOB Avg 
 WOBX.klb                10.00:  WOB Max 
 YP  .lhf2               36.00:  Yield Point 
~Curve Information Block
#MNEM.UNIT                 API CODE     Curve Description
#---------               -----------    ---------------------------
 TIME.HHMMSS            00 000 000 000:  GT Time & Date
 GTDEPTH.m              00 000 000 000:  GT Depth
 GTPQH.psia             00 000 000 000:  GT HR Quartz Pressure
 GTTQ.degC              00 000 000 000:  GT Quartz Temperature
 GTTN.NONE              00 000 000 000:  GT Test Number
 GTET.sec               00 000 000 000:  GT Elapsed Test Time
 GTTVD.m                00 000 000 000:  GT True Vertical Depth
#Other Information
#
#WARRANTY: Halliburton will use its best efforts to furnish customers with 
#accurate information and interpretations that are part of, and incident to, the services 
#provided.  However, Halliburton cannot and does not warrant the accuracy 
#or correctness of such information and interpretations.  Under no circumstances should any 
#such information or interpretation be relied upon as the sole basis for any drilling, 
#completion, production, or financial decision or any procedure involving any risk to the 
#safety of any drilling venture, drilling rig or its crew or any other third party.  The 
#Customer has full responsibility for all drilling, completion and production operation.  
#Halliburton makes no representations or warranties, either expressed or 
#implied, including, but not limited to, the implied warranties of merchantability or fitness 
#for a particular purpose, with respect to the services rendered.  In no event will 
#Halliburton be liable for failure to obtain any particular results or for 
#any damages, including, but not limited to, indirect, special or consequential damages, 
#resulting from the use of any information or interpretation provided by Halliburton.
#
~A           TIME           GTDEPTH  GTPQH  GTTQ  GTTN  GTET   GTTVD  
# ...
   13:57:05.634.18-Jan-2020 3754.01 3608.23 79.48 5.00 322.10 2824.94
   13:57:05.834.18-Jan-2020 3754.01 3608.23 79.48 5.00 322.30 2824.94
   13:57:06.034.18-Jan-2020 3754.01 3603.67 79.48 5.00 322.50 2824.94
   13:57:06.234.18-Jan-2020 3754.01 3608.98 79.48 5.00 322.70 2824.94
   13:57:06.434.18-Jan-2020 3754.01 3615.91 79.48 5.00 322.90 2824.94
   13:57:06.634.18-Jan-2020 3754.01 3680.31 79.48 5.00 323.10 2824.94
   13:57:06.834.18-Jan-2020 3754.01 3680.31 79.48 5.00 323.30 2824.94
   13:57:07.034.18-Jan-2020 3754.01 3693.91 79.48 5.00 323.50 2824.94
   13:57:07.235.18-Jan-2020 3754.01 3692.85 79.48 5.00 323.70 2824.94
   13:57:07.435.18-Jan-2020 3754.01 3696.63 79.48 5.00 323.90 2824.94
   13:57:07.635.18-Jan-2020 3754.01 3691.65 79.48 5.00 324.10 2824.94
   13:57:07.835.18-Jan-2020 3754.01 3691.65 79.48 5.00 324.30 2824.94
   13:57:08.035.18-Jan-2020 3754.01 3693.09 79.48 5.00 324.50 2824.94
   13:57:08.235.18-Jan-2020 3754.01 3697.21 79.48 5.00 324.70 2824.94
   13:57:08.435.18-Jan-2020 3754.01 3692.77 79.48 5.00 324.91 2824.94
   13:57:08.635.18-Jan-2020 3754.01 3695.63 79.48 5.00 325.11 2824.94
   13:57:08.835.18-Jan-2020 3754.01 3695.63 79.48 5.00 325.31 2824.94
   13:57:09.035.18-Jan-2020 3754.01 3694.90 79.48 5.00 325.51 2824.94
   13:57:09.235.18-Jan-2020 3754.01 3694.63 79.48 5.00 325.71 2824.94
   13:57:09.435.18-Jan-2020 3754.01 3694.79 79.48 5.00 325.91 2824.94
   13:57:09.635.18-Jan-2020 3754.01 3694.85 79.48 5.00 326.11 2824.94
   13:57:09.835.18-Jan-2020 3754.01 3694.85 79.48 5.00 326.31 2824.94
   13:57:10.035.18-Jan-2020 3754.01 3695.10 79.48 5.00 326.51 2824.94
   13:57:10.236.18-Jan-2020 3754.01 3695.02 79.48 5.00 326.71 2824.94
   13:57:10.436.18-Jan-2020 3754.01 3694.88 79.48 5.00 326.91 2824.94
   13:57:10.636.18-Jan-2020 3754.01 3694.86 79.48 5.00 327.11 2824.94
   13:57:10.836.18-Jan-2020 3754.01 3694.86 79.48 5.00 327.31 2824.94
   13:57:11.036.18-Jan-2020 3754.01 3695.14 79.48 5.00 327.51 2824.94
   13:57:11.236.18-Jan-2020 3754.01 3694.92 79.48 5.00 327.71 2824.94
   13:57:11.436.18-Jan-2020 3754.01 3694.98 79.48 5.00 327.91 2824.94
   13:57:11.636.18-Jan-2020 3754.01 3694.41 79.48 5.00 328.11 2824.94
   13:57:11.836.18-Jan-2020 3754.01 3694.41 79.48 5.00 328.31 2824.94
   13:57:12.036.18-Jan-2020 3754.01 3692.32 79.48 5.00 328.51 2824.94
   13:57:12.236.18-Jan-2020 3754.01 3696.35 79.48 5.00 328.71 2824.94
   13:57:12.436.18-Jan-2020 3754.01 3694.47 79.48 5.00 328.91 2824.94
   13:57:12.636.18-Jan-2020 3754.01 3695.44 79.48 5.00 329.11 2824.94
   13:57:12.836.18-Jan-2020 3754.01 3695.44 79.48 5.00 329.31 2824.94
   13:57:13.036.18-Jan-2020 3754.01 3695.26 79.48 5.00 329.51 2824.94
   13:57:13.236.18-Jan-2020 3754.01 3695.07 79.47 5.00 329.71 2824.94
   13:57:13.437.18-Jan-2020 3754.01 3695.02 79.48 5.00 329.91 2824.94
   13:57:13.637.18-Jan-2020 3754.01 3695.28 79.47 5.00 330.11 2824.94
   13:57:13.837.18-Jan-2020 3754.01 3695.28 79.47 5.00 330.31 2824.94
   13:57:14.037.18-Jan-2020 3754.01 3696.44 79.47 5.00 330.51 2824.94
   13:57:14.237.18-Jan-2020 3754.01 3694.68 79.47 5.00 330.71 2824.94
   13:57:14.437.18-Jan-2020 3754.01 3694.65 79.47 5.00 330.91 2824.94
   13:57:14.637.18-Jan-2020 3754.01 3694.71 79.47 5.00 331.11 2824.94
   13:57:14.837.18-Jan-2020 3754.01 3694.71 79.47 5.00 331.31 2824.94
   13:57:15.037.18-Jan-2020 3754.01 3693.30 79.47 5.00 331.51 2824.94
   13:57:15.237.18-Jan-2020 3754.01 3695.89 79.47 5.00 331.71 2824.94
   13:57:15.437.18-Jan-2020 3754.01 3693.99 79.47 5.00 331.91 2824.94
   13:57:15.637.18-Jan-2020 3754.01 3697.26 79.47 5.00 332.11 2824.94
   13:57:15.837.18-Jan-2020 3754.01 3697.26 79.47 5.00 332.31 2824.94
   13:57:16.037.18-Jan-2020 3754.01 3696.05 79.47 5.00 332.51 2824.94
   13:57:16.237.18-Jan-2020 3754.01 3693.70 79.47 5.00 332.71 2824.94
   13:57:16.438.18-Jan-2020 3754.01 3697.62 79.47 5.00 332.91 2824.94
   13:57:16.638.18-Jan-2020 3754.01 3692.92 79.47 5.00 333.11 2824.94
   13:57:16.838.18-Jan-2020 3754.01 3692.92 79.47 5.00 333.31 2824.94
   13:57:17.038.18-Jan-2020 3754.01 3694.54 79.47 5.00 333.51 2824.94
   13:57:17.238.18-Jan-2020 3754.01 3695.48 79.47 5.00 333.71 2824.94
   13:57:17.438.18-Jan-2020 3754.01 3695.21 79.47 5.00 333.91 2824.94
   13:57:17.638.18-Jan-2020 3754.01 3695.36 79.47 5.00 334.11 2824.94
   13:57:17.838.18-Jan-2020 3754.01 3695.36 79.47 5.00 334.31 2824.94
   13:57:18.038.18-Jan-2020 3754.01 3695.12 79.47 5.00 334.51 2824.94
   13:57:18.238.18-Jan-2020 3754.01 3695.32 79.47 5.00 334.71 2824.94
   13:57:18.438.18-Jan-2020 3754.01 3695.22 79.47 5.00 334.91 2824.94
   13:57:18.638.18-Jan-2020 3754.01 3695.31 79.47 5.00 335.11 2824.94
   13:57:18.838.18-Jan-2020 3754.01 3695.31 79.47 5.00 335.31 2824.94
   13:57:19.038.18-Jan-2020 3754.01 3695.27 79.47 5.00 335.51 2824.94
   13:57:19.238.18-Jan-2020 3754.01 3695.36 79.47 5.00 335.71 2824.94
   13:57:19.439.18-Jan-2020 3754.01 3695.23 79.47 5.00 335.91 2824.94
   13:57:19.639.18-Jan-2020 3754.01 3695.05 79.47 5.00 336.11 2824.94
   13:57:19.839.18-Jan-2020 3754.01 3695.05 79.47 5.00 336.31 2824.94
   13:57:20.039.18-Jan-2020 3754.01 3696.79 79.47 5.00 336.51 2824.94
   13:57:20.239.18-Jan-2020 3754.01 3693.18 79.47 5.00 336.71 2824.94
   13:57:20.439.18-Jan-2020 3754.01 3696.20 79.47 5.00 336.91 2824.94
   13:57:20.639.18-Jan-2020 3754.01 3694.73 79.47 5.00 337.11 2824.94
   13:57:20.839.18-Jan-2020 3754.01 3694.73 79.47 5.00 337.31 2824.94
   13:57:21.039.18-Jan-2020 3754.01 3695.19 79.47 5.00 337.51 2824.94
   13:57:21.239.18-Jan-2020 3754.01 3695.41 79.47 5.00 337.71 2824.94
   13:57:21.439.18-Jan-2020 3754.01 3695.16 79.47 5.00 337.91 2824.94
   13:57:21.639.18-Jan-2020 3754.01 3695.29 79.47 5.00 338.11 2824.94
   13:57:21.839.18-Jan-2020 3754.01 3695.29 79.47 5.00 338.31 2824.94
   13:57:22.039.18-Jan-2020 3754.01 3694.35 79.47 5.00 338.51 2824.94
   13:57:22.239.18-Jan-2020 3754.01 3697.44 79.47 5.00 338.71 2824.94
   13:57:22.439.18-Jan-2020 3754.01 3693.82 79.47 5.00 338.91 2824.94
   13:57:22.640.18-Jan-2020 3754.01 3696.23 79.47 5.00 339.11 2824.94
   13:57:22.840.18-Jan-2020 3754.01 3696.23 79.47 5.00 339.31 2824.94
   13:57:23.040.18-Jan-2020 3754.01 3694.71 79.47 5.00 339.51 2824.94
   13:57:23.240.18-Jan-2020 3754.01 3697.30 79.47 5.00 339.71 2824.94
   13:57:23.440.18-Jan-2020 3754.01 3693.03 79.47 5.00 339.91 2824.94
   13:57:23.640.18-Jan-2020 3754.01 3696.53 79.47 5.00 340.11 2824.94
   13:57:23.840.18-Jan-2020 3754.01 3696.53 79.47 5.00 340.31 2824.94
   13:57:24.040.18-Jan-2020 3754.01 3695.72 79.47 5.00 340.51 2824.94
   13:57:24.240.18-Jan-2020 3754.01 3696.37 79.47 5.00 340.71 2824.94
   13:57:24.440.18-Jan-2020 3754.01 3695.23 79.47 5.00 340.91 2824.94
   13:57:24.640.18-Jan-2020 3754.01 3694.42 79.47 5.00 341.11 2824.94
   13:57:24.840.18-Jan-2020 3754.01 3694.42 79.47 5.00 341.31 2824.94
   13:57:25.040.18-Jan-2020 3754.01 3696.99 79.47 5.00 341.51 2824.94
   13:57:25.240.18-Jan-2020 3754.01 3694.24 79.47 5.00 341.71 2824.94
   13:57:25.440.18-Jan-2020 3754.01 3695.94 79.47 5.00 341.91 2824.94
   13:57:25.641.18-Jan-2020 3754.01 3694.92 79.47 5.00 342.11 2824.94
   13:57:25.841.18-Jan-2020 3754.01 3694.92 79.47 5.00 342.31 2824.94
   13:57:26.041.18-Jan-2020 3754.01 3695.27 79.47 5.00 342.51 2824.94
   13:57:26.241.18-Jan-2020 3754.01 3695.27 79.47 5.00 342.71 2824.94
   13:57:26.441.18-Jan-2020 3754.01 3695.22 79.47 5.00 342.91 2824.94
   13:57:26.641.18-Jan-2020 3754.01 3695.04 79.47 5.00 343.11 2824.94
   13:57:26.841.18-Jan-2020 3754.01 3695.04 79.47 5.00 343.31 2824.94
   13:57:27.041.18-Jan-2020 3754.01 3695.59 79.47 5.00 343.51 2824.94
   13:57:27.241.18-Jan-2020 3754.01 3695.27 79.47 5.00 343.71 2824.94
   13:57:27.441.18-Jan-2020 3754.01 3695.25 79.47 5.00 343.91 2824.94
   13:57:27.641.18-Jan-2020 3754.01 3695.33 79.47 5.00 344.11 2824.94
   13:57:27.841.18-Jan-2020 3754.01 3695.33 79.47 5.00 344.31 2824.94
   13:57:28.041.18-Jan-2020 3754.01 3695.36 79.47 5.00 344.51 2824.94
   13:57:28.241.18-Jan-2020 3754.01 3695.22 79.47 5.00 344.71 2824.94
   13:57:28.441.18-Jan-2020 3754.01 3694.88 79.47 5.00 344.91 2824.94
