~Version Information
 VERS.                  2.0:   CWLS log ASCII Standard -VERSION 2.0
 WRAP.                   NO:   One line per depth step
~Well Information Block
#MNEM.UNIT     VALUE/NAME     DESCRIPTION
#---------     -----------    ---------------------------
 STRT.S             17:36:42 18-Jan-20: START TIME 17:36:42 18-Jan-20
 STOP.S             17:44:57 18-Jan-20: STOP TIME  17:44:57 18-Jan-20
 STEP.S                   0.00: STEP TIME
 NULL.                 -999.25: NULL VALUE
 DFWT.                        :  DIST FWL TEXT
 DFST.                        :  DIST FSL TEXT
 DMF .             Drill Floor:  DRILL MEAS FROM
 STIM.      09.30.00 26-Dec-19:  START TIME
 DATE.      08.00.00 20-Jan-20:  END TIME
 SPUD.               23-Nov-19:  SPUD DATE
 NREF.                    Grid:  NORTH REFERENCE
 HPTY.       Minimum Curvature:  HOLE POS TYPE
 DMOD.             Drill Model:  DRILL MOD DESC
 SVYD.                  Survey:  SURVEY DESC
 ILTD.               Lithology:  INTERP LTH DESC
 FTOP.          Formation Tops:  FORM TOPS DESC
 SON .        AZ-XX-0906192647:  JOB NUMBER
 WTYP.                Deviated:  WELL TYPE
 COMP.     BP Exploration (Caspian Sea) Ltd:  COMPANY
 BASE.              Azerbaijan:  LOGGING EQUIPMENT BASE LOCATION
 REGN.                 Eurasia:  REGION
 FLD .                     ACG:  FIELD NAME
 SRVC.              KCA Deutag:  CONTRACTOR
 MWDS.                    Baku:  MWD SHOP
 WELL.     A10 (Slot 20) - SCP:  WELL NAME
 JOBN.        AZ-XX-0906192647:  JOB TICKET NUMB
 RIG .                 Chirag1:  RIG NAME
 DCON.     Halliburton Sperry Drilling:  DIRECTNL CONTR
 UNIT.                     N/A:  LOGGING EQUIPMENT ID
 PDAT.          Mean Sea Level:  PERMANENT DATUM
 MDS .        Operator Entered:  MAG DATA SOURCE
 CTRY.              Azerbaijan:  COUNTRY NAME
 UWI .            /AZE00000090:  UNIQUE WELL IDENTIFIER
 API .            /AZE00000090:  API NUMBER
 CNTY.                        :  COUNTY
 PROV.                        :  PROVINCE
 STAT.                        :  STATE
 LOC .                        :  LOCATION
 LMF .             Drill Floor:  LOG MEASURED FROM
 TVDS.m                  36.60:  TVDSS CORRECTN
 LATI.deg                40.08:  LATITUDE
 LONG.deg                51.24:  LONGITUDE
 WHNS.m                  -7.94:  WELL HEAD N/S
 WHEW.m                   1.56:  WELL HEAD E/W
 UTMX.m              520429.26:  UTM X
 UTMY.m             4438973.87:  UTM Y
 DFWL.m                   0.00:  DISTANCE FWL
 DFSL.m                   0.00:  DISTANCE FSL
 SDEP.m                1455.00:  START DEPTH
 TDD .m                3878.01:  TOTAL DEPTH (DRILLER)
 VSDR.deg               112.75:  VERT SEC DIRECT
 GVFD.g                   1.00:  GRAVITY FIELD
 MFLD.nT              50256.00:  MAGNETIC FIELD
 MDIP.deg                59.52:  MAGNETIC DIP
 MDEC.deg                 6.43:  MAGNETIC DECL
 GRDC.deg                 0.16:  GRID CORRECTION
 AZTC.deg                 6.27:  AZM TOTAL CORR
 EPD .m                   0.00:  ELEVATION
 EGL .m                   0.00:  GROUND ELEVATION
 WDMS.m                 121.00:  WD ELEV
 APD .m                  36.60:  DEPTH ABOVE PD
 AGAP.m                  36.60:  AIR GAP
 VSEW.m                   1.56:  VERT SEC E/W
 VSNS.m                  -7.94:  VERT SEC N/S
 DEP .m                1140.01:  DEPTH
 EKB .m                  36.60:  KB ELEVATION
 EDF .m                  36.60:  DF ELEVATION
 TDL .m                1293.00:  TOTAL DEPTH (LOGGER)
 VSC .                       0:  VS TO CLOSURE
 MAGU.                 1849164:  MAGUTM CHECKSUM
~Parameter Information Block
#MNEM.UNIT       Value        Description
#---------     -----------    ---------------------------
 AV  .mps                 2.40:  Ann Velocity 
 AVMX.mps                 2.55:  Max Ann Veloc 
 AZIF.deg               134.35:  Azm, Final 
 BHAT.        Rotary Steerable:  BHA Type 
 BREV.rev               847.00:  Rev Bit Total 
 BROT.°/30m              -2.51:  Build Rotating 
 BS  .in                  8.50:  Bit Size 
 BSZ .in                  8.50:  Bit Size 
 BTPL.psig              700.00:  Bit Press Loss 
 CABU.                     Yes:  Customer Abuse 
 CGEO.          Ilgar Gurbanov:  Customer Geo 
 COMM.                     Ä_:  Run Comments 1 
 TCS .hr                140.40:  Time Ciculation Ended 
 CV  .mps                 2.27:  Crit Velocity 
 CVMX.mps                 2.45:  Max Crit Veloc 
 DD1 .         Intigam Rahimov:  Direct Drillr 1 
 DD2 .         Rasim Ibrahimov:  Direct Drillr 2 
 DDSV.                 iCruise:  DD Service 
 DEFF.%                  99.00:  % Det Eff 
 DLRX.°/30m               3.28:  Dogleg Rot Max 
 DLSO.°/30m               0.00:  Dogleg Oriented 
 DLSX.°/30m               0.00:  Dogleg Str Max 
 DRET.      23.30.00 18-Jan-20:  Drill End Time 
 DRST.      01.45.00 11-Jan-20:  Drill Start Tim 
 DTIM.hr                 94.00:  Time Drilling 
 EDEP.m                3878.01:  End Depth 
 ENG1.       Dauren Baktybayev:  Engineer 1 
 ENG2.      Natik Hasanaghayev:  Engineer 2 
 ENG3.          Rustam Safarov:  Engineer 3 
 ETIM.      08.00.00 20-Jan-20:  End Time 
 FLOI.gpm               532.00:  Flow In 
 FLON.gpm               500.00:  Flow In Min 
 FLOS.cptm                0.00:  Fluid Loss 
 FLOX.gpm               540.00:  Flow In Max 
 FTRO.       Formation Presure:  FTWD Run Obj 
 HPRE.                     Yes:  High Pressure 
 HTEM.                      No:  High Temp 
 HYDO.m                   1.80:  Hydro Offset 
 IFIN.deg                39.86:  Inc, Final 
 IMAX.deg                59.73:  Inc Max 
 IMIN.deg                39.25:  Inc Min 
 IMND.m                3816.77:  Inc Min Depth 
 IMXD.m                2596.33:  Inc Max Depth 
 JARR.                      No:  Jarring 
 LETM.      23.30.00 18-Jan-20:  Log End Time 
 LOST.hr                     0:  Lost Rig Time 
 LSTM.      01.45.00 11-Jan-20:  Log Start Time 
 MDCL.ppm             41500.00:  Mud Chlorides 
 MDES.     Inversion Oil/Synthetic:  Mud Desc 
 DFD .sg                  1.48:  Mud Density 
 MDMN.sg                  1.48:  Dens Mud Min 
 MDMX.sg                  1.48:  Dens Mud Max 
 MOIL.                      54:  Run Mud Oil % 
 MOWR.                   72:28:  Run Mud OWR 
 MSND.                       0:  Run Mud Sand % 
 MSOL.                      23:  Run Mud Solids% 
 DFV .spqt               86.00:  Mud Viscosity 
 MWOD.in                  6.75:  MWD Tool OD 
 MWSI.                      No:  Serv Intrp, MWD 
 OTIM.hr                223.40:  Time Operating 
 PCON.           Look Like New:  Pad Condition 
 PMAX.psia            32446.79:  Press Op, Max 
 PV  .cP                 49.00:  Mud PV 
 RUN .                     200:  Run Number 
 ROPA.m/hr               12.48:  ROP Avg 
 ROPN.m/hr                8.00:  ROP Min 
 ROPX.m/hr               27.00:  ROP Max 
 RPMA.rpm               121.00:  RPM Surface Avg 
 RPMN.rpm                60.00:  RPM Surface Min 
 RPMX.rpm               140.00:  RPM Surface Max 
 RRUN.                    L202:  Rig Run Number 
 RTIM.hr                  7.25:  Time Reaming 
 SAZI.deg               123.49:  Azm, Start 
 SDEP.m                2585.01:  Start Depth 
 SIDD.                      No:  Serv Intrp, DD 
 SINC.deg                59.93:  Inc, Start 
 SPPA.psig             3539.00:  SPP Avg 
 SPPN.psig             3050.00:  SPP Min 
 SPPX.psig             3950.00:  SPP Max 
 STIM.      19.00.00 10-Jan-20:  Start Time 
 SVCS.                 DD, MWD:  Services 
 SVER.                    9.20:  Sperry Version 
 TDAT.m                1293.00:  Tot Depth Attmp 
 TDDF.                      No:  Trip for DD 
 TDLG.m                1293.00:  Tot Depth Loggd 
 TFF .                      No:  Trip for Fail 
 TQAA.f-kp               16.00:  Torque Abs Avg 
 TQAN.f-kp               11.00:  Torque Abs Min 
 TQAX.f-kp               18.00:  Torque Abs Max 
 TRRT.°/30m               1.25:  Turn Rotating 
 MRT .                  EWR-M5:  Maximum Recorded Temperature 
 TTMX.degC               84.00:  Max Tool Temp 
 VS01.          AZ90514619R5C6:  Virtual Str1 SN 
 VS02.        AZ90552592N2L2C6:  Virtual Str2 SN 
 VS03.        AZ90571337Z1W1C6:  Virtual Str3 SN 
 VS04.         AZ90513690K23C6:  Virtual Str4 SN 
 VS05.           AZ90594857F11:  Virtual Str5 SN 
 VS06.                13102166:  Virtual Str6 SN 
 WBMN.klb                 7.00:  WOB Min 
 WITN.            Peter Wilson:  Customer Rep 
 WOBA.klb                 9.95:  WOB Avg 
 WOBX.klb                10.00:  WOB Max 
 YP  .lhf2               36.00:  Yield Point 
~Curve Information Block
#MNEM.UNIT                 API CODE     Curve Description
#---------               -----------    ---------------------------
 TIME.HHMMSS            00 000 000 000:  GT Time & Date
 GTDEPTH.m              00 000 000 000:  GT Depth
 GTPQH.psia             00 000 000 000:  GT HR Quartz Pressure
 GTTQ.degC              00 000 000 000:  GT Quartz Temperature
 GTTN.NONE              00 000 000 000:  GT Test Number
 GTET.sec               00 000 000 000:  GT Elapsed Test Time
 GTTVD.m                00 000 000 000:  GT True Vertical Depth
#Other Information
#
#WARRANTY: Halliburton will use its best efforts to furnish customers with 
#accurate information and interpretations that are part of, and incident to, the services 
#provided.  However, Halliburton cannot and does not warrant the accuracy 
#or correctness of such information and interpretations.  Under no circumstances should any 
#such information or interpretation be relied upon as the sole basis for any drilling, 
#completion, production, or financial decision or any procedure involving any risk to the 
#safety of any drilling venture, drilling rig or its crew or any other third party.  The 
#Customer has full responsibility for all drilling, completion and production operation.  
#Halliburton makes no representations or warranties, either expressed or 
#implied, including, but not limited to, the implied warranties of merchantability or fitness 
#for a particular purpose, with respect to the services rendered.  In no event will 
#Halliburton be liable for failure to obtain any particular results or for 
#any damages, including, but not limited to, indirect, special or consequential damages, 
#resulting from the use of any information or interpretation provided by Halliburton.
#
~A           TIME           GTDEPTH  GTPQH  GTTQ  GTTN  GTET   GTTVD  
   17:36:42.893.18-Jan-2020 3785.01 6418.21 82.37 6.00   0.00 2848.88
   17:36:43.093.18-Jan-2020 3785.01 6418.21 82.37 6.00   0.20 2848.88
   17:36:43.293.18-Jan-2020 3785.01 6428.81 82.37 6.00   0.40 2848.88
   17:36:43.493.18-Jan-2020 3785.01 6417.56 82.37 6.00   0.60 2848.88
   17:36:43.693.18-Jan-2020 3785.01 6418.59 82.37 6.00   0.80 2848.88
   17:36:43.893.18-Jan-2020 3785.01 6430.51 82.37 6.00   1.00 2848.88
   17:36:44.093.18-Jan-2020 3785.01 6430.51 82.37 6.00   1.20 2848.88
   17:36:44.293.18-Jan-2020 3785.01 6417.98 82.36 6.00   1.40 2848.88
   17:36:44.493.18-Jan-2020 3785.01 6420.98 82.36 6.00   1.60 2848.88
   17:36:44.693.18-Jan-2020 3785.01 6429.50 82.36 6.00   1.80 2848.88
   17:36:44.893.18-Jan-2020 3785.01 6418.75 82.36 6.00   2.00 2848.88
   17:36:45.093.18-Jan-2020 3785.01 6418.75 82.36 6.00   2.20 2848.88
   17:36:45.293.18-Jan-2020 3785.01 6421.90 82.36 6.00   2.40 2848.88
   17:36:45.493.18-Jan-2020 3785.01 6420.33 82.36 6.00   2.60 2848.88
   17:36:45.693.18-Jan-2020 3785.01 6427.60 82.36 6.00   2.80 2848.88
   17:36:45.893.18-Jan-2020 3785.01 6423.16 82.36 6.00   3.00 2848.88
   17:36:46.093.18-Jan-2020 3785.01 6423.16 82.36 6.00   3.20 2848.88
   17:36:46.293.18-Jan-2020 3785.01 6424.76 82.36 6.00   3.40 2848.88
   17:36:46.493.18-Jan-2020 3785.01 6423.83 82.36 6.00   3.60 2848.88
   17:36:46.693.18-Jan-2020 3785.01 6423.80 82.36 6.00   3.80 2848.88
   17:36:46.893.18-Jan-2020 3785.01 6435.19 82.36 6.00   4.00 2848.88
   17:36:47.093.18-Jan-2020 3785.01 6435.19 82.36 6.00   4.20 2848.88
   17:36:47.293.18-Jan-2020 3785.01 6423.08 82.36 6.00   4.40 2848.88
   17:36:47.493.18-Jan-2020 3785.01 6426.18 82.36 6.00   4.60 2848.88
   17:36:47.693.18-Jan-2020 3785.01 6431.28 82.36 6.00   4.80 2848.88
   17:36:47.893.18-Jan-2020 3785.01 6427.57 82.36 6.00   5.00 2848.88
   17:36:48.093.18-Jan-2020 3785.01 6427.57 82.36 6.00   5.20 2848.88
   17:36:48.293.18-Jan-2020 3785.01 6423.91 82.36 6.00   5.40 2848.88
   17:36:48.493.18-Jan-2020 3785.01 6423.26 82.36 6.00   5.60 2848.88
   17:36:48.693.18-Jan-2020 3785.01 6435.55 82.36 6.00   5.80 2848.88
   17:36:48.893.18-Jan-2020 3785.01 6423.94 82.35 6.00   6.00 2848.88
   17:36:49.093.18-Jan-2020 3785.01 6423.94 82.35 6.00   6.20 2848.88
   17:36:49.293.18-Jan-2020 3785.01 6427.00 82.35 6.00   6.40 2848.88
   17:36:49.493.18-Jan-2020 3785.01 6433.16 82.35 6.00   6.60 2848.88
   17:36:49.693.18-Jan-2020 3785.01 6425.52 82.35 6.00   6.80 2848.88
   17:36:49.893.18-Jan-2020 3785.01 6427.94 82.35 6.00   7.00 2848.88
   17:36:50.093.18-Jan-2020 3785.01 6427.94 82.35 6.00   7.20 2848.88
   17:36:50.293.18-Jan-2020 3785.01 6425.58 82.35 6.00   7.40 2848.88
   17:36:50.493.18-Jan-2020 3785.01 6426.90 82.35 6.00   7.60 2848.88
   17:36:50.693.18-Jan-2020 3785.01 6429.65 82.35 6.00   7.80 2848.88
   17:36:50.893.18-Jan-2020 3785.01 6428.48 82.35 6.00   8.00 2848.88
   17:36:51.093.18-Jan-2020 3785.01 6428.48 82.35 6.00   8.20 2848.88
   17:36:51.293.18-Jan-2020 3785.01 6426.54 82.35 6.00   8.40 2848.88
   17:36:51.493.18-Jan-2020 3785.01 6429.05 82.35 6.00   8.60 2848.88
   17:36:51.694.18-Jan-2020 3785.01 6427.96 82.35 6.00   8.80 2848.88
   17:36:51.894.18-Jan-2020 3785.01 6429.85 82.35 6.00   9.00 2848.88
   17:36:52.094.18-Jan-2020 3785.01 6429.85 82.35 6.00   9.20 2848.88
   17:36:52.294.18-Jan-2020 3785.01 6429.60 82.35 6.00   9.40 2848.88
   17:36:52.494.18-Jan-2020 3785.01 6429.85 82.35 6.00   9.60 2848.88
   17:36:52.694.18-Jan-2020 3785.01 6429.29 82.35 6.00   9.80 2848.88
   17:36:52.894.18-Jan-2020 3785.01 6440.45 82.35 6.00  10.00 2848.88
   17:36:53.094.18-Jan-2020 3785.01 6440.45 82.35 6.00  10.20 2848.88
   17:36:53.294.18-Jan-2020 3785.01 6429.77 82.35 6.00  10.40 2848.88
   17:36:53.494.18-Jan-2020 3785.01 6431.25 82.35 6.00  10.60 2848.88
   17:36:53.694.18-Jan-2020 3785.01 6430.97 82.34 6.00  10.80 2848.88
   17:36:53.894.18-Jan-2020 3785.01 6428.87 82.34 6.00  11.00 2848.88
   17:36:54.094.18-Jan-2020 3785.01 6428.87 82.34 6.00  11.20 2848.88
   17:36:54.294.18-Jan-2020 3785.01 6430.32 82.34 6.00  11.40 2848.88
   17:36:54.494.18-Jan-2020 3785.01 6432.26 82.34 6.00  11.60 2848.88
   17:36:54.694.18-Jan-2020 3785.01 6429.79 82.34 6.00  11.80 2848.88
   17:36:54.894.18-Jan-2020 3785.01 6431.60 82.34 6.00  12.00 2848.88
   17:36:55.094.18-Jan-2020 3785.01 6431.60 82.34 6.00  12.20 2848.88
   17:36:55.294.18-Jan-2020 3785.01 6431.89 82.34 6.00  12.40 2848.88
   17:36:55.494.18-Jan-2020 3785.01 6431.21 82.34 6.00  12.60 2848.88
   17:36:55.694.18-Jan-2020 3785.01 6430.95 82.34 6.00  12.80 2848.88
   17:36:55.894.18-Jan-2020 3785.01 6434.73 82.34 6.00  13.00 2848.88
   17:36:56.094.18-Jan-2020 3785.01 6434.73 82.34 6.00  13.20 2848.88
   17:36:56.294.18-Jan-2020 3785.01 6437.09 82.34 6.00  13.40 2848.88
   17:36:56.494.18-Jan-2020 3785.01 6432.25 82.34 6.00  13.60 2848.88
   17:36:56.694.18-Jan-2020 3785.01 6436.12 82.34 6.00  13.80 2848.88
   17:36:56.894.18-Jan-2020 3785.01 6432.35 82.34 6.00  14.00 2848.88
   17:36:57.094.18-Jan-2020 3785.01 6432.35 82.34 6.00  14.20 2848.88
   17:36:57.294.18-Jan-2020 3785.01 6433.73 82.34 6.00  14.40 2848.88
   17:36:57.494.18-Jan-2020 3785.01 6434.61 82.34 6.00  14.60 2848.88
   17:36:57.694.18-Jan-2020 3785.01 6436.10 82.34 6.00  14.80 2848.88
   17:36:57.894.18-Jan-2020 3785.01 6432.80 82.34 6.00  15.00 2848.88
   17:36:58.094.18-Jan-2020 3785.01 6432.80 82.34 6.00  15.20 2848.88
   17:36:58.294.18-Jan-2020 3785.01 6437.55 82.33 6.00  15.40 2848.88
   17:36:58.494.18-Jan-2020 3785.01 6436.95 82.33 6.00  15.60 2848.88
   17:36:58.694.18-Jan-2020 3785.01 6436.19 82.33 6.00  15.80 2848.88
   17:36:58.894.18-Jan-2020 3785.01 6435.09 82.33 6.00  16.00 2848.88
   17:36:59.094.18-Jan-2020 3785.01 6435.09 82.33 6.00  16.20 2848.88
   17:36:59.294.18-Jan-2020 3785.01 6442.70 82.33 6.00  16.40 2848.88
   17:36:59.494.18-Jan-2020 3785.01 6438.54 82.33 6.00  16.60 2848.88
   17:36:59.694.18-Jan-2020 3785.01 6440.40 82.33 6.00  16.80 2848.88
   17:36:59.894.18-Jan-2020 3785.01 6442.92 82.33 6.00  17.00 2848.88
   17:37:00.094.18-Jan-2020 3785.01 6442.92 82.33 6.00  17.20 2848.88
   17:37:00.294.18-Jan-2020 3785.01 6440.90 82.33 6.00  17.40 2848.88
   17:37:00.494.18-Jan-2020 3785.01 6445.56 82.33 6.00  17.60 2848.88
   17:37:00.694.18-Jan-2020 3785.01 6442.58 82.33 6.00  17.80 2848.88
   17:37:00.894.18-Jan-2020 3785.01 6437.57 82.33 6.00  18.00 2848.88
   17:37:01.094.18-Jan-2020 3785.01 6437.57 82.33 6.00  18.20 2848.88
   17:37:01.294.18-Jan-2020 3785.01 6438.24 82.33 6.00  18.40 2848.88
   17:37:01.494.18-Jan-2020 3785.01 6440.64 82.33 6.00  18.60 2848.88
   17:37:01.694.18-Jan-2020 3785.01 6437.03 82.33 6.00  18.80 2848.88
   17:37:01.894.18-Jan-2020 3785.01 6439.29 82.33 6.00  19.00 2848.88
   17:37:02.094.18-Jan-2020 3785.01 6439.29 82.33 6.00  19.20 2848.88
   17:37:02.294.18-Jan-2020 3785.01 6442.01 82.33 6.00  19.40 2848.88
   17:37:02.494.18-Jan-2020 3785.01 6440.99 82.33 6.00  19.60 2848.88
   17:37:02.694.18-Jan-2020 3785.01 6443.56 82.33 6.00  19.80 2848.88
   17:37:02.894.18-Jan-2020 3785.01 6445.90 82.33 6.00  20.00 2848.88
   17:37:03.094.18-Jan-2020 3785.01 6445.90 82.33 6.00  20.20 2848.88
   17:37:03.294.18-Jan-2020 3785.01 6443.58 82.32 6.00  20.40 2848.88
   17:37:03.494.18-Jan-2020 3785.01 6445.37 82.32 6.00  20.60 2848.88
   17:37:03.694.18-Jan-2020 3785.01 6447.27 82.32 6.00  20.80 2848.88
   17:37:03.894.18-Jan-2020 3785.01 6444.91 82.32 6.00  21.00 2848.88
   17:37:04.094.18-Jan-2020 3785.01 6444.91 82.32 6.00  21.20 2848.88
   17:37:04.294.18-Jan-2020 3785.01 6441.66 82.32 6.00  21.40 2848.88
   17:37:04.494.18-Jan-2020 3785.01 6443.35 82.32 6.00  21.60 2848.88
   17:37:04.694.18-Jan-2020 3785.01 6443.69 82.32 6.00  21.80 2848.88
   17:37:04.894.18-Jan-2020 3785.01 6442.91 82.32 6.00  22.00 2848.88
   17:37:05.095.18-Jan-2020 3785.01 6442.91 82.32 6.00  22.20 2848.88
   17:37:05.295.18-Jan-2020 3785.01 6442.27 82.32 6.00  22.40 2848.88
   17:37:05.495.18-Jan-2020 3785.01 6443.42 82.32 6.00  22.60 2848.88
   17:37:05.695.18-Jan-2020 3785.01 6443.02 82.32 6.00  22.80 2848.88
