~Version Information
 VERS.                  2.0:   CWLS log ASCII Standard -VERSION 2.0
 WRAP.                   NO:   One line per depth step
~Well Information Block
#MNEM.UNIT     VALUE/NAME     DESCRIPTION
#---------     -----------    ---------------------------
 STRT.S             05:39:19 18-Jan-20: START TIME 05:39:19 18-Jan-20
 STOP.S             05:47:35 18-Jan-20: STOP TIME  05:47:35 18-Jan-20
 STEP.S                   0.00: STEP TIME
 NULL.                 -999.25: NULL VALUE
 DFWT.                        :  DIST FWL TEXT
 DFST.                        :  DIST FSL TEXT
 DMF .             Drill Floor:  DRILL MEAS FROM
 STIM.      09.30.00 26-Dec-19:  START TIME
 DATE.      08.00.00 20-Jan-20:  END TIME
 SPUD.               23-Nov-19:  SPUD DATE
 NREF.                    Grid:  NORTH REFERENCE
 HPTY.       Minimum Curvature:  HOLE POS TYPE
 DMOD.             Drill Model:  DRILL MOD DESC
 SVYD.                  Survey:  SURVEY DESC
 ILTD.               Lithology:  INTERP LTH DESC
 FTOP.          Formation Tops:  FORM TOPS DESC
 SON .        AZ-XX-0906192647:  JOB NUMBER
 WTYP.                Deviated:  WELL TYPE
 COMP.     BP Exploration (Caspian Sea) Ltd:  COMPANY
 BASE.              Azerbaijan:  LOGGING EQUIPMENT BASE LOCATION
 REGN.                 Eurasia:  REGION
 FLD .                     ACG:  FIELD NAME
 SRVC.              KCA Deutag:  CONTRACTOR
 MWDS.                    Baku:  MWD SHOP
 WELL.     A10 (Slot 20) - SCP:  WELL NAME
 JOBN.        AZ-XX-0906192647:  JOB TICKET NUMB
 RIG .                 Chirag1:  RIG NAME
 DCON.     Halliburton Sperry Drilling:  DIRECTNL CONTR
 UNIT.                     N/A:  LOGGING EQUIPMENT ID
 PDAT.          Mean Sea Level:  PERMANENT DATUM
 MDS .        Operator Entered:  MAG DATA SOURCE
 CTRY.              Azerbaijan:  COUNTRY NAME
 UWI .            /AZE00000090:  UNIQUE WELL IDENTIFIER
 API .            /AZE00000090:  API NUMBER
 CNTY.                        :  COUNTY
 PROV.                        :  PROVINCE
 STAT.                        :  STATE
 LOC .                        :  LOCATION
 LMF .             Drill Floor:  LOG MEASURED FROM
 TVDS.m                  36.60:  TVDSS CORRECTN
 LATI.deg                40.08:  LATITUDE
 LONG.deg                51.24:  LONGITUDE
 WHNS.m                  -7.94:  WELL HEAD N/S
 WHEW.m                   1.56:  WELL HEAD E/W
 UTMX.m              520429.26:  UTM X
 UTMY.m             4438973.87:  UTM Y
 DFWL.m                   0.00:  DISTANCE FWL
 DFSL.m                   0.00:  DISTANCE FSL
 SDEP.m                1455.00:  START DEPTH
 TDD .m                3878.01:  TOTAL DEPTH (DRILLER)
 VSDR.deg               112.75:  VERT SEC DIRECT
 GVFD.g                   1.00:  GRAVITY FIELD
 MFLD.nT              50256.00:  MAGNETIC FIELD
 MDIP.deg                59.52:  MAGNETIC DIP
 MDEC.deg                 6.43:  MAGNETIC DECL
 GRDC.deg                 0.16:  GRID CORRECTION
 AZTC.deg                 6.27:  AZM TOTAL CORR
 EPD .m                   0.00:  ELEVATION
 EGL .m                   0.00:  GROUND ELEVATION
 WDMS.m                 121.00:  WD ELEV
 APD .m                  36.60:  DEPTH ABOVE PD
 AGAP.m                  36.60:  AIR GAP
 VSEW.m                   1.56:  VERT SEC E/W
 VSNS.m                  -7.94:  VERT SEC N/S
 DEP .m                1140.01:  DEPTH
 EKB .m                  36.60:  KB ELEVATION
 EDF .m                  36.60:  DF ELEVATION
 TDL .m                1293.00:  TOTAL DEPTH (LOGGER)
 VSC .                       0:  VS TO CLOSURE
 MAGU.                 1849164:  MAGUTM CHECKSUM
~Parameter Information Block
#MNEM.UNIT       Value        Description
#---------     -----------    ---------------------------
 AV  .mps                 2.40:  Ann Velocity 
 AVMX.mps                 2.55:  Max Ann Veloc 
 AZIF.deg               134.35:  Azm, Final 
 BHAT.        Rotary Steerable:  BHA Type 
 BREV.rev               847.00:  Rev Bit Total 
 BROT.∞/30m              -2.51:  Build Rotating 
 BS  .in                  8.50:  Bit Size 
 BSZ .in                  8.50:  Bit Size 
 BTPL.psig              700.00:  Bit Press Loss 
 CABU.                     Yes:  Customer Abuse 
 CGEO.          Ilgar Gurbanov:  Customer Geo 
 COMM.                     ‹êX:  Run Comments 1 
 TCS .hr                140.40:  Time Ciculation Ended 
 CV  .mps                 2.27:  Crit Velocity 
 CVMX.mps                 2.45:  Max Crit Veloc 
 DD1 .         Intigam Rahimov:  Direct Drillr 1 
 DD2 .         Rasim Ibrahimov:  Direct Drillr 2 
 DDSV.                 iCruise:  DD Service 
 DEFF.%                  99.00:  % Det Eff 
 DLRX.∞/30m               3.28:  Dogleg Rot Max 
 DLSO.∞/30m               0.00:  Dogleg Oriented 
 DLSX.∞/30m               0.00:  Dogleg Str Max 
 DRET.      23.30.00 18-Jan-20:  Drill End Time 
 DRST.      01.45.00 11-Jan-20:  Drill Start Tim 
 DTIM.hr                 94.00:  Time Drilling 
 EDEP.m                3878.01:  End Depth 
 ENG1.       Dauren Baktybayev:  Engineer 1 
 ENG2.      Natik Hasanaghayev:  Engineer 2 
 ENG3.          Rustam Safarov:  Engineer 3 
 ETIM.      08.00.00 20-Jan-20:  End Time 
 FLOI.gpm               532.00:  Flow In 
 FLON.gpm               500.00:  Flow In Min 
 FLOS.cptm                0.00:  Fluid Loss 
 FLOX.gpm               540.00:  Flow In Max 
 FTRO.       Formation Presure:  FTWD Run Obj 
 HPRE.                     Yes:  High Pressure 
 HTEM.                      No:  High Temp 
 HYDO.m                   1.80:  Hydro Offset 
 IFIN.deg                39.86:  Inc, Final 
 IMAX.deg                59.73:  Inc Max 
 IMIN.deg                39.25:  Inc Min 
 IMND.m                3816.77:  Inc Min Depth 
 IMXD.m                2596.33:  Inc Max Depth 
 JARR.                      No:  Jarring 
 LETM.      23.30.00 18-Jan-20:  Log End Time 
 LOST.hr                     0:  Lost Rig Time 
 LSTM.      01.45.00 11-Jan-20:  Log Start Time 
 MDCL.ppm             41500.00:  Mud Chlorides 
 MDES.     Inversion Oil/Synthetic:  Mud Desc 
 DFD .sg                  1.48:  Mud Density 
 MDMN.sg                  1.48:  Dens Mud Min 
 MDMX.sg                  1.48:  Dens Mud Max 
 MOIL.                      54:  Run Mud Oil % 
 MOWR.                   72:28:  Run Mud OWR 
 MSND.                       0:  Run Mud Sand % 
 MSOL.                      23:  Run Mud Solids% 
 DFV .spqt               86.00:  Mud Viscosity 
 MWOD.in                  6.75:  MWD Tool OD 
 MWSI.                      No:  Serv Intrp, MWD 
 OTIM.hr                223.40:  Time Operating 
 PCON.           Look Like New:  Pad Condition 
 PMAX.psia            32446.79:  Press Op, Max 
 PV  .cP                 49.00:  Mud PV 
 RUN .                     200:  Run Number 
 ROPA.m/hr               12.48:  ROP Avg 
 ROPN.m/hr                8.00:  ROP Min 
 ROPX.m/hr               27.00:  ROP Max 
 RPMA.rpm               121.00:  RPM Surface Avg 
 RPMN.rpm                60.00:  RPM Surface Min 
 RPMX.rpm               140.00:  RPM Surface Max 
 RRUN.                    L202:  Rig Run Number 
 RTIM.hr                  7.25:  Time Reaming 
 SAZI.deg               123.49:  Azm, Start 
 SDEP.m                2585.01:  Start Depth 
 SIDD.                      No:  Serv Intrp, DD 
 SINC.deg                59.93:  Inc, Start 
 SPPA.psig             3539.00:  SPP Avg 
 SPPN.psig             3050.00:  SPP Min 
 SPPX.psig             3950.00:  SPP Max 
 STIM.      19.00.00 10-Jan-20:  Start Time 
 SVCS.                 DD, MWD:  Services 
 SVER.                    9.20:  Sperry Version 
 TDAT.m                1293.00:  Tot Depth Attmp 
 TDDF.                      No:  Trip for DD 
 TDLG.m                1293.00:  Tot Depth Loggd 
 TFF .                      No:  Trip for Fail 
 TQAA.f-kp               16.00:  Torque Abs Avg 
 TQAN.f-kp               11.00:  Torque Abs Min 
 TQAX.f-kp               18.00:  Torque Abs Max 
 TRRT.∞/30m               1.25:  Turn Rotating 
 MRT .                  EWR-M5:  Maximum Recorded Temperature 
 TTMX.degC               84.00:  Max Tool Temp 
 VS01.          AZ90514619R5C6:  Virtual Str1 SN 
 VS02.        AZ90552592N2L2C6:  Virtual Str2 SN 
 VS03.        AZ90571337Z1W1C6:  Virtual Str3 SN 
 VS04.         AZ90513690K23C6:  Virtual Str4 SN 
 VS05.           AZ90594857F11:  Virtual Str5 SN 
 VS06.                13102166:  Virtual Str6 SN 
 WBMN.klb                 7.00:  WOB Min 
 WITN.            Peter Wilson:  Customer Rep 
 WOBA.klb                 9.95:  WOB Avg 
 WOBX.klb                10.00:  WOB Max 
 YP  .lhf2               36.00:  Yield Point 
~Curve Information Block
#MNEM.UNIT                 API CODE     Curve Description
#---------               -----------    ---------------------------
 TIME.HHMMSS            00 000 000 000:  GT Time & Date
 GTDEPTH.m              00 000 000 000:  GT Depth
 GTPQH.psia             00 000 000 000:  GT HR Quartz Pressure
 GTTQ.degC              00 000 000 000:  GT Quartz Temperature
 GTTN.NONE              00 000 000 000:  GT Test Number
 GTET.sec               00 000 000 000:  GT Elapsed Test Time
 GTTVD.m                00 000 000 000:  GT True Vertical Depth
#Other Information
#
#WARRANTY: Halliburton will use its best efforts to furnish customers with 
#accurate information and interpretations that are part of, and incident to, the services 
#provided.  However, Halliburton cannot and does not warrant the accuracy 
#or correctness of such information and interpretations.  Under no circumstances should any 
#such information or interpretation be relied upon as the sole basis for any drilling, 
#completion, production, or financial decision or any procedure involving any risk to the 
#safety of any drilling venture, drilling rig or its crew or any other third party.  The 
#Customer has full responsibility for all drilling, completion and production operation.  
#Halliburton makes no representations or warranties, either expressed or 
#implied, including, but not limited to, the implied warranties of merchantability or fitness 
#for a particular purpose, with respect to the services rendered.  In no event will 
#Halliburton be liable for failure to obtain any particular results or for 
#any damages, including, but not limited to, indirect, special or consequential damages, 
#resulting from the use of any information or interpretation provided by Halliburton.
#
~A           TIME           GTDEPTH  GTPQH  GTTQ  GTTN  GTET   GTTVD  
# ...
   05:47:22.634.18-Jan-2020 3717.66 6365.93 78.20 2.00 483.14 2797.70
   05:47:22.834.18-Jan-2020 3717.66 6365.93 78.20 2.00 483.34 2797.70
   05:47:23.034.18-Jan-2020 3717.66 6357.10 78.20 2.00 483.54 2797.70
   05:47:23.234.18-Jan-2020 3717.66 6371.02 78.20 2.00 483.74 2797.70
   05:47:23.434.18-Jan-2020 3717.66 6357.26 78.20 2.00 483.94 2797.70
   05:47:23.634.18-Jan-2020 3717.66 6356.11 78.20 2.00 484.14 2797.70
   05:47:23.834.18-Jan-2020 3717.66 6356.11 78.20 2.00 484.34 2797.70
   05:47:24.034.18-Jan-2020 3717.66 6360.16 78.20 2.00 484.54 2797.70
   05:47:24.234.18-Jan-2020 3717.66 6357.72 78.20 2.00 484.74 2797.70
   05:47:24.434.18-Jan-2020 3717.66 6359.70 78.20 2.00 484.94 2797.70
   05:47:24.634.18-Jan-2020 3717.66 6355.94 78.20 2.00 485.14 2797.70
   05:47:24.834.18-Jan-2020 3717.66 6355.94 78.20 2.00 485.34 2797.70
   05:47:25.034.18-Jan-2020 3717.66 6356.52 78.20 2.00 485.54 2797.70
   05:47:25.234.18-Jan-2020 3717.66 6358.43 78.20 2.00 485.74 2797.70
   05:47:25.434.18-Jan-2020 3717.66 6358.80 78.20 2.00 485.94 2797.70
   05:47:25.634.18-Jan-2020 3717.66 6357.38 78.20 2.00 486.14 2797.70
   05:47:25.834.18-Jan-2020 3717.66 6357.38 78.20 2.00 486.34 2797.70
   05:47:26.035.18-Jan-2020 3717.66 6358.48 78.20 2.00 486.54 2797.70
   05:47:26.235.18-Jan-2020 3717.66 6358.98 78.20 2.00 486.74 2797.70
   05:47:26.435.18-Jan-2020 3717.66 6357.38 78.20 2.00 486.94 2797.70
   05:47:26.635.18-Jan-2020 3717.66 6364.84 78.20 2.00 487.14 2797.70
   05:47:26.835.18-Jan-2020 3717.66 6364.84 78.20 2.00 487.34 2797.70
   05:47:27.035.18-Jan-2020 3717.66 6356.23 78.20 2.00 487.54 2797.70
   05:47:27.235.18-Jan-2020 3717.66 6359.20 78.20 2.00 487.74 2797.70
   05:47:27.435.18-Jan-2020 3717.66 6358.80 78.20 2.00 487.94 2797.70
   05:47:27.635.18-Jan-2020 3717.66 6357.90 78.20 2.00 488.14 2797.70
   05:47:27.835.18-Jan-2020 3717.66 6357.90 78.20 2.00 488.34 2797.70
   05:47:28.035.18-Jan-2020 3717.66 6355.96 78.20 2.00 488.54 2797.70
   05:47:28.235.18-Jan-2020 3717.66 6356.92 78.20 2.00 488.74 2797.70
   05:47:28.435.18-Jan-2020 3717.66 6356.66 78.20 2.00 488.94 2797.70
   05:47:28.635.18-Jan-2020 3717.66 6357.45 78.20 2.00 489.14 2797.70
   05:47:28.835.18-Jan-2020 3717.66 6357.45 78.20 2.00 489.34 2797.70
   05:47:29.035.18-Jan-2020 3717.66 6363.48 78.20 2.00 489.54 2797.70
   05:47:29.235.18-Jan-2020 3717.66 6361.30 78.20 2.00 489.74 2797.70
   05:47:29.435.18-Jan-2020 3717.66 6355.14 78.20 2.00 489.94 2797.70
   05:47:29.636.18-Jan-2020 3717.66 6360.67 78.20 2.00 490.14 2797.70
   05:47:29.836.18-Jan-2020 3717.66 6360.67 78.20 2.00 490.34 2797.70
   05:47:30.036.18-Jan-2020 3717.66 6364.15 78.20 2.00 490.54 2797.70
   05:47:30.236.18-Jan-2020 3717.66 6361.59 78.20 2.00 490.74 2797.70
   05:47:30.436.18-Jan-2020 3717.66 6357.31 78.20 2.00 490.94 2797.70
   05:47:30.636.18-Jan-2020 3717.66 6358.81 78.20 2.00 491.14 2797.70
   05:47:30.836.18-Jan-2020 3717.66 6358.81 78.20 2.00 491.34 2797.70
   05:47:31.036.18-Jan-2020 3717.66 6356.27 78.20 2.00 491.54 2797.70
   05:47:31.236.18-Jan-2020 3717.66 6356.02 78.20 2.00 491.74 2797.70
   05:47:31.436.18-Jan-2020 3717.66 6364.04 78.20 2.00 491.94 2797.70
   05:47:31.636.18-Jan-2020 3717.66 6358.28 78.20 2.00 492.14 2797.70
   05:47:31.836.18-Jan-2020 3717.66 6358.28 78.20 2.00 492.34 2797.70
   05:47:32.036.18-Jan-2020 3717.66 6361.50 78.20 2.00 492.54 2797.70
   05:47:32.236.18-Jan-2020 3717.66 6367.14 78.20 2.00 492.74 2797.70
   05:47:32.436.18-Jan-2020 3717.66 6360.72 78.20 2.00 492.94 2797.70
   05:47:32.636.18-Jan-2020 3717.66 6357.35 78.20 2.00 493.14 2797.70
   05:47:32.836.18-Jan-2020 3717.66 6357.35 78.20 2.00 493.34 2797.70
   05:47:33.037.18-Jan-2020 3717.66 6359.35 78.20 2.00 493.54 2797.70
   05:47:33.237.18-Jan-2020 3717.66 6359.54 78.19 2.00 493.74 2797.70
   05:47:33.437.18-Jan-2020 3717.66 6358.25 78.19 2.00 493.94 2797.70
   05:47:33.637.18-Jan-2020 3717.66 6357.96 78.19 2.00 494.14 2797.70
   05:47:33.837.18-Jan-2020 3717.66 6357.96 78.19 2.00 494.34 2797.70
   05:47:34.037.18-Jan-2020 3717.66 6357.72 78.19 2.00 494.54 2797.70
   05:47:34.237.18-Jan-2020 3717.66 6359.75 78.19 2.00 494.74 2797.70
   05:47:34.437.18-Jan-2020 3717.66 6359.50 78.19 2.00 494.94 2797.70
   05:47:34.637.18-Jan-2020 3717.66 6357.18 78.19 2.00 495.14 2797.70
   05:47:34.837.18-Jan-2020 3717.66 6357.18 78.19 2.00 495.34 2797.70
   05:47:35.037.18-Jan-2020 3717.66 6359.08 78.19 2.00 495.54 2797.70
   05:47:35.237.18-Jan-2020 3717.66 6359.07 78.19 2.00 495.74 2797.70
   05:47:35.437.18-Jan-2020 3717.66 6358.54 78.19 2.00 495.94 2797.70
