~Version Information
 VERS.                  2.0:   CWLS log ASCII Standard -VERSION 2.0
 WRAP.                   NO:   One line per depth step
~Well Information Block
#MNEM.UNIT     VALUE/NAME     DESCRIPTION
#---------     -----------    ---------------------------
 STRT.S             09:16:51 18-Jan-20: START TIME 09:16:51 18-Jan-20
 STOP.S             09:25:06 18-Jan-20: STOP TIME  09:25:06 18-Jan-20
 STEP.S                   0.00: STEP TIME
 NULL.                 -999.25: NULL VALUE
 DFWT.                        :  DIST FWL TEXT
 DFST.                        :  DIST FSL TEXT
 DMF .             Drill Floor:  DRILL MEAS FROM
 STIM.      09.30.00 26-Dec-19:  START TIME
 DATE.      08.00.00 20-Jan-20:  END TIME
 SPUD.               23-Nov-19:  SPUD DATE
 NREF.                    Grid:  NORTH REFERENCE
 HPTY.       Minimum Curvature:  HOLE POS TYPE
 DMOD.             Drill Model:  DRILL MOD DESC
 SVYD.                  Survey:  SURVEY DESC
 ILTD.               Lithology:  INTERP LTH DESC
 FTOP.          Formation Tops:  FORM TOPS DESC
 SON .        AZ-XX-0906192647:  JOB NUMBER
 WTYP.                Deviated:  WELL TYPE
 COMP.     BP Exploration (Caspian Sea) Ltd:  COMPANY
 BASE.              Azerbaijan:  LOGGING EQUIPMENT BASE LOCATION
 REGN.                 Eurasia:  REGION
 FLD .                     ACG:  FIELD NAME
 SRVC.              KCA Deutag:  CONTRACTOR
 MWDS.                    Baku:  MWD SHOP
 WELL.     A10 (Slot 20) - SCP:  WELL NAME
 JOBN.        AZ-XX-0906192647:  JOB TICKET NUMB
 RIG .                 Chirag1:  RIG NAME
 DCON.     Halliburton Sperry Drilling:  DIRECTNL CONTR
 UNIT.                     N/A:  LOGGING EQUIPMENT ID
 PDAT.          Mean Sea Level:  PERMANENT DATUM
 MDS .        Operator Entered:  MAG DATA SOURCE
 CTRY.              Azerbaijan:  COUNTRY NAME
 UWI .            /AZE00000090:  UNIQUE WELL IDENTIFIER
 API .            /AZE00000090:  API NUMBER
 CNTY.                        :  COUNTY
 PROV.                        :  PROVINCE
 STAT.                        :  STATE
 LOC .                        :  LOCATION
 LMF .             Drill Floor:  LOG MEASURED FROM
 TVDS.m                  36.60:  TVDSS CORRECTN
 LATI.deg                40.08:  LATITUDE
 LONG.deg                51.24:  LONGITUDE
 WHNS.m                  -7.94:  WELL HEAD N/S
 WHEW.m                   1.56:  WELL HEAD E/W
 UTMX.m              520429.26:  UTM X
 UTMY.m             4438973.87:  UTM Y
 DFWL.m                   0.00:  DISTANCE FWL
 DFSL.m                   0.00:  DISTANCE FSL
 SDEP.m                1455.00:  START DEPTH
 TDD .m                3878.01:  TOTAL DEPTH (DRILLER)
 VSDR.deg               112.75:  VERT SEC DIRECT
 GVFD.g                   1.00:  GRAVITY FIELD
 MFLD.nT              50256.00:  MAGNETIC FIELD
 MDIP.deg                59.52:  MAGNETIC DIP
 MDEC.deg                 6.43:  MAGNETIC DECL
 GRDC.deg                 0.16:  GRID CORRECTION
 AZTC.deg                 6.27:  AZM TOTAL CORR
 EPD .m                   0.00:  ELEVATION
 EGL .m                   0.00:  GROUND ELEVATION
 WDMS.m                 121.00:  WD ELEV
 APD .m                  36.60:  DEPTH ABOVE PD
 AGAP.m                  36.60:  AIR GAP
 VSEW.m                   1.56:  VERT SEC E/W
 VSNS.m                  -7.94:  VERT SEC N/S
 DEP .m                1140.01:  DEPTH
 EKB .m                  36.60:  KB ELEVATION
 EDF .m                  36.60:  DF ELEVATION
 TDL .m                1293.00:  TOTAL DEPTH (LOGGER)
 VSC .                       0:  VS TO CLOSURE
 MAGU.                 1849164:  MAGUTM CHECKSUM
~Parameter Information Block
#MNEM.UNIT       Value        Description
#---------     -----------    ---------------------------
 AV  .mps                 2.40:  Ann Velocity 
 AVMX.mps                 2.55:  Max Ann Veloc 
 AZIF.deg               134.35:  Azm, Final 
 BHAT.        Rotary Steerable:  BHA Type 
 BREV.rev               847.00:  Rev Bit Total 
 BROT.°/30m              -2.51:  Build Rotating 
 BS  .in                  8.50:  Bit Size 
 BSZ .in                  8.50:  Bit Size 
 BTPL.psig              700.00:  Bit Press Loss 
 CABU.                     Yes:  Customer Abuse 
 CGEO.          Ilgar Gurbanov:  Customer Geo 
 COMM.                     Áo:  Run Comments 1 
 TCS .hr                140.40:  Time Ciculation Ended 
 CV  .mps                 2.27:  Crit Velocity 
 CVMX.mps                 2.45:  Max Crit Veloc 
 DD1 .         Intigam Rahimov:  Direct Drillr 1 
 DD2 .         Rasim Ibrahimov:  Direct Drillr 2 
 DDSV.                 iCruise:  DD Service 
 DEFF.%                  99.00:  % Det Eff 
 DLRX.°/30m               3.28:  Dogleg Rot Max 
 DLSO.°/30m               0.00:  Dogleg Oriented 
 DLSX.°/30m               0.00:  Dogleg Str Max 
 DRET.      23.30.00 18-Jan-20:  Drill End Time 
 DRST.      01.45.00 11-Jan-20:  Drill Start Tim 
 DTIM.hr                 94.00:  Time Drilling 
 EDEP.m                3878.01:  End Depth 
 ENG1.       Dauren Baktybayev:  Engineer 1 
 ENG2.      Natik Hasanaghayev:  Engineer 2 
 ENG3.          Rustam Safarov:  Engineer 3 
 ETIM.      08.00.00 20-Jan-20:  End Time 
 FLOI.gpm               532.00:  Flow In 
 FLON.gpm               500.00:  Flow In Min 
 FLOS.cptm                0.00:  Fluid Loss 
 FLOX.gpm               540.00:  Flow In Max 
 FTRO.       Formation Presure:  FTWD Run Obj 
 HPRE.                     Yes:  High Pressure 
 HTEM.                      No:  High Temp 
 HYDO.m                   1.80:  Hydro Offset 
 IFIN.deg                39.86:  Inc, Final 
 IMAX.deg                59.73:  Inc Max 
 IMIN.deg                39.25:  Inc Min 
 IMND.m                3816.77:  Inc Min Depth 
 IMXD.m                2596.33:  Inc Max Depth 
 JARR.                      No:  Jarring 
 LETM.      23.30.00 18-Jan-20:  Log End Time 
 LOST.hr                     0:  Lost Rig Time 
 LSTM.      01.45.00 11-Jan-20:  Log Start Time 
 MDCL.ppm             41500.00:  Mud Chlorides 
 MDES.     Inversion Oil/Synthetic:  Mud Desc 
 DFD .sg                  1.48:  Mud Density 
 MDMN.sg                  1.48:  Dens Mud Min 
 MDMX.sg                  1.48:  Dens Mud Max 
 MOIL.                      54:  Run Mud Oil % 
 MOWR.                   72:28:  Run Mud OWR 
 MSND.                       0:  Run Mud Sand % 
 MSOL.                      23:  Run Mud Solids% 
 DFV .spqt               86.00:  Mud Viscosity 
 MWOD.in                  6.75:  MWD Tool OD 
 MWSI.                      No:  Serv Intrp, MWD 
 OTIM.hr                223.40:  Time Operating 
 PCON.           Look Like New:  Pad Condition 
 PMAX.psia            32446.79:  Press Op, Max 
 PV  .cP                 49.00:  Mud PV 
 RUN .                     200:  Run Number 
 ROPA.m/hr               12.48:  ROP Avg 
 ROPN.m/hr                8.00:  ROP Min 
 ROPX.m/hr               27.00:  ROP Max 
 RPMA.rpm               121.00:  RPM Surface Avg 
 RPMN.rpm                60.00:  RPM Surface Min 
 RPMX.rpm               140.00:  RPM Surface Max 
 RRUN.                    L202:  Rig Run Number 
 RTIM.hr                  7.25:  Time Reaming 
 SAZI.deg               123.49:  Azm, Start 
 SDEP.m                2585.01:  Start Depth 
 SIDD.                      No:  Serv Intrp, DD 
 SINC.deg                59.93:  Inc, Start 
 SPPA.psig             3539.00:  SPP Avg 
 SPPN.psig             3050.00:  SPP Min 
 SPPX.psig             3950.00:  SPP Max 
 STIM.      19.00.00 10-Jan-20:  Start Time 
 SVCS.                 DD, MWD:  Services 
 SVER.                    9.20:  Sperry Version 
 TDAT.m                1293.00:  Tot Depth Attmp 
 TDDF.                      No:  Trip for DD 
 TDLG.m                1293.00:  Tot Depth Loggd 
 TFF .                      No:  Trip for Fail 
 TQAA.f-kp               16.00:  Torque Abs Avg 
 TQAN.f-kp               11.00:  Torque Abs Min 
 TQAX.f-kp               18.00:  Torque Abs Max 
 TRRT.°/30m               1.25:  Turn Rotating 
 MRT .                  EWR-M5:  Maximum Recorded Temperature 
 TTMX.degC               84.00:  Max Tool Temp 
 VS01.          AZ90514619R5C6:  Virtual Str1 SN 
 VS02.        AZ90552592N2L2C6:  Virtual Str2 SN 
 VS03.        AZ90571337Z1W1C6:  Virtual Str3 SN 
 VS04.         AZ90513690K23C6:  Virtual Str4 SN 
 VS05.           AZ90594857F11:  Virtual Str5 SN 
 VS06.                13102166:  Virtual Str6 SN 
 WBMN.klb                 7.00:  WOB Min 
 WITN.            Peter Wilson:  Customer Rep 
 WOBA.klb                 9.95:  WOB Avg 
 WOBX.klb                10.00:  WOB Max 
 YP  .lhf2               36.00:  Yield Point 
~Curve Information Block
#MNEM.UNIT                 API CODE     Curve Description
#---------               -----------    ---------------------------
 TIME.HHMMSS            00 000 000 000:  GT Time & Date
 GTDEPTH.m              00 000 000 000:  GT Depth
 GTPQH.psia             00 000 000 000:  GT HR Quartz Pressure
 GTTQ.degC              00 000 000 000:  GT Quartz Temperature
 GTTN.NONE              00 000 000 000:  GT Test Number
 GTET.sec               00 000 000 000:  GT Elapsed Test Time
 GTTVD.m                00 000 000 000:  GT True Vertical Depth
#Other Information
#
#WARRANTY: Halliburton will use its best efforts to furnish customers with 
#accurate information and interpretations that are part of, and incident to, the services 
#provided.  However, Halliburton cannot and does not warrant the accuracy 
#or correctness of such information and interpretations.  Under no circumstances should any 
#such information or interpretation be relied upon as the sole basis for any drilling, 
#completion, production, or financial decision or any procedure involving any risk to the 
#safety of any drilling venture, drilling rig or its crew or any other third party.  The 
#Customer has full responsibility for all drilling, completion and production operation.  
#Halliburton makes no representations or warranties, either expressed or 
#implied, including, but not limited to, the implied warranties of merchantability or fitness 
#for a particular purpose, with respect to the services rendered.  In no event will 
#Halliburton be liable for failure to obtain any particular results or for 
#any damages, including, but not limited to, indirect, special or consequential damages, 
#resulting from the use of any information or interpretation provided by Halliburton.
#
~A           TIME           GTDEPTH  GTPQH  GTTQ  GTTN  GTET   GTTVD  
# ...
   09:17:14.803.18-Jan-2020 3746.01 6391.38 81.74 3.00  23.00 2818.83
   09:17:15.003.18-Jan-2020 3746.01 6391.38 81.74 3.00  23.20 2818.83
   09:17:15.203.18-Jan-2020 3746.01 6393.14 81.73 3.00  23.40 2818.83
   09:17:15.403.18-Jan-2020 3746.01 6394.10 81.73 3.00  23.60 2818.83
   09:17:15.603.18-Jan-2020 3746.01 6393.02 81.73 3.00  23.80 2818.83
   09:17:15.803.18-Jan-2020 3746.01 6393.37 81.73 3.00  24.00 2818.83
   09:17:16.003.18-Jan-2020 3746.01 6393.37 81.73 3.00  24.20 2818.83
   09:17:16.203.18-Jan-2020 3746.01 6394.13 81.73 3.00  24.40 2818.83
   09:17:16.403.18-Jan-2020 3746.01 6395.38 81.73 3.00  24.60 2818.83
   09:17:16.603.18-Jan-2020 3746.01 6397.33 81.73 3.00  24.80 2818.83
   09:17:16.803.18-Jan-2020 3746.01 6397.56 81.73 3.00  25.00 2818.83
   09:17:17.003.18-Jan-2020 3746.01 6397.56 81.73 3.00  25.20 2818.83
   09:17:17.203.18-Jan-2020 3746.01 6393.48 81.73 3.00  25.40 2818.83
   09:17:17.403.18-Jan-2020 3746.01 6405.94 81.73 3.00  25.60 2818.83
   09:17:17.603.18-Jan-2020 3746.01 6394.44 81.73 3.00  25.80 2818.83
   09:17:17.803.18-Jan-2020 3746.01 6391.13 81.73 3.00  26.00 2818.83
   09:17:18.003.18-Jan-2020 3746.01 6391.13 81.73 3.00  26.20 2818.83
   09:17:18.203.18-Jan-2020 3746.01 6393.69 81.73 3.00  26.40 2818.83
   09:17:18.403.18-Jan-2020 3746.01 6394.24 81.73 3.00  26.60 2818.83
   09:17:18.603.18-Jan-2020 3746.01 6404.09 81.73 3.00  26.80 2818.83
   09:17:18.803.18-Jan-2020 3746.01 6394.96 81.72 3.00  27.00 2818.83
   09:17:19.003.18-Jan-2020 3746.01 6394.96 81.72 3.00  27.20 2818.83
   09:17:19.203.18-Jan-2020 3746.01 6399.30 81.72 3.00  27.40 2818.83
   09:17:19.403.18-Jan-2020 3746.01 6397.21 81.72 3.00  27.60 2818.83
   09:17:19.603.18-Jan-2020 3746.01 6405.61 81.72 3.00  27.80 2818.83
   09:17:19.803.18-Jan-2020 3746.01 6398.99 81.72 3.00  28.00 2818.83
   09:17:20.003.18-Jan-2020 3746.01 6398.99 81.72 3.00  28.20 2818.83
   09:17:20.204.18-Jan-2020 3746.01 6395.79 81.72 3.00  28.40 2818.83
   09:17:20.404.18-Jan-2020 3746.01 6399.26 81.72 3.00  28.60 2818.83
   09:17:20.604.18-Jan-2020 3746.01 6396.79 81.72 3.00  28.80 2818.83
   09:17:20.804.18-Jan-2020 3746.01 6397.31 81.72 3.00  29.00 2818.83
   09:17:21.004.18-Jan-2020 3746.01 6397.31 81.72 3.00  29.20 2818.83
   09:17:21.204.18-Jan-2020 3746.01 6396.49 81.72 3.00  29.41 2818.83
   09:17:21.404.18-Jan-2020 3746.01 6452.11 81.72 3.00  29.61 2818.83
   09:17:21.604.18-Jan-2020 3746.01 6509.88 81.72 3.00  29.81 2818.83
   09:17:21.804.18-Jan-2020 3746.01 6573.02 81.72 3.00  30.01 2818.83
   09:17:22.004.18-Jan-2020 3746.01 6573.02 81.72 3.00  30.21 2818.83
   09:17:22.204.18-Jan-2020 3746.01 6716.50 81.72 3.00  30.41 2818.83
   09:17:22.404.18-Jan-2020 3746.01 6695.60 81.72 3.00  30.61 2818.83
   09:17:22.604.18-Jan-2020 3746.01 6658.50 81.72 3.00  30.81 2818.83
   09:17:22.804.18-Jan-2020 3746.01 6631.30 81.71 3.00  31.01 2818.83
   09:17:23.004.18-Jan-2020 3746.01 6631.30 81.71 3.00  31.21 2818.83
   09:17:23.204.18-Jan-2020 3746.01 6588.45 81.71 3.00  31.41 2818.83
   09:17:23.404.18-Jan-2020 3746.01 6571.98 81.71 3.00  31.61 2818.83
   09:17:23.604.18-Jan-2020 3746.01 6568.36 81.71 3.00  31.81 2818.83
   09:17:23.804.18-Jan-2020 3746.01 6562.78 81.71 3.00  32.01 2818.83
   09:17:24.004.18-Jan-2020 3746.01 6562.78 81.71 3.00  32.21 2818.83
   09:17:24.204.18-Jan-2020 3746.01 6557.21 81.71 3.00  32.41 2818.83
   09:17:24.404.18-Jan-2020 3746.01 6530.51 81.71 3.00  32.61 2818.83
   09:17:24.604.18-Jan-2020 3746.01 6521.64 81.71 3.00  32.81 2818.83
   09:17:24.804.18-Jan-2020 3746.01 6509.30 81.71 3.00  33.01 2818.83
   09:17:25.004.18-Jan-2020 3746.01 6509.30 81.71 3.00  33.21 2818.83
   09:17:25.204.18-Jan-2020 3746.01 6495.34 81.71 3.00  33.41 2818.83
   09:17:25.404.18-Jan-2020 3746.01 6495.30 81.71 3.00  33.61 2818.83
   09:17:25.604.18-Jan-2020 3746.01 6496.39 81.71 3.00  33.81 2818.83
   09:17:25.804.18-Jan-2020 3746.01 6493.06 81.71 3.00  34.01 2818.83
   09:17:26.005.18-Jan-2020 3746.01 6493.06 81.71 3.00  34.21 2818.83
   09:17:26.205.18-Jan-2020 3746.01 6493.78 81.71 3.00  34.41 2818.83
   09:17:26.405.18-Jan-2020 3746.01 6493.33 81.71 3.00  34.61 2818.83
   09:17:26.605.18-Jan-2020 3746.01 6494.57 81.71 3.00  34.81 2818.83
   09:17:26.805.18-Jan-2020 3746.01 6500.28 81.71 3.00  35.01 2818.83
   09:17:27.005.18-Jan-2020 3746.01 6500.28 81.71 3.00  35.21 2818.83
   09:17:27.205.18-Jan-2020 3746.01 6499.06 81.71 3.00  35.41 2818.83
   09:17:27.405.18-Jan-2020 3746.01 6497.36 81.71 3.00  35.61 2818.83
   09:17:27.605.18-Jan-2020 3746.01 6497.84 81.70 3.00  35.81 2818.83
   09:17:27.805.18-Jan-2020 3746.01 6497.30 81.70 3.00  36.01 2818.83
   09:17:28.005.18-Jan-2020 3746.01 6497.30 81.70 3.00  36.21 2818.83
   09:17:28.205.18-Jan-2020 3746.01 6498.34 81.70 3.00  36.41 2818.83
   09:17:28.405.18-Jan-2020 3746.01 6500.98 81.70 3.00  36.61 2818.83
   09:17:28.605.18-Jan-2020 3746.01 6501.34 81.70 3.00  36.81 2818.83
   09:17:28.805.18-Jan-2020 3746.01 6501.95 81.70 3.00  37.01 2818.83
   09:17:29.005.18-Jan-2020 3746.01 6501.95 81.70 3.00  37.21 2818.83
   09:17:29.205.18-Jan-2020 3746.01 6501.72 81.70 3.00  37.41 2818.83
   09:17:29.405.18-Jan-2020 3746.01 6498.20 81.70 3.00  37.61 2818.83
   09:17:29.605.18-Jan-2020 3746.01 6319.64 81.70 3.00  37.81 2818.83
   09:17:29.805.18-Jan-2020 3746.01 5736.98 81.70 3.00  38.01 2818.83
   09:17:30.005.18-Jan-2020 3746.01 5736.98 81.70 3.00  38.21 2818.83
   09:17:30.205.18-Jan-2020 3746.01 4063.84 81.70 3.00  38.41 2818.83
   09:17:30.405.18-Jan-2020 3746.01 3441.27 81.70 3.00  38.61 2818.83
   09:17:30.605.18-Jan-2020 3746.01 3386.48 81.70 3.00  38.81 2818.83
   09:17:30.805.18-Jan-2020 3746.01 3521.57 81.69 3.00  39.01 2818.83
   09:17:31.005.18-Jan-2020 3746.01 3521.57 81.69 3.00  39.21 2818.83
   09:17:31.205.18-Jan-2020 3746.01 3583.79 81.69 3.00  39.41 2818.83
   09:17:31.405.18-Jan-2020 3746.01 3590.96 81.69 3.00  39.61 2818.83
   09:17:31.605.18-Jan-2020 3746.01 3601.58 81.69 3.00  39.81 2818.83
   09:17:31.805.18-Jan-2020 3746.01 3605.92 81.68 3.00  40.01 2818.83
   09:17:32.006.18-Jan-2020 3746.01 3605.92 81.68 3.00  40.21 2818.83
   09:17:32.206.18-Jan-2020 3746.01 3604.42 81.68 3.00  40.41 2818.83
   09:17:32.406.18-Jan-2020 3746.01 3617.54 81.68 3.00  40.61 2818.83
   09:17:32.606.18-Jan-2020 3746.01 3619.26 81.68 3.00  40.81 2818.83
   09:17:32.806.18-Jan-2020 3746.01 3634.12 81.67 3.00  41.01 2818.83
   09:17:33.006.18-Jan-2020 3746.01 3634.12 81.67 3.00  41.21 2818.83
   09:17:33.206.18-Jan-2020 3746.01 3630.77 81.67 3.00  41.41 2818.83
   09:17:33.406.18-Jan-2020 3746.01 3636.05 81.67 3.00  41.61 2818.83
   09:17:33.606.18-Jan-2020 3746.01 3631.45 81.66 3.00  41.81 2818.83
   09:17:33.806.18-Jan-2020 3746.01 3623.23 81.66 3.00  42.01 2818.83
   09:17:34.006.18-Jan-2020 3746.01 3623.23 81.66 3.00  42.21 2818.83
   09:17:34.206.18-Jan-2020 3746.01 3623.50 81.66 3.00  42.41 2818.83
   09:17:34.406.18-Jan-2020 3746.01 3624.64 81.65 3.00  42.61 2818.83
   09:17:34.606.18-Jan-2020 3746.01 3623.79 81.65 3.00  42.81 2818.83
   09:17:34.806.18-Jan-2020 3746.01 3631.23 81.65 3.00  43.01 2818.83
   09:17:35.006.18-Jan-2020 3746.01 3631.23 81.65 3.00  43.21 2818.83
   09:17:35.206.18-Jan-2020 3746.01 3664.45 81.64 3.00  43.41 2818.83
   09:17:35.406.18-Jan-2020 3746.01 3634.15 81.64 3.00  43.61 2818.83
   09:17:35.606.18-Jan-2020 3746.01 3630.90 81.64 3.00  43.81 2818.83
   09:17:35.806.18-Jan-2020 3746.01 3623.23 81.64 3.00  44.01 2818.83
   09:17:36.006.18-Jan-2020 3746.01 3623.23 81.64 3.00  44.21 2818.83
   09:17:36.206.18-Jan-2020 3746.01 3621.10 81.64 3.00  44.41 2818.83
   09:17:36.406.18-Jan-2020 3746.01 3622.73 81.63 3.00  44.61 2818.83
   09:17:36.606.18-Jan-2020 3746.01 3624.60 81.63 3.00  44.81 2818.83
   09:17:36.806.18-Jan-2020 3746.01 3622.48 81.63 3.00  45.01 2818.83
   09:17:37.006.18-Jan-2020 3746.01 3622.48 81.63 3.00  45.21 2818.83
   09:17:37.206.18-Jan-2020 3746.01 3625.09 81.63 3.00  45.41 2818.83
   09:17:37.406.18-Jan-2020 3746.01 3625.48 81.62 3.00  45.61 2818.83
   09:17:37.606.18-Jan-2020 3746.01 3635.71 81.62 3.00  45.81 2818.83
