~Version Information
 VERS.                  2.0:   CWLS log ASCII Standard -VERSION 2.0
 WRAP.                   NO:   One line per depth step
~Well Information Block
#MNEM.UNIT     VALUE/NAME     DESCRIPTION
#---------     -----------    ---------------------------
 STRT.S             09:16:51 18-Jan-20: START TIME 09:16:51 18-Jan-20
 STOP.S             09:25:06 18-Jan-20: STOP TIME  09:25:06 18-Jan-20
 STEP.S                   0.00: STEP TIME
 NULL.                 -999.25: NULL VALUE
 DFWT.                        :  DIST FWL TEXT
 DFST.                        :  DIST FSL TEXT
 DMF .             Drill Floor:  DRILL MEAS FROM
 STIM.      09.30.00 26-Dec-19:  START TIME
 DATE.      08.00.00 20-Jan-20:  END TIME
 SPUD.               23-Nov-19:  SPUD DATE
 NREF.                    Grid:  NORTH REFERENCE
 HPTY.       Minimum Curvature:  HOLE POS TYPE
 DMOD.             Drill Model:  DRILL MOD DESC
 SVYD.                  Survey:  SURVEY DESC
 ILTD.               Lithology:  INTERP LTH DESC
 FTOP.          Formation Tops:  FORM TOPS DESC
 SON .        AZ-XX-0906192647:  JOB NUMBER
 WTYP.                Deviated:  WELL TYPE
 COMP.     BP Exploration (Caspian Sea) Ltd:  COMPANY
 BASE.              Azerbaijan:  LOGGING EQUIPMENT BASE LOCATION
 REGN.                 Eurasia:  REGION
 FLD .                     ACG:  FIELD NAME
 SRVC.              KCA Deutag:  CONTRACTOR
 MWDS.                    Baku:  MWD SHOP
 WELL.     A10 (Slot 20) - SCP:  WELL NAME
 JOBN.        AZ-XX-0906192647:  JOB TICKET NUMB
 RIG .                 Chirag1:  RIG NAME
 DCON.     Halliburton Sperry Drilling:  DIRECTNL CONTR
 UNIT.                     N/A:  LOGGING EQUIPMENT ID
 PDAT.          Mean Sea Level:  PERMANENT DATUM
 MDS .        Operator Entered:  MAG DATA SOURCE
 CTRY.              Azerbaijan:  COUNTRY NAME
 UWI .            /AZE00000090:  UNIQUE WELL IDENTIFIER
 API .            /AZE00000090:  API NUMBER
 CNTY.                        :  COUNTY
 PROV.                        :  PROVINCE
 STAT.                        :  STATE
 LOC .                        :  LOCATION
 LMF .             Drill Floor:  LOG MEASURED FROM
 TVDS.m                  36.60:  TVDSS CORRECTN
 LATI.deg                40.08:  LATITUDE
 LONG.deg                51.24:  LONGITUDE
 WHNS.m                  -7.94:  WELL HEAD N/S
 WHEW.m                   1.56:  WELL HEAD E/W
 UTMX.m              520429.26:  UTM X
 UTMY.m             4438973.87:  UTM Y
 DFWL.m                   0.00:  DISTANCE FWL
 DFSL.m                   0.00:  DISTANCE FSL
 SDEP.m                1455.00:  START DEPTH
 TDD .m                3878.01:  TOTAL DEPTH (DRILLER)
 VSDR.deg               112.75:  VERT SEC DIRECT
 GVFD.g                   1.00:  GRAVITY FIELD
 MFLD.nT              50256.00:  MAGNETIC FIELD
 MDIP.deg                59.52:  MAGNETIC DIP
 MDEC.deg                 6.43:  MAGNETIC DECL
 GRDC.deg                 0.16:  GRID CORRECTION
 AZTC.deg                 6.27:  AZM TOTAL CORR
 EPD .m                   0.00:  ELEVATION
 EGL .m                   0.00:  GROUND ELEVATION
 WDMS.m                 121.00:  WD ELEV
 APD .m                  36.60:  DEPTH ABOVE PD
 AGAP.m                  36.60:  AIR GAP
 VSEW.m                   1.56:  VERT SEC E/W
 VSNS.m                  -7.94:  VERT SEC N/S
 DEP .m                1140.01:  DEPTH
 EKB .m                  36.60:  KB ELEVATION
 EDF .m                  36.60:  DF ELEVATION
 TDL .m                1293.00:  TOTAL DEPTH (LOGGER)
 VSC .                       0:  VS TO CLOSURE
 MAGU.                 1849164:  MAGUTM CHECKSUM
~Parameter Information Block
#MNEM.UNIT       Value        Description
#---------     -----------    ---------------------------
 AV  .mps                 2.40:  Ann Velocity 
 AVMX.mps                 2.55:  Max Ann Veloc 
 AZIF.deg               134.35:  Azm, Final 
 BHAT.        Rotary Steerable:  BHA Type 
 BREV.rev               847.00:  Rev Bit Total 
 BROT.°/30m              -2.51:  Build Rotating 
 BS  .in                  8.50:  Bit Size 
 BSZ .in                  8.50:  Bit Size 
 BTPL.psig              700.00:  Bit Press Loss 
 CABU.                     Yes:  Customer Abuse 
 CGEO.          Ilgar Gurbanov:  Customer Geo 
 COMM.                     Áo:  Run Comments 1 
 TCS .hr                140.40:  Time Ciculation Ended 
 CV  .mps                 2.27:  Crit Velocity 
 CVMX.mps                 2.45:  Max Crit Veloc 
 DD1 .         Intigam Rahimov:  Direct Drillr 1 
 DD2 .         Rasim Ibrahimov:  Direct Drillr 2 
 DDSV.                 iCruise:  DD Service 
 DEFF.%                  99.00:  % Det Eff 
 DLRX.°/30m               3.28:  Dogleg Rot Max 
 DLSO.°/30m               0.00:  Dogleg Oriented 
 DLSX.°/30m               0.00:  Dogleg Str Max 
 DRET.      23.30.00 18-Jan-20:  Drill End Time 
 DRST.      01.45.00 11-Jan-20:  Drill Start Tim 
 DTIM.hr                 94.00:  Time Drilling 
 EDEP.m                3878.01:  End Depth 
 ENG1.       Dauren Baktybayev:  Engineer 1 
 ENG2.      Natik Hasanaghayev:  Engineer 2 
 ENG3.          Rustam Safarov:  Engineer 3 
 ETIM.      08.00.00 20-Jan-20:  End Time 
 FLOI.gpm               532.00:  Flow In 
 FLON.gpm               500.00:  Flow In Min 
 FLOS.cptm                0.00:  Fluid Loss 
 FLOX.gpm               540.00:  Flow In Max 
 FTRO.       Formation Presure:  FTWD Run Obj 
 HPRE.                     Yes:  High Pressure 
 HTEM.                      No:  High Temp 
 HYDO.m                   1.80:  Hydro Offset 
 IFIN.deg                39.86:  Inc, Final 
 IMAX.deg                59.73:  Inc Max 
 IMIN.deg                39.25:  Inc Min 
 IMND.m                3816.77:  Inc Min Depth 
 IMXD.m                2596.33:  Inc Max Depth 
 JARR.                      No:  Jarring 
 LETM.      23.30.00 18-Jan-20:  Log End Time 
 LOST.hr                     0:  Lost Rig Time 
 LSTM.      01.45.00 11-Jan-20:  Log Start Time 
 MDCL.ppm             41500.00:  Mud Chlorides 
 MDES.     Inversion Oil/Synthetic:  Mud Desc 
 DFD .sg                  1.48:  Mud Density 
 MDMN.sg                  1.48:  Dens Mud Min 
 MDMX.sg                  1.48:  Dens Mud Max 
 MOIL.                      54:  Run Mud Oil % 
 MOWR.                   72:28:  Run Mud OWR 
 MSND.                       0:  Run Mud Sand % 
 MSOL.                      23:  Run Mud Solids% 
 DFV .spqt               86.00:  Mud Viscosity 
 MWOD.in                  6.75:  MWD Tool OD 
 MWSI.                      No:  Serv Intrp, MWD 
 OTIM.hr                223.40:  Time Operating 
 PCON.           Look Like New:  Pad Condition 
 PMAX.psia            32446.79:  Press Op, Max 
 PV  .cP                 49.00:  Mud PV 
 RUN .                     200:  Run Number 
 ROPA.m/hr               12.48:  ROP Avg 
 ROPN.m/hr                8.00:  ROP Min 
 ROPX.m/hr               27.00:  ROP Max 
 RPMA.rpm               121.00:  RPM Surface Avg 
 RPMN.rpm                60.00:  RPM Surface Min 
 RPMX.rpm               140.00:  RPM Surface Max 
 RRUN.                    L202:  Rig Run Number 
 RTIM.hr                  7.25:  Time Reaming 
 SAZI.deg               123.49:  Azm, Start 
 SDEP.m                2585.01:  Start Depth 
 SIDD.                      No:  Serv Intrp, DD 
 SINC.deg                59.93:  Inc, Start 
 SPPA.psig             3539.00:  SPP Avg 
 SPPN.psig             3050.00:  SPP Min 
 SPPX.psig             3950.00:  SPP Max 
 STIM.      19.00.00 10-Jan-20:  Start Time 
 SVCS.                 DD, MWD:  Services 
 SVER.                    9.20:  Sperry Version 
 TDAT.m                1293.00:  Tot Depth Attmp 
 TDDF.                      No:  Trip for DD 
 TDLG.m                1293.00:  Tot Depth Loggd 
 TFF .                      No:  Trip for Fail 
 TQAA.f-kp               16.00:  Torque Abs Avg 
 TQAN.f-kp               11.00:  Torque Abs Min 
 TQAX.f-kp               18.00:  Torque Abs Max 
 TRRT.°/30m               1.25:  Turn Rotating 
 MRT .                  EWR-M5:  Maximum Recorded Temperature 
 TTMX.degC               84.00:  Max Tool Temp 
 VS01.          AZ90514619R5C6:  Virtual Str1 SN 
 VS02.        AZ90552592N2L2C6:  Virtual Str2 SN 
 VS03.        AZ90571337Z1W1C6:  Virtual Str3 SN 
 VS04.         AZ90513690K23C6:  Virtual Str4 SN 
 VS05.           AZ90594857F11:  Virtual Str5 SN 
 VS06.                13102166:  Virtual Str6 SN 
 WBMN.klb                 7.00:  WOB Min 
 WITN.            Peter Wilson:  Customer Rep 
 WOBA.klb                 9.95:  WOB Avg 
 WOBX.klb                10.00:  WOB Max 
 YP  .lhf2               36.00:  Yield Point 
~Curve Information Block
#MNEM.UNIT                 API CODE     Curve Description
#---------               -----------    ---------------------------
 TIME.HHMMSS            00 000 000 000:  GT Time & Date
 GTDEPTH.m              00 000 000 000:  GT Depth
 GTPQH.psia             00 000 000 000:  GT HR Quartz Pressure
 GTTQ.degC              00 000 000 000:  GT Quartz Temperature
 GTTN.NONE              00 000 000 000:  GT Test Number
 GTET.sec               00 000 000 000:  GT Elapsed Test Time
 GTTVD.m                00 000 000 000:  GT True Vertical Depth
#Other Information
#
#WARRANTY: Halliburton will use its best efforts to furnish customers with 
#accurate information and interpretations that are part of, and incident to, the services 
#provided.  However, Halliburton cannot and does not warrant the accuracy 
#or correctness of such information and interpretations.  Under no circumstances should any 
#such information or interpretation be relied upon as the sole basis for any drilling, 
#completion, production, or financial decision or any procedure involving any risk to the 
#safety of any drilling venture, drilling rig or its crew or any other third party.  The 
#Customer has full responsibility for all drilling, completion and production operation.  
#Halliburton makes no representations or warranties, either expressed or 
#implied, including, but not limited to, the implied warranties of merchantability or fitness 
#for a particular purpose, with respect to the services rendered.  In no event will 
#Halliburton be liable for failure to obtain any particular results or for 
#any damages, including, but not limited to, indirect, special or consequential damages, 
#resulting from the use of any information or interpretation provided by Halliburton.
#
~A           TIME           GTDEPTH  GTPQH  GTTQ  GTTN  GTET   GTTVD  
   09:16:51.799.18-Jan-2020 3746.01 6361.71 81.79 3.00   0.00 2818.83
   09:16:51.999.18-Jan-2020 3746.01 6361.71 81.79 3.00   0.20 2818.83
   09:16:52.199.18-Jan-2020 3746.01 6362.99 81.79 3.00   0.40 2818.83
   09:16:52.399.18-Jan-2020 3746.01 6366.42 81.79 3.00   0.60 2818.83
   09:16:52.599.18-Jan-2020 3746.01 6378.63 81.79 3.00   0.80 2818.83
   09:16:52.799.18-Jan-2020 3746.01 6365.97 81.79 3.00   1.00 2818.83
   09:16:52.999.18-Jan-2020 3746.01 6365.97 81.79 3.00   1.20 2818.83
   09:16:53.199.18-Jan-2020 3746.01 6384.92 81.79 3.00   1.40 2818.83
   09:16:53.399.18-Jan-2020 3746.01 6371.93 81.79 3.00   1.60 2818.83
   09:16:53.599.18-Jan-2020 3746.01 6369.41 81.79 3.00   1.80 2818.83
   09:16:53.799.18-Jan-2020 3746.01 6372.92 81.79 3.00   2.00 2818.83
   09:16:53.999.18-Jan-2020 3746.01 6372.92 81.79 3.00   2.20 2818.83
   09:16:54.199.18-Jan-2020 3746.01 6376.84 81.79 3.00   2.40 2818.83
   09:16:54.399.18-Jan-2020 3746.01 6370.03 81.79 3.00   2.60 2818.83
   09:16:54.599.18-Jan-2020 3746.01 6369.06 81.79 3.00   2.80 2818.83
   09:16:54.799.18-Jan-2020 3746.01 6369.98 81.79 3.00   3.00 2818.83
   09:16:54.999.18-Jan-2020 3746.01 6369.98 81.79 3.00   3.20 2818.83
   09:16:55.199.18-Jan-2020 3746.01 6369.86 81.79 3.00   3.40 2818.83
   09:16:55.399.18-Jan-2020 3746.01 6372.77 81.79 3.00   3.60 2818.83
   09:16:55.599.18-Jan-2020 3746.01 6380.20 81.78 3.00   3.80 2818.83
   09:16:55.799.18-Jan-2020 3746.01 6376.29 81.78 3.00   4.00 2818.83
   09:16:55.999.18-Jan-2020 3746.01 6376.29 81.78 3.00   4.20 2818.83
   09:16:56.199.18-Jan-2020 3746.01 6375.83 81.78 3.00   4.40 2818.83
   09:16:56.399.18-Jan-2020 3746.01 6375.44 81.78 3.00   4.60 2818.83
   09:16:56.600.18-Jan-2020 3746.01 6385.57 81.78 3.00   4.80 2818.83
   09:16:56.800.18-Jan-2020 3746.01 6374.70 81.78 3.00   5.00 2818.83
   09:16:57.000.18-Jan-2020 3746.01 6374.70 81.78 3.00   5.20 2818.83
   09:16:57.200.18-Jan-2020 3746.01 6376.95 81.78 3.00   5.40 2818.83
   09:16:57.400.18-Jan-2020 3746.01 6373.60 81.78 3.00   5.60 2818.83
   09:16:57.600.18-Jan-2020 3746.01 6374.71 81.78 3.00   5.80 2818.83
   09:16:57.800.18-Jan-2020 3746.01 6382.15 81.78 3.00   6.00 2818.83
   09:16:58.000.18-Jan-2020 3746.01 6382.15 81.78 3.00   6.20 2818.83
   09:16:58.200.18-Jan-2020 3746.01 6374.92 81.78 3.00   6.40 2818.83
   09:16:58.400.18-Jan-2020 3746.01 6382.21 81.78 3.00   6.60 2818.83
   09:16:58.600.18-Jan-2020 3746.01 6380.34 81.78 3.00   6.80 2818.83
   09:16:58.800.18-Jan-2020 3746.01 6377.17 81.78 3.00   7.00 2818.83
   09:16:59.000.18-Jan-2020 3746.01 6377.17 81.78 3.00   7.20 2818.83
   09:16:59.200.18-Jan-2020 3746.01 6383.72 81.78 3.00   7.40 2818.83
   09:16:59.400.18-Jan-2020 3746.01 6380.79 81.77 3.00   7.60 2818.83
   09:16:59.600.18-Jan-2020 3746.01 6378.17 81.77 3.00   7.80 2818.83
   09:16:59.800.18-Jan-2020 3746.01 6380.54 81.77 3.00   8.00 2818.83
   09:17:00.000.18-Jan-2020 3746.01 6380.54 81.77 3.00   8.20 2818.83
   09:17:00.200.18-Jan-2020 3746.01 6380.06 81.77 3.00   8.40 2818.83
   09:17:00.400.18-Jan-2020 3746.01 6378.82 81.77 3.00   8.60 2818.83
   09:17:00.600.18-Jan-2020 3746.01 6380.72 81.77 3.00   8.80 2818.83
   09:17:00.800.18-Jan-2020 3746.01 6381.95 81.77 3.00   9.00 2818.83
   09:17:01.000.18-Jan-2020 3746.01 6381.95 81.77 3.00   9.20 2818.83
   09:17:01.200.18-Jan-2020 3746.01 6379.91 81.77 3.00   9.40 2818.83
   09:17:01.400.18-Jan-2020 3746.01 6382.13 81.77 3.00   9.60 2818.83
   09:17:01.600.18-Jan-2020 3746.01 6380.01 81.77 3.00   9.80 2818.83
   09:17:01.800.18-Jan-2020 3746.01 6379.09 81.77 3.00  10.00 2818.83
   09:17:02.000.18-Jan-2020 3746.01 6379.09 81.77 3.00  10.20 2818.83
   09:17:02.200.18-Jan-2020 3746.01 6382.13 81.77 3.00  10.40 2818.83
   09:17:02.400.18-Jan-2020 3746.01 6381.23 81.77 3.00  10.60 2818.83
   09:17:02.601.18-Jan-2020 3746.01 6387.63 81.77 3.00  10.80 2818.83
   09:17:02.801.18-Jan-2020 3746.01 6383.55 81.77 3.00  11.00 2818.83
   09:17:03.001.18-Jan-2020 3746.01 6383.55 81.77 3.00  11.20 2818.83
   09:17:03.201.18-Jan-2020 3746.01 6382.14 81.77 3.00  11.40 2818.83
   09:17:03.401.18-Jan-2020 3746.01 6380.68 81.76 3.00  11.60 2818.83
   09:17:03.601.18-Jan-2020 3746.01 6380.72 81.76 3.00  11.80 2818.83
   09:17:03.801.18-Jan-2020 3746.01 6381.20 81.76 3.00  12.00 2818.83
   09:17:04.001.18-Jan-2020 3746.01 6381.20 81.76 3.00  12.20 2818.83
   09:17:04.201.18-Jan-2020 3746.01 6381.24 81.76 3.00  12.40 2818.83
   09:17:04.401.18-Jan-2020 3746.01 6381.73 81.76 3.00  12.60 2818.83
   09:17:04.601.18-Jan-2020 3746.01 6382.05 81.76 3.00  12.80 2818.83
   09:17:04.801.18-Jan-2020 3746.01 6380.68 81.76 3.00  13.00 2818.83
   09:17:05.001.18-Jan-2020 3746.01 6380.68 81.76 3.00  13.20 2818.83
   09:17:05.201.18-Jan-2020 3746.01 6383.71 81.76 3.00  13.40 2818.83
   09:17:05.401.18-Jan-2020 3746.01 6385.35 81.76 3.00  13.60 2818.83
   09:17:05.601.18-Jan-2020 3746.01 6386.14 81.76 3.00  13.80 2818.83
   09:17:05.801.18-Jan-2020 3746.01 6394.06 81.76 3.00  14.00 2818.83
   09:17:06.001.18-Jan-2020 3746.01 6394.06 81.76 3.00  14.20 2818.83
   09:17:06.201.18-Jan-2020 3746.01 6384.22 81.76 3.00  14.40 2818.83
   09:17:06.401.18-Jan-2020 3746.01 6386.75 81.76 3.00  14.60 2818.83
   09:17:06.601.18-Jan-2020 3746.01 6384.32 81.76 3.00  14.80 2818.83
   09:17:06.801.18-Jan-2020 3746.01 6394.90 81.76 3.00  15.00 2818.83
   09:17:07.001.18-Jan-2020 3746.01 6394.90 81.76 3.00  15.20 2818.83
   09:17:07.201.18-Jan-2020 3746.01 6382.86 81.75 3.00  15.40 2818.83
   09:17:07.401.18-Jan-2020 3746.01 6385.87 81.75 3.00  15.60 2818.83
   09:17:07.601.18-Jan-2020 3746.01 6383.89 81.75 3.00  15.80 2818.83
   09:17:07.801.18-Jan-2020 3746.01 6392.52 81.75 3.00  16.00 2818.83
   09:17:08.001.18-Jan-2020 3746.01 6392.52 81.75 3.00  16.20 2818.83
   09:17:08.201.18-Jan-2020 3746.01 6387.65 81.75 3.00  16.40 2818.83
   09:17:08.402.18-Jan-2020 3746.01 6388.19 81.75 3.00  16.60 2818.83
   09:17:08.602.18-Jan-2020 3746.01 6387.57 81.75 3.00  16.80 2818.83
   09:17:08.802.18-Jan-2020 3746.01 6398.46 81.75 3.00  17.00 2818.83
   09:17:09.002.18-Jan-2020 3746.01 6398.46 81.75 3.00  17.20 2818.83
   09:17:09.202.18-Jan-2020 3746.01 6388.14 81.75 3.00  17.40 2818.83
   09:17:09.402.18-Jan-2020 3746.01 6393.98 81.75 3.00  17.60 2818.83
   09:17:09.602.18-Jan-2020 3746.01 6393.26 81.75 3.00  17.80 2818.83
   09:17:09.802.18-Jan-2020 3746.01 6390.97 81.75 3.00  18.00 2818.83
   09:17:10.002.18-Jan-2020 3746.01 6390.97 81.75 3.00  18.20 2818.83
   09:17:10.202.18-Jan-2020 3746.01 6395.79 81.75 3.00  18.40 2818.83
   09:17:10.402.18-Jan-2020 3746.01 6390.15 81.75 3.00  18.60 2818.83
   09:17:10.602.18-Jan-2020 3746.01 6388.17 81.75 3.00  18.80 2818.83
   09:17:10.802.18-Jan-2020 3746.01 6392.41 81.75 3.00  19.00 2818.83
   09:17:11.002.18-Jan-2020 3746.01 6392.41 81.75 3.00  19.20 2818.83
   09:17:11.202.18-Jan-2020 3746.01 6388.67 81.74 3.00  19.40 2818.83
   09:17:11.402.18-Jan-2020 3746.01 6389.55 81.74 3.00  19.60 2818.83
   09:17:11.602.18-Jan-2020 3746.01 6391.76 81.74 3.00  19.80 2818.83
   09:17:11.802.18-Jan-2020 3746.01 6393.92 81.74 3.00  20.00 2818.83
   09:17:12.002.18-Jan-2020 3746.01 6393.92 81.74 3.00  20.20 2818.83
   09:17:12.202.18-Jan-2020 3746.01 6391.31 81.74 3.00  20.40 2818.83
   09:17:12.402.18-Jan-2020 3746.01 6394.94 81.74 3.00  20.60 2818.83
   09:17:12.602.18-Jan-2020 3746.01 6392.96 81.74 3.00  20.80 2818.83
   09:17:12.802.18-Jan-2020 3746.01 6391.40 81.74 3.00  21.00 2818.83
   09:17:13.002.18-Jan-2020 3746.01 6391.40 81.74 3.00  21.20 2818.83
   09:17:13.202.18-Jan-2020 3746.01 6396.23 81.74 3.00  21.40 2818.83
   09:17:13.402.18-Jan-2020 3746.01 6393.99 81.74 3.00  21.60 2818.83
   09:17:13.602.18-Jan-2020 3746.01 6392.36 81.74 3.00  21.80 2818.83
   09:17:13.802.18-Jan-2020 3746.01 6400.04 81.74 3.00  22.00 2818.83
   09:17:14.002.18-Jan-2020 3746.01 6400.04 81.74 3.00  22.20 2818.83
   09:17:14.202.18-Jan-2020 3746.01 6391.54 81.74 3.00  22.40 2818.83
   09:17:14.403.18-Jan-2020 3746.01 6392.73 81.74 3.00  22.60 2818.83
   09:17:14.603.18-Jan-2020 3746.01 6392.46 81.74 3.00  22.80 2818.83
