~Version Information
 VERS.                  2.0:   CWLS log ASCII Standard -VERSION 2.0
 WRAP.                   NO:   One line per depth step
~Well Information Block
#MNEM.UNIT     VALUE/NAME     DESCRIPTION
#---------     -----------    ---------------------------
 STRT.S             09:16:51 18-Jan-20: START TIME 09:16:51 18-Jan-20
 STOP.S             09:25:06 18-Jan-20: STOP TIME  09:25:06 18-Jan-20
 STEP.S                   0.00: STEP TIME
 NULL.                 -999.25: NULL VALUE
 DFWT.                        :  DIST FWL TEXT
 DFST.                        :  DIST FSL TEXT
 DMF .             Drill Floor:  DRILL MEAS FROM
 STIM.      09.30.00 26-Dec-19:  START TIME
 DATE.      08.00.00 20-Jan-20:  END TIME
 SPUD.               23-Nov-19:  SPUD DATE
 NREF.                    Grid:  NORTH REFERENCE
 HPTY.       Minimum Curvature:  HOLE POS TYPE
 DMOD.             Drill Model:  DRILL MOD DESC
 SVYD.                  Survey:  SURVEY DESC
 ILTD.               Lithology:  INTERP LTH DESC
 FTOP.          Formation Tops:  FORM TOPS DESC
 SON .        AZ-XX-0906192647:  JOB NUMBER
 WTYP.                Deviated:  WELL TYPE
 COMP.     BP Exploration (Caspian Sea) Ltd:  COMPANY
 BASE.              Azerbaijan:  LOGGING EQUIPMENT BASE LOCATION
 REGN.                 Eurasia:  REGION
 FLD .                     ACG:  FIELD NAME
 SRVC.              KCA Deutag:  CONTRACTOR
 MWDS.                    Baku:  MWD SHOP
 WELL.     A10 (Slot 20) - SCP:  WELL NAME
 JOBN.        AZ-XX-0906192647:  JOB TICKET NUMB
 RIG .                 Chirag1:  RIG NAME
 DCON.     Halliburton Sperry Drilling:  DIRECTNL CONTR
 UNIT.                     N/A:  LOGGING EQUIPMENT ID
 PDAT.          Mean Sea Level:  PERMANENT DATUM
 MDS .        Operator Entered:  MAG DATA SOURCE
 CTRY.              Azerbaijan:  COUNTRY NAME
 UWI .            /AZE00000090:  UNIQUE WELL IDENTIFIER
 API .            /AZE00000090:  API NUMBER
 CNTY.                        :  COUNTY
 PROV.                        :  PROVINCE
 STAT.                        :  STATE
 LOC .                        :  LOCATION
 LMF .             Drill Floor:  LOG MEASURED FROM
 TVDS.m                  36.60:  TVDSS CORRECTN
 LATI.deg                40.08:  LATITUDE
 LONG.deg                51.24:  LONGITUDE
 WHNS.m                  -7.94:  WELL HEAD N/S
 WHEW.m                   1.56:  WELL HEAD E/W
 UTMX.m              520429.26:  UTM X
 UTMY.m             4438973.87:  UTM Y
 DFWL.m                   0.00:  DISTANCE FWL
 DFSL.m                   0.00:  DISTANCE FSL
 SDEP.m                1455.00:  START DEPTH
 TDD .m                3878.01:  TOTAL DEPTH (DRILLER)
 VSDR.deg               112.75:  VERT SEC DIRECT
 GVFD.g                   1.00:  GRAVITY FIELD
 MFLD.nT              50256.00:  MAGNETIC FIELD
 MDIP.deg                59.52:  MAGNETIC DIP
 MDEC.deg                 6.43:  MAGNETIC DECL
 GRDC.deg                 0.16:  GRID CORRECTION
 AZTC.deg                 6.27:  AZM TOTAL CORR
 EPD .m                   0.00:  ELEVATION
 EGL .m                   0.00:  GROUND ELEVATION
 WDMS.m                 121.00:  WD ELEV
 APD .m                  36.60:  DEPTH ABOVE PD
 AGAP.m                  36.60:  AIR GAP
 VSEW.m                   1.56:  VERT SEC E/W
 VSNS.m                  -7.94:  VERT SEC N/S
 DEP .m                1140.01:  DEPTH
 EKB .m                  36.60:  KB ELEVATION
 EDF .m                  36.60:  DF ELEVATION
 TDL .m                1293.00:  TOTAL DEPTH (LOGGER)
 VSC .                       0:  VS TO CLOSURE
 MAGU.                 1849164:  MAGUTM CHECKSUM
~Parameter Information Block
#MNEM.UNIT       Value        Description
#---------     -----------    ---------------------------
 AV  .mps                 2.40:  Ann Velocity 
 AVMX.mps                 2.55:  Max Ann Veloc 
 AZIF.deg               134.35:  Azm, Final 
 BHAT.        Rotary Steerable:  BHA Type 
 BREV.rev               847.00:  Rev Bit Total 
 BROT.°/30m              -2.51:  Build Rotating 
 BS  .in                  8.50:  Bit Size 
 BSZ .in                  8.50:  Bit Size 
 BTPL.psig              700.00:  Bit Press Loss 
 CABU.                     Yes:  Customer Abuse 
 CGEO.          Ilgar Gurbanov:  Customer Geo 
 COMM.                     Áo:  Run Comments 1 
 TCS .hr                140.40:  Time Ciculation Ended 
 CV  .mps                 2.27:  Crit Velocity 
 CVMX.mps                 2.45:  Max Crit Veloc 
 DD1 .         Intigam Rahimov:  Direct Drillr 1 
 DD2 .         Rasim Ibrahimov:  Direct Drillr 2 
 DDSV.                 iCruise:  DD Service 
 DEFF.%                  99.00:  % Det Eff 
 DLRX.°/30m               3.28:  Dogleg Rot Max 
 DLSO.°/30m               0.00:  Dogleg Oriented 
 DLSX.°/30m               0.00:  Dogleg Str Max 
 DRET.      23.30.00 18-Jan-20:  Drill End Time 
 DRST.      01.45.00 11-Jan-20:  Drill Start Tim 
 DTIM.hr                 94.00:  Time Drilling 
 EDEP.m                3878.01:  End Depth 
 ENG1.       Dauren Baktybayev:  Engineer 1 
 ENG2.      Natik Hasanaghayev:  Engineer 2 
 ENG3.          Rustam Safarov:  Engineer 3 
 ETIM.      08.00.00 20-Jan-20:  End Time 
 FLOI.gpm               532.00:  Flow In 
 FLON.gpm               500.00:  Flow In Min 
 FLOS.cptm                0.00:  Fluid Loss 
 FLOX.gpm               540.00:  Flow In Max 
 FTRO.       Formation Presure:  FTWD Run Obj 
 HPRE.                     Yes:  High Pressure 
 HTEM.                      No:  High Temp 
 HYDO.m                   1.80:  Hydro Offset 
 IFIN.deg                39.86:  Inc, Final 
 IMAX.deg                59.73:  Inc Max 
 IMIN.deg                39.25:  Inc Min 
 IMND.m                3816.77:  Inc Min Depth 
 IMXD.m                2596.33:  Inc Max Depth 
 JARR.                      No:  Jarring 
 LETM.      23.30.00 18-Jan-20:  Log End Time 
 LOST.hr                     0:  Lost Rig Time 
 LSTM.      01.45.00 11-Jan-20:  Log Start Time 
 MDCL.ppm             41500.00:  Mud Chlorides 
 MDES.     Inversion Oil/Synthetic:  Mud Desc 
 DFD .sg                  1.48:  Mud Density 
 MDMN.sg                  1.48:  Dens Mud Min 
 MDMX.sg                  1.48:  Dens Mud Max 
 MOIL.                      54:  Run Mud Oil % 
 MOWR.                   72:28:  Run Mud OWR 
 MSND.                       0:  Run Mud Sand % 
 MSOL.                      23:  Run Mud Solids% 
 DFV .spqt               86.00:  Mud Viscosity 
 MWOD.in                  6.75:  MWD Tool OD 
 MWSI.                      No:  Serv Intrp, MWD 
 OTIM.hr                223.40:  Time Operating 
 PCON.           Look Like New:  Pad Condition 
 PMAX.psia            32446.79:  Press Op, Max 
 PV  .cP                 49.00:  Mud PV 
 RUN .                     200:  Run Number 
 ROPA.m/hr               12.48:  ROP Avg 
 ROPN.m/hr                8.00:  ROP Min 
 ROPX.m/hr               27.00:  ROP Max 
 RPMA.rpm               121.00:  RPM Surface Avg 
 RPMN.rpm                60.00:  RPM Surface Min 
 RPMX.rpm               140.00:  RPM Surface Max 
 RRUN.                    L202:  Rig Run Number 
 RTIM.hr                  7.25:  Time Reaming 
 SAZI.deg               123.49:  Azm, Start 
 SDEP.m                2585.01:  Start Depth 
 SIDD.                      No:  Serv Intrp, DD 
 SINC.deg                59.93:  Inc, Start 
 SPPA.psig             3539.00:  SPP Avg 
 SPPN.psig             3050.00:  SPP Min 
 SPPX.psig             3950.00:  SPP Max 
 STIM.      19.00.00 10-Jan-20:  Start Time 
 SVCS.                 DD, MWD:  Services 
 SVER.                    9.20:  Sperry Version 
 TDAT.m                1293.00:  Tot Depth Attmp 
 TDDF.                      No:  Trip for DD 
 TDLG.m                1293.00:  Tot Depth Loggd 
 TFF .                      No:  Trip for Fail 
 TQAA.f-kp               16.00:  Torque Abs Avg 
 TQAN.f-kp               11.00:  Torque Abs Min 
 TQAX.f-kp               18.00:  Torque Abs Max 
 TRRT.°/30m               1.25:  Turn Rotating 
 MRT .                  EWR-M5:  Maximum Recorded Temperature 
 TTMX.degC               84.00:  Max Tool Temp 
 VS01.          AZ90514619R5C6:  Virtual Str1 SN 
 VS02.        AZ90552592N2L2C6:  Virtual Str2 SN 
 VS03.        AZ90571337Z1W1C6:  Virtual Str3 SN 
 VS04.         AZ90513690K23C6:  Virtual Str4 SN 
 VS05.           AZ90594857F11:  Virtual Str5 SN 
 VS06.                13102166:  Virtual Str6 SN 
 WBMN.klb                 7.00:  WOB Min 
 WITN.            Peter Wilson:  Customer Rep 
 WOBA.klb                 9.95:  WOB Avg 
 WOBX.klb                10.00:  WOB Max 
 YP  .lhf2               36.00:  Yield Point 
~Curve Information Block
#MNEM.UNIT                 API CODE     Curve Description
#---------               -----------    ---------------------------
 TIME.HHMMSS            00 000 000 000:  GT Time & Date
 GTDEPTH.m              00 000 000 000:  GT Depth
 GTPQH.psia             00 000 000 000:  GT HR Quartz Pressure
 GTTQ.degC              00 000 000 000:  GT Quartz Temperature
 GTTN.NONE              00 000 000 000:  GT Test Number
 GTET.sec               00 000 000 000:  GT Elapsed Test Time
 GTTVD.m                00 000 000 000:  GT True Vertical Depth
#Other Information
#
#WARRANTY: Halliburton will use its best efforts to furnish customers with 
#accurate information and interpretations that are part of, and incident to, the services 
#provided.  However, Halliburton cannot and does not warrant the accuracy 
#or correctness of such information and interpretations.  Under no circumstances should any 
#such information or interpretation be relied upon as the sole basis for any drilling, 
#completion, production, or financial decision or any procedure involving any risk to the 
#safety of any drilling venture, drilling rig or its crew or any other third party.  The 
#Customer has full responsibility for all drilling, completion and production operation.  
#Halliburton makes no representations or warranties, either expressed or 
#implied, including, but not limited to, the implied warranties of merchantability or fitness 
#for a particular purpose, with respect to the services rendered.  In no event will 
#Halliburton be liable for failure to obtain any particular results or for 
#any damages, including, but not limited to, indirect, special or consequential damages, 
#resulting from the use of any information or interpretation provided by Halliburton.
#
~A           TIME           GTDEPTH  GTPQH  GTTQ  GTTN  GTET   GTTVD  
# ...
   09:21:04.842.18-Jan-2020 3746.01 3686.34 81.22 3.00 253.04 2818.83
   09:21:05.042.18-Jan-2020 3746.01 3686.34 81.22 3.00 253.24 2818.83
   09:21:05.242.18-Jan-2020 3746.01 3686.58 81.22 3.00 253.44 2818.83
   09:21:05.442.18-Jan-2020 3746.01 3686.28 81.22 3.00 253.64 2818.83
   09:21:05.642.18-Jan-2020 3746.01 3686.30 81.21 3.00 253.84 2818.83
   09:21:05.842.18-Jan-2020 3746.01 3686.14 81.21 3.00 254.04 2818.83
   09:21:06.042.18-Jan-2020 3746.01 3686.14 81.21 3.00 254.24 2818.83
   09:21:06.242.18-Jan-2020 3746.01 3686.17 81.21 3.00 254.44 2818.83
   09:21:06.442.18-Jan-2020 3746.01 3686.36 81.21 3.00 254.64 2818.83
   09:21:06.642.18-Jan-2020 3746.01 3686.13 81.21 3.00 254.84 2818.83
   09:21:06.842.18-Jan-2020 3746.01 3686.43 81.21 3.00 255.04 2818.83
   09:21:07.042.18-Jan-2020 3746.01 3686.43 81.21 3.00 255.24 2818.83
   09:21:07.242.18-Jan-2020 3746.01 3686.33 81.21 3.00 255.44 2818.83
   09:21:07.442.18-Jan-2020 3746.01 3686.23 81.21 3.00 255.64 2818.83
   09:21:07.642.18-Jan-2020 3746.01 3686.27 81.21 3.00 255.84 2818.83
   09:21:07.842.18-Jan-2020 3746.01 3686.26 81.21 3.00 256.04 2818.83
   09:21:08.042.18-Jan-2020 3746.01 3686.26 81.21 3.00 256.24 2818.83
   09:21:08.242.18-Jan-2020 3746.01 3686.34 81.21 3.00 256.44 2818.83
   09:21:08.442.18-Jan-2020 3746.01 3686.22 81.21 3.00 256.64 2818.83
   09:21:08.642.18-Jan-2020 3746.01 3686.32 81.21 3.00 256.84 2818.83
   09:21:08.842.18-Jan-2020 3746.01 3686.24 81.21 3.00 257.04 2818.83
   09:21:09.042.18-Jan-2020 3746.01 3686.24 81.21 3.00 257.24 2818.83
   09:21:09.242.18-Jan-2020 3746.01 3686.47 81.21 3.00 257.44 2818.83
   09:21:09.443.18-Jan-2020 3746.01 3686.25 81.21 3.00 257.64 2818.83
   09:21:09.643.18-Jan-2020 3746.01 3686.32 81.21 3.00 257.84 2818.83
   09:21:09.843.18-Jan-2020 3746.01 3686.22 81.21 3.00 258.04 2818.83
   09:21:10.043.18-Jan-2020 3746.01 3686.22 81.21 3.00 258.24 2818.83
   09:21:10.243.18-Jan-2020 3746.01 3686.28 81.21 3.00 258.44 2818.83
   09:21:10.443.18-Jan-2020 3746.01 3686.30 81.21 3.00 258.64 2818.83
   09:21:10.643.18-Jan-2020 3746.01 3686.25 81.21 3.00 258.84 2818.83
   09:21:10.843.18-Jan-2020 3746.01 3686.30 81.21 3.00 259.04 2818.83
   09:21:11.043.18-Jan-2020 3746.01 3686.30 81.21 3.00 259.24 2818.83
   09:21:11.243.18-Jan-2020 3746.01 3686.41 81.20 3.00 259.44 2818.83
   09:21:11.443.18-Jan-2020 3746.01 3686.18 81.20 3.00 259.64 2818.83
   09:21:11.643.18-Jan-2020 3746.01 3686.54 81.20 3.00 259.84 2818.83
   09:21:11.843.18-Jan-2020 3746.01 3686.41 81.20 3.00 260.04 2818.83
   09:21:12.043.18-Jan-2020 3746.01 3686.41 81.20 3.00 260.24 2818.83
   09:21:12.243.18-Jan-2020 3746.01 3686.02 81.20 3.00 260.44 2818.83
   09:21:12.443.18-Jan-2020 3746.01 3686.42 81.20 3.00 260.64 2818.83
   09:21:12.643.18-Jan-2020 3746.01 3686.17 81.20 3.00 260.84 2818.83
   09:21:12.843.18-Jan-2020 3746.01 3686.22 81.20 3.00 261.04 2818.83
   09:21:13.043.18-Jan-2020 3746.01 3686.22 81.20 3.00 261.24 2818.83
   09:21:13.243.18-Jan-2020 3746.01 3686.23 81.20 3.00 261.44 2818.83
   09:21:13.443.18-Jan-2020 3746.01 3686.21 81.20 3.00 261.64 2818.83
   09:21:13.643.18-Jan-2020 3746.01 3686.00 81.20 3.00 261.84 2818.83
   09:21:13.843.18-Jan-2020 3746.01 3686.57 81.20 3.00 262.04 2818.83
   09:21:14.043.18-Jan-2020 3746.01 3686.57 81.20 3.00 262.24 2818.83
   09:21:14.243.18-Jan-2020 3746.01 3686.36 81.20 3.00 262.44 2818.83
   09:21:14.443.18-Jan-2020 3746.01 3686.15 81.20 3.00 262.64 2818.83
   09:21:14.643.18-Jan-2020 3746.01 3686.61 81.20 3.00 262.84 2818.83
   09:21:14.843.18-Jan-2020 3746.01 3686.22 81.20 3.00 263.04 2818.83
   09:21:15.043.18-Jan-2020 3746.01 3686.22 81.20 3.00 263.24 2818.83
   09:21:15.244.18-Jan-2020 3746.01 3686.28 81.20 3.00 263.44 2818.83
   09:21:15.444.18-Jan-2020 3746.01 3686.19 81.20 3.00 263.64 2818.83
   09:21:15.644.18-Jan-2020 3746.01 3686.30 81.20 3.00 263.84 2818.83
   09:21:15.844.18-Jan-2020 3746.01 3686.31 81.20 3.00 264.04 2818.83
   09:21:16.044.18-Jan-2020 3746.01 3686.31 81.20 3.00 264.24 2818.83
   09:21:16.244.18-Jan-2020 3746.01 3686.17 81.20 3.00 264.44 2818.83
   09:21:16.444.18-Jan-2020 3746.01 3686.33 81.20 3.00 264.65 2818.83
   09:21:16.644.18-Jan-2020 3746.01 3686.17 81.20 3.00 264.85 2818.83
   09:21:16.844.18-Jan-2020 3746.01 3686.34 81.19 3.00 265.05 2818.83
   09:21:17.044.18-Jan-2020 3746.01 3686.34 81.19 3.00 265.25 2818.83
   09:21:17.244.18-Jan-2020 3746.01 3686.28 81.19 3.00 265.45 2818.83
   09:21:17.444.18-Jan-2020 3746.01 3686.27 81.19 3.00 265.65 2818.83
   09:21:17.644.18-Jan-2020 3746.01 3686.45 81.19 3.00 265.85 2818.83
   09:21:17.844.18-Jan-2020 3746.01 3686.51 81.19 3.00 266.05 2818.83
   09:21:18.044.18-Jan-2020 3746.01 3686.51 81.19 3.00 266.25 2818.83
   09:21:18.244.18-Jan-2020 3746.01 3686.52 81.19 3.00 266.45 2818.83
   09:21:18.444.18-Jan-2020 3746.01 3686.04 81.19 3.00 266.65 2818.83
   09:21:18.644.18-Jan-2020 3746.01 3686.25 81.19 3.00 266.85 2818.83
   09:21:18.844.18-Jan-2020 3746.01 3686.31 81.19 3.00 267.05 2818.83
   09:21:19.044.18-Jan-2020 3746.01 3686.31 81.19 3.00 267.25 2818.83
   09:21:19.244.18-Jan-2020 3746.01 3686.26 81.19 3.00 267.45 2818.83
   09:21:19.444.18-Jan-2020 3746.01 3686.30 81.19 3.00 267.65 2818.83
   09:21:19.644.18-Jan-2020 3746.01 3686.30 81.19 3.00 267.85 2818.83
   09:21:19.844.18-Jan-2020 3746.01 3686.20 81.19 3.00 268.05 2818.83
   09:21:20.044.18-Jan-2020 3746.01 3686.20 81.19 3.00 268.25 2818.83
   09:21:20.244.18-Jan-2020 3746.01 3686.27 81.19 3.00 268.45 2818.83
   09:21:20.444.18-Jan-2020 3746.01 3686.28 81.19 3.00 268.65 2818.83
   09:21:20.644.18-Jan-2020 3746.01 3686.17 81.19 3.00 268.85 2818.83
   09:21:20.844.18-Jan-2020 3746.01 3686.50 81.19 3.00 269.05 2818.83
   09:21:21.044.18-Jan-2020 3746.01 3686.50 81.19 3.00 269.25 2818.83
   09:21:21.245.18-Jan-2020 3746.01 3686.35 81.19 3.00 269.45 2818.83
   09:21:21.445.18-Jan-2020 3746.01 3686.34 81.19 3.00 269.65 2818.83
   09:21:21.645.18-Jan-2020 3746.01 3686.34 81.19 3.00 269.85 2818.83
   09:21:21.845.18-Jan-2020 3746.01 3686.19 81.19 3.00 270.05 2818.83
   09:21:22.045.18-Jan-2020 3746.01 3686.19 81.19 3.00 270.25 2818.83
   09:21:22.245.18-Jan-2020 3746.01 3686.27 81.18 3.00 270.45 2818.83
   09:21:22.445.18-Jan-2020 3746.01 3686.47 81.18 3.00 270.65 2818.83
   09:21:22.645.18-Jan-2020 3746.01 3686.14 81.18 3.00 270.85 2818.83
   09:21:22.845.18-Jan-2020 3746.01 3686.38 81.18 3.00 271.05 2818.83
   09:21:23.045.18-Jan-2020 3746.01 3686.38 81.18 3.00 271.25 2818.83
   09:21:23.245.18-Jan-2020 3746.01 3686.43 81.18 3.00 271.45 2818.83
   09:21:23.445.18-Jan-2020 3746.01 3686.08 81.18 3.00 271.65 2818.83
   09:21:23.645.18-Jan-2020 3746.01 3686.41 81.18 3.00 271.85 2818.83
   09:21:23.845.18-Jan-2020 3746.01 3686.26 81.18 3.00 272.05 2818.83
   09:21:24.045.18-Jan-2020 3746.01 3686.26 81.18 3.00 272.25 2818.83
   09:21:24.245.18-Jan-2020 3746.01 3686.33 81.18 3.00 272.45 2818.83
   09:21:24.445.18-Jan-2020 3746.01 3686.16 81.18 3.00 272.65 2818.83
   09:21:24.645.18-Jan-2020 3746.01 3686.34 81.18 3.00 272.85 2818.83
   09:21:24.845.18-Jan-2020 3746.01 3686.39 81.18 3.00 273.05 2818.83
   09:21:25.045.18-Jan-2020 3746.01 3686.39 81.18 3.00 273.25 2818.83
   09:21:25.245.18-Jan-2020 3746.01 3686.27 81.18 3.00 273.45 2818.83
   09:21:25.445.18-Jan-2020 3746.01 3686.20 81.18 3.00 273.65 2818.83
   09:21:25.645.18-Jan-2020 3746.01 3686.28 81.18 3.00 273.85 2818.83
   09:21:25.845.18-Jan-2020 3746.01 3686.25 81.18 3.00 274.05 2818.83
   09:21:26.045.18-Jan-2020 3746.01 3686.25 81.18 3.00 274.25 2818.83
   09:21:26.245.18-Jan-2020 3746.01 3686.19 81.18 3.00 274.45 2818.83
   09:21:26.445.18-Jan-2020 3746.01 3686.31 81.18 3.00 274.65 2818.83
   09:21:26.645.18-Jan-2020 3746.01 3686.35 81.18 3.00 274.85 2818.83
   09:21:26.845.18-Jan-2020 3746.01 3686.30 81.18 3.00 275.05 2818.83
   09:21:27.046.18-Jan-2020 3746.01 3686.30 81.18 3.00 275.25 2818.83
   09:21:27.246.18-Jan-2020 3746.01 3686.41 81.18 3.00 275.45 2818.83
   09:21:27.446.18-Jan-2020 3746.01 3686.33 81.18 3.00 275.65 2818.83
   09:21:27.646.18-Jan-2020 3746.01 3686.10 81.18 3.00 275.85 2818.83
