~Version Information
 VERS.                  2.0:   CWLS log ASCII Standard -VERSION 2.0
 WRAP.                   NO:   One line per depth step
~Well Information Block
#MNEM.UNIT     VALUE/NAME     DESCRIPTION
#---------     -----------    ---------------------------
 STRT.S             13:51:43 18-Jan-20: START TIME 13:51:43 18-Jan-20
 STOP.S             13:59:59 18-Jan-20: STOP TIME  13:59:59 18-Jan-20
 STEP.S                   0.00: STEP TIME
 NULL.                 -999.25: NULL VALUE
 DFWT.                        :  DIST FWL TEXT
 DFST.                        :  DIST FSL TEXT
 DMF .             Drill Floor:  DRILL MEAS FROM
 STIM.      09.30.00 26-Dec-19:  START TIME
 DATE.      08.00.00 20-Jan-20:  END TIME
 SPUD.               23-Nov-19:  SPUD DATE
 NREF.                    Grid:  NORTH REFERENCE
 HPTY.       Minimum Curvature:  HOLE POS TYPE
 DMOD.             Drill Model:  DRILL MOD DESC
 SVYD.                  Survey:  SURVEY DESC
 ILTD.               Lithology:  INTERP LTH DESC
 FTOP.          Formation Tops:  FORM TOPS DESC
 SON .        AZ-XX-0906192647:  JOB NUMBER
 WTYP.                Deviated:  WELL TYPE
 COMP.     BP Exploration (Caspian Sea) Ltd:  COMPANY
 BASE.              Azerbaijan:  LOGGING EQUIPMENT BASE LOCATION
 REGN.                 Eurasia:  REGION
 FLD .                     ACG:  FIELD NAME
 SRVC.              KCA Deutag:  CONTRACTOR
 MWDS.                    Baku:  MWD SHOP
 WELL.     A10 (Slot 20) - SCP:  WELL NAME
 JOBN.        AZ-XX-0906192647:  JOB TICKET NUMB
 RIG .                 Chirag1:  RIG NAME
 DCON.     Halliburton Sperry Drilling:  DIRECTNL CONTR
 UNIT.                     N/A:  LOGGING EQUIPMENT ID
 PDAT.          Mean Sea Level:  PERMANENT DATUM
 MDS .        Operator Entered:  MAG DATA SOURCE
 CTRY.              Azerbaijan:  COUNTRY NAME
 UWI .            /AZE00000090:  UNIQUE WELL IDENTIFIER
 API .            /AZE00000090:  API NUMBER
 CNTY.                        :  COUNTY
 PROV.                        :  PROVINCE
 STAT.                        :  STATE
 LOC .                        :  LOCATION
 LMF .             Drill Floor:  LOG MEASURED FROM
 TVDS.m                  36.60:  TVDSS CORRECTN
 LATI.deg                40.08:  LATITUDE
 LONG.deg                51.24:  LONGITUDE
 WHNS.m                  -7.94:  WELL HEAD N/S
 WHEW.m                   1.56:  WELL HEAD E/W
 UTMX.m              520429.26:  UTM X
 UTMY.m             4438973.87:  UTM Y
 DFWL.m                   0.00:  DISTANCE FWL
 DFSL.m                   0.00:  DISTANCE FSL
 SDEP.m                1455.00:  START DEPTH
 TDD .m                3878.01:  TOTAL DEPTH (DRILLER)
 VSDR.deg               112.75:  VERT SEC DIRECT
 GVFD.g                   1.00:  GRAVITY FIELD
 MFLD.nT              50256.00:  MAGNETIC FIELD
 MDIP.deg                59.52:  MAGNETIC DIP
 MDEC.deg                 6.43:  MAGNETIC DECL
 GRDC.deg                 0.16:  GRID CORRECTION
 AZTC.deg                 6.27:  AZM TOTAL CORR
 EPD .m                   0.00:  ELEVATION
 EGL .m                   0.00:  GROUND ELEVATION
 WDMS.m                 121.00:  WD ELEV
 APD .m                  36.60:  DEPTH ABOVE PD
 AGAP.m                  36.60:  AIR GAP
 VSEW.m                   1.56:  VERT SEC E/W
 VSNS.m                  -7.94:  VERT SEC N/S
 DEP .m                1140.01:  DEPTH
 EKB .m                  36.60:  KB ELEVATION
 EDF .m                  36.60:  DF ELEVATION
 TDL .m                1293.00:  TOTAL DEPTH (LOGGER)
 VSC .                       0:  VS TO CLOSURE
 MAGU.                 1849164:  MAGUTM CHECKSUM
~Parameter Information Block
#MNEM.UNIT       Value        Description
#---------     -----------    ---------------------------
 AV  .mps                 2.40:  Ann Velocity 
 AVMX.mps                 2.55:  Max Ann Veloc 
 AZIF.deg               134.35:  Azm, Final 
 BHAT.        Rotary Steerable:  BHA Type 
 BREV.rev               847.00:  Rev Bit Total 
 BROT.°/30m              -2.51:  Build Rotating 
 BS  .in                  8.50:  Bit Size 
 BSZ .in                  8.50:  Bit Size 
 BTPL.psig              700.00:  Bit Press Loss 
 CABU.                     Yes:  Customer Abuse 
 CGEO.          Ilgar Gurbanov:  Customer Geo 
 COMM.                     üÓ~:  Run Comments 1 
 TCS .hr                140.40:  Time Ciculation Ended 
 CV  .mps                 2.27:  Crit Velocity 
 CVMX.mps                 2.45:  Max Crit Veloc 
 DD1 .         Intigam Rahimov:  Direct Drillr 1 
 DD2 .         Rasim Ibrahimov:  Direct Drillr 2 
 DDSV.                 iCruise:  DD Service 
 DEFF.%                  99.00:  % Det Eff 
 DLRX.°/30m               3.28:  Dogleg Rot Max 
 DLSO.°/30m               0.00:  Dogleg Oriented 
 DLSX.°/30m               0.00:  Dogleg Str Max 
 DRET.      23.30.00 18-Jan-20:  Drill End Time 
 DRST.      01.45.00 11-Jan-20:  Drill Start Tim 
 DTIM.hr                 94.00:  Time Drilling 
 EDEP.m                3878.01:  End Depth 
 ENG1.       Dauren Baktybayev:  Engineer 1 
 ENG2.      Natik Hasanaghayev:  Engineer 2 
 ENG3.          Rustam Safarov:  Engineer 3 
 ETIM.      08.00.00 20-Jan-20:  End Time 
 FLOI.gpm               532.00:  Flow In 
 FLON.gpm               500.00:  Flow In Min 
 FLOS.cptm                0.00:  Fluid Loss 
 FLOX.gpm               540.00:  Flow In Max 
 FTRO.       Formation Presure:  FTWD Run Obj 
 HPRE.                     Yes:  High Pressure 
 HTEM.                      No:  High Temp 
 HYDO.m                   1.80:  Hydro Offset 
 IFIN.deg                39.86:  Inc, Final 
 IMAX.deg                59.73:  Inc Max 
 IMIN.deg                39.25:  Inc Min 
 IMND.m                3816.77:  Inc Min Depth 
 IMXD.m                2596.33:  Inc Max Depth 
 JARR.                      No:  Jarring 
 LETM.      23.30.00 18-Jan-20:  Log End Time 
 LOST.hr                     0:  Lost Rig Time 
 LSTM.      01.45.00 11-Jan-20:  Log Start Time 
 MDCL.ppm             41500.00:  Mud Chlorides 
 MDES.     Inversion Oil/Synthetic:  Mud Desc 
 DFD .sg                  1.48:  Mud Density 
 MDMN.sg                  1.48:  Dens Mud Min 
 MDMX.sg                  1.48:  Dens Mud Max 
 MOIL.                      54:  Run Mud Oil % 
 MOWR.                   72:28:  Run Mud OWR 
 MSND.                       0:  Run Mud Sand % 
 MSOL.                      23:  Run Mud Solids% 
 DFV .spqt               86.00:  Mud Viscosity 
 MWOD.in                  6.75:  MWD Tool OD 
 MWSI.                      No:  Serv Intrp, MWD 
 OTIM.hr                223.40:  Time Operating 
 PCON.           Look Like New:  Pad Condition 
 PMAX.psia            32446.79:  Press Op, Max 
 PV  .cP                 49.00:  Mud PV 
 RUN .                     200:  Run Number 
 ROPA.m/hr               12.48:  ROP Avg 
 ROPN.m/hr                8.00:  ROP Min 
 ROPX.m/hr               27.00:  ROP Max 
 RPMA.rpm               121.00:  RPM Surface Avg 
 RPMN.rpm                60.00:  RPM Surface Min 
 RPMX.rpm               140.00:  RPM Surface Max 
 RRUN.                    L202:  Rig Run Number 
 RTIM.hr                  7.25:  Time Reaming 
 SAZI.deg               123.49:  Azm, Start 
 SDEP.m                2585.01:  Start Depth 
 SIDD.                      No:  Serv Intrp, DD 
 SINC.deg                59.93:  Inc, Start 
 SPPA.psig             3539.00:  SPP Avg 
 SPPN.psig             3050.00:  SPP Min 
 SPPX.psig             3950.00:  SPP Max 
 STIM.      19.00.00 10-Jan-20:  Start Time 
 SVCS.                 DD, MWD:  Services 
 SVER.                    9.20:  Sperry Version 
 TDAT.m                1293.00:  Tot Depth Attmp 
 TDDF.                      No:  Trip for DD 
 TDLG.m                1293.00:  Tot Depth Loggd 
 TFF .                      No:  Trip for Fail 
 TQAA.f-kp               16.00:  Torque Abs Avg 
 TQAN.f-kp               11.00:  Torque Abs Min 
 TQAX.f-kp               18.00:  Torque Abs Max 
 TRRT.°/30m               1.25:  Turn Rotating 
 MRT .                  EWR-M5:  Maximum Recorded Temperature 
 TTMX.degC               84.00:  Max Tool Temp 
 VS01.          AZ90514619R5C6:  Virtual Str1 SN 
 VS02.        AZ90552592N2L2C6:  Virtual Str2 SN 
 VS03.        AZ90571337Z1W1C6:  Virtual Str3 SN 
 VS04.         AZ90513690K23C6:  Virtual Str4 SN 
 VS05.           AZ90594857F11:  Virtual Str5 SN 
 VS06.                13102166:  Virtual Str6 SN 
 WBMN.klb                 7.00:  WOB Min 
 WITN.            Peter Wilson:  Customer Rep 
 WOBA.klb                 9.95:  WOB Avg 
 WOBX.klb                10.00:  WOB Max 
 YP  .lhf2               36.00:  Yield Point 
~Curve Information Block
#MNEM.UNIT                 API CODE     Curve Description
#---------               -----------    ---------------------------
 TIME.HHMMSS            00 000 000 000:  GT Time & Date
 GTDEPTH.m              00 000 000 000:  GT Depth
 GTPQH.psia             00 000 000 000:  GT HR Quartz Pressure
 GTTQ.degC              00 000 000 000:  GT Quartz Temperature
 GTTN.NONE              00 000 000 000:  GT Test Number
 GTET.sec               00 000 000 000:  GT Elapsed Test Time
 GTTVD.m                00 000 000 000:  GT True Vertical Depth
#Other Information
#
#WARRANTY: Halliburton will use its best efforts to furnish customers with 
#accurate information and interpretations that are part of, and incident to, the services 
#provided.  However, Halliburton cannot and does not warrant the accuracy 
#or correctness of such information and interpretations.  Under no circumstances should any 
#such information or interpretation be relied upon as the sole basis for any drilling, 
#completion, production, or financial decision or any procedure involving any risk to the 
#safety of any drilling venture, drilling rig or its crew or any other third party.  The 
#Customer has full responsibility for all drilling, completion and production operation.  
#Halliburton makes no representations or warranties, either expressed or 
#implied, including, but not limited to, the implied warranties of merchantability or fitness 
#for a particular purpose, with respect to the services rendered.  In no event will 
#Halliburton be liable for failure to obtain any particular results or for 
#any damages, including, but not limited to, indirect, special or consequential damages, 
#resulting from the use of any information or interpretation provided by Halliburton.
#
~A           TIME           GTDEPTH  GTPQH  GTTQ  GTTN  GTET   GTTVD  
# ...
   13:58:37.664.18-Jan-2020 3754.01 3695.35 79.45 5.00 414.13 2824.94
   13:58:37.864.18-Jan-2020 3754.01 3695.35 79.45 5.00 414.33 2824.94
   13:58:38.064.18-Jan-2020 3754.01 3695.83 79.45 5.00 414.53 2824.94
   13:58:38.264.18-Jan-2020 3754.01 3695.06 79.45 5.00 414.73 2824.94
   13:58:38.464.18-Jan-2020 3754.01 3695.68 79.45 5.00 414.93 2824.94
   13:58:38.664.18-Jan-2020 3754.01 3695.37 79.45 5.00 415.13 2824.94
   13:58:38.864.18-Jan-2020 3754.01 3695.37 79.45 5.00 415.33 2824.94
   13:58:39.064.18-Jan-2020 3754.01 3695.42 79.45 5.00 415.53 2824.94
   13:58:39.264.18-Jan-2020 3754.01 3695.56 79.45 5.00 415.73 2824.94
   13:58:39.464.18-Jan-2020 3754.01 3695.61 79.45 5.00 415.93 2824.94
   13:58:39.664.18-Jan-2020 3754.01 3694.81 79.45 5.00 416.13 2824.94
   13:58:39.865.18-Jan-2020 3754.01 3694.81 79.45 5.00 416.33 2824.94
   13:58:40.065.18-Jan-2020 3754.01 3692.84 79.45 5.00 416.53 2824.94
   13:58:40.265.18-Jan-2020 3754.01 3697.03 79.44 5.00 416.73 2824.94
   13:58:40.465.18-Jan-2020 3754.01 3694.76 79.44 5.00 416.93 2824.94
   13:58:40.665.18-Jan-2020 3754.01 3696.08 79.44 5.00 417.13 2824.94
   13:58:40.865.18-Jan-2020 3754.01 3696.08 79.44 5.00 417.33 2824.94
   13:58:41.065.18-Jan-2020 3754.01 3693.86 79.44 5.00 417.53 2824.94
   13:58:41.265.18-Jan-2020 3754.01 3696.12 79.44 5.00 417.74 2824.94
   13:58:41.465.18-Jan-2020 3754.01 3694.88 79.44 5.00 417.94 2824.94
   13:58:41.665.18-Jan-2020 3754.01 3694.99 79.44 5.00 418.14 2824.94
   13:58:41.865.18-Jan-2020 3754.01 3694.99 79.44 5.00 418.34 2824.94
   13:58:42.065.18-Jan-2020 3754.01 3694.11 79.44 5.00 418.54 2824.94
   13:58:42.265.18-Jan-2020 3754.01 3696.16 79.44 5.00 418.74 2824.94
   13:58:42.465.18-Jan-2020 3754.01 3694.32 79.44 5.00 418.94 2824.94
   13:58:42.665.18-Jan-2020 3754.01 3698.00 79.44 5.00 419.14 2824.94
   13:58:42.865.18-Jan-2020 3754.01 3698.00 79.44 5.00 419.34 2824.94
   13:58:43.066.18-Jan-2020 3754.01 3696.74 79.44 5.00 419.54 2824.94
   13:58:43.266.18-Jan-2020 3754.01 3694.97 79.44 5.00 419.74 2824.94
   13:58:43.466.18-Jan-2020 3754.01 3695.96 79.44 5.00 419.94 2824.94
   13:58:43.666.18-Jan-2020 3754.01 3695.34 79.44 5.00 420.14 2824.94
   13:58:43.866.18-Jan-2020 3754.01 3695.34 79.44 5.00 420.34 2824.94
   13:58:44.066.18-Jan-2020 3754.01 3695.40 79.44 5.00 420.54 2824.94
   13:58:44.266.18-Jan-2020 3754.01 3695.34 79.44 5.00 420.74 2824.94
   13:58:44.466.18-Jan-2020 3754.01 3695.65 79.44 5.00 420.94 2824.94
   13:58:44.666.18-Jan-2020 3754.01 3695.58 79.44 5.00 421.14 2824.94
   13:58:44.866.18-Jan-2020 3754.01 3695.58 79.44 5.00 421.34 2824.94
   13:58:45.066.18-Jan-2020 3754.01 3695.42 79.44 5.00 421.54 2824.94
   13:58:45.266.18-Jan-2020 3754.01 3695.53 79.44 5.00 421.74 2824.94
   13:58:45.466.18-Jan-2020 3754.01 3695.59 79.44 5.00 421.94 2824.94
   13:58:45.666.18-Jan-2020 3754.01 3695.44 79.44 5.00 422.14 2824.94
   13:58:45.866.18-Jan-2020 3754.01 3695.44 79.44 5.00 422.34 2824.94
   13:58:46.067.18-Jan-2020 3754.01 3695.70 79.44 5.00 422.54 2824.94
   13:58:46.267.18-Jan-2020 3754.01 3697.49 79.44 5.00 422.74 2824.94
   13:58:46.467.18-Jan-2020 3754.01 3693.09 79.44 5.00 422.94 2824.94
   13:58:46.667.18-Jan-2020 3754.01 3696.58 79.44 5.00 423.14 2824.94
   13:58:46.867.18-Jan-2020 3754.01 3696.58 79.44 5.00 423.34 2824.94
   13:58:47.067.18-Jan-2020 3754.01 3695.88 79.44 5.00 423.54 2824.94
   13:58:47.267.18-Jan-2020 3754.01 3695.20 79.44 5.00 423.74 2824.94
   13:58:47.467.18-Jan-2020 3754.01 3695.60 79.44 5.00 423.94 2824.94
   13:58:47.667.18-Jan-2020 3754.01 3695.48 79.44 5.00 424.14 2824.94
   13:58:47.867.18-Jan-2020 3754.01 3695.48 79.44 5.00 424.34 2824.94
   13:58:48.067.18-Jan-2020 3754.01 3695.51 79.44 5.00 424.54 2824.94
   13:58:48.267.18-Jan-2020 3754.01 3694.70 79.44 5.00 424.74 2824.94
   13:58:48.467.18-Jan-2020 3754.01 3697.72 79.44 5.00 424.94 2824.94
   13:58:48.667.18-Jan-2020 3754.01 3693.82 79.44 5.00 425.14 2824.94
   13:58:48.867.18-Jan-2020 3754.01 3693.82 79.44 5.00 425.34 2824.94
   13:58:49.067.18-Jan-2020 3754.01 3694.18 79.44 5.00 425.54 2824.94
   13:58:49.268.18-Jan-2020 3754.01 3698.09 79.44 5.00 425.74 2824.94
   13:58:49.468.18-Jan-2020 3754.01 3693.55 79.44 5.00 425.94 2824.94
   13:58:49.668.18-Jan-2020 3754.01 3696.58 79.44 5.00 426.14 2824.94
   13:58:49.868.18-Jan-2020 3754.01 3696.58 79.44 5.00 426.34 2824.94
   13:58:50.068.18-Jan-2020 3754.01 3695.48 79.44 5.00 426.54 2824.94
   13:58:50.268.18-Jan-2020 3754.01 3694.58 79.44 5.00 426.74 2824.94
   13:58:50.468.18-Jan-2020 3754.01 3697.72 79.44 5.00 426.94 2824.94
   13:58:50.668.18-Jan-2020 3754.01 3693.94 79.44 5.00 427.14 2824.94
   13:58:50.868.18-Jan-2020 3754.01 3693.94 79.44 5.00 427.34 2824.94
   13:58:51.068.18-Jan-2020 3754.01 3694.52 79.44 5.00 427.54 2824.94
   13:58:51.268.18-Jan-2020 3754.01 3697.61 79.44 5.00 427.74 2824.94
   13:58:51.468.18-Jan-2020 3754.01 3693.80 79.44 5.00 427.94 2824.94
   13:58:51.668.18-Jan-2020 3754.01 3696.22 79.44 5.00 428.14 2824.94
   13:58:51.868.18-Jan-2020 3754.01 3696.22 79.44 5.00 428.34 2824.94
   13:58:52.068.18-Jan-2020 3754.01 3695.79 79.44 5.00 428.54 2824.94
   13:58:52.269.18-Jan-2020 3754.01 3695.27 79.44 5.00 428.74 2824.94
   13:58:52.469.18-Jan-2020 3754.01 3695.71 79.44 5.00 428.94 2824.94
   13:58:52.669.18-Jan-2020 3754.01 3695.42 79.44 5.00 429.14 2824.94
   13:58:52.869.18-Jan-2020 3754.01 3695.42 79.44 5.00 429.34 2824.94
   13:58:53.069.18-Jan-2020 3754.01 3695.59 79.44 5.00 429.54 2824.94
   13:58:53.269.18-Jan-2020 3754.01 3695.72 79.44 5.00 429.74 2824.94
   13:58:53.469.18-Jan-2020 3754.01 3695.53 79.44 5.00 429.94 2824.94
   13:58:53.669.18-Jan-2020 3754.01 3695.48 79.44 5.00 430.14 2824.94
   13:58:53.869.18-Jan-2020 3754.01 3695.48 79.44 5.00 430.34 2824.94
   13:58:54.069.18-Jan-2020 3754.01 3695.65 79.44 5.00 430.54 2824.94
   13:58:54.269.18-Jan-2020 3754.01 3695.56 79.44 5.00 430.74 2824.94
   13:58:54.469.18-Jan-2020 3754.01 3695.35 79.44 5.00 430.94 2824.94
   13:58:54.669.18-Jan-2020 3754.01 3695.86 79.44 5.00 431.14 2824.94
   13:58:54.869.18-Jan-2020 3754.01 3695.86 79.44 5.00 431.34 2824.94
   13:58:55.069.18-Jan-2020 3754.01 3693.59 79.44 5.00 431.54 2824.94
   13:58:55.269.18-Jan-2020 3754.01 3696.32 79.44 5.00 431.74 2824.94
   13:58:55.470.18-Jan-2020 3754.01 3695.02 79.44 5.00 431.94 2824.94
   13:58:55.670.18-Jan-2020 3754.01 3695.82 79.44 5.00 432.14 2824.94
   13:58:55.870.18-Jan-2020 3754.01 3695.82 79.44 5.00 432.34 2824.94
   13:58:56.070.18-Jan-2020 3754.01 3695.67 79.44 5.00 432.54 2824.94
   13:58:56.270.18-Jan-2020 3754.01 3695.50 79.44 5.00 432.74 2824.94
   13:58:56.470.18-Jan-2020 3754.01 3695.64 79.44 5.00 432.94 2824.94
   13:58:56.670.18-Jan-2020 3754.01 3695.44 79.44 5.00 433.14 2824.94
   13:58:56.870.18-Jan-2020 3754.01 3695.44 79.44 5.00 433.34 2824.94
   13:58:57.070.18-Jan-2020 3754.01 3697.87 79.44 5.00 433.54 2824.94
   13:58:57.270.18-Jan-2020 3754.01 3693.82 79.44 5.00 433.74 2824.94
   13:58:57.470.18-Jan-2020 3754.01 3696.68 79.44 5.00 433.94 2824.94
   13:58:57.670.18-Jan-2020 3754.01 3695.08 79.44 5.00 434.14 2824.94
   13:58:57.870.18-Jan-2020 3754.01 3695.08 79.44 5.00 434.34 2824.94
   13:58:58.070.18-Jan-2020 3754.01 3697.69 79.44 5.00 434.54 2824.94
   13:58:58.270.18-Jan-2020 3754.01 3693.19 79.44 5.00 434.74 2824.94
   13:58:58.471.18-Jan-2020 3754.01 3696.62 79.44 5.00 434.94 2824.94
   13:58:58.671.18-Jan-2020 3754.01 3694.84 79.44 5.00 435.14 2824.94
   13:58:58.871.18-Jan-2020 3754.01 3694.84 79.44 5.00 435.34 2824.94
   13:58:59.071.18-Jan-2020 3754.01 3695.36 79.44 5.00 435.54 2824.94
   13:58:59.271.18-Jan-2020 3754.01 3697.37 79.44 5.00 435.74 2824.94
   13:58:59.471.18-Jan-2020 3754.01 3693.23 79.44 5.00 435.94 2824.94
   13:58:59.671.18-Jan-2020 3754.01 3695.94 79.44 5.00 436.14 2824.94
   13:58:59.871.18-Jan-2020 3754.01 3695.94 79.44 5.00 436.34 2824.94
   13:59:00.071.18-Jan-2020 3754.01 3693.21 79.44 5.00 436.54 2824.94
   13:59:00.271.18-Jan-2020 3754.01 3696.56 79.44 5.00 436.74 2824.94
   13:59:00.471.18-Jan-2020 3754.01 3695.06 79.44 5.00 436.94 2824.94
