~Version Information
 VERS.                  2.0:   CWLS log ASCII Standard -VERSION 2.0
 WRAP.                   NO:   One line per depth step
~Well Information Block
#MNEM.UNIT     VALUE/NAME     DESCRIPTION
#---------     -----------    ---------------------------
 STRT.S             13:31:21 18-Jan-20: START TIME 13:31:21 18-Jan-20
 STOP.S             13:39:29 18-Jan-20: STOP TIME  13:39:29 18-Jan-20
 STEP.S                   0.00: STEP TIME
 NULL.                 -999.25: NULL VALUE
 DFWT.                        :  DIST FWL TEXT
 DFST.                        :  DIST FSL TEXT
 DMF .             Drill Floor:  DRILL MEAS FROM
 STIM.      09.30.00 26-Dec-19:  START TIME
 DATE.      08.00.00 20-Jan-20:  END TIME
 SPUD.               23-Nov-19:  SPUD DATE
 NREF.                    Grid:  NORTH REFERENCE
 HPTY.       Minimum Curvature:  HOLE POS TYPE
 DMOD.             Drill Model:  DRILL MOD DESC
 SVYD.                  Survey:  SURVEY DESC
 ILTD.               Lithology:  INTERP LTH DESC
 FTOP.          Formation Tops:  FORM TOPS DESC
 SON .        AZ-XX-0906192647:  JOB NUMBER
 WTYP.                Deviated:  WELL TYPE
 COMP.     BP Exploration (Caspian Sea) Ltd:  COMPANY
 BASE.              Azerbaijan:  LOGGING EQUIPMENT BASE LOCATION
 REGN.                 Eurasia:  REGION
 FLD .                     ACG:  FIELD NAME
 SRVC.              KCA Deutag:  CONTRACTOR
 MWDS.                    Baku:  MWD SHOP
 WELL.     A10 (Slot 20) - SCP:  WELL NAME
 JOBN.        AZ-XX-0906192647:  JOB TICKET NUMB
 RIG .                 Chirag1:  RIG NAME
 DCON.     Halliburton Sperry Drilling:  DIRECTNL CONTR
 UNIT.                     N/A:  LOGGING EQUIPMENT ID
 PDAT.          Mean Sea Level:  PERMANENT DATUM
 MDS .        Operator Entered:  MAG DATA SOURCE
 CTRY.              Azerbaijan:  COUNTRY NAME
 UWI .            /AZE00000090:  UNIQUE WELL IDENTIFIER
 API .            /AZE00000090:  API NUMBER
 CNTY.                        :  COUNTY
 PROV.                        :  PROVINCE
 STAT.                        :  STATE
 LOC .                        :  LOCATION
 LMF .             Drill Floor:  LOG MEASURED FROM
 TVDS.m                  36.60:  TVDSS CORRECTN
 LATI.deg                40.08:  LATITUDE
 LONG.deg                51.24:  LONGITUDE
 WHNS.m                  -7.94:  WELL HEAD N/S
 WHEW.m                   1.56:  WELL HEAD E/W
 UTMX.m              520429.26:  UTM X
 UTMY.m             4438973.87:  UTM Y
 DFWL.m                   0.00:  DISTANCE FWL
 DFSL.m                   0.00:  DISTANCE FSL
 SDEP.m                1455.00:  START DEPTH
 TDD .m                3878.01:  TOTAL DEPTH (DRILLER)
 VSDR.deg               112.75:  VERT SEC DIRECT
 GVFD.g                   1.00:  GRAVITY FIELD
 MFLD.nT              50256.00:  MAGNETIC FIELD
 MDIP.deg                59.52:  MAGNETIC DIP
 MDEC.deg                 6.43:  MAGNETIC DECL
 GRDC.deg                 0.16:  GRID CORRECTION
 AZTC.deg                 6.27:  AZM TOTAL CORR
 EPD .m                   0.00:  ELEVATION
 EGL .m                   0.00:  GROUND ELEVATION
 WDMS.m                 121.00:  WD ELEV
 APD .m                  36.60:  DEPTH ABOVE PD
 AGAP.m                  36.60:  AIR GAP
 VSEW.m                   1.56:  VERT SEC E/W
 VSNS.m                  -7.94:  VERT SEC N/S
 DEP .m                1140.01:  DEPTH
 EKB .m                  36.60:  KB ELEVATION
 EDF .m                  36.60:  DF ELEVATION
 TDL .m                1293.00:  TOTAL DEPTH (LOGGER)
 VSC .                       0:  VS TO CLOSURE
 MAGU.                 1849164:  MAGUTM CHECKSUM
~Parameter Information Block
#MNEM.UNIT       Value        Description
#---------     -----------    ---------------------------
 AV  .mps                 2.40:  Ann Velocity 
 AVMX.mps                 2.55:  Max Ann Veloc 
 AZIF.deg               134.35:  Azm, Final 
 BHAT.        Rotary Steerable:  BHA Type 
 BREV.rev               847.00:  Rev Bit Total 
 BROT.°/30m              -2.51:  Build Rotating 
 BS  .in                  8.50:  Bit Size 
 BSZ .in                  8.50:  Bit Size 
 BTPL.psig              700.00:  Bit Press Loss 
 CABU.                     Yes:  Customer Abuse 
 CGEO.          Ilgar Gurbanov:  Customer Geo 
 COMM.                     ¸P:  Run Comments 1 
 TCS .hr                140.40:  Time Ciculation Ended 
 CV  .mps                 2.27:  Crit Velocity 
 CVMX.mps                 2.45:  Max Crit Veloc 
 DD1 .         Intigam Rahimov:  Direct Drillr 1 
 DD2 .         Rasim Ibrahimov:  Direct Drillr 2 
 DDSV.                 iCruise:  DD Service 
 DEFF.%                  99.00:  % Det Eff 
 DLRX.°/30m               3.28:  Dogleg Rot Max 
 DLSO.°/30m               0.00:  Dogleg Oriented 
 DLSX.°/30m               0.00:  Dogleg Str Max 
 DRET.      23.30.00 18-Jan-20:  Drill End Time 
 DRST.      01.45.00 11-Jan-20:  Drill Start Tim 
 DTIM.hr                 94.00:  Time Drilling 
 EDEP.m                3878.01:  End Depth 
 ENG1.       Dauren Baktybayev:  Engineer 1 
 ENG2.      Natik Hasanaghayev:  Engineer 2 
 ENG3.          Rustam Safarov:  Engineer 3 
 ETIM.      08.00.00 20-Jan-20:  End Time 
 FLOI.gpm               532.00:  Flow In 
 FLON.gpm               500.00:  Flow In Min 
 FLOS.cptm                0.00:  Fluid Loss 
 FLOX.gpm               540.00:  Flow In Max 
 FTRO.       Formation Presure:  FTWD Run Obj 
 HPRE.                     Yes:  High Pressure 
 HTEM.                      No:  High Temp 
 HYDO.m                   1.80:  Hydro Offset 
 IFIN.deg                39.86:  Inc, Final 
 IMAX.deg                59.73:  Inc Max 
 IMIN.deg                39.25:  Inc Min 
 IMND.m                3816.77:  Inc Min Depth 
 IMXD.m                2596.33:  Inc Max Depth 
 JARR.                      No:  Jarring 
 LETM.      23.30.00 18-Jan-20:  Log End Time 
 LOST.hr                     0:  Lost Rig Time 
 LSTM.      01.45.00 11-Jan-20:  Log Start Time 
 MDCL.ppm             41500.00:  Mud Chlorides 
 MDES.     Inversion Oil/Synthetic:  Mud Desc 
 DFD .sg                  1.48:  Mud Density 
 MDMN.sg                  1.48:  Dens Mud Min 
 MDMX.sg                  1.48:  Dens Mud Max 
 MOIL.                      54:  Run Mud Oil % 
 MOWR.                   72:28:  Run Mud OWR 
 MSND.                       0:  Run Mud Sand % 
 MSOL.                      23:  Run Mud Solids% 
 DFV .spqt               86.00:  Mud Viscosity 
 MWOD.in                  6.75:  MWD Tool OD 
 MWSI.                      No:  Serv Intrp, MWD 
 OTIM.hr                223.40:  Time Operating 
 PCON.           Look Like New:  Pad Condition 
 PMAX.psia            32446.79:  Press Op, Max 
 PV  .cP                 49.00:  Mud PV 
 RUN .                     200:  Run Number 
 ROPA.m/hr               12.48:  ROP Avg 
 ROPN.m/hr                8.00:  ROP Min 
 ROPX.m/hr               27.00:  ROP Max 
 RPMA.rpm               121.00:  RPM Surface Avg 
 RPMN.rpm                60.00:  RPM Surface Min 
 RPMX.rpm               140.00:  RPM Surface Max 
 RRUN.                    L202:  Rig Run Number 
 RTIM.hr                  7.25:  Time Reaming 
 SAZI.deg               123.49:  Azm, Start 
 SDEP.m                2585.01:  Start Depth 
 SIDD.                      No:  Serv Intrp, DD 
 SINC.deg                59.93:  Inc, Start 
 SPPA.psig             3539.00:  SPP Avg 
 SPPN.psig             3050.00:  SPP Min 
 SPPX.psig             3950.00:  SPP Max 
 STIM.      19.00.00 10-Jan-20:  Start Time 
 SVCS.                 DD, MWD:  Services 
 SVER.                    9.20:  Sperry Version 
 TDAT.m                1293.00:  Tot Depth Attmp 
 TDDF.                      No:  Trip for DD 
 TDLG.m                1293.00:  Tot Depth Loggd 
 TFF .                      No:  Trip for Fail 
 TQAA.f-kp               16.00:  Torque Abs Avg 
 TQAN.f-kp               11.00:  Torque Abs Min 
 TQAX.f-kp               18.00:  Torque Abs Max 
 TRRT.°/30m               1.25:  Turn Rotating 
 MRT .                  EWR-M5:  Maximum Recorded Temperature 
 TTMX.degC               84.00:  Max Tool Temp 
 VS01.          AZ90514619R5C6:  Virtual Str1 SN 
 VS02.        AZ90552592N2L2C6:  Virtual Str2 SN 
 VS03.        AZ90571337Z1W1C6:  Virtual Str3 SN 
 VS04.         AZ90513690K23C6:  Virtual Str4 SN 
 VS05.           AZ90594857F11:  Virtual Str5 SN 
 VS06.                13102166:  Virtual Str6 SN 
 WBMN.klb                 7.00:  WOB Min 
 WITN.            Peter Wilson:  Customer Rep 
 WOBA.klb                 9.95:  WOB Avg 
 WOBX.klb                10.00:  WOB Max 
 YP  .lhf2               36.00:  Yield Point 
~Curve Information Block
#MNEM.UNIT                 API CODE     Curve Description
#---------               -----------    ---------------------------
 TIME.HHMMSS            00 000 000 000:  GT Time & Date
 GTDEPTH.m              00 000 000 000:  GT Depth
 GTPQH.psia             00 000 000 000:  GT HR Quartz Pressure
 GTTQ.degC              00 000 000 000:  GT Quartz Temperature
 GTTN.NONE              00 000 000 000:  GT Test Number
 GTET.sec               00 000 000 000:  GT Elapsed Test Time
 GTTVD.m                00 000 000 000:  GT True Vertical Depth
#Other Information
#
#WARRANTY: Halliburton will use its best efforts to furnish customers with 
#accurate information and interpretations that are part of, and incident to, the services 
#provided.  However, Halliburton cannot and does not warrant the accuracy 
#or correctness of such information and interpretations.  Under no circumstances should any 
#such information or interpretation be relied upon as the sole basis for any drilling, 
#completion, production, or financial decision or any procedure involving any risk to the 
#safety of any drilling venture, drilling rig or its crew or any other third party.  The 
#Customer has full responsibility for all drilling, completion and production operation.  
#Halliburton makes no representations or warranties, either expressed or 
#implied, including, but not limited to, the implied warranties of merchantability or fitness 
#for a particular purpose, with respect to the services rendered.  In no event will 
#Halliburton be liable for failure to obtain any particular results or for 
#any damages, including, but not limited to, indirect, special or consequential damages, 
#resulting from the use of any information or interpretation provided by Halliburton.
#
~A           TIME           GTDEPTH  GTPQH  GTTQ  GTTN  GTET   GTTVD  
# ...
   13:37:52.261.18-Jan-2020 3754.51  414.09 80.70 4.00 391.13 2825.33
   13:37:52.461.18-Jan-2020 3754.51  414.09 80.70 4.00 391.33 2825.33
   13:37:52.661.18-Jan-2020 3754.51  413.88 80.70 4.00 391.53 2825.33
   13:37:52.861.18-Jan-2020 3754.51  413.83 80.70 4.00 391.73 2825.33
   13:37:53.061.18-Jan-2020 3754.51  413.73 80.70 4.00 391.93 2825.33
   13:37:53.261.18-Jan-2020 3754.51  413.68 80.70 4.00 392.13 2825.33
   13:37:53.462.18-Jan-2020 3754.51  413.68 80.70 4.00 392.33 2825.33
   13:37:53.662.18-Jan-2020 3754.51  411.94 80.70 4.00 392.53 2825.33
   13:37:53.862.18-Jan-2020 3754.51  413.91 80.69 4.00 392.73 2825.33
   13:37:54.062.18-Jan-2020 3754.51  414.26 80.69 4.00 392.93 2825.33
   13:37:54.262.18-Jan-2020 3754.51  413.95 80.69 4.00 393.13 2825.33
   13:37:54.462.18-Jan-2020 3754.51  413.95 80.69 4.00 393.33 2825.33
   13:37:54.662.18-Jan-2020 3754.51  413.82 80.69 4.00 393.53 2825.33
   13:37:54.862.18-Jan-2020 3754.51  413.73 80.69 4.00 393.73 2825.33
   13:37:55.062.18-Jan-2020 3754.51  413.80 80.69 4.00 393.93 2825.33
   13:37:55.262.18-Jan-2020 3754.51  413.46 80.69 4.00 394.13 2825.33
   13:37:55.462.18-Jan-2020 3754.51  413.46 80.69 4.00 394.33 2825.33
   13:37:55.662.18-Jan-2020 3754.51  413.48 80.69 4.00 394.53 2825.33
   13:37:55.862.18-Jan-2020 3754.51  411.76 80.69 4.00 394.73 2825.33
   13:37:56.062.18-Jan-2020 3754.51  414.00 80.69 4.00 394.93 2825.33
   13:37:56.262.18-Jan-2020 3754.51  414.02 80.69 4.00 395.13 2825.33
   13:37:56.463.18-Jan-2020 3754.51  414.02 80.69 4.00 395.33 2825.33
   13:37:56.663.18-Jan-2020 3754.51  413.82 80.69 4.00 395.53 2825.33
   13:37:56.863.18-Jan-2020 3754.51  413.79 80.69 4.00 395.73 2825.33
   13:37:57.063.18-Jan-2020 3754.51  412.06 80.69 4.00 395.93 2825.33
   13:37:57.263.18-Jan-2020 3754.51  414.01 80.69 4.00 396.13 2825.33
   13:37:57.463.18-Jan-2020 3754.51  414.39 80.69 4.00 396.33 2825.33
   13:37:57.663.18-Jan-2020 3754.51  413.96 80.69 4.00 396.53 2825.33
   13:37:57.863.18-Jan-2020 3754.51  412.18 80.69 4.00 396.73 2825.33
   13:37:58.063.18-Jan-2020 3754.51  414.19 80.69 4.00 396.93 2825.33
   13:37:58.263.18-Jan-2020 3754.51  414.79 80.69 4.00 397.13 2825.33
   13:37:58.463.18-Jan-2020 3754.51  414.79 80.69 4.00 397.33 2825.33
   13:37:58.663.18-Jan-2020 3754.51  413.73 80.69 4.00 397.53 2825.33
   13:37:58.863.18-Jan-2020 3754.51  413.63 80.69 4.00 397.73 2825.33
   13:37:59.063.18-Jan-2020 3754.51  414.50 80.69 4.00 397.93 2825.33
   13:37:59.263.18-Jan-2020 3754.51  415.19 80.69 4.00 398.13 2825.33
   13:37:59.463.18-Jan-2020 3754.51  415.19 80.69 4.00 398.33 2825.33
   13:37:59.664.18-Jan-2020 3754.51  414.78 80.68 4.00 398.53 2825.33
   13:37:59.864.18-Jan-2020 3754.51  414.82 80.68 4.00 398.73 2825.33
   13:38:00.064.18-Jan-2020 3754.51  414.70 80.68 4.00 398.93 2825.33
   13:38:00.264.18-Jan-2020 3754.51  414.73 80.68 4.00 399.13 2825.33
   13:38:00.464.18-Jan-2020 3754.51  414.73 80.68 4.00 399.33 2825.33
   13:38:00.664.18-Jan-2020 3754.51  414.60 80.68 4.00 399.53 2825.33
   13:38:00.864.18-Jan-2020 3754.51  414.56 80.68 4.00 399.73 2825.33
   13:38:01.064.18-Jan-2020 3754.51  414.43 80.68 4.00 399.93 2825.33
   13:38:01.264.18-Jan-2020 3754.51  414.39 80.68 4.00 400.13 2825.33
   13:38:01.464.18-Jan-2020 3754.51  414.39 80.68 4.00 400.33 2825.33
   13:38:01.664.18-Jan-2020 3754.51  414.39 80.68 4.00 400.53 2825.33
   13:38:01.864.18-Jan-2020 3754.51  414.18 80.68 4.00 400.73 2825.33
   13:38:02.064.18-Jan-2020 3754.51  413.65 80.68 4.00 400.93 2825.33
   13:38:02.264.18-Jan-2020 3754.51  413.46 80.68 4.00 401.13 2825.33
   13:38:02.464.18-Jan-2020 3754.51  413.46 80.68 4.00 401.33 2825.33
   13:38:02.665.18-Jan-2020 3754.51  414.97 80.68 4.00 401.53 2825.33
   13:38:02.865.18-Jan-2020 3754.51  414.85 80.68 4.00 401.73 2825.33
   13:38:03.065.18-Jan-2020 3754.51  414.80 80.68 4.00 401.93 2825.33
   13:38:03.265.18-Jan-2020 3754.51  414.60 80.68 4.00 402.13 2825.33
   13:38:03.465.18-Jan-2020 3754.51  414.60 80.68 4.00 402.33 2825.33
   13:38:03.665.18-Jan-2020 3754.51  414.48 80.68 4.00 402.53 2825.33
   13:38:03.865.18-Jan-2020 3754.51  414.43 80.68 4.00 402.73 2825.33
   13:38:04.065.18-Jan-2020 3754.51  414.37 80.68 4.00 402.93 2825.33
   13:38:04.265.18-Jan-2020 3754.51  414.37 80.68 4.00 403.13 2825.33
   13:38:04.465.18-Jan-2020 3754.51  414.37 80.68 4.00 403.33 2825.33
   13:38:04.665.18-Jan-2020 3754.51  414.69 80.68 4.00 403.53 2825.33
   13:38:04.865.18-Jan-2020 3754.51  415.40 80.68 4.00 403.73 2825.33
   13:38:05.065.18-Jan-2020 3754.51  415.16 80.68 4.00 403.93 2825.33
   13:38:05.265.18-Jan-2020 3754.51  414.92 80.68 4.00 404.13 2825.33
   13:38:05.465.18-Jan-2020 3754.51  414.92 80.68 4.00 404.33 2825.33
   13:38:05.665.18-Jan-2020 3754.51  414.17 80.67 4.00 404.53 2825.33
   13:38:05.866.18-Jan-2020 3754.51  414.77 80.67 4.00 404.73 2825.33
   13:38:06.066.18-Jan-2020 3754.51  415.55 80.67 4.00 404.93 2825.33
   13:38:06.266.18-Jan-2020 3754.51  415.18 80.67 4.00 405.13 2825.33
   13:38:06.466.18-Jan-2020 3754.51  415.18 80.67 4.00 405.33 2825.33
   13:38:06.666.18-Jan-2020 3754.51  415.43 80.67 4.00 405.53 2825.33
   13:38:06.866.18-Jan-2020 3754.51  415.34 80.67 4.00 405.73 2825.33
   13:38:07.066.18-Jan-2020 3754.51  415.10 80.67 4.00 405.93 2825.33
   13:38:07.266.18-Jan-2020 3754.51  413.54 80.67 4.00 406.13 2825.33
   13:38:07.466.18-Jan-2020 3754.51  413.54 80.67 4.00 406.33 2825.33
   13:38:07.666.18-Jan-2020 3754.51  416.59 80.67 4.00 406.53 2825.33
   13:38:07.866.18-Jan-2020 3754.51  416.25 80.67 4.00 406.73 2825.33
   13:38:08.066.18-Jan-2020 3754.51  416.00 80.67 4.00 406.93 2825.33
   13:38:08.266.18-Jan-2020 3754.51  416.03 80.67 4.00 407.13 2825.33
   13:38:08.466.18-Jan-2020 3754.51  416.03 80.67 4.00 407.33 2825.33
   13:38:08.666.18-Jan-2020 3754.51  416.14 80.67 4.00 407.53 2825.33
   13:38:08.867.18-Jan-2020 3754.51  415.87 80.67 4.00 407.73 2825.33
   13:38:09.067.18-Jan-2020 3754.51  415.81 80.67 4.00 407.93 2825.33
   13:38:09.267.18-Jan-2020 3754.51  415.84 80.67 4.00 408.13 2825.33
   13:38:09.467.18-Jan-2020 3754.51  415.84 80.67 4.00 408.33 2825.33
   13:38:09.667.18-Jan-2020 3754.51  415.73 80.67 4.00 408.53 2825.33
   13:38:09.867.18-Jan-2020 3754.51  415.60 80.67 4.00 408.73 2825.33
   13:38:10.067.18-Jan-2020 3754.51  415.54 80.67 4.00 408.93 2825.33
   13:38:10.267.18-Jan-2020 3754.51  415.47 80.67 4.00 409.13 2825.33
   13:38:10.467.18-Jan-2020 3754.51  415.47 80.67 4.00 409.33 2825.33
   13:38:10.667.18-Jan-2020 3754.51  413.83 80.67 4.00 409.53 2825.33
   13:38:10.867.18-Jan-2020 3754.51  416.02 80.67 4.00 409.73 2825.33
   13:38:11.067.18-Jan-2020 3754.51  416.65 80.67 4.00 409.93 2825.33
   13:38:11.267.18-Jan-2020 3754.51  416.22 80.67 4.00 410.13 2825.33
   13:38:11.467.18-Jan-2020 3754.51  416.22 80.67 4.00 410.33 2825.33
   13:38:11.667.18-Jan-2020 3754.51  416.20 80.66 4.00 410.53 2825.33
   13:38:11.867.18-Jan-2020 3754.51  416.26 80.66 4.00 410.73 2825.33
   13:38:12.068.18-Jan-2020 3754.51  416.25 80.66 4.00 410.93 2825.33
   13:38:12.268.18-Jan-2020 3754.51  416.13 80.66 4.00 411.13 2825.33
   13:38:12.468.18-Jan-2020 3754.51  416.13 80.66 4.00 411.33 2825.33
   13:38:12.668.18-Jan-2020 3754.51  416.06 80.66 4.00 411.53 2825.33
   13:38:12.868.18-Jan-2020 3754.51  414.35 80.66 4.00 411.73 2825.33
   13:38:13.068.18-Jan-2020 3754.51  417.02 80.66 4.00 411.93 2825.33
   13:38:13.268.18-Jan-2020 3754.51  416.93 80.66 4.00 412.13 2825.33
   13:38:13.468.18-Jan-2020 3754.51  416.93 80.66 4.00 412.33 2825.33
   13:38:13.668.18-Jan-2020 3754.51  417.04 80.66 4.00 412.53 2825.33
   13:38:13.868.18-Jan-2020 3754.51  416.45 80.66 4.00 412.73 2825.33
   13:38:14.068.18-Jan-2020 3754.51  416.19 80.66 4.00 412.93 2825.33
   13:38:14.268.18-Jan-2020 3754.51  416.86 80.66 4.00 413.13 2825.33
   13:38:14.468.18-Jan-2020 3754.51  416.86 80.66 4.00 413.33 2825.33
   13:38:14.668.18-Jan-2020 3754.51  417.30 80.66 4.00 413.53 2825.33
   13:38:14.868.18-Jan-2020 3754.51  416.03 80.66 4.00 413.73 2825.33
   13:38:15.069.18-Jan-2020 3754.51  417.43 80.66 4.00 413.93 2825.33
