~Version Information
 VERS.                  2.0:   CWLS log ASCII Standard -VERSION 2.0
 WRAP.                   NO:   One line per depth step
~Well Information Block
#MNEM.UNIT     VALUE/NAME     DESCRIPTION
#---------     -----------    ---------------------------
 STRT.S             13:51:43 18-Jan-20: START TIME 13:51:43 18-Jan-20
 STOP.S             13:59:59 18-Jan-20: STOP TIME  13:59:59 18-Jan-20
 STEP.S                   0.00: STEP TIME
 NULL.                 -999.25: NULL VALUE
 DFWT.                        :  DIST FWL TEXT
 DFST.                        :  DIST FSL TEXT
 DMF .             Drill Floor:  DRILL MEAS FROM
 STIM.      09.30.00 26-Dec-19:  START TIME
 DATE.      08.00.00 20-Jan-20:  END TIME
 SPUD.               23-Nov-19:  SPUD DATE
 NREF.                    Grid:  NORTH REFERENCE
 HPTY.       Minimum Curvature:  HOLE POS TYPE
 DMOD.             Drill Model:  DRILL MOD DESC
 SVYD.                  Survey:  SURVEY DESC
 ILTD.               Lithology:  INTERP LTH DESC
 FTOP.          Formation Tops:  FORM TOPS DESC
 SON .        AZ-XX-0906192647:  JOB NUMBER
 WTYP.                Deviated:  WELL TYPE
 COMP.     BP Exploration (Caspian Sea) Ltd:  COMPANY
 BASE.              Azerbaijan:  LOGGING EQUIPMENT BASE LOCATION
 REGN.                 Eurasia:  REGION
 FLD .                     ACG:  FIELD NAME
 SRVC.              KCA Deutag:  CONTRACTOR
 MWDS.                    Baku:  MWD SHOP
 WELL.     A10 (Slot 20) - SCP:  WELL NAME
 JOBN.        AZ-XX-0906192647:  JOB TICKET NUMB
 RIG .                 Chirag1:  RIG NAME
 DCON.     Halliburton Sperry Drilling:  DIRECTNL CONTR
 UNIT.                     N/A:  LOGGING EQUIPMENT ID
 PDAT.          Mean Sea Level:  PERMANENT DATUM
 MDS .        Operator Entered:  MAG DATA SOURCE
 CTRY.              Azerbaijan:  COUNTRY NAME
 UWI .            /AZE00000090:  UNIQUE WELL IDENTIFIER
 API .            /AZE00000090:  API NUMBER
 CNTY.                        :  COUNTY
 PROV.                        :  PROVINCE
 STAT.                        :  STATE
 LOC .                        :  LOCATION
 LMF .             Drill Floor:  LOG MEASURED FROM
 TVDS.m                  36.60:  TVDSS CORRECTN
 LATI.deg                40.08:  LATITUDE
 LONG.deg                51.24:  LONGITUDE
 WHNS.m                  -7.94:  WELL HEAD N/S
 WHEW.m                   1.56:  WELL HEAD E/W
 UTMX.m              520429.26:  UTM X
 UTMY.m             4438973.87:  UTM Y
 DFWL.m                   0.00:  DISTANCE FWL
 DFSL.m                   0.00:  DISTANCE FSL
 SDEP.m                1455.00:  START DEPTH
 TDD .m                3878.01:  TOTAL DEPTH (DRILLER)
 VSDR.deg               112.75:  VERT SEC DIRECT
 GVFD.g                   1.00:  GRAVITY FIELD
 MFLD.nT              50256.00:  MAGNETIC FIELD
 MDIP.deg                59.52:  MAGNETIC DIP
 MDEC.deg                 6.43:  MAGNETIC DECL
 GRDC.deg                 0.16:  GRID CORRECTION
 AZTC.deg                 6.27:  AZM TOTAL CORR
 EPD .m                   0.00:  ELEVATION
 EGL .m                   0.00:  GROUND ELEVATION
 WDMS.m                 121.00:  WD ELEV
 APD .m                  36.60:  DEPTH ABOVE PD
 AGAP.m                  36.60:  AIR GAP
 VSEW.m                   1.56:  VERT SEC E/W
 VSNS.m                  -7.94:  VERT SEC N/S
 DEP .m                1140.01:  DEPTH
 EKB .m                  36.60:  KB ELEVATION
 EDF .m                  36.60:  DF ELEVATION
 TDL .m                1293.00:  TOTAL DEPTH (LOGGER)
 VSC .                       0:  VS TO CLOSURE
 MAGU.                 1849164:  MAGUTM CHECKSUM
~Parameter Information Block
#MNEM.UNIT       Value        Description
#---------     -----------    ---------------------------
 AV  .mps                 2.40:  Ann Velocity 
 AVMX.mps                 2.55:  Max Ann Veloc 
 AZIF.deg               134.35:  Azm, Final 
 BHAT.        Rotary Steerable:  BHA Type 
 BREV.rev               847.00:  Rev Bit Total 
 BROT.°/30m              -2.51:  Build Rotating 
 BS  .in                  8.50:  Bit Size 
 BSZ .in                  8.50:  Bit Size 
 BTPL.psig              700.00:  Bit Press Loss 
 CABU.                     Yes:  Customer Abuse 
 CGEO.          Ilgar Gurbanov:  Customer Geo 
 COMM.                     üÓ~:  Run Comments 1 
 TCS .hr                140.40:  Time Ciculation Ended 
 CV  .mps                 2.27:  Crit Velocity 
 CVMX.mps                 2.45:  Max Crit Veloc 
 DD1 .         Intigam Rahimov:  Direct Drillr 1 
 DD2 .         Rasim Ibrahimov:  Direct Drillr 2 
 DDSV.                 iCruise:  DD Service 
 DEFF.%                  99.00:  % Det Eff 
 DLRX.°/30m               3.28:  Dogleg Rot Max 
 DLSO.°/30m               0.00:  Dogleg Oriented 
 DLSX.°/30m               0.00:  Dogleg Str Max 
 DRET.      23.30.00 18-Jan-20:  Drill End Time 
 DRST.      01.45.00 11-Jan-20:  Drill Start Tim 
 DTIM.hr                 94.00:  Time Drilling 
 EDEP.m                3878.01:  End Depth 
 ENG1.       Dauren Baktybayev:  Engineer 1 
 ENG2.      Natik Hasanaghayev:  Engineer 2 
 ENG3.          Rustam Safarov:  Engineer 3 
 ETIM.      08.00.00 20-Jan-20:  End Time 
 FLOI.gpm               532.00:  Flow In 
 FLON.gpm               500.00:  Flow In Min 
 FLOS.cptm                0.00:  Fluid Loss 
 FLOX.gpm               540.00:  Flow In Max 
 FTRO.       Formation Presure:  FTWD Run Obj 
 HPRE.                     Yes:  High Pressure 
 HTEM.                      No:  High Temp 
 HYDO.m                   1.80:  Hydro Offset 
 IFIN.deg                39.86:  Inc, Final 
 IMAX.deg                59.73:  Inc Max 
 IMIN.deg                39.25:  Inc Min 
 IMND.m                3816.77:  Inc Min Depth 
 IMXD.m                2596.33:  Inc Max Depth 
 JARR.                      No:  Jarring 
 LETM.      23.30.00 18-Jan-20:  Log End Time 
 LOST.hr                     0:  Lost Rig Time 
 LSTM.      01.45.00 11-Jan-20:  Log Start Time 
 MDCL.ppm             41500.00:  Mud Chlorides 
 MDES.     Inversion Oil/Synthetic:  Mud Desc 
 DFD .sg                  1.48:  Mud Density 
 MDMN.sg                  1.48:  Dens Mud Min 
 MDMX.sg                  1.48:  Dens Mud Max 
 MOIL.                      54:  Run Mud Oil % 
 MOWR.                   72:28:  Run Mud OWR 
 MSND.                       0:  Run Mud Sand % 
 MSOL.                      23:  Run Mud Solids% 
 DFV .spqt               86.00:  Mud Viscosity 
 MWOD.in                  6.75:  MWD Tool OD 
 MWSI.                      No:  Serv Intrp, MWD 
 OTIM.hr                223.40:  Time Operating 
 PCON.           Look Like New:  Pad Condition 
 PMAX.psia            32446.79:  Press Op, Max 
 PV  .cP                 49.00:  Mud PV 
 RUN .                     200:  Run Number 
 ROPA.m/hr               12.48:  ROP Avg 
 ROPN.m/hr                8.00:  ROP Min 
 ROPX.m/hr               27.00:  ROP Max 
 RPMA.rpm               121.00:  RPM Surface Avg 
 RPMN.rpm                60.00:  RPM Surface Min 
 RPMX.rpm               140.00:  RPM Surface Max 
 RRUN.                    L202:  Rig Run Number 
 RTIM.hr                  7.25:  Time Reaming 
 SAZI.deg               123.49:  Azm, Start 
 SDEP.m                2585.01:  Start Depth 
 SIDD.                      No:  Serv Intrp, DD 
 SINC.deg                59.93:  Inc, Start 
 SPPA.psig             3539.00:  SPP Avg 
 SPPN.psig             3050.00:  SPP Min 
 SPPX.psig             3950.00:  SPP Max 
 STIM.      19.00.00 10-Jan-20:  Start Time 
 SVCS.                 DD, MWD:  Services 
 SVER.                    9.20:  Sperry Version 
 TDAT.m                1293.00:  Tot Depth Attmp 
 TDDF.                      No:  Trip for DD 
 TDLG.m                1293.00:  Tot Depth Loggd 
 TFF .                      No:  Trip for Fail 
 TQAA.f-kp               16.00:  Torque Abs Avg 
 TQAN.f-kp               11.00:  Torque Abs Min 
 TQAX.f-kp               18.00:  Torque Abs Max 
 TRRT.°/30m               1.25:  Turn Rotating 
 MRT .                  EWR-M5:  Maximum Recorded Temperature 
 TTMX.degC               84.00:  Max Tool Temp 
 VS01.          AZ90514619R5C6:  Virtual Str1 SN 
 VS02.        AZ90552592N2L2C6:  Virtual Str2 SN 
 VS03.        AZ90571337Z1W1C6:  Virtual Str3 SN 
 VS04.         AZ90513690K23C6:  Virtual Str4 SN 
 VS05.           AZ90594857F11:  Virtual Str5 SN 
 VS06.                13102166:  Virtual Str6 SN 
 WBMN.klb                 7.00:  WOB Min 
 WITN.            Peter Wilson:  Customer Rep 
 WOBA.klb                 9.95:  WOB Avg 
 WOBX.klb                10.00:  WOB Max 
 YP  .lhf2               36.00:  Yield Point 
~Curve Information Block
#MNEM.UNIT                 API CODE     Curve Description
#---------               -----------    ---------------------------
 TIME.HHMMSS            00 000 000 000:  GT Time & Date
 GTDEPTH.m              00 000 000 000:  GT Depth
 GTPQH.psia             00 000 000 000:  GT HR Quartz Pressure
 GTTQ.degC              00 000 000 000:  GT Quartz Temperature
 GTTN.NONE              00 000 000 000:  GT Test Number
 GTET.sec               00 000 000 000:  GT Elapsed Test Time
 GTTVD.m                00 000 000 000:  GT True Vertical Depth
#Other Information
#
#WARRANTY: Halliburton will use its best efforts to furnish customers with 
#accurate information and interpretations that are part of, and incident to, the services 
#provided.  However, Halliburton cannot and does not warrant the accuracy 
#or correctness of such information and interpretations.  Under no circumstances should any 
#such information or interpretation be relied upon as the sole basis for any drilling, 
#completion, production, or financial decision or any procedure involving any risk to the 
#safety of any drilling venture, drilling rig or its crew or any other third party.  The 
#Customer has full responsibility for all drilling, completion and production operation.  
#Halliburton makes no representations or warranties, either expressed or 
#implied, including, but not limited to, the implied warranties of merchantability or fitness 
#for a particular purpose, with respect to the services rendered.  In no event will 
#Halliburton be liable for failure to obtain any particular results or for 
#any damages, including, but not limited to, indirect, special or consequential damages, 
#resulting from the use of any information or interpretation provided by Halliburton.
#
~A           TIME           GTDEPTH  GTPQH  GTTQ  GTTN  GTET   GTTVD  
# ...
   13:54:47.589.18-Jan-2020 3754.01 3604.52 79.52 5.00 184.06 2824.94
   13:54:47.789.18-Jan-2020 3754.01 3604.52 79.52 5.00 184.26 2824.94
   13:54:47.990.18-Jan-2020 3754.01 3608.84 79.52 5.00 184.46 2824.94
   13:54:48.190.18-Jan-2020 3754.01 3609.54 79.52 5.00 184.66 2824.94
   13:54:48.390.18-Jan-2020 3754.01 3609.00 79.52 5.00 184.86 2824.94
   13:54:48.590.18-Jan-2020 3754.01 3675.05 79.52 5.00 185.06 2824.94
   13:54:48.790.18-Jan-2020 3754.01 3675.05 79.52 5.00 185.26 2824.94
   13:54:48.990.18-Jan-2020 3754.01 3692.40 79.52 5.00 185.46 2824.94
   13:54:49.190.18-Jan-2020 3754.01 3693.89 79.52 5.00 185.66 2824.94
   13:54:49.390.18-Jan-2020 3754.01 3692.85 79.52 5.00 185.86 2824.94
   13:54:49.590.18-Jan-2020 3754.01 3696.84 79.52 5.00 186.06 2824.94
   13:54:49.790.18-Jan-2020 3754.01 3696.84 79.52 5.00 186.26 2824.94
   13:54:49.990.18-Jan-2020 3754.01 3694.60 79.52 5.00 186.46 2824.94
   13:54:50.190.18-Jan-2020 3754.01 3696.07 79.52 5.00 186.66 2824.94
   13:54:50.390.18-Jan-2020 3754.01 3693.15 79.52 5.00 186.86 2824.94
   13:54:50.590.18-Jan-2020 3754.01 3694.69 79.52 5.00 187.06 2824.94
   13:54:50.790.18-Jan-2020 3754.01 3694.69 79.52 5.00 187.26 2824.94
   13:54:50.991.18-Jan-2020 3754.01 3694.45 79.52 5.00 187.46 2824.94
   13:54:51.191.18-Jan-2020 3754.01 3694.41 79.52 5.00 187.66 2824.94
   13:54:51.391.18-Jan-2020 3754.01 3694.50 79.52 5.00 187.86 2824.94
   13:54:51.591.18-Jan-2020 3754.01 3694.60 79.52 5.00 188.06 2824.94
   13:54:51.791.18-Jan-2020 3754.01 3694.60 79.52 5.00 188.26 2824.94
   13:54:51.991.18-Jan-2020 3754.01 3694.69 79.52 5.00 188.46 2824.94
   13:54:52.191.18-Jan-2020 3754.01 3694.70 79.52 5.00 188.66 2824.94
   13:54:52.391.18-Jan-2020 3754.01 3694.75 79.52 5.00 188.86 2824.94
   13:54:52.591.18-Jan-2020 3754.01 3694.66 79.52 5.00 189.06 2824.94
   13:54:52.791.18-Jan-2020 3754.01 3694.66 79.52 5.00 189.26 2824.94
   13:54:52.991.18-Jan-2020 3754.01 3694.77 79.52 5.00 189.46 2824.94
   13:54:53.191.18-Jan-2020 3754.01 3694.66 79.52 5.00 189.66 2824.94
   13:54:53.391.18-Jan-2020 3754.01 3694.81 79.52 5.00 189.86 2824.94
   13:54:53.591.18-Jan-2020 3754.01 3694.07 79.52 5.00 190.06 2824.94
   13:54:53.791.18-Jan-2020 3754.01 3694.07 79.52 5.00 190.26 2824.94
   13:54:53.991.18-Jan-2020 3754.01 3692.13 79.52 5.00 190.46 2824.94
   13:54:54.192.18-Jan-2020 3754.01 3695.82 79.52 5.00 190.66 2824.94
   13:54:54.392.18-Jan-2020 3754.01 3694.40 79.52 5.00 190.86 2824.94
   13:54:54.592.18-Jan-2020 3754.01 3695.16 79.52 5.00 191.06 2824.94
   13:54:54.792.18-Jan-2020 3754.01 3695.16 79.52 5.00 191.26 2824.94
   13:54:54.992.18-Jan-2020 3754.01 3694.89 79.52 5.00 191.46 2824.94
   13:54:55.192.18-Jan-2020 3754.01 3694.73 79.52 5.00 191.66 2824.94
   13:54:55.392.18-Jan-2020 3754.01 3694.87 79.52 5.00 191.86 2824.94
   13:54:55.592.18-Jan-2020 3754.01 3694.98 79.52 5.00 192.06 2824.94
   13:54:55.792.18-Jan-2020 3754.01 3694.98 79.52 5.00 192.26 2824.94
   13:54:55.992.18-Jan-2020 3754.01 3696.57 79.52 5.00 192.46 2824.94
   13:54:56.192.18-Jan-2020 3754.01 3694.17 79.52 5.00 192.66 2824.94
   13:54:56.392.18-Jan-2020 3754.01 3694.43 79.52 5.00 192.86 2824.94
   13:54:56.592.18-Jan-2020 3754.01 3694.23 79.52 5.00 193.06 2824.94
   13:54:56.792.18-Jan-2020 3754.01 3694.23 79.52 5.00 193.26 2824.94
   13:54:56.992.18-Jan-2020 3754.01 3693.10 79.52 5.00 193.46 2824.94
   13:54:57.193.18-Jan-2020 3754.01 3695.37 79.52 5.00 193.66 2824.94
   13:54:57.393.18-Jan-2020 3754.01 3694.78 79.52 5.00 193.86 2824.94
   13:54:57.593.18-Jan-2020 3754.01 3696.13 79.52 5.00 194.06 2824.94
   13:54:57.793.18-Jan-2020 3754.01 3696.13 79.52 5.00 194.26 2824.94
   13:54:57.993.18-Jan-2020 3754.01 3694.08 79.52 5.00 194.46 2824.94
   13:54:58.193.18-Jan-2020 3754.01 3694.39 79.52 5.00 194.66 2824.94
   13:54:58.393.18-Jan-2020 3754.01 3696.75 79.52 5.00 194.86 2824.94
   13:54:58.593.18-Jan-2020 3754.01 3693.14 79.52 5.00 195.06 2824.94
   13:54:58.793.18-Jan-2020 3754.01 3693.14 79.52 5.00 195.26 2824.94
   13:54:58.993.18-Jan-2020 3754.01 3694.73 79.52 5.00 195.46 2824.94
   13:54:59.193.18-Jan-2020 3754.01 3694.99 79.52 5.00 195.66 2824.94
   13:54:59.393.18-Jan-2020 3754.01 3694.86 79.52 5.00 195.86 2824.94
   13:54:59.593.18-Jan-2020 3754.01 3695.19 79.52 5.00 196.06 2824.94
   13:54:59.793.18-Jan-2020 3754.01 3695.19 79.52 5.00 196.26 2824.94
   13:54:59.993.18-Jan-2020 3754.01 3695.08 79.52 5.00 196.46 2824.94
   13:55:00.193.18-Jan-2020 3754.01 3694.88 79.52 5.00 196.66 2824.94
   13:55:00.394.18-Jan-2020 3754.01 3695.11 79.52 5.00 196.86 2824.94
   13:55:00.594.18-Jan-2020 3754.01 3694.95 79.52 5.00 197.06 2824.94
   13:55:00.794.18-Jan-2020 3754.01 3694.95 79.52 5.00 197.26 2824.94
   13:55:00.994.18-Jan-2020 3754.01 3695.09 79.52 5.00 197.46 2824.94
   13:55:01.194.18-Jan-2020 3754.01 3695.06 79.52 5.00 197.66 2824.94
   13:55:01.394.18-Jan-2020 3754.01 3694.95 79.52 5.00 197.86 2824.94
   13:55:01.594.18-Jan-2020 3754.01 3694.95 79.52 5.00 198.06 2824.94
   13:55:01.794.18-Jan-2020 3754.01 3694.87 79.52 5.00 198.26 2824.94
   13:55:01.994.18-Jan-2020 3754.01 3694.50 79.52 5.00 198.46 2824.94
   13:55:02.194.18-Jan-2020 3754.01 3694.33 79.52 5.00 198.66 2824.94
   13:55:02.394.18-Jan-2020 3754.01 3695.00 79.52 5.00 198.86 2824.94
   13:55:02.594.18-Jan-2020 3754.01 3694.68 79.52 5.00 199.06 2824.94
   13:55:02.794.18-Jan-2020 3754.01 3694.68 79.52 5.00 199.26 2824.94
   13:55:02.994.18-Jan-2020 3754.01 3695.11 79.52 5.00 199.46 2824.94
   13:55:03.194.18-Jan-2020 3754.01 3695.13 79.52 5.00 199.66 2824.94
   13:55:03.395.18-Jan-2020 3754.01 3694.85 79.52 5.00 199.86 2824.94
   13:55:03.595.18-Jan-2020 3754.01 3695.16 79.52 5.00 200.06 2824.94
   13:55:03.795.18-Jan-2020 3754.01 3695.16 79.52 5.00 200.26 2824.94
   13:55:03.995.18-Jan-2020 3754.01 3694.58 79.52 5.00 200.46 2824.94
   13:55:04.195.18-Jan-2020 3754.01 3697.30 79.52 5.00 200.66 2824.94
   13:55:04.395.18-Jan-2020 3754.01 3692.57 79.52 5.00 200.86 2824.94
   13:55:04.595.18-Jan-2020 3754.01 3696.22 79.52 5.00 201.07 2824.94
   13:55:04.795.18-Jan-2020 3754.01 3696.22 79.52 5.00 201.27 2824.94
   13:55:04.995.18-Jan-2020 3754.01 3695.34 79.52 5.00 201.47 2824.94
   13:55:05.195.18-Jan-2020 3754.01 3696.45 79.52 5.00 201.67 2824.94
   13:55:05.395.18-Jan-2020 3754.01 3693.26 79.52 5.00 201.87 2824.94
   13:55:05.595.18-Jan-2020 3754.01 3695.74 79.52 5.00 202.07 2824.94
   13:55:05.795.18-Jan-2020 3754.01 3695.74 79.52 5.00 202.27 2824.94
   13:55:05.995.18-Jan-2020 3754.01 3694.45 79.52 5.00 202.47 2824.94
   13:55:06.195.18-Jan-2020 3754.01 3697.13 79.52 5.00 202.67 2824.94
   13:55:06.395.18-Jan-2020 3754.01 3693.64 79.52 5.00 202.87 2824.94
   13:55:06.596.18-Jan-2020 3754.01 3695.63 79.52 5.00 203.07 2824.94
   13:55:06.796.18-Jan-2020 3754.01 3695.63 79.52 5.00 203.27 2824.94
   13:55:06.996.18-Jan-2020 3754.01 3697.44 79.52 5.00 203.47 2824.94
   13:55:07.196.18-Jan-2020 3754.01 3692.83 79.52 5.00 203.67 2824.94
   13:55:07.396.18-Jan-2020 3754.01 3696.21 79.52 5.00 203.87 2824.94
   13:55:07.596.18-Jan-2020 3754.01 3694.41 79.52 5.00 204.07 2824.94
   13:55:07.796.18-Jan-2020 3754.01 3694.41 79.52 5.00 204.27 2824.94
   13:55:07.996.18-Jan-2020 3754.01 3694.94 79.52 5.00 204.47 2824.94
   13:55:08.196.18-Jan-2020 3754.01 3695.15 79.52 5.00 204.67 2824.94
   13:55:08.396.18-Jan-2020 3754.01 3695.00 79.52 5.00 204.87 2824.94
   13:55:08.596.18-Jan-2020 3754.01 3694.97 79.52 5.00 205.07 2824.94
   13:55:08.796.18-Jan-2020 3754.01 3694.97 79.52 5.00 205.27 2824.94
   13:55:08.996.18-Jan-2020 3754.01 3695.20 79.52 5.00 205.47 2824.94
   13:55:09.196.18-Jan-2020 3754.01 3695.08 79.52 5.00 205.67 2824.94
   13:55:09.396.18-Jan-2020 3754.01 3694.97 79.52 5.00 205.87 2824.94
   13:55:09.597.18-Jan-2020 3754.01 3695.17 79.52 5.00 206.07 2824.94
   13:55:09.797.18-Jan-2020 3754.01 3695.17 79.52 5.00 206.27 2824.94
   13:55:09.997.18-Jan-2020 3754.01 3695.02 79.52 5.00 206.47 2824.94
   13:55:10.197.18-Jan-2020 3754.01 3695.03 79.52 5.00 206.67 2824.94
   13:55:10.397.18-Jan-2020 3754.01 3695.35 79.52 5.00 206.87 2824.94
