~Version Information
 VERS.                  2.0:   CWLS log ASCII Standard -VERSION 2.0
 WRAP.                   NO:   One line per depth step
~Well Information Block
#MNEM.UNIT     VALUE/NAME     DESCRIPTION
#---------     -----------    ---------------------------
 STRT.S             17:36:42 18-Jan-20: START TIME 17:36:42 18-Jan-20
 STOP.S             17:44:57 18-Jan-20: STOP TIME  17:44:57 18-Jan-20
 STEP.S                   0.00: STEP TIME
 NULL.                 -999.25: NULL VALUE
 DFWT.                        :  DIST FWL TEXT
 DFST.                        :  DIST FSL TEXT
 DMF .             Drill Floor:  DRILL MEAS FROM
 STIM.      09.30.00 26-Dec-19:  START TIME
 DATE.      08.00.00 20-Jan-20:  END TIME
 SPUD.               23-Nov-19:  SPUD DATE
 NREF.                    Grid:  NORTH REFERENCE
 HPTY.       Minimum Curvature:  HOLE POS TYPE
 DMOD.             Drill Model:  DRILL MOD DESC
 SVYD.                  Survey:  SURVEY DESC
 ILTD.               Lithology:  INTERP LTH DESC
 FTOP.          Formation Tops:  FORM TOPS DESC
 SON .        AZ-XX-0906192647:  JOB NUMBER
 WTYP.                Deviated:  WELL TYPE
 COMP.     BP Exploration (Caspian Sea) Ltd:  COMPANY
 BASE.              Azerbaijan:  LOGGING EQUIPMENT BASE LOCATION
 REGN.                 Eurasia:  REGION
 FLD .                     ACG:  FIELD NAME
 SRVC.              KCA Deutag:  CONTRACTOR
 MWDS.                    Baku:  MWD SHOP
 WELL.     A10 (Slot 20) - SCP:  WELL NAME
 JOBN.        AZ-XX-0906192647:  JOB TICKET NUMB
 RIG .                 Chirag1:  RIG NAME
 DCON.     Halliburton Sperry Drilling:  DIRECTNL CONTR
 UNIT.                     N/A:  LOGGING EQUIPMENT ID
 PDAT.          Mean Sea Level:  PERMANENT DATUM
 MDS .        Operator Entered:  MAG DATA SOURCE
 CTRY.              Azerbaijan:  COUNTRY NAME
 UWI .            /AZE00000090:  UNIQUE WELL IDENTIFIER
 API .            /AZE00000090:  API NUMBER
 CNTY.                        :  COUNTY
 PROV.                        :  PROVINCE
 STAT.                        :  STATE
 LOC .                        :  LOCATION
 LMF .             Drill Floor:  LOG MEASURED FROM
 TVDS.m                  36.60:  TVDSS CORRECTN
 LATI.deg                40.08:  LATITUDE
 LONG.deg                51.24:  LONGITUDE
 WHNS.m                  -7.94:  WELL HEAD N/S
 WHEW.m                   1.56:  WELL HEAD E/W
 UTMX.m              520429.26:  UTM X
 UTMY.m             4438973.87:  UTM Y
 DFWL.m                   0.00:  DISTANCE FWL
 DFSL.m                   0.00:  DISTANCE FSL
 SDEP.m                1455.00:  START DEPTH
 TDD .m                3878.01:  TOTAL DEPTH (DRILLER)
 VSDR.deg               112.75:  VERT SEC DIRECT
 GVFD.g                   1.00:  GRAVITY FIELD
 MFLD.nT              50256.00:  MAGNETIC FIELD
 MDIP.deg                59.52:  MAGNETIC DIP
 MDEC.deg                 6.43:  MAGNETIC DECL
 GRDC.deg                 0.16:  GRID CORRECTION
 AZTC.deg                 6.27:  AZM TOTAL CORR
 EPD .m                   0.00:  ELEVATION
 EGL .m                   0.00:  GROUND ELEVATION
 WDMS.m                 121.00:  WD ELEV
 APD .m                  36.60:  DEPTH ABOVE PD
 AGAP.m                  36.60:  AIR GAP
 VSEW.m                   1.56:  VERT SEC E/W
 VSNS.m                  -7.94:  VERT SEC N/S
 DEP .m                1140.01:  DEPTH
 EKB .m                  36.60:  KB ELEVATION
 EDF .m                  36.60:  DF ELEVATION
 TDL .m                1293.00:  TOTAL DEPTH (LOGGER)
 VSC .                       0:  VS TO CLOSURE
 MAGU.                 1849164:  MAGUTM CHECKSUM
~Parameter Information Block
#MNEM.UNIT       Value        Description
#---------     -----------    ---------------------------
 AV  .mps                 2.40:  Ann Velocity 
 AVMX.mps                 2.55:  Max Ann Veloc 
 AZIF.deg               134.35:  Azm, Final 
 BHAT.        Rotary Steerable:  BHA Type 
 BREV.rev               847.00:  Rev Bit Total 
 BROT.°/30m              -2.51:  Build Rotating 
 BS  .in                  8.50:  Bit Size 
 BSZ .in                  8.50:  Bit Size 
 BTPL.psig              700.00:  Bit Press Loss 
 CABU.                     Yes:  Customer Abuse 
 CGEO.          Ilgar Gurbanov:  Customer Geo 
 COMM.                     Ä_:  Run Comments 1 
 TCS .hr                140.40:  Time Ciculation Ended 
 CV  .mps                 2.27:  Crit Velocity 
 CVMX.mps                 2.45:  Max Crit Veloc 
 DD1 .         Intigam Rahimov:  Direct Drillr 1 
 DD2 .         Rasim Ibrahimov:  Direct Drillr 2 
 DDSV.                 iCruise:  DD Service 
 DEFF.%                  99.00:  % Det Eff 
 DLRX.°/30m               3.28:  Dogleg Rot Max 
 DLSO.°/30m               0.00:  Dogleg Oriented 
 DLSX.°/30m               0.00:  Dogleg Str Max 
 DRET.      23.30.00 18-Jan-20:  Drill End Time 
 DRST.      01.45.00 11-Jan-20:  Drill Start Tim 
 DTIM.hr                 94.00:  Time Drilling 
 EDEP.m                3878.01:  End Depth 
 ENG1.       Dauren Baktybayev:  Engineer 1 
 ENG2.      Natik Hasanaghayev:  Engineer 2 
 ENG3.          Rustam Safarov:  Engineer 3 
 ETIM.      08.00.00 20-Jan-20:  End Time 
 FLOI.gpm               532.00:  Flow In 
 FLON.gpm               500.00:  Flow In Min 
 FLOS.cptm                0.00:  Fluid Loss 
 FLOX.gpm               540.00:  Flow In Max 
 FTRO.       Formation Presure:  FTWD Run Obj 
 HPRE.                     Yes:  High Pressure 
 HTEM.                      No:  High Temp 
 HYDO.m                   1.80:  Hydro Offset 
 IFIN.deg                39.86:  Inc, Final 
 IMAX.deg                59.73:  Inc Max 
 IMIN.deg                39.25:  Inc Min 
 IMND.m                3816.77:  Inc Min Depth 
 IMXD.m                2596.33:  Inc Max Depth 
 JARR.                      No:  Jarring 
 LETM.      23.30.00 18-Jan-20:  Log End Time 
 LOST.hr                     0:  Lost Rig Time 
 LSTM.      01.45.00 11-Jan-20:  Log Start Time 
 MDCL.ppm             41500.00:  Mud Chlorides 
 MDES.     Inversion Oil/Synthetic:  Mud Desc 
 DFD .sg                  1.48:  Mud Density 
 MDMN.sg                  1.48:  Dens Mud Min 
 MDMX.sg                  1.48:  Dens Mud Max 
 MOIL.                      54:  Run Mud Oil % 
 MOWR.                   72:28:  Run Mud OWR 
 MSND.                       0:  Run Mud Sand % 
 MSOL.                      23:  Run Mud Solids% 
 DFV .spqt               86.00:  Mud Viscosity 
 MWOD.in                  6.75:  MWD Tool OD 
 MWSI.                      No:  Serv Intrp, MWD 
 OTIM.hr                223.40:  Time Operating 
 PCON.           Look Like New:  Pad Condition 
 PMAX.psia            32446.79:  Press Op, Max 
 PV  .cP                 49.00:  Mud PV 
 RUN .                     200:  Run Number 
 ROPA.m/hr               12.48:  ROP Avg 
 ROPN.m/hr                8.00:  ROP Min 
 ROPX.m/hr               27.00:  ROP Max 
 RPMA.rpm               121.00:  RPM Surface Avg 
 RPMN.rpm                60.00:  RPM Surface Min 
 RPMX.rpm               140.00:  RPM Surface Max 
 RRUN.                    L202:  Rig Run Number 
 RTIM.hr                  7.25:  Time Reaming 
 SAZI.deg               123.49:  Azm, Start 
 SDEP.m                2585.01:  Start Depth 
 SIDD.                      No:  Serv Intrp, DD 
 SINC.deg                59.93:  Inc, Start 
 SPPA.psig             3539.00:  SPP Avg 
 SPPN.psig             3050.00:  SPP Min 
 SPPX.psig             3950.00:  SPP Max 
 STIM.      19.00.00 10-Jan-20:  Start Time 
 SVCS.                 DD, MWD:  Services 
 SVER.                    9.20:  Sperry Version 
 TDAT.m                1293.00:  Tot Depth Attmp 
 TDDF.                      No:  Trip for DD 
 TDLG.m                1293.00:  Tot Depth Loggd 
 TFF .                      No:  Trip for Fail 
 TQAA.f-kp               16.00:  Torque Abs Avg 
 TQAN.f-kp               11.00:  Torque Abs Min 
 TQAX.f-kp               18.00:  Torque Abs Max 
 TRRT.°/30m               1.25:  Turn Rotating 
 MRT .                  EWR-M5:  Maximum Recorded Temperature 
 TTMX.degC               84.00:  Max Tool Temp 
 VS01.          AZ90514619R5C6:  Virtual Str1 SN 
 VS02.        AZ90552592N2L2C6:  Virtual Str2 SN 
 VS03.        AZ90571337Z1W1C6:  Virtual Str3 SN 
 VS04.         AZ90513690K23C6:  Virtual Str4 SN 
 VS05.           AZ90594857F11:  Virtual Str5 SN 
 VS06.                13102166:  Virtual Str6 SN 
 WBMN.klb                 7.00:  WOB Min 
 WITN.            Peter Wilson:  Customer Rep 
 WOBA.klb                 9.95:  WOB Avg 
 WOBX.klb                10.00:  WOB Max 
 YP  .lhf2               36.00:  Yield Point 
~Curve Information Block
#MNEM.UNIT                 API CODE     Curve Description
#---------               -----------    ---------------------------
 TIME.HHMMSS            00 000 000 000:  GT Time & Date
 GTDEPTH.m              00 000 000 000:  GT Depth
 GTPQH.psia             00 000 000 000:  GT HR Quartz Pressure
 GTTQ.degC              00 000 000 000:  GT Quartz Temperature
 GTTN.NONE              00 000 000 000:  GT Test Number
 GTET.sec               00 000 000 000:  GT Elapsed Test Time
 GTTVD.m                00 000 000 000:  GT True Vertical Depth
#Other Information
#
#WARRANTY: Halliburton will use its best efforts to furnish customers with 
#accurate information and interpretations that are part of, and incident to, the services 
#provided.  However, Halliburton cannot and does not warrant the accuracy 
#or correctness of such information and interpretations.  Under no circumstances should any 
#such information or interpretation be relied upon as the sole basis for any drilling, 
#completion, production, or financial decision or any procedure involving any risk to the 
#safety of any drilling venture, drilling rig or its crew or any other third party.  The 
#Customer has full responsibility for all drilling, completion and production operation.  
#Halliburton makes no representations or warranties, either expressed or 
#implied, including, but not limited to, the implied warranties of merchantability or fitness 
#for a particular purpose, with respect to the services rendered.  In no event will 
#Halliburton be liable for failure to obtain any particular results or for 
#any damages, including, but not limited to, indirect, special or consequential damages, 
#resulting from the use of any information or interpretation provided by Halliburton.
#
~A           TIME           GTDEPTH  GTPQH  GTTQ  GTTN  GTET   GTTVD  
# ...
   17:38:14.900.18-Jan-2020 3785.01 3832.00 82.15 6.00  92.01 2848.88
   17:38:15.100.18-Jan-2020 3785.01 3832.00 82.15 6.00  92.21 2848.88
   17:38:15.300.18-Jan-2020 3785.01 3833.00 82.15 6.00  92.41 2848.88
   17:38:15.500.18-Jan-2020 3785.01 3833.49 82.15 6.00  92.61 2848.88
   17:38:15.700.18-Jan-2020 3785.01 3833.85 82.15 6.00  92.81 2848.88
   17:38:15.900.18-Jan-2020 3785.01 3832.09 82.15 6.00  93.01 2848.88
   17:38:16.100.18-Jan-2020 3785.01 3832.09 82.15 6.00  93.21 2848.88
   17:38:16.300.18-Jan-2020 3785.01 3834.97 82.15 6.00  93.41 2848.88
   17:38:16.500.18-Jan-2020 3785.01 3835.93 82.15 6.00  93.61 2848.88
   17:38:16.700.18-Jan-2020 3785.01 3836.00 82.15 6.00  93.81 2848.88
   17:38:16.900.18-Jan-2020 3785.01 3836.34 82.15 6.00  94.01 2848.88
   17:38:17.100.18-Jan-2020 3785.01 3836.34 82.15 6.00  94.21 2848.88
   17:38:17.300.18-Jan-2020 3785.01 3836.91 82.15 6.00  94.41 2848.88
   17:38:17.500.18-Jan-2020 3785.01 3837.49 82.15 6.00  94.61 2848.88
   17:38:17.700.18-Jan-2020 3785.01 3837.97 82.15 6.00  94.81 2848.88
   17:38:17.900.18-Jan-2020 3785.01 3838.16 82.15 6.00  95.01 2848.88
   17:38:18.100.18-Jan-2020 3785.01 3838.16 82.15 6.00  95.21 2848.88
   17:38:18.300.18-Jan-2020 3785.01 3837.52 82.14 6.00  95.41 2848.88
   17:38:18.500.18-Jan-2020 3785.01 3838.95 82.14 6.00  95.61 2848.88
   17:38:18.700.18-Jan-2020 3785.01 3839.88 82.14 6.00  95.81 2848.88
   17:38:18.900.18-Jan-2020 3785.01 3840.03 82.14 6.00  96.01 2848.88
   17:38:19.100.18-Jan-2020 3785.01 3840.03 82.14 6.00  96.21 2848.88
   17:38:19.300.18-Jan-2020 3785.01 3839.04 82.14 6.00  96.41 2848.88
   17:38:19.500.18-Jan-2020 3785.01 3840.30 82.14 6.00  96.61 2848.88
   17:38:19.700.18-Jan-2020 3785.01 3841.52 82.14 6.00  96.81 2848.88
   17:38:19.900.18-Jan-2020 3785.01 3842.44 82.14 6.00  97.01 2848.88
   17:38:20.100.18-Jan-2020 3785.01 3842.44 82.14 6.00  97.21 2848.88
   17:38:20.300.18-Jan-2020 3785.01 3842.50 82.14 6.00  97.41 2848.88
   17:38:20.500.18-Jan-2020 3785.01 3841.93 82.14 6.00  97.61 2848.88
   17:38:20.700.18-Jan-2020 3785.01 3841.60 82.14 6.00  97.81 2848.88
   17:38:20.900.18-Jan-2020 3785.01 3843.20 82.14 6.00  98.01 2848.88
   17:38:21.100.18-Jan-2020 3785.01 3843.20 82.14 6.00  98.21 2848.88
   17:38:21.300.18-Jan-2020 3785.01 3843.95 82.14 6.00  98.41 2848.88
   17:38:21.500.18-Jan-2020 3785.01 3844.18 82.14 6.00  98.61 2848.88
   17:38:21.700.18-Jan-2020 3785.01 3844.49 82.14 6.00  98.81 2848.88
   17:38:21.900.18-Jan-2020 3785.01 3842.57 82.14 6.00  99.01 2848.88
   17:38:22.100.18-Jan-2020 3785.01 3842.57 82.14 6.00  99.21 2848.88
   17:38:22.300.18-Jan-2020 3785.01 3845.51 82.14 6.00  99.41 2848.88
   17:38:22.500.18-Jan-2020 3785.01 3846.22 82.14 6.00  99.61 2848.88
   17:38:22.700.18-Jan-2020 3785.01 3846.13 82.14 6.00  99.81 2848.88
   17:38:22.900.18-Jan-2020 3785.01 3846.32 82.14 6.00 100.01 2848.88
   17:38:23.100.18-Jan-2020 3785.01 3846.32 82.14 6.00 100.21 2848.88
   17:38:23.300.18-Jan-2020 3785.01 3846.85 82.14 6.00 100.41 2848.88
   17:38:23.500.18-Jan-2020 3785.01 3847.15 82.14 6.00 100.61 2848.88
   17:38:23.700.18-Jan-2020 3785.01 3847.23 82.14 6.00 100.81 2848.88
   17:38:23.900.18-Jan-2020 3785.01 3847.48 82.14 6.00 101.01 2848.88
   17:38:24.100.18-Jan-2020 3785.01 3847.48 82.14 6.00 101.21 2848.88
   17:38:24.300.18-Jan-2020 3785.01 3847.95 82.14 6.00 101.41 2848.88
   17:38:24.500.18-Jan-2020 3785.01 3848.16 82.14 6.00 101.61 2848.88
   17:38:24.700.18-Jan-2020 3785.01 3848.33 82.13 6.00 101.81 2848.88
   17:38:24.900.18-Jan-2020 3785.01 3848.74 82.13 6.00 102.01 2848.88
   17:38:25.100.18-Jan-2020 3785.01 3848.74 82.13 6.00 102.21 2848.88
   17:38:25.300.18-Jan-2020 3785.01 3848.89 82.13 6.00 102.41 2848.88
   17:38:25.500.18-Jan-2020 3785.01 3847.31 82.13 6.00 102.61 2848.88
   17:38:25.700.18-Jan-2020 3785.01 3849.29 82.13 6.00 102.81 2848.88
   17:38:25.900.18-Jan-2020 3785.01 3849.74 82.13 6.00 103.01 2848.88
   17:38:26.101.18-Jan-2020 3785.01 3849.74 82.13 6.00 103.21 2848.88
   17:38:26.301.18-Jan-2020 3785.01 3849.61 82.13 6.00 103.41 2848.88
   17:38:26.501.18-Jan-2020 3785.01 3850.00 82.13 6.00 103.61 2848.88
   17:38:26.701.18-Jan-2020 3785.01 3850.00 82.13 6.00 103.81 2848.88
   17:38:26.901.18-Jan-2020 3785.01 3850.00 82.13 6.00 104.01 2848.88
   17:38:27.101.18-Jan-2020 3785.01 3850.00 82.13 6.00 104.21 2848.88
   17:38:27.301.18-Jan-2020 3785.01 3850.42 82.13 6.00 104.41 2848.88
   17:38:27.501.18-Jan-2020 3785.01 3850.38 82.13 6.00 104.61 2848.88
   17:38:27.701.18-Jan-2020 3785.01 3849.12 82.13 6.00 104.81 2848.88
   17:38:27.901.18-Jan-2020 3785.01 3850.15 82.13 6.00 105.01 2848.88
   17:38:28.101.18-Jan-2020 3785.01 3850.15 82.13 6.00 105.21 2848.88
   17:38:28.301.18-Jan-2020 3785.01 3851.19 82.13 6.00 105.41 2848.88
   17:38:28.501.18-Jan-2020 3785.01 3851.20 82.13 6.00 105.61 2848.88
   17:38:28.701.18-Jan-2020 3785.01 3851.31 82.13 6.00 105.81 2848.88
   17:38:28.901.18-Jan-2020 3785.01 3851.34 82.13 6.00 106.01 2848.88
   17:38:29.101.18-Jan-2020 3785.01 3851.34 82.13 6.00 106.21 2848.88
   17:38:29.301.18-Jan-2020 3785.01 3851.67 82.13 6.00 106.41 2848.88
   17:38:29.501.18-Jan-2020 3785.01 3852.29 82.13 6.00 106.61 2848.88
   17:38:29.701.18-Jan-2020 3785.01 3852.07 82.13 6.00 106.81 2848.88
   17:38:29.901.18-Jan-2020 3785.01 3852.19 82.13 6.00 107.01 2848.88
   17:38:30.101.18-Jan-2020 3785.01 3852.19 82.13 6.00 107.21 2848.88
   17:38:30.301.18-Jan-2020 3785.01 3851.07 82.13 6.00 107.41 2848.88
   17:38:30.501.18-Jan-2020 3785.01 3851.82 82.13 6.00 107.61 2848.88
   17:38:30.701.18-Jan-2020 3785.01 3852.23 82.13 6.00 107.81 2848.88
   17:38:30.901.18-Jan-2020 3785.01 3852.79 82.13 6.00 108.01 2848.88
   17:38:31.101.18-Jan-2020 3785.01 3852.79 82.13 6.00 108.21 2848.88
   17:38:31.301.18-Jan-2020 3785.01 3852.70 82.12 6.00 108.41 2848.88
   17:38:31.501.18-Jan-2020 3785.01 3851.97 82.12 6.00 108.61 2848.88
   17:38:31.701.18-Jan-2020 3785.01 3851.69 82.12 6.00 108.81 2848.88
   17:38:31.901.18-Jan-2020 3785.01 3852.89 82.12 6.00 109.01 2848.88
   17:38:32.101.18-Jan-2020 3785.01 3852.89 82.12 6.00 109.21 2848.88
   17:38:32.301.18-Jan-2020 3785.01 3853.07 82.12 6.00 109.41 2848.88
   17:38:32.501.18-Jan-2020 3785.01 3853.41 82.12 6.00 109.61 2848.88
   17:38:32.701.18-Jan-2020 3785.01 3853.57 82.12 6.00 109.81 2848.88
   17:38:32.901.18-Jan-2020 3785.01 3853.48 82.12 6.00 110.01 2848.88
   17:38:33.101.18-Jan-2020 3785.01 3853.48 82.12 6.00 110.21 2848.88
   17:38:33.301.18-Jan-2020 3785.01 3853.70 82.12 6.00 110.41 2848.88
   17:38:33.501.18-Jan-2020 3785.01 3853.83 82.12 6.00 110.61 2848.88
   17:38:33.701.18-Jan-2020 3785.01 3854.04 82.12 6.00 110.81 2848.88
   17:38:33.901.18-Jan-2020 3785.01 3854.28 82.12 6.00 111.01 2848.88
   17:38:34.101.18-Jan-2020 3785.01 3854.28 82.12 6.00 111.21 2848.88
   17:38:34.301.18-Jan-2020 3785.01 3854.45 82.12 6.00 111.41 2848.88
   17:38:34.501.18-Jan-2020 3785.01 3854.66 82.12 6.00 111.61 2848.88
   17:38:34.701.18-Jan-2020 3785.01 3854.84 82.12 6.00 111.81 2848.88
   17:38:34.901.18-Jan-2020 3785.01 3855.16 82.12 6.00 112.01 2848.88
   17:38:35.101.18-Jan-2020 3785.01 3855.16 82.12 6.00 112.21 2848.88
   17:38:35.301.18-Jan-2020 3785.01 3854.60 82.12 6.00 112.41 2848.88
   17:38:35.501.18-Jan-2020 3785.01 3855.13 82.12 6.00 112.61 2848.88
   17:38:35.701.18-Jan-2020 3785.01 3855.75 82.12 6.00 112.81 2848.88
   17:38:35.901.18-Jan-2020 3785.01 3855.48 82.12 6.00 113.01 2848.88
   17:38:36.101.18-Jan-2020 3785.01 3855.48 82.12 6.00 113.21 2848.88
   17:38:36.301.18-Jan-2020 3785.01 3855.76 82.12 6.00 113.41 2848.88
   17:38:36.501.18-Jan-2020 3785.01 3855.64 82.12 6.00 113.61 2848.88
   17:38:36.701.18-Jan-2020 3785.01 3855.65 82.12 6.00 113.81 2848.88
   17:38:36.901.18-Jan-2020 3785.01 3855.82 82.12 6.00 114.01 2848.88
   17:38:37.101.18-Jan-2020 3785.01 3855.82 82.12 6.00 114.21 2848.88
   17:38:37.301.18-Jan-2020 3785.01 3855.82 82.12 6.00 114.41 2848.88
   17:38:37.501.18-Jan-2020 3785.01 3853.91 82.11 6.00 114.61 2848.88
   17:38:37.701.18-Jan-2020 3785.01 3856.19 82.11 6.00 114.81 2848.88
