~Version Information
 VERS.                  2.0:   CWLS log ASCII Standard -VERSION 2.0
 WRAP.                   NO:   One line per depth step
~Well Information Block
#MNEM.UNIT     VALUE/NAME     DESCRIPTION
#---------     -----------    ---------------------------
 STRT.S             13:31:21 18-Jan-20: START TIME 13:31:21 18-Jan-20
 STOP.S             13:39:29 18-Jan-20: STOP TIME  13:39:29 18-Jan-20
 STEP.S                   0.00: STEP TIME
 NULL.                 -999.25: NULL VALUE
 DFWT.                        :  DIST FWL TEXT
 DFST.                        :  DIST FSL TEXT
 DMF .             Drill Floor:  DRILL MEAS FROM
 STIM.      09.30.00 26-Dec-19:  START TIME
 DATE.      08.00.00 20-Jan-20:  END TIME
 SPUD.               23-Nov-19:  SPUD DATE
 NREF.                    Grid:  NORTH REFERENCE
 HPTY.       Minimum Curvature:  HOLE POS TYPE
 DMOD.             Drill Model:  DRILL MOD DESC
 SVYD.                  Survey:  SURVEY DESC
 ILTD.               Lithology:  INTERP LTH DESC
 FTOP.          Formation Tops:  FORM TOPS DESC
 SON .        AZ-XX-0906192647:  JOB NUMBER
 WTYP.                Deviated:  WELL TYPE
 COMP.     BP Exploration (Caspian Sea) Ltd:  COMPANY
 BASE.              Azerbaijan:  LOGGING EQUIPMENT BASE LOCATION
 REGN.                 Eurasia:  REGION
 FLD .                     ACG:  FIELD NAME
 SRVC.              KCA Deutag:  CONTRACTOR
 MWDS.                    Baku:  MWD SHOP
 WELL.     A10 (Slot 20) - SCP:  WELL NAME
 JOBN.        AZ-XX-0906192647:  JOB TICKET NUMB
 RIG .                 Chirag1:  RIG NAME
 DCON.     Halliburton Sperry Drilling:  DIRECTNL CONTR
 UNIT.                     N/A:  LOGGING EQUIPMENT ID
 PDAT.          Mean Sea Level:  PERMANENT DATUM
 MDS .        Operator Entered:  MAG DATA SOURCE
 CTRY.              Azerbaijan:  COUNTRY NAME
 UWI .            /AZE00000090:  UNIQUE WELL IDENTIFIER
 API .            /AZE00000090:  API NUMBER
 CNTY.                        :  COUNTY
 PROV.                        :  PROVINCE
 STAT.                        :  STATE
 LOC .                        :  LOCATION
 LMF .             Drill Floor:  LOG MEASURED FROM
 TVDS.m                  36.60:  TVDSS CORRECTN
 LATI.deg                40.08:  LATITUDE
 LONG.deg                51.24:  LONGITUDE
 WHNS.m                  -7.94:  WELL HEAD N/S
 WHEW.m                   1.56:  WELL HEAD E/W
 UTMX.m              520429.26:  UTM X
 UTMY.m             4438973.87:  UTM Y
 DFWL.m                   0.00:  DISTANCE FWL
 DFSL.m                   0.00:  DISTANCE FSL
 SDEP.m                1455.00:  START DEPTH
 TDD .m                3878.01:  TOTAL DEPTH (DRILLER)
 VSDR.deg               112.75:  VERT SEC DIRECT
 GVFD.g                   1.00:  GRAVITY FIELD
 MFLD.nT              50256.00:  MAGNETIC FIELD
 MDIP.deg                59.52:  MAGNETIC DIP
 MDEC.deg                 6.43:  MAGNETIC DECL
 GRDC.deg                 0.16:  GRID CORRECTION
 AZTC.deg                 6.27:  AZM TOTAL CORR
 EPD .m                   0.00:  ELEVATION
 EGL .m                   0.00:  GROUND ELEVATION
 WDMS.m                 121.00:  WD ELEV
 APD .m                  36.60:  DEPTH ABOVE PD
 AGAP.m                  36.60:  AIR GAP
 VSEW.m                   1.56:  VERT SEC E/W
 VSNS.m                  -7.94:  VERT SEC N/S
 DEP .m                1140.01:  DEPTH
 EKB .m                  36.60:  KB ELEVATION
 EDF .m                  36.60:  DF ELEVATION
 TDL .m                1293.00:  TOTAL DEPTH (LOGGER)
 VSC .                       0:  VS TO CLOSURE
 MAGU.                 1849164:  MAGUTM CHECKSUM
~Parameter Information Block
#MNEM.UNIT       Value        Description
#---------     -----------    ---------------------------
 AV  .mps                 2.40:  Ann Velocity 
 AVMX.mps                 2.55:  Max Ann Veloc 
 AZIF.deg               134.35:  Azm, Final 
 BHAT.        Rotary Steerable:  BHA Type 
 BREV.rev               847.00:  Rev Bit Total 
 BROT.°/30m              -2.51:  Build Rotating 
 BS  .in                  8.50:  Bit Size 
 BSZ .in                  8.50:  Bit Size 
 BTPL.psig              700.00:  Bit Press Loss 
 CABU.                     Yes:  Customer Abuse 
 CGEO.          Ilgar Gurbanov:  Customer Geo 
 COMM.                     ¸P:  Run Comments 1 
 TCS .hr                140.40:  Time Ciculation Ended 
 CV  .mps                 2.27:  Crit Velocity 
 CVMX.mps                 2.45:  Max Crit Veloc 
 DD1 .         Intigam Rahimov:  Direct Drillr 1 
 DD2 .         Rasim Ibrahimov:  Direct Drillr 2 
 DDSV.                 iCruise:  DD Service 
 DEFF.%                  99.00:  % Det Eff 
 DLRX.°/30m               3.28:  Dogleg Rot Max 
 DLSO.°/30m               0.00:  Dogleg Oriented 
 DLSX.°/30m               0.00:  Dogleg Str Max 
 DRET.      23.30.00 18-Jan-20:  Drill End Time 
 DRST.      01.45.00 11-Jan-20:  Drill Start Tim 
 DTIM.hr                 94.00:  Time Drilling 
 EDEP.m                3878.01:  End Depth 
 ENG1.       Dauren Baktybayev:  Engineer 1 
 ENG2.      Natik Hasanaghayev:  Engineer 2 
 ENG3.          Rustam Safarov:  Engineer 3 
 ETIM.      08.00.00 20-Jan-20:  End Time 
 FLOI.gpm               532.00:  Flow In 
 FLON.gpm               500.00:  Flow In Min 
 FLOS.cptm                0.00:  Fluid Loss 
 FLOX.gpm               540.00:  Flow In Max 
 FTRO.       Formation Presure:  FTWD Run Obj 
 HPRE.                     Yes:  High Pressure 
 HTEM.                      No:  High Temp 
 HYDO.m                   1.80:  Hydro Offset 
 IFIN.deg                39.86:  Inc, Final 
 IMAX.deg                59.73:  Inc Max 
 IMIN.deg                39.25:  Inc Min 
 IMND.m                3816.77:  Inc Min Depth 
 IMXD.m                2596.33:  Inc Max Depth 
 JARR.                      No:  Jarring 
 LETM.      23.30.00 18-Jan-20:  Log End Time 
 LOST.hr                     0:  Lost Rig Time 
 LSTM.      01.45.00 11-Jan-20:  Log Start Time 
 MDCL.ppm             41500.00:  Mud Chlorides 
 MDES.     Inversion Oil/Synthetic:  Mud Desc 
 DFD .sg                  1.48:  Mud Density 
 MDMN.sg                  1.48:  Dens Mud Min 
 MDMX.sg                  1.48:  Dens Mud Max 
 MOIL.                      54:  Run Mud Oil % 
 MOWR.                   72:28:  Run Mud OWR 
 MSND.                       0:  Run Mud Sand % 
 MSOL.                      23:  Run Mud Solids% 
 DFV .spqt               86.00:  Mud Viscosity 
 MWOD.in                  6.75:  MWD Tool OD 
 MWSI.                      No:  Serv Intrp, MWD 
 OTIM.hr                223.40:  Time Operating 
 PCON.           Look Like New:  Pad Condition 
 PMAX.psia            32446.79:  Press Op, Max 
 PV  .cP                 49.00:  Mud PV 
 RUN .                     200:  Run Number 
 ROPA.m/hr               12.48:  ROP Avg 
 ROPN.m/hr                8.00:  ROP Min 
 ROPX.m/hr               27.00:  ROP Max 
 RPMA.rpm               121.00:  RPM Surface Avg 
 RPMN.rpm                60.00:  RPM Surface Min 
 RPMX.rpm               140.00:  RPM Surface Max 
 RRUN.                    L202:  Rig Run Number 
 RTIM.hr                  7.25:  Time Reaming 
 SAZI.deg               123.49:  Azm, Start 
 SDEP.m                2585.01:  Start Depth 
 SIDD.                      No:  Serv Intrp, DD 
 SINC.deg                59.93:  Inc, Start 
 SPPA.psig             3539.00:  SPP Avg 
 SPPN.psig             3050.00:  SPP Min 
 SPPX.psig             3950.00:  SPP Max 
 STIM.      19.00.00 10-Jan-20:  Start Time 
 SVCS.                 DD, MWD:  Services 
 SVER.                    9.20:  Sperry Version 
 TDAT.m                1293.00:  Tot Depth Attmp 
 TDDF.                      No:  Trip for DD 
 TDLG.m                1293.00:  Tot Depth Loggd 
 TFF .                      No:  Trip for Fail 
 TQAA.f-kp               16.00:  Torque Abs Avg 
 TQAN.f-kp               11.00:  Torque Abs Min 
 TQAX.f-kp               18.00:  Torque Abs Max 
 TRRT.°/30m               1.25:  Turn Rotating 
 MRT .                  EWR-M5:  Maximum Recorded Temperature 
 TTMX.degC               84.00:  Max Tool Temp 
 VS01.          AZ90514619R5C6:  Virtual Str1 SN 
 VS02.        AZ90552592N2L2C6:  Virtual Str2 SN 
 VS03.        AZ90571337Z1W1C6:  Virtual Str3 SN 
 VS04.         AZ90513690K23C6:  Virtual Str4 SN 
 VS05.           AZ90594857F11:  Virtual Str5 SN 
 VS06.                13102166:  Virtual Str6 SN 
 WBMN.klb                 7.00:  WOB Min 
 WITN.            Peter Wilson:  Customer Rep 
 WOBA.klb                 9.95:  WOB Avg 
 WOBX.klb                10.00:  WOB Max 
 YP  .lhf2               36.00:  Yield Point 
~Curve Information Block
#MNEM.UNIT                 API CODE     Curve Description
#---------               -----------    ---------------------------
 TIME.HHMMSS            00 000 000 000:  GT Time & Date
 GTDEPTH.m              00 000 000 000:  GT Depth
 GTPQH.psia             00 000 000 000:  GT HR Quartz Pressure
 GTTQ.degC              00 000 000 000:  GT Quartz Temperature
 GTTN.NONE              00 000 000 000:  GT Test Number
 GTET.sec               00 000 000 000:  GT Elapsed Test Time
 GTTVD.m                00 000 000 000:  GT True Vertical Depth
#Other Information
#
#WARRANTY: Halliburton will use its best efforts to furnish customers with 
#accurate information and interpretations that are part of, and incident to, the services 
#provided.  However, Halliburton cannot and does not warrant the accuracy 
#or correctness of such information and interpretations.  Under no circumstances should any 
#such information or interpretation be relied upon as the sole basis for any drilling, 
#completion, production, or financial decision or any procedure involving any risk to the 
#safety of any drilling venture, drilling rig or its crew or any other third party.  The 
#Customer has full responsibility for all drilling, completion and production operation.  
#Halliburton makes no representations or warranties, either expressed or 
#implied, including, but not limited to, the implied warranties of merchantability or fitness 
#for a particular purpose, with respect to the services rendered.  In no event will 
#Halliburton be liable for failure to obtain any particular results or for 
#any damages, including, but not limited to, indirect, special or consequential damages, 
#resulting from the use of any information or interpretation provided by Halliburton.
#
~A           TIME           GTDEPTH  GTPQH  GTTQ  GTTN  GTET   GTTVD  
# ...
   13:34:25.194.18-Jan-2020 3754.51  357.20 81.06 4.00 184.06 2825.33
   13:34:25.394.18-Jan-2020 3754.51  357.20 81.06 4.00 184.26 2825.33
   13:34:25.594.18-Jan-2020 3754.51  353.02 81.06 4.00 184.46 2825.33
   13:34:25.794.18-Jan-2020 3754.51  338.40 81.06 4.00 184.66 2825.33
   13:34:25.994.18-Jan-2020 3754.51  329.69 81.06 4.00 184.86 2825.33
   13:34:26.195.18-Jan-2020 3754.51  325.85 81.06 4.00 185.06 2825.33
   13:34:26.395.18-Jan-2020 3754.51  325.85 81.06 4.00 185.26 2825.33
   13:34:26.595.18-Jan-2020 3754.51  320.68 81.06 4.00 185.46 2825.33
   13:34:26.795.18-Jan-2020 3754.51  323.16 81.06 4.00 185.66 2825.33
   13:34:26.995.18-Jan-2020 3754.51  321.18 81.06 4.00 185.86 2825.33
   13:34:27.195.18-Jan-2020 3754.51  329.89 81.06 4.00 186.06 2825.33
   13:34:27.395.18-Jan-2020 3754.51  329.89 81.06 4.00 186.26 2825.33
   13:34:27.595.18-Jan-2020 3754.51  344.23 81.06 4.00 186.46 2825.33
   13:34:27.795.18-Jan-2020 3754.51  348.86 81.06 4.00 186.66 2825.33
   13:34:27.995.18-Jan-2020 3754.51  349.64 81.06 4.00 186.86 2825.33
   13:34:28.195.18-Jan-2020 3754.51  359.21 81.06 4.00 187.06 2825.33
   13:34:28.395.18-Jan-2020 3754.51  359.21 81.06 4.00 187.26 2825.33
   13:34:28.595.18-Jan-2020 3754.51  368.05 81.06 4.00 187.46 2825.33
   13:34:28.795.18-Jan-2020 3754.51  369.70 81.06 4.00 187.66 2825.33
   13:34:28.995.18-Jan-2020 3754.51  370.77 81.05 4.00 187.86 2825.33
   13:34:29.195.18-Jan-2020 3754.51  371.39 81.05 4.00 188.06 2825.33
   13:34:29.396.18-Jan-2020 3754.51  371.39 81.05 4.00 188.26 2825.33
   13:34:29.596.18-Jan-2020 3754.51  377.13 81.05 4.00 188.46 2825.33
   13:34:29.796.18-Jan-2020 3754.51  380.38 81.05 4.00 188.66 2825.33
   13:34:29.996.18-Jan-2020 3754.51  381.96 81.05 4.00 188.86 2825.33
   13:34:30.196.18-Jan-2020 3754.51  382.59 81.05 4.00 189.06 2825.33
   13:34:30.396.18-Jan-2020 3754.51  382.59 81.05 4.00 189.26 2825.33
   13:34:30.596.18-Jan-2020 3754.51  385.40 81.05 4.00 189.46 2825.33
   13:34:30.796.18-Jan-2020 3754.51  388.22 81.05 4.00 189.66 2825.33
   13:34:30.996.18-Jan-2020 3754.51  390.84 81.05 4.00 189.86 2825.33
   13:34:31.196.18-Jan-2020 3754.51  391.77 81.05 4.00 190.06 2825.33
   13:34:31.396.18-Jan-2020 3754.51  391.77 81.05 4.00 190.26 2825.33
   13:34:31.596.18-Jan-2020 3754.51  392.50 81.05 4.00 190.46 2825.33
   13:34:31.796.18-Jan-2020 3754.51  392.83 81.05 4.00 190.66 2825.33
   13:34:31.996.18-Jan-2020 3754.51  393.01 81.05 4.00 190.86 2825.33
   13:34:32.196.18-Jan-2020 3754.51  393.37 81.05 4.00 191.06 2825.33
   13:34:32.397.18-Jan-2020 3754.51  393.37 81.05 4.00 191.26 2825.33
   13:34:32.597.18-Jan-2020 3754.51  393.76 81.05 4.00 191.46 2825.33
   13:34:32.797.18-Jan-2020 3754.51  393.90 81.05 4.00 191.66 2825.33
   13:34:32.997.18-Jan-2020 3754.51  394.14 81.05 4.00 191.86 2825.33
   13:34:33.197.18-Jan-2020 3754.51  394.37 81.05 4.00 192.06 2825.33
   13:34:33.397.18-Jan-2020 3754.51  394.37 81.05 4.00 192.26 2825.33
   13:34:33.597.18-Jan-2020 3754.51  394.85 81.05 4.00 192.46 2825.33
   13:34:33.797.18-Jan-2020 3754.51  393.44 81.05 4.00 192.66 2825.33
   13:34:33.997.18-Jan-2020 3754.51  397.59 81.05 4.00 192.86 2825.33
   13:34:34.197.18-Jan-2020 3754.51  401.82 81.05 4.00 193.06 2825.33
   13:34:34.397.18-Jan-2020 3754.51  401.82 81.05 4.00 193.26 2825.33
   13:34:34.597.18-Jan-2020 3754.51  408.19 81.04 4.00 193.46 2825.33
   13:34:34.797.18-Jan-2020 3754.51  408.64 81.04 4.00 193.66 2825.33
   13:34:34.997.18-Jan-2020 3754.51  408.83 81.04 4.00 193.86 2825.33
   13:34:35.197.18-Jan-2020 3754.51  409.08 81.04 4.00 194.06 2825.33
   13:34:35.397.18-Jan-2020 3754.51  409.08 81.04 4.00 194.26 2825.33
   13:34:35.598.18-Jan-2020 3754.51  409.35 81.04 4.00 194.46 2825.33
   13:34:35.798.18-Jan-2020 3754.51  409.53 81.04 4.00 194.66 2825.33
   13:34:35.998.18-Jan-2020 3754.51  408.95 81.04 4.00 194.86 2825.33
   13:34:36.198.18-Jan-2020 3754.51  409.21 81.04 4.00 195.06 2825.33
   13:34:36.398.18-Jan-2020 3754.51  409.21 81.04 4.00 195.26 2825.33
   13:34:36.598.18-Jan-2020 3754.51  415.03 81.04 4.00 195.46 2825.33
   13:34:36.798.18-Jan-2020 3754.51  414.82 81.04 4.00 195.66 2825.33
   13:34:36.998.18-Jan-2020 3754.51  415.43 81.04 4.00 195.86 2825.33
   13:34:37.198.18-Jan-2020 3754.51  418.65 81.04 4.00 196.06 2825.33
   13:34:37.398.18-Jan-2020 3754.51  420.59 81.04 4.00 196.26 2825.33
   13:34:37.598.18-Jan-2020 3754.51  420.96 81.04 4.00 196.46 2825.33
   13:34:37.798.18-Jan-2020 3754.51  421.12 81.04 4.00 196.66 2825.33
   13:34:37.998.18-Jan-2020 3754.51  419.75 81.04 4.00 196.86 2825.33
   13:34:38.198.18-Jan-2020 3754.51  421.90 81.04 4.00 197.06 2825.33
   13:34:38.398.18-Jan-2020 3754.51  421.90 81.04 4.00 197.26 2825.33
   13:34:38.599.18-Jan-2020 3754.51  423.57 81.04 4.00 197.46 2825.33
   13:34:38.799.18-Jan-2020 3754.51  423.95 81.04 4.00 197.66 2825.33
   13:34:38.999.18-Jan-2020 3754.51  422.34 81.04 4.00 197.86 2825.33
   13:34:39.199.18-Jan-2020 3754.51  425.48 81.04 4.00 198.06 2825.33
   13:34:39.399.18-Jan-2020 3754.51  425.48 81.04 4.00 198.26 2825.33
   13:34:39.599.18-Jan-2020 3754.51  425.88 81.04 4.00 198.46 2825.33
   13:34:39.799.18-Jan-2020 3754.51  425.97 81.04 4.00 198.66 2825.33
   13:34:39.999.18-Jan-2020 3754.51  426.16 81.04 4.00 198.86 2825.33
   13:34:40.199.18-Jan-2020 3754.51  426.12 81.04 4.00 199.06 2825.33
   13:34:40.399.18-Jan-2020 3754.51  426.12 81.04 4.00 199.26 2825.33
   13:34:40.599.18-Jan-2020 3754.51  425.89 81.03 4.00 199.46 2825.33
   13:34:40.799.18-Jan-2020 3754.51  425.88 81.03 4.00 199.66 2825.33
   13:34:40.999.18-Jan-2020 3754.51  426.02 81.03 4.00 199.86 2825.33
   13:34:41.199.18-Jan-2020 3754.51  425.98 81.03 4.00 200.06 2825.33
   13:34:41.399.18-Jan-2020 3754.51  425.98 81.03 4.00 200.26 2825.33
   13:34:41.600.18-Jan-2020 3754.51  425.87 81.03 4.00 200.46 2825.33
   13:34:41.800.18-Jan-2020 3754.51  425.87 81.03 4.00 200.66 2825.33
   13:34:42.000.18-Jan-2020 3754.51  425.91 81.03 4.00 200.86 2825.33
   13:34:42.200.18-Jan-2020 3754.51  425.88 81.03 4.00 201.07 2825.33
   13:34:42.400.18-Jan-2020 3754.51  425.88 81.03 4.00 201.27 2825.33
   13:34:42.600.18-Jan-2020 3754.51  427.46 81.03 4.00 201.47 2825.33
   13:34:42.800.18-Jan-2020 3754.51  427.82 81.03 4.00 201.67 2825.33
   13:34:43.000.18-Jan-2020 3754.51  428.07 81.03 4.00 201.87 2825.33
   13:34:43.200.18-Jan-2020 3754.51  428.29 81.03 4.00 202.07 2825.33
   13:34:43.400.18-Jan-2020 3754.51  428.29 81.03 4.00 202.27 2825.33
   13:34:43.600.18-Jan-2020 3754.51  428.44 81.03 4.00 202.47 2825.33
   13:34:43.800.18-Jan-2020 3754.51  428.33 81.03 4.00 202.67 2825.33
   13:34:44.000.18-Jan-2020 3754.51  428.35 81.03 4.00 202.87 2825.33
   13:34:44.200.18-Jan-2020 3754.51  428.38 81.03 4.00 203.07 2825.33
   13:34:44.400.18-Jan-2020 3754.51  428.38 81.03 4.00 203.27 2825.33
   13:34:44.600.18-Jan-2020 3754.51  427.07 81.03 4.00 203.47 2825.33
   13:34:44.801.18-Jan-2020 3754.51  429.01 81.03 4.00 203.67 2825.33
   13:34:45.001.18-Jan-2020 3754.51  429.72 81.03 4.00 203.87 2825.33
   13:34:45.201.18-Jan-2020 3754.51  430.78 81.03 4.00 204.07 2825.33
   13:34:45.401.18-Jan-2020 3754.51  430.78 81.03 4.00 204.27 2825.33
   13:34:45.601.18-Jan-2020 3754.51  431.05 81.03 4.00 204.47 2825.33
   13:34:45.801.18-Jan-2020 3754.51  429.00 81.03 4.00 204.67 2825.33
   13:34:46.001.18-Jan-2020 3754.51  431.73 81.03 4.00 204.87 2825.33
   13:34:46.201.18-Jan-2020 3754.51  432.48 81.03 4.00 205.07 2825.33
   13:34:46.401.18-Jan-2020 3754.51  432.48 81.03 4.00 205.27 2825.33
   13:34:46.601.18-Jan-2020 3754.51  433.08 81.02 4.00 205.47 2825.33
   13:34:46.801.18-Jan-2020 3754.51  433.08 81.02 4.00 205.67 2825.33
   13:34:47.001.18-Jan-2020 3754.51  433.21 81.02 4.00 205.87 2825.33
   13:34:47.201.18-Jan-2020 3754.51  433.15 81.02 4.00 206.07 2825.33
   13:34:47.401.18-Jan-2020 3754.51  433.15 81.02 4.00 206.27 2825.33
   13:34:47.601.18-Jan-2020 3754.51  434.54 81.02 4.00 206.47 2825.33
   13:34:47.802.18-Jan-2020 3754.51  435.56 81.02 4.00 206.67 2825.33
   13:34:48.002.18-Jan-2020 3754.51  436.34 81.02 4.00 206.87 2825.33
