~Version Information
 VERS.                  2.0:   CWLS log ASCII Standard -VERSION 2.0
 WRAP.                   NO:   One line per depth step
~Well Information Block
#MNEM.UNIT     VALUE/NAME     DESCRIPTION
#---------     -----------    ---------------------------
 STRT.S             13:51:43 18-Jan-20: START TIME 13:51:43 18-Jan-20
 STOP.S             13:59:59 18-Jan-20: STOP TIME  13:59:59 18-Jan-20
 STEP.S                   0.00: STEP TIME
 NULL.                 -999.25: NULL VALUE
 DFWT.                        :  DIST FWL TEXT
 DFST.                        :  DIST FSL TEXT
 DMF .             Drill Floor:  DRILL MEAS FROM
 STIM.      09.30.00 26-Dec-19:  START TIME
 DATE.      08.00.00 20-Jan-20:  END TIME
 SPUD.               23-Nov-19:  SPUD DATE
 NREF.                    Grid:  NORTH REFERENCE
 HPTY.       Minimum Curvature:  HOLE POS TYPE
 DMOD.             Drill Model:  DRILL MOD DESC
 SVYD.                  Survey:  SURVEY DESC
 ILTD.               Lithology:  INTERP LTH DESC
 FTOP.          Formation Tops:  FORM TOPS DESC
 SON .        AZ-XX-0906192647:  JOB NUMBER
 WTYP.                Deviated:  WELL TYPE
 COMP.     BP Exploration (Caspian Sea) Ltd:  COMPANY
 BASE.              Azerbaijan:  LOGGING EQUIPMENT BASE LOCATION
 REGN.                 Eurasia:  REGION
 FLD .                     ACG:  FIELD NAME
 SRVC.              KCA Deutag:  CONTRACTOR
 MWDS.                    Baku:  MWD SHOP
 WELL.     A10 (Slot 20) - SCP:  WELL NAME
 JOBN.        AZ-XX-0906192647:  JOB TICKET NUMB
 RIG .                 Chirag1:  RIG NAME
 DCON.     Halliburton Sperry Drilling:  DIRECTNL CONTR
 UNIT.                     N/A:  LOGGING EQUIPMENT ID
 PDAT.          Mean Sea Level:  PERMANENT DATUM
 MDS .        Operator Entered:  MAG DATA SOURCE
 CTRY.              Azerbaijan:  COUNTRY NAME
 UWI .            /AZE00000090:  UNIQUE WELL IDENTIFIER
 API .            /AZE00000090:  API NUMBER
 CNTY.                        :  COUNTY
 PROV.                        :  PROVINCE
 STAT.                        :  STATE
 LOC .                        :  LOCATION
 LMF .             Drill Floor:  LOG MEASURED FROM
 TVDS.m                  36.60:  TVDSS CORRECTN
 LATI.deg                40.08:  LATITUDE
 LONG.deg                51.24:  LONGITUDE
 WHNS.m                  -7.94:  WELL HEAD N/S
 WHEW.m                   1.56:  WELL HEAD E/W
 UTMX.m              520429.26:  UTM X
 UTMY.m             4438973.87:  UTM Y
 DFWL.m                   0.00:  DISTANCE FWL
 DFSL.m                   0.00:  DISTANCE FSL
 SDEP.m                1455.00:  START DEPTH
 TDD .m                3878.01:  TOTAL DEPTH (DRILLER)
 VSDR.deg               112.75:  VERT SEC DIRECT
 GVFD.g                   1.00:  GRAVITY FIELD
 MFLD.nT              50256.00:  MAGNETIC FIELD
 MDIP.deg                59.52:  MAGNETIC DIP
 MDEC.deg                 6.43:  MAGNETIC DECL
 GRDC.deg                 0.16:  GRID CORRECTION
 AZTC.deg                 6.27:  AZM TOTAL CORR
 EPD .m                   0.00:  ELEVATION
 EGL .m                   0.00:  GROUND ELEVATION
 WDMS.m                 121.00:  WD ELEV
 APD .m                  36.60:  DEPTH ABOVE PD
 AGAP.m                  36.60:  AIR GAP
 VSEW.m                   1.56:  VERT SEC E/W
 VSNS.m                  -7.94:  VERT SEC N/S
 DEP .m                1140.01:  DEPTH
 EKB .m                  36.60:  KB ELEVATION
 EDF .m                  36.60:  DF ELEVATION
 TDL .m                1293.00:  TOTAL DEPTH (LOGGER)
 VSC .                       0:  VS TO CLOSURE
 MAGU.                 1849164:  MAGUTM CHECKSUM
~Parameter Information Block
#MNEM.UNIT       Value        Description
#---------     -----------    ---------------------------
 AV  .mps                 2.40:  Ann Velocity 
 AVMX.mps                 2.55:  Max Ann Veloc 
 AZIF.deg               134.35:  Azm, Final 
 BHAT.        Rotary Steerable:  BHA Type 
 BREV.rev               847.00:  Rev Bit Total 
 BROT.°/30m              -2.51:  Build Rotating 
 BS  .in                  8.50:  Bit Size 
 BSZ .in                  8.50:  Bit Size 
 BTPL.psig              700.00:  Bit Press Loss 
 CABU.                     Yes:  Customer Abuse 
 CGEO.          Ilgar Gurbanov:  Customer Geo 
 COMM.                     üÓ~:  Run Comments 1 
 TCS .hr                140.40:  Time Ciculation Ended 
 CV  .mps                 2.27:  Crit Velocity 
 CVMX.mps                 2.45:  Max Crit Veloc 
 DD1 .         Intigam Rahimov:  Direct Drillr 1 
 DD2 .         Rasim Ibrahimov:  Direct Drillr 2 
 DDSV.                 iCruise:  DD Service 
 DEFF.%                  99.00:  % Det Eff 
 DLRX.°/30m               3.28:  Dogleg Rot Max 
 DLSO.°/30m               0.00:  Dogleg Oriented 
 DLSX.°/30m               0.00:  Dogleg Str Max 
 DRET.      23.30.00 18-Jan-20:  Drill End Time 
 DRST.      01.45.00 11-Jan-20:  Drill Start Tim 
 DTIM.hr                 94.00:  Time Drilling 
 EDEP.m                3878.01:  End Depth 
 ENG1.       Dauren Baktybayev:  Engineer 1 
 ENG2.      Natik Hasanaghayev:  Engineer 2 
 ENG3.          Rustam Safarov:  Engineer 3 
 ETIM.      08.00.00 20-Jan-20:  End Time 
 FLOI.gpm               532.00:  Flow In 
 FLON.gpm               500.00:  Flow In Min 
 FLOS.cptm                0.00:  Fluid Loss 
 FLOX.gpm               540.00:  Flow In Max 
 FTRO.       Formation Presure:  FTWD Run Obj 
 HPRE.                     Yes:  High Pressure 
 HTEM.                      No:  High Temp 
 HYDO.m                   1.80:  Hydro Offset 
 IFIN.deg                39.86:  Inc, Final 
 IMAX.deg                59.73:  Inc Max 
 IMIN.deg                39.25:  Inc Min 
 IMND.m                3816.77:  Inc Min Depth 
 IMXD.m                2596.33:  Inc Max Depth 
 JARR.                      No:  Jarring 
 LETM.      23.30.00 18-Jan-20:  Log End Time 
 LOST.hr                     0:  Lost Rig Time 
 LSTM.      01.45.00 11-Jan-20:  Log Start Time 
 MDCL.ppm             41500.00:  Mud Chlorides 
 MDES.     Inversion Oil/Synthetic:  Mud Desc 
 DFD .sg                  1.48:  Mud Density 
 MDMN.sg                  1.48:  Dens Mud Min 
 MDMX.sg                  1.48:  Dens Mud Max 
 MOIL.                      54:  Run Mud Oil % 
 MOWR.                   72:28:  Run Mud OWR 
 MSND.                       0:  Run Mud Sand % 
 MSOL.                      23:  Run Mud Solids% 
 DFV .spqt               86.00:  Mud Viscosity 
 MWOD.in                  6.75:  MWD Tool OD 
 MWSI.                      No:  Serv Intrp, MWD 
 OTIM.hr                223.40:  Time Operating 
 PCON.           Look Like New:  Pad Condition 
 PMAX.psia            32446.79:  Press Op, Max 
 PV  .cP                 49.00:  Mud PV 
 RUN .                     200:  Run Number 
 ROPA.m/hr               12.48:  ROP Avg 
 ROPN.m/hr                8.00:  ROP Min 
 ROPX.m/hr               27.00:  ROP Max 
 RPMA.rpm               121.00:  RPM Surface Avg 
 RPMN.rpm                60.00:  RPM Surface Min 
 RPMX.rpm               140.00:  RPM Surface Max 
 RRUN.                    L202:  Rig Run Number 
 RTIM.hr                  7.25:  Time Reaming 
 SAZI.deg               123.49:  Azm, Start 
 SDEP.m                2585.01:  Start Depth 
 SIDD.                      No:  Serv Intrp, DD 
 SINC.deg                59.93:  Inc, Start 
 SPPA.psig             3539.00:  SPP Avg 
 SPPN.psig             3050.00:  SPP Min 
 SPPX.psig             3950.00:  SPP Max 
 STIM.      19.00.00 10-Jan-20:  Start Time 
 SVCS.                 DD, MWD:  Services 
 SVER.                    9.20:  Sperry Version 
 TDAT.m                1293.00:  Tot Depth Attmp 
 TDDF.                      No:  Trip for DD 
 TDLG.m                1293.00:  Tot Depth Loggd 
 TFF .                      No:  Trip for Fail 
 TQAA.f-kp               16.00:  Torque Abs Avg 
 TQAN.f-kp               11.00:  Torque Abs Min 
 TQAX.f-kp               18.00:  Torque Abs Max 
 TRRT.°/30m               1.25:  Turn Rotating 
 MRT .                  EWR-M5:  Maximum Recorded Temperature 
 TTMX.degC               84.00:  Max Tool Temp 
 VS01.          AZ90514619R5C6:  Virtual Str1 SN 
 VS02.        AZ90552592N2L2C6:  Virtual Str2 SN 
 VS03.        AZ90571337Z1W1C6:  Virtual Str3 SN 
 VS04.         AZ90513690K23C6:  Virtual Str4 SN 
 VS05.           AZ90594857F11:  Virtual Str5 SN 
 VS06.                13102166:  Virtual Str6 SN 
 WBMN.klb                 7.00:  WOB Min 
 WITN.            Peter Wilson:  Customer Rep 
 WOBA.klb                 9.95:  WOB Avg 
 WOBX.klb                10.00:  WOB Max 
 YP  .lhf2               36.00:  Yield Point 
~Curve Information Block
#MNEM.UNIT                 API CODE     Curve Description
#---------               -----------    ---------------------------
 TIME.HHMMSS            00 000 000 000:  GT Time & Date
 GTDEPTH.m              00 000 000 000:  GT Depth
 GTPQH.psia             00 000 000 000:  GT HR Quartz Pressure
 GTTQ.degC              00 000 000 000:  GT Quartz Temperature
 GTTN.NONE              00 000 000 000:  GT Test Number
 GTET.sec               00 000 000 000:  GT Elapsed Test Time
 GTTVD.m                00 000 000 000:  GT True Vertical Depth
#Other Information
#
#WARRANTY: Halliburton will use its best efforts to furnish customers with 
#accurate information and interpretations that are part of, and incident to, the services 
#provided.  However, Halliburton cannot and does not warrant the accuracy 
#or correctness of such information and interpretations.  Under no circumstances should any 
#such information or interpretation be relied upon as the sole basis for any drilling, 
#completion, production, or financial decision or any procedure involving any risk to the 
#safety of any drilling venture, drilling rig or its crew or any other third party.  The 
#Customer has full responsibility for all drilling, completion and production operation.  
#Halliburton makes no representations or warranties, either expressed or 
#implied, including, but not limited to, the implied warranties of merchantability or fitness 
#for a particular purpose, with respect to the services rendered.  In no event will 
#Halliburton be liable for failure to obtain any particular results or for 
#any damages, including, but not limited to, indirect, special or consequential damages, 
#resulting from the use of any information or interpretation provided by Halliburton.
#
~A           TIME           GTDEPTH  GTPQH  GTTQ  GTTN  GTET   GTTVD  
# ...
   13:52:52.552.18-Jan-2020 3754.01 3694.34 79.57 5.00  69.02 2824.94
   13:52:52.752.18-Jan-2020 3754.01 3694.34 79.57 5.00  69.22 2824.94
   13:52:52.952.18-Jan-2020 3754.01 3691.95 79.57 5.00  69.42 2824.94
   13:52:53.152.18-Jan-2020 3754.01 3695.92 79.57 5.00  69.62 2824.94
   13:52:53.352.18-Jan-2020 3754.01 3693.88 79.57 5.00  69.82 2824.94
   13:52:53.553.18-Jan-2020 3754.01 3694.95 79.57 5.00  70.02 2824.94
   13:52:53.753.18-Jan-2020 3754.01 3694.95 79.57 5.00  70.22 2824.94
   13:52:53.953.18-Jan-2020 3754.01 3694.57 79.57 5.00  70.42 2824.94
   13:52:54.153.18-Jan-2020 3754.01 3694.61 79.57 5.00  70.62 2824.94
   13:52:54.353.18-Jan-2020 3754.01 3694.61 79.57 5.00  70.82 2824.94
   13:52:54.553.18-Jan-2020 3754.01 3694.64 79.57 5.00  71.02 2824.94
   13:52:54.753.18-Jan-2020 3754.01 3694.64 79.57 5.00  71.22 2824.94
   13:52:54.953.18-Jan-2020 3754.01 3697.08 79.57 5.00  71.42 2824.94
   13:52:55.153.18-Jan-2020 3754.01 3694.10 79.57 5.00  71.62 2824.94
   13:52:55.353.18-Jan-2020 3754.01 3694.83 79.57 5.00  71.82 2824.94
   13:52:55.553.18-Jan-2020 3754.01 3694.38 79.57 5.00  72.02 2824.94
   13:52:55.753.18-Jan-2020 3754.01 3694.38 79.57 5.00  72.22 2824.94
   13:52:55.953.18-Jan-2020 3754.01 3697.70 79.57 5.00  72.42 2824.94
   13:52:56.153.18-Jan-2020 3754.01 3692.08 79.57 5.00  72.62 2824.94
   13:52:56.353.18-Jan-2020 3754.01 3696.00 79.57 5.00  72.82 2824.94
   13:52:56.554.18-Jan-2020 3754.01 3693.73 79.57 5.00  73.02 2824.94
   13:52:56.754.18-Jan-2020 3754.01 3693.73 79.57 5.00  73.22 2824.94
   13:52:56.954.18-Jan-2020 3754.01 3694.89 79.57 5.00  73.42 2824.94
   13:52:57.154.18-Jan-2020 3754.01 3697.17 79.57 5.00  73.62 2824.94
   13:52:57.354.18-Jan-2020 3754.01 3692.32 79.57 5.00  73.82 2824.94
   13:52:57.554.18-Jan-2020 3754.01 3695.58 79.57 5.00  74.02 2824.94
   13:52:57.754.18-Jan-2020 3754.01 3695.58 79.57 5.00  74.22 2824.94
   13:52:57.954.18-Jan-2020 3754.01 3698.57 79.57 5.00  74.42 2824.94
   13:52:58.154.18-Jan-2020 3754.01 3691.74 79.57 5.00  74.62 2824.94
   13:52:58.354.18-Jan-2020 3754.01 3696.43 79.57 5.00  74.82 2824.94
   13:52:58.554.18-Jan-2020 3754.01 3693.74 79.57 5.00  75.02 2824.94
   13:52:58.754.18-Jan-2020 3754.01 3693.74 79.57 5.00  75.22 2824.94
   13:52:58.954.18-Jan-2020 3754.01 3694.26 79.57 5.00  75.42 2824.94
   13:52:59.154.18-Jan-2020 3754.01 3694.93 79.57 5.00  75.62 2824.94
   13:52:59.354.18-Jan-2020 3754.01 3694.28 79.57 5.00  75.82 2824.94
   13:52:59.554.18-Jan-2020 3754.01 3694.82 79.57 5.00  76.02 2824.94
   13:52:59.755.18-Jan-2020 3754.01 3694.82 79.57 5.00  76.22 2824.94
   13:52:59.955.18-Jan-2020 3754.01 3694.70 79.57 5.00  76.42 2824.94
   13:53:00.155.18-Jan-2020 3754.01 3694.64 79.57 5.00  76.62 2824.94
   13:53:00.355.18-Jan-2020 3754.01 3694.60 79.57 5.00  76.82 2824.94
   13:53:00.555.18-Jan-2020 3754.01 3694.72 79.57 5.00  77.02 2824.94
   13:53:00.755.18-Jan-2020 3754.01 3694.72 79.57 5.00  77.22 2824.94
   13:53:00.955.18-Jan-2020 3754.01 3694.75 79.57 5.00  77.43 2824.94
   13:53:01.155.18-Jan-2020 3754.01 3694.59 79.57 5.00  77.63 2824.94
   13:53:01.355.18-Jan-2020 3754.01 3695.43 79.57 5.00  77.83 2824.94
   13:53:01.555.18-Jan-2020 3754.01 3696.74 79.57 5.00  78.03 2824.94
   13:53:01.755.18-Jan-2020 3754.01 3696.74 79.57 5.00  78.23 2824.94
   13:53:01.955.18-Jan-2020 3754.01 3695.47 79.57 5.00  78.43 2824.94
   13:53:02.155.18-Jan-2020 3754.01 3694.03 79.57 5.00  78.63 2824.94
   13:53:02.355.18-Jan-2020 3754.01 3695.03 79.57 5.00  78.83 2824.94
   13:53:02.555.18-Jan-2020 3754.01 3694.44 79.57 5.00  79.03 2824.94
   13:53:02.756.18-Jan-2020 3754.01 3694.44 79.57 5.00  79.23 2824.94
   13:53:02.956.18-Jan-2020 3754.01 3694.70 79.57 5.00  79.43 2824.94
   13:53:03.156.18-Jan-2020 3754.01 3694.74 79.57 5.00  79.63 2824.94
   13:53:03.356.18-Jan-2020 3754.01 3694.64 79.57 5.00  79.83 2824.94
   13:53:03.556.18-Jan-2020 3754.01 3693.84 79.57 5.00  80.03 2824.94
   13:53:03.756.18-Jan-2020 3754.01 3693.84 79.57 5.00  80.23 2824.94
   13:53:03.956.18-Jan-2020 3754.01 3692.94 79.57 5.00  80.43 2824.94
   13:53:04.156.18-Jan-2020 3754.01 3696.28 79.57 5.00  80.63 2824.94
   13:53:04.356.18-Jan-2020 3754.01 3693.99 79.57 5.00  80.83 2824.94
   13:53:04.556.18-Jan-2020 3754.01 3694.68 79.57 5.00  81.03 2824.94
   13:53:04.756.18-Jan-2020 3754.01 3694.68 79.57 5.00  81.23 2824.94
   13:53:04.956.18-Jan-2020 3754.01 3692.68 79.57 5.00  81.43 2824.94
   13:53:05.156.18-Jan-2020 3754.01 3695.55 79.57 5.00  81.63 2824.94
   13:53:05.356.18-Jan-2020 3754.01 3694.25 79.57 5.00  81.83 2824.94
   13:53:05.556.18-Jan-2020 3754.01 3694.94 79.57 5.00  82.03 2824.94
   13:53:05.756.18-Jan-2020 3754.01 3694.94 79.57 5.00  82.23 2824.94
   13:53:05.957.18-Jan-2020 3754.01 3694.45 79.57 5.00  82.43 2824.94
   13:53:06.157.18-Jan-2020 3754.01 3694.00 79.57 5.00  82.63 2824.94
   13:53:06.357.18-Jan-2020 3754.01 3693.82 79.57 5.00  82.83 2824.94
   13:53:06.557.18-Jan-2020 3754.01 3697.20 79.57 5.00  83.03 2824.94
   13:53:06.757.18-Jan-2020 3754.01 3697.20 79.57 5.00  83.23 2824.94
   13:53:06.957.18-Jan-2020 3754.01 3695.44 79.57 5.00  83.43 2824.94
   13:53:07.157.18-Jan-2020 3754.01 3694.19 79.57 5.00  83.63 2824.94
   13:53:07.357.18-Jan-2020 3754.01 3694.97 79.57 5.00  83.83 2824.94
   13:53:07.557.18-Jan-2020 3754.01 3694.63 79.57 5.00  84.03 2824.94
   13:53:07.757.18-Jan-2020 3754.01 3694.63 79.57 5.00  84.23 2824.94
   13:53:07.957.18-Jan-2020 3754.01 3694.68 79.57 5.00  84.43 2824.94
   13:53:08.157.18-Jan-2020 3754.01 3694.67 79.57 5.00  84.63 2824.94
   13:53:08.357.18-Jan-2020 3754.01 3694.89 79.57 5.00  84.83 2824.94
   13:53:08.557.18-Jan-2020 3754.01 3695.00 79.57 5.00  85.03 2824.94
   13:53:08.757.18-Jan-2020 3754.01 3695.00 79.57 5.00  85.23 2824.94
   13:53:08.958.18-Jan-2020 3754.01 3694.70 79.57 5.00  85.43 2824.94
   13:53:09.158.18-Jan-2020 3754.01 3694.79 79.57 5.00  85.63 2824.94
   13:53:09.358.18-Jan-2020 3754.01 3694.90 79.57 5.00  85.83 2824.94
   13:53:09.558.18-Jan-2020 3754.01 3694.78 79.57 5.00  86.03 2824.94
   13:53:09.758.18-Jan-2020 3754.01 3694.78 79.57 5.00  86.23 2824.94
   13:53:09.958.18-Jan-2020 3754.01 3694.34 79.57 5.00  86.43 2824.94
   13:53:10.158.18-Jan-2020 3754.01 3697.80 79.57 5.00  86.63 2824.94
   13:53:10.358.18-Jan-2020 3754.01 3692.10 79.57 5.00  86.83 2824.94
   13:53:10.558.18-Jan-2020 3754.01 3695.99 79.57 5.00  87.03 2824.94
   13:53:10.758.18-Jan-2020 3754.01 3695.99 79.57 5.00  87.23 2824.94
   13:53:10.958.18-Jan-2020 3754.01 3695.22 79.56 5.00  87.43 2824.94
   13:53:11.158.18-Jan-2020 3754.01 3694.64 79.57 5.00  87.63 2824.94
   13:53:11.358.18-Jan-2020 3754.01 3694.77 79.56 5.00  87.83 2824.94
   13:53:11.558.18-Jan-2020 3754.01 3694.88 79.56 5.00  88.03 2824.94
   13:53:11.758.18-Jan-2020 3754.01 3694.88 79.56 5.00  88.23 2824.94
   13:53:11.958.18-Jan-2020 3754.01 3694.92 79.56 5.00  88.43 2824.94
   13:53:12.159.18-Jan-2020 3754.01 3694.79 79.56 5.00  88.63 2824.94
   13:53:12.359.18-Jan-2020 3754.01 3696.74 79.56 5.00  88.83 2824.94
   13:53:12.559.18-Jan-2020 3754.01 3693.84 79.56 5.00  89.03 2824.94
   13:53:12.759.18-Jan-2020 3754.01 3693.84 79.56 5.00  89.23 2824.94
   13:53:12.959.18-Jan-2020 3754.01 3694.84 79.56 5.00  89.43 2824.94
   13:53:13.159.18-Jan-2020 3754.01 3696.66 79.56 5.00  89.63 2824.94
   13:53:13.359.18-Jan-2020 3754.01 3694.26 79.56 5.00  89.83 2824.94
   13:53:13.559.18-Jan-2020 3754.01 3694.35 79.56 5.00  90.03 2824.94
   13:53:13.759.18-Jan-2020 3754.01 3694.35 79.56 5.00  90.23 2824.94
   13:53:13.959.18-Jan-2020 3754.01 3694.29 79.56 5.00  90.43 2824.94
   13:53:14.159.18-Jan-2020 3754.01 3694.86 79.56 5.00  90.63 2824.94
   13:53:14.359.18-Jan-2020 3754.01 3696.75 79.56 5.00  90.83 2824.94
   13:53:14.559.18-Jan-2020 3754.01 3694.38 79.56 5.00  91.03 2824.94
   13:53:14.759.18-Jan-2020 3754.01 3694.38 79.56 5.00  91.23 2824.94
   13:53:14.959.18-Jan-2020 3754.01 3694.24 79.56 5.00  91.43 2824.94
   13:53:15.160.18-Jan-2020 3754.01 3696.98 79.56 5.00  91.63 2824.94
   13:53:15.360.18-Jan-2020 3754.01 3693.48 79.56 5.00  91.83 2824.94
