~Version Information
 VERS.                  2.0:   CWLS log ASCII Standard -VERSION 2.0
 WRAP.                   NO:   One line per depth step
~Well Information Block
#MNEM.UNIT     VALUE/NAME     DESCRIPTION
#---------     -----------    ---------------------------
 STRT.S             09:16:51 18-Jan-20: START TIME 09:16:51 18-Jan-20
 STOP.S             09:25:06 18-Jan-20: STOP TIME  09:25:06 18-Jan-20
 STEP.S                   0.00: STEP TIME
 NULL.                 -999.25: NULL VALUE
 DFWT.                        :  DIST FWL TEXT
 DFST.                        :  DIST FSL TEXT
 DMF .             Drill Floor:  DRILL MEAS FROM
 STIM.      09.30.00 26-Dec-19:  START TIME
 DATE.      08.00.00 20-Jan-20:  END TIME
 SPUD.               23-Nov-19:  SPUD DATE
 NREF.                    Grid:  NORTH REFERENCE
 HPTY.       Minimum Curvature:  HOLE POS TYPE
 DMOD.             Drill Model:  DRILL MOD DESC
 SVYD.                  Survey:  SURVEY DESC
 ILTD.               Lithology:  INTERP LTH DESC
 FTOP.          Formation Tops:  FORM TOPS DESC
 SON .        AZ-XX-0906192647:  JOB NUMBER
 WTYP.                Deviated:  WELL TYPE
 COMP.     BP Exploration (Caspian Sea) Ltd:  COMPANY
 BASE.              Azerbaijan:  LOGGING EQUIPMENT BASE LOCATION
 REGN.                 Eurasia:  REGION
 FLD .                     ACG:  FIELD NAME
 SRVC.              KCA Deutag:  CONTRACTOR
 MWDS.                    Baku:  MWD SHOP
 WELL.     A10 (Slot 20) - SCP:  WELL NAME
 JOBN.        AZ-XX-0906192647:  JOB TICKET NUMB
 RIG .                 Chirag1:  RIG NAME
 DCON.     Halliburton Sperry Drilling:  DIRECTNL CONTR
 UNIT.                     N/A:  LOGGING EQUIPMENT ID
 PDAT.          Mean Sea Level:  PERMANENT DATUM
 MDS .        Operator Entered:  MAG DATA SOURCE
 CTRY.              Azerbaijan:  COUNTRY NAME
 UWI .            /AZE00000090:  UNIQUE WELL IDENTIFIER
 API .            /AZE00000090:  API NUMBER
 CNTY.                        :  COUNTY
 PROV.                        :  PROVINCE
 STAT.                        :  STATE
 LOC .                        :  LOCATION
 LMF .             Drill Floor:  LOG MEASURED FROM
 TVDS.m                  36.60:  TVDSS CORRECTN
 LATI.deg                40.08:  LATITUDE
 LONG.deg                51.24:  LONGITUDE
 WHNS.m                  -7.94:  WELL HEAD N/S
 WHEW.m                   1.56:  WELL HEAD E/W
 UTMX.m              520429.26:  UTM X
 UTMY.m             4438973.87:  UTM Y
 DFWL.m                   0.00:  DISTANCE FWL
 DFSL.m                   0.00:  DISTANCE FSL
 SDEP.m                1455.00:  START DEPTH
 TDD .m                3878.01:  TOTAL DEPTH (DRILLER)
 VSDR.deg               112.75:  VERT SEC DIRECT
 GVFD.g                   1.00:  GRAVITY FIELD
 MFLD.nT              50256.00:  MAGNETIC FIELD
 MDIP.deg                59.52:  MAGNETIC DIP
 MDEC.deg                 6.43:  MAGNETIC DECL
 GRDC.deg                 0.16:  GRID CORRECTION
 AZTC.deg                 6.27:  AZM TOTAL CORR
 EPD .m                   0.00:  ELEVATION
 EGL .m                   0.00:  GROUND ELEVATION
 WDMS.m                 121.00:  WD ELEV
 APD .m                  36.60:  DEPTH ABOVE PD
 AGAP.m                  36.60:  AIR GAP
 VSEW.m                   1.56:  VERT SEC E/W
 VSNS.m                  -7.94:  VERT SEC N/S
 DEP .m                1140.01:  DEPTH
 EKB .m                  36.60:  KB ELEVATION
 EDF .m                  36.60:  DF ELEVATION
 TDL .m                1293.00:  TOTAL DEPTH (LOGGER)
 VSC .                       0:  VS TO CLOSURE
 MAGU.                 1849164:  MAGUTM CHECKSUM
~Parameter Information Block
#MNEM.UNIT       Value        Description
#---------     -----------    ---------------------------
 AV  .mps                 2.40:  Ann Velocity 
 AVMX.mps                 2.55:  Max Ann Veloc 
 AZIF.deg               134.35:  Azm, Final 
 BHAT.        Rotary Steerable:  BHA Type 
 BREV.rev               847.00:  Rev Bit Total 
 BROT.°/30m              -2.51:  Build Rotating 
 BS  .in                  8.50:  Bit Size 
 BSZ .in                  8.50:  Bit Size 
 BTPL.psig              700.00:  Bit Press Loss 
 CABU.                     Yes:  Customer Abuse 
 CGEO.          Ilgar Gurbanov:  Customer Geo 
 COMM.                     Áo:  Run Comments 1 
 TCS .hr                140.40:  Time Ciculation Ended 
 CV  .mps                 2.27:  Crit Velocity 
 CVMX.mps                 2.45:  Max Crit Veloc 
 DD1 .         Intigam Rahimov:  Direct Drillr 1 
 DD2 .         Rasim Ibrahimov:  Direct Drillr 2 
 DDSV.                 iCruise:  DD Service 
 DEFF.%                  99.00:  % Det Eff 
 DLRX.°/30m               3.28:  Dogleg Rot Max 
 DLSO.°/30m               0.00:  Dogleg Oriented 
 DLSX.°/30m               0.00:  Dogleg Str Max 
 DRET.      23.30.00 18-Jan-20:  Drill End Time 
 DRST.      01.45.00 11-Jan-20:  Drill Start Tim 
 DTIM.hr                 94.00:  Time Drilling 
 EDEP.m                3878.01:  End Depth 
 ENG1.       Dauren Baktybayev:  Engineer 1 
 ENG2.      Natik Hasanaghayev:  Engineer 2 
 ENG3.          Rustam Safarov:  Engineer 3 
 ETIM.      08.00.00 20-Jan-20:  End Time 
 FLOI.gpm               532.00:  Flow In 
 FLON.gpm               500.00:  Flow In Min 
 FLOS.cptm                0.00:  Fluid Loss 
 FLOX.gpm               540.00:  Flow In Max 
 FTRO.       Formation Presure:  FTWD Run Obj 
 HPRE.                     Yes:  High Pressure 
 HTEM.                      No:  High Temp 
 HYDO.m                   1.80:  Hydro Offset 
 IFIN.deg                39.86:  Inc, Final 
 IMAX.deg                59.73:  Inc Max 
 IMIN.deg                39.25:  Inc Min 
 IMND.m                3816.77:  Inc Min Depth 
 IMXD.m                2596.33:  Inc Max Depth 
 JARR.                      No:  Jarring 
 LETM.      23.30.00 18-Jan-20:  Log End Time 
 LOST.hr                     0:  Lost Rig Time 
 LSTM.      01.45.00 11-Jan-20:  Log Start Time 
 MDCL.ppm             41500.00:  Mud Chlorides 
 MDES.     Inversion Oil/Synthetic:  Mud Desc 
 DFD .sg                  1.48:  Mud Density 
 MDMN.sg                  1.48:  Dens Mud Min 
 MDMX.sg                  1.48:  Dens Mud Max 
 MOIL.                      54:  Run Mud Oil % 
 MOWR.                   72:28:  Run Mud OWR 
 MSND.                       0:  Run Mud Sand % 
 MSOL.                      23:  Run Mud Solids% 
 DFV .spqt               86.00:  Mud Viscosity 
 MWOD.in                  6.75:  MWD Tool OD 
 MWSI.                      No:  Serv Intrp, MWD 
 OTIM.hr                223.40:  Time Operating 
 PCON.           Look Like New:  Pad Condition 
 PMAX.psia            32446.79:  Press Op, Max 
 PV  .cP                 49.00:  Mud PV 
 RUN .                     200:  Run Number 
 ROPA.m/hr               12.48:  ROP Avg 
 ROPN.m/hr                8.00:  ROP Min 
 ROPX.m/hr               27.00:  ROP Max 
 RPMA.rpm               121.00:  RPM Surface Avg 
 RPMN.rpm                60.00:  RPM Surface Min 
 RPMX.rpm               140.00:  RPM Surface Max 
 RRUN.                    L202:  Rig Run Number 
 RTIM.hr                  7.25:  Time Reaming 
 SAZI.deg               123.49:  Azm, Start 
 SDEP.m                2585.01:  Start Depth 
 SIDD.                      No:  Serv Intrp, DD 
 SINC.deg                59.93:  Inc, Start 
 SPPA.psig             3539.00:  SPP Avg 
 SPPN.psig             3050.00:  SPP Min 
 SPPX.psig             3950.00:  SPP Max 
 STIM.      19.00.00 10-Jan-20:  Start Time 
 SVCS.                 DD, MWD:  Services 
 SVER.                    9.20:  Sperry Version 
 TDAT.m                1293.00:  Tot Depth Attmp 
 TDDF.                      No:  Trip for DD 
 TDLG.m                1293.00:  Tot Depth Loggd 
 TFF .                      No:  Trip for Fail 
 TQAA.f-kp               16.00:  Torque Abs Avg 
 TQAN.f-kp               11.00:  Torque Abs Min 
 TQAX.f-kp               18.00:  Torque Abs Max 
 TRRT.°/30m               1.25:  Turn Rotating 
 MRT .                  EWR-M5:  Maximum Recorded Temperature 
 TTMX.degC               84.00:  Max Tool Temp 
 VS01.          AZ90514619R5C6:  Virtual Str1 SN 
 VS02.        AZ90552592N2L2C6:  Virtual Str2 SN 
 VS03.        AZ90571337Z1W1C6:  Virtual Str3 SN 
 VS04.         AZ90513690K23C6:  Virtual Str4 SN 
 VS05.           AZ90594857F11:  Virtual Str5 SN 
 VS06.                13102166:  Virtual Str6 SN 
 WBMN.klb                 7.00:  WOB Min 
 WITN.            Peter Wilson:  Customer Rep 
 WOBA.klb                 9.95:  WOB Avg 
 WOBX.klb                10.00:  WOB Max 
 YP  .lhf2               36.00:  Yield Point 
~Curve Information Block
#MNEM.UNIT                 API CODE     Curve Description
#---------               -----------    ---------------------------
 TIME.HHMMSS            00 000 000 000:  GT Time & Date
 GTDEPTH.m              00 000 000 000:  GT Depth
 GTPQH.psia             00 000 000 000:  GT HR Quartz Pressure
 GTTQ.degC              00 000 000 000:  GT Quartz Temperature
 GTTN.NONE              00 000 000 000:  GT Test Number
 GTET.sec               00 000 000 000:  GT Elapsed Test Time
 GTTVD.m                00 000 000 000:  GT True Vertical Depth
#Other Information
#
#WARRANTY: Halliburton will use its best efforts to furnish customers with 
#accurate information and interpretations that are part of, and incident to, the services 
#provided.  However, Halliburton cannot and does not warrant the accuracy 
#or correctness of such information and interpretations.  Under no circumstances should any 
#such information or interpretation be relied upon as the sole basis for any drilling, 
#completion, production, or financial decision or any procedure involving any risk to the 
#safety of any drilling venture, drilling rig or its crew or any other third party.  The 
#Customer has full responsibility for all drilling, completion and production operation.  
#Halliburton makes no representations or warranties, either expressed or 
#implied, including, but not limited to, the implied warranties of merchantability or fitness 
#for a particular purpose, with respect to the services rendered.  In no event will 
#Halliburton be liable for failure to obtain any particular results or for 
#any damages, including, but not limited to, indirect, special or consequential damages, 
#resulting from the use of any information or interpretation provided by Halliburton.
#
~A           TIME           GTDEPTH  GTPQH  GTTQ  GTTN  GTET   GTTVD  
# ...
   09:24:54.881.18-Jan-2020 3746.01 6422.61 80.87 3.00 483.08 2818.83
   09:24:55.081.18-Jan-2020 3746.01 6422.61 80.87 3.00 483.28 2818.83
   09:24:55.281.18-Jan-2020 3746.01 6426.60 80.87 3.00 483.48 2818.83
   09:24:55.481.18-Jan-2020 3746.01 6419.82 80.87 3.00 483.68 2818.83
   09:24:55.681.18-Jan-2020 3746.01 6424.43 80.87 3.00 483.88 2818.83
   09:24:55.881.18-Jan-2020 3746.01 6423.07 80.87 3.00 484.08 2818.83
   09:24:56.081.18-Jan-2020 3746.01 6423.07 80.87 3.00 484.28 2818.83
   09:24:56.281.18-Jan-2020 3746.01 6421.57 80.87 3.00 484.48 2818.83
   09:24:56.481.18-Jan-2020 3746.01 6424.09 80.87 3.00 484.68 2818.83
   09:24:56.681.18-Jan-2020 3746.01 6425.39 80.87 3.00 484.88 2818.83
   09:24:56.881.18-Jan-2020 3746.01 6422.73 80.87 3.00 485.08 2818.83
   09:24:57.081.18-Jan-2020 3746.01 6422.73 80.87 3.00 485.28 2818.83
   09:24:57.281.18-Jan-2020 3746.01 6423.34 80.87 3.00 485.48 2818.83
   09:24:57.481.18-Jan-2020 3746.01 6425.09 80.87 3.00 485.68 2818.83
   09:24:57.681.18-Jan-2020 3746.01 6422.46 80.87 3.00 485.88 2818.83
   09:24:57.881.18-Jan-2020 3746.01 6425.08 80.86 3.00 486.08 2818.83
   09:24:58.081.18-Jan-2020 3746.01 6425.08 80.86 3.00 486.28 2818.83
   09:24:58.281.18-Jan-2020 3746.01 6424.68 80.86 3.00 486.48 2818.83
   09:24:58.481.18-Jan-2020 3746.01 6422.01 80.86 3.00 486.68 2818.83
   09:24:58.682.18-Jan-2020 3746.01 6433.69 80.86 3.00 486.88 2818.83
   09:24:58.882.18-Jan-2020 3746.01 6421.71 80.86 3.00 487.08 2818.83
   09:24:59.082.18-Jan-2020 3746.01 6421.71 80.86 3.00 487.28 2818.83
   09:24:59.282.18-Jan-2020 3746.01 6423.42 80.86 3.00 487.48 2818.83
   09:24:59.482.18-Jan-2020 3746.01 6420.89 80.86 3.00 487.68 2818.83
   09:24:59.682.18-Jan-2020 3746.01 6423.03 80.86 3.00 487.88 2818.83
   09:24:59.882.18-Jan-2020 3746.01 6420.09 80.86 3.00 488.08 2818.83
   09:25:00.082.18-Jan-2020 3746.01 6420.09 80.86 3.00 488.28 2818.83
   09:25:00.282.18-Jan-2020 3746.01 6422.44 80.86 3.00 488.48 2818.83
   09:25:00.482.18-Jan-2020 3746.01 6422.93 80.86 3.00 488.68 2818.83
   09:25:00.682.18-Jan-2020 3746.01 6421.76 80.86 3.00 488.88 2818.83
   09:25:00.882.18-Jan-2020 3746.01 6424.21 80.86 3.00 489.08 2818.83
   09:25:01.082.18-Jan-2020 3746.01 6424.21 80.86 3.00 489.28 2818.83
   09:25:01.282.18-Jan-2020 3746.01 6424.29 80.86 3.00 489.48 2818.83
   09:25:01.482.18-Jan-2020 3746.01 6423.02 80.86 3.00 489.68 2818.83
   09:25:01.682.18-Jan-2020 3746.01 6425.94 80.86 3.00 489.88 2818.83
   09:25:01.882.18-Jan-2020 3746.01 6431.45 80.86 3.00 490.08 2818.83
   09:25:02.082.18-Jan-2020 3746.01 6431.45 80.86 3.00 490.28 2818.83
   09:25:02.282.18-Jan-2020 3746.01 6422.76 80.85 3.00 490.48 2818.83
   09:25:02.482.18-Jan-2020 3746.01 6421.19 80.85 3.00 490.68 2818.83
   09:25:02.682.18-Jan-2020 3746.01 6428.05 80.85 3.00 490.88 2818.83
   09:25:02.882.18-Jan-2020 3746.01 6423.80 80.85 3.00 491.08 2818.83
   09:25:03.082.18-Jan-2020 3746.01 6423.80 80.85 3.00 491.28 2818.83
   09:25:03.282.18-Jan-2020 3746.01 6422.08 80.85 3.00 491.48 2818.83
   09:25:03.482.18-Jan-2020 3746.01 6419.86 80.85 3.00 491.68 2818.83
   09:25:03.682.18-Jan-2020 3746.01 6429.05 80.85 3.00 491.88 2818.83
   09:25:03.882.18-Jan-2020 3746.01 6424.74 80.85 3.00 492.08 2818.83
   09:25:04.082.18-Jan-2020 3746.01 6424.74 80.85 3.00 492.28 2818.83
   09:25:04.282.18-Jan-2020 3746.01 6423.29 80.85 3.00 492.48 2818.83
   09:25:04.483.18-Jan-2020 3746.01 6422.06 80.85 3.00 492.68 2818.83
   09:25:04.683.18-Jan-2020 3746.01 6423.33 80.85 3.00 492.88 2818.83
   09:25:04.883.18-Jan-2020 3746.01 6424.96 80.85 3.00 493.08 2818.83
   09:25:05.083.18-Jan-2020 3746.01 6424.96 80.85 3.00 493.28 2818.83
   09:25:05.283.18-Jan-2020 3746.01 6422.98 80.85 3.00 493.48 2818.83
   09:25:05.483.18-Jan-2020 3746.01 6420.38 80.85 3.00 493.68 2818.83
   09:25:05.683.18-Jan-2020 3746.01 6424.99 80.85 3.00 493.88 2818.83
   09:25:05.883.18-Jan-2020 3746.01 6424.38 80.85 3.00 494.08 2818.83
   09:25:06.083.18-Jan-2020 3746.01 6424.38 80.85 3.00 494.28 2818.83
   09:25:06.283.18-Jan-2020 3746.01 6421.82 80.84 3.00 494.48 2818.83
   09:25:06.483.18-Jan-2020 3746.01 6422.65 80.84 3.00 494.68 2818.83
   09:25:06.683.18-Jan-2020 3746.01 6424.73 80.84 3.00 494.88 2818.83
