~Version Information
 VERS.                  2.0:   CWLS log ASCII Standard -VERSION 2.0
 WRAP.                   NO:   One line per depth step
~Well Information Block
#MNEM.UNIT     VALUE/NAME     DESCRIPTION
#---------     -----------    ---------------------------
 STRT.S             05:39:19 18-Jan-20: START TIME 05:39:19 18-Jan-20
 STOP.S             05:47:35 18-Jan-20: STOP TIME  05:47:35 18-Jan-20
 STEP.S                   0.00: STEP TIME
 NULL.                 -999.25: NULL VALUE
 DFWT.                        :  DIST FWL TEXT
 DFST.                        :  DIST FSL TEXT
 DMF .             Drill Floor:  DRILL MEAS FROM
 STIM.      09.30.00 26-Dec-19:  START TIME
 DATE.      08.00.00 20-Jan-20:  END TIME
 SPUD.               23-Nov-19:  SPUD DATE
 NREF.                    Grid:  NORTH REFERENCE
 HPTY.       Minimum Curvature:  HOLE POS TYPE
 DMOD.             Drill Model:  DRILL MOD DESC
 SVYD.                  Survey:  SURVEY DESC
 ILTD.               Lithology:  INTERP LTH DESC
 FTOP.          Formation Tops:  FORM TOPS DESC
 SON .        AZ-XX-0906192647:  JOB NUMBER
 WTYP.                Deviated:  WELL TYPE
 COMP.     BP Exploration (Caspian Sea) Ltd:  COMPANY
 BASE.              Azerbaijan:  LOGGING EQUIPMENT BASE LOCATION
 REGN.                 Eurasia:  REGION
 FLD .                     ACG:  FIELD NAME
 SRVC.              KCA Deutag:  CONTRACTOR
 MWDS.                    Baku:  MWD SHOP
 WELL.     A10 (Slot 20) - SCP:  WELL NAME
 JOBN.        AZ-XX-0906192647:  JOB TICKET NUMB
 RIG .                 Chirag1:  RIG NAME
 DCON.     Halliburton Sperry Drilling:  DIRECTNL CONTR
 UNIT.                     N/A:  LOGGING EQUIPMENT ID
 PDAT.          Mean Sea Level:  PERMANENT DATUM
 MDS .        Operator Entered:  MAG DATA SOURCE
 CTRY.              Azerbaijan:  COUNTRY NAME
 UWI .            /AZE00000090:  UNIQUE WELL IDENTIFIER
 API .            /AZE00000090:  API NUMBER
 CNTY.                        :  COUNTY
 PROV.                        :  PROVINCE
 STAT.                        :  STATE
 LOC .                        :  LOCATION
 LMF .             Drill Floor:  LOG MEASURED FROM
 TVDS.m                  36.60:  TVDSS CORRECTN
 LATI.deg                40.08:  LATITUDE
 LONG.deg                51.24:  LONGITUDE
 WHNS.m                  -7.94:  WELL HEAD N/S
 WHEW.m                   1.56:  WELL HEAD E/W
 UTMX.m              520429.26:  UTM X
 UTMY.m             4438973.87:  UTM Y
 DFWL.m                   0.00:  DISTANCE FWL
 DFSL.m                   0.00:  DISTANCE FSL
 SDEP.m                1455.00:  START DEPTH
 TDD .m                3878.01:  TOTAL DEPTH (DRILLER)
 VSDR.deg               112.75:  VERT SEC DIRECT
 GVFD.g                   1.00:  GRAVITY FIELD
 MFLD.nT              50256.00:  MAGNETIC FIELD
 MDIP.deg                59.52:  MAGNETIC DIP
 MDEC.deg                 6.43:  MAGNETIC DECL
 GRDC.deg                 0.16:  GRID CORRECTION
 AZTC.deg                 6.27:  AZM TOTAL CORR
 EPD .m                   0.00:  ELEVATION
 EGL .m                   0.00:  GROUND ELEVATION
 WDMS.m                 121.00:  WD ELEV
 APD .m                  36.60:  DEPTH ABOVE PD
 AGAP.m                  36.60:  AIR GAP
 VSEW.m                   1.56:  VERT SEC E/W
 VSNS.m                  -7.94:  VERT SEC N/S
 DEP .m                1140.01:  DEPTH
 EKB .m                  36.60:  KB ELEVATION
 EDF .m                  36.60:  DF ELEVATION
 TDL .m                1293.00:  TOTAL DEPTH (LOGGER)
 VSC .                       0:  VS TO CLOSURE
 MAGU.                 1849164:  MAGUTM CHECKSUM
~Parameter Information Block
#MNEM.UNIT       Value        Description
#---------     -----------    ---------------------------
 AV  .mps                 2.40:  Ann Velocity 
 AVMX.mps                 2.55:  Max Ann Veloc 
 AZIF.deg               134.35:  Azm, Final 
 BHAT.        Rotary Steerable:  BHA Type 
 BREV.rev               847.00:  Rev Bit Total 
 BROT.∞/30m              -2.51:  Build Rotating 
 BS  .in                  8.50:  Bit Size 
 BSZ .in                  8.50:  Bit Size 
 BTPL.psig              700.00:  Bit Press Loss 
 CABU.                     Yes:  Customer Abuse 
 CGEO.          Ilgar Gurbanov:  Customer Geo 
 COMM.                     ‹êX:  Run Comments 1 
 TCS .hr                140.40:  Time Ciculation Ended 
 CV  .mps                 2.27:  Crit Velocity 
 CVMX.mps                 2.45:  Max Crit Veloc 
 DD1 .         Intigam Rahimov:  Direct Drillr 1 
 DD2 .         Rasim Ibrahimov:  Direct Drillr 2 
 DDSV.                 iCruise:  DD Service 
 DEFF.%                  99.00:  % Det Eff 
 DLRX.∞/30m               3.28:  Dogleg Rot Max 
 DLSO.∞/30m               0.00:  Dogleg Oriented 
 DLSX.∞/30m               0.00:  Dogleg Str Max 
 DRET.      23.30.00 18-Jan-20:  Drill End Time 
 DRST.      01.45.00 11-Jan-20:  Drill Start Tim 
 DTIM.hr                 94.00:  Time Drilling 
 EDEP.m                3878.01:  End Depth 
 ENG1.       Dauren Baktybayev:  Engineer 1 
 ENG2.      Natik Hasanaghayev:  Engineer 2 
 ENG3.          Rustam Safarov:  Engineer 3 
 ETIM.      08.00.00 20-Jan-20:  End Time 
 FLOI.gpm               532.00:  Flow In 
 FLON.gpm               500.00:  Flow In Min 
 FLOS.cptm                0.00:  Fluid Loss 
 FLOX.gpm               540.00:  Flow In Max 
 FTRO.       Formation Presure:  FTWD Run Obj 
 HPRE.                     Yes:  High Pressure 
 HTEM.                      No:  High Temp 
 HYDO.m                   1.80:  Hydro Offset 
 IFIN.deg                39.86:  Inc, Final 
 IMAX.deg                59.73:  Inc Max 
 IMIN.deg                39.25:  Inc Min 
 IMND.m                3816.77:  Inc Min Depth 
 IMXD.m                2596.33:  Inc Max Depth 
 JARR.                      No:  Jarring 
 LETM.      23.30.00 18-Jan-20:  Log End Time 
 LOST.hr                     0:  Lost Rig Time 
 LSTM.      01.45.00 11-Jan-20:  Log Start Time 
 MDCL.ppm             41500.00:  Mud Chlorides 
 MDES.     Inversion Oil/Synthetic:  Mud Desc 
 DFD .sg                  1.48:  Mud Density 
 MDMN.sg                  1.48:  Dens Mud Min 
 MDMX.sg                  1.48:  Dens Mud Max 
 MOIL.                      54:  Run Mud Oil % 
 MOWR.                   72:28:  Run Mud OWR 
 MSND.                       0:  Run Mud Sand % 
 MSOL.                      23:  Run Mud Solids% 
 DFV .spqt               86.00:  Mud Viscosity 
 MWOD.in                  6.75:  MWD Tool OD 
 MWSI.                      No:  Serv Intrp, MWD 
 OTIM.hr                223.40:  Time Operating 
 PCON.           Look Like New:  Pad Condition 
 PMAX.psia            32446.79:  Press Op, Max 
 PV  .cP                 49.00:  Mud PV 
 RUN .                     200:  Run Number 
 ROPA.m/hr               12.48:  ROP Avg 
 ROPN.m/hr                8.00:  ROP Min 
 ROPX.m/hr               27.00:  ROP Max 
 RPMA.rpm               121.00:  RPM Surface Avg 
 RPMN.rpm                60.00:  RPM Surface Min 
 RPMX.rpm               140.00:  RPM Surface Max 
 RRUN.                    L202:  Rig Run Number 
 RTIM.hr                  7.25:  Time Reaming 
 SAZI.deg               123.49:  Azm, Start 
 SDEP.m                2585.01:  Start Depth 
 SIDD.                      No:  Serv Intrp, DD 
 SINC.deg                59.93:  Inc, Start 
 SPPA.psig             3539.00:  SPP Avg 
 SPPN.psig             3050.00:  SPP Min 
 SPPX.psig             3950.00:  SPP Max 
 STIM.      19.00.00 10-Jan-20:  Start Time 
 SVCS.                 DD, MWD:  Services 
 SVER.                    9.20:  Sperry Version 
 TDAT.m                1293.00:  Tot Depth Attmp 
 TDDF.                      No:  Trip for DD 
 TDLG.m                1293.00:  Tot Depth Loggd 
 TFF .                      No:  Trip for Fail 
 TQAA.f-kp               16.00:  Torque Abs Avg 
 TQAN.f-kp               11.00:  Torque Abs Min 
 TQAX.f-kp               18.00:  Torque Abs Max 
 TRRT.∞/30m               1.25:  Turn Rotating 
 MRT .                  EWR-M5:  Maximum Recorded Temperature 
 TTMX.degC               84.00:  Max Tool Temp 
 VS01.          AZ90514619R5C6:  Virtual Str1 SN 
 VS02.        AZ90552592N2L2C6:  Virtual Str2 SN 
 VS03.        AZ90571337Z1W1C6:  Virtual Str3 SN 
 VS04.         AZ90513690K23C6:  Virtual Str4 SN 
 VS05.           AZ90594857F11:  Virtual Str5 SN 
 VS06.                13102166:  Virtual Str6 SN 
 WBMN.klb                 7.00:  WOB Min 
 WITN.            Peter Wilson:  Customer Rep 
 WOBA.klb                 9.95:  WOB Avg 
 WOBX.klb                10.00:  WOB Max 
 YP  .lhf2               36.00:  Yield Point 
~Curve Information Block
#MNEM.UNIT                 API CODE     Curve Description
#---------               -----------    ---------------------------
 TIME.HHMMSS            00 000 000 000:  GT Time & Date
 GTDEPTH.m              00 000 000 000:  GT Depth
 GTPQH.psia             00 000 000 000:  GT HR Quartz Pressure
 GTTQ.degC              00 000 000 000:  GT Quartz Temperature
 GTTN.NONE              00 000 000 000:  GT Test Number
 GTET.sec               00 000 000 000:  GT Elapsed Test Time
 GTTVD.m                00 000 000 000:  GT True Vertical Depth
#Other Information
#
#WARRANTY: Halliburton will use its best efforts to furnish customers with 
#accurate information and interpretations that are part of, and incident to, the services 
#provided.  However, Halliburton cannot and does not warrant the accuracy 
#or correctness of such information and interpretations.  Under no circumstances should any 
#such information or interpretation be relied upon as the sole basis for any drilling, 
#completion, production, or financial decision or any procedure involving any risk to the 
#safety of any drilling venture, drilling rig or its crew or any other third party.  The 
#Customer has full responsibility for all drilling, completion and production operation.  
#Halliburton makes no representations or warranties, either expressed or 
#implied, including, but not limited to, the implied warranties of merchantability or fitness 
#for a particular purpose, with respect to the services rendered.  In no event will 
#Halliburton be liable for failure to obtain any particular results or for 
#any damages, including, but not limited to, indirect, special or consequential damages, 
#resulting from the use of any information or interpretation provided by Halliburton.
#
~A           TIME           GTDEPTH  GTPQH  GTTQ  GTTN  GTET   GTTVD  
# ...
   05:43:09.562.18-Jan-2020 3717.66 4263.16 78.20 2.00 230.07 2797.70
   05:43:09.762.18-Jan-2020 3717.66 4263.16 78.20 2.00 230.27 2797.70
   05:43:09.962.18-Jan-2020 3717.66 4263.15 78.20 2.00 230.47 2797.70
   05:43:10.162.18-Jan-2020 3717.66 4263.13 78.20 2.00 230.67 2797.70
   05:43:10.362.18-Jan-2020 3717.66 4263.12 78.20 2.00 230.87 2797.70
   05:43:10.562.18-Jan-2020 3717.66 4263.20 78.20 2.00 231.07 2797.70
   05:43:10.762.18-Jan-2020 3717.66 4263.20 78.20 2.00 231.27 2797.70
   05:43:10.962.18-Jan-2020 3717.66 4263.13 78.20 2.00 231.47 2797.70
   05:43:11.162.18-Jan-2020 3717.66 4263.32 78.20 2.00 231.67 2797.70
   05:43:11.362.18-Jan-2020 3717.66 4263.19 78.20 2.00 231.87 2797.70
   05:43:11.562.18-Jan-2020 3717.66 4263.21 78.20 2.00 232.07 2797.70
   05:43:11.763.18-Jan-2020 3717.66 4263.21 78.20 2.00 232.27 2797.70
   05:43:11.963.18-Jan-2020 3717.66 4263.14 78.20 2.00 232.47 2797.70
   05:43:12.163.18-Jan-2020 3717.66 4263.07 78.20 2.00 232.67 2797.70
   05:43:12.363.18-Jan-2020 3717.66 4263.02 78.20 2.00 232.87 2797.70
   05:43:12.563.18-Jan-2020 3717.66 4263.35 78.20 2.00 233.07 2797.70
   05:43:12.763.18-Jan-2020 3717.66 4263.35 78.20 2.00 233.27 2797.70
   05:43:12.963.18-Jan-2020 3717.66 4263.16 78.20 2.00 233.47 2797.70
   05:43:13.163.18-Jan-2020 3717.66 4263.36 78.20 2.00 233.67 2797.70
   05:43:13.363.18-Jan-2020 3717.66 4263.05 78.20 2.00 233.87 2797.70
   05:43:13.563.18-Jan-2020 3717.66 4263.16 78.20 2.00 234.07 2797.70
   05:43:13.763.18-Jan-2020 3717.66 4263.16 78.20 2.00 234.27 2797.70
   05:43:13.963.18-Jan-2020 3717.66 4263.25 78.20 2.00 234.47 2797.70
   05:43:14.163.18-Jan-2020 3717.66 4263.17 78.20 2.00 234.67 2797.70
   05:43:14.363.18-Jan-2020 3717.66 4263.45 78.20 2.00 234.87 2797.70
   05:43:14.563.18-Jan-2020 3717.66 4262.96 78.20 2.00 235.07 2797.70
   05:43:14.763.18-Jan-2020 3717.66 4262.96 78.20 2.00 235.27 2797.70
   05:43:14.963.18-Jan-2020 3717.66 4263.10 78.20 2.00 235.47 2797.70
   05:43:15.163.18-Jan-2020 3717.66 4263.18 78.20 2.00 235.67 2797.70
   05:43:15.364.18-Jan-2020 3717.66 4263.15 78.20 2.00 235.87 2797.70
   05:43:15.564.18-Jan-2020 3717.66 4263.08 78.20 2.00 236.07 2797.70
   05:43:15.764.18-Jan-2020 3717.66 4263.08 78.20 2.00 236.27 2797.70
   05:43:15.964.18-Jan-2020 3717.66 4263.19 78.20 2.00 236.47 2797.70
   05:43:16.164.18-Jan-2020 3717.66 4263.22 78.20 2.00 236.67 2797.70
   05:43:16.364.18-Jan-2020 3717.66 4263.09 78.20 2.00 236.87 2797.70
   05:43:16.564.18-Jan-2020 3717.66 4263.16 78.20 2.00 237.07 2797.70
   05:43:16.764.18-Jan-2020 3717.66 4263.16 78.20 2.00 237.27 2797.70
   05:43:16.964.18-Jan-2020 3717.66 4263.22 78.20 2.00 237.47 2797.70
   05:43:17.164.18-Jan-2020 3717.66 4263.17 78.20 2.00 237.67 2797.70
   05:43:17.364.18-Jan-2020 3717.66 4263.17 78.20 2.00 237.87 2797.70
   05:43:17.564.18-Jan-2020 3717.66 4263.18 78.20 2.00 238.07 2797.70
   05:43:17.764.18-Jan-2020 3717.66 4263.18 78.20 2.00 238.27 2797.70
   05:43:17.964.18-Jan-2020 3717.66 4262.97 78.20 2.00 238.47 2797.70
   05:43:18.164.18-Jan-2020 3717.66 4263.22 78.20 2.00 238.67 2797.70
   05:43:18.364.18-Jan-2020 3717.66 4263.15 78.20 2.00 238.87 2797.70
   05:43:18.564.18-Jan-2020 3717.66 4263.11 78.20 2.00 239.07 2797.70
   05:43:18.765.18-Jan-2020 3717.66 4263.11 78.20 2.00 239.27 2797.70
   05:43:18.965.18-Jan-2020 3717.66 4263.11 78.20 2.00 239.47 2797.70
   05:43:19.165.18-Jan-2020 3717.66 4263.14 78.20 2.00 239.67 2797.70
   05:43:19.365.18-Jan-2020 3717.66 4263.13 78.20 2.00 239.87 2797.70
   05:43:19.565.18-Jan-2020 3717.66 4263.22 78.20 2.00 240.07 2797.70
   05:43:19.765.18-Jan-2020 3717.66 4263.22 78.20 2.00 240.27 2797.70
   05:43:19.965.18-Jan-2020 3717.66 4263.18 78.20 2.00 240.47 2797.70
   05:43:20.165.18-Jan-2020 3717.66 4263.43 78.20 2.00 240.67 2797.70
   05:43:20.365.18-Jan-2020 3717.66 4263.04 78.20 2.00 240.87 2797.70
   05:43:20.565.18-Jan-2020 3717.66 4263.23 78.20 2.00 241.07 2797.70
   05:43:20.765.18-Jan-2020 3717.66 4263.23 78.20 2.00 241.27 2797.70
   05:43:20.965.18-Jan-2020 3717.66 4263.10 78.20 2.00 241.47 2797.70
   05:43:21.165.18-Jan-2020 3717.66 4262.99 78.20 2.00 241.67 2797.70
   05:43:21.365.18-Jan-2020 3717.66 4263.26 78.20 2.00 241.87 2797.70
   05:43:21.565.18-Jan-2020 3717.66 4263.17 78.20 2.00 242.07 2797.70
   05:43:21.765.18-Jan-2020 3717.66 4263.17 78.20 2.00 242.27 2797.70
   05:43:21.965.18-Jan-2020 3717.66 4263.07 78.20 2.00 242.47 2797.70
   05:43:22.165.18-Jan-2020 3717.66 4263.48 78.20 2.00 242.67 2797.70
   05:43:22.366.18-Jan-2020 3717.66 4262.88 78.20 2.00 242.87 2797.70
   05:43:22.566.18-Jan-2020 3717.66 4263.23 78.20 2.00 243.07 2797.70
   05:43:22.766.18-Jan-2020 3717.66 4263.23 78.20 2.00 243.27 2797.70
   05:43:22.966.18-Jan-2020 3717.66 4263.15 78.20 2.00 243.47 2797.70
   05:43:23.166.18-Jan-2020 3717.66 4263.35 78.20 2.00 243.67 2797.70
   05:43:23.366.18-Jan-2020 3717.66 4263.14 78.20 2.00 243.87 2797.70
   05:43:23.566.18-Jan-2020 3717.66 4263.15 78.20 2.00 244.07 2797.70
   05:43:23.766.18-Jan-2020 3717.66 4263.15 78.20 2.00 244.27 2797.70
   05:43:23.966.18-Jan-2020 3717.66 4263.23 78.20 2.00 244.47 2797.70
   05:43:24.166.18-Jan-2020 3717.66 4263.18 78.20 2.00 244.67 2797.70
   05:43:24.366.18-Jan-2020 3717.66 4263.12 78.20 2.00 244.87 2797.70
   05:43:24.566.18-Jan-2020 3717.66 4263.12 78.20 2.00 245.07 2797.70
   05:43:24.766.18-Jan-2020 3717.66 4263.12 78.20 2.00 245.27 2797.70
   05:43:24.966.18-Jan-2020 3717.66 4263.17 78.20 2.00 245.47 2797.70
   05:43:25.166.18-Jan-2020 3717.66 4263.17 78.20 2.00 245.67 2797.70
   05:43:25.366.18-Jan-2020 3717.66 4263.12 78.20 2.00 245.87 2797.70
   05:43:25.566.18-Jan-2020 3717.66 4263.15 78.20 2.00 246.07 2797.70
   05:43:25.766.18-Jan-2020 3717.66 4263.15 78.20 2.00 246.27 2797.70
   05:43:25.967.18-Jan-2020 3717.66 4263.21 78.20 2.00 246.47 2797.70
   05:43:26.167.18-Jan-2020 3717.66 4263.18 78.20 2.00 246.67 2797.70
   05:43:26.367.18-Jan-2020 3717.66 4263.14 78.20 2.00 246.87 2797.70
   05:43:26.567.18-Jan-2020 3717.66 4263.36 78.20 2.00 247.07 2797.70
   05:43:26.767.18-Jan-2020 3717.66 4263.36 78.20 2.00 247.27 2797.70
   05:43:26.967.18-Jan-2020 3717.66 4263.17 78.20 2.00 247.47 2797.70
   05:43:27.167.18-Jan-2020 3717.66 4263.08 78.20 2.00 247.67 2797.70
   05:43:27.367.18-Jan-2020 3717.66 4263.20 78.20 2.00 247.87 2797.70
   05:43:27.567.18-Jan-2020 3717.66 4263.11 78.20 2.00 248.07 2797.70
   05:43:27.767.18-Jan-2020 3717.66 4263.11 78.20 2.00 248.27 2797.70
   05:43:27.967.18-Jan-2020 3717.66 4263.11 78.20 2.00 248.47 2797.70
   05:43:28.167.18-Jan-2020 3717.66 4263.14 78.20 2.00 248.67 2797.70
   05:43:28.367.18-Jan-2020 3717.66 4263.19 78.20 2.00 248.87 2797.70
   05:43:28.567.18-Jan-2020 3717.66 4263.19 78.20 2.00 249.07 2797.70
   05:43:28.767.18-Jan-2020 3717.66 4263.19 78.20 2.00 249.27 2797.70
   05:43:28.967.18-Jan-2020 3717.66 4263.34 78.20 2.00 249.47 2797.70
   05:43:29.167.18-Jan-2020 3717.66 4263.19 78.20 2.00 249.67 2797.70
   05:43:29.368.18-Jan-2020 3717.66 4263.21 78.20 2.00 249.87 2797.70
   05:43:29.568.18-Jan-2020 3717.66 4263.06 78.20 2.00 250.07 2797.70
   05:43:29.768.18-Jan-2020 3717.66 4263.06 78.20 2.00 250.27 2797.70
   05:43:29.968.18-Jan-2020 3717.66 4263.10 78.20 2.00 250.47 2797.70
   05:43:30.168.18-Jan-2020 3717.66 4262.99 78.20 2.00 250.67 2797.70
   05:43:30.368.18-Jan-2020 3717.66 4263.36 78.20 2.00 250.87 2797.70
   05:43:30.568.18-Jan-2020 3717.66 4263.14 78.20 2.00 251.07 2797.70
   05:43:30.768.18-Jan-2020 3717.66 4263.14 78.20 2.00 251.27 2797.70
   05:43:30.968.18-Jan-2020 3717.66 4263.20 78.20 2.00 251.47 2797.70
   05:43:31.168.18-Jan-2020 3717.66 4263.14 78.20 2.00 251.67 2797.70
   05:43:31.368.18-Jan-2020 3717.66 4263.28 78.20 2.00 251.87 2797.70
   05:43:31.568.18-Jan-2020 3717.66 4263.09 78.20 2.00 252.07 2797.70
   05:43:31.768.18-Jan-2020 3717.66 4263.09 78.20 2.00 252.27 2797.70
   05:43:31.968.18-Jan-2020 3717.66 4263.25 78.20 2.00 252.47 2797.70
   05:43:32.168.18-Jan-2020 3717.66 4263.18 78.20 2.00 252.67 2797.70
   05:43:32.368.18-Jan-2020 3717.66 4263.32 78.20 2.00 252.87 2797.70
