~Version Information
 VERS.                  2.0:   CWLS log ASCII Standard -VERSION 2.0
 WRAP.                   NO:   One line per depth step
~Well Information Block
#MNEM.UNIT     VALUE/NAME     DESCRIPTION
#---------     -----------    ---------------------------
 STRT.S             13:51:43 18-Jan-20: START TIME 13:51:43 18-Jan-20
 STOP.S             13:59:59 18-Jan-20: STOP TIME  13:59:59 18-Jan-20
 STEP.S                   0.00: STEP TIME
 NULL.                 -999.25: NULL VALUE
 DFWT.                        :  DIST FWL TEXT
 DFST.                        :  DIST FSL TEXT
 DMF .             Drill Floor:  DRILL MEAS FROM
 STIM.      09.30.00 26-Dec-19:  START TIME
 DATE.      08.00.00 20-Jan-20:  END TIME
 SPUD.               23-Nov-19:  SPUD DATE
 NREF.                    Grid:  NORTH REFERENCE
 HPTY.       Minimum Curvature:  HOLE POS TYPE
 DMOD.             Drill Model:  DRILL MOD DESC
 SVYD.                  Survey:  SURVEY DESC
 ILTD.               Lithology:  INTERP LTH DESC
 FTOP.          Formation Tops:  FORM TOPS DESC
 SON .        AZ-XX-0906192647:  JOB NUMBER
 WTYP.                Deviated:  WELL TYPE
 COMP.     BP Exploration (Caspian Sea) Ltd:  COMPANY
 BASE.              Azerbaijan:  LOGGING EQUIPMENT BASE LOCATION
 REGN.                 Eurasia:  REGION
 FLD .                     ACG:  FIELD NAME
 SRVC.              KCA Deutag:  CONTRACTOR
 MWDS.                    Baku:  MWD SHOP
 WELL.     A10 (Slot 20) - SCP:  WELL NAME
 JOBN.        AZ-XX-0906192647:  JOB TICKET NUMB
 RIG .                 Chirag1:  RIG NAME
 DCON.     Halliburton Sperry Drilling:  DIRECTNL CONTR
 UNIT.                     N/A:  LOGGING EQUIPMENT ID
 PDAT.          Mean Sea Level:  PERMANENT DATUM
 MDS .        Operator Entered:  MAG DATA SOURCE
 CTRY.              Azerbaijan:  COUNTRY NAME
 UWI .            /AZE00000090:  UNIQUE WELL IDENTIFIER
 API .            /AZE00000090:  API NUMBER
 CNTY.                        :  COUNTY
 PROV.                        :  PROVINCE
 STAT.                        :  STATE
 LOC .                        :  LOCATION
 LMF .             Drill Floor:  LOG MEASURED FROM
 TVDS.m                  36.60:  TVDSS CORRECTN
 LATI.deg                40.08:  LATITUDE
 LONG.deg                51.24:  LONGITUDE
 WHNS.m                  -7.94:  WELL HEAD N/S
 WHEW.m                   1.56:  WELL HEAD E/W
 UTMX.m              520429.26:  UTM X
 UTMY.m             4438973.87:  UTM Y
 DFWL.m                   0.00:  DISTANCE FWL
 DFSL.m                   0.00:  DISTANCE FSL
 SDEP.m                1455.00:  START DEPTH
 TDD .m                3878.01:  TOTAL DEPTH (DRILLER)
 VSDR.deg               112.75:  VERT SEC DIRECT
 GVFD.g                   1.00:  GRAVITY FIELD
 MFLD.nT              50256.00:  MAGNETIC FIELD
 MDIP.deg                59.52:  MAGNETIC DIP
 MDEC.deg                 6.43:  MAGNETIC DECL
 GRDC.deg                 0.16:  GRID CORRECTION
 AZTC.deg                 6.27:  AZM TOTAL CORR
 EPD .m                   0.00:  ELEVATION
 EGL .m                   0.00:  GROUND ELEVATION
 WDMS.m                 121.00:  WD ELEV
 APD .m                  36.60:  DEPTH ABOVE PD
 AGAP.m                  36.60:  AIR GAP
 VSEW.m                   1.56:  VERT SEC E/W
 VSNS.m                  -7.94:  VERT SEC N/S
 DEP .m                1140.01:  DEPTH
 EKB .m                  36.60:  KB ELEVATION
 EDF .m                  36.60:  DF ELEVATION
 TDL .m                1293.00:  TOTAL DEPTH (LOGGER)
 VSC .                       0:  VS TO CLOSURE
 MAGU.                 1849164:  MAGUTM CHECKSUM
~Parameter Information Block
#MNEM.UNIT       Value        Description
#---------     -----------    ---------------------------
 AV  .mps                 2.40:  Ann Velocity 
 AVMX.mps                 2.55:  Max Ann Veloc 
 AZIF.deg               134.35:  Azm, Final 
 BHAT.        Rotary Steerable:  BHA Type 
 BREV.rev               847.00:  Rev Bit Total 
 BROT.°/30m              -2.51:  Build Rotating 
 BS  .in                  8.50:  Bit Size 
 BSZ .in                  8.50:  Bit Size 
 BTPL.psig              700.00:  Bit Press Loss 
 CABU.                     Yes:  Customer Abuse 
 CGEO.          Ilgar Gurbanov:  Customer Geo 
 COMM.                     üÓ~:  Run Comments 1 
 TCS .hr                140.40:  Time Ciculation Ended 
 CV  .mps                 2.27:  Crit Velocity 
 CVMX.mps                 2.45:  Max Crit Veloc 
 DD1 .         Intigam Rahimov:  Direct Drillr 1 
 DD2 .         Rasim Ibrahimov:  Direct Drillr 2 
 DDSV.                 iCruise:  DD Service 
 DEFF.%                  99.00:  % Det Eff 
 DLRX.°/30m               3.28:  Dogleg Rot Max 
 DLSO.°/30m               0.00:  Dogleg Oriented 
 DLSX.°/30m               0.00:  Dogleg Str Max 
 DRET.      23.30.00 18-Jan-20:  Drill End Time 
 DRST.      01.45.00 11-Jan-20:  Drill Start Tim 
 DTIM.hr                 94.00:  Time Drilling 
 EDEP.m                3878.01:  End Depth 
 ENG1.       Dauren Baktybayev:  Engineer 1 
 ENG2.      Natik Hasanaghayev:  Engineer 2 
 ENG3.          Rustam Safarov:  Engineer 3 
 ETIM.      08.00.00 20-Jan-20:  End Time 
 FLOI.gpm               532.00:  Flow In 
 FLON.gpm               500.00:  Flow In Min 
 FLOS.cptm                0.00:  Fluid Loss 
 FLOX.gpm               540.00:  Flow In Max 
 FTRO.       Formation Presure:  FTWD Run Obj 
 HPRE.                     Yes:  High Pressure 
 HTEM.                      No:  High Temp 
 HYDO.m                   1.80:  Hydro Offset 
 IFIN.deg                39.86:  Inc, Final 
 IMAX.deg                59.73:  Inc Max 
 IMIN.deg                39.25:  Inc Min 
 IMND.m                3816.77:  Inc Min Depth 
 IMXD.m                2596.33:  Inc Max Depth 
 JARR.                      No:  Jarring 
 LETM.      23.30.00 18-Jan-20:  Log End Time 
 LOST.hr                     0:  Lost Rig Time 
 LSTM.      01.45.00 11-Jan-20:  Log Start Time 
 MDCL.ppm             41500.00:  Mud Chlorides 
 MDES.     Inversion Oil/Synthetic:  Mud Desc 
 DFD .sg                  1.48:  Mud Density 
 MDMN.sg                  1.48:  Dens Mud Min 
 MDMX.sg                  1.48:  Dens Mud Max 
 MOIL.                      54:  Run Mud Oil % 
 MOWR.                   72:28:  Run Mud OWR 
 MSND.                       0:  Run Mud Sand % 
 MSOL.                      23:  Run Mud Solids% 
 DFV .spqt               86.00:  Mud Viscosity 
 MWOD.in                  6.75:  MWD Tool OD 
 MWSI.                      No:  Serv Intrp, MWD 
 OTIM.hr                223.40:  Time Operating 
 PCON.           Look Like New:  Pad Condition 
 PMAX.psia            32446.79:  Press Op, Max 
 PV  .cP                 49.00:  Mud PV 
 RUN .                     200:  Run Number 
 ROPA.m/hr               12.48:  ROP Avg 
 ROPN.m/hr                8.00:  ROP Min 
 ROPX.m/hr               27.00:  ROP Max 
 RPMA.rpm               121.00:  RPM Surface Avg 
 RPMN.rpm                60.00:  RPM Surface Min 
 RPMX.rpm               140.00:  RPM Surface Max 
 RRUN.                    L202:  Rig Run Number 
 RTIM.hr                  7.25:  Time Reaming 
 SAZI.deg               123.49:  Azm, Start 
 SDEP.m                2585.01:  Start Depth 
 SIDD.                      No:  Serv Intrp, DD 
 SINC.deg                59.93:  Inc, Start 
 SPPA.psig             3539.00:  SPP Avg 
 SPPN.psig             3050.00:  SPP Min 
 SPPX.psig             3950.00:  SPP Max 
 STIM.      19.00.00 10-Jan-20:  Start Time 
 SVCS.                 DD, MWD:  Services 
 SVER.                    9.20:  Sperry Version 
 TDAT.m                1293.00:  Tot Depth Attmp 
 TDDF.                      No:  Trip for DD 
 TDLG.m                1293.00:  Tot Depth Loggd 
 TFF .                      No:  Trip for Fail 
 TQAA.f-kp               16.00:  Torque Abs Avg 
 TQAN.f-kp               11.00:  Torque Abs Min 
 TQAX.f-kp               18.00:  Torque Abs Max 
 TRRT.°/30m               1.25:  Turn Rotating 
 MRT .                  EWR-M5:  Maximum Recorded Temperature 
 TTMX.degC               84.00:  Max Tool Temp 
 VS01.          AZ90514619R5C6:  Virtual Str1 SN 
 VS02.        AZ90552592N2L2C6:  Virtual Str2 SN 
 VS03.        AZ90571337Z1W1C6:  Virtual Str3 SN 
 VS04.         AZ90513690K23C6:  Virtual Str4 SN 
 VS05.           AZ90594857F11:  Virtual Str5 SN 
 VS06.                13102166:  Virtual Str6 SN 
 WBMN.klb                 7.00:  WOB Min 
 WITN.            Peter Wilson:  Customer Rep 
 WOBA.klb                 9.95:  WOB Avg 
 WOBX.klb                10.00:  WOB Max 
 YP  .lhf2               36.00:  Yield Point 
~Curve Information Block
#MNEM.UNIT                 API CODE     Curve Description
#---------               -----------    ---------------------------
 TIME.HHMMSS            00 000 000 000:  GT Time & Date
 GTDEPTH.m              00 000 000 000:  GT Depth
 GTPQH.psia             00 000 000 000:  GT HR Quartz Pressure
 GTTQ.degC              00 000 000 000:  GT Quartz Temperature
 GTTN.NONE              00 000 000 000:  GT Test Number
 GTET.sec               00 000 000 000:  GT Elapsed Test Time
 GTTVD.m                00 000 000 000:  GT True Vertical Depth
#Other Information
#
#WARRANTY: Halliburton will use its best efforts to furnish customers with 
#accurate information and interpretations that are part of, and incident to, the services 
#provided.  However, Halliburton cannot and does not warrant the accuracy 
#or correctness of such information and interpretations.  Under no circumstances should any 
#such information or interpretation be relied upon as the sole basis for any drilling, 
#completion, production, or financial decision or any procedure involving any risk to the 
#safety of any drilling venture, drilling rig or its crew or any other third party.  The 
#Customer has full responsibility for all drilling, completion and production operation.  
#Halliburton makes no representations or warranties, either expressed or 
#implied, including, but not limited to, the implied warranties of merchantability or fitness 
#for a particular purpose, with respect to the services rendered.  In no event will 
#Halliburton be liable for failure to obtain any particular results or for 
#any damages, including, but not limited to, indirect, special or consequential damages, 
#resulting from the use of any information or interpretation provided by Halliburton.
#
~A           TIME           GTDEPTH  GTPQH  GTTQ  GTTN  GTET   GTTVD  
   13:51:43.530.18-Jan-2020 3754.01 6331.44 79.69 5.00   0.00 2824.94
   13:51:43.730.18-Jan-2020 3754.01 6331.44 79.69 5.00   0.20 2824.94
   13:51:43.930.18-Jan-2020 3754.01 6331.18 79.69 5.00   0.40 2824.94
   13:51:44.130.18-Jan-2020 3754.01 6331.09 79.69 5.00   0.60 2824.94
   13:51:44.330.18-Jan-2020 3754.01 6343.75 79.69 5.00   0.80 2824.94
   13:51:44.530.18-Jan-2020 3754.01 6330.38 79.69 5.00   1.00 2824.94
   13:51:44.730.18-Jan-2020 3754.01 6330.38 79.69 5.00   1.20 2824.94
   13:51:44.930.18-Jan-2020 3754.01 6334.59 79.69 5.00   1.40 2824.94
   13:51:45.130.18-Jan-2020 3754.01 6330.95 79.69 5.00   1.60 2824.94
   13:51:45.330.18-Jan-2020 3754.01 6338.79 79.69 5.00   1.80 2824.94
   13:51:45.531.18-Jan-2020 3754.01 6332.19 79.69 5.00   2.00 2824.94
   13:51:45.731.18-Jan-2020 3754.01 6332.19 79.69 5.00   2.20 2824.94
   13:51:45.931.18-Jan-2020 3754.01 6333.44 79.69 5.00   2.40 2824.94
   13:51:46.131.18-Jan-2020 3754.01 6331.00 79.69 5.00   2.60 2824.94
   13:51:46.331.18-Jan-2020 3754.01 6332.55 79.69 5.00   2.80 2824.94
   13:51:46.531.18-Jan-2020 3754.01 6342.56 79.69 5.00   3.00 2824.94
   13:51:46.731.18-Jan-2020 3754.01 6342.56 79.69 5.00   3.20 2824.94
   13:51:46.931.18-Jan-2020 3754.01 6335.37 79.69 5.00   3.40 2824.94
   13:51:47.131.18-Jan-2020 3754.01 6339.43 79.69 5.00   3.60 2824.94
   13:51:47.331.18-Jan-2020 3754.01 6343.51 79.69 5.00   3.80 2824.94
   13:51:47.531.18-Jan-2020 3754.01 6339.09 79.69 5.00   4.00 2824.94
   13:51:47.731.18-Jan-2020 3754.01 6339.09 79.69 5.00   4.20 2824.94
   13:51:47.931.18-Jan-2020 3754.01 6336.51 79.69 5.00   4.40 2824.94
   13:51:48.131.18-Jan-2020 3754.01 6336.99 79.69 5.00   4.60 2824.94
   13:51:48.331.18-Jan-2020 3754.01 6336.50 79.69 5.00   4.80 2824.94
   13:51:48.532.18-Jan-2020 3754.01 6342.76 79.69 5.00   5.00 2824.94
   13:51:48.732.18-Jan-2020 3754.01 6342.76 79.69 5.00   5.20 2824.94
   13:51:48.932.18-Jan-2020 3754.01 6334.43 79.69 5.00   5.40 2824.94
   13:51:49.132.18-Jan-2020 3754.01 6335.80 79.69 5.00   5.60 2824.94
   13:51:49.332.18-Jan-2020 3754.01 6336.30 79.69 5.00   5.80 2824.94
   13:51:49.532.18-Jan-2020 3754.01 6339.44 79.69 5.00   6.00 2824.94
   13:51:49.732.18-Jan-2020 3754.01 6339.44 79.69 5.00   6.20 2824.94
   13:51:49.932.18-Jan-2020 3754.01 6339.77 79.69 5.00   6.40 2824.94
   13:51:50.132.18-Jan-2020 3754.01 6339.44 79.69 5.00   6.60 2824.94
   13:51:50.332.18-Jan-2020 3754.01 6348.33 79.69 5.00   6.80 2824.94
   13:51:50.532.18-Jan-2020 3754.01 6342.79 79.69 5.00   7.00 2824.94
   13:51:50.732.18-Jan-2020 3754.01 6342.79 79.69 5.00   7.20 2824.94
   13:51:50.932.18-Jan-2020 3754.01 6341.95 79.69 5.00   7.40 2824.94
   13:51:51.132.18-Jan-2020 3754.01 6340.26 79.69 5.00   7.60 2824.94
   13:51:51.332.18-Jan-2020 3754.01 6351.70 79.69 5.00   7.80 2824.94
   13:51:51.532.18-Jan-2020 3754.01 6342.03 79.69 5.00   8.00 2824.94
   13:51:51.733.18-Jan-2020 3754.01 6342.03 79.69 5.00   8.20 2824.94
   13:51:51.933.18-Jan-2020 3754.01 6343.02 79.69 5.00   8.40 2824.94
   13:51:52.133.18-Jan-2020 3754.01 6340.56 79.69 5.00   8.60 2824.94
   13:51:52.333.18-Jan-2020 3754.01 6338.21 79.69 5.00   8.80 2824.94
   13:51:52.533.18-Jan-2020 3754.01 6341.42 79.69 5.00   9.00 2824.94
   13:51:52.733.18-Jan-2020 3754.01 6341.42 79.69 5.00   9.20 2824.94
   13:51:52.933.18-Jan-2020 3754.01 6342.65 79.68 5.00   9.40 2824.94
   13:51:53.133.18-Jan-2020 3754.01 6341.97 79.68 5.00   9.60 2824.94
   13:51:53.333.18-Jan-2020 3754.01 6344.97 79.68 5.00   9.80 2824.94
   13:51:53.533.18-Jan-2020 3754.01 6344.03 79.68 5.00  10.00 2824.94
   13:51:53.733.18-Jan-2020 3754.01 6344.03 79.68 5.00  10.20 2824.94
   13:51:53.933.18-Jan-2020 3754.01 6345.06 79.68 5.00  10.40 2824.94
   13:51:54.133.18-Jan-2020 3754.01 6345.27 79.68 5.00  10.60 2824.94
   13:51:54.333.18-Jan-2020 3754.01 6347.64 79.68 5.00  10.80 2824.94
   13:51:54.533.18-Jan-2020 3754.01 6346.92 79.68 5.00  11.00 2824.94
   13:51:54.734.18-Jan-2020 3754.01 6346.92 79.68 5.00  11.20 2824.94
   13:51:54.934.18-Jan-2020 3754.01 6345.37 79.68 5.00  11.40 2824.94
   13:51:55.134.18-Jan-2020 3754.01 6345.36 79.68 5.00  11.60 2824.94
   13:51:55.334.18-Jan-2020 3754.01 6346.54 79.68 5.00  11.80 2824.94
   13:51:55.534.18-Jan-2020 3754.01 6343.91 79.68 5.00  12.00 2824.94
   13:51:55.734.18-Jan-2020 3754.01 6343.91 79.68 5.00  12.20 2824.94
   13:51:55.934.18-Jan-2020 3754.01 6345.87 79.68 5.00  12.40 2824.94
   13:51:56.134.18-Jan-2020 3754.01 6346.89 79.68 5.00  12.60 2824.94
   13:51:56.334.18-Jan-2020 3754.01 6346.46 79.68 5.00  12.80 2824.94
   13:51:56.534.18-Jan-2020 3754.01 6347.61 79.68 5.00  13.00 2824.94
   13:51:56.734.18-Jan-2020 3754.01 6347.61 79.68 5.00  13.20 2824.94
   13:51:56.934.18-Jan-2020 3754.01 6348.55 79.68 5.00  13.40 2824.94
   13:51:57.134.18-Jan-2020 3754.01 6348.29 79.68 5.00  13.60 2824.94
   13:51:57.334.18-Jan-2020 3754.01 6348.23 79.68 5.00  13.80 2824.94
   13:51:57.534.18-Jan-2020 3754.01 6349.93 79.68 5.00  14.00 2824.94
   13:51:57.734.18-Jan-2020 3754.01 6349.93 79.68 5.00  14.20 2824.94
   13:51:57.935.18-Jan-2020 3754.01 6357.70 79.68 5.00  14.40 2824.94
   13:51:58.135.18-Jan-2020 3754.01 6352.93 79.68 5.00  14.60 2824.94
   13:51:58.335.18-Jan-2020 3754.01 6349.75 79.68 5.00  14.80 2824.94
   13:51:58.535.18-Jan-2020 3754.01 6350.02 79.68 5.00  15.00 2824.94
   13:51:58.735.18-Jan-2020 3754.01 6350.02 79.68 5.00  15.20 2824.94
   13:51:58.935.18-Jan-2020 3754.01 6357.63 79.68 5.00  15.40 2824.94
   13:51:59.135.18-Jan-2020 3754.01 6351.72 79.68 5.00  15.61 2824.94
   13:51:59.335.18-Jan-2020 3754.01 6349.13 79.68 5.00  15.81 2824.94
   13:51:59.535.18-Jan-2020 3754.01 6352.26 79.68 5.00  16.01 2824.94
   13:51:59.735.18-Jan-2020 3754.01 6352.26 79.68 5.00  16.21 2824.94
   13:51:59.935.18-Jan-2020 3754.01 6356.90 79.68 5.00  16.41 2824.94
   13:52:00.135.18-Jan-2020 3754.01 6354.84 79.68 5.00  16.61 2824.94
   13:52:00.335.18-Jan-2020 3754.01 6352.24 79.68 5.00  16.81 2824.94
   13:52:00.535.18-Jan-2020 3754.01 6353.37 79.68 5.00  17.01 2824.94
   13:52:00.735.18-Jan-2020 3754.01 6353.37 79.68 5.00  17.21 2824.94
   13:52:00.936.18-Jan-2020 3754.01 6362.76 79.68 5.00  17.41 2824.94
   13:52:01.136.18-Jan-2020 3754.01 6358.62 79.68 5.00  17.61 2824.94
   13:52:01.336.18-Jan-2020 3754.01 6356.32 79.68 5.00  17.81 2824.94
   13:52:01.536.18-Jan-2020 3754.01 6354.77 79.68 5.00  18.01 2824.94
   13:52:01.736.18-Jan-2020 3754.01 6354.77 79.68 5.00  18.21 2824.94
   13:52:01.936.18-Jan-2020 3754.01 6358.75 79.68 5.00  18.41 2824.94
   13:52:02.136.18-Jan-2020 3754.01 6357.12 79.67 5.00  18.61 2824.94
   13:52:02.336.18-Jan-2020 3754.01 6362.35 79.67 5.00  18.81 2824.94
   13:52:02.536.18-Jan-2020 3754.01 6358.34 79.67 5.00  19.01 2824.94
   13:52:02.736.18-Jan-2020 3754.01 6358.34 79.67 5.00  19.21 2824.94
   13:52:02.936.18-Jan-2020 3754.01 6356.74 79.67 5.00  19.41 2824.94
   13:52:03.136.18-Jan-2020 3754.01 6356.91 79.67 5.00  19.61 2824.94
   13:52:03.336.18-Jan-2020 3754.01 6355.65 79.67 5.00  19.81 2824.94
   13:52:03.536.18-Jan-2020 3754.01 6355.70 79.67 5.00  20.01 2824.94
   13:52:03.736.18-Jan-2020 3754.01 6355.70 79.67 5.00  20.21 2824.94
   13:52:03.936.18-Jan-2020 3754.01 6359.74 79.67 5.00  20.41 2824.94
   13:52:04.137.18-Jan-2020 3754.01 6358.39 79.67 5.00  20.61 2824.94
   13:52:04.337.18-Jan-2020 3754.01 6359.32 79.67 5.00  20.81 2824.94
   13:52:04.537.18-Jan-2020 3754.01 6360.79 79.67 5.00  21.01 2824.94
   13:52:04.737.18-Jan-2020 3754.01 6360.79 79.67 5.00  21.21 2824.94
   13:52:04.937.18-Jan-2020 3754.01 6359.31 79.67 5.00  21.41 2824.94
   13:52:05.137.18-Jan-2020 3754.01 6360.39 79.67 5.00  21.61 2824.94
   13:52:05.337.18-Jan-2020 3754.01 6363.66 79.67 5.00  21.81 2824.94
   13:52:05.537.18-Jan-2020 3754.01 6362.88 79.67 5.00  22.01 2824.94
   13:52:05.737.18-Jan-2020 3754.01 6362.88 79.67 5.00  22.21 2824.94
   13:52:05.937.18-Jan-2020 3754.01 6370.52 79.67 5.00  22.41 2824.94
   13:52:06.137.18-Jan-2020 3754.01 6360.62 79.67 5.00  22.61 2824.94
   13:52:06.337.18-Jan-2020 3754.01 6359.22 79.67 5.00  22.81 2824.94
