~Version Information
 VERS.                  2.0:   CWLS log ASCII Standard -VERSION 2.0
 WRAP.                   NO:   One line per depth step
~Well Information Block
#MNEM.UNIT     VALUE/NAME     DESCRIPTION
#---------     -----------    ---------------------------
 STRT.S             09:16:51 18-Jan-20: START TIME 09:16:51 18-Jan-20
 STOP.S             09:25:06 18-Jan-20: STOP TIME  09:25:06 18-Jan-20
 STEP.S                   0.00: STEP TIME
 NULL.                 -999.25: NULL VALUE
 DFWT.                        :  DIST FWL TEXT
 DFST.                        :  DIST FSL TEXT
 DMF .             Drill Floor:  DRILL MEAS FROM
 STIM.      09.30.00 26-Dec-19:  START TIME
 DATE.      08.00.00 20-Jan-20:  END TIME
 SPUD.               23-Nov-19:  SPUD DATE
 NREF.                    Grid:  NORTH REFERENCE
 HPTY.       Minimum Curvature:  HOLE POS TYPE
 DMOD.             Drill Model:  DRILL MOD DESC
 SVYD.                  Survey:  SURVEY DESC
 ILTD.               Lithology:  INTERP LTH DESC
 FTOP.          Formation Tops:  FORM TOPS DESC
 SON .        AZ-XX-0906192647:  JOB NUMBER
 WTYP.                Deviated:  WELL TYPE
 COMP.     BP Exploration (Caspian Sea) Ltd:  COMPANY
 BASE.              Azerbaijan:  LOGGING EQUIPMENT BASE LOCATION
 REGN.                 Eurasia:  REGION
 FLD .                     ACG:  FIELD NAME
 SRVC.              KCA Deutag:  CONTRACTOR
 MWDS.                    Baku:  MWD SHOP
 WELL.     A10 (Slot 20) - SCP:  WELL NAME
 JOBN.        AZ-XX-0906192647:  JOB TICKET NUMB
 RIG .                 Chirag1:  RIG NAME
 DCON.     Halliburton Sperry Drilling:  DIRECTNL CONTR
 UNIT.                     N/A:  LOGGING EQUIPMENT ID
 PDAT.          Mean Sea Level:  PERMANENT DATUM
 MDS .        Operator Entered:  MAG DATA SOURCE
 CTRY.              Azerbaijan:  COUNTRY NAME
 UWI .            /AZE00000090:  UNIQUE WELL IDENTIFIER
 API .            /AZE00000090:  API NUMBER
 CNTY.                        :  COUNTY
 PROV.                        :  PROVINCE
 STAT.                        :  STATE
 LOC .                        :  LOCATION
 LMF .             Drill Floor:  LOG MEASURED FROM
 TVDS.m                  36.60:  TVDSS CORRECTN
 LATI.deg                40.08:  LATITUDE
 LONG.deg                51.24:  LONGITUDE
 WHNS.m                  -7.94:  WELL HEAD N/S
 WHEW.m                   1.56:  WELL HEAD E/W
 UTMX.m              520429.26:  UTM X
 UTMY.m             4438973.87:  UTM Y
 DFWL.m                   0.00:  DISTANCE FWL
 DFSL.m                   0.00:  DISTANCE FSL
 SDEP.m                1455.00:  START DEPTH
 TDD .m                3878.01:  TOTAL DEPTH (DRILLER)
 VSDR.deg               112.75:  VERT SEC DIRECT
 GVFD.g                   1.00:  GRAVITY FIELD
 MFLD.nT              50256.00:  MAGNETIC FIELD
 MDIP.deg                59.52:  MAGNETIC DIP
 MDEC.deg                 6.43:  MAGNETIC DECL
 GRDC.deg                 0.16:  GRID CORRECTION
 AZTC.deg                 6.27:  AZM TOTAL CORR
 EPD .m                   0.00:  ELEVATION
 EGL .m                   0.00:  GROUND ELEVATION
 WDMS.m                 121.00:  WD ELEV
 APD .m                  36.60:  DEPTH ABOVE PD
 AGAP.m                  36.60:  AIR GAP
 VSEW.m                   1.56:  VERT SEC E/W
 VSNS.m                  -7.94:  VERT SEC N/S
 DEP .m                1140.01:  DEPTH
 EKB .m                  36.60:  KB ELEVATION
 EDF .m                  36.60:  DF ELEVATION
 TDL .m                1293.00:  TOTAL DEPTH (LOGGER)
 VSC .                       0:  VS TO CLOSURE
 MAGU.                 1849164:  MAGUTM CHECKSUM
~Parameter Information Block
#MNEM.UNIT       Value        Description
#---------     -----------    ---------------------------
 AV  .mps                 2.40:  Ann Velocity 
 AVMX.mps                 2.55:  Max Ann Veloc 
 AZIF.deg               134.35:  Azm, Final 
 BHAT.        Rotary Steerable:  BHA Type 
 BREV.rev               847.00:  Rev Bit Total 
 BROT.°/30m              -2.51:  Build Rotating 
 BS  .in                  8.50:  Bit Size 
 BSZ .in                  8.50:  Bit Size 
 BTPL.psig              700.00:  Bit Press Loss 
 CABU.                     Yes:  Customer Abuse 
 CGEO.          Ilgar Gurbanov:  Customer Geo 
 COMM.                     Áo:  Run Comments 1 
 TCS .hr                140.40:  Time Ciculation Ended 
 CV  .mps                 2.27:  Crit Velocity 
 CVMX.mps                 2.45:  Max Crit Veloc 
 DD1 .         Intigam Rahimov:  Direct Drillr 1 
 DD2 .         Rasim Ibrahimov:  Direct Drillr 2 
 DDSV.                 iCruise:  DD Service 
 DEFF.%                  99.00:  % Det Eff 
 DLRX.°/30m               3.28:  Dogleg Rot Max 
 DLSO.°/30m               0.00:  Dogleg Oriented 
 DLSX.°/30m               0.00:  Dogleg Str Max 
 DRET.      23.30.00 18-Jan-20:  Drill End Time 
 DRST.      01.45.00 11-Jan-20:  Drill Start Tim 
 DTIM.hr                 94.00:  Time Drilling 
 EDEP.m                3878.01:  End Depth 
 ENG1.       Dauren Baktybayev:  Engineer 1 
 ENG2.      Natik Hasanaghayev:  Engineer 2 
 ENG3.          Rustam Safarov:  Engineer 3 
 ETIM.      08.00.00 20-Jan-20:  End Time 
 FLOI.gpm               532.00:  Flow In 
 FLON.gpm               500.00:  Flow In Min 
 FLOS.cptm                0.00:  Fluid Loss 
 FLOX.gpm               540.00:  Flow In Max 
 FTRO.       Formation Presure:  FTWD Run Obj 
 HPRE.                     Yes:  High Pressure 
 HTEM.                      No:  High Temp 
 HYDO.m                   1.80:  Hydro Offset 
 IFIN.deg                39.86:  Inc, Final 
 IMAX.deg                59.73:  Inc Max 
 IMIN.deg                39.25:  Inc Min 
 IMND.m                3816.77:  Inc Min Depth 
 IMXD.m                2596.33:  Inc Max Depth 
 JARR.                      No:  Jarring 
 LETM.      23.30.00 18-Jan-20:  Log End Time 
 LOST.hr                     0:  Lost Rig Time 
 LSTM.      01.45.00 11-Jan-20:  Log Start Time 
 MDCL.ppm             41500.00:  Mud Chlorides 
 MDES.     Inversion Oil/Synthetic:  Mud Desc 
 DFD .sg                  1.48:  Mud Density 
 MDMN.sg                  1.48:  Dens Mud Min 
 MDMX.sg                  1.48:  Dens Mud Max 
 MOIL.                      54:  Run Mud Oil % 
 MOWR.                   72:28:  Run Mud OWR 
 MSND.                       0:  Run Mud Sand % 
 MSOL.                      23:  Run Mud Solids% 
 DFV .spqt               86.00:  Mud Viscosity 
 MWOD.in                  6.75:  MWD Tool OD 
 MWSI.                      No:  Serv Intrp, MWD 
 OTIM.hr                223.40:  Time Operating 
 PCON.           Look Like New:  Pad Condition 
 PMAX.psia            32446.79:  Press Op, Max 
 PV  .cP                 49.00:  Mud PV 
 RUN .                     200:  Run Number 
 ROPA.m/hr               12.48:  ROP Avg 
 ROPN.m/hr                8.00:  ROP Min 
 ROPX.m/hr               27.00:  ROP Max 
 RPMA.rpm               121.00:  RPM Surface Avg 
 RPMN.rpm                60.00:  RPM Surface Min 
 RPMX.rpm               140.00:  RPM Surface Max 
 RRUN.                    L202:  Rig Run Number 
 RTIM.hr                  7.25:  Time Reaming 
 SAZI.deg               123.49:  Azm, Start 
 SDEP.m                2585.01:  Start Depth 
 SIDD.                      No:  Serv Intrp, DD 
 SINC.deg                59.93:  Inc, Start 
 SPPA.psig             3539.00:  SPP Avg 
 SPPN.psig             3050.00:  SPP Min 
 SPPX.psig             3950.00:  SPP Max 
 STIM.      19.00.00 10-Jan-20:  Start Time 
 SVCS.                 DD, MWD:  Services 
 SVER.                    9.20:  Sperry Version 
 TDAT.m                1293.00:  Tot Depth Attmp 
 TDDF.                      No:  Trip for DD 
 TDLG.m                1293.00:  Tot Depth Loggd 
 TFF .                      No:  Trip for Fail 
 TQAA.f-kp               16.00:  Torque Abs Avg 
 TQAN.f-kp               11.00:  Torque Abs Min 
 TQAX.f-kp               18.00:  Torque Abs Max 
 TRRT.°/30m               1.25:  Turn Rotating 
 MRT .                  EWR-M5:  Maximum Recorded Temperature 
 TTMX.degC               84.00:  Max Tool Temp 
 VS01.          AZ90514619R5C6:  Virtual Str1 SN 
 VS02.        AZ90552592N2L2C6:  Virtual Str2 SN 
 VS03.        AZ90571337Z1W1C6:  Virtual Str3 SN 
 VS04.         AZ90513690K23C6:  Virtual Str4 SN 
 VS05.           AZ90594857F11:  Virtual Str5 SN 
 VS06.                13102166:  Virtual Str6 SN 
 WBMN.klb                 7.00:  WOB Min 
 WITN.            Peter Wilson:  Customer Rep 
 WOBA.klb                 9.95:  WOB Avg 
 WOBX.klb                10.00:  WOB Max 
 YP  .lhf2               36.00:  Yield Point 
~Curve Information Block
#MNEM.UNIT                 API CODE     Curve Description
#---------               -----------    ---------------------------
 TIME.HHMMSS            00 000 000 000:  GT Time & Date
 GTDEPTH.m              00 000 000 000:  GT Depth
 GTPQH.psia             00 000 000 000:  GT HR Quartz Pressure
 GTTQ.degC              00 000 000 000:  GT Quartz Temperature
 GTTN.NONE              00 000 000 000:  GT Test Number
 GTET.sec               00 000 000 000:  GT Elapsed Test Time
 GTTVD.m                00 000 000 000:  GT True Vertical Depth
#Other Information
#
#WARRANTY: Halliburton will use its best efforts to furnish customers with 
#accurate information and interpretations that are part of, and incident to, the services 
#provided.  However, Halliburton cannot and does not warrant the accuracy 
#or correctness of such information and interpretations.  Under no circumstances should any 
#such information or interpretation be relied upon as the sole basis for any drilling, 
#completion, production, or financial decision or any procedure involving any risk to the 
#safety of any drilling venture, drilling rig or its crew or any other third party.  The 
#Customer has full responsibility for all drilling, completion and production operation.  
#Halliburton makes no representations or warranties, either expressed or 
#implied, including, but not limited to, the implied warranties of merchantability or fitness 
#for a particular purpose, with respect to the services rendered.  In no event will 
#Halliburton be liable for failure to obtain any particular results or for 
#any damages, including, but not limited to, indirect, special or consequential damages, 
#resulting from the use of any information or interpretation provided by Halliburton.
#
~A           TIME           GTDEPTH  GTPQH  GTTQ  GTTN  GTET   GTTVD  
# ...
   09:21:50.850.18-Jan-2020 3746.01 3686.37 81.13 3.00 299.05 2818.83
   09:21:51.050.18-Jan-2020 3746.01 3686.37 81.13 3.00 299.25 2818.83
   09:21:51.250.18-Jan-2020 3746.01 3686.23 81.13 3.00 299.45 2818.83
   09:21:51.450.18-Jan-2020 3746.01 3686.26 81.13 3.00 299.65 2818.83
   09:21:51.650.18-Jan-2020 3746.01 3686.37 81.13 3.00 299.85 2818.83
   09:21:51.850.18-Jan-2020 3746.01 3686.38 81.13 3.00 300.05 2818.83
   09:21:52.050.18-Jan-2020 3746.01 3686.38 81.13 3.00 300.25 2818.83
   09:21:52.250.18-Jan-2020 3746.01 3686.31 81.13 3.00 300.45 2818.83
   09:21:52.450.18-Jan-2020 3746.01 3686.18 81.13 3.00 300.65 2818.83
   09:21:52.650.18-Jan-2020 3746.01 3686.35 81.13 3.00 300.85 2818.83
   09:21:52.850.18-Jan-2020 3746.01 3686.28 81.13 3.00 301.05 2818.83
   09:21:53.050.18-Jan-2020 3746.01 3686.28 81.13 3.00 301.25 2818.83
   09:21:53.250.18-Jan-2020 3746.01 3686.19 81.13 3.00 301.45 2818.83
   09:21:53.450.18-Jan-2020 3746.01 3686.47 81.13 3.00 301.65 2818.83
   09:21:53.650.18-Jan-2020 3746.01 3686.48 81.13 3.00 301.85 2818.83
   09:21:53.850.18-Jan-2020 3746.01 3686.08 81.13 3.00 302.05 2818.83
   09:21:54.050.18-Jan-2020 3746.01 3686.08 81.13 3.00 302.25 2818.83
   09:21:54.250.18-Jan-2020 3746.01 3686.12 81.13 3.00 302.45 2818.83
   09:21:54.450.18-Jan-2020 3746.01 3686.28 81.13 3.00 302.65 2818.83
   09:21:54.650.18-Jan-2020 3746.01 3686.24 81.13 3.00 302.85 2818.83
   09:21:54.850.18-Jan-2020 3746.01 3686.38 81.13 3.00 303.05 2818.83
   09:21:55.050.18-Jan-2020 3746.01 3686.38 81.13 3.00 303.25 2818.83
   09:21:55.250.18-Jan-2020 3746.01 3686.33 81.13 3.00 303.45 2818.83
   09:21:55.450.18-Jan-2020 3746.01 3686.24 81.13 3.00 303.65 2818.83
   09:21:55.650.18-Jan-2020 3746.01 3686.25 81.13 3.00 303.85 2818.83
   09:21:55.850.18-Jan-2020 3746.01 3686.52 81.12 3.00 304.05 2818.83
   09:21:56.050.18-Jan-2020 3746.01 3686.52 81.12 3.00 304.25 2818.83
   09:21:56.250.18-Jan-2020 3746.01 3686.18 81.12 3.00 304.45 2818.83
   09:21:56.451.18-Jan-2020 3746.01 3686.21 81.12 3.00 304.65 2818.83
   09:21:56.651.18-Jan-2020 3746.01 3686.48 81.12 3.00 304.85 2818.83
   09:21:56.851.18-Jan-2020 3746.01 3686.22 81.12 3.00 305.05 2818.83
   09:21:57.051.18-Jan-2020 3746.01 3686.22 81.12 3.00 305.25 2818.83
   09:21:57.251.18-Jan-2020 3746.01 3686.36 81.12 3.00 305.45 2818.83
   09:21:57.451.18-Jan-2020 3746.01 3686.35 81.12 3.00 305.65 2818.83
   09:21:57.651.18-Jan-2020 3746.01 3686.13 81.12 3.00 305.85 2818.83
   09:21:57.851.18-Jan-2020 3746.01 3686.37 81.12 3.00 306.05 2818.83
   09:21:58.051.18-Jan-2020 3746.01 3686.37 81.12 3.00 306.25 2818.83
   09:21:58.251.18-Jan-2020 3746.01 3686.52 81.12 3.00 306.45 2818.83
   09:21:58.451.18-Jan-2020 3746.01 3686.05 81.12 3.00 306.65 2818.83
   09:21:58.651.18-Jan-2020 3746.01 3686.48 81.12 3.00 306.85 2818.83
   09:21:58.851.18-Jan-2020 3746.01 3686.42 81.12 3.00 307.05 2818.83
   09:21:59.051.18-Jan-2020 3746.01 3686.42 81.12 3.00 307.25 2818.83
   09:21:59.251.18-Jan-2020 3746.01 3686.06 81.12 3.00 307.45 2818.83
   09:21:59.451.18-Jan-2020 3746.01 3686.42 81.12 3.00 307.65 2818.83
   09:21:59.651.18-Jan-2020 3746.01 3686.20 81.12 3.00 307.85 2818.83
   09:21:59.851.18-Jan-2020 3746.01 3686.22 81.12 3.00 308.05 2818.83
   09:22:00.051.18-Jan-2020 3746.01 3686.22 81.12 3.00 308.25 2818.83
   09:22:00.251.18-Jan-2020 3746.01 3686.12 81.12 3.00 308.45 2818.83
   09:22:00.451.18-Jan-2020 3746.01 3686.39 81.12 3.00 308.65 2818.83
   09:22:00.651.18-Jan-2020 3746.01 3686.31 81.12 3.00 308.85 2818.83
   09:22:00.851.18-Jan-2020 3746.01 3686.35 81.12 3.00 309.05 2818.83
   09:22:01.051.18-Jan-2020 3746.01 3686.35 81.12 3.00 309.25 2818.83
   09:22:01.251.18-Jan-2020 3746.01 3686.21 81.12 3.00 309.45 2818.83
   09:22:01.451.18-Jan-2020 3746.01 3686.27 81.11 3.00 309.65 2818.83
   09:22:01.651.18-Jan-2020 3746.01 3686.29 81.11 3.00 309.85 2818.83
   09:22:01.851.18-Jan-2020 3746.01 3686.38 81.11 3.00 310.05 2818.83
   09:22:02.051.18-Jan-2020 3746.01 3686.38 81.11 3.00 310.25 2818.83
   09:22:02.252.18-Jan-2020 3746.01 3686.33 81.11 3.00 310.45 2818.83
   09:22:02.452.18-Jan-2020 3746.01 3686.30 81.11 3.00 310.65 2818.83
   09:22:02.652.18-Jan-2020 3746.01 3686.37 81.11 3.00 310.85 2818.83
   09:22:02.852.18-Jan-2020 3746.01 3686.17 81.11 3.00 311.05 2818.83
   09:22:03.052.18-Jan-2020 3746.01 3686.17 81.11 3.00 311.25 2818.83
   09:22:03.252.18-Jan-2020 3746.01 3686.30 81.11 3.00 311.45 2818.83
   09:22:03.452.18-Jan-2020 3746.01 3685.85 81.11 3.00 311.65 2818.83
   09:22:03.652.18-Jan-2020 3746.01 3646.95 81.11 3.00 311.85 2818.83
   09:22:03.852.18-Jan-2020 3746.01 3633.19 81.11 3.00 312.05 2818.83
   09:22:04.052.18-Jan-2020 3746.01 3633.19 81.11 3.00 312.25 2818.83
   09:22:04.252.18-Jan-2020 3746.01 3620.05 81.11 3.00 312.45 2818.83
   09:22:04.452.18-Jan-2020 3746.01 3622.55 81.11 3.00 312.65 2818.83
   09:22:04.652.18-Jan-2020 3746.01 3624.50 81.11 3.00 312.85 2818.83
   09:22:04.852.18-Jan-2020 3746.01 3626.40 81.11 3.00 313.05 2818.83
   09:22:05.052.18-Jan-2020 3746.01 3626.40 81.11 3.00 313.25 2818.83
   09:22:05.252.18-Jan-2020 3746.01 3624.13 81.11 3.00 313.45 2818.83
   09:22:05.452.18-Jan-2020 3746.01 3625.49 81.11 3.00 313.65 2818.83
   09:22:05.652.18-Jan-2020 3746.01 3624.28 81.11 3.00 313.85 2818.83
   09:22:05.852.18-Jan-2020 3746.01 3623.59 81.11 3.00 314.05 2818.83
   09:22:06.052.18-Jan-2020 3746.01 3623.59 81.11 3.00 314.25 2818.83
   09:22:06.252.18-Jan-2020 3746.01 3625.08 81.11 3.00 314.45 2818.83
   09:22:06.452.18-Jan-2020 3746.01 3625.48 81.11 3.00 314.65 2818.83
   09:22:06.652.18-Jan-2020 3746.01 3626.32 81.11 3.00 314.85 2818.83
   09:22:06.852.18-Jan-2020 3746.01 3622.70 81.10 3.00 315.05 2818.83
   09:22:07.052.18-Jan-2020 3746.01 3622.70 81.10 3.00 315.25 2818.83
   09:22:07.252.18-Jan-2020 3746.01 3625.44 81.10 3.00 315.45 2818.83
   09:22:07.452.18-Jan-2020 3746.01 3623.24 81.10 3.00 315.65 2818.83
   09:22:07.652.18-Jan-2020 3746.01 3625.22 81.10 3.00 315.85 2818.83
   09:22:07.852.18-Jan-2020 3746.01 3624.45 81.10 3.00 316.05 2818.83
   09:22:08.052.18-Jan-2020 3746.01 3624.45 81.10 3.00 316.25 2818.83
   09:22:08.253.18-Jan-2020 3746.01 3625.79 81.10 3.00 316.45 2818.83
   09:22:08.453.18-Jan-2020 3746.01 3624.52 81.10 3.00 316.65 2818.83
   09:22:08.653.18-Jan-2020 3746.01 3625.46 81.10 3.00 316.85 2818.83
   09:22:08.853.18-Jan-2020 3746.01 3626.02 81.10 3.00 317.05 2818.83
   09:22:09.053.18-Jan-2020 3746.01 3626.02 81.10 3.00 317.25 2818.83
   09:22:09.253.18-Jan-2020 3746.01 3623.25 81.10 3.00 317.45 2818.83
   09:22:09.453.18-Jan-2020 3746.01 3625.51 81.10 3.00 317.65 2818.83
   09:22:09.653.18-Jan-2020 3746.01 3625.34 81.10 3.00 317.85 2818.83
   09:22:09.853.18-Jan-2020 3746.01 3625.38 81.10 3.00 318.05 2818.83
   09:22:10.053.18-Jan-2020 3746.01 3625.38 81.10 3.00 318.25 2818.83
   09:22:10.253.18-Jan-2020 3746.01 3625.39 81.10 3.00 318.45 2818.83
   09:22:10.453.18-Jan-2020 3746.01 3626.85 81.10 3.00 318.65 2818.83
   09:22:10.653.18-Jan-2020 3746.01 3626.77 81.10 3.00 318.85 2818.83
   09:22:10.853.18-Jan-2020 3746.01 3655.92 81.10 3.00 319.05 2818.83
   09:22:11.053.18-Jan-2020 3746.01 3655.92 81.10 3.00 319.25 2818.83
   09:22:11.253.18-Jan-2020 3746.01 3628.37 81.10 3.00 319.45 2818.83
   09:22:11.453.18-Jan-2020 3746.01 3627.10 81.10 3.00 319.65 2818.83
   09:22:11.653.18-Jan-2020 3746.01 3627.18 81.10 3.00 319.85 2818.83
   09:22:11.853.18-Jan-2020 3746.01 3626.72 81.10 3.00 320.05 2818.83
   09:22:12.053.18-Jan-2020 3746.01 3626.72 81.10 3.00 320.25 2818.83
   09:22:12.253.18-Jan-2020 3746.01 3626.71 81.09 3.00 320.45 2818.83
   09:22:12.453.18-Jan-2020 3746.01 3626.36 81.09 3.00 320.65 2818.83
   09:22:12.653.18-Jan-2020 3746.01 3626.27 81.09 3.00 320.85 2818.83
   09:22:12.853.18-Jan-2020 3746.01 3627.63 81.09 3.00 321.05 2818.83
   09:22:13.053.18-Jan-2020 3746.01 3627.63 81.09 3.00 321.25 2818.83
   09:22:13.253.18-Jan-2020 3746.01 3630.18 81.09 3.00 321.45 2818.83
   09:22:13.453.18-Jan-2020 3746.01 3630.62 81.09 3.00 321.65 2818.83
   09:22:13.653.18-Jan-2020 3746.01 3673.31 81.09 3.00 321.85 2818.83
