~Version Information
 VERS.                  2.0:   CWLS log ASCII Standard -VERSION 2.0
 WRAP.                   NO:   One line per depth step
~Well Information Block
#MNEM.UNIT     VALUE/NAME     DESCRIPTION
#---------     -----------    ---------------------------
 STRT.S             17:36:42 18-Jan-20: START TIME 17:36:42 18-Jan-20
 STOP.S             17:44:57 18-Jan-20: STOP TIME  17:44:57 18-Jan-20
 STEP.S                   0.00: STEP TIME
 NULL.                 -999.25: NULL VALUE
 DFWT.                        :  DIST FWL TEXT
 DFST.                        :  DIST FSL TEXT
 DMF .             Drill Floor:  DRILL MEAS FROM
 STIM.      09.30.00 26-Dec-19:  START TIME
 DATE.      08.00.00 20-Jan-20:  END TIME
 SPUD.               23-Nov-19:  SPUD DATE
 NREF.                    Grid:  NORTH REFERENCE
 HPTY.       Minimum Curvature:  HOLE POS TYPE
 DMOD.             Drill Model:  DRILL MOD DESC
 SVYD.                  Survey:  SURVEY DESC
 ILTD.               Lithology:  INTERP LTH DESC
 FTOP.          Formation Tops:  FORM TOPS DESC
 SON .        AZ-XX-0906192647:  JOB NUMBER
 WTYP.                Deviated:  WELL TYPE
 COMP.     BP Exploration (Caspian Sea) Ltd:  COMPANY
 BASE.              Azerbaijan:  LOGGING EQUIPMENT BASE LOCATION
 REGN.                 Eurasia:  REGION
 FLD .                     ACG:  FIELD NAME
 SRVC.              KCA Deutag:  CONTRACTOR
 MWDS.                    Baku:  MWD SHOP
 WELL.     A10 (Slot 20) - SCP:  WELL NAME
 JOBN.        AZ-XX-0906192647:  JOB TICKET NUMB
 RIG .                 Chirag1:  RIG NAME
 DCON.     Halliburton Sperry Drilling:  DIRECTNL CONTR
 UNIT.                     N/A:  LOGGING EQUIPMENT ID
 PDAT.          Mean Sea Level:  PERMANENT DATUM
 MDS .        Operator Entered:  MAG DATA SOURCE
 CTRY.              Azerbaijan:  COUNTRY NAME
 UWI .            /AZE00000090:  UNIQUE WELL IDENTIFIER
 API .            /AZE00000090:  API NUMBER
 CNTY.                        :  COUNTY
 PROV.                        :  PROVINCE
 STAT.                        :  STATE
 LOC .                        :  LOCATION
 LMF .             Drill Floor:  LOG MEASURED FROM
 TVDS.m                  36.60:  TVDSS CORRECTN
 LATI.deg                40.08:  LATITUDE
 LONG.deg                51.24:  LONGITUDE
 WHNS.m                  -7.94:  WELL HEAD N/S
 WHEW.m                   1.56:  WELL HEAD E/W
 UTMX.m              520429.26:  UTM X
 UTMY.m             4438973.87:  UTM Y
 DFWL.m                   0.00:  DISTANCE FWL
 DFSL.m                   0.00:  DISTANCE FSL
 SDEP.m                1455.00:  START DEPTH
 TDD .m                3878.01:  TOTAL DEPTH (DRILLER)
 VSDR.deg               112.75:  VERT SEC DIRECT
 GVFD.g                   1.00:  GRAVITY FIELD
 MFLD.nT              50256.00:  MAGNETIC FIELD
 MDIP.deg                59.52:  MAGNETIC DIP
 MDEC.deg                 6.43:  MAGNETIC DECL
 GRDC.deg                 0.16:  GRID CORRECTION
 AZTC.deg                 6.27:  AZM TOTAL CORR
 EPD .m                   0.00:  ELEVATION
 EGL .m                   0.00:  GROUND ELEVATION
 WDMS.m                 121.00:  WD ELEV
 APD .m                  36.60:  DEPTH ABOVE PD
 AGAP.m                  36.60:  AIR GAP
 VSEW.m                   1.56:  VERT SEC E/W
 VSNS.m                  -7.94:  VERT SEC N/S
 DEP .m                1140.01:  DEPTH
 EKB .m                  36.60:  KB ELEVATION
 EDF .m                  36.60:  DF ELEVATION
 TDL .m                1293.00:  TOTAL DEPTH (LOGGER)
 VSC .                       0:  VS TO CLOSURE
 MAGU.                 1849164:  MAGUTM CHECKSUM
~Parameter Information Block
#MNEM.UNIT       Value        Description
#---------     -----------    ---------------------------
 AV  .mps                 2.40:  Ann Velocity 
 AVMX.mps                 2.55:  Max Ann Veloc 
 AZIF.deg               134.35:  Azm, Final 
 BHAT.        Rotary Steerable:  BHA Type 
 BREV.rev               847.00:  Rev Bit Total 
 BROT.°/30m              -2.51:  Build Rotating 
 BS  .in                  8.50:  Bit Size 
 BSZ .in                  8.50:  Bit Size 
 BTPL.psig              700.00:  Bit Press Loss 
 CABU.                     Yes:  Customer Abuse 
 CGEO.          Ilgar Gurbanov:  Customer Geo 
 COMM.                     Ä_:  Run Comments 1 
 TCS .hr                140.40:  Time Ciculation Ended 
 CV  .mps                 2.27:  Crit Velocity 
 CVMX.mps                 2.45:  Max Crit Veloc 
 DD1 .         Intigam Rahimov:  Direct Drillr 1 
 DD2 .         Rasim Ibrahimov:  Direct Drillr 2 
 DDSV.                 iCruise:  DD Service 
 DEFF.%                  99.00:  % Det Eff 
 DLRX.°/30m               3.28:  Dogleg Rot Max 
 DLSO.°/30m               0.00:  Dogleg Oriented 
 DLSX.°/30m               0.00:  Dogleg Str Max 
 DRET.      23.30.00 18-Jan-20:  Drill End Time 
 DRST.      01.45.00 11-Jan-20:  Drill Start Tim 
 DTIM.hr                 94.00:  Time Drilling 
 EDEP.m                3878.01:  End Depth 
 ENG1.       Dauren Baktybayev:  Engineer 1 
 ENG2.      Natik Hasanaghayev:  Engineer 2 
 ENG3.          Rustam Safarov:  Engineer 3 
 ETIM.      08.00.00 20-Jan-20:  End Time 
 FLOI.gpm               532.00:  Flow In 
 FLON.gpm               500.00:  Flow In Min 
 FLOS.cptm                0.00:  Fluid Loss 
 FLOX.gpm               540.00:  Flow In Max 
 FTRO.       Formation Presure:  FTWD Run Obj 
 HPRE.                     Yes:  High Pressure 
 HTEM.                      No:  High Temp 
 HYDO.m                   1.80:  Hydro Offset 
 IFIN.deg                39.86:  Inc, Final 
 IMAX.deg                59.73:  Inc Max 
 IMIN.deg                39.25:  Inc Min 
 IMND.m                3816.77:  Inc Min Depth 
 IMXD.m                2596.33:  Inc Max Depth 
 JARR.                      No:  Jarring 
 LETM.      23.30.00 18-Jan-20:  Log End Time 
 LOST.hr                     0:  Lost Rig Time 
 LSTM.      01.45.00 11-Jan-20:  Log Start Time 
 MDCL.ppm             41500.00:  Mud Chlorides 
 MDES.     Inversion Oil/Synthetic:  Mud Desc 
 DFD .sg                  1.48:  Mud Density 
 MDMN.sg                  1.48:  Dens Mud Min 
 MDMX.sg                  1.48:  Dens Mud Max 
 MOIL.                      54:  Run Mud Oil % 
 MOWR.                   72:28:  Run Mud OWR 
 MSND.                       0:  Run Mud Sand % 
 MSOL.                      23:  Run Mud Solids% 
 DFV .spqt               86.00:  Mud Viscosity 
 MWOD.in                  6.75:  MWD Tool OD 
 MWSI.                      No:  Serv Intrp, MWD 
 OTIM.hr                223.40:  Time Operating 
 PCON.           Look Like New:  Pad Condition 
 PMAX.psia            32446.79:  Press Op, Max 
 PV  .cP                 49.00:  Mud PV 
 RUN .                     200:  Run Number 
 ROPA.m/hr               12.48:  ROP Avg 
 ROPN.m/hr                8.00:  ROP Min 
 ROPX.m/hr               27.00:  ROP Max 
 RPMA.rpm               121.00:  RPM Surface Avg 
 RPMN.rpm                60.00:  RPM Surface Min 
 RPMX.rpm               140.00:  RPM Surface Max 
 RRUN.                    L202:  Rig Run Number 
 RTIM.hr                  7.25:  Time Reaming 
 SAZI.deg               123.49:  Azm, Start 
 SDEP.m                2585.01:  Start Depth 
 SIDD.                      No:  Serv Intrp, DD 
 SINC.deg                59.93:  Inc, Start 
 SPPA.psig             3539.00:  SPP Avg 
 SPPN.psig             3050.00:  SPP Min 
 SPPX.psig             3950.00:  SPP Max 
 STIM.      19.00.00 10-Jan-20:  Start Time 
 SVCS.                 DD, MWD:  Services 
 SVER.                    9.20:  Sperry Version 
 TDAT.m                1293.00:  Tot Depth Attmp 
 TDDF.                      No:  Trip for DD 
 TDLG.m                1293.00:  Tot Depth Loggd 
 TFF .                      No:  Trip for Fail 
 TQAA.f-kp               16.00:  Torque Abs Avg 
 TQAN.f-kp               11.00:  Torque Abs Min 
 TQAX.f-kp               18.00:  Torque Abs Max 
 TRRT.°/30m               1.25:  Turn Rotating 
 MRT .                  EWR-M5:  Maximum Recorded Temperature 
 TTMX.degC               84.00:  Max Tool Temp 
 VS01.          AZ90514619R5C6:  Virtual Str1 SN 
 VS02.        AZ90552592N2L2C6:  Virtual Str2 SN 
 VS03.        AZ90571337Z1W1C6:  Virtual Str3 SN 
 VS04.         AZ90513690K23C6:  Virtual Str4 SN 
 VS05.           AZ90594857F11:  Virtual Str5 SN 
 VS06.                13102166:  Virtual Str6 SN 
 WBMN.klb                 7.00:  WOB Min 
 WITN.            Peter Wilson:  Customer Rep 
 WOBA.klb                 9.95:  WOB Avg 
 WOBX.klb                10.00:  WOB Max 
 YP  .lhf2               36.00:  Yield Point 
~Curve Information Block
#MNEM.UNIT                 API CODE     Curve Description
#---------               -----------    ---------------------------
 TIME.HHMMSS            00 000 000 000:  GT Time & Date
 GTDEPTH.m              00 000 000 000:  GT Depth
 GTPQH.psia             00 000 000 000:  GT HR Quartz Pressure
 GTTQ.degC              00 000 000 000:  GT Quartz Temperature
 GTTN.NONE              00 000 000 000:  GT Test Number
 GTET.sec               00 000 000 000:  GT Elapsed Test Time
 GTTVD.m                00 000 000 000:  GT True Vertical Depth
#Other Information
#
#WARRANTY: Halliburton will use its best efforts to furnish customers with 
#accurate information and interpretations that are part of, and incident to, the services 
#provided.  However, Halliburton cannot and does not warrant the accuracy 
#or correctness of such information and interpretations.  Under no circumstances should any 
#such information or interpretation be relied upon as the sole basis for any drilling, 
#completion, production, or financial decision or any procedure involving any risk to the 
#safety of any drilling venture, drilling rig or its crew or any other third party.  The 
#Customer has full responsibility for all drilling, completion and production operation.  
#Halliburton makes no representations or warranties, either expressed or 
#implied, including, but not limited to, the implied warranties of merchantability or fitness 
#for a particular purpose, with respect to the services rendered.  In no event will 
#Halliburton be liable for failure to obtain any particular results or for 
#any damages, including, but not limited to, indirect, special or consequential damages, 
#resulting from the use of any information or interpretation provided by Halliburton.
#
~A           TIME           GTDEPTH  GTPQH  GTTQ  GTTN  GTET   GTTVD  
# ...
   17:44:45.929.18-Jan-2020 3785.01 6487.68 81.68 6.00 483.04 2848.88
   17:44:46.129.18-Jan-2020 3785.01 6487.68 81.68 6.00 483.24 2848.88
   17:44:46.329.18-Jan-2020 3785.01 6491.56 81.68 6.00 483.44 2848.88
   17:44:46.529.18-Jan-2020 3785.01 6488.59 81.68 6.00 483.64 2848.88
   17:44:46.729.18-Jan-2020 3785.01 6489.53 81.68 6.00 483.84 2848.88
   17:44:46.929.18-Jan-2020 3785.01 6489.54 81.68 6.00 484.04 2848.88
   17:44:47.129.18-Jan-2020 3785.01 6489.54 81.68 6.00 484.24 2848.88
   17:44:47.329.18-Jan-2020 3785.01 6488.36 81.68 6.00 484.44 2848.88
   17:44:47.529.18-Jan-2020 3785.01 6489.65 81.68 6.00 484.64 2848.88
   17:44:47.729.18-Jan-2020 3785.01 6489.45 81.68 6.00 484.84 2848.88
   17:44:47.929.18-Jan-2020 3785.01 6489.97 81.68 6.00 485.04 2848.88
   17:44:48.129.18-Jan-2020 3785.01 6489.97 81.68 6.00 485.24 2848.88
   17:44:48.329.18-Jan-2020 3785.01 6488.49 81.68 6.00 485.44 2848.88
   17:44:48.529.18-Jan-2020 3785.01 6487.93 81.68 6.00 485.64 2848.88
   17:44:48.729.18-Jan-2020 3785.01 6491.49 81.68 6.00 485.84 2848.88
   17:44:48.929.18-Jan-2020 3785.01 6496.77 81.68 6.00 486.04 2848.88
   17:44:49.129.18-Jan-2020 3785.01 6496.77 81.68 6.00 486.24 2848.88
   17:44:49.329.18-Jan-2020 3785.01 6490.00 81.68 6.00 486.44 2848.88
   17:44:49.529.18-Jan-2020 3785.01 6488.20 81.67 6.00 486.64 2848.88
   17:44:49.729.18-Jan-2020 3785.01 6490.00 81.67 6.00 486.84 2848.88
   17:44:49.929.18-Jan-2020 3785.01 6486.56 81.67 6.00 487.04 2848.88
   17:44:50.129.18-Jan-2020 3785.01 6486.56 81.67 6.00 487.24 2848.88
   17:44:50.329.18-Jan-2020 3785.01 6486.09 81.67 6.00 487.44 2848.88
   17:44:50.529.18-Jan-2020 3785.01 6487.02 81.67 6.00 487.64 2848.88
   17:44:50.729.18-Jan-2020 3785.01 6493.90 81.67 6.00 487.84 2848.88
   17:44:50.929.18-Jan-2020 3785.01 6488.89 81.67 6.00 488.04 2848.88
   17:44:51.129.18-Jan-2020 3785.01 6488.89 81.67 6.00 488.24 2848.88
   17:44:51.329.18-Jan-2020 3785.01 6490.44 81.67 6.00 488.44 2848.88
   17:44:51.529.18-Jan-2020 3785.01 6488.67 81.67 6.00 488.64 2848.88
   17:44:51.729.18-Jan-2020 3785.01 6489.58 81.67 6.00 488.84 2848.88
   17:44:51.929.18-Jan-2020 3785.01 6490.95 81.67 6.00 489.04 2848.88
   17:44:52.129.18-Jan-2020 3785.01 6490.95 81.67 6.00 489.24 2848.88
   17:44:52.329.18-Jan-2020 3785.01 6490.73 81.67 6.00 489.44 2848.88
   17:44:52.529.18-Jan-2020 3785.01 6488.50 81.67 6.00 489.64 2848.88
   17:44:52.729.18-Jan-2020 3785.01 6487.88 81.67 6.00 489.84 2848.88
   17:44:52.929.18-Jan-2020 3785.01 6489.29 81.67 6.00 490.04 2848.88
   17:44:53.129.18-Jan-2020 3785.01 6489.29 81.67 6.00 490.24 2848.88
   17:44:53.329.18-Jan-2020 3785.01 6490.44 81.67 6.00 490.44 2848.88
   17:44:53.529.18-Jan-2020 3785.01 6488.75 81.67 6.00 490.64 2848.88
   17:44:53.729.18-Jan-2020 3785.01 6490.39 81.67 6.00 490.84 2848.88
   17:44:53.929.18-Jan-2020 3785.01 6489.58 81.67 6.00 491.04 2848.88
   17:44:54.129.18-Jan-2020 3785.01 6489.58 81.67 6.00 491.24 2848.88
   17:44:54.329.18-Jan-2020 3785.01 6499.49 81.67 6.00 491.44 2848.88
   17:44:54.529.18-Jan-2020 3785.01 6488.93 81.67 6.00 491.64 2848.88
   17:44:54.729.18-Jan-2020 3785.01 6488.31 81.67 6.00 491.84 2848.88
   17:44:54.929.18-Jan-2020 3785.01 6491.48 81.66 6.00 492.04 2848.88
   17:44:55.129.18-Jan-2020 3785.01 6491.48 81.66 6.00 492.24 2848.88
   17:44:55.329.18-Jan-2020 3785.01 6489.99 81.66 6.00 492.44 2848.88
   17:44:55.529.18-Jan-2020 3785.01 6490.22 81.66 6.00 492.64 2848.88
   17:44:55.729.18-Jan-2020 3785.01 6489.02 81.66 6.00 492.84 2848.88
   17:44:55.929.18-Jan-2020 3785.01 6488.81 81.66 6.00 493.04 2848.88
   17:44:56.129.18-Jan-2020 3785.01 6488.81 81.66 6.00 493.24 2848.88
   17:44:56.329.18-Jan-2020 3785.01 6489.71 81.66 6.00 493.44 2848.88
   17:44:56.529.18-Jan-2020 3785.01 6487.67 81.66 6.00 493.64 2848.88
   17:44:56.729.18-Jan-2020 3785.01 6497.66 81.66 6.00 493.84 2848.88
   17:44:56.929.18-Jan-2020 3785.01 6486.43 81.66 6.00 494.04 2848.88
   17:44:57.130.18-Jan-2020 3785.01 6486.43 81.66 6.00 494.24 2848.88
   17:44:57.330.18-Jan-2020 3785.01 6490.76 81.66 6.00 494.44 2848.88
   17:44:57.530.18-Jan-2020 3785.01 6500.70 81.66 6.00 494.64 2848.88
   17:44:57.730.18-Jan-2020 3785.01 6487.39 81.66 6.00 494.84 2848.88
