~Version Information
 VERS.                  2.0:   CWLS log ASCII Standard -VERSION 2.0
 WRAP.                   NO:   One line per depth step
~Well Information Block
#MNEM.UNIT     VALUE/NAME     DESCRIPTION
#---------     -----------    ---------------------------
 STRT.S             13:31:21 18-Jan-20: START TIME 13:31:21 18-Jan-20
 STOP.S             13:39:29 18-Jan-20: STOP TIME  13:39:29 18-Jan-20
 STEP.S                   0.00: STEP TIME
 NULL.                 -999.25: NULL VALUE
 DFWT.                        :  DIST FWL TEXT
 DFST.                        :  DIST FSL TEXT
 DMF .             Drill Floor:  DRILL MEAS FROM
 STIM.      09.30.00 26-Dec-19:  START TIME
 DATE.      08.00.00 20-Jan-20:  END TIME
 SPUD.               23-Nov-19:  SPUD DATE
 NREF.                    Grid:  NORTH REFERENCE
 HPTY.       Minimum Curvature:  HOLE POS TYPE
 DMOD.             Drill Model:  DRILL MOD DESC
 SVYD.                  Survey:  SURVEY DESC
 ILTD.               Lithology:  INTERP LTH DESC
 FTOP.          Formation Tops:  FORM TOPS DESC
 SON .        AZ-XX-0906192647:  JOB NUMBER
 WTYP.                Deviated:  WELL TYPE
 COMP.     BP Exploration (Caspian Sea) Ltd:  COMPANY
 BASE.              Azerbaijan:  LOGGING EQUIPMENT BASE LOCATION
 REGN.                 Eurasia:  REGION
 FLD .                     ACG:  FIELD NAME
 SRVC.              KCA Deutag:  CONTRACTOR
 MWDS.                    Baku:  MWD SHOP
 WELL.     A10 (Slot 20) - SCP:  WELL NAME
 JOBN.        AZ-XX-0906192647:  JOB TICKET NUMB
 RIG .                 Chirag1:  RIG NAME
 DCON.     Halliburton Sperry Drilling:  DIRECTNL CONTR
 UNIT.                     N/A:  LOGGING EQUIPMENT ID
 PDAT.          Mean Sea Level:  PERMANENT DATUM
 MDS .        Operator Entered:  MAG DATA SOURCE
 CTRY.              Azerbaijan:  COUNTRY NAME
 UWI .            /AZE00000090:  UNIQUE WELL IDENTIFIER
 API .            /AZE00000090:  API NUMBER
 CNTY.                        :  COUNTY
 PROV.                        :  PROVINCE
 STAT.                        :  STATE
 LOC .                        :  LOCATION
 LMF .             Drill Floor:  LOG MEASURED FROM
 TVDS.m                  36.60:  TVDSS CORRECTN
 LATI.deg                40.08:  LATITUDE
 LONG.deg                51.24:  LONGITUDE
 WHNS.m                  -7.94:  WELL HEAD N/S
 WHEW.m                   1.56:  WELL HEAD E/W
 UTMX.m              520429.26:  UTM X
 UTMY.m             4438973.87:  UTM Y
 DFWL.m                   0.00:  DISTANCE FWL
 DFSL.m                   0.00:  DISTANCE FSL
 SDEP.m                1455.00:  START DEPTH
 TDD .m                3878.01:  TOTAL DEPTH (DRILLER)
 VSDR.deg               112.75:  VERT SEC DIRECT
 GVFD.g                   1.00:  GRAVITY FIELD
 MFLD.nT              50256.00:  MAGNETIC FIELD
 MDIP.deg                59.52:  MAGNETIC DIP
 MDEC.deg                 6.43:  MAGNETIC DECL
 GRDC.deg                 0.16:  GRID CORRECTION
 AZTC.deg                 6.27:  AZM TOTAL CORR
 EPD .m                   0.00:  ELEVATION
 EGL .m                   0.00:  GROUND ELEVATION
 WDMS.m                 121.00:  WD ELEV
 APD .m                  36.60:  DEPTH ABOVE PD
 AGAP.m                  36.60:  AIR GAP
 VSEW.m                   1.56:  VERT SEC E/W
 VSNS.m                  -7.94:  VERT SEC N/S
 DEP .m                1140.01:  DEPTH
 EKB .m                  36.60:  KB ELEVATION
 EDF .m                  36.60:  DF ELEVATION
 TDL .m                1293.00:  TOTAL DEPTH (LOGGER)
 VSC .                       0:  VS TO CLOSURE
 MAGU.                 1849164:  MAGUTM CHECKSUM
~Parameter Information Block
#MNEM.UNIT       Value        Description
#---------     -----------    ---------------------------
 AV  .mps                 2.40:  Ann Velocity 
 AVMX.mps                 2.55:  Max Ann Veloc 
 AZIF.deg               134.35:  Azm, Final 
 BHAT.        Rotary Steerable:  BHA Type 
 BREV.rev               847.00:  Rev Bit Total 
 BROT.°/30m              -2.51:  Build Rotating 
 BS  .in                  8.50:  Bit Size 
 BSZ .in                  8.50:  Bit Size 
 BTPL.psig              700.00:  Bit Press Loss 
 CABU.                     Yes:  Customer Abuse 
 CGEO.          Ilgar Gurbanov:  Customer Geo 
 COMM.                     ¸P:  Run Comments 1 
 TCS .hr                140.40:  Time Ciculation Ended 
 CV  .mps                 2.27:  Crit Velocity 
 CVMX.mps                 2.45:  Max Crit Veloc 
 DD1 .         Intigam Rahimov:  Direct Drillr 1 
 DD2 .         Rasim Ibrahimov:  Direct Drillr 2 
 DDSV.                 iCruise:  DD Service 
 DEFF.%                  99.00:  % Det Eff 
 DLRX.°/30m               3.28:  Dogleg Rot Max 
 DLSO.°/30m               0.00:  Dogleg Oriented 
 DLSX.°/30m               0.00:  Dogleg Str Max 
 DRET.      23.30.00 18-Jan-20:  Drill End Time 
 DRST.      01.45.00 11-Jan-20:  Drill Start Tim 
 DTIM.hr                 94.00:  Time Drilling 
 EDEP.m                3878.01:  End Depth 
 ENG1.       Dauren Baktybayev:  Engineer 1 
 ENG2.      Natik Hasanaghayev:  Engineer 2 
 ENG3.          Rustam Safarov:  Engineer 3 
 ETIM.      08.00.00 20-Jan-20:  End Time 
 FLOI.gpm               532.00:  Flow In 
 FLON.gpm               500.00:  Flow In Min 
 FLOS.cptm                0.00:  Fluid Loss 
 FLOX.gpm               540.00:  Flow In Max 
 FTRO.       Formation Presure:  FTWD Run Obj 
 HPRE.                     Yes:  High Pressure 
 HTEM.                      No:  High Temp 
 HYDO.m                   1.80:  Hydro Offset 
 IFIN.deg                39.86:  Inc, Final 
 IMAX.deg                59.73:  Inc Max 
 IMIN.deg                39.25:  Inc Min 
 IMND.m                3816.77:  Inc Min Depth 
 IMXD.m                2596.33:  Inc Max Depth 
 JARR.                      No:  Jarring 
 LETM.      23.30.00 18-Jan-20:  Log End Time 
 LOST.hr                     0:  Lost Rig Time 
 LSTM.      01.45.00 11-Jan-20:  Log Start Time 
 MDCL.ppm             41500.00:  Mud Chlorides 
 MDES.     Inversion Oil/Synthetic:  Mud Desc 
 DFD .sg                  1.48:  Mud Density 
 MDMN.sg                  1.48:  Dens Mud Min 
 MDMX.sg                  1.48:  Dens Mud Max 
 MOIL.                      54:  Run Mud Oil % 
 MOWR.                   72:28:  Run Mud OWR 
 MSND.                       0:  Run Mud Sand % 
 MSOL.                      23:  Run Mud Solids% 
 DFV .spqt               86.00:  Mud Viscosity 
 MWOD.in                  6.75:  MWD Tool OD 
 MWSI.                      No:  Serv Intrp, MWD 
 OTIM.hr                223.40:  Time Operating 
 PCON.           Look Like New:  Pad Condition 
 PMAX.psia            32446.79:  Press Op, Max 
 PV  .cP                 49.00:  Mud PV 
 RUN .                     200:  Run Number 
 ROPA.m/hr               12.48:  ROP Avg 
 ROPN.m/hr                8.00:  ROP Min 
 ROPX.m/hr               27.00:  ROP Max 
 RPMA.rpm               121.00:  RPM Surface Avg 
 RPMN.rpm                60.00:  RPM Surface Min 
 RPMX.rpm               140.00:  RPM Surface Max 
 RRUN.                    L202:  Rig Run Number 
 RTIM.hr                  7.25:  Time Reaming 
 SAZI.deg               123.49:  Azm, Start 
 SDEP.m                2585.01:  Start Depth 
 SIDD.                      No:  Serv Intrp, DD 
 SINC.deg                59.93:  Inc, Start 
 SPPA.psig             3539.00:  SPP Avg 
 SPPN.psig             3050.00:  SPP Min 
 SPPX.psig             3950.00:  SPP Max 
 STIM.      19.00.00 10-Jan-20:  Start Time 
 SVCS.                 DD, MWD:  Services 
 SVER.                    9.20:  Sperry Version 
 TDAT.m                1293.00:  Tot Depth Attmp 
 TDDF.                      No:  Trip for DD 
 TDLG.m                1293.00:  Tot Depth Loggd 
 TFF .                      No:  Trip for Fail 
 TQAA.f-kp               16.00:  Torque Abs Avg 
 TQAN.f-kp               11.00:  Torque Abs Min 
 TQAX.f-kp               18.00:  Torque Abs Max 
 TRRT.°/30m               1.25:  Turn Rotating 
 MRT .                  EWR-M5:  Maximum Recorded Temperature 
 TTMX.degC               84.00:  Max Tool Temp 
 VS01.          AZ90514619R5C6:  Virtual Str1 SN 
 VS02.        AZ90552592N2L2C6:  Virtual Str2 SN 
 VS03.        AZ90571337Z1W1C6:  Virtual Str3 SN 
 VS04.         AZ90513690K23C6:  Virtual Str4 SN 
 VS05.           AZ90594857F11:  Virtual Str5 SN 
 VS06.                13102166:  Virtual Str6 SN 
 WBMN.klb                 7.00:  WOB Min 
 WITN.            Peter Wilson:  Customer Rep 
 WOBA.klb                 9.95:  WOB Avg 
 WOBX.klb                10.00:  WOB Max 
 YP  .lhf2               36.00:  Yield Point 
~Curve Information Block
#MNEM.UNIT                 API CODE     Curve Description
#---------               -----------    ---------------------------
 TIME.HHMMSS            00 000 000 000:  GT Time & Date
 GTDEPTH.m              00 000 000 000:  GT Depth
 GTPQH.psia             00 000 000 000:  GT HR Quartz Pressure
 GTTQ.degC              00 000 000 000:  GT Quartz Temperature
 GTTN.NONE              00 000 000 000:  GT Test Number
 GTET.sec               00 000 000 000:  GT Elapsed Test Time
 GTTVD.m                00 000 000 000:  GT True Vertical Depth
#Other Information
#
#WARRANTY: Halliburton will use its best efforts to furnish customers with 
#accurate information and interpretations that are part of, and incident to, the services 
#provided.  However, Halliburton cannot and does not warrant the accuracy 
#or correctness of such information and interpretations.  Under no circumstances should any 
#such information or interpretation be relied upon as the sole basis for any drilling, 
#completion, production, or financial decision or any procedure involving any risk to the 
#safety of any drilling venture, drilling rig or its crew or any other third party.  The 
#Customer has full responsibility for all drilling, completion and production operation.  
#Halliburton makes no representations or warranties, either expressed or 
#implied, including, but not limited to, the implied warranties of merchantability or fitness 
#for a particular purpose, with respect to the services rendered.  In no event will 
#Halliburton be liable for failure to obtain any particular results or for 
#any damages, including, but not limited to, indirect, special or consequential damages, 
#resulting from the use of any information or interpretation provided by Halliburton.
#
~A           TIME           GTDEPTH  GTPQH  GTTQ  GTTN  GTET   GTTVD  
# ...
   13:35:34.217.18-Jan-2020 3754.51  455.70 80.94 4.00 253.08 2825.33
   13:35:34.417.18-Jan-2020 3754.51  455.70 80.94 4.00 253.28 2825.33
   13:35:34.617.18-Jan-2020 3754.51  456.63 80.94 4.00 253.48 2825.33
   13:35:34.817.18-Jan-2020 3754.51  457.46 80.94 4.00 253.68 2825.33
   13:35:35.017.18-Jan-2020 3754.51  457.18 80.94 4.00 253.88 2825.33
   13:35:35.217.18-Jan-2020 3754.51  457.17 80.94 4.00 254.08 2825.33
   13:35:35.417.18-Jan-2020 3754.51  457.17 80.94 4.00 254.28 2825.33
   13:35:35.617.18-Jan-2020 3754.51  456.84 80.94 4.00 254.48 2825.33
   13:35:35.817.18-Jan-2020 3754.51  456.71 80.94 4.00 254.68 2825.33
   13:35:36.017.18-Jan-2020 3754.51  456.72 80.94 4.00 254.88 2825.33
   13:35:36.217.18-Jan-2020 3754.51  456.74 80.94 4.00 255.08 2825.33
   13:35:36.417.18-Jan-2020 3754.51  456.74 80.94 4.00 255.28 2825.33
   13:35:36.617.18-Jan-2020 3754.51  454.88 80.94 4.00 255.48 2825.33
   13:35:36.817.18-Jan-2020 3754.51  457.02 80.94 4.00 255.68 2825.33
   13:35:37.017.18-Jan-2020 3754.51  457.63 80.94 4.00 255.88 2825.33
   13:35:37.217.18-Jan-2020 3754.51  457.26 80.94 4.00 256.08 2825.33
   13:35:37.418.18-Jan-2020 3754.51  457.26 80.94 4.00 256.28 2825.33
   13:35:37.618.18-Jan-2020 3754.51  455.59 80.93 4.00 256.48 2825.33
   13:35:37.818.18-Jan-2020 3754.51  457.10 80.93 4.00 256.68 2825.33
   13:35:38.018.18-Jan-2020 3754.51  456.92 80.93 4.00 256.88 2825.33
   13:35:38.218.18-Jan-2020 3754.51  457.25 80.93 4.00 257.08 2825.33
   13:35:38.418.18-Jan-2020 3754.51  457.25 80.93 4.00 257.28 2825.33
   13:35:38.618.18-Jan-2020 3754.51  455.79 80.93 4.00 257.48 2825.33
   13:35:38.818.18-Jan-2020 3754.51  457.53 80.93 4.00 257.68 2825.33
   13:35:39.018.18-Jan-2020 3754.51  457.29 80.93 4.00 257.88 2825.33
   13:35:39.218.18-Jan-2020 3754.51  457.84 80.93 4.00 258.08 2825.33
   13:35:39.418.18-Jan-2020 3754.51  457.84 80.93 4.00 258.28 2825.33
   13:35:39.618.18-Jan-2020 3754.51  457.81 80.93 4.00 258.48 2825.33
   13:35:39.818.18-Jan-2020 3754.51  455.87 80.93 4.00 258.68 2825.33
   13:35:40.018.18-Jan-2020 3754.51  457.78 80.93 4.00 258.88 2825.33
   13:35:40.218.18-Jan-2020 3754.51  458.16 80.93 4.00 259.08 2825.33
   13:35:40.419.18-Jan-2020 3754.51  458.16 80.93 4.00 259.28 2825.33
   13:35:40.619.18-Jan-2020 3754.51  457.79 80.93 4.00 259.48 2825.33
   13:35:40.819.18-Jan-2020 3754.51  457.56 80.93 4.00 259.68 2825.33
   13:35:41.019.18-Jan-2020 3754.51  457.61 80.93 4.00 259.88 2825.33
   13:35:41.219.18-Jan-2020 3754.51  457.38 80.93 4.00 260.08 2825.33
   13:35:41.419.18-Jan-2020 3754.51  457.38 80.93 4.00 260.28 2825.33
   13:35:41.619.18-Jan-2020 3754.51  457.37 80.93 4.00 260.48 2825.33
   13:35:41.819.18-Jan-2020 3754.51  457.31 80.93 4.00 260.68 2825.33
   13:35:42.019.18-Jan-2020 3754.51  457.14 80.93 4.00 260.88 2825.33
   13:35:42.219.18-Jan-2020 3754.51  457.15 80.93 4.00 261.08 2825.33
   13:35:42.419.18-Jan-2020 3754.51  457.15 80.93 4.00 261.28 2825.33
   13:35:42.619.18-Jan-2020 3754.51  457.02 80.93 4.00 261.48 2825.33
   13:35:42.819.18-Jan-2020 3754.51  456.94 80.93 4.00 261.68 2825.33
   13:35:43.019.18-Jan-2020 3754.51  456.68 80.93 4.00 261.88 2825.33
   13:35:43.219.18-Jan-2020 3754.51  455.18 80.92 4.00 262.08 2825.33
   13:35:43.419.18-Jan-2020 3754.51  455.18 80.92 4.00 262.28 2825.33
   13:35:43.620.18-Jan-2020 3754.51  457.78 80.92 4.00 262.48 2825.33
   13:35:43.820.18-Jan-2020 3754.51  457.32 80.92 4.00 262.68 2825.33
   13:35:44.020.18-Jan-2020 3754.51  457.14 80.92 4.00 262.88 2825.33
   13:35:44.220.18-Jan-2020 3754.51  457.02 80.92 4.00 263.09 2825.33
   13:35:44.420.18-Jan-2020 3754.51  457.02 80.92 4.00 263.29 2825.33
   13:35:44.620.18-Jan-2020 3754.51  456.96 80.92 4.00 263.49 2825.33
   13:35:44.820.18-Jan-2020 3754.51  456.96 80.92 4.00 263.69 2825.33
   13:35:45.020.18-Jan-2020 3754.51  456.93 80.92 4.00 263.89 2825.33
   13:35:45.220.18-Jan-2020 3754.51  456.76 80.92 4.00 264.09 2825.33
   13:35:45.420.18-Jan-2020 3754.51  456.76 80.92 4.00 264.29 2825.33
   13:35:45.620.18-Jan-2020 3754.51  457.33 80.92 4.00 264.49 2825.33
   13:35:45.820.18-Jan-2020 3754.51  457.30 80.92 4.00 264.69 2825.33
   13:35:46.020.18-Jan-2020 3754.51  457.16 80.92 4.00 264.89 2825.33
   13:35:46.220.18-Jan-2020 3754.51  457.12 80.92 4.00 265.09 2825.33
   13:35:46.420.18-Jan-2020 3754.51  457.12 80.92 4.00 265.29 2825.33
   13:35:46.621.18-Jan-2020 3754.51  456.35 80.92 4.00 265.49 2825.33
   13:35:46.821.18-Jan-2020 3754.51  456.78 80.92 4.00 265.69 2825.33
   13:35:47.021.18-Jan-2020 3754.51  457.48 80.92 4.00 265.89 2825.33
   13:35:47.221.18-Jan-2020 3754.51  457.20 80.92 4.00 266.09 2825.33
   13:35:47.421.18-Jan-2020 3754.51  457.20 80.92 4.00 266.29 2825.33
   13:35:47.621.18-Jan-2020 3754.51  455.26 80.92 4.00 266.49 2825.33
   13:35:47.821.18-Jan-2020 3754.51  457.25 80.92 4.00 266.69 2825.33
   13:35:48.021.18-Jan-2020 3754.51  457.80 80.92 4.00 266.89 2825.33
   13:35:48.221.18-Jan-2020 3754.51  457.45 80.92 4.00 267.09 2825.33
   13:35:48.421.18-Jan-2020 3754.51  457.45 80.92 4.00 267.29 2825.33
   13:35:48.621.18-Jan-2020 3754.51  455.42 80.92 4.00 267.49 2825.33
   13:35:48.821.18-Jan-2020 3754.51  457.93 80.91 4.00 267.69 2825.33
   13:35:49.021.18-Jan-2020 3754.51  458.47 80.91 4.00 267.89 2825.33
   13:35:49.221.18-Jan-2020 3754.51  458.03 80.91 4.00 268.09 2825.33
   13:35:49.421.18-Jan-2020 3754.51  458.03 80.91 4.00 268.29 2825.33
   13:35:49.621.18-Jan-2020 3754.51  457.75 80.91 4.00 268.49 2825.33
   13:35:49.822.18-Jan-2020 3754.51  457.83 80.91 4.00 268.69 2825.33
   13:35:50.022.18-Jan-2020 3754.51  457.66 80.91 4.00 268.89 2825.33
   13:35:50.222.18-Jan-2020 3754.51  457.67 80.91 4.00 269.09 2825.33
   13:35:50.422.18-Jan-2020 3754.51  457.67 80.91 4.00 269.29 2825.33
   13:35:50.622.18-Jan-2020 3754.51  457.52 80.91 4.00 269.49 2825.33
   13:35:50.822.18-Jan-2020 3754.51  457.41 80.91 4.00 269.69 2825.33
   13:35:51.022.18-Jan-2020 3754.51  457.38 80.91 4.00 269.89 2825.33
   13:35:51.222.18-Jan-2020 3754.51  457.28 80.91 4.00 270.09 2825.33
   13:35:51.422.18-Jan-2020 3754.51  457.28 80.91 4.00 270.29 2825.33
   13:35:51.622.18-Jan-2020 3754.51  457.13 80.91 4.00 270.49 2825.33
   13:35:51.822.18-Jan-2020 3754.51  456.99 80.91 4.00 270.69 2825.33
   13:35:52.022.18-Jan-2020 3754.51  455.39 80.91 4.00 270.89 2825.33
   13:35:52.222.18-Jan-2020 3754.51  457.30 80.91 4.00 271.09 2825.33
   13:35:52.422.18-Jan-2020 3754.51  457.30 80.91 4.00 271.29 2825.33
   13:35:52.622.18-Jan-2020 3754.51  457.47 80.91 4.00 271.49 2825.33
   13:35:52.823.18-Jan-2020 3754.51  457.25 80.91 4.00 271.69 2825.33
   13:35:53.023.18-Jan-2020 3754.51  457.16 80.91 4.00 271.89 2825.33
   13:35:53.223.18-Jan-2020 3754.51  457.14 80.91 4.00 272.09 2825.33
   13:35:53.423.18-Jan-2020 3754.51  457.14 80.91 4.00 272.29 2825.33
   13:35:53.623.18-Jan-2020 3754.51  457.07 80.91 4.00 272.49 2825.33
   13:35:53.823.18-Jan-2020 3754.51  456.97 80.91 4.00 272.69 2825.33
   13:35:54.023.18-Jan-2020 3754.51  456.90 80.91 4.00 272.89 2825.33
   13:35:54.223.18-Jan-2020 3754.51  455.04 80.90 4.00 273.09 2825.33
   13:35:54.423.18-Jan-2020 3754.51  455.04 80.90 4.00 273.29 2825.33
   13:35:54.623.18-Jan-2020 3754.51  457.36 80.90 4.00 273.49 2825.33
   13:35:54.823.18-Jan-2020 3754.51  457.34 80.90 4.00 273.69 2825.33
   13:35:55.023.18-Jan-2020 3754.51  457.16 80.90 4.00 273.89 2825.33
   13:35:55.223.18-Jan-2020 3754.51  456.62 80.90 4.00 274.09 2825.33
   13:35:55.423.18-Jan-2020 3754.51  456.62 80.90 4.00 274.29 2825.33
   13:35:55.623.18-Jan-2020 3754.51  456.88 80.90 4.00 274.49 2825.33
   13:35:55.823.18-Jan-2020 3754.51  457.61 80.90 4.00 274.69 2825.33
   13:35:56.024.18-Jan-2020 3754.51  457.27 80.90 4.00 274.89 2825.33
   13:35:56.224.18-Jan-2020 3754.51  457.16 80.90 4.00 275.09 2825.33
   13:35:56.424.18-Jan-2020 3754.51  457.16 80.90 4.00 275.29 2825.33
   13:35:56.624.18-Jan-2020 3754.51  457.55 80.90 4.00 275.49 2825.33
   13:35:56.824.18-Jan-2020 3754.51  458.00 80.90 4.00 275.69 2825.33
   13:35:57.024.18-Jan-2020 3754.51  457.68 80.90 4.00 275.89 2825.33
