~Version Information
 VERS.                  2.0:   CWLS log ASCII Standard -VERSION 2.0
 WRAP.                   NO:   One line per depth step
~Well Information Block
#MNEM.UNIT     VALUE/NAME     DESCRIPTION
#---------     -----------    ---------------------------
 STRT.S             09:16:51 18-Jan-20: START TIME 09:16:51 18-Jan-20
 STOP.S             09:25:06 18-Jan-20: STOP TIME  09:25:06 18-Jan-20
 STEP.S                   0.00: STEP TIME
 NULL.                 -999.25: NULL VALUE
 DFWT.                        :  DIST FWL TEXT
 DFST.                        :  DIST FSL TEXT
 DMF .             Drill Floor:  DRILL MEAS FROM
 STIM.      09.30.00 26-Dec-19:  START TIME
 DATE.      08.00.00 20-Jan-20:  END TIME
 SPUD.               23-Nov-19:  SPUD DATE
 NREF.                    Grid:  NORTH REFERENCE
 HPTY.       Minimum Curvature:  HOLE POS TYPE
 DMOD.             Drill Model:  DRILL MOD DESC
 SVYD.                  Survey:  SURVEY DESC
 ILTD.               Lithology:  INTERP LTH DESC
 FTOP.          Formation Tops:  FORM TOPS DESC
 SON .        AZ-XX-0906192647:  JOB NUMBER
 WTYP.                Deviated:  WELL TYPE
 COMP.     BP Exploration (Caspian Sea) Ltd:  COMPANY
 BASE.              Azerbaijan:  LOGGING EQUIPMENT BASE LOCATION
 REGN.                 Eurasia:  REGION
 FLD .                     ACG:  FIELD NAME
 SRVC.              KCA Deutag:  CONTRACTOR
 MWDS.                    Baku:  MWD SHOP
 WELL.     A10 (Slot 20) - SCP:  WELL NAME
 JOBN.        AZ-XX-0906192647:  JOB TICKET NUMB
 RIG .                 Chirag1:  RIG NAME
 DCON.     Halliburton Sperry Drilling:  DIRECTNL CONTR
 UNIT.                     N/A:  LOGGING EQUIPMENT ID
 PDAT.          Mean Sea Level:  PERMANENT DATUM
 MDS .        Operator Entered:  MAG DATA SOURCE
 CTRY.              Azerbaijan:  COUNTRY NAME
 UWI .            /AZE00000090:  UNIQUE WELL IDENTIFIER
 API .            /AZE00000090:  API NUMBER
 CNTY.                        :  COUNTY
 PROV.                        :  PROVINCE
 STAT.                        :  STATE
 LOC .                        :  LOCATION
 LMF .             Drill Floor:  LOG MEASURED FROM
 TVDS.m                  36.60:  TVDSS CORRECTN
 LATI.deg                40.08:  LATITUDE
 LONG.deg                51.24:  LONGITUDE
 WHNS.m                  -7.94:  WELL HEAD N/S
 WHEW.m                   1.56:  WELL HEAD E/W
 UTMX.m              520429.26:  UTM X
 UTMY.m             4438973.87:  UTM Y
 DFWL.m                   0.00:  DISTANCE FWL
 DFSL.m                   0.00:  DISTANCE FSL
 SDEP.m                1455.00:  START DEPTH
 TDD .m                3878.01:  TOTAL DEPTH (DRILLER)
 VSDR.deg               112.75:  VERT SEC DIRECT
 GVFD.g                   1.00:  GRAVITY FIELD
 MFLD.nT              50256.00:  MAGNETIC FIELD
 MDIP.deg                59.52:  MAGNETIC DIP
 MDEC.deg                 6.43:  MAGNETIC DECL
 GRDC.deg                 0.16:  GRID CORRECTION
 AZTC.deg                 6.27:  AZM TOTAL CORR
 EPD .m                   0.00:  ELEVATION
 EGL .m                   0.00:  GROUND ELEVATION
 WDMS.m                 121.00:  WD ELEV
 APD .m                  36.60:  DEPTH ABOVE PD
 AGAP.m                  36.60:  AIR GAP
 VSEW.m                   1.56:  VERT SEC E/W
 VSNS.m                  -7.94:  VERT SEC N/S
 DEP .m                1140.01:  DEPTH
 EKB .m                  36.60:  KB ELEVATION
 EDF .m                  36.60:  DF ELEVATION
 TDL .m                1293.00:  TOTAL DEPTH (LOGGER)
 VSC .                       0:  VS TO CLOSURE
 MAGU.                 1849164:  MAGUTM CHECKSUM
~Parameter Information Block
#MNEM.UNIT       Value        Description
#---------     -----------    ---------------------------
 AV  .mps                 2.40:  Ann Velocity 
 AVMX.mps                 2.55:  Max Ann Veloc 
 AZIF.deg               134.35:  Azm, Final 
 BHAT.        Rotary Steerable:  BHA Type 
 BREV.rev               847.00:  Rev Bit Total 
 BROT.°/30m              -2.51:  Build Rotating 
 BS  .in                  8.50:  Bit Size 
 BSZ .in                  8.50:  Bit Size 
 BTPL.psig              700.00:  Bit Press Loss 
 CABU.                     Yes:  Customer Abuse 
 CGEO.          Ilgar Gurbanov:  Customer Geo 
 COMM.                     Áo:  Run Comments 1 
 TCS .hr                140.40:  Time Ciculation Ended 
 CV  .mps                 2.27:  Crit Velocity 
 CVMX.mps                 2.45:  Max Crit Veloc 
 DD1 .         Intigam Rahimov:  Direct Drillr 1 
 DD2 .         Rasim Ibrahimov:  Direct Drillr 2 
 DDSV.                 iCruise:  DD Service 
 DEFF.%                  99.00:  % Det Eff 
 DLRX.°/30m               3.28:  Dogleg Rot Max 
 DLSO.°/30m               0.00:  Dogleg Oriented 
 DLSX.°/30m               0.00:  Dogleg Str Max 
 DRET.      23.30.00 18-Jan-20:  Drill End Time 
 DRST.      01.45.00 11-Jan-20:  Drill Start Tim 
 DTIM.hr                 94.00:  Time Drilling 
 EDEP.m                3878.01:  End Depth 
 ENG1.       Dauren Baktybayev:  Engineer 1 
 ENG2.      Natik Hasanaghayev:  Engineer 2 
 ENG3.          Rustam Safarov:  Engineer 3 
 ETIM.      08.00.00 20-Jan-20:  End Time 
 FLOI.gpm               532.00:  Flow In 
 FLON.gpm               500.00:  Flow In Min 
 FLOS.cptm                0.00:  Fluid Loss 
 FLOX.gpm               540.00:  Flow In Max 
 FTRO.       Formation Presure:  FTWD Run Obj 
 HPRE.                     Yes:  High Pressure 
 HTEM.                      No:  High Temp 
 HYDO.m                   1.80:  Hydro Offset 
 IFIN.deg                39.86:  Inc, Final 
 IMAX.deg                59.73:  Inc Max 
 IMIN.deg                39.25:  Inc Min 
 IMND.m                3816.77:  Inc Min Depth 
 IMXD.m                2596.33:  Inc Max Depth 
 JARR.                      No:  Jarring 
 LETM.      23.30.00 18-Jan-20:  Log End Time 
 LOST.hr                     0:  Lost Rig Time 
 LSTM.      01.45.00 11-Jan-20:  Log Start Time 
 MDCL.ppm             41500.00:  Mud Chlorides 
 MDES.     Inversion Oil/Synthetic:  Mud Desc 
 DFD .sg                  1.48:  Mud Density 
 MDMN.sg                  1.48:  Dens Mud Min 
 MDMX.sg                  1.48:  Dens Mud Max 
 MOIL.                      54:  Run Mud Oil % 
 MOWR.                   72:28:  Run Mud OWR 
 MSND.                       0:  Run Mud Sand % 
 MSOL.                      23:  Run Mud Solids% 
 DFV .spqt               86.00:  Mud Viscosity 
 MWOD.in                  6.75:  MWD Tool OD 
 MWSI.                      No:  Serv Intrp, MWD 
 OTIM.hr                223.40:  Time Operating 
 PCON.           Look Like New:  Pad Condition 
 PMAX.psia            32446.79:  Press Op, Max 
 PV  .cP                 49.00:  Mud PV 
 RUN .                     200:  Run Number 
 ROPA.m/hr               12.48:  ROP Avg 
 ROPN.m/hr                8.00:  ROP Min 
 ROPX.m/hr               27.00:  ROP Max 
 RPMA.rpm               121.00:  RPM Surface Avg 
 RPMN.rpm                60.00:  RPM Surface Min 
 RPMX.rpm               140.00:  RPM Surface Max 
 RRUN.                    L202:  Rig Run Number 
 RTIM.hr                  7.25:  Time Reaming 
 SAZI.deg               123.49:  Azm, Start 
 SDEP.m                2585.01:  Start Depth 
 SIDD.                      No:  Serv Intrp, DD 
 SINC.deg                59.93:  Inc, Start 
 SPPA.psig             3539.00:  SPP Avg 
 SPPN.psig             3050.00:  SPP Min 
 SPPX.psig             3950.00:  SPP Max 
 STIM.      19.00.00 10-Jan-20:  Start Time 
 SVCS.                 DD, MWD:  Services 
 SVER.                    9.20:  Sperry Version 
 TDAT.m                1293.00:  Tot Depth Attmp 
 TDDF.                      No:  Trip for DD 
 TDLG.m                1293.00:  Tot Depth Loggd 
 TFF .                      No:  Trip for Fail 
 TQAA.f-kp               16.00:  Torque Abs Avg 
 TQAN.f-kp               11.00:  Torque Abs Min 
 TQAX.f-kp               18.00:  Torque Abs Max 
 TRRT.°/30m               1.25:  Turn Rotating 
 MRT .                  EWR-M5:  Maximum Recorded Temperature 
 TTMX.degC               84.00:  Max Tool Temp 
 VS01.          AZ90514619R5C6:  Virtual Str1 SN 
 VS02.        AZ90552592N2L2C6:  Virtual Str2 SN 
 VS03.        AZ90571337Z1W1C6:  Virtual Str3 SN 
 VS04.         AZ90513690K23C6:  Virtual Str4 SN 
 VS05.           AZ90594857F11:  Virtual Str5 SN 
 VS06.                13102166:  Virtual Str6 SN 
 WBMN.klb                 7.00:  WOB Min 
 WITN.            Peter Wilson:  Customer Rep 
 WOBA.klb                 9.95:  WOB Avg 
 WOBX.klb                10.00:  WOB Max 
 YP  .lhf2               36.00:  Yield Point 
~Curve Information Block
#MNEM.UNIT                 API CODE     Curve Description
#---------               -----------    ---------------------------
 TIME.HHMMSS            00 000 000 000:  GT Time & Date
 GTDEPTH.m              00 000 000 000:  GT Depth
 GTPQH.psia             00 000 000 000:  GT HR Quartz Pressure
 GTTQ.degC              00 000 000 000:  GT Quartz Temperature
 GTTN.NONE              00 000 000 000:  GT Test Number
 GTET.sec               00 000 000 000:  GT Elapsed Test Time
 GTTVD.m                00 000 000 000:  GT True Vertical Depth
#Other Information
#
#WARRANTY: Halliburton will use its best efforts to furnish customers with 
#accurate information and interpretations that are part of, and incident to, the services 
#provided.  However, Halliburton cannot and does not warrant the accuracy 
#or correctness of such information and interpretations.  Under no circumstances should any 
#such information or interpretation be relied upon as the sole basis for any drilling, 
#completion, production, or financial decision or any procedure involving any risk to the 
#safety of any drilling venture, drilling rig or its crew or any other third party.  The 
#Customer has full responsibility for all drilling, completion and production operation.  
#Halliburton makes no representations or warranties, either expressed or 
#implied, including, but not limited to, the implied warranties of merchantability or fitness 
#for a particular purpose, with respect to the services rendered.  In no event will 
#Halliburton be liable for failure to obtain any particular results or for 
#any damages, including, but not limited to, indirect, special or consequential damages, 
#resulting from the use of any information or interpretation provided by Halliburton.
#
~A           TIME           GTDEPTH  GTPQH  GTTQ  GTTN  GTET   GTTVD  
# ...
   09:23:45.869.18-Jan-2020 3746.01 3686.33 80.93 3.00 414.07 2818.83
   09:23:46.069.18-Jan-2020 3746.01 3686.33 80.93 3.00 414.27 2818.83
   09:23:46.269.18-Jan-2020 3746.01 3686.57 80.93 3.00 414.47 2818.83
   09:23:46.469.18-Jan-2020 3746.01 3686.31 80.93 3.00 414.67 2818.83
   09:23:46.669.18-Jan-2020 3746.01 3686.33 80.93 3.00 414.87 2818.83
   09:23:46.869.18-Jan-2020 3746.01 3686.36 80.93 3.00 415.07 2818.83
   09:23:47.069.18-Jan-2020 3746.01 3686.36 80.93 3.00 415.27 2818.83
   09:23:47.269.18-Jan-2020 3746.01 3686.31 80.93 3.00 415.47 2818.83
   09:23:47.469.18-Jan-2020 3746.01 3686.36 80.93 3.00 415.67 2818.83
   09:23:47.669.18-Jan-2020 3746.01 3686.43 80.93 3.00 415.87 2818.83
   09:23:47.869.18-Jan-2020 3746.01 3686.25 80.93 3.00 416.07 2818.83
   09:23:48.070.18-Jan-2020 3746.01 3686.25 80.93 3.00 416.27 2818.83
   09:23:48.270.18-Jan-2020 3746.01 3686.26 80.93 3.00 416.47 2818.83
   09:23:48.470.18-Jan-2020 3746.01 3686.27 80.93 3.00 416.67 2818.83
   09:23:48.670.18-Jan-2020 3746.01 3686.45 80.93 3.00 416.87 2818.83
   09:23:48.870.18-Jan-2020 3746.01 3686.25 80.93 3.00 417.07 2818.83
   09:23:49.070.18-Jan-2020 3746.01 3686.25 80.93 3.00 417.27 2818.83
   09:23:49.270.18-Jan-2020 3746.01 3686.38 80.93 3.00 417.47 2818.83
   09:23:49.470.18-Jan-2020 3746.01 3686.65 80.93 3.00 417.67 2818.83
   09:23:49.670.18-Jan-2020 3746.01 3686.08 80.93 3.00 417.87 2818.83
   09:23:49.870.18-Jan-2020 3746.01 3686.55 80.93 3.00 418.07 2818.83
   09:23:50.070.18-Jan-2020 3746.01 3686.55 80.93 3.00 418.27 2818.83
   09:23:50.270.18-Jan-2020 3746.01 3686.28 80.93 3.00 418.47 2818.83
   09:23:50.470.18-Jan-2020 3746.01 3686.33 80.92 3.00 418.67 2818.83
   09:23:50.670.18-Jan-2020 3746.01 3686.31 80.92 3.00 418.87 2818.83
   09:23:50.870.18-Jan-2020 3746.01 3686.34 80.92 3.00 419.07 2818.83
   09:23:51.070.18-Jan-2020 3746.01 3686.34 80.92 3.00 419.27 2818.83
   09:23:51.270.18-Jan-2020 3746.01 3686.40 80.92 3.00 419.47 2818.83
   09:23:51.470.18-Jan-2020 3746.01 3686.18 80.92 3.00 419.67 2818.83
   09:23:51.670.18-Jan-2020 3746.01 3686.68 80.92 3.00 419.87 2818.83
   09:23:51.870.18-Jan-2020 3746.01 3686.38 80.92 3.00 420.07 2818.83
   09:23:52.070.18-Jan-2020 3746.01 3686.38 80.92 3.00 420.27 2818.83
   09:23:52.270.18-Jan-2020 3746.01 3686.23 80.92 3.00 420.47 2818.83
   09:23:52.470.18-Jan-2020 3746.01 3686.57 80.92 3.00 420.67 2818.83
   09:23:52.670.18-Jan-2020 3746.01 3686.35 80.92 3.00 420.87 2818.83
   09:23:52.870.18-Jan-2020 3746.01 3686.23 80.92 3.00 421.07 2818.83
   09:23:53.070.18-Jan-2020 3746.01 3686.23 80.92 3.00 421.27 2818.83
   09:23:53.270.18-Jan-2020 3746.01 3686.31 80.92 3.00 421.47 2818.83
   09:23:53.470.18-Jan-2020 3746.01 3686.29 80.92 3.00 421.67 2818.83
   09:23:53.670.18-Jan-2020 3746.01 3686.25 80.92 3.00 421.87 2818.83
   09:23:53.871.18-Jan-2020 3746.01 3686.47 80.92 3.00 422.07 2818.83
   09:23:54.071.18-Jan-2020 3746.01 3686.47 80.92 3.00 422.27 2818.83
   09:23:54.271.18-Jan-2020 3746.01 3686.24 80.92 3.00 422.47 2818.83
   09:23:54.471.18-Jan-2020 3746.01 3686.41 80.92 3.00 422.67 2818.83
   09:23:54.671.18-Jan-2020 3746.01 3686.52 80.92 3.00 422.87 2818.83
   09:23:54.871.18-Jan-2020 3746.01 3686.54 80.92 3.00 423.07 2818.83
   09:23:55.071.18-Jan-2020 3746.01 3686.54 80.92 3.00 423.27 2818.83
   09:23:55.271.18-Jan-2020 3746.01 3686.50 80.92 3.00 423.47 2818.83
   09:23:55.471.18-Jan-2020 3746.01 3686.23 80.92 3.00 423.67 2818.83
   09:23:55.671.18-Jan-2020 3746.01 3686.40 80.92 3.00 423.87 2818.83
   09:23:55.871.18-Jan-2020 3746.01 3686.25 80.92 3.00 424.07 2818.83
   09:23:56.071.18-Jan-2020 3746.01 3686.25 80.92 3.00 424.27 2818.83
   09:23:56.271.18-Jan-2020 3746.01 3686.32 80.91 3.00 424.47 2818.83
   09:23:56.471.18-Jan-2020 3746.01 3686.45 80.91 3.00 424.67 2818.83
   09:23:56.671.18-Jan-2020 3746.01 3686.33 80.91 3.00 424.87 2818.83
   09:23:56.871.18-Jan-2020 3746.01 3686.35 80.91 3.00 425.07 2818.83
   09:23:57.071.18-Jan-2020 3746.01 3686.35 80.91 3.00 425.27 2818.83
   09:23:57.271.18-Jan-2020 3746.01 3686.26 80.91 3.00 425.47 2818.83
   09:23:57.471.18-Jan-2020 3746.01 3686.29 80.91 3.00 425.67 2818.83
   09:23:57.671.18-Jan-2020 3746.01 3686.37 80.91 3.00 425.87 2818.83
   09:23:57.871.18-Jan-2020 3746.01 3686.34 80.91 3.00 426.07 2818.83
   09:23:58.071.18-Jan-2020 3746.01 3686.34 80.91 3.00 426.27 2818.83
   09:23:58.271.18-Jan-2020 3746.01 3686.46 80.91 3.00 426.47 2818.83
   09:23:58.471.18-Jan-2020 3746.01 3686.38 80.91 3.00 426.67 2818.83
   09:23:58.671.18-Jan-2020 3746.01 3686.37 80.91 3.00 426.87 2818.83
   09:23:58.871.18-Jan-2020 3746.01 3686.37 80.91 3.00 427.07 2818.83
   09:23:59.071.18-Jan-2020 3746.01 3686.37 80.91 3.00 427.27 2818.83
   09:23:59.271.18-Jan-2020 3746.01 3686.09 80.91 3.00 427.47 2818.83
   09:23:59.471.18-Jan-2020 3746.01 3686.41 80.91 3.00 427.67 2818.83
   09:23:59.671.18-Jan-2020 3746.01 3686.28 80.91 3.00 427.87 2818.83
   09:23:59.872.18-Jan-2020 3746.01 3686.33 80.91 3.00 428.07 2818.83
   09:24:00.072.18-Jan-2020 3746.01 3686.33 80.91 3.00 428.27 2818.83
   09:24:00.272.18-Jan-2020 3746.01 3686.29 80.91 3.00 428.47 2818.83
   09:24:00.472.18-Jan-2020 3746.01 3686.30 80.91 3.00 428.67 2818.83
   09:24:00.672.18-Jan-2020 3746.01 3686.29 80.91 3.00 428.87 2818.83
   09:24:00.872.18-Jan-2020 3746.01 3686.50 80.91 3.00 429.07 2818.83
   09:24:01.072.18-Jan-2020 3746.01 3686.50 80.91 3.00 429.27 2818.83
   09:24:01.272.18-Jan-2020 3746.01 3686.37 80.91 3.00 429.47 2818.83
   09:24:01.472.18-Jan-2020 3746.01 3686.48 80.91 3.00 429.67 2818.83
   09:24:01.672.18-Jan-2020 3746.01 3686.43 80.91 3.00 429.87 2818.83
   09:24:01.872.18-Jan-2020 3746.01 3686.15 80.91 3.00 430.07 2818.83
   09:24:02.072.18-Jan-2020 3746.01 3686.15 80.91 3.00 430.27 2818.83
   09:24:02.272.18-Jan-2020 3746.01 3686.32 80.90 3.00 430.47 2818.83
   09:24:02.472.18-Jan-2020 3746.01 3686.44 80.90 3.00 430.67 2818.83
   09:24:02.672.18-Jan-2020 3746.01 3686.60 80.90 3.00 430.87 2818.83
   09:24:02.872.18-Jan-2020 3746.01 3686.10 80.90 3.00 431.07 2818.83
   09:24:03.072.18-Jan-2020 3746.01 3686.10 80.90 3.00 431.27 2818.83
   09:24:03.272.18-Jan-2020 3746.01 3686.12 80.90 3.00 431.47 2818.83
   09:24:03.472.18-Jan-2020 3746.01 3686.53 80.90 3.00 431.67 2818.83
   09:24:03.672.18-Jan-2020 3746.01 3686.31 80.90 3.00 431.87 2818.83
   09:24:03.872.18-Jan-2020 3746.01 3686.43 80.90 3.00 432.07 2818.83
   09:24:04.072.18-Jan-2020 3746.01 3686.43 80.90 3.00 432.27 2818.83
   09:24:04.272.18-Jan-2020 3746.01 3686.57 80.90 3.00 432.47 2818.83
   09:24:04.472.18-Jan-2020 3746.01 3686.35 80.90 3.00 432.67 2818.83
   09:24:04.672.18-Jan-2020 3746.01 3686.24 80.90 3.00 432.87 2818.83
   09:24:04.872.18-Jan-2020 3746.01 3686.33 80.90 3.00 433.07 2818.83
   09:24:05.072.18-Jan-2020 3746.01 3686.33 80.90 3.00 433.27 2818.83
   09:24:05.272.18-Jan-2020 3746.01 3686.42 80.90 3.00 433.47 2818.83
   09:24:05.472.18-Jan-2020 3746.01 3686.35 80.90 3.00 433.67 2818.83
   09:24:05.673.18-Jan-2020 3746.01 3686.43 80.90 3.00 433.87 2818.83
   09:24:05.873.18-Jan-2020 3746.01 3686.18 80.90 3.00 434.07 2818.83
   09:24:06.073.18-Jan-2020 3746.01 3686.18 80.90 3.00 434.27 2818.83
   09:24:06.273.18-Jan-2020 3746.01 3686.17 80.90 3.00 434.47 2818.83
   09:24:06.473.18-Jan-2020 3746.01 3686.41 80.90 3.00 434.67 2818.83
   09:24:06.673.18-Jan-2020 3746.01 3686.31 80.90 3.00 434.87 2818.83
   09:24:06.873.18-Jan-2020 3746.01 3686.33 80.90 3.00 435.07 2818.83
   09:24:07.073.18-Jan-2020 3746.01 3686.33 80.90 3.00 435.27 2818.83
   09:24:07.273.18-Jan-2020 3746.01 3686.59 80.90 3.00 435.47 2818.83
   09:24:07.473.18-Jan-2020 3746.01 3686.48 80.90 3.00 435.67 2818.83
   09:24:07.673.18-Jan-2020 3746.01 3686.24 80.90 3.00 435.87 2818.83
   09:24:07.873.18-Jan-2020 3746.01 3686.28 80.89 3.00 436.07 2818.83
   09:24:08.073.18-Jan-2020 3746.01 3686.28 80.89 3.00 436.27 2818.83
   09:24:08.273.18-Jan-2020 3746.01 3686.29 80.89 3.00 436.47 2818.83
   09:24:08.473.18-Jan-2020 3746.01 3686.27 80.89 3.00 436.67 2818.83
   09:24:08.673.18-Jan-2020 3746.01 3686.42 80.89 3.00 436.87 2818.83
