~Version Information
 VERS.                  2.0:   CWLS log ASCII Standard -VERSION 2.0
 WRAP.                   NO:   One line per depth step
~Well Information Block
#MNEM.UNIT     VALUE/NAME     DESCRIPTION
#---------     -----------    ---------------------------
 STRT.S             09:16:51 18-Jan-20: START TIME 09:16:51 18-Jan-20
 STOP.S             09:25:06 18-Jan-20: STOP TIME  09:25:06 18-Jan-20
 STEP.S                   0.00: STEP TIME
 NULL.                 -999.25: NULL VALUE
 DFWT.                        :  DIST FWL TEXT
 DFST.                        :  DIST FSL TEXT
 DMF .             Drill Floor:  DRILL MEAS FROM
 STIM.      09.30.00 26-Dec-19:  START TIME
 DATE.      08.00.00 20-Jan-20:  END TIME
 SPUD.               23-Nov-19:  SPUD DATE
 NREF.                    Grid:  NORTH REFERENCE
 HPTY.       Minimum Curvature:  HOLE POS TYPE
 DMOD.             Drill Model:  DRILL MOD DESC
 SVYD.                  Survey:  SURVEY DESC
 ILTD.               Lithology:  INTERP LTH DESC
 FTOP.          Formation Tops:  FORM TOPS DESC
 SON .        AZ-XX-0906192647:  JOB NUMBER
 WTYP.                Deviated:  WELL TYPE
 COMP.     BP Exploration (Caspian Sea) Ltd:  COMPANY
 BASE.              Azerbaijan:  LOGGING EQUIPMENT BASE LOCATION
 REGN.                 Eurasia:  REGION
 FLD .                     ACG:  FIELD NAME
 SRVC.              KCA Deutag:  CONTRACTOR
 MWDS.                    Baku:  MWD SHOP
 WELL.     A10 (Slot 20) - SCP:  WELL NAME
 JOBN.        AZ-XX-0906192647:  JOB TICKET NUMB
 RIG .                 Chirag1:  RIG NAME
 DCON.     Halliburton Sperry Drilling:  DIRECTNL CONTR
 UNIT.                     N/A:  LOGGING EQUIPMENT ID
 PDAT.          Mean Sea Level:  PERMANENT DATUM
 MDS .        Operator Entered:  MAG DATA SOURCE
 CTRY.              Azerbaijan:  COUNTRY NAME
 UWI .            /AZE00000090:  UNIQUE WELL IDENTIFIER
 API .            /AZE00000090:  API NUMBER
 CNTY.                        :  COUNTY
 PROV.                        :  PROVINCE
 STAT.                        :  STATE
 LOC .                        :  LOCATION
 LMF .             Drill Floor:  LOG MEASURED FROM
 TVDS.m                  36.60:  TVDSS CORRECTN
 LATI.deg                40.08:  LATITUDE
 LONG.deg                51.24:  LONGITUDE
 WHNS.m                  -7.94:  WELL HEAD N/S
 WHEW.m                   1.56:  WELL HEAD E/W
 UTMX.m              520429.26:  UTM X
 UTMY.m             4438973.87:  UTM Y
 DFWL.m                   0.00:  DISTANCE FWL
 DFSL.m                   0.00:  DISTANCE FSL
 SDEP.m                1455.00:  START DEPTH
 TDD .m                3878.01:  TOTAL DEPTH (DRILLER)
 VSDR.deg               112.75:  VERT SEC DIRECT
 GVFD.g                   1.00:  GRAVITY FIELD
 MFLD.nT              50256.00:  MAGNETIC FIELD
 MDIP.deg                59.52:  MAGNETIC DIP
 MDEC.deg                 6.43:  MAGNETIC DECL
 GRDC.deg                 0.16:  GRID CORRECTION
 AZTC.deg                 6.27:  AZM TOTAL CORR
 EPD .m                   0.00:  ELEVATION
 EGL .m                   0.00:  GROUND ELEVATION
 WDMS.m                 121.00:  WD ELEV
 APD .m                  36.60:  DEPTH ABOVE PD
 AGAP.m                  36.60:  AIR GAP
 VSEW.m                   1.56:  VERT SEC E/W
 VSNS.m                  -7.94:  VERT SEC N/S
 DEP .m                1140.01:  DEPTH
 EKB .m                  36.60:  KB ELEVATION
 EDF .m                  36.60:  DF ELEVATION
 TDL .m                1293.00:  TOTAL DEPTH (LOGGER)
 VSC .                       0:  VS TO CLOSURE
 MAGU.                 1849164:  MAGUTM CHECKSUM
~Parameter Information Block
#MNEM.UNIT       Value        Description
#---------     -----------    ---------------------------
 AV  .mps                 2.40:  Ann Velocity 
 AVMX.mps                 2.55:  Max Ann Veloc 
 AZIF.deg               134.35:  Azm, Final 
 BHAT.        Rotary Steerable:  BHA Type 
 BREV.rev               847.00:  Rev Bit Total 
 BROT.°/30m              -2.51:  Build Rotating 
 BS  .in                  8.50:  Bit Size 
 BSZ .in                  8.50:  Bit Size 
 BTPL.psig              700.00:  Bit Press Loss 
 CABU.                     Yes:  Customer Abuse 
 CGEO.          Ilgar Gurbanov:  Customer Geo 
 COMM.                     Áo:  Run Comments 1 
 TCS .hr                140.40:  Time Ciculation Ended 
 CV  .mps                 2.27:  Crit Velocity 
 CVMX.mps                 2.45:  Max Crit Veloc 
 DD1 .         Intigam Rahimov:  Direct Drillr 1 
 DD2 .         Rasim Ibrahimov:  Direct Drillr 2 
 DDSV.                 iCruise:  DD Service 
 DEFF.%                  99.00:  % Det Eff 
 DLRX.°/30m               3.28:  Dogleg Rot Max 
 DLSO.°/30m               0.00:  Dogleg Oriented 
 DLSX.°/30m               0.00:  Dogleg Str Max 
 DRET.      23.30.00 18-Jan-20:  Drill End Time 
 DRST.      01.45.00 11-Jan-20:  Drill Start Tim 
 DTIM.hr                 94.00:  Time Drilling 
 EDEP.m                3878.01:  End Depth 
 ENG1.       Dauren Baktybayev:  Engineer 1 
 ENG2.      Natik Hasanaghayev:  Engineer 2 
 ENG3.          Rustam Safarov:  Engineer 3 
 ETIM.      08.00.00 20-Jan-20:  End Time 
 FLOI.gpm               532.00:  Flow In 
 FLON.gpm               500.00:  Flow In Min 
 FLOS.cptm                0.00:  Fluid Loss 
 FLOX.gpm               540.00:  Flow In Max 
 FTRO.       Formation Presure:  FTWD Run Obj 
 HPRE.                     Yes:  High Pressure 
 HTEM.                      No:  High Temp 
 HYDO.m                   1.80:  Hydro Offset 
 IFIN.deg                39.86:  Inc, Final 
 IMAX.deg                59.73:  Inc Max 
 IMIN.deg                39.25:  Inc Min 
 IMND.m                3816.77:  Inc Min Depth 
 IMXD.m                2596.33:  Inc Max Depth 
 JARR.                      No:  Jarring 
 LETM.      23.30.00 18-Jan-20:  Log End Time 
 LOST.hr                     0:  Lost Rig Time 
 LSTM.      01.45.00 11-Jan-20:  Log Start Time 
 MDCL.ppm             41500.00:  Mud Chlorides 
 MDES.     Inversion Oil/Synthetic:  Mud Desc 
 DFD .sg                  1.48:  Mud Density 
 MDMN.sg                  1.48:  Dens Mud Min 
 MDMX.sg                  1.48:  Dens Mud Max 
 MOIL.                      54:  Run Mud Oil % 
 MOWR.                   72:28:  Run Mud OWR 
 MSND.                       0:  Run Mud Sand % 
 MSOL.                      23:  Run Mud Solids% 
 DFV .spqt               86.00:  Mud Viscosity 
 MWOD.in                  6.75:  MWD Tool OD 
 MWSI.                      No:  Serv Intrp, MWD 
 OTIM.hr                223.40:  Time Operating 
 PCON.           Look Like New:  Pad Condition 
 PMAX.psia            32446.79:  Press Op, Max 
 PV  .cP                 49.00:  Mud PV 
 RUN .                     200:  Run Number 
 ROPA.m/hr               12.48:  ROP Avg 
 ROPN.m/hr                8.00:  ROP Min 
 ROPX.m/hr               27.00:  ROP Max 
 RPMA.rpm               121.00:  RPM Surface Avg 
 RPMN.rpm                60.00:  RPM Surface Min 
 RPMX.rpm               140.00:  RPM Surface Max 
 RRUN.                    L202:  Rig Run Number 
 RTIM.hr                  7.25:  Time Reaming 
 SAZI.deg               123.49:  Azm, Start 
 SDEP.m                2585.01:  Start Depth 
 SIDD.                      No:  Serv Intrp, DD 
 SINC.deg                59.93:  Inc, Start 
 SPPA.psig             3539.00:  SPP Avg 
 SPPN.psig             3050.00:  SPP Min 
 SPPX.psig             3950.00:  SPP Max 
 STIM.      19.00.00 10-Jan-20:  Start Time 
 SVCS.                 DD, MWD:  Services 
 SVER.                    9.20:  Sperry Version 
 TDAT.m                1293.00:  Tot Depth Attmp 
 TDDF.                      No:  Trip for DD 
 TDLG.m                1293.00:  Tot Depth Loggd 
 TFF .                      No:  Trip for Fail 
 TQAA.f-kp               16.00:  Torque Abs Avg 
 TQAN.f-kp               11.00:  Torque Abs Min 
 TQAX.f-kp               18.00:  Torque Abs Max 
 TRRT.°/30m               1.25:  Turn Rotating 
 MRT .                  EWR-M5:  Maximum Recorded Temperature 
 TTMX.degC               84.00:  Max Tool Temp 
 VS01.          AZ90514619R5C6:  Virtual Str1 SN 
 VS02.        AZ90552592N2L2C6:  Virtual Str2 SN 
 VS03.        AZ90571337Z1W1C6:  Virtual Str3 SN 
 VS04.         AZ90513690K23C6:  Virtual Str4 SN 
 VS05.           AZ90594857F11:  Virtual Str5 SN 
 VS06.                13102166:  Virtual Str6 SN 
 WBMN.klb                 7.00:  WOB Min 
 WITN.            Peter Wilson:  Customer Rep 
 WOBA.klb                 9.95:  WOB Avg 
 WOBX.klb                10.00:  WOB Max 
 YP  .lhf2               36.00:  Yield Point 
~Curve Information Block
#MNEM.UNIT                 API CODE     Curve Description
#---------               -----------    ---------------------------
 TIME.HHMMSS            00 000 000 000:  GT Time & Date
 GTDEPTH.m              00 000 000 000:  GT Depth
 GTPQH.psia             00 000 000 000:  GT HR Quartz Pressure
 GTTQ.degC              00 000 000 000:  GT Quartz Temperature
 GTTN.NONE              00 000 000 000:  GT Test Number
 GTET.sec               00 000 000 000:  GT Elapsed Test Time
 GTTVD.m                00 000 000 000:  GT True Vertical Depth
#Other Information
#
#WARRANTY: Halliburton will use its best efforts to furnish customers with 
#accurate information and interpretations that are part of, and incident to, the services 
#provided.  However, Halliburton cannot and does not warrant the accuracy 
#or correctness of such information and interpretations.  Under no circumstances should any 
#such information or interpretation be relied upon as the sole basis for any drilling, 
#completion, production, or financial decision or any procedure involving any risk to the 
#safety of any drilling venture, drilling rig or its crew or any other third party.  The 
#Customer has full responsibility for all drilling, completion and production operation.  
#Halliburton makes no representations or warranties, either expressed or 
#implied, including, but not limited to, the implied warranties of merchantability or fitness 
#for a particular purpose, with respect to the services rendered.  In no event will 
#Halliburton be liable for failure to obtain any particular results or for 
#any damages, including, but not limited to, indirect, special or consequential damages, 
#resulting from the use of any information or interpretation provided by Halliburton.
#
~A           TIME           GTDEPTH  GTPQH  GTTQ  GTTN  GTET   GTTVD  
# ...
   09:19:09.822.18-Jan-2020 3746.01 3686.39 81.43 3.00 138.02 2818.83
   09:19:10.022.18-Jan-2020 3746.01 3686.39 81.43 3.00 138.22 2818.83
   09:19:10.222.18-Jan-2020 3746.01 3686.29 81.43 3.00 138.42 2818.83
   09:19:10.422.18-Jan-2020 3746.01 3686.29 81.43 3.00 138.62 2818.83
   09:19:10.622.18-Jan-2020 3746.01 3686.41 81.43 3.00 138.82 2818.83
   09:19:10.822.18-Jan-2020 3746.01 3686.43 81.43 3.00 139.02 2818.83
   09:19:11.022.18-Jan-2020 3746.01 3686.43 81.43 3.00 139.22 2818.83
   09:19:11.222.18-Jan-2020 3746.01 3686.32 81.43 3.00 139.42 2818.83
   09:19:11.422.18-Jan-2020 3746.01 3686.34 81.43 3.00 139.62 2818.83
   09:19:11.622.18-Jan-2020 3746.01 3686.29 81.43 3.00 139.82 2818.83
   09:19:11.823.18-Jan-2020 3746.01 3686.50 81.43 3.00 140.02 2818.83
   09:19:12.023.18-Jan-2020 3746.01 3686.50 81.43 3.00 140.22 2818.83
   09:19:12.223.18-Jan-2020 3746.01 3686.27 81.43 3.00 140.42 2818.83
   09:19:12.423.18-Jan-2020 3746.01 3686.28 81.43 3.00 140.62 2818.83
   09:19:12.623.18-Jan-2020 3746.01 3686.58 81.43 3.00 140.82 2818.83
   09:19:12.823.18-Jan-2020 3746.01 3686.41 81.43 3.00 141.02 2818.83
   09:19:13.023.18-Jan-2020 3746.01 3686.41 81.43 3.00 141.22 2818.83
   09:19:13.223.18-Jan-2020 3746.01 3686.20 81.43 3.00 141.42 2818.83
   09:19:13.423.18-Jan-2020 3746.01 3686.37 81.43 3.00 141.62 2818.83
   09:19:13.623.18-Jan-2020 3746.01 3686.32 81.43 3.00 141.82 2818.83
   09:19:13.823.18-Jan-2020 3746.01 3686.35 81.42 3.00 142.02 2818.83
   09:19:14.023.18-Jan-2020 3746.01 3686.35 81.42 3.00 142.22 2818.83
   09:19:14.223.18-Jan-2020 3746.01 3686.24 81.42 3.00 142.42 2818.83
   09:19:14.423.18-Jan-2020 3746.01 3686.44 81.42 3.00 142.62 2818.83
   09:19:14.623.18-Jan-2020 3746.01 3686.19 81.42 3.00 142.82 2818.83
   09:19:14.823.18-Jan-2020 3746.01 3686.50 81.42 3.00 143.02 2818.83
   09:19:15.023.18-Jan-2020 3746.01 3686.50 81.42 3.00 143.22 2818.83
   09:19:15.223.18-Jan-2020 3746.01 3686.36 81.42 3.00 143.42 2818.83
   09:19:15.423.18-Jan-2020 3746.01 3686.55 81.42 3.00 143.62 2818.83
   09:19:15.623.18-Jan-2020 3746.01 3686.56 81.42 3.00 143.82 2818.83
   09:19:15.823.18-Jan-2020 3746.01 3686.52 81.42 3.00 144.02 2818.83
   09:19:16.023.18-Jan-2020 3746.01 3686.52 81.42 3.00 144.22 2818.83
   09:19:16.223.18-Jan-2020 3746.01 3686.53 81.42 3.00 144.42 2818.83
   09:19:16.423.18-Jan-2020 3746.01 3686.15 81.42 3.00 144.62 2818.83
   09:19:16.623.18-Jan-2020 3746.01 3686.40 81.42 3.00 144.82 2818.83
   09:19:16.823.18-Jan-2020 3746.01 3686.56 81.42 3.00 145.02 2818.83
   09:19:17.023.18-Jan-2020 3746.01 3686.56 81.42 3.00 145.22 2818.83
   09:19:17.223.18-Jan-2020 3746.01 3686.19 81.42 3.00 145.42 2818.83
   09:19:17.423.18-Jan-2020 3746.01 3686.21 81.42 3.00 145.62 2818.83
   09:19:17.623.18-Jan-2020 3746.01 3686.52 81.42 3.00 145.82 2818.83
   09:19:17.824.18-Jan-2020 3746.01 3686.38 81.42 3.00 146.02 2818.83
   09:19:18.024.18-Jan-2020 3746.01 3686.38 81.42 3.00 146.22 2818.83
   09:19:18.224.18-Jan-2020 3746.01 3686.37 81.42 3.00 146.42 2818.83
   09:19:18.424.18-Jan-2020 3746.01 3686.68 81.42 3.00 146.62 2818.83
   09:19:18.624.18-Jan-2020 3746.01 3686.25 81.42 3.00 146.82 2818.83
   09:19:18.824.18-Jan-2020 3746.01 3686.46 81.42 3.00 147.03 2818.83
   09:19:19.024.18-Jan-2020 3746.01 3686.46 81.42 3.00 147.23 2818.83
   09:19:19.224.18-Jan-2020 3746.01 3686.39 81.41 3.00 147.43 2818.83
   09:19:19.424.18-Jan-2020 3746.01 3686.27 81.41 3.00 147.63 2818.83
   09:19:19.624.18-Jan-2020 3746.01 3686.52 81.41 3.00 147.83 2818.83
   09:19:19.824.18-Jan-2020 3746.01 3686.32 81.41 3.00 148.03 2818.83
   09:19:20.024.18-Jan-2020 3746.01 3686.32 81.41 3.00 148.23 2818.83
   09:19:20.224.18-Jan-2020 3746.01 3686.26 81.41 3.00 148.43 2818.83
   09:19:20.424.18-Jan-2020 3746.01 3686.32 81.41 3.00 148.63 2818.83
   09:19:20.624.18-Jan-2020 3746.01 3686.33 81.41 3.00 148.83 2818.83
   09:19:20.824.18-Jan-2020 3746.01 3686.44 81.41 3.00 149.03 2818.83
   09:19:21.024.18-Jan-2020 3746.01 3686.44 81.41 3.00 149.23 2818.83
   09:19:21.224.18-Jan-2020 3746.01 3686.28 81.41 3.00 149.43 2818.83
   09:19:21.424.18-Jan-2020 3746.01 3686.52 81.41 3.00 149.63 2818.83
   09:19:21.624.18-Jan-2020 3746.01 3686.59 81.41 3.00 149.83 2818.83
   09:19:21.824.18-Jan-2020 3746.01 3686.26 81.41 3.00 150.03 2818.83
   09:19:22.024.18-Jan-2020 3746.01 3686.26 81.41 3.00 150.23 2818.83
   09:19:22.224.18-Jan-2020 3746.01 3686.26 81.41 3.00 150.43 2818.83
   09:19:22.424.18-Jan-2020 3746.01 3686.24 81.41 3.00 150.63 2818.83
   09:19:22.624.18-Jan-2020 3746.01 3686.44 81.41 3.00 150.83 2818.83
   09:19:22.824.18-Jan-2020 3746.01 3686.34 81.41 3.00 151.03 2818.83
   09:19:23.024.18-Jan-2020 3746.01 3686.34 81.41 3.00 151.23 2818.83
   09:19:23.224.18-Jan-2020 3746.01 3686.27 81.41 3.00 151.43 2818.83
   09:19:23.424.18-Jan-2020 3746.01 3686.38 81.41 3.00 151.63 2818.83
   09:19:23.625.18-Jan-2020 3746.01 3686.33 81.41 3.00 151.83 2818.83
   09:19:23.825.18-Jan-2020 3746.01 3686.45 81.41 3.00 152.03 2818.83
   09:19:24.025.18-Jan-2020 3746.01 3686.45 81.41 3.00 152.23 2818.83
   09:19:24.225.18-Jan-2020 3746.01 3686.21 81.40 3.00 152.43 2818.83
   09:19:24.425.18-Jan-2020 3746.01 3686.34 81.40 3.00 152.63 2818.83
   09:19:24.625.18-Jan-2020 3746.01 3686.42 81.40 3.00 152.83 2818.83
   09:19:24.825.18-Jan-2020 3746.01 3686.51 81.40 3.00 153.03 2818.83
   09:19:25.025.18-Jan-2020 3746.01 3686.51 81.40 3.00 153.23 2818.83
   09:19:25.225.18-Jan-2020 3746.01 3686.47 81.40 3.00 153.43 2818.83
   09:19:25.425.18-Jan-2020 3746.01 3686.35 81.40 3.00 153.63 2818.83
   09:19:25.625.18-Jan-2020 3746.01 3686.26 81.40 3.00 153.83 2818.83
   09:19:25.825.18-Jan-2020 3746.01 3686.37 81.40 3.00 154.03 2818.83
   09:19:26.025.18-Jan-2020 3746.01 3686.37 81.40 3.00 154.23 2818.83
   09:19:26.225.18-Jan-2020 3746.01 3686.60 81.40 3.00 154.43 2818.83
   09:19:26.425.18-Jan-2020 3746.01 3686.14 81.40 3.00 154.63 2818.83
   09:19:26.625.18-Jan-2020 3746.01 3686.57 81.40 3.00 154.83 2818.83
   09:19:26.825.18-Jan-2020 3746.01 3686.33 81.40 3.00 155.03 2818.83
   09:19:27.025.18-Jan-2020 3746.01 3686.33 81.40 3.00 155.23 2818.83
   09:19:27.225.18-Jan-2020 3746.01 3686.10 81.40 3.00 155.43 2818.83
   09:19:27.425.18-Jan-2020 3746.01 3686.54 81.40 3.00 155.63 2818.83
   09:19:27.625.18-Jan-2020 3746.01 3686.18 81.40 3.00 155.83 2818.83
   09:19:27.825.18-Jan-2020 3746.01 3686.36 81.40 3.00 156.03 2818.83
   09:19:28.025.18-Jan-2020 3746.01 3686.36 81.40 3.00 156.23 2818.83
   09:19:28.225.18-Jan-2020 3746.01 3686.32 81.40 3.00 156.43 2818.83
   09:19:28.425.18-Jan-2020 3746.01 3686.45 81.40 3.00 156.63 2818.83
   09:19:28.625.18-Jan-2020 3746.01 3686.40 81.40 3.00 156.83 2818.83
   09:19:28.825.18-Jan-2020 3746.01 3686.43 81.40 3.00 157.03 2818.83
   09:19:29.025.18-Jan-2020 3746.01 3686.43 81.40 3.00 157.23 2818.83
   09:19:29.225.18-Jan-2020 3746.01 3686.39 81.40 3.00 157.43 2818.83
   09:19:29.426.18-Jan-2020 3746.01 3686.20 81.39 3.00 157.63 2818.83
   09:19:29.626.18-Jan-2020 3746.01 3686.45 81.39 3.00 157.83 2818.83
   09:19:29.826.18-Jan-2020 3746.01 3686.37 81.39 3.00 158.03 2818.83
   09:19:30.026.18-Jan-2020 3746.01 3686.37 81.39 3.00 158.23 2818.83
   09:19:30.226.18-Jan-2020 3746.01 3686.31 81.39 3.00 158.43 2818.83
   09:19:30.426.18-Jan-2020 3746.01 3686.57 81.39 3.00 158.63 2818.83
   09:19:30.626.18-Jan-2020 3746.01 3686.50 81.39 3.00 158.83 2818.83
   09:19:30.826.18-Jan-2020 3746.01 3686.27 81.39 3.00 159.03 2818.83
   09:19:31.026.18-Jan-2020 3746.01 3686.27 81.39 3.00 159.23 2818.83
   09:19:31.226.18-Jan-2020 3746.01 3686.33 81.39 3.00 159.43 2818.83
   09:19:31.426.18-Jan-2020 3746.01 3686.25 81.39 3.00 159.63 2818.83
   09:19:31.626.18-Jan-2020 3746.01 3686.35 81.39 3.00 159.83 2818.83
   09:19:31.826.18-Jan-2020 3746.01 3686.43 81.39 3.00 160.03 2818.83
   09:19:32.026.18-Jan-2020 3746.01 3686.43 81.39 3.00 160.23 2818.83
   09:19:32.226.18-Jan-2020 3746.01 3686.29 81.39 3.00 160.43 2818.83
   09:19:32.426.18-Jan-2020 3746.01 3686.31 81.39 3.00 160.63 2818.83
   09:19:32.626.18-Jan-2020 3746.01 3686.36 81.39 3.00 160.83 2818.83
