~Version Information
 VERS.                  2.0:   CWLS log ASCII Standard -VERSION 2.0
 WRAP.                   NO:   One line per depth step
~Well Information Block
#MNEM.UNIT     VALUE/NAME     DESCRIPTION
#---------     -----------    ---------------------------
 STRT.S             13:51:43 18-Jan-20: START TIME 13:51:43 18-Jan-20
 STOP.S             13:59:59 18-Jan-20: STOP TIME  13:59:59 18-Jan-20
 STEP.S                   0.00: STEP TIME
 NULL.                 -999.25: NULL VALUE
 DFWT.                        :  DIST FWL TEXT
 DFST.                        :  DIST FSL TEXT
 DMF .             Drill Floor:  DRILL MEAS FROM
 STIM.      09.30.00 26-Dec-19:  START TIME
 DATE.      08.00.00 20-Jan-20:  END TIME
 SPUD.               23-Nov-19:  SPUD DATE
 NREF.                    Grid:  NORTH REFERENCE
 HPTY.       Minimum Curvature:  HOLE POS TYPE
 DMOD.             Drill Model:  DRILL MOD DESC
 SVYD.                  Survey:  SURVEY DESC
 ILTD.               Lithology:  INTERP LTH DESC
 FTOP.          Formation Tops:  FORM TOPS DESC
 SON .        AZ-XX-0906192647:  JOB NUMBER
 WTYP.                Deviated:  WELL TYPE
 COMP.     BP Exploration (Caspian Sea) Ltd:  COMPANY
 BASE.              Azerbaijan:  LOGGING EQUIPMENT BASE LOCATION
 REGN.                 Eurasia:  REGION
 FLD .                     ACG:  FIELD NAME
 SRVC.              KCA Deutag:  CONTRACTOR
 MWDS.                    Baku:  MWD SHOP
 WELL.     A10 (Slot 20) - SCP:  WELL NAME
 JOBN.        AZ-XX-0906192647:  JOB TICKET NUMB
 RIG .                 Chirag1:  RIG NAME
 DCON.     Halliburton Sperry Drilling:  DIRECTNL CONTR
 UNIT.                     N/A:  LOGGING EQUIPMENT ID
 PDAT.          Mean Sea Level:  PERMANENT DATUM
 MDS .        Operator Entered:  MAG DATA SOURCE
 CTRY.              Azerbaijan:  COUNTRY NAME
 UWI .            /AZE00000090:  UNIQUE WELL IDENTIFIER
 API .            /AZE00000090:  API NUMBER
 CNTY.                        :  COUNTY
 PROV.                        :  PROVINCE
 STAT.                        :  STATE
 LOC .                        :  LOCATION
 LMF .             Drill Floor:  LOG MEASURED FROM
 TVDS.m                  36.60:  TVDSS CORRECTN
 LATI.deg                40.08:  LATITUDE
 LONG.deg                51.24:  LONGITUDE
 WHNS.m                  -7.94:  WELL HEAD N/S
 WHEW.m                   1.56:  WELL HEAD E/W
 UTMX.m              520429.26:  UTM X
 UTMY.m             4438973.87:  UTM Y
 DFWL.m                   0.00:  DISTANCE FWL
 DFSL.m                   0.00:  DISTANCE FSL
 SDEP.m                1455.00:  START DEPTH
 TDD .m                3878.01:  TOTAL DEPTH (DRILLER)
 VSDR.deg               112.75:  VERT SEC DIRECT
 GVFD.g                   1.00:  GRAVITY FIELD
 MFLD.nT              50256.00:  MAGNETIC FIELD
 MDIP.deg                59.52:  MAGNETIC DIP
 MDEC.deg                 6.43:  MAGNETIC DECL
 GRDC.deg                 0.16:  GRID CORRECTION
 AZTC.deg                 6.27:  AZM TOTAL CORR
 EPD .m                   0.00:  ELEVATION
 EGL .m                   0.00:  GROUND ELEVATION
 WDMS.m                 121.00:  WD ELEV
 APD .m                  36.60:  DEPTH ABOVE PD
 AGAP.m                  36.60:  AIR GAP
 VSEW.m                   1.56:  VERT SEC E/W
 VSNS.m                  -7.94:  VERT SEC N/S
 DEP .m                1140.01:  DEPTH
 EKB .m                  36.60:  KB ELEVATION
 EDF .m                  36.60:  DF ELEVATION
 TDL .m                1293.00:  TOTAL DEPTH (LOGGER)
 VSC .                       0:  VS TO CLOSURE
 MAGU.                 1849164:  MAGUTM CHECKSUM
~Parameter Information Block
#MNEM.UNIT       Value        Description
#---------     -----------    ---------------------------
 AV  .mps                 2.40:  Ann Velocity 
 AVMX.mps                 2.55:  Max Ann Veloc 
 AZIF.deg               134.35:  Azm, Final 
 BHAT.        Rotary Steerable:  BHA Type 
 BREV.rev               847.00:  Rev Bit Total 
 BROT.°/30m              -2.51:  Build Rotating 
 BS  .in                  8.50:  Bit Size 
 BSZ .in                  8.50:  Bit Size 
 BTPL.psig              700.00:  Bit Press Loss 
 CABU.                     Yes:  Customer Abuse 
 CGEO.          Ilgar Gurbanov:  Customer Geo 
 COMM.                     üÓ~:  Run Comments 1 
 TCS .hr                140.40:  Time Ciculation Ended 
 CV  .mps                 2.27:  Crit Velocity 
 CVMX.mps                 2.45:  Max Crit Veloc 
 DD1 .         Intigam Rahimov:  Direct Drillr 1 
 DD2 .         Rasim Ibrahimov:  Direct Drillr 2 
 DDSV.                 iCruise:  DD Service 
 DEFF.%                  99.00:  % Det Eff 
 DLRX.°/30m               3.28:  Dogleg Rot Max 
 DLSO.°/30m               0.00:  Dogleg Oriented 
 DLSX.°/30m               0.00:  Dogleg Str Max 
 DRET.      23.30.00 18-Jan-20:  Drill End Time 
 DRST.      01.45.00 11-Jan-20:  Drill Start Tim 
 DTIM.hr                 94.00:  Time Drilling 
 EDEP.m                3878.01:  End Depth 
 ENG1.       Dauren Baktybayev:  Engineer 1 
 ENG2.      Natik Hasanaghayev:  Engineer 2 
 ENG3.          Rustam Safarov:  Engineer 3 
 ETIM.      08.00.00 20-Jan-20:  End Time 
 FLOI.gpm               532.00:  Flow In 
 FLON.gpm               500.00:  Flow In Min 
 FLOS.cptm                0.00:  Fluid Loss 
 FLOX.gpm               540.00:  Flow In Max 
 FTRO.       Formation Presure:  FTWD Run Obj 
 HPRE.                     Yes:  High Pressure 
 HTEM.                      No:  High Temp 
 HYDO.m                   1.80:  Hydro Offset 
 IFIN.deg                39.86:  Inc, Final 
 IMAX.deg                59.73:  Inc Max 
 IMIN.deg                39.25:  Inc Min 
 IMND.m                3816.77:  Inc Min Depth 
 IMXD.m                2596.33:  Inc Max Depth 
 JARR.                      No:  Jarring 
 LETM.      23.30.00 18-Jan-20:  Log End Time 
 LOST.hr                     0:  Lost Rig Time 
 LSTM.      01.45.00 11-Jan-20:  Log Start Time 
 MDCL.ppm             41500.00:  Mud Chlorides 
 MDES.     Inversion Oil/Synthetic:  Mud Desc 
 DFD .sg                  1.48:  Mud Density 
 MDMN.sg                  1.48:  Dens Mud Min 
 MDMX.sg                  1.48:  Dens Mud Max 
 MOIL.                      54:  Run Mud Oil % 
 MOWR.                   72:28:  Run Mud OWR 
 MSND.                       0:  Run Mud Sand % 
 MSOL.                      23:  Run Mud Solids% 
 DFV .spqt               86.00:  Mud Viscosity 
 MWOD.in                  6.75:  MWD Tool OD 
 MWSI.                      No:  Serv Intrp, MWD 
 OTIM.hr                223.40:  Time Operating 
 PCON.           Look Like New:  Pad Condition 
 PMAX.psia            32446.79:  Press Op, Max 
 PV  .cP                 49.00:  Mud PV 
 RUN .                     200:  Run Number 
 ROPA.m/hr               12.48:  ROP Avg 
 ROPN.m/hr                8.00:  ROP Min 
 ROPX.m/hr               27.00:  ROP Max 
 RPMA.rpm               121.00:  RPM Surface Avg 
 RPMN.rpm                60.00:  RPM Surface Min 
 RPMX.rpm               140.00:  RPM Surface Max 
 RRUN.                    L202:  Rig Run Number 
 RTIM.hr                  7.25:  Time Reaming 
 SAZI.deg               123.49:  Azm, Start 
 SDEP.m                2585.01:  Start Depth 
 SIDD.                      No:  Serv Intrp, DD 
 SINC.deg                59.93:  Inc, Start 
 SPPA.psig             3539.00:  SPP Avg 
 SPPN.psig             3050.00:  SPP Min 
 SPPX.psig             3950.00:  SPP Max 
 STIM.      19.00.00 10-Jan-20:  Start Time 
 SVCS.                 DD, MWD:  Services 
 SVER.                    9.20:  Sperry Version 
 TDAT.m                1293.00:  Tot Depth Attmp 
 TDDF.                      No:  Trip for DD 
 TDLG.m                1293.00:  Tot Depth Loggd 
 TFF .                      No:  Trip for Fail 
 TQAA.f-kp               16.00:  Torque Abs Avg 
 TQAN.f-kp               11.00:  Torque Abs Min 
 TQAX.f-kp               18.00:  Torque Abs Max 
 TRRT.°/30m               1.25:  Turn Rotating 
 MRT .                  EWR-M5:  Maximum Recorded Temperature 
 TTMX.degC               84.00:  Max Tool Temp 
 VS01.          AZ90514619R5C6:  Virtual Str1 SN 
 VS02.        AZ90552592N2L2C6:  Virtual Str2 SN 
 VS03.        AZ90571337Z1W1C6:  Virtual Str3 SN 
 VS04.         AZ90513690K23C6:  Virtual Str4 SN 
 VS05.           AZ90594857F11:  Virtual Str5 SN 
 VS06.                13102166:  Virtual Str6 SN 
 WBMN.klb                 7.00:  WOB Min 
 WITN.            Peter Wilson:  Customer Rep 
 WOBA.klb                 9.95:  WOB Avg 
 WOBX.klb                10.00:  WOB Max 
 YP  .lhf2               36.00:  Yield Point 
~Curve Information Block
#MNEM.UNIT                 API CODE     Curve Description
#---------               -----------    ---------------------------
 TIME.HHMMSS            00 000 000 000:  GT Time & Date
 GTDEPTH.m              00 000 000 000:  GT Depth
 GTPQH.psia             00 000 000 000:  GT HR Quartz Pressure
 GTTQ.degC              00 000 000 000:  GT Quartz Temperature
 GTTN.NONE              00 000 000 000:  GT Test Number
 GTET.sec               00 000 000 000:  GT Elapsed Test Time
 GTTVD.m                00 000 000 000:  GT True Vertical Depth
#Other Information
#
#WARRANTY: Halliburton will use its best efforts to furnish customers with 
#accurate information and interpretations that are part of, and incident to, the services 
#provided.  However, Halliburton cannot and does not warrant the accuracy 
#or correctness of such information and interpretations.  Under no circumstances should any 
#such information or interpretation be relied upon as the sole basis for any drilling, 
#completion, production, or financial decision or any procedure involving any risk to the 
#safety of any drilling venture, drilling rig or its crew or any other third party.  The 
#Customer has full responsibility for all drilling, completion and production operation.  
#Halliburton makes no representations or warranties, either expressed or 
#implied, including, but not limited to, the implied warranties of merchantability or fitness 
#for a particular purpose, with respect to the services rendered.  In no event will 
#Halliburton be liable for failure to obtain any particular results or for 
#any damages, including, but not limited to, indirect, special or consequential damages, 
#resulting from the use of any information or interpretation provided by Halliburton.
#
~A           TIME           GTDEPTH  GTPQH  GTTQ  GTTN  GTET   GTTVD  
# ...
   13:54:01.575.18-Jan-2020 3754.01 3695.09 79.54 5.00 138.04 2824.94
   13:54:01.775.18-Jan-2020 3754.01 3695.09 79.54 5.00 138.24 2824.94
   13:54:01.975.18-Jan-2020 3754.01 3694.06 79.54 5.00 138.44 2824.94
   13:54:02.175.18-Jan-2020 3754.01 3697.69 79.54 5.00 138.64 2824.94
   13:54:02.375.18-Jan-2020 3754.01 3693.22 79.54 5.00 138.84 2824.94
   13:54:02.575.18-Jan-2020 3754.01 3696.30 79.54 5.00 139.04 2824.94
   13:54:02.775.18-Jan-2020 3754.01 3696.30 79.54 5.00 139.25 2824.94
   13:54:02.975.18-Jan-2020 3754.01 3695.62 79.54 5.00 139.45 2824.94
   13:54:03.175.18-Jan-2020 3754.01 3694.73 79.54 5.00 139.65 2824.94
   13:54:03.375.18-Jan-2020 3754.01 3695.23 79.54 5.00 139.85 2824.94
   13:54:03.575.18-Jan-2020 3754.01 3694.94 79.54 5.00 140.05 2824.94
   13:54:03.775.18-Jan-2020 3754.01 3694.94 79.54 5.00 140.25 2824.94
   13:54:03.975.18-Jan-2020 3754.01 3695.18 79.54 5.00 140.45 2824.94
   13:54:04.175.18-Jan-2020 3754.01 3694.97 79.54 5.00 140.65 2824.94
   13:54:04.375.18-Jan-2020 3754.01 3695.69 79.54 5.00 140.85 2824.94
   13:54:04.576.18-Jan-2020 3754.01 3696.71 79.54 5.00 141.05 2824.94
   13:54:04.776.18-Jan-2020 3754.01 3696.71 79.54 5.00 141.25 2824.94
   13:54:04.976.18-Jan-2020 3754.01 3695.97 79.54 5.00 141.45 2824.94
   13:54:05.176.18-Jan-2020 3754.01 3694.55 79.54 5.00 141.65 2824.94
   13:54:05.376.18-Jan-2020 3754.01 3696.71 79.54 5.00 141.85 2824.94
   13:54:05.576.18-Jan-2020 3754.01 3694.72 79.54 5.00 142.05 2824.94
   13:54:05.776.18-Jan-2020 3754.01 3694.72 79.54 5.00 142.25 2824.94
   13:54:05.976.18-Jan-2020 3754.01 3694.98 79.54 5.00 142.45 2824.94
   13:54:06.176.18-Jan-2020 3754.01 3694.92 79.54 5.00 142.65 2824.94
   13:54:06.376.18-Jan-2020 3754.01 3694.17 79.54 5.00 142.85 2824.94
   13:54:06.576.18-Jan-2020 3754.01 3697.75 79.54 5.00 143.05 2824.94
   13:54:06.776.18-Jan-2020 3754.01 3697.75 79.54 5.00 143.25 2824.94
   13:54:06.976.18-Jan-2020 3754.01 3696.04 79.54 5.00 143.45 2824.94
   13:54:07.176.18-Jan-2020 3754.01 3695.00 79.54 5.00 143.65 2824.94
   13:54:07.376.18-Jan-2020 3754.01 3697.07 79.54 5.00 143.85 2824.94
   13:54:07.576.18-Jan-2020 3754.01 3692.92 79.54 5.00 144.05 2824.94
   13:54:07.777.18-Jan-2020 3754.01 3692.92 79.54 5.00 144.25 2824.94
   13:54:07.977.18-Jan-2020 3754.01 3694.61 79.54 5.00 144.45 2824.94
   13:54:08.177.18-Jan-2020 3754.01 3695.48 79.54 5.00 144.65 2824.94
   13:54:08.377.18-Jan-2020 3754.01 3694.96 79.54 5.00 144.85 2824.94
   13:54:08.577.18-Jan-2020 3754.01 3695.31 79.54 5.00 145.05 2824.94
   13:54:08.777.18-Jan-2020 3754.01 3695.31 79.54 5.00 145.25 2824.94
   13:54:08.977.18-Jan-2020 3754.01 3695.21 79.54 5.00 145.45 2824.94
   13:54:09.177.18-Jan-2020 3754.01 3695.18 79.54 5.00 145.65 2824.94
   13:54:09.377.18-Jan-2020 3754.01 3695.22 79.54 5.00 145.85 2824.94
   13:54:09.577.18-Jan-2020 3754.01 3695.05 79.54 5.00 146.05 2824.94
   13:54:09.777.18-Jan-2020 3754.01 3695.05 79.54 5.00 146.25 2824.94
   13:54:09.977.18-Jan-2020 3754.01 3695.15 79.54 5.00 146.45 2824.94
   13:54:10.177.18-Jan-2020 3754.01 3695.22 79.54 5.00 146.65 2824.94
   13:54:10.377.18-Jan-2020 3754.01 3695.09 79.54 5.00 146.85 2824.94
   13:54:10.577.18-Jan-2020 3754.01 3695.04 79.54 5.00 147.05 2824.94
   13:54:10.778.18-Jan-2020 3754.01 3695.04 79.54 5.00 147.25 2824.94
   13:54:10.978.18-Jan-2020 3754.01 3694.61 79.54 5.00 147.45 2824.94
   13:54:11.178.18-Jan-2020 3754.01 3694.71 79.54 5.00 147.65 2824.94
   13:54:11.378.18-Jan-2020 3754.01 3695.04 79.54 5.00 147.85 2824.94
   13:54:11.578.18-Jan-2020 3754.01 3694.91 79.54 5.00 148.05 2824.94
   13:54:11.778.18-Jan-2020 3754.01 3694.91 79.54 5.00 148.25 2824.94
   13:54:11.978.18-Jan-2020 3754.01 3694.97 79.54 5.00 148.45 2824.94
   13:54:12.178.18-Jan-2020 3754.01 3695.14 79.54 5.00 148.65 2824.94
   13:54:12.378.18-Jan-2020 3754.01 3695.08 79.54 5.00 148.85 2824.94
   13:54:12.578.18-Jan-2020 3754.01 3695.17 79.54 5.00 149.05 2824.94
   13:54:12.778.18-Jan-2020 3754.01 3695.17 79.54 5.00 149.25 2824.94
   13:54:12.978.18-Jan-2020 3754.01 3694.58 79.54 5.00 149.45 2824.94
   13:54:13.178.18-Jan-2020 3754.01 3697.62 79.54 5.00 149.65 2824.94
   13:54:13.378.18-Jan-2020 3754.01 3692.81 79.54 5.00 149.85 2824.94
   13:54:13.578.18-Jan-2020 3754.01 3696.19 79.54 5.00 150.05 2824.94
   13:54:13.778.18-Jan-2020 3754.01 3696.19 79.54 5.00 150.25 2824.94
   13:54:13.979.18-Jan-2020 3754.01 3697.64 79.54 5.00 150.45 2824.94
   13:54:14.179.18-Jan-2020 3754.01 3692.55 79.54 5.00 150.65 2824.94
   13:54:14.379.18-Jan-2020 3754.01 3696.53 79.54 5.00 150.85 2824.94
   13:54:14.579.18-Jan-2020 3754.01 3694.34 79.54 5.00 151.05 2824.94
   13:54:14.779.18-Jan-2020 3754.01 3694.34 79.54 5.00 151.25 2824.94
   13:54:14.979.18-Jan-2020 3754.01 3694.24 79.54 5.00 151.45 2824.94
   13:54:15.179.18-Jan-2020 3754.01 3697.90 79.54 5.00 151.65 2824.94
   13:54:15.379.18-Jan-2020 3754.01 3692.44 79.54 5.00 151.85 2824.94
   13:54:15.579.18-Jan-2020 3754.01 3696.26 79.54 5.00 152.05 2824.94
   13:54:15.779.18-Jan-2020 3754.01 3696.26 79.54 5.00 152.25 2824.94
   13:54:15.979.18-Jan-2020 3754.01 3697.21 79.54 5.00 152.45 2824.94
   13:54:16.179.18-Jan-2020 3754.01 3692.78 79.54 5.00 152.65 2824.94
   13:54:16.379.18-Jan-2020 3754.01 3696.11 79.54 5.00 152.85 2824.94
   13:54:16.579.18-Jan-2020 3754.01 3694.63 79.54 5.00 153.05 2824.94
   13:54:16.779.18-Jan-2020 3754.01 3694.63 79.54 5.00 153.25 2824.94
   13:54:16.980.18-Jan-2020 3754.01 3694.99 79.54 5.00 153.45 2824.94
   13:54:17.180.18-Jan-2020 3754.01 3695.30 79.54 5.00 153.65 2824.94
   13:54:17.380.18-Jan-2020 3754.01 3695.00 79.54 5.00 153.85 2824.94
   13:54:17.580.18-Jan-2020 3754.01 3695.09 79.54 5.00 154.05 2824.94
   13:54:17.780.18-Jan-2020 3754.01 3695.09 79.54 5.00 154.25 2824.94
   13:54:17.980.18-Jan-2020 3754.01 3695.21 79.54 5.00 154.45 2824.94
   13:54:18.180.18-Jan-2020 3754.01 3695.17 79.54 5.00 154.65 2824.94
   13:54:18.380.18-Jan-2020 3754.01 3695.04 79.54 5.00 154.85 2824.94
   13:54:18.580.18-Jan-2020 3754.01 3695.26 79.54 5.00 155.05 2824.94
   13:54:18.780.18-Jan-2020 3754.01 3695.26 79.54 5.00 155.25 2824.94
   13:54:18.980.18-Jan-2020 3754.01 3695.14 79.54 5.00 155.45 2824.94
   13:54:19.180.18-Jan-2020 3754.01 3695.06 79.54 5.00 155.65 2824.94
   13:54:19.380.18-Jan-2020 3754.01 3697.01 79.54 5.00 155.85 2824.94
   13:54:19.580.18-Jan-2020 3754.01 3694.71 79.54 5.00 156.05 2824.94
   13:54:19.780.18-Jan-2020 3754.01 3694.71 79.54 5.00 156.25 2824.94
   13:54:19.980.18-Jan-2020 3754.01 3695.40 79.54 5.00 156.45 2824.94
   13:54:20.181.18-Jan-2020 3754.01 3694.76 79.54 5.00 156.65 2824.94
   13:54:20.381.18-Jan-2020 3754.01 3695.18 79.54 5.00 156.85 2824.94
   13:54:20.581.18-Jan-2020 3754.01 3694.92 79.54 5.00 157.05 2824.94
   13:54:20.781.18-Jan-2020 3754.01 3694.92 79.54 5.00 157.25 2824.94
   13:54:20.981.18-Jan-2020 3754.01 3695.04 79.54 5.00 157.45 2824.94
   13:54:21.181.18-Jan-2020 3754.01 3695.33 79.54 5.00 157.65 2824.94
   13:54:21.381.18-Jan-2020 3754.01 3695.08 79.54 5.00 157.85 2824.94
   13:54:21.581.18-Jan-2020 3754.01 3694.52 79.54 5.00 158.05 2824.94
   13:54:21.781.18-Jan-2020 3754.01 3694.52 79.54 5.00 158.25 2824.94
   13:54:21.981.18-Jan-2020 3754.01 3692.63 79.54 5.00 158.45 2824.94
   13:54:22.181.18-Jan-2020 3754.01 3696.38 79.54 5.00 158.65 2824.94
   13:54:22.381.18-Jan-2020 3754.01 3694.60 79.54 5.00 158.85 2824.94
   13:54:22.581.18-Jan-2020 3754.01 3695.70 79.54 5.00 159.05 2824.94
   13:54:22.781.18-Jan-2020 3754.01 3695.70 79.54 5.00 159.25 2824.94
   13:54:22.981.18-Jan-2020 3754.01 3693.64 79.54 5.00 159.45 2824.94
   13:54:23.182.18-Jan-2020 3754.01 3695.64 79.54 5.00 159.65 2824.94
   13:54:23.382.18-Jan-2020 3754.01 3694.64 79.54 5.00 159.85 2824.94
   13:54:23.582.18-Jan-2020 3754.01 3695.26 79.54 5.00 160.05 2824.94
   13:54:23.782.18-Jan-2020 3754.01 3695.26 79.54 5.00 160.25 2824.94
   13:54:23.982.18-Jan-2020 3754.01 3694.91 79.54 5.00 160.45 2824.94
   13:54:24.182.18-Jan-2020 3754.01 3693.93 79.54 5.00 160.65 2824.94
   13:54:24.382.18-Jan-2020 3754.01 3695.08 79.54 5.00 160.85 2824.94
