~Version Information
 VERS.                  2.0:   CWLS log ASCII Standard -VERSION 2.0
 WRAP.                   NO:   One line per depth step
~Well Information Block
#MNEM.UNIT     VALUE/NAME     DESCRIPTION
#---------     -----------    ---------------------------
 STRT.S             09:16:51 18-Jan-20: START TIME 09:16:51 18-Jan-20
 STOP.S             09:25:06 18-Jan-20: STOP TIME  09:25:06 18-Jan-20
 STEP.S                   0.00: STEP TIME
 NULL.                 -999.25: NULL VALUE
 DFWT.                        :  DIST FWL TEXT
 DFST.                        :  DIST FSL TEXT
 DMF .             Drill Floor:  DRILL MEAS FROM
 STIM.      09.30.00 26-Dec-19:  START TIME
 DATE.      08.00.00 20-Jan-20:  END TIME
 SPUD.               23-Nov-19:  SPUD DATE
 NREF.                    Grid:  NORTH REFERENCE
 HPTY.       Minimum Curvature:  HOLE POS TYPE
 DMOD.             Drill Model:  DRILL MOD DESC
 SVYD.                  Survey:  SURVEY DESC
 ILTD.               Lithology:  INTERP LTH DESC
 FTOP.          Formation Tops:  FORM TOPS DESC
 SON .        AZ-XX-0906192647:  JOB NUMBER
 WTYP.                Deviated:  WELL TYPE
 COMP.     BP Exploration (Caspian Sea) Ltd:  COMPANY
 BASE.              Azerbaijan:  LOGGING EQUIPMENT BASE LOCATION
 REGN.                 Eurasia:  REGION
 FLD .                     ACG:  FIELD NAME
 SRVC.              KCA Deutag:  CONTRACTOR
 MWDS.                    Baku:  MWD SHOP
 WELL.     A10 (Slot 20) - SCP:  WELL NAME
 JOBN.        AZ-XX-0906192647:  JOB TICKET NUMB
 RIG .                 Chirag1:  RIG NAME
 DCON.     Halliburton Sperry Drilling:  DIRECTNL CONTR
 UNIT.                     N/A:  LOGGING EQUIPMENT ID
 PDAT.          Mean Sea Level:  PERMANENT DATUM
 MDS .        Operator Entered:  MAG DATA SOURCE
 CTRY.              Azerbaijan:  COUNTRY NAME
 UWI .            /AZE00000090:  UNIQUE WELL IDENTIFIER
 API .            /AZE00000090:  API NUMBER
 CNTY.                        :  COUNTY
 PROV.                        :  PROVINCE
 STAT.                        :  STATE
 LOC .                        :  LOCATION
 LMF .             Drill Floor:  LOG MEASURED FROM
 TVDS.m                  36.60:  TVDSS CORRECTN
 LATI.deg                40.08:  LATITUDE
 LONG.deg                51.24:  LONGITUDE
 WHNS.m                  -7.94:  WELL HEAD N/S
 WHEW.m                   1.56:  WELL HEAD E/W
 UTMX.m              520429.26:  UTM X
 UTMY.m             4438973.87:  UTM Y
 DFWL.m                   0.00:  DISTANCE FWL
 DFSL.m                   0.00:  DISTANCE FSL
 SDEP.m                1455.00:  START DEPTH
 TDD .m                3878.01:  TOTAL DEPTH (DRILLER)
 VSDR.deg               112.75:  VERT SEC DIRECT
 GVFD.g                   1.00:  GRAVITY FIELD
 MFLD.nT              50256.00:  MAGNETIC FIELD
 MDIP.deg                59.52:  MAGNETIC DIP
 MDEC.deg                 6.43:  MAGNETIC DECL
 GRDC.deg                 0.16:  GRID CORRECTION
 AZTC.deg                 6.27:  AZM TOTAL CORR
 EPD .m                   0.00:  ELEVATION
 EGL .m                   0.00:  GROUND ELEVATION
 WDMS.m                 121.00:  WD ELEV
 APD .m                  36.60:  DEPTH ABOVE PD
 AGAP.m                  36.60:  AIR GAP
 VSEW.m                   1.56:  VERT SEC E/W
 VSNS.m                  -7.94:  VERT SEC N/S
 DEP .m                1140.01:  DEPTH
 EKB .m                  36.60:  KB ELEVATION
 EDF .m                  36.60:  DF ELEVATION
 TDL .m                1293.00:  TOTAL DEPTH (LOGGER)
 VSC .                       0:  VS TO CLOSURE
 MAGU.                 1849164:  MAGUTM CHECKSUM
~Parameter Information Block
#MNEM.UNIT       Value        Description
#---------     -----------    ---------------------------
 AV  .mps                 2.40:  Ann Velocity 
 AVMX.mps                 2.55:  Max Ann Veloc 
 AZIF.deg               134.35:  Azm, Final 
 BHAT.        Rotary Steerable:  BHA Type 
 BREV.rev               847.00:  Rev Bit Total 
 BROT.°/30m              -2.51:  Build Rotating 
 BS  .in                  8.50:  Bit Size 
 BSZ .in                  8.50:  Bit Size 
 BTPL.psig              700.00:  Bit Press Loss 
 CABU.                     Yes:  Customer Abuse 
 CGEO.          Ilgar Gurbanov:  Customer Geo 
 COMM.                     Áo:  Run Comments 1 
 TCS .hr                140.40:  Time Ciculation Ended 
 CV  .mps                 2.27:  Crit Velocity 
 CVMX.mps                 2.45:  Max Crit Veloc 
 DD1 .         Intigam Rahimov:  Direct Drillr 1 
 DD2 .         Rasim Ibrahimov:  Direct Drillr 2 
 DDSV.                 iCruise:  DD Service 
 DEFF.%                  99.00:  % Det Eff 
 DLRX.°/30m               3.28:  Dogleg Rot Max 
 DLSO.°/30m               0.00:  Dogleg Oriented 
 DLSX.°/30m               0.00:  Dogleg Str Max 
 DRET.      23.30.00 18-Jan-20:  Drill End Time 
 DRST.      01.45.00 11-Jan-20:  Drill Start Tim 
 DTIM.hr                 94.00:  Time Drilling 
 EDEP.m                3878.01:  End Depth 
 ENG1.       Dauren Baktybayev:  Engineer 1 
 ENG2.      Natik Hasanaghayev:  Engineer 2 
 ENG3.          Rustam Safarov:  Engineer 3 
 ETIM.      08.00.00 20-Jan-20:  End Time 
 FLOI.gpm               532.00:  Flow In 
 FLON.gpm               500.00:  Flow In Min 
 FLOS.cptm                0.00:  Fluid Loss 
 FLOX.gpm               540.00:  Flow In Max 
 FTRO.       Formation Presure:  FTWD Run Obj 
 HPRE.                     Yes:  High Pressure 
 HTEM.                      No:  High Temp 
 HYDO.m                   1.80:  Hydro Offset 
 IFIN.deg                39.86:  Inc, Final 
 IMAX.deg                59.73:  Inc Max 
 IMIN.deg                39.25:  Inc Min 
 IMND.m                3816.77:  Inc Min Depth 
 IMXD.m                2596.33:  Inc Max Depth 
 JARR.                      No:  Jarring 
 LETM.      23.30.00 18-Jan-20:  Log End Time 
 LOST.hr                     0:  Lost Rig Time 
 LSTM.      01.45.00 11-Jan-20:  Log Start Time 
 MDCL.ppm             41500.00:  Mud Chlorides 
 MDES.     Inversion Oil/Synthetic:  Mud Desc 
 DFD .sg                  1.48:  Mud Density 
 MDMN.sg                  1.48:  Dens Mud Min 
 MDMX.sg                  1.48:  Dens Mud Max 
 MOIL.                      54:  Run Mud Oil % 
 MOWR.                   72:28:  Run Mud OWR 
 MSND.                       0:  Run Mud Sand % 
 MSOL.                      23:  Run Mud Solids% 
 DFV .spqt               86.00:  Mud Viscosity 
 MWOD.in                  6.75:  MWD Tool OD 
 MWSI.                      No:  Serv Intrp, MWD 
 OTIM.hr                223.40:  Time Operating 
 PCON.           Look Like New:  Pad Condition 
 PMAX.psia            32446.79:  Press Op, Max 
 PV  .cP                 49.00:  Mud PV 
 RUN .                     200:  Run Number 
 ROPA.m/hr               12.48:  ROP Avg 
 ROPN.m/hr                8.00:  ROP Min 
 ROPX.m/hr               27.00:  ROP Max 
 RPMA.rpm               121.00:  RPM Surface Avg 
 RPMN.rpm                60.00:  RPM Surface Min 
 RPMX.rpm               140.00:  RPM Surface Max 
 RRUN.                    L202:  Rig Run Number 
 RTIM.hr                  7.25:  Time Reaming 
 SAZI.deg               123.49:  Azm, Start 
 SDEP.m                2585.01:  Start Depth 
 SIDD.                      No:  Serv Intrp, DD 
 SINC.deg                59.93:  Inc, Start 
 SPPA.psig             3539.00:  SPP Avg 
 SPPN.psig             3050.00:  SPP Min 
 SPPX.psig             3950.00:  SPP Max 
 STIM.      19.00.00 10-Jan-20:  Start Time 
 SVCS.                 DD, MWD:  Services 
 SVER.                    9.20:  Sperry Version 
 TDAT.m                1293.00:  Tot Depth Attmp 
 TDDF.                      No:  Trip for DD 
 TDLG.m                1293.00:  Tot Depth Loggd 
 TFF .                      No:  Trip for Fail 
 TQAA.f-kp               16.00:  Torque Abs Avg 
 TQAN.f-kp               11.00:  Torque Abs Min 
 TQAX.f-kp               18.00:  Torque Abs Max 
 TRRT.°/30m               1.25:  Turn Rotating 
 MRT .                  EWR-M5:  Maximum Recorded Temperature 
 TTMX.degC               84.00:  Max Tool Temp 
 VS01.          AZ90514619R5C6:  Virtual Str1 SN 
 VS02.        AZ90552592N2L2C6:  Virtual Str2 SN 
 VS03.        AZ90571337Z1W1C6:  Virtual Str3 SN 
 VS04.         AZ90513690K23C6:  Virtual Str4 SN 
 VS05.           AZ90594857F11:  Virtual Str5 SN 
 VS06.                13102166:  Virtual Str6 SN 
 WBMN.klb                 7.00:  WOB Min 
 WITN.            Peter Wilson:  Customer Rep 
 WOBA.klb                 9.95:  WOB Avg 
 WOBX.klb                10.00:  WOB Max 
 YP  .lhf2               36.00:  Yield Point 
~Curve Information Block
#MNEM.UNIT                 API CODE     Curve Description
#---------               -----------    ---------------------------
 TIME.HHMMSS            00 000 000 000:  GT Time & Date
 GTDEPTH.m              00 000 000 000:  GT Depth
 GTPQH.psia             00 000 000 000:  GT HR Quartz Pressure
 GTTQ.degC              00 000 000 000:  GT Quartz Temperature
 GTTN.NONE              00 000 000 000:  GT Test Number
 GTET.sec               00 000 000 000:  GT Elapsed Test Time
 GTTVD.m                00 000 000 000:  GT True Vertical Depth
#Other Information
#
#WARRANTY: Halliburton will use its best efforts to furnish customers with 
#accurate information and interpretations that are part of, and incident to, the services 
#provided.  However, Halliburton cannot and does not warrant the accuracy 
#or correctness of such information and interpretations.  Under no circumstances should any 
#such information or interpretation be relied upon as the sole basis for any drilling, 
#completion, production, or financial decision or any procedure involving any risk to the 
#safety of any drilling venture, drilling rig or its crew or any other third party.  The 
#Customer has full responsibility for all drilling, completion and production operation.  
#Halliburton makes no representations or warranties, either expressed or 
#implied, including, but not limited to, the implied warranties of merchantability or fitness 
#for a particular purpose, with respect to the services rendered.  In no event will 
#Halliburton be liable for failure to obtain any particular results or for 
#any damages, including, but not limited to, indirect, special or consequential damages, 
#resulting from the use of any information or interpretation provided by Halliburton.
#
~A           TIME           GTDEPTH  GTPQH  GTTQ  GTTN  GTET   GTTVD  
# ...
   09:22:13.853.18-Jan-2020 3746.01 3681.58 81.09 3.00 322.05 2818.83
   09:22:14.054.18-Jan-2020 3746.01 3681.58 81.09 3.00 322.25 2818.83
   09:22:14.254.18-Jan-2020 3746.01 3683.41 81.09 3.00 322.45 2818.83
   09:22:14.454.18-Jan-2020 3746.01 3683.87 81.09 3.00 322.65 2818.83
   09:22:14.654.18-Jan-2020 3746.01 3684.32 81.09 3.00 322.85 2818.83
   09:22:14.854.18-Jan-2020 3746.01 3684.39 81.09 3.00 323.05 2818.83
   09:22:15.054.18-Jan-2020 3746.01 3684.39 81.09 3.00 323.26 2818.83
   09:22:15.254.18-Jan-2020 3746.01 3684.64 81.09 3.00 323.46 2818.83
   09:22:15.454.18-Jan-2020 3746.01 3684.81 81.09 3.00 323.66 2818.83
   09:22:15.654.18-Jan-2020 3746.01 3685.24 81.09 3.00 323.86 2818.83
   09:22:15.854.18-Jan-2020 3746.01 3685.42 81.09 3.00 324.06 2818.83
   09:22:16.054.18-Jan-2020 3746.01 3685.42 81.09 3.00 324.26 2818.83
   09:22:16.254.18-Jan-2020 3746.01 3685.45 81.09 3.00 324.46 2818.83
   09:22:16.454.18-Jan-2020 3746.01 3685.48 81.09 3.00 324.66 2818.83
   09:22:16.654.18-Jan-2020 3746.01 3685.53 81.09 3.00 324.86 2818.83
   09:22:16.854.18-Jan-2020 3746.01 3685.64 81.09 3.00 325.06 2818.83
   09:22:17.054.18-Jan-2020 3746.01 3685.64 81.09 3.00 325.26 2818.83
   09:22:17.254.18-Jan-2020 3746.01 3685.69 81.09 3.00 325.46 2818.83
   09:22:17.454.18-Jan-2020 3746.01 3685.99 81.09 3.00 325.66 2818.83
   09:22:17.654.18-Jan-2020 3746.01 3685.55 81.09 3.00 325.86 2818.83
   09:22:17.854.18-Jan-2020 3746.01 3685.83 81.09 3.00 326.06 2818.83
   09:22:18.054.18-Jan-2020 3746.01 3685.83 81.09 3.00 326.26 2818.83
   09:22:18.254.18-Jan-2020 3746.01 3685.70 81.08 3.00 326.46 2818.83
   09:22:18.454.18-Jan-2020 3746.01 3685.98 81.08 3.00 326.66 2818.83
   09:22:18.654.18-Jan-2020 3746.01 3685.88 81.08 3.00 326.86 2818.83
   09:22:18.854.18-Jan-2020 3746.01 3685.97 81.08 3.00 327.06 2818.83
   09:22:19.054.18-Jan-2020 3746.01 3685.97 81.08 3.00 327.26 2818.83
   09:22:19.254.18-Jan-2020 3746.01 3685.98 81.08 3.00 327.46 2818.83
   09:22:19.454.18-Jan-2020 3746.01 3685.81 81.08 3.00 327.66 2818.83
   09:22:19.654.18-Jan-2020 3746.01 3686.00 81.08 3.00 327.86 2818.83
   09:22:19.855.18-Jan-2020 3746.01 3685.99 81.08 3.00 328.06 2818.83
   09:22:20.055.18-Jan-2020 3746.01 3685.99 81.08 3.00 328.26 2818.83
   09:22:20.255.18-Jan-2020 3746.01 3685.95 81.08 3.00 328.46 2818.83
   09:22:20.455.18-Jan-2020 3746.01 3686.12 81.08 3.00 328.66 2818.83
   09:22:20.655.18-Jan-2020 3746.01 3686.44 81.08 3.00 328.86 2818.83
   09:22:20.855.18-Jan-2020 3746.01 3686.17 81.08 3.00 329.06 2818.83
   09:22:21.055.18-Jan-2020 3746.01 3686.17 81.08 3.00 329.26 2818.83
   09:22:21.255.18-Jan-2020 3746.01 3686.01 81.08 3.00 329.46 2818.83
   09:22:21.455.18-Jan-2020 3746.01 3686.09 81.08 3.00 329.66 2818.83
   09:22:21.655.18-Jan-2020 3746.01 3686.09 81.08 3.00 329.86 2818.83
   09:22:21.855.18-Jan-2020 3746.01 3686.13 81.08 3.00 330.06 2818.83
   09:22:22.055.18-Jan-2020 3746.01 3686.13 81.08 3.00 330.26 2818.83
   09:22:22.255.18-Jan-2020 3746.01 3686.13 81.08 3.00 330.46 2818.83
   09:22:22.455.18-Jan-2020 3746.01 3686.01 81.08 3.00 330.66 2818.83
   09:22:22.655.18-Jan-2020 3746.01 3686.19 81.08 3.00 330.86 2818.83
   09:22:22.855.18-Jan-2020 3746.01 3686.35 81.08 3.00 331.06 2818.83
   09:22:23.055.18-Jan-2020 3746.01 3686.35 81.08 3.00 331.26 2818.83
   09:22:23.255.18-Jan-2020 3746.01 3686.55 81.08 3.00 331.46 2818.83
   09:22:23.455.18-Jan-2020 3746.01 3686.15 81.08 3.00 331.66 2818.83
   09:22:23.655.18-Jan-2020 3746.01 3686.43 81.08 3.00 331.86 2818.83
   09:22:23.855.18-Jan-2020 3746.01 3686.57 81.08 3.00 332.06 2818.83
   09:22:24.055.18-Jan-2020 3746.01 3686.57 81.08 3.00 332.26 2818.83
   09:22:24.255.18-Jan-2020 3746.01 3686.54 81.07 3.00 332.46 2818.83
   09:22:24.455.18-Jan-2020 3746.01 3686.58 81.07 3.00 332.66 2818.83
   09:22:24.655.18-Jan-2020 3746.01 3686.23 81.07 3.00 332.86 2818.83
   09:22:24.855.18-Jan-2020 3746.01 3686.48 81.07 3.00 333.06 2818.83
   09:22:25.055.18-Jan-2020 3746.01 3686.48 81.07 3.00 333.26 2818.83
   09:22:25.255.18-Jan-2020 3746.01 3686.62 81.07 3.00 333.46 2818.83
   09:22:25.455.18-Jan-2020 3746.01 3686.69 81.07 3.00 333.66 2818.83
   09:22:25.655.18-Jan-2020 3746.01 3686.30 81.07 3.00 333.86 2818.83
   09:22:25.856.18-Jan-2020 3746.01 3686.27 81.07 3.00 334.06 2818.83
   09:22:26.056.18-Jan-2020 3746.01 3686.27 81.07 3.00 334.26 2818.83
   09:22:26.256.18-Jan-2020 3746.01 3686.28 81.07 3.00 334.46 2818.83
   09:22:26.456.18-Jan-2020 3746.01 3686.30 81.07 3.00 334.66 2818.83
   09:22:26.656.18-Jan-2020 3746.01 3686.41 81.07 3.00 334.86 2818.83
   09:22:26.856.18-Jan-2020 3746.01 3686.19 81.07 3.00 335.06 2818.83
   09:22:27.056.18-Jan-2020 3746.01 3686.19 81.07 3.00 335.26 2818.83
   09:22:27.256.18-Jan-2020 3746.01 3686.25 81.07 3.00 335.46 2818.83
   09:22:27.456.18-Jan-2020 3746.01 3686.28 81.07 3.00 335.66 2818.83
   09:22:27.656.18-Jan-2020 3746.01 3686.22 81.07 3.00 335.86 2818.83
   09:22:27.856.18-Jan-2020 3746.01 3686.28 81.07 3.00 336.06 2818.83
   09:22:28.056.18-Jan-2020 3746.01 3686.28 81.07 3.00 336.26 2818.83
   09:22:28.256.18-Jan-2020 3746.01 3686.23 81.07 3.00 336.46 2818.83
   09:22:28.456.18-Jan-2020 3746.01 3686.24 81.07 3.00 336.66 2818.83
   09:22:28.656.18-Jan-2020 3746.01 3686.17 81.07 3.00 336.86 2818.83
   09:22:28.856.18-Jan-2020 3746.01 3686.52 81.07 3.00 337.06 2818.83
   09:22:29.056.18-Jan-2020 3746.01 3686.52 81.07 3.00 337.26 2818.83
   09:22:29.256.18-Jan-2020 3746.01 3686.72 81.07 3.00 337.46 2818.83
   09:22:29.456.18-Jan-2020 3746.01 3686.17 81.07 3.00 337.66 2818.83
   09:22:29.656.18-Jan-2020 3746.01 3686.39 81.07 3.00 337.86 2818.83
   09:22:29.856.18-Jan-2020 3746.01 3686.29 81.07 3.00 338.06 2818.83
   09:22:30.056.18-Jan-2020 3746.01 3686.29 81.07 3.00 338.26 2818.83
   09:22:30.256.18-Jan-2020 3746.01 3686.35 81.06 3.00 338.46 2818.83
   09:22:30.456.18-Jan-2020 3746.01 3686.27 81.06 3.00 338.66 2818.83
   09:22:30.656.18-Jan-2020 3746.01 3686.31 81.06 3.00 338.86 2818.83
   09:22:30.856.18-Jan-2020 3746.01 3686.31 81.06 3.00 339.06 2818.83
   09:22:31.056.18-Jan-2020 3746.01 3686.31 81.06 3.00 339.26 2818.83
   09:22:31.256.18-Jan-2020 3746.01 3686.73 81.06 3.00 339.46 2818.83
   09:22:31.456.18-Jan-2020 3746.01 3686.61 81.06 3.00 339.66 2818.83
   09:22:31.657.18-Jan-2020 3746.01 3686.60 81.06 3.00 339.86 2818.83
   09:22:31.857.18-Jan-2020 3746.01 3686.65 81.06 3.00 340.06 2818.83
   09:22:32.057.18-Jan-2020 3746.01 3686.65 81.06 3.00 340.26 2818.83
   09:22:32.257.18-Jan-2020 3746.01 3686.75 81.06 3.00 340.46 2818.83
   09:22:32.457.18-Jan-2020 3746.01 3686.63 81.06 3.00 340.66 2818.83
   09:22:32.657.18-Jan-2020 3746.01 3686.31 81.06 3.00 340.86 2818.83
   09:22:32.857.18-Jan-2020 3746.01 3686.44 81.06 3.00 341.06 2818.83
   09:22:33.057.18-Jan-2020 3746.01 3686.44 81.06 3.00 341.26 2818.83
   09:22:33.257.18-Jan-2020 3746.01 3687.22 81.06 3.00 341.46 2818.83
   09:22:33.457.18-Jan-2020 3746.01 3686.56 81.06 3.00 341.66 2818.83
   09:22:33.657.18-Jan-2020 3746.01 3686.45 81.06 3.00 341.86 2818.83
   09:22:33.857.18-Jan-2020 3746.01 3686.66 81.06 3.00 342.06 2818.83
   09:22:34.057.18-Jan-2020 3746.01 3686.66 81.06 3.00 342.26 2818.83
   09:22:34.257.18-Jan-2020 3746.01 3686.86 81.06 3.00 342.46 2818.83
   09:22:34.457.18-Jan-2020 3746.01 3687.30 81.06 3.00 342.66 2818.83
   09:22:34.657.18-Jan-2020 3746.01 3687.12 81.06 3.00 342.86 2818.83
   09:22:34.857.18-Jan-2020 3746.01 3686.58 81.06 3.00 343.06 2818.83
   09:22:35.057.18-Jan-2020 3746.01 3686.58 81.06 3.00 343.26 2818.83
   09:22:35.257.18-Jan-2020 3746.01 3686.49 81.06 3.00 343.46 2818.83
   09:22:35.457.18-Jan-2020 3746.01 3686.46 81.06 3.00 343.66 2818.83
   09:22:35.657.18-Jan-2020 3746.01 3686.50 81.06 3.00 343.86 2818.83
   09:22:35.857.18-Jan-2020 3746.01 3686.58 81.05 3.00 344.06 2818.83
   09:22:36.057.18-Jan-2020 3746.01 3686.58 81.05 3.00 344.26 2818.83
   09:22:36.257.18-Jan-2020 3746.01 3686.46 81.05 3.00 344.46 2818.83
   09:22:36.457.18-Jan-2020 3746.01 3686.38 81.05 3.00 344.66 2818.83
   09:22:36.657.18-Jan-2020 3746.01 3686.47 81.05 3.00 344.86 2818.83
