~Version Information
 VERS.                  2.0:   CWLS log ASCII Standard -VERSION 2.0
 WRAP.                   NO:   One line per depth step
~Well Information Block
#MNEM.UNIT     VALUE/NAME     DESCRIPTION
#---------     -----------    ---------------------------
 STRT.S             05:39:19 18-Jan-20: START TIME 05:39:19 18-Jan-20
 STOP.S             05:47:35 18-Jan-20: STOP TIME  05:47:35 18-Jan-20
 STEP.S                   0.00: STEP TIME
 NULL.                 -999.25: NULL VALUE
 DFWT.                        :  DIST FWL TEXT
 DFST.                        :  DIST FSL TEXT
 DMF .             Drill Floor:  DRILL MEAS FROM
 STIM.      09.30.00 26-Dec-19:  START TIME
 DATE.      08.00.00 20-Jan-20:  END TIME
 SPUD.               23-Nov-19:  SPUD DATE
 NREF.                    Grid:  NORTH REFERENCE
 HPTY.       Minimum Curvature:  HOLE POS TYPE
 DMOD.             Drill Model:  DRILL MOD DESC
 SVYD.                  Survey:  SURVEY DESC
 ILTD.               Lithology:  INTERP LTH DESC
 FTOP.          Formation Tops:  FORM TOPS DESC
 SON .        AZ-XX-0906192647:  JOB NUMBER
 WTYP.                Deviated:  WELL TYPE
 COMP.     BP Exploration (Caspian Sea) Ltd:  COMPANY
 BASE.              Azerbaijan:  LOGGING EQUIPMENT BASE LOCATION
 REGN.                 Eurasia:  REGION
 FLD .                     ACG:  FIELD NAME
 SRVC.              KCA Deutag:  CONTRACTOR
 MWDS.                    Baku:  MWD SHOP
 WELL.     A10 (Slot 20) - SCP:  WELL NAME
 JOBN.        AZ-XX-0906192647:  JOB TICKET NUMB
 RIG .                 Chirag1:  RIG NAME
 DCON.     Halliburton Sperry Drilling:  DIRECTNL CONTR
 UNIT.                     N/A:  LOGGING EQUIPMENT ID
 PDAT.          Mean Sea Level:  PERMANENT DATUM
 MDS .        Operator Entered:  MAG DATA SOURCE
 CTRY.              Azerbaijan:  COUNTRY NAME
 UWI .            /AZE00000090:  UNIQUE WELL IDENTIFIER
 API .            /AZE00000090:  API NUMBER
 CNTY.                        :  COUNTY
 PROV.                        :  PROVINCE
 STAT.                        :  STATE
 LOC .                        :  LOCATION
 LMF .             Drill Floor:  LOG MEASURED FROM
 TVDS.m                  36.60:  TVDSS CORRECTN
 LATI.deg                40.08:  LATITUDE
 LONG.deg                51.24:  LONGITUDE
 WHNS.m                  -7.94:  WELL HEAD N/S
 WHEW.m                   1.56:  WELL HEAD E/W
 UTMX.m              520429.26:  UTM X
 UTMY.m             4438973.87:  UTM Y
 DFWL.m                   0.00:  DISTANCE FWL
 DFSL.m                   0.00:  DISTANCE FSL
 SDEP.m                1455.00:  START DEPTH
 TDD .m                3878.01:  TOTAL DEPTH (DRILLER)
 VSDR.deg               112.75:  VERT SEC DIRECT
 GVFD.g                   1.00:  GRAVITY FIELD
 MFLD.nT              50256.00:  MAGNETIC FIELD
 MDIP.deg                59.52:  MAGNETIC DIP
 MDEC.deg                 6.43:  MAGNETIC DECL
 GRDC.deg                 0.16:  GRID CORRECTION
 AZTC.deg                 6.27:  AZM TOTAL CORR
 EPD .m                   0.00:  ELEVATION
 EGL .m                   0.00:  GROUND ELEVATION
 WDMS.m                 121.00:  WD ELEV
 APD .m                  36.60:  DEPTH ABOVE PD
 AGAP.m                  36.60:  AIR GAP
 VSEW.m                   1.56:  VERT SEC E/W
 VSNS.m                  -7.94:  VERT SEC N/S
 DEP .m                1140.01:  DEPTH
 EKB .m                  36.60:  KB ELEVATION
 EDF .m                  36.60:  DF ELEVATION
 TDL .m                1293.00:  TOTAL DEPTH (LOGGER)
 VSC .                       0:  VS TO CLOSURE
 MAGU.                 1849164:  MAGUTM CHECKSUM
~Parameter Information Block
#MNEM.UNIT       Value        Description
#---------     -----------    ---------------------------
 AV  .mps                 2.40:  Ann Velocity 
 AVMX.mps                 2.55:  Max Ann Veloc 
 AZIF.deg               134.35:  Azm, Final 
 BHAT.        Rotary Steerable:  BHA Type 
 BREV.rev               847.00:  Rev Bit Total 
 BROT.∞/30m              -2.51:  Build Rotating 
 BS  .in                  8.50:  Bit Size 
 BSZ .in                  8.50:  Bit Size 
 BTPL.psig              700.00:  Bit Press Loss 
 CABU.                     Yes:  Customer Abuse 
 CGEO.          Ilgar Gurbanov:  Customer Geo 
 COMM.                     ‹êX:  Run Comments 1 
 TCS .hr                140.40:  Time Ciculation Ended 
 CV  .mps                 2.27:  Crit Velocity 
 CVMX.mps                 2.45:  Max Crit Veloc 
 DD1 .         Intigam Rahimov:  Direct Drillr 1 
 DD2 .         Rasim Ibrahimov:  Direct Drillr 2 
 DDSV.                 iCruise:  DD Service 
 DEFF.%                  99.00:  % Det Eff 
 DLRX.∞/30m               3.28:  Dogleg Rot Max 
 DLSO.∞/30m               0.00:  Dogleg Oriented 
 DLSX.∞/30m               0.00:  Dogleg Str Max 
 DRET.      23.30.00 18-Jan-20:  Drill End Time 
 DRST.      01.45.00 11-Jan-20:  Drill Start Tim 
 DTIM.hr                 94.00:  Time Drilling 
 EDEP.m                3878.01:  End Depth 
 ENG1.       Dauren Baktybayev:  Engineer 1 
 ENG2.      Natik Hasanaghayev:  Engineer 2 
 ENG3.          Rustam Safarov:  Engineer 3 
 ETIM.      08.00.00 20-Jan-20:  End Time 
 FLOI.gpm               532.00:  Flow In 
 FLON.gpm               500.00:  Flow In Min 
 FLOS.cptm                0.00:  Fluid Loss 
 FLOX.gpm               540.00:  Flow In Max 
 FTRO.       Formation Presure:  FTWD Run Obj 
 HPRE.                     Yes:  High Pressure 
 HTEM.                      No:  High Temp 
 HYDO.m                   1.80:  Hydro Offset 
 IFIN.deg                39.86:  Inc, Final 
 IMAX.deg                59.73:  Inc Max 
 IMIN.deg                39.25:  Inc Min 
 IMND.m                3816.77:  Inc Min Depth 
 IMXD.m                2596.33:  Inc Max Depth 
 JARR.                      No:  Jarring 
 LETM.      23.30.00 18-Jan-20:  Log End Time 
 LOST.hr                     0:  Lost Rig Time 
 LSTM.      01.45.00 11-Jan-20:  Log Start Time 
 MDCL.ppm             41500.00:  Mud Chlorides 
 MDES.     Inversion Oil/Synthetic:  Mud Desc 
 DFD .sg                  1.48:  Mud Density 
 MDMN.sg                  1.48:  Dens Mud Min 
 MDMX.sg                  1.48:  Dens Mud Max 
 MOIL.                      54:  Run Mud Oil % 
 MOWR.                   72:28:  Run Mud OWR 
 MSND.                       0:  Run Mud Sand % 
 MSOL.                      23:  Run Mud Solids% 
 DFV .spqt               86.00:  Mud Viscosity 
 MWOD.in                  6.75:  MWD Tool OD 
 MWSI.                      No:  Serv Intrp, MWD 
 OTIM.hr                223.40:  Time Operating 
 PCON.           Look Like New:  Pad Condition 
 PMAX.psia            32446.79:  Press Op, Max 
 PV  .cP                 49.00:  Mud PV 
 RUN .                     200:  Run Number 
 ROPA.m/hr               12.48:  ROP Avg 
 ROPN.m/hr                8.00:  ROP Min 
 ROPX.m/hr               27.00:  ROP Max 
 RPMA.rpm               121.00:  RPM Surface Avg 
 RPMN.rpm                60.00:  RPM Surface Min 
 RPMX.rpm               140.00:  RPM Surface Max 
 RRUN.                    L202:  Rig Run Number 
 RTIM.hr                  7.25:  Time Reaming 
 SAZI.deg               123.49:  Azm, Start 
 SDEP.m                2585.01:  Start Depth 
 SIDD.                      No:  Serv Intrp, DD 
 SINC.deg                59.93:  Inc, Start 
 SPPA.psig             3539.00:  SPP Avg 
 SPPN.psig             3050.00:  SPP Min 
 SPPX.psig             3950.00:  SPP Max 
 STIM.      19.00.00 10-Jan-20:  Start Time 
 SVCS.                 DD, MWD:  Services 
 SVER.                    9.20:  Sperry Version 
 TDAT.m                1293.00:  Tot Depth Attmp 
 TDDF.                      No:  Trip for DD 
 TDLG.m                1293.00:  Tot Depth Loggd 
 TFF .                      No:  Trip for Fail 
 TQAA.f-kp               16.00:  Torque Abs Avg 
 TQAN.f-kp               11.00:  Torque Abs Min 
 TQAX.f-kp               18.00:  Torque Abs Max 
 TRRT.∞/30m               1.25:  Turn Rotating 
 MRT .                  EWR-M5:  Maximum Recorded Temperature 
 TTMX.degC               84.00:  Max Tool Temp 
 VS01.          AZ90514619R5C6:  Virtual Str1 SN 
 VS02.        AZ90552592N2L2C6:  Virtual Str2 SN 
 VS03.        AZ90571337Z1W1C6:  Virtual Str3 SN 
 VS04.         AZ90513690K23C6:  Virtual Str4 SN 
 VS05.           AZ90594857F11:  Virtual Str5 SN 
 VS06.                13102166:  Virtual Str6 SN 
 WBMN.klb                 7.00:  WOB Min 
 WITN.            Peter Wilson:  Customer Rep 
 WOBA.klb                 9.95:  WOB Avg 
 WOBX.klb                10.00:  WOB Max 
 YP  .lhf2               36.00:  Yield Point 
~Curve Information Block
#MNEM.UNIT                 API CODE     Curve Description
#---------               -----------    ---------------------------
 TIME.HHMMSS            00 000 000 000:  GT Time & Date
 GTDEPTH.m              00 000 000 000:  GT Depth
 GTPQH.psia             00 000 000 000:  GT HR Quartz Pressure
 GTTQ.degC              00 000 000 000:  GT Quartz Temperature
 GTTN.NONE              00 000 000 000:  GT Test Number
 GTET.sec               00 000 000 000:  GT Elapsed Test Time
 GTTVD.m                00 000 000 000:  GT True Vertical Depth
#Other Information
#
#WARRANTY: Halliburton will use its best efforts to furnish customers with 
#accurate information and interpretations that are part of, and incident to, the services 
#provided.  However, Halliburton cannot and does not warrant the accuracy 
#or correctness of such information and interpretations.  Under no circumstances should any 
#such information or interpretation be relied upon as the sole basis for any drilling, 
#completion, production, or financial decision or any procedure involving any risk to the 
#safety of any drilling venture, drilling rig or its crew or any other third party.  The 
#Customer has full responsibility for all drilling, completion and production operation.  
#Halliburton makes no representations or warranties, either expressed or 
#implied, including, but not limited to, the implied warranties of merchantability or fitness 
#for a particular purpose, with respect to the services rendered.  In no event will 
#Halliburton be liable for failure to obtain any particular results or for 
#any damages, including, but not limited to, indirect, special or consequential damages, 
#resulting from the use of any information or interpretation provided by Halliburton.
#
~A           TIME           GTDEPTH  GTPQH  GTTQ  GTTN  GTET   GTTVD  
# ...
   05:46:59.627.18-Jan-2020 3717.66 6357.08 78.21 2.00 460.13 2797.70
   05:46:59.827.18-Jan-2020 3717.66 6357.08 78.21 2.00 460.33 2797.70
   05:47:00.027.18-Jan-2020 3717.66 6367.41 78.21 2.00 460.53 2797.70
   05:47:00.227.18-Jan-2020 3717.66 6354.43 78.21 2.00 460.73 2797.70
   05:47:00.427.18-Jan-2020 3717.66 6355.18 78.21 2.00 460.93 2797.70
   05:47:00.627.18-Jan-2020 3717.66 6358.37 78.21 2.00 461.13 2797.70
   05:47:00.827.18-Jan-2020 3717.66 6358.37 78.21 2.00 461.33 2797.70
   05:47:01.027.18-Jan-2020 3717.66 6356.47 78.21 2.00 461.53 2797.70
   05:47:01.228.18-Jan-2020 3717.66 6356.11 78.21 2.00 461.73 2797.70
   05:47:01.428.18-Jan-2020 3717.66 6355.39 78.21 2.00 461.93 2797.70
   05:47:01.628.18-Jan-2020 3717.66 6353.39 78.21 2.00 462.13 2797.70
   05:47:01.828.18-Jan-2020 3717.66 6353.39 78.21 2.00 462.33 2797.70
   05:47:02.028.18-Jan-2020 3717.66 6354.93 78.21 2.00 462.53 2797.70
   05:47:02.228.18-Jan-2020 3717.66 6354.88 78.21 2.00 462.73 2797.70
   05:47:02.428.18-Jan-2020 3717.66 6364.79 78.21 2.00 462.93 2797.70
   05:47:02.628.18-Jan-2020 3717.66 6355.79 78.21 2.00 463.13 2797.70
   05:47:02.828.18-Jan-2020 3717.66 6355.79 78.21 2.00 463.33 2797.70
   05:47:03.028.18-Jan-2020 3717.66 6358.22 78.21 2.00 463.53 2797.70
   05:47:03.228.18-Jan-2020 3717.66 6355.03 78.21 2.00 463.73 2797.70
   05:47:03.428.18-Jan-2020 3717.66 6354.16 78.21 2.00 463.93 2797.70
   05:47:03.628.18-Jan-2020 3717.66 6363.23 78.21 2.00 464.13 2797.70
   05:47:03.828.18-Jan-2020 3717.66 6363.23 78.21 2.00 464.33 2797.70
   05:47:04.028.18-Jan-2020 3717.66 6356.72 78.21 2.00 464.53 2797.70
   05:47:04.228.18-Jan-2020 3717.66 6355.29 78.21 2.00 464.73 2797.70
   05:47:04.428.18-Jan-2020 3717.66 6356.60 78.21 2.00 464.93 2797.70
   05:47:04.628.18-Jan-2020 3717.66 6362.90 78.21 2.00 465.13 2797.70
   05:47:04.829.18-Jan-2020 3717.66 6362.90 78.21 2.00 465.33 2797.70
   05:47:05.029.18-Jan-2020 3717.66 6354.03 78.21 2.00 465.53 2797.70
   05:47:05.229.18-Jan-2020 3717.66 6360.62 78.21 2.00 465.73 2797.70
   05:47:05.429.18-Jan-2020 3717.66 6364.99 78.21 2.00 465.93 2797.70
   05:47:05.629.18-Jan-2020 3717.66 6359.42 78.21 2.00 466.13 2797.70
   05:47:05.829.18-Jan-2020 3717.66 6359.42 78.21 2.00 466.33 2797.70
   05:47:06.029.18-Jan-2020 3717.66 6356.64 78.21 2.00 466.53 2797.70
   05:47:06.229.18-Jan-2020 3717.66 6358.16 78.21 2.00 466.73 2797.70
   05:47:06.429.18-Jan-2020 3717.66 6358.64 78.21 2.00 466.93 2797.70
   05:47:06.629.18-Jan-2020 3717.66 6359.46 78.21 2.00 467.13 2797.70
   05:47:06.829.18-Jan-2020 3717.66 6359.46 78.21 2.00 467.33 2797.70
   05:47:07.029.18-Jan-2020 3717.66 6356.42 78.21 2.00 467.53 2797.70
   05:47:07.229.18-Jan-2020 3717.66 6357.37 78.21 2.00 467.73 2797.70
   05:47:07.429.18-Jan-2020 3717.66 6360.07 78.21 2.00 467.93 2797.70
   05:47:07.629.18-Jan-2020 3717.66 6358.60 78.21 2.00 468.13 2797.70
   05:47:07.829.18-Jan-2020 3717.66 6358.60 78.21 2.00 468.33 2797.70
   05:47:08.029.18-Jan-2020 3717.66 6356.30 78.21 2.00 468.53 2797.70
   05:47:08.229.18-Jan-2020 3717.66 6358.31 78.21 2.00 468.73 2797.70
   05:47:08.430.18-Jan-2020 3717.66 6357.26 78.21 2.00 468.93 2797.70
   05:47:08.630.18-Jan-2020 3717.66 6356.94 78.21 2.00 469.13 2797.70
   05:47:08.830.18-Jan-2020 3717.66 6356.94 78.21 2.00 469.33 2797.70
   05:47:09.030.18-Jan-2020 3717.66 6359.79 78.21 2.00 469.53 2797.70
   05:47:09.230.18-Jan-2020 3717.66 6354.27 78.21 2.00 469.73 2797.70
   05:47:09.430.18-Jan-2020 3717.66 6359.23 78.21 2.00 469.93 2797.70
   05:47:09.630.18-Jan-2020 3717.66 6357.15 78.21 2.00 470.13 2797.70
   05:47:09.830.18-Jan-2020 3717.66 6357.15 78.21 2.00 470.33 2797.70
   05:47:10.030.18-Jan-2020 3717.66 6357.20 78.21 2.00 470.53 2797.70
   05:47:10.230.18-Jan-2020 3717.66 6356.82 78.21 2.00 470.73 2797.70
   05:47:10.430.18-Jan-2020 3717.66 6355.35 78.21 2.00 470.93 2797.70
   05:47:10.630.18-Jan-2020 3717.66 6355.64 78.21 2.00 471.13 2797.70
   05:47:10.830.18-Jan-2020 3717.66 6355.64 78.21 2.00 471.33 2797.70
   05:47:11.030.18-Jan-2020 3717.66 6356.58 78.21 2.00 471.53 2797.70
   05:47:11.230.18-Jan-2020 3717.66 6365.05 78.21 2.00 471.73 2797.70
   05:47:11.430.18-Jan-2020 3717.66 6357.47 78.21 2.00 471.93 2797.70
   05:47:11.630.18-Jan-2020 3717.66 6356.02 78.21 2.00 472.13 2797.70
   05:47:11.831.18-Jan-2020 3717.66 6356.02 78.21 2.00 472.33 2797.70
   05:47:12.031.18-Jan-2020 3717.66 6356.53 78.21 2.00 472.53 2797.70
   05:47:12.231.18-Jan-2020 3717.66 6362.11 78.21 2.00 472.73 2797.70
   05:47:12.431.18-Jan-2020 3717.66 6361.04 78.21 2.00 472.93 2797.70
   05:47:12.631.18-Jan-2020 3717.66 6355.34 78.21 2.00 473.13 2797.70
   05:47:12.831.18-Jan-2020 3717.66 6355.34 78.21 2.00 473.33 2797.70
   05:47:13.031.18-Jan-2020 3717.66 6354.87 78.21 2.00 473.53 2797.70
   05:47:13.231.18-Jan-2020 3717.66 6355.53 78.21 2.00 473.73 2797.70
   05:47:13.431.18-Jan-2020 3717.66 6354.51 78.21 2.00 473.93 2797.70
   05:47:13.631.18-Jan-2020 3717.66 6365.18 78.21 2.00 474.13 2797.70
   05:47:13.831.18-Jan-2020 3717.66 6365.18 78.21 2.00 474.33 2797.70
   05:47:14.031.18-Jan-2020 3717.66 6356.29 78.21 2.00 474.53 2797.70
   05:47:14.231.18-Jan-2020 3717.66 6366.12 78.21 2.00 474.73 2797.70
   05:47:14.431.18-Jan-2020 3717.66 6362.34 78.21 2.00 474.93 2797.70
   05:47:14.631.18-Jan-2020 3717.66 6355.78 78.21 2.00 475.13 2797.70
   05:47:14.831.18-Jan-2020 3717.66 6355.78 78.21 2.00 475.33 2797.70
   05:47:15.031.18-Jan-2020 3717.66 6358.60 78.21 2.00 475.53 2797.70
   05:47:15.231.18-Jan-2020 3717.66 6358.44 78.21 2.00 475.73 2797.70
   05:47:15.432.18-Jan-2020 3717.66 6359.35 78.21 2.00 475.93 2797.70
   05:47:15.632.18-Jan-2020 3717.66 6356.15 78.21 2.00 476.13 2797.70
   05:47:15.832.18-Jan-2020 3717.66 6356.15 78.21 2.00 476.33 2797.70
   05:47:16.032.18-Jan-2020 3717.66 6355.28 78.21 2.00 476.53 2797.70
   05:47:16.232.18-Jan-2020 3717.66 6357.53 78.21 2.00 476.73 2797.70
   05:47:16.432.18-Jan-2020 3717.66 6358.55 78.21 2.00 476.94 2797.70
   05:47:16.632.18-Jan-2020 3717.66 6357.99 78.21 2.00 477.14 2797.70
   05:47:16.832.18-Jan-2020 3717.66 6357.99 78.21 2.00 477.34 2797.70
   05:47:17.032.18-Jan-2020 3717.66 6357.70 78.21 2.00 477.54 2797.70
   05:47:17.232.18-Jan-2020 3717.66 6358.50 78.21 2.00 477.74 2797.70
   05:47:17.432.18-Jan-2020 3717.66 6358.08 78.21 2.00 477.94 2797.70
   05:47:17.632.18-Jan-2020 3717.66 6357.89 78.21 2.00 478.14 2797.70
   05:47:17.832.18-Jan-2020 3717.66 6357.89 78.21 2.00 478.34 2797.70
   05:47:18.032.18-Jan-2020 3717.66 6357.04 78.21 2.00 478.54 2797.70
   05:47:18.232.18-Jan-2020 3717.66 6356.05 78.21 2.00 478.74 2797.70
   05:47:18.432.18-Jan-2020 3717.66 6360.40 78.21 2.00 478.94 2797.70
   05:47:18.632.18-Jan-2020 3717.66 6357.65 78.21 2.00 479.14 2797.70
   05:47:18.832.18-Jan-2020 3717.66 6357.65 78.21 2.00 479.34 2797.70
   05:47:19.033.18-Jan-2020 3717.66 6355.41 78.20 2.00 479.54 2797.70
   05:47:19.233.18-Jan-2020 3717.66 6356.36 78.20 2.00 479.74 2797.70
   05:47:19.433.18-Jan-2020 3717.66 6355.10 78.20 2.00 479.94 2797.70
   05:47:19.633.18-Jan-2020 3717.66 6356.88 78.20 2.00 480.14 2797.70
   05:47:19.833.18-Jan-2020 3717.66 6356.88 78.20 2.00 480.34 2797.70
   05:47:20.033.18-Jan-2020 3717.66 6356.24 78.20 2.00 480.54 2797.70
   05:47:20.233.18-Jan-2020 3717.66 6366.77 78.20 2.00 480.74 2797.70
   05:47:20.433.18-Jan-2020 3717.66 6353.86 78.20 2.00 480.94 2797.70
   05:47:20.633.18-Jan-2020 3717.66 6356.95 78.20 2.00 481.14 2797.70
   05:47:20.833.18-Jan-2020 3717.66 6356.95 78.20 2.00 481.34 2797.70
   05:47:21.033.18-Jan-2020 3717.66 6358.14 78.20 2.00 481.54 2797.70
   05:47:21.233.18-Jan-2020 3717.66 6364.34 78.20 2.00 481.74 2797.70
   05:47:21.433.18-Jan-2020 3717.66 6362.14 78.20 2.00 481.94 2797.70
   05:47:21.633.18-Jan-2020 3717.66 6355.52 78.20 2.00 482.14 2797.70
   05:47:21.833.18-Jan-2020 3717.66 6355.52 78.20 2.00 482.34 2797.70
   05:47:22.033.18-Jan-2020 3717.66 6355.25 78.20 2.00 482.54 2797.70
   05:47:22.233.18-Jan-2020 3717.66 6356.33 78.20 2.00 482.74 2797.70
   05:47:22.434.18-Jan-2020 3717.66 6354.96 78.20 2.00 482.94 2797.70
