~Version Information
 VERS.                  2.0:   CWLS log ASCII Standard -VERSION 2.0
 WRAP.                   NO:   One line per depth step
~Well Information Block
#MNEM.UNIT     VALUE/NAME     DESCRIPTION
#---------     -----------    ---------------------------
 STRT.S             13:51:43 18-Jan-20: START TIME 13:51:43 18-Jan-20
 STOP.S             13:59:59 18-Jan-20: STOP TIME  13:59:59 18-Jan-20
 STEP.S                   0.00: STEP TIME
 NULL.                 -999.25: NULL VALUE
 DFWT.                        :  DIST FWL TEXT
 DFST.                        :  DIST FSL TEXT
 DMF .             Drill Floor:  DRILL MEAS FROM
 STIM.      09.30.00 26-Dec-19:  START TIME
 DATE.      08.00.00 20-Jan-20:  END TIME
 SPUD.               23-Nov-19:  SPUD DATE
 NREF.                    Grid:  NORTH REFERENCE
 HPTY.       Minimum Curvature:  HOLE POS TYPE
 DMOD.             Drill Model:  DRILL MOD DESC
 SVYD.                  Survey:  SURVEY DESC
 ILTD.               Lithology:  INTERP LTH DESC
 FTOP.          Formation Tops:  FORM TOPS DESC
 SON .        AZ-XX-0906192647:  JOB NUMBER
 WTYP.                Deviated:  WELL TYPE
 COMP.     BP Exploration (Caspian Sea) Ltd:  COMPANY
 BASE.              Azerbaijan:  LOGGING EQUIPMENT BASE LOCATION
 REGN.                 Eurasia:  REGION
 FLD .                     ACG:  FIELD NAME
 SRVC.              KCA Deutag:  CONTRACTOR
 MWDS.                    Baku:  MWD SHOP
 WELL.     A10 (Slot 20) - SCP:  WELL NAME
 JOBN.        AZ-XX-0906192647:  JOB TICKET NUMB
 RIG .                 Chirag1:  RIG NAME
 DCON.     Halliburton Sperry Drilling:  DIRECTNL CONTR
 UNIT.                     N/A:  LOGGING EQUIPMENT ID
 PDAT.          Mean Sea Level:  PERMANENT DATUM
 MDS .        Operator Entered:  MAG DATA SOURCE
 CTRY.              Azerbaijan:  COUNTRY NAME
 UWI .            /AZE00000090:  UNIQUE WELL IDENTIFIER
 API .            /AZE00000090:  API NUMBER
 CNTY.                        :  COUNTY
 PROV.                        :  PROVINCE
 STAT.                        :  STATE
 LOC .                        :  LOCATION
 LMF .             Drill Floor:  LOG MEASURED FROM
 TVDS.m                  36.60:  TVDSS CORRECTN
 LATI.deg                40.08:  LATITUDE
 LONG.deg                51.24:  LONGITUDE
 WHNS.m                  -7.94:  WELL HEAD N/S
 WHEW.m                   1.56:  WELL HEAD E/W
 UTMX.m              520429.26:  UTM X
 UTMY.m             4438973.87:  UTM Y
 DFWL.m                   0.00:  DISTANCE FWL
 DFSL.m                   0.00:  DISTANCE FSL
 SDEP.m                1455.00:  START DEPTH
 TDD .m                3878.01:  TOTAL DEPTH (DRILLER)
 VSDR.deg               112.75:  VERT SEC DIRECT
 GVFD.g                   1.00:  GRAVITY FIELD
 MFLD.nT              50256.00:  MAGNETIC FIELD
 MDIP.deg                59.52:  MAGNETIC DIP
 MDEC.deg                 6.43:  MAGNETIC DECL
 GRDC.deg                 0.16:  GRID CORRECTION
 AZTC.deg                 6.27:  AZM TOTAL CORR
 EPD .m                   0.00:  ELEVATION
 EGL .m                   0.00:  GROUND ELEVATION
 WDMS.m                 121.00:  WD ELEV
 APD .m                  36.60:  DEPTH ABOVE PD
 AGAP.m                  36.60:  AIR GAP
 VSEW.m                   1.56:  VERT SEC E/W
 VSNS.m                  -7.94:  VERT SEC N/S
 DEP .m                1140.01:  DEPTH
 EKB .m                  36.60:  KB ELEVATION
 EDF .m                  36.60:  DF ELEVATION
 TDL .m                1293.00:  TOTAL DEPTH (LOGGER)
 VSC .                       0:  VS TO CLOSURE
 MAGU.                 1849164:  MAGUTM CHECKSUM
~Parameter Information Block
#MNEM.UNIT       Value        Description
#---------     -----------    ---------------------------
 AV  .mps                 2.40:  Ann Velocity 
 AVMX.mps                 2.55:  Max Ann Veloc 
 AZIF.deg               134.35:  Azm, Final 
 BHAT.        Rotary Steerable:  BHA Type 
 BREV.rev               847.00:  Rev Bit Total 
 BROT.°/30m              -2.51:  Build Rotating 
 BS  .in                  8.50:  Bit Size 
 BSZ .in                  8.50:  Bit Size 
 BTPL.psig              700.00:  Bit Press Loss 
 CABU.                     Yes:  Customer Abuse 
 CGEO.          Ilgar Gurbanov:  Customer Geo 
 COMM.                     üÓ~:  Run Comments 1 
 TCS .hr                140.40:  Time Ciculation Ended 
 CV  .mps                 2.27:  Crit Velocity 
 CVMX.mps                 2.45:  Max Crit Veloc 
 DD1 .         Intigam Rahimov:  Direct Drillr 1 
 DD2 .         Rasim Ibrahimov:  Direct Drillr 2 
 DDSV.                 iCruise:  DD Service 
 DEFF.%                  99.00:  % Det Eff 
 DLRX.°/30m               3.28:  Dogleg Rot Max 
 DLSO.°/30m               0.00:  Dogleg Oriented 
 DLSX.°/30m               0.00:  Dogleg Str Max 
 DRET.      23.30.00 18-Jan-20:  Drill End Time 
 DRST.      01.45.00 11-Jan-20:  Drill Start Tim 
 DTIM.hr                 94.00:  Time Drilling 
 EDEP.m                3878.01:  End Depth 
 ENG1.       Dauren Baktybayev:  Engineer 1 
 ENG2.      Natik Hasanaghayev:  Engineer 2 
 ENG3.          Rustam Safarov:  Engineer 3 
 ETIM.      08.00.00 20-Jan-20:  End Time 
 FLOI.gpm               532.00:  Flow In 
 FLON.gpm               500.00:  Flow In Min 
 FLOS.cptm                0.00:  Fluid Loss 
 FLOX.gpm               540.00:  Flow In Max 
 FTRO.       Formation Presure:  FTWD Run Obj 
 HPRE.                     Yes:  High Pressure 
 HTEM.                      No:  High Temp 
 HYDO.m                   1.80:  Hydro Offset 
 IFIN.deg                39.86:  Inc, Final 
 IMAX.deg                59.73:  Inc Max 
 IMIN.deg                39.25:  Inc Min 
 IMND.m                3816.77:  Inc Min Depth 
 IMXD.m                2596.33:  Inc Max Depth 
 JARR.                      No:  Jarring 
 LETM.      23.30.00 18-Jan-20:  Log End Time 
 LOST.hr                     0:  Lost Rig Time 
 LSTM.      01.45.00 11-Jan-20:  Log Start Time 
 MDCL.ppm             41500.00:  Mud Chlorides 
 MDES.     Inversion Oil/Synthetic:  Mud Desc 
 DFD .sg                  1.48:  Mud Density 
 MDMN.sg                  1.48:  Dens Mud Min 
 MDMX.sg                  1.48:  Dens Mud Max 
 MOIL.                      54:  Run Mud Oil % 
 MOWR.                   72:28:  Run Mud OWR 
 MSND.                       0:  Run Mud Sand % 
 MSOL.                      23:  Run Mud Solids% 
 DFV .spqt               86.00:  Mud Viscosity 
 MWOD.in                  6.75:  MWD Tool OD 
 MWSI.                      No:  Serv Intrp, MWD 
 OTIM.hr                223.40:  Time Operating 
 PCON.           Look Like New:  Pad Condition 
 PMAX.psia            32446.79:  Press Op, Max 
 PV  .cP                 49.00:  Mud PV 
 RUN .                     200:  Run Number 
 ROPA.m/hr               12.48:  ROP Avg 
 ROPN.m/hr                8.00:  ROP Min 
 ROPX.m/hr               27.00:  ROP Max 
 RPMA.rpm               121.00:  RPM Surface Avg 
 RPMN.rpm                60.00:  RPM Surface Min 
 RPMX.rpm               140.00:  RPM Surface Max 
 RRUN.                    L202:  Rig Run Number 
 RTIM.hr                  7.25:  Time Reaming 
 SAZI.deg               123.49:  Azm, Start 
 SDEP.m                2585.01:  Start Depth 
 SIDD.                      No:  Serv Intrp, DD 
 SINC.deg                59.93:  Inc, Start 
 SPPA.psig             3539.00:  SPP Avg 
 SPPN.psig             3050.00:  SPP Min 
 SPPX.psig             3950.00:  SPP Max 
 STIM.      19.00.00 10-Jan-20:  Start Time 
 SVCS.                 DD, MWD:  Services 
 SVER.                    9.20:  Sperry Version 
 TDAT.m                1293.00:  Tot Depth Attmp 
 TDDF.                      No:  Trip for DD 
 TDLG.m                1293.00:  Tot Depth Loggd 
 TFF .                      No:  Trip for Fail 
 TQAA.f-kp               16.00:  Torque Abs Avg 
 TQAN.f-kp               11.00:  Torque Abs Min 
 TQAX.f-kp               18.00:  Torque Abs Max 
 TRRT.°/30m               1.25:  Turn Rotating 
 MRT .                  EWR-M5:  Maximum Recorded Temperature 
 TTMX.degC               84.00:  Max Tool Temp 
 VS01.          AZ90514619R5C6:  Virtual Str1 SN 
 VS02.        AZ90552592N2L2C6:  Virtual Str2 SN 
 VS03.        AZ90571337Z1W1C6:  Virtual Str3 SN 
 VS04.         AZ90513690K23C6:  Virtual Str4 SN 
 VS05.           AZ90594857F11:  Virtual Str5 SN 
 VS06.                13102166:  Virtual Str6 SN 
 WBMN.klb                 7.00:  WOB Min 
 WITN.            Peter Wilson:  Customer Rep 
 WOBA.klb                 9.95:  WOB Avg 
 WOBX.klb                10.00:  WOB Max 
 YP  .lhf2               36.00:  Yield Point 
~Curve Information Block
#MNEM.UNIT                 API CODE     Curve Description
#---------               -----------    ---------------------------
 TIME.HHMMSS            00 000 000 000:  GT Time & Date
 GTDEPTH.m              00 000 000 000:  GT Depth
 GTPQH.psia             00 000 000 000:  GT HR Quartz Pressure
 GTTQ.degC              00 000 000 000:  GT Quartz Temperature
 GTTN.NONE              00 000 000 000:  GT Test Number
 GTET.sec               00 000 000 000:  GT Elapsed Test Time
 GTTVD.m                00 000 000 000:  GT True Vertical Depth
#Other Information
#
#WARRANTY: Halliburton will use its best efforts to furnish customers with 
#accurate information and interpretations that are part of, and incident to, the services 
#provided.  However, Halliburton cannot and does not warrant the accuracy 
#or correctness of such information and interpretations.  Under no circumstances should any 
#such information or interpretation be relied upon as the sole basis for any drilling, 
#completion, production, or financial decision or any procedure involving any risk to the 
#safety of any drilling venture, drilling rig or its crew or any other third party.  The 
#Customer has full responsibility for all drilling, completion and production operation.  
#Halliburton makes no representations or warranties, either expressed or 
#implied, including, but not limited to, the implied warranties of merchantability or fitness 
#for a particular purpose, with respect to the services rendered.  In no event will 
#Halliburton be liable for failure to obtain any particular results or for 
#any damages, including, but not limited to, indirect, special or consequential damages, 
#resulting from the use of any information or interpretation provided by Halliburton.
#
~A           TIME           GTDEPTH  GTPQH  GTTQ  GTTN  GTET   GTTVD  
# ...
   13:58:14.656.18-Jan-2020 3754.01 3694.46 79.45 5.00 391.13 2824.94
   13:58:14.856.18-Jan-2020 3754.01 3694.46 79.45 5.00 391.33 2824.94
   13:58:15.056.18-Jan-2020 3754.01 3692.64 79.42 5.00 391.53 2824.94
   13:58:15.257.18-Jan-2020 3754.01 3696.98 79.45 5.00 391.73 2824.94
   13:58:15.457.18-Jan-2020 3754.01 3694.62 79.45 5.00 391.93 2824.94
   13:58:15.657.18-Jan-2020 3754.01 3695.82 79.45 5.00 392.13 2824.94
   13:58:15.857.18-Jan-2020 3754.01 3695.82 79.45 5.00 392.33 2824.94
   13:58:16.057.18-Jan-2020 3754.01 3698.24 79.45 5.00 392.53 2824.94
   13:58:16.257.18-Jan-2020 3754.01 3692.95 79.45 5.00 392.73 2824.94
   13:58:16.457.18-Jan-2020 3754.01 3696.39 79.45 5.00 392.93 2824.94
   13:58:16.657.18-Jan-2020 3754.01 3695.09 79.45 5.00 393.13 2824.94
   13:58:16.857.18-Jan-2020 3754.01 3695.09 79.45 5.00 393.33 2824.94
   13:58:17.057.18-Jan-2020 3754.01 3693.46 79.45 5.00 393.53 2824.94
   13:58:17.257.18-Jan-2020 3754.01 3696.43 79.45 5.00 393.73 2824.94
   13:58:17.457.18-Jan-2020 3754.01 3694.97 79.45 5.00 393.93 2824.94
   13:58:17.657.18-Jan-2020 3754.01 3695.80 79.45 5.00 394.13 2824.94
   13:58:17.857.18-Jan-2020 3754.01 3695.80 79.45 5.00 394.33 2824.94
   13:58:18.057.18-Jan-2020 3754.01 3695.50 79.45 5.00 394.53 2824.94
   13:58:18.258.18-Jan-2020 3754.01 3695.38 79.45 5.00 394.73 2824.94
   13:58:18.458.18-Jan-2020 3754.01 3695.43 79.45 5.00 394.93 2824.94
   13:58:18.658.18-Jan-2020 3754.01 3695.65 79.45 5.00 395.13 2824.94
   13:58:18.858.18-Jan-2020 3754.01 3695.65 79.45 5.00 395.33 2824.94
   13:58:19.058.18-Jan-2020 3754.01 3695.49 79.45 5.00 395.53 2824.94
   13:58:19.258.18-Jan-2020 3754.01 3695.37 79.45 5.00 395.73 2824.94
   13:58:19.458.18-Jan-2020 3754.01 3695.49 79.45 5.00 395.93 2824.94
   13:58:19.658.18-Jan-2020 3754.01 3695.52 79.45 5.00 396.13 2824.94
   13:58:19.858.18-Jan-2020 3754.01 3695.52 79.45 5.00 396.33 2824.94
   13:58:20.058.18-Jan-2020 3754.01 3695.36 79.45 5.00 396.53 2824.94
   13:58:20.258.18-Jan-2020 3754.01 3696.76 79.45 5.00 396.73 2824.94
   13:58:20.458.18-Jan-2020 3754.01 3695.19 79.45 5.00 396.93 2824.94
   13:58:20.658.18-Jan-2020 3754.01 3694.92 79.45 5.00 397.13 2824.94
   13:58:20.858.18-Jan-2020 3754.01 3694.92 79.45 5.00 397.33 2824.94
   13:58:21.058.18-Jan-2020 3754.01 3695.26 79.45 5.00 397.53 2824.94
   13:58:21.258.18-Jan-2020 3754.01 3695.59 79.45 5.00 397.73 2824.94
   13:58:21.459.18-Jan-2020 3754.01 3695.19 79.45 5.00 397.93 2824.94
   13:58:21.659.18-Jan-2020 3754.01 3695.64 79.45 5.00 398.13 2824.94
   13:58:21.859.18-Jan-2020 3754.01 3695.64 79.45 5.00 398.33 2824.94
   13:58:22.059.18-Jan-2020 3754.01 3695.51 79.45 5.00 398.53 2824.94
   13:58:22.259.18-Jan-2020 3754.01 3695.53 79.45 5.00 398.73 2824.94
   13:58:22.459.18-Jan-2020 3754.01 3694.73 79.45 5.00 398.93 2824.94
   13:58:22.659.18-Jan-2020 3754.01 3697.89 79.45 5.00 399.13 2824.94
   13:58:22.859.18-Jan-2020 3754.01 3697.89 79.45 5.00 399.33 2824.94
   13:58:23.059.18-Jan-2020 3754.01 3696.86 79.45 5.00 399.53 2824.94
   13:58:23.259.18-Jan-2020 3754.01 3694.79 79.45 5.00 399.73 2824.94
   13:58:23.459.18-Jan-2020 3754.01 3695.78 79.45 5.00 399.93 2824.94
   13:58:23.659.18-Jan-2020 3754.01 3696.92 79.45 5.00 400.13 2824.94
   13:58:23.859.18-Jan-2020 3754.01 3696.92 79.45 5.00 400.33 2824.94
   13:58:24.059.18-Jan-2020 3754.01 3696.22 79.45 5.00 400.53 2824.94
   13:58:24.259.18-Jan-2020 3754.01 3694.73 79.45 5.00 400.73 2824.94
   13:58:24.460.18-Jan-2020 3754.01 3695.74 79.45 5.00 400.93 2824.94
   13:58:24.660.18-Jan-2020 3754.01 3696.44 79.45 5.00 401.13 2824.94
   13:58:24.860.18-Jan-2020 3754.01 3696.44 79.45 5.00 401.33 2824.94
   13:58:25.060.18-Jan-2020 3754.01 3694.47 79.45 5.00 401.53 2824.94
   13:58:25.260.18-Jan-2020 3754.01 3695.13 79.45 5.00 401.73 2824.94
   13:58:25.460.18-Jan-2020 3754.01 3697.42 79.45 5.00 401.93 2824.94
   13:58:25.660.18-Jan-2020 3754.01 3693.67 79.45 5.00 402.13 2824.94
   13:58:25.860.18-Jan-2020 3754.01 3693.67 79.45 5.00 402.33 2824.94
   13:58:26.060.18-Jan-2020 3754.01 3695.01 79.45 5.00 402.53 2824.94
   13:58:26.260.18-Jan-2020 3754.01 3695.79 79.45 5.00 402.73 2824.94
   13:58:26.460.18-Jan-2020 3754.01 3695.35 79.45 5.00 402.93 2824.94
   13:58:26.660.18-Jan-2020 3754.01 3695.73 79.45 5.00 403.13 2824.94
   13:58:26.860.18-Jan-2020 3754.01 3695.73 79.45 5.00 403.33 2824.94
   13:58:27.060.18-Jan-2020 3754.01 3695.44 79.45 5.00 403.53 2824.94
   13:58:27.260.18-Jan-2020 3754.01 3695.52 79.45 5.00 403.73 2824.94
   13:58:27.460.18-Jan-2020 3754.01 3695.64 79.45 5.00 403.93 2824.94
   13:58:27.661.18-Jan-2020 3754.01 3695.59 79.45 5.00 404.13 2824.94
   13:58:27.861.18-Jan-2020 3754.01 3695.59 79.45 5.00 404.33 2824.94
   13:58:28.061.18-Jan-2020 3754.01 3695.60 79.45 5.00 404.53 2824.94
   13:58:28.261.18-Jan-2020 3754.01 3695.48 79.45 5.00 404.73 2824.94
   13:58:28.461.18-Jan-2020 3754.01 3695.53 79.45 5.00 404.93 2824.94
   13:58:28.661.18-Jan-2020 3754.01 3695.37 79.45 5.00 405.13 2824.94
   13:58:28.861.18-Jan-2020 3754.01 3695.37 79.45 5.00 405.33 2824.94
   13:58:29.061.18-Jan-2020 3754.01 3695.14 79.45 5.00 405.53 2824.94
   13:58:29.261.18-Jan-2020 3754.01 3694.74 79.45 5.00 405.73 2824.94
   13:58:29.461.18-Jan-2020 3754.01 3695.63 79.45 5.00 405.93 2824.94
   13:58:29.661.18-Jan-2020 3754.01 3695.12 79.45 5.00 406.13 2824.94
   13:58:29.861.18-Jan-2020 3754.01 3695.12 79.45 5.00 406.33 2824.94
   13:58:30.061.18-Jan-2020 3754.01 3695.40 79.45 5.00 406.53 2824.94
   13:58:30.261.18-Jan-2020 3754.01 3695.56 79.45 5.00 406.73 2824.94
   13:58:30.461.18-Jan-2020 3754.01 3695.34 79.45 5.00 406.93 2824.94
   13:58:30.662.18-Jan-2020 3754.01 3695.58 79.45 5.00 407.13 2824.94
   13:58:30.862.18-Jan-2020 3754.01 3695.58 79.45 5.00 407.33 2824.94
   13:58:31.062.18-Jan-2020 3754.01 3694.89 79.45 5.00 407.53 2824.94
   13:58:31.262.18-Jan-2020 3754.01 3697.99 79.45 5.00 407.73 2824.94
   13:58:31.462.18-Jan-2020 3754.01 3692.89 79.45 5.00 407.93 2824.94
   13:58:31.662.18-Jan-2020 3754.01 3697.01 79.45 5.00 408.13 2824.94
   13:58:31.862.18-Jan-2020 3754.01 3697.01 79.45 5.00 408.33 2824.94
   13:58:32.062.18-Jan-2020 3754.01 3696.11 79.45 5.00 408.53 2824.94
   13:58:32.262.18-Jan-2020 3754.01 3696.74 79.45 5.00 408.73 2824.94
   13:58:32.462.18-Jan-2020 3754.01 3694.02 79.45 5.00 408.93 2824.94
   13:58:32.662.18-Jan-2020 3754.01 3696.07 79.45 5.00 409.13 2824.94
   13:58:32.862.18-Jan-2020 3754.01 3696.07 79.45 5.00 409.33 2824.94
   13:58:33.062.18-Jan-2020 3754.01 3695.67 79.45 5.00 409.53 2824.94
   13:58:33.262.18-Jan-2020 3754.01 3696.76 79.45 5.00 409.73 2824.94
   13:58:33.462.18-Jan-2020 3754.01 3695.22 79.45 5.00 409.93 2824.94
   13:58:33.663.18-Jan-2020 3754.01 3694.62 79.45 5.00 410.13 2824.94
   13:58:33.863.18-Jan-2020 3754.01 3694.62 79.45 5.00 410.33 2824.94
   13:58:34.063.18-Jan-2020 3754.01 3697.60 79.45 5.00 410.53 2824.94
   13:58:34.263.18-Jan-2020 3754.01 3693.61 79.45 5.00 410.73 2824.94
   13:58:34.463.18-Jan-2020 3754.01 3696.19 79.45 5.00 410.93 2824.94
   13:58:34.663.18-Jan-2020 3754.01 3695.19 79.45 5.00 411.13 2824.94
   13:58:34.863.18-Jan-2020 3754.01 3695.19 79.45 5.00 411.33 2824.94
   13:58:35.063.18-Jan-2020 3754.01 3695.60 79.42 5.00 411.53 2824.94
   13:58:35.263.18-Jan-2020 3754.01 3695.62 79.45 5.00 411.73 2824.94
   13:58:35.463.18-Jan-2020 3754.01 3695.43 79.45 5.00 411.93 2824.94
   13:58:35.663.18-Jan-2020 3754.01 3695.46 79.45 5.00 412.13 2824.94
   13:58:35.863.18-Jan-2020 3754.01 3695.46 79.45 5.00 412.33 2824.94
   13:58:36.063.18-Jan-2020 3754.01 3695.62 79.45 5.00 412.53 2824.94
   13:58:36.263.18-Jan-2020 3754.01 3695.52 79.45 5.00 412.73 2824.94
   13:58:36.463.18-Jan-2020 3754.01 3695.45 79.45 5.00 412.93 2824.94
   13:58:36.663.18-Jan-2020 3754.01 3695.50 79.45 5.00 413.13 2824.94
   13:58:36.864.18-Jan-2020 3754.01 3695.50 79.45 5.00 413.33 2824.94
   13:58:37.064.18-Jan-2020 3754.01 3695.41 79.45 5.00 413.53 2824.94
   13:58:37.264.18-Jan-2020 3754.01 3695.45 79.45 5.00 413.73 2824.94
   13:58:37.464.18-Jan-2020 3754.01 3696.91 79.45 5.00 413.93 2824.94
