~Version Information
 VERS.                  2.0:   CWLS log ASCII Standard -VERSION 2.0
 WRAP.                   NO:   One line per depth step
~Well Information Block
#MNEM.UNIT     VALUE/NAME     DESCRIPTION
#---------     -----------    ---------------------------
 STRT.S             13:31:21 18-Jan-20: START TIME 13:31:21 18-Jan-20
 STOP.S             13:39:29 18-Jan-20: STOP TIME  13:39:29 18-Jan-20
 STEP.S                   0.00: STEP TIME
 NULL.                 -999.25: NULL VALUE
 DFWT.                        :  DIST FWL TEXT
 DFST.                        :  DIST FSL TEXT
 DMF .             Drill Floor:  DRILL MEAS FROM
 STIM.      09.30.00 26-Dec-19:  START TIME
 DATE.      08.00.00 20-Jan-20:  END TIME
 SPUD.               23-Nov-19:  SPUD DATE
 NREF.                    Grid:  NORTH REFERENCE
 HPTY.       Minimum Curvature:  HOLE POS TYPE
 DMOD.             Drill Model:  DRILL MOD DESC
 SVYD.                  Survey:  SURVEY DESC
 ILTD.               Lithology:  INTERP LTH DESC
 FTOP.          Formation Tops:  FORM TOPS DESC
 SON .        AZ-XX-0906192647:  JOB NUMBER
 WTYP.                Deviated:  WELL TYPE
 COMP.     BP Exploration (Caspian Sea) Ltd:  COMPANY
 BASE.              Azerbaijan:  LOGGING EQUIPMENT BASE LOCATION
 REGN.                 Eurasia:  REGION
 FLD .                     ACG:  FIELD NAME
 SRVC.              KCA Deutag:  CONTRACTOR
 MWDS.                    Baku:  MWD SHOP
 WELL.     A10 (Slot 20) - SCP:  WELL NAME
 JOBN.        AZ-XX-0906192647:  JOB TICKET NUMB
 RIG .                 Chirag1:  RIG NAME
 DCON.     Halliburton Sperry Drilling:  DIRECTNL CONTR
 UNIT.                     N/A:  LOGGING EQUIPMENT ID
 PDAT.          Mean Sea Level:  PERMANENT DATUM
 MDS .        Operator Entered:  MAG DATA SOURCE
 CTRY.              Azerbaijan:  COUNTRY NAME
 UWI .            /AZE00000090:  UNIQUE WELL IDENTIFIER
 API .            /AZE00000090:  API NUMBER
 CNTY.                        :  COUNTY
 PROV.                        :  PROVINCE
 STAT.                        :  STATE
 LOC .                        :  LOCATION
 LMF .             Drill Floor:  LOG MEASURED FROM
 TVDS.m                  36.60:  TVDSS CORRECTN
 LATI.deg                40.08:  LATITUDE
 LONG.deg                51.24:  LONGITUDE
 WHNS.m                  -7.94:  WELL HEAD N/S
 WHEW.m                   1.56:  WELL HEAD E/W
 UTMX.m              520429.26:  UTM X
 UTMY.m             4438973.87:  UTM Y
 DFWL.m                   0.00:  DISTANCE FWL
 DFSL.m                   0.00:  DISTANCE FSL
 SDEP.m                1455.00:  START DEPTH
 TDD .m                3878.01:  TOTAL DEPTH (DRILLER)
 VSDR.deg               112.75:  VERT SEC DIRECT
 GVFD.g                   1.00:  GRAVITY FIELD
 MFLD.nT              50256.00:  MAGNETIC FIELD
 MDIP.deg                59.52:  MAGNETIC DIP
 MDEC.deg                 6.43:  MAGNETIC DECL
 GRDC.deg                 0.16:  GRID CORRECTION
 AZTC.deg                 6.27:  AZM TOTAL CORR
 EPD .m                   0.00:  ELEVATION
 EGL .m                   0.00:  GROUND ELEVATION
 WDMS.m                 121.00:  WD ELEV
 APD .m                  36.60:  DEPTH ABOVE PD
 AGAP.m                  36.60:  AIR GAP
 VSEW.m                   1.56:  VERT SEC E/W
 VSNS.m                  -7.94:  VERT SEC N/S
 DEP .m                1140.01:  DEPTH
 EKB .m                  36.60:  KB ELEVATION
 EDF .m                  36.60:  DF ELEVATION
 TDL .m                1293.00:  TOTAL DEPTH (LOGGER)
 VSC .                       0:  VS TO CLOSURE
 MAGU.                 1849164:  MAGUTM CHECKSUM
~Parameter Information Block
#MNEM.UNIT       Value        Description
#---------     -----------    ---------------------------
 AV  .mps                 2.40:  Ann Velocity 
 AVMX.mps                 2.55:  Max Ann Veloc 
 AZIF.deg               134.35:  Azm, Final 
 BHAT.        Rotary Steerable:  BHA Type 
 BREV.rev               847.00:  Rev Bit Total 
 BROT.°/30m              -2.51:  Build Rotating 
 BS  .in                  8.50:  Bit Size 
 BSZ .in                  8.50:  Bit Size 
 BTPL.psig              700.00:  Bit Press Loss 
 CABU.                     Yes:  Customer Abuse 
 CGEO.          Ilgar Gurbanov:  Customer Geo 
 COMM.                     ¸P:  Run Comments 1 
 TCS .hr                140.40:  Time Ciculation Ended 
 CV  .mps                 2.27:  Crit Velocity 
 CVMX.mps                 2.45:  Max Crit Veloc 
 DD1 .         Intigam Rahimov:  Direct Drillr 1 
 DD2 .         Rasim Ibrahimov:  Direct Drillr 2 
 DDSV.                 iCruise:  DD Service 
 DEFF.%                  99.00:  % Det Eff 
 DLRX.°/30m               3.28:  Dogleg Rot Max 
 DLSO.°/30m               0.00:  Dogleg Oriented 
 DLSX.°/30m               0.00:  Dogleg Str Max 
 DRET.      23.30.00 18-Jan-20:  Drill End Time 
 DRST.      01.45.00 11-Jan-20:  Drill Start Tim 
 DTIM.hr                 94.00:  Time Drilling 
 EDEP.m                3878.01:  End Depth 
 ENG1.       Dauren Baktybayev:  Engineer 1 
 ENG2.      Natik Hasanaghayev:  Engineer 2 
 ENG3.          Rustam Safarov:  Engineer 3 
 ETIM.      08.00.00 20-Jan-20:  End Time 
 FLOI.gpm               532.00:  Flow In 
 FLON.gpm               500.00:  Flow In Min 
 FLOS.cptm                0.00:  Fluid Loss 
 FLOX.gpm               540.00:  Flow In Max 
 FTRO.       Formation Presure:  FTWD Run Obj 
 HPRE.                     Yes:  High Pressure 
 HTEM.                      No:  High Temp 
 HYDO.m                   1.80:  Hydro Offset 
 IFIN.deg                39.86:  Inc, Final 
 IMAX.deg                59.73:  Inc Max 
 IMIN.deg                39.25:  Inc Min 
 IMND.m                3816.77:  Inc Min Depth 
 IMXD.m                2596.33:  Inc Max Depth 
 JARR.                      No:  Jarring 
 LETM.      23.30.00 18-Jan-20:  Log End Time 
 LOST.hr                     0:  Lost Rig Time 
 LSTM.      01.45.00 11-Jan-20:  Log Start Time 
 MDCL.ppm             41500.00:  Mud Chlorides 
 MDES.     Inversion Oil/Synthetic:  Mud Desc 
 DFD .sg                  1.48:  Mud Density 
 MDMN.sg                  1.48:  Dens Mud Min 
 MDMX.sg                  1.48:  Dens Mud Max 
 MOIL.                      54:  Run Mud Oil % 
 MOWR.                   72:28:  Run Mud OWR 
 MSND.                       0:  Run Mud Sand % 
 MSOL.                      23:  Run Mud Solids% 
 DFV .spqt               86.00:  Mud Viscosity 
 MWOD.in                  6.75:  MWD Tool OD 
 MWSI.                      No:  Serv Intrp, MWD 
 OTIM.hr                223.40:  Time Operating 
 PCON.           Look Like New:  Pad Condition 
 PMAX.psia            32446.79:  Press Op, Max 
 PV  .cP                 49.00:  Mud PV 
 RUN .                     200:  Run Number 
 ROPA.m/hr               12.48:  ROP Avg 
 ROPN.m/hr                8.00:  ROP Min 
 ROPX.m/hr               27.00:  ROP Max 
 RPMA.rpm               121.00:  RPM Surface Avg 
 RPMN.rpm                60.00:  RPM Surface Min 
 RPMX.rpm               140.00:  RPM Surface Max 
 RRUN.                    L202:  Rig Run Number 
 RTIM.hr                  7.25:  Time Reaming 
 SAZI.deg               123.49:  Azm, Start 
 SDEP.m                2585.01:  Start Depth 
 SIDD.                      No:  Serv Intrp, DD 
 SINC.deg                59.93:  Inc, Start 
 SPPA.psig             3539.00:  SPP Avg 
 SPPN.psig             3050.00:  SPP Min 
 SPPX.psig             3950.00:  SPP Max 
 STIM.      19.00.00 10-Jan-20:  Start Time 
 SVCS.                 DD, MWD:  Services 
 SVER.                    9.20:  Sperry Version 
 TDAT.m                1293.00:  Tot Depth Attmp 
 TDDF.                      No:  Trip for DD 
 TDLG.m                1293.00:  Tot Depth Loggd 
 TFF .                      No:  Trip for Fail 
 TQAA.f-kp               16.00:  Torque Abs Avg 
 TQAN.f-kp               11.00:  Torque Abs Min 
 TQAX.f-kp               18.00:  Torque Abs Max 
 TRRT.°/30m               1.25:  Turn Rotating 
 MRT .                  EWR-M5:  Maximum Recorded Temperature 
 TTMX.degC               84.00:  Max Tool Temp 
 VS01.          AZ90514619R5C6:  Virtual Str1 SN 
 VS02.        AZ90552592N2L2C6:  Virtual Str2 SN 
 VS03.        AZ90571337Z1W1C6:  Virtual Str3 SN 
 VS04.         AZ90513690K23C6:  Virtual Str4 SN 
 VS05.           AZ90594857F11:  Virtual Str5 SN 
 VS06.                13102166:  Virtual Str6 SN 
 WBMN.klb                 7.00:  WOB Min 
 WITN.            Peter Wilson:  Customer Rep 
 WOBA.klb                 9.95:  WOB Avg 
 WOBX.klb                10.00:  WOB Max 
 YP  .lhf2               36.00:  Yield Point 
~Curve Information Block
#MNEM.UNIT                 API CODE     Curve Description
#---------               -----------    ---------------------------
 TIME.HHMMSS            00 000 000 000:  GT Time & Date
 GTDEPTH.m              00 000 000 000:  GT Depth
 GTPQH.psia             00 000 000 000:  GT HR Quartz Pressure
 GTTQ.degC              00 000 000 000:  GT Quartz Temperature
 GTTN.NONE              00 000 000 000:  GT Test Number
 GTET.sec               00 000 000 000:  GT Elapsed Test Time
 GTTVD.m                00 000 000 000:  GT True Vertical Depth
#Other Information
#
#WARRANTY: Halliburton will use its best efforts to furnish customers with 
#accurate information and interpretations that are part of, and incident to, the services 
#provided.  However, Halliburton cannot and does not warrant the accuracy 
#or correctness of such information and interpretations.  Under no circumstances should any 
#such information or interpretation be relied upon as the sole basis for any drilling, 
#completion, production, or financial decision or any procedure involving any risk to the 
#safety of any drilling venture, drilling rig or its crew or any other third party.  The 
#Customer has full responsibility for all drilling, completion and production operation.  
#Halliburton makes no representations or warranties, either expressed or 
#implied, including, but not limited to, the implied warranties of merchantability or fitness 
#for a particular purpose, with respect to the services rendered.  In no event will 
#Halliburton be liable for failure to obtain any particular results or for 
#any damages, including, but not limited to, indirect, special or consequential damages, 
#resulting from the use of any information or interpretation provided by Halliburton.
#
~A           TIME           GTDEPTH  GTPQH  GTTQ  GTTN  GTET   GTTVD  
# ...
   13:38:38.276.18-Jan-2020 3754.51  418.66 80.62 4.00 437.14 2825.33
   13:38:38.476.18-Jan-2020 3754.51  418.66 80.62 4.00 437.34 2825.33
   13:38:38.676.18-Jan-2020 3754.51  419.24 80.62 4.00 437.54 2825.33
   13:38:38.876.18-Jan-2020 3754.51  419.10 80.62 4.00 437.74 2825.33
   13:38:39.076.18-Jan-2020 3754.51  418.30 80.62 4.00 437.94 2825.33
   13:38:39.276.18-Jan-2020 3754.51  418.10 80.62 4.00 438.14 2825.33
   13:38:39.476.18-Jan-2020 3754.51  418.10 80.62 4.00 438.34 2825.33
   13:38:39.676.18-Jan-2020 3754.51  419.73 80.62 4.00 438.54 2825.33
   13:38:39.877.18-Jan-2020 3754.51  417.84 80.62 4.00 438.74 2825.33
   13:38:40.077.18-Jan-2020 3754.51  419.25 80.62 4.00 438.94 2825.33
   13:38:40.277.18-Jan-2020 3754.51  419.61 80.62 4.00 439.14 2825.33
   13:38:40.477.18-Jan-2020 3754.51  419.61 80.62 4.00 439.34 2825.33
   13:38:40.677.18-Jan-2020 3754.51  419.49 80.62 4.00 439.54 2825.33
   13:38:40.877.18-Jan-2020 3754.51  420.12 80.61 4.00 439.74 2825.33
   13:38:41.077.18-Jan-2020 3754.51  419.74 80.61 4.00 439.94 2825.33
   13:38:41.277.18-Jan-2020 3754.51  419.59 80.61 4.00 440.14 2825.33
   13:38:41.477.18-Jan-2020 3754.51  419.59 80.61 4.00 440.34 2825.33
   13:38:41.677.18-Jan-2020 3754.51  419.58 80.61 4.00 440.54 2825.33
   13:38:41.877.18-Jan-2020 3754.51  419.49 80.61 4.00 440.74 2825.33
   13:38:42.077.18-Jan-2020 3754.51  419.51 80.61 4.00 440.94 2825.33
   13:38:42.277.18-Jan-2020 3754.51  419.35 80.61 4.00 441.14 2825.33
   13:38:42.477.18-Jan-2020 3754.51  419.35 80.61 4.00 441.34 2825.33
   13:38:42.677.18-Jan-2020 3754.51  419.22 80.61 4.00 441.54 2825.33
   13:38:42.878.18-Jan-2020 3754.51  419.22 80.61 4.00 441.74 2825.33
   13:38:43.078.18-Jan-2020 3754.51  419.16 80.61 4.00 441.94 2825.33
   13:38:43.278.18-Jan-2020 3754.51  419.06 80.61 4.00 442.14 2825.33
   13:38:43.478.18-Jan-2020 3754.51  419.06 80.61 4.00 442.34 2825.33
   13:38:43.678.18-Jan-2020 3754.51  418.82 80.61 4.00 442.54 2825.33
   13:38:43.878.18-Jan-2020 3754.51  417.37 80.61 4.00 442.74 2825.33
   13:38:44.078.18-Jan-2020 3754.51  419.33 80.61 4.00 442.94 2825.33
   13:38:44.278.18-Jan-2020 3754.51  420.02 80.61 4.00 443.14 2825.33
   13:38:44.478.18-Jan-2020 3754.51  420.02 80.61 4.00 443.34 2825.33
   13:38:44.678.18-Jan-2020 3754.51  419.36 80.61 4.00 443.54 2825.33
   13:38:44.878.18-Jan-2020 3754.51  419.23 80.61 4.00 443.74 2825.33
   13:38:45.078.18-Jan-2020 3754.51  419.41 80.61 4.00 443.94 2825.33
   13:38:45.278.18-Jan-2020 3754.51  419.45 80.61 4.00 444.14 2825.33
   13:38:45.478.18-Jan-2020 3754.51  419.45 80.61 4.00 444.34 2825.33
   13:38:45.678.18-Jan-2020 3754.51  419.26 80.61 4.00 444.54 2825.33
   13:38:45.878.18-Jan-2020 3754.51  419.07 80.61 4.00 444.74 2825.33
   13:38:46.079.18-Jan-2020 3754.51  417.40 80.61 4.00 444.94 2825.33
   13:38:46.279.18-Jan-2020 3754.51  419.84 80.61 4.00 445.14 2825.33
   13:38:46.479.18-Jan-2020 3754.51  419.84 80.61 4.00 445.34 2825.33
   13:38:46.679.18-Jan-2020 3754.51  419.59 80.61 4.00 445.54 2825.33
   13:38:46.879.18-Jan-2020 3754.51  419.67 80.60 4.00 445.74 2825.33
   13:38:47.079.18-Jan-2020 3754.51  419.71 80.60 4.00 445.94 2825.33
   13:38:47.279.18-Jan-2020 3754.51  418.42 80.60 4.00 446.14 2825.33
   13:38:47.479.18-Jan-2020 3754.51  418.42 80.60 4.00 446.34 2825.33
   13:38:47.679.18-Jan-2020 3754.51  419.81 80.60 4.00 446.54 2825.33
   13:38:47.879.18-Jan-2020 3754.51  419.06 80.60 4.00 446.74 2825.33
   13:38:48.079.18-Jan-2020 3754.51  420.42 80.60 4.00 446.94 2825.33
   13:38:48.279.18-Jan-2020 3754.51  420.35 80.60 4.00 447.14 2825.33
   13:38:48.479.18-Jan-2020 3754.51  420.35 80.60 4.00 447.34 2825.33
   13:38:48.679.18-Jan-2020 3754.51  420.39 80.60 4.00 447.54 2825.33
   13:38:48.879.18-Jan-2020 3754.51  418.80 80.60 4.00 447.74 2825.33
   13:38:49.080.18-Jan-2020 3754.51  420.78 80.60 4.00 447.94 2825.33
   13:38:49.280.18-Jan-2020 3754.51  421.18 80.60 4.00 448.14 2825.33
   13:38:49.480.18-Jan-2020 3754.51  421.18 80.60 4.00 448.34 2825.33
   13:38:49.680.18-Jan-2020 3754.51  420.59 80.60 4.00 448.55 2825.33
   13:38:49.880.18-Jan-2020 3754.51  420.54 80.60 4.00 448.75 2825.33
   13:38:50.080.18-Jan-2020 3754.51  420.66 80.60 4.00 448.95 2825.33
   13:38:50.280.18-Jan-2020 3754.51  420.57 80.60 4.00 449.15 2825.33
   13:38:50.480.18-Jan-2020 3754.51  420.57 80.60 4.00 449.35 2825.33
   13:38:50.680.18-Jan-2020 3754.51  420.23 80.60 4.00 449.55 2825.33
   13:38:50.880.18-Jan-2020 3754.51  420.39 80.60 4.00 449.75 2825.33
   13:38:51.080.18-Jan-2020 3754.51  420.31 80.60 4.00 449.95 2825.33
   13:38:51.280.18-Jan-2020 3754.51  420.29 80.60 4.00 450.15 2825.33
   13:38:51.480.18-Jan-2020 3754.51  420.29 80.60 4.00 450.35 2825.33
   13:38:51.680.18-Jan-2020 3754.51  420.15 80.60 4.00 450.55 2825.33
   13:38:51.880.18-Jan-2020 3754.51  420.09 80.60 4.00 450.75 2825.33
   13:38:52.080.18-Jan-2020 3754.51  419.91 80.60 4.00 450.95 2825.33
   13:38:52.281.18-Jan-2020 3754.51  418.36 80.60 4.00 451.15 2825.33
   13:38:52.481.18-Jan-2020 3754.51  418.36 80.60 4.00 451.35 2825.33
   13:38:52.681.18-Jan-2020 3754.51  420.85 80.60 4.00 451.55 2825.33
   13:38:52.881.18-Jan-2020 3754.51  420.24 80.59 4.00 451.75 2825.33
   13:38:53.081.18-Jan-2020 3754.51  420.21 80.59 4.00 451.95 2825.33
   13:38:53.281.18-Jan-2020 3754.51  420.80 80.59 4.00 452.15 2825.33
   13:38:53.481.18-Jan-2020 3754.51  420.80 80.59 4.00 452.35 2825.33
   13:38:53.681.18-Jan-2020 3754.51  539.67 80.59 4.00 452.55 2825.33
   13:38:53.881.18-Jan-2020 3754.51 2484.01 80.59 4.00 452.75 2825.33
   13:38:54.081.18-Jan-2020 3754.51 6407.11 80.59 4.00 452.95 2825.33
   13:38:54.281.18-Jan-2020 3754.51 6403.61 80.59 4.00 453.15 2825.33
   13:38:54.481.18-Jan-2020 3754.51 6403.61 80.59 4.00 453.35 2825.33
   13:38:54.681.18-Jan-2020 3754.51 6402.05 80.60 4.00 453.55 2825.33
   13:38:54.881.18-Jan-2020 3754.51 6400.45 80.60 4.00 453.75 2825.33
   13:38:55.081.18-Jan-2020 3754.51 6407.43 80.60 4.00 453.95 2825.33
   13:38:55.282.18-Jan-2020 3754.51 6407.79 80.60 4.00 454.15 2825.33
   13:38:55.482.18-Jan-2020 3754.51 6407.79 80.60 4.00 454.35 2825.33
   13:38:55.682.18-Jan-2020 3754.51 6417.87 80.61 4.00 454.55 2825.33
   13:38:55.882.18-Jan-2020 3754.51 6408.28 80.61 4.00 454.75 2825.33
   13:38:56.082.18-Jan-2020 3754.51 6409.05 80.62 4.00 454.95 2825.33
   13:38:56.282.18-Jan-2020 3754.51 6417.41 80.62 4.00 455.15 2825.33
   13:38:56.482.18-Jan-2020 3754.51 6417.41 80.62 4.00 455.35 2825.33
   13:38:56.682.18-Jan-2020 3754.51 6412.29 80.62 4.00 455.55 2825.33
   13:38:56.882.18-Jan-2020 3754.51 6413.16 80.63 4.00 455.75 2825.33
   13:38:57.082.18-Jan-2020 3754.51 6411.40 80.63 4.00 455.95 2825.33
   13:38:57.282.18-Jan-2020 3754.51 6426.19 80.64 4.00 456.15 2825.33
   13:38:57.482.18-Jan-2020 3754.51 6426.19 80.64 4.00 456.35 2825.33
   13:38:57.682.18-Jan-2020 3754.51 6415.40 80.65 4.00 456.55 2825.33
   13:38:57.882.18-Jan-2020 3754.51 6417.72 80.65 4.00 456.75 2825.33
   13:38:58.082.18-Jan-2020 3754.51 6415.87 80.65 4.00 456.95 2825.33
   13:38:58.282.18-Jan-2020 3754.51 6416.33 80.66 4.00 457.15 2825.33
   13:38:58.483.18-Jan-2020 3754.51 6416.33 80.66 4.00 457.35 2825.33
   13:38:58.683.18-Jan-2020 3754.51 6419.65 80.66 4.00 457.55 2825.33
   13:38:58.883.18-Jan-2020 3754.51 6418.46 80.67 4.00 457.75 2825.33
   13:38:59.083.18-Jan-2020 3754.51 6416.98 80.67 4.00 457.95 2825.33
   13:38:59.283.18-Jan-2020 3754.51 6420.28 80.67 4.00 458.15 2825.33
   13:38:59.483.18-Jan-2020 3754.51 6420.28 80.67 4.00 458.35 2825.33
   13:38:59.683.18-Jan-2020 3754.51 6418.99 80.68 4.00 458.55 2825.33
   13:38:59.883.18-Jan-2020 3754.51 6418.20 80.68 4.00 458.75 2825.33
   13:39:00.083.18-Jan-2020 3754.51 6419.39 80.69 4.00 458.95 2825.33
   13:39:00.283.18-Jan-2020 3754.51 6420.38 80.69 4.00 459.15 2825.33
   13:39:00.483.18-Jan-2020 3754.51 6420.38 80.69 4.00 459.35 2825.33
   13:39:00.683.18-Jan-2020 3754.51 6429.84 80.69 4.00 459.55 2825.33
   13:39:00.883.18-Jan-2020 3754.51 6418.64 80.70 4.00 459.75 2825.33
   13:39:01.083.18-Jan-2020 3754.51 6418.91 80.70 4.00 459.95 2825.33
