~Version Information
 VERS.                  2.0:   CWLS log ASCII Standard -VERSION 2.0
 WRAP.                   NO:   One line per depth step
~Well Information Block
#MNEM.UNIT     VALUE/NAME     DESCRIPTION
#---------     -----------    ---------------------------
 STRT.S             13:51:43 18-Jan-20: START TIME 13:51:43 18-Jan-20
 STOP.S             13:59:59 18-Jan-20: STOP TIME  13:59:59 18-Jan-20
 STEP.S                   0.00: STEP TIME
 NULL.                 -999.25: NULL VALUE
 DFWT.                        :  DIST FWL TEXT
 DFST.                        :  DIST FSL TEXT
 DMF .             Drill Floor:  DRILL MEAS FROM
 STIM.      09.30.00 26-Dec-19:  START TIME
 DATE.      08.00.00 20-Jan-20:  END TIME
 SPUD.               23-Nov-19:  SPUD DATE
 NREF.                    Grid:  NORTH REFERENCE
 HPTY.       Minimum Curvature:  HOLE POS TYPE
 DMOD.             Drill Model:  DRILL MOD DESC
 SVYD.                  Survey:  SURVEY DESC
 ILTD.               Lithology:  INTERP LTH DESC
 FTOP.          Formation Tops:  FORM TOPS DESC
 SON .        AZ-XX-0906192647:  JOB NUMBER
 WTYP.                Deviated:  WELL TYPE
 COMP.     BP Exploration (Caspian Sea) Ltd:  COMPANY
 BASE.              Azerbaijan:  LOGGING EQUIPMENT BASE LOCATION
 REGN.                 Eurasia:  REGION
 FLD .                     ACG:  FIELD NAME
 SRVC.              KCA Deutag:  CONTRACTOR
 MWDS.                    Baku:  MWD SHOP
 WELL.     A10 (Slot 20) - SCP:  WELL NAME
 JOBN.        AZ-XX-0906192647:  JOB TICKET NUMB
 RIG .                 Chirag1:  RIG NAME
 DCON.     Halliburton Sperry Drilling:  DIRECTNL CONTR
 UNIT.                     N/A:  LOGGING EQUIPMENT ID
 PDAT.          Mean Sea Level:  PERMANENT DATUM
 MDS .        Operator Entered:  MAG DATA SOURCE
 CTRY.              Azerbaijan:  COUNTRY NAME
 UWI .            /AZE00000090:  UNIQUE WELL IDENTIFIER
 API .            /AZE00000090:  API NUMBER
 CNTY.                        :  COUNTY
 PROV.                        :  PROVINCE
 STAT.                        :  STATE
 LOC .                        :  LOCATION
 LMF .             Drill Floor:  LOG MEASURED FROM
 TVDS.m                  36.60:  TVDSS CORRECTN
 LATI.deg                40.08:  LATITUDE
 LONG.deg                51.24:  LONGITUDE
 WHNS.m                  -7.94:  WELL HEAD N/S
 WHEW.m                   1.56:  WELL HEAD E/W
 UTMX.m              520429.26:  UTM X
 UTMY.m             4438973.87:  UTM Y
 DFWL.m                   0.00:  DISTANCE FWL
 DFSL.m                   0.00:  DISTANCE FSL
 SDEP.m                1455.00:  START DEPTH
 TDD .m                3878.01:  TOTAL DEPTH (DRILLER)
 VSDR.deg               112.75:  VERT SEC DIRECT
 GVFD.g                   1.00:  GRAVITY FIELD
 MFLD.nT              50256.00:  MAGNETIC FIELD
 MDIP.deg                59.52:  MAGNETIC DIP
 MDEC.deg                 6.43:  MAGNETIC DECL
 GRDC.deg                 0.16:  GRID CORRECTION
 AZTC.deg                 6.27:  AZM TOTAL CORR
 EPD .m                   0.00:  ELEVATION
 EGL .m                   0.00:  GROUND ELEVATION
 WDMS.m                 121.00:  WD ELEV
 APD .m                  36.60:  DEPTH ABOVE PD
 AGAP.m                  36.60:  AIR GAP
 VSEW.m                   1.56:  VERT SEC E/W
 VSNS.m                  -7.94:  VERT SEC N/S
 DEP .m                1140.01:  DEPTH
 EKB .m                  36.60:  KB ELEVATION
 EDF .m                  36.60:  DF ELEVATION
 TDL .m                1293.00:  TOTAL DEPTH (LOGGER)
 VSC .                       0:  VS TO CLOSURE
 MAGU.                 1849164:  MAGUTM CHECKSUM
~Parameter Information Block
#MNEM.UNIT       Value        Description
#---------     -----------    ---------------------------
 AV  .mps                 2.40:  Ann Velocity 
 AVMX.mps                 2.55:  Max Ann Veloc 
 AZIF.deg               134.35:  Azm, Final 
 BHAT.        Rotary Steerable:  BHA Type 
 BREV.rev               847.00:  Rev Bit Total 
 BROT.°/30m              -2.51:  Build Rotating 
 BS  .in                  8.50:  Bit Size 
 BSZ .in                  8.50:  Bit Size 
 BTPL.psig              700.00:  Bit Press Loss 
 CABU.                     Yes:  Customer Abuse 
 CGEO.          Ilgar Gurbanov:  Customer Geo 
 COMM.                     üÓ~:  Run Comments 1 
 TCS .hr                140.40:  Time Ciculation Ended 
 CV  .mps                 2.27:  Crit Velocity 
 CVMX.mps                 2.45:  Max Crit Veloc 
 DD1 .         Intigam Rahimov:  Direct Drillr 1 
 DD2 .         Rasim Ibrahimov:  Direct Drillr 2 
 DDSV.                 iCruise:  DD Service 
 DEFF.%                  99.00:  % Det Eff 
 DLRX.°/30m               3.28:  Dogleg Rot Max 
 DLSO.°/30m               0.00:  Dogleg Oriented 
 DLSX.°/30m               0.00:  Dogleg Str Max 
 DRET.      23.30.00 18-Jan-20:  Drill End Time 
 DRST.      01.45.00 11-Jan-20:  Drill Start Tim 
 DTIM.hr                 94.00:  Time Drilling 
 EDEP.m                3878.01:  End Depth 
 ENG1.       Dauren Baktybayev:  Engineer 1 
 ENG2.      Natik Hasanaghayev:  Engineer 2 
 ENG3.          Rustam Safarov:  Engineer 3 
 ETIM.      08.00.00 20-Jan-20:  End Time 
 FLOI.gpm               532.00:  Flow In 
 FLON.gpm               500.00:  Flow In Min 
 FLOS.cptm                0.00:  Fluid Loss 
 FLOX.gpm               540.00:  Flow In Max 
 FTRO.       Formation Presure:  FTWD Run Obj 
 HPRE.                     Yes:  High Pressure 
 HTEM.                      No:  High Temp 
 HYDO.m                   1.80:  Hydro Offset 
 IFIN.deg                39.86:  Inc, Final 
 IMAX.deg                59.73:  Inc Max 
 IMIN.deg                39.25:  Inc Min 
 IMND.m                3816.77:  Inc Min Depth 
 IMXD.m                2596.33:  Inc Max Depth 
 JARR.                      No:  Jarring 
 LETM.      23.30.00 18-Jan-20:  Log End Time 
 LOST.hr                     0:  Lost Rig Time 
 LSTM.      01.45.00 11-Jan-20:  Log Start Time 
 MDCL.ppm             41500.00:  Mud Chlorides 
 MDES.     Inversion Oil/Synthetic:  Mud Desc 
 DFD .sg                  1.48:  Mud Density 
 MDMN.sg                  1.48:  Dens Mud Min 
 MDMX.sg                  1.48:  Dens Mud Max 
 MOIL.                      54:  Run Mud Oil % 
 MOWR.                   72:28:  Run Mud OWR 
 MSND.                       0:  Run Mud Sand % 
 MSOL.                      23:  Run Mud Solids% 
 DFV .spqt               86.00:  Mud Viscosity 
 MWOD.in                  6.75:  MWD Tool OD 
 MWSI.                      No:  Serv Intrp, MWD 
 OTIM.hr                223.40:  Time Operating 
 PCON.           Look Like New:  Pad Condition 
 PMAX.psia            32446.79:  Press Op, Max 
 PV  .cP                 49.00:  Mud PV 
 RUN .                     200:  Run Number 
 ROPA.m/hr               12.48:  ROP Avg 
 ROPN.m/hr                8.00:  ROP Min 
 ROPX.m/hr               27.00:  ROP Max 
 RPMA.rpm               121.00:  RPM Surface Avg 
 RPMN.rpm                60.00:  RPM Surface Min 
 RPMX.rpm               140.00:  RPM Surface Max 
 RRUN.                    L202:  Rig Run Number 
 RTIM.hr                  7.25:  Time Reaming 
 SAZI.deg               123.49:  Azm, Start 
 SDEP.m                2585.01:  Start Depth 
 SIDD.                      No:  Serv Intrp, DD 
 SINC.deg                59.93:  Inc, Start 
 SPPA.psig             3539.00:  SPP Avg 
 SPPN.psig             3050.00:  SPP Min 
 SPPX.psig             3950.00:  SPP Max 
 STIM.      19.00.00 10-Jan-20:  Start Time 
 SVCS.                 DD, MWD:  Services 
 SVER.                    9.20:  Sperry Version 
 TDAT.m                1293.00:  Tot Depth Attmp 
 TDDF.                      No:  Trip for DD 
 TDLG.m                1293.00:  Tot Depth Loggd 
 TFF .                      No:  Trip for Fail 
 TQAA.f-kp               16.00:  Torque Abs Avg 
 TQAN.f-kp               11.00:  Torque Abs Min 
 TQAX.f-kp               18.00:  Torque Abs Max 
 TRRT.°/30m               1.25:  Turn Rotating 
 MRT .                  EWR-M5:  Maximum Recorded Temperature 
 TTMX.degC               84.00:  Max Tool Temp 
 VS01.          AZ90514619R5C6:  Virtual Str1 SN 
 VS02.        AZ90552592N2L2C6:  Virtual Str2 SN 
 VS03.        AZ90571337Z1W1C6:  Virtual Str3 SN 
 VS04.         AZ90513690K23C6:  Virtual Str4 SN 
 VS05.           AZ90594857F11:  Virtual Str5 SN 
 VS06.                13102166:  Virtual Str6 SN 
 WBMN.klb                 7.00:  WOB Min 
 WITN.            Peter Wilson:  Customer Rep 
 WOBA.klb                 9.95:  WOB Avg 
 WOBX.klb                10.00:  WOB Max 
 YP  .lhf2               36.00:  Yield Point 
~Curve Information Block
#MNEM.UNIT                 API CODE     Curve Description
#---------               -----------    ---------------------------
 TIME.HHMMSS            00 000 000 000:  GT Time & Date
 GTDEPTH.m              00 000 000 000:  GT Depth
 GTPQH.psia             00 000 000 000:  GT HR Quartz Pressure
 GTTQ.degC              00 000 000 000:  GT Quartz Temperature
 GTTN.NONE              00 000 000 000:  GT Test Number
 GTET.sec               00 000 000 000:  GT Elapsed Test Time
 GTTVD.m                00 000 000 000:  GT True Vertical Depth
#Other Information
#
#WARRANTY: Halliburton will use its best efforts to furnish customers with 
#accurate information and interpretations that are part of, and incident to, the services 
#provided.  However, Halliburton cannot and does not warrant the accuracy 
#or correctness of such information and interpretations.  Under no circumstances should any 
#such information or interpretation be relied upon as the sole basis for any drilling, 
#completion, production, or financial decision or any procedure involving any risk to the 
#safety of any drilling venture, drilling rig or its crew or any other third party.  The 
#Customer has full responsibility for all drilling, completion and production operation.  
#Halliburton makes no representations or warranties, either expressed or 
#implied, including, but not limited to, the implied warranties of merchantability or fitness 
#for a particular purpose, with respect to the services rendered.  In no event will 
#Halliburton be liable for failure to obtain any particular results or for 
#any damages, including, but not limited to, indirect, special or consequential damages, 
#resulting from the use of any information or interpretation provided by Halliburton.
#
~A           TIME           GTDEPTH  GTPQH  GTTQ  GTTN  GTET   GTTVD  
# ...
   13:55:56.612.18-Jan-2020 3754.01 3695.42 79.50 5.00 253.08 2824.94
   13:55:56.812.18-Jan-2020 3754.01 3695.42 79.50 5.00 253.28 2824.94
   13:55:57.012.18-Jan-2020 3754.01 3694.74 79.50 5.00 253.48 2824.94
   13:55:57.212.18-Jan-2020 3754.01 3694.63 79.50 5.00 253.68 2824.94
   13:55:57.412.18-Jan-2020 3754.01 3695.54 79.50 5.00 253.88 2824.94
   13:55:57.612.18-Jan-2020 3754.01 3694.46 79.50 5.00 254.08 2824.94
   13:55:57.812.18-Jan-2020 3754.01 3694.46 79.50 5.00 254.28 2824.94
   13:55:58.012.18-Jan-2020 3754.01 3696.64 79.50 5.00 254.48 2824.94
   13:55:58.212.18-Jan-2020 3754.01 3694.95 79.50 5.00 254.68 2824.94
   13:55:58.412.18-Jan-2020 3754.01 3694.31 79.50 5.00 254.88 2824.94
   13:55:58.612.18-Jan-2020 3754.01 3694.69 79.50 5.00 255.08 2824.94
   13:55:58.812.18-Jan-2020 3754.01 3694.69 79.50 5.00 255.28 2824.94
   13:55:59.013.18-Jan-2020 3754.01 3694.13 79.50 5.00 255.48 2824.94
   13:55:59.213.18-Jan-2020 3754.01 3695.60 79.50 5.00 255.68 2824.94
   13:55:59.413.18-Jan-2020 3754.01 3695.15 79.50 5.00 255.88 2824.94
   13:55:59.613.18-Jan-2020 3754.01 3695.30 79.50 5.00 256.08 2824.94
   13:55:59.813.18-Jan-2020 3754.01 3695.30 79.50 5.00 256.28 2824.94
   13:56:00.013.18-Jan-2020 3754.01 3695.24 79.50 5.00 256.48 2824.94
   13:56:00.213.18-Jan-2020 3754.01 3695.32 79.50 5.00 256.68 2824.94
   13:56:00.413.18-Jan-2020 3754.01 3695.09 79.50 5.00 256.88 2824.94
   13:56:00.613.18-Jan-2020 3754.01 3695.32 79.50 5.00 257.08 2824.94
   13:56:00.813.18-Jan-2020 3754.01 3695.32 79.50 5.00 257.28 2824.94
   13:56:01.013.18-Jan-2020 3754.01 3695.21 79.50 5.00 257.48 2824.94
   13:56:01.213.18-Jan-2020 3754.01 3695.26 79.50 5.00 257.68 2824.94
   13:56:01.413.18-Jan-2020 3754.01 3695.33 79.50 5.00 257.88 2824.94
   13:56:01.613.18-Jan-2020 3754.01 3695.32 79.50 5.00 258.08 2824.94
   13:56:01.813.18-Jan-2020 3754.01 3695.32 79.50 5.00 258.28 2824.94
   13:56:02.013.18-Jan-2020 3754.01 3695.23 79.50 5.00 258.48 2824.94
   13:56:02.214.18-Jan-2020 3754.01 3694.74 79.50 5.00 258.68 2824.94
   13:56:02.414.18-Jan-2020 3754.01 3697.67 79.50 5.00 258.88 2824.94
   13:56:02.614.18-Jan-2020 3754.01 3692.81 79.50 5.00 259.08 2824.94
   13:56:02.814.18-Jan-2020 3754.01 3692.81 79.50 5.00 259.28 2824.94
   13:56:03.014.18-Jan-2020 3754.01 3696.31 79.50 5.00 259.48 2824.94
   13:56:03.214.18-Jan-2020 3754.01 3695.76 79.50 5.00 259.68 2824.94
   13:56:03.414.18-Jan-2020 3754.01 3694.95 79.50 5.00 259.88 2824.94
   13:56:03.614.18-Jan-2020 3754.01 3695.29 79.50 5.00 260.08 2824.94
   13:56:03.814.18-Jan-2020 3754.01 3695.29 79.50 5.00 260.28 2824.94
   13:56:04.014.18-Jan-2020 3754.01 3695.43 79.50 5.00 260.48 2824.94
   13:56:04.214.18-Jan-2020 3754.01 3695.19 79.50 5.00 260.68 2824.94
   13:56:04.414.18-Jan-2020 3754.01 3695.25 79.50 5.00 260.88 2824.94
   13:56:04.614.18-Jan-2020 3754.01 3696.71 79.50 5.00 261.08 2824.94
   13:56:04.814.18-Jan-2020 3754.01 3696.71 79.50 5.00 261.28 2824.94
   13:56:05.014.18-Jan-2020 3754.01 3694.79 79.50 5.00 261.48 2824.94
   13:56:05.215.18-Jan-2020 3754.01 3695.66 79.50 5.00 261.68 2824.94
   13:56:05.415.18-Jan-2020 3754.01 3693.94 79.50 5.00 261.88 2824.94
   13:56:05.615.18-Jan-2020 3754.01 3697.41 79.50 5.00 262.08 2824.94
   13:56:05.815.18-Jan-2020 3754.01 3697.41 79.50 5.00 262.28 2824.94
   13:56:06.015.18-Jan-2020 3754.01 3696.10 79.50 5.00 262.48 2824.94
   13:56:06.215.18-Jan-2020 3754.01 3694.77 79.50 5.00 262.68 2824.94
   13:56:06.415.18-Jan-2020 3754.01 3695.46 79.50 5.00 262.88 2824.94
   13:56:06.615.18-Jan-2020 3754.01 3694.40 79.50 5.00 263.09 2824.94
   13:56:06.815.18-Jan-2020 3754.01 3694.40 79.50 5.00 263.29 2824.94
   13:56:07.015.18-Jan-2020 3754.01 3692.86 79.50 5.00 263.49 2824.94
   13:56:07.215.18-Jan-2020 3754.01 3695.38 79.50 5.00 263.69 2824.94
   13:56:07.415.18-Jan-2020 3754.01 3697.33 79.50 5.00 263.89 2824.94
   13:56:07.615.18-Jan-2020 3754.01 3694.00 79.50 5.00 264.09 2824.94
   13:56:07.815.18-Jan-2020 3754.01 3694.00 79.50 5.00 264.29 2824.94
   13:56:08.015.18-Jan-2020 3754.01 3695.09 79.50 5.00 264.49 2824.94
   13:56:08.215.18-Jan-2020 3754.01 3695.26 79.50 5.00 264.69 2824.94
   13:56:08.416.18-Jan-2020 3754.01 3695.27 79.50 5.00 264.89 2824.94
   13:56:08.616.18-Jan-2020 3754.01 3695.35 79.50 5.00 265.09 2824.94
   13:56:08.816.18-Jan-2020 3754.01 3695.35 79.50 5.00 265.29 2824.94
   13:56:09.016.18-Jan-2020 3754.01 3695.04 79.50 5.00 265.49 2824.94
   13:56:09.216.18-Jan-2020 3754.01 3695.46 79.50 5.00 265.69 2824.94
   13:56:09.416.18-Jan-2020 3754.01 3695.30 79.50 5.00 265.89 2824.94
   13:56:09.616.18-Jan-2020 3754.01 3695.43 79.50 5.00 266.09 2824.94
   13:56:09.816.18-Jan-2020 3754.01 3695.43 79.50 5.00 266.29 2824.94
   13:56:10.016.18-Jan-2020 3754.01 3695.26 79.50 5.00 266.49 2824.94
   13:56:10.216.18-Jan-2020 3754.01 3695.46 79.50 5.00 266.69 2824.94
   13:56:10.416.18-Jan-2020 3754.01 3695.21 79.50 5.00 266.89 2824.94
   13:56:10.616.18-Jan-2020 3754.01 3695.27 79.50 5.00 267.09 2824.94
   13:56:10.816.18-Jan-2020 3754.01 3695.27 79.50 5.00 267.29 2824.94
   13:56:11.016.18-Jan-2020 3754.01 3697.83 79.50 5.00 267.49 2824.94
   13:56:11.216.18-Jan-2020 3754.01 3692.65 79.50 5.00 267.69 2824.94
   13:56:11.417.18-Jan-2020 3754.01 3696.52 79.50 5.00 267.89 2824.94
   13:56:11.617.18-Jan-2020 3754.01 3694.80 79.50 5.00 268.09 2824.94
   13:56:11.817.18-Jan-2020 3754.01 3694.80 79.50 5.00 268.29 2824.94
   13:56:12.017.18-Jan-2020 3754.01 3694.95 79.50 5.00 268.49 2824.94
   13:56:12.217.18-Jan-2020 3754.01 3695.50 79.50 5.00 268.69 2824.94
   13:56:12.417.18-Jan-2020 3754.01 3695.17 79.50 5.00 268.89 2824.94
   13:56:12.617.18-Jan-2020 3754.01 3695.32 79.50 5.00 269.09 2824.94
   13:56:12.817.18-Jan-2020 3754.01 3695.32 79.50 5.00 269.29 2824.94
   13:56:13.017.18-Jan-2020 3754.01 3695.17 79.50 5.00 269.49 2824.94
   13:56:13.217.18-Jan-2020 3754.01 3696.95 79.50 5.00 269.69 2824.94
   13:56:13.417.18-Jan-2020 3754.01 3694.76 79.50 5.00 269.89 2824.94
   13:56:13.617.18-Jan-2020 3754.01 3694.75 79.50 5.00 270.09 2824.94
   13:56:13.817.18-Jan-2020 3754.01 3694.75 79.50 5.00 270.29 2824.94
   13:56:14.017.18-Jan-2020 3754.01 3694.43 79.50 5.00 270.49 2824.94
   13:56:14.217.18-Jan-2020 3754.01 3697.55 79.50 5.00 270.69 2824.94
   13:56:14.417.18-Jan-2020 3754.01 3692.73 79.50 5.00 270.89 2824.94
   13:56:14.618.18-Jan-2020 3754.01 3696.65 79.50 5.00 271.09 2824.94
   13:56:14.818.18-Jan-2020 3754.01 3696.65 79.50 5.00 271.29 2824.94
   13:56:15.018.18-Jan-2020 3754.01 3695.67 79.50 5.00 271.49 2824.94
   13:56:15.218.18-Jan-2020 3754.01 3696.26 79.50 5.00 271.69 2824.94
   13:56:15.418.18-Jan-2020 3754.01 3695.37 79.50 5.00 271.89 2824.94
   13:56:15.618.18-Jan-2020 3754.01 3694.21 79.50 5.00 272.09 2824.94
   13:56:15.818.18-Jan-2020 3754.01 3694.21 79.50 5.00 272.29 2824.94
   13:56:16.018.18-Jan-2020 3754.01 3693.95 79.50 5.00 272.49 2824.94
   13:56:16.218.18-Jan-2020 3754.01 3697.58 79.49 5.00 272.69 2824.94
   13:56:16.418.18-Jan-2020 3754.01 3693.71 79.49 5.00 272.89 2824.94
   13:56:16.618.18-Jan-2020 3754.01 3696.12 79.49 5.00 273.09 2824.94
   13:56:16.818.18-Jan-2020 3754.01 3696.12 79.49 5.00 273.29 2824.94
   13:56:17.018.18-Jan-2020 3754.01 3695.58 79.49 5.00 273.49 2824.94
   13:56:17.218.18-Jan-2020 3754.01 3695.09 79.49 5.00 273.69 2824.94
   13:56:17.418.18-Jan-2020 3754.01 3695.38 79.49 5.00 273.89 2824.94
   13:56:17.619.18-Jan-2020 3754.01 3695.13 79.49 5.00 274.09 2824.94
   13:56:17.819.18-Jan-2020 3754.01 3695.13 79.49 5.00 274.29 2824.94
   13:56:18.019.18-Jan-2020 3754.01 3695.56 79.49 5.00 274.49 2824.94
   13:56:18.219.18-Jan-2020 3754.01 3695.37 79.49 5.00 274.69 2824.94
   13:56:18.419.18-Jan-2020 3754.01 3695.15 79.49 5.00 274.89 2824.94
   13:56:18.619.18-Jan-2020 3754.01 3695.21 79.49 5.00 275.09 2824.94
   13:56:18.819.18-Jan-2020 3754.01 3695.21 79.49 5.00 275.29 2824.94
   13:56:19.019.18-Jan-2020 3754.01 3695.40 79.49 5.00 275.49 2824.94
   13:56:19.219.18-Jan-2020 3754.01 3695.30 79.49 5.00 275.69 2824.94
   13:56:19.419.18-Jan-2020 3754.01 3695.26 79.49 5.00 275.89 2824.94
