~Version Information
 VERS.                  2.0:   CWLS log ASCII Standard -VERSION 2.0
 WRAP.                   NO:   One line per depth step
~Well Information Block
#MNEM.UNIT     VALUE/NAME     DESCRIPTION
#---------     -----------    ---------------------------
 STRT.S             13:31:21 18-Jan-20: START TIME 13:31:21 18-Jan-20
 STOP.S             13:39:29 18-Jan-20: STOP TIME  13:39:29 18-Jan-20
 STEP.S                   0.00: STEP TIME
 NULL.                 -999.25: NULL VALUE
 DFWT.                        :  DIST FWL TEXT
 DFST.                        :  DIST FSL TEXT
 DMF .             Drill Floor:  DRILL MEAS FROM
 STIM.      09.30.00 26-Dec-19:  START TIME
 DATE.      08.00.00 20-Jan-20:  END TIME
 SPUD.               23-Nov-19:  SPUD DATE
 NREF.                    Grid:  NORTH REFERENCE
 HPTY.       Minimum Curvature:  HOLE POS TYPE
 DMOD.             Drill Model:  DRILL MOD DESC
 SVYD.                  Survey:  SURVEY DESC
 ILTD.               Lithology:  INTERP LTH DESC
 FTOP.          Formation Tops:  FORM TOPS DESC
 SON .        AZ-XX-0906192647:  JOB NUMBER
 WTYP.                Deviated:  WELL TYPE
 COMP.     BP Exploration (Caspian Sea) Ltd:  COMPANY
 BASE.              Azerbaijan:  LOGGING EQUIPMENT BASE LOCATION
 REGN.                 Eurasia:  REGION
 FLD .                     ACG:  FIELD NAME
 SRVC.              KCA Deutag:  CONTRACTOR
 MWDS.                    Baku:  MWD SHOP
 WELL.     A10 (Slot 20) - SCP:  WELL NAME
 JOBN.        AZ-XX-0906192647:  JOB TICKET NUMB
 RIG .                 Chirag1:  RIG NAME
 DCON.     Halliburton Sperry Drilling:  DIRECTNL CONTR
 UNIT.                     N/A:  LOGGING EQUIPMENT ID
 PDAT.          Mean Sea Level:  PERMANENT DATUM
 MDS .        Operator Entered:  MAG DATA SOURCE
 CTRY.              Azerbaijan:  COUNTRY NAME
 UWI .            /AZE00000090:  UNIQUE WELL IDENTIFIER
 API .            /AZE00000090:  API NUMBER
 CNTY.                        :  COUNTY
 PROV.                        :  PROVINCE
 STAT.                        :  STATE
 LOC .                        :  LOCATION
 LMF .             Drill Floor:  LOG MEASURED FROM
 TVDS.m                  36.60:  TVDSS CORRECTN
 LATI.deg                40.08:  LATITUDE
 LONG.deg                51.24:  LONGITUDE
 WHNS.m                  -7.94:  WELL HEAD N/S
 WHEW.m                   1.56:  WELL HEAD E/W
 UTMX.m              520429.26:  UTM X
 UTMY.m             4438973.87:  UTM Y
 DFWL.m                   0.00:  DISTANCE FWL
 DFSL.m                   0.00:  DISTANCE FSL
 SDEP.m                1455.00:  START DEPTH
 TDD .m                3878.01:  TOTAL DEPTH (DRILLER)
 VSDR.deg               112.75:  VERT SEC DIRECT
 GVFD.g                   1.00:  GRAVITY FIELD
 MFLD.nT              50256.00:  MAGNETIC FIELD
 MDIP.deg                59.52:  MAGNETIC DIP
 MDEC.deg                 6.43:  MAGNETIC DECL
 GRDC.deg                 0.16:  GRID CORRECTION
 AZTC.deg                 6.27:  AZM TOTAL CORR
 EPD .m                   0.00:  ELEVATION
 EGL .m                   0.00:  GROUND ELEVATION
 WDMS.m                 121.00:  WD ELEV
 APD .m                  36.60:  DEPTH ABOVE PD
 AGAP.m                  36.60:  AIR GAP
 VSEW.m                   1.56:  VERT SEC E/W
 VSNS.m                  -7.94:  VERT SEC N/S
 DEP .m                1140.01:  DEPTH
 EKB .m                  36.60:  KB ELEVATION
 EDF .m                  36.60:  DF ELEVATION
 TDL .m                1293.00:  TOTAL DEPTH (LOGGER)
 VSC .                       0:  VS TO CLOSURE
 MAGU.                 1849164:  MAGUTM CHECKSUM
~Parameter Information Block
#MNEM.UNIT       Value        Description
#---------     -----------    ---------------------------
 AV  .mps                 2.40:  Ann Velocity 
 AVMX.mps                 2.55:  Max Ann Veloc 
 AZIF.deg               134.35:  Azm, Final 
 BHAT.        Rotary Steerable:  BHA Type 
 BREV.rev               847.00:  Rev Bit Total 
 BROT.°/30m              -2.51:  Build Rotating 
 BS  .in                  8.50:  Bit Size 
 BSZ .in                  8.50:  Bit Size 
 BTPL.psig              700.00:  Bit Press Loss 
 CABU.                     Yes:  Customer Abuse 
 CGEO.          Ilgar Gurbanov:  Customer Geo 
 COMM.                     ¸P:  Run Comments 1 
 TCS .hr                140.40:  Time Ciculation Ended 
 CV  .mps                 2.27:  Crit Velocity 
 CVMX.mps                 2.45:  Max Crit Veloc 
 DD1 .         Intigam Rahimov:  Direct Drillr 1 
 DD2 .         Rasim Ibrahimov:  Direct Drillr 2 
 DDSV.                 iCruise:  DD Service 
 DEFF.%                  99.00:  % Det Eff 
 DLRX.°/30m               3.28:  Dogleg Rot Max 
 DLSO.°/30m               0.00:  Dogleg Oriented 
 DLSX.°/30m               0.00:  Dogleg Str Max 
 DRET.      23.30.00 18-Jan-20:  Drill End Time 
 DRST.      01.45.00 11-Jan-20:  Drill Start Tim 
 DTIM.hr                 94.00:  Time Drilling 
 EDEP.m                3878.01:  End Depth 
 ENG1.       Dauren Baktybayev:  Engineer 1 
 ENG2.      Natik Hasanaghayev:  Engineer 2 
 ENG3.          Rustam Safarov:  Engineer 3 
 ETIM.      08.00.00 20-Jan-20:  End Time 
 FLOI.gpm               532.00:  Flow In 
 FLON.gpm               500.00:  Flow In Min 
 FLOS.cptm                0.00:  Fluid Loss 
 FLOX.gpm               540.00:  Flow In Max 
 FTRO.       Formation Presure:  FTWD Run Obj 
 HPRE.                     Yes:  High Pressure 
 HTEM.                      No:  High Temp 
 HYDO.m                   1.80:  Hydro Offset 
 IFIN.deg                39.86:  Inc, Final 
 IMAX.deg                59.73:  Inc Max 
 IMIN.deg                39.25:  Inc Min 
 IMND.m                3816.77:  Inc Min Depth 
 IMXD.m                2596.33:  Inc Max Depth 
 JARR.                      No:  Jarring 
 LETM.      23.30.00 18-Jan-20:  Log End Time 
 LOST.hr                     0:  Lost Rig Time 
 LSTM.      01.45.00 11-Jan-20:  Log Start Time 
 MDCL.ppm             41500.00:  Mud Chlorides 
 MDES.     Inversion Oil/Synthetic:  Mud Desc 
 DFD .sg                  1.48:  Mud Density 
 MDMN.sg                  1.48:  Dens Mud Min 
 MDMX.sg                  1.48:  Dens Mud Max 
 MOIL.                      54:  Run Mud Oil % 
 MOWR.                   72:28:  Run Mud OWR 
 MSND.                       0:  Run Mud Sand % 
 MSOL.                      23:  Run Mud Solids% 
 DFV .spqt               86.00:  Mud Viscosity 
 MWOD.in                  6.75:  MWD Tool OD 
 MWSI.                      No:  Serv Intrp, MWD 
 OTIM.hr                223.40:  Time Operating 
 PCON.           Look Like New:  Pad Condition 
 PMAX.psia            32446.79:  Press Op, Max 
 PV  .cP                 49.00:  Mud PV 
 RUN .                     200:  Run Number 
 ROPA.m/hr               12.48:  ROP Avg 
 ROPN.m/hr                8.00:  ROP Min 
 ROPX.m/hr               27.00:  ROP Max 
 RPMA.rpm               121.00:  RPM Surface Avg 
 RPMN.rpm                60.00:  RPM Surface Min 
 RPMX.rpm               140.00:  RPM Surface Max 
 RRUN.                    L202:  Rig Run Number 
 RTIM.hr                  7.25:  Time Reaming 
 SAZI.deg               123.49:  Azm, Start 
 SDEP.m                2585.01:  Start Depth 
 SIDD.                      No:  Serv Intrp, DD 
 SINC.deg                59.93:  Inc, Start 
 SPPA.psig             3539.00:  SPP Avg 
 SPPN.psig             3050.00:  SPP Min 
 SPPX.psig             3950.00:  SPP Max 
 STIM.      19.00.00 10-Jan-20:  Start Time 
 SVCS.                 DD, MWD:  Services 
 SVER.                    9.20:  Sperry Version 
 TDAT.m                1293.00:  Tot Depth Attmp 
 TDDF.                      No:  Trip for DD 
 TDLG.m                1293.00:  Tot Depth Loggd 
 TFF .                      No:  Trip for Fail 
 TQAA.f-kp               16.00:  Torque Abs Avg 
 TQAN.f-kp               11.00:  Torque Abs Min 
 TQAX.f-kp               18.00:  Torque Abs Max 
 TRRT.°/30m               1.25:  Turn Rotating 
 MRT .                  EWR-M5:  Maximum Recorded Temperature 
 TTMX.degC               84.00:  Max Tool Temp 
 VS01.          AZ90514619R5C6:  Virtual Str1 SN 
 VS02.        AZ90552592N2L2C6:  Virtual Str2 SN 
 VS03.        AZ90571337Z1W1C6:  Virtual Str3 SN 
 VS04.         AZ90513690K23C6:  Virtual Str4 SN 
 VS05.           AZ90594857F11:  Virtual Str5 SN 
 VS06.                13102166:  Virtual Str6 SN 
 WBMN.klb                 7.00:  WOB Min 
 WITN.            Peter Wilson:  Customer Rep 
 WOBA.klb                 9.95:  WOB Avg 
 WOBX.klb                10.00:  WOB Max 
 YP  .lhf2               36.00:  Yield Point 
~Curve Information Block
#MNEM.UNIT                 API CODE     Curve Description
#---------               -----------    ---------------------------
 TIME.HHMMSS            00 000 000 000:  GT Time & Date
 GTDEPTH.m              00 000 000 000:  GT Depth
 GTPQH.psia             00 000 000 000:  GT HR Quartz Pressure
 GTTQ.degC              00 000 000 000:  GT Quartz Temperature
 GTTN.NONE              00 000 000 000:  GT Test Number
 GTET.sec               00 000 000 000:  GT Elapsed Test Time
 GTTVD.m                00 000 000 000:  GT True Vertical Depth
#Other Information
#
#WARRANTY: Halliburton will use its best efforts to furnish customers with 
#accurate information and interpretations that are part of, and incident to, the services 
#provided.  However, Halliburton cannot and does not warrant the accuracy 
#or correctness of such information and interpretations.  Under no circumstances should any 
#such information or interpretation be relied upon as the sole basis for any drilling, 
#completion, production, or financial decision or any procedure involving any risk to the 
#safety of any drilling venture, drilling rig or its crew or any other third party.  The 
#Customer has full responsibility for all drilling, completion and production operation.  
#Halliburton makes no representations or warranties, either expressed or 
#implied, including, but not limited to, the implied warranties of merchantability or fitness 
#for a particular purpose, with respect to the services rendered.  In no event will 
#Halliburton be liable for failure to obtain any particular results or for 
#any damages, including, but not limited to, indirect, special or consequential damages, 
#resulting from the use of any information or interpretation provided by Halliburton.
#
~A           TIME           GTDEPTH  GTPQH  GTTQ  GTTN  GTET   GTTVD  
# ...
   13:33:16.172.18-Jan-2020 3754.51  635.36 81.19 4.00 115.04 2825.33
   13:33:16.372.18-Jan-2020 3754.51  635.36 81.19 4.00 115.24 2825.33
   13:33:16.572.18-Jan-2020 3754.51  634.87 81.19 4.00 115.44 2825.33
   13:33:16.772.18-Jan-2020 3754.51  634.90 81.19 4.00 115.64 2825.33
   13:33:16.972.18-Jan-2020 3754.51  634.94 81.19 4.00 115.84 2825.33
   13:33:17.172.18-Jan-2020 3754.51  635.01 81.19 4.00 116.04 2825.33
   13:33:17.372.18-Jan-2020 3754.51  635.01 81.19 4.00 116.24 2825.33
   13:33:17.572.18-Jan-2020 3754.51  635.21 81.19 4.00 116.44 2825.33
   13:33:17.772.18-Jan-2020 3754.51  635.58 81.19 4.00 116.64 2825.33
   13:33:17.972.18-Jan-2020 3754.51  635.30 81.19 4.00 116.84 2825.33
   13:33:18.173.18-Jan-2020 3754.51  633.91 81.19 4.00 117.04 2825.33
   13:33:18.373.18-Jan-2020 3754.51  633.91 81.19 4.00 117.24 2825.33
   13:33:18.573.18-Jan-2020 3754.51  635.11 81.18 4.00 117.44 2825.33
   13:33:18.773.18-Jan-2020 3754.51  635.51 81.18 4.00 117.64 2825.33
   13:33:18.973.18-Jan-2020 3754.51  635.46 81.18 4.00 117.84 2825.33
   13:33:19.173.18-Jan-2020 3754.51  635.39 81.18 4.00 118.04 2825.33
   13:33:19.373.18-Jan-2020 3754.51  635.39 81.18 4.00 118.24 2825.33
   13:33:19.573.18-Jan-2020 3754.51  635.29 81.18 4.00 118.44 2825.33
   13:33:19.773.18-Jan-2020 3754.51  635.17 81.18 4.00 118.64 2825.33
   13:33:19.973.18-Jan-2020 3754.51  635.28 81.18 4.00 118.84 2825.33
   13:33:20.173.18-Jan-2020 3754.51  635.35 81.18 4.00 119.04 2825.33
   13:33:20.373.18-Jan-2020 3754.51  635.35 81.18 4.00 119.24 2825.33
   13:33:20.573.18-Jan-2020 3754.51  635.19 81.18 4.00 119.44 2825.33
   13:33:20.773.18-Jan-2020 3754.51  635.29 81.18 4.00 119.64 2825.33
   13:33:20.973.18-Jan-2020 3754.51  635.21 81.18 4.00 119.84 2825.33
   13:33:21.173.18-Jan-2020 3754.51  635.34 81.18 4.00 120.04 2825.33
   13:33:21.374.18-Jan-2020 3754.51  635.34 81.18 4.00 120.24 2825.33
   13:33:21.574.18-Jan-2020 3754.51  634.67 81.18 4.00 120.44 2825.33
   13:33:21.774.18-Jan-2020 3754.51  634.55 81.18 4.00 120.64 2825.33
   13:33:21.974.18-Jan-2020 3754.51  635.06 81.18 4.00 120.84 2825.33
   13:33:22.174.18-Jan-2020 3754.51  635.91 81.18 4.00 121.04 2825.33
   13:33:22.374.18-Jan-2020 3754.51  635.91 81.18 4.00 121.24 2825.33
   13:33:22.574.18-Jan-2020 3754.51  635.72 81.18 4.00 121.44 2825.33
   13:33:22.774.18-Jan-2020 3754.51  635.32 81.18 4.00 121.64 2825.33
   13:33:22.974.18-Jan-2020 3754.51  635.47 81.18 4.00 121.84 2825.33
   13:33:23.174.18-Jan-2020 3754.51  635.50 81.18 4.00 122.04 2825.33
   13:33:23.374.18-Jan-2020 3754.51  635.50 81.18 4.00 122.24 2825.33
   13:33:23.574.18-Jan-2020 3754.51  635.47 81.18 4.00 122.44 2825.33
   13:33:23.774.18-Jan-2020 3754.51  634.91 81.18 4.00 122.64 2825.33
   13:33:23.974.18-Jan-2020 3754.51  634.67 81.18 4.00 122.84 2825.33
   13:33:24.174.18-Jan-2020 3754.51  635.34 81.18 4.00 123.04 2825.33
   13:33:24.375.18-Jan-2020 3754.51  635.34 81.18 4.00 123.24 2825.33
   13:33:24.575.18-Jan-2020 3754.51  636.00 81.18 4.00 123.44 2825.33
   13:33:24.775.18-Jan-2020 3754.51  634.14 81.17 4.00 123.64 2825.33
   13:33:24.975.18-Jan-2020 3754.51  636.27 81.17 4.00 123.84 2825.33
   13:33:25.175.18-Jan-2020 3754.51  636.06 81.17 4.00 124.04 2825.33
   13:33:25.375.18-Jan-2020 3754.51  636.06 81.17 4.00 124.24 2825.33
   13:33:25.575.18-Jan-2020 3754.51  635.98 81.17 4.00 124.44 2825.33
   13:33:25.775.18-Jan-2020 3754.51  635.91 81.17 4.00 124.64 2825.33
   13:33:25.975.18-Jan-2020 3754.51  634.65 81.17 4.00 124.84 2825.33
   13:33:26.175.18-Jan-2020 3754.51  636.13 81.17 4.00 125.04 2825.33
   13:33:26.375.18-Jan-2020 3754.51  636.13 81.17 4.00 125.24 2825.33
   13:33:26.575.18-Jan-2020 3754.51  636.49 81.17 4.00 125.44 2825.33
   13:33:26.775.18-Jan-2020 3754.51  636.46 81.17 4.00 125.64 2825.33
   13:33:26.975.18-Jan-2020 3754.51  636.41 81.17 4.00 125.84 2825.33
   13:33:27.175.18-Jan-2020 3754.51  634.46 81.17 4.00 126.04 2825.33
   13:33:27.376.18-Jan-2020 3754.51  634.46 81.17 4.00 126.24 2825.33
   13:33:27.576.18-Jan-2020 3754.51  637.05 81.17 4.00 126.44 2825.33
   13:33:27.776.18-Jan-2020 3754.51  636.74 81.17 4.00 126.64 2825.33
   13:33:27.976.18-Jan-2020 3754.51  636.57 81.17 4.00 126.84 2825.33
   13:33:28.176.18-Jan-2020 3754.51  636.58 81.17 4.00 127.04 2825.33
   13:33:28.376.18-Jan-2020 3754.51  636.58 81.17 4.00 127.24 2825.33
   13:33:28.576.18-Jan-2020 3754.51  636.48 81.17 4.00 127.44 2825.33
   13:33:28.776.18-Jan-2020 3754.51  636.48 81.17 4.00 127.64 2825.33
   13:33:28.976.18-Jan-2020 3754.51  636.48 81.17 4.00 127.84 2825.33
   13:33:29.176.18-Jan-2020 3754.51  636.42 81.17 4.00 128.04 2825.33
   13:33:29.376.18-Jan-2020 3754.51  636.42 81.17 4.00 128.24 2825.33
   13:33:29.576.18-Jan-2020 3754.51  636.37 81.17 4.00 128.44 2825.33
   13:33:29.776.18-Jan-2020 3754.51  636.33 81.17 4.00 128.64 2825.33
   13:33:29.976.18-Jan-2020 3754.51  636.34 81.17 4.00 128.84 2825.33
   13:33:30.176.18-Jan-2020 3754.51  636.33 81.17 4.00 129.04 2825.33
   13:33:30.376.18-Jan-2020 3754.51  636.33 81.17 4.00 129.24 2825.33
   13:33:30.577.18-Jan-2020 3754.51  634.33 81.17 4.00 129.44 2825.33
   13:33:30.777.18-Jan-2020 3754.51  637.06 81.17 4.00 129.64 2825.33
   13:33:30.977.18-Jan-2020 3754.51  636.79 81.16 4.00 129.84 2825.33
   13:33:31.177.18-Jan-2020 3754.51  636.73 81.16 4.00 130.04 2825.33
   13:33:31.377.18-Jan-2020 3754.51  636.73 81.16 4.00 130.24 2825.33
   13:33:31.577.18-Jan-2020 3754.51  636.64 81.16 4.00 130.44 2825.33
   13:33:31.777.18-Jan-2020 3754.51  636.74 81.16 4.00 130.64 2825.33
   13:33:31.977.18-Jan-2020 3754.51  636.75 81.16 4.00 130.84 2825.33
   13:33:32.177.18-Jan-2020 3754.51  636.66 81.16 4.00 131.04 2825.33
   13:33:32.377.18-Jan-2020 3754.51  636.66 81.16 4.00 131.24 2825.33
   13:33:32.577.18-Jan-2020 3754.51  636.66 81.16 4.00 131.44 2825.33
   13:33:32.777.18-Jan-2020 3754.51  634.70 81.16 4.00 131.64 2825.33
   13:33:32.977.18-Jan-2020 3754.51  637.49 81.16 4.00 131.84 2825.33
   13:33:33.177.18-Jan-2020 3754.51  637.24 81.16 4.00 132.04 2825.33
   13:33:33.377.18-Jan-2020 3754.51  637.24 81.16 4.00 132.24 2825.33
   13:33:33.578.18-Jan-2020 3754.51  637.03 81.16 4.00 132.44 2825.33
   13:33:33.778.18-Jan-2020 3754.51  635.49 81.16 4.00 132.64 2825.33
   13:33:33.978.18-Jan-2020 3754.51  637.62 81.16 4.00 132.84 2825.33
   13:33:34.178.18-Jan-2020 3754.51  638.27 81.16 4.00 133.04 2825.33
   13:33:34.378.18-Jan-2020 3754.51  638.27 81.16 4.00 133.24 2825.33
   13:33:34.578.18-Jan-2020 3754.51  637.85 81.16 4.00 133.44 2825.33
   13:33:34.778.18-Jan-2020 3754.51  637.70 81.16 4.00 133.64 2825.33
   13:33:34.978.18-Jan-2020 3754.51  635.88 81.16 4.00 133.84 2825.33
   13:33:35.178.18-Jan-2020 3754.51  638.68 81.16 4.00 134.04 2825.33
   13:33:35.378.18-Jan-2020 3754.51  638.68 81.16 4.00 134.24 2825.33
   13:33:35.578.18-Jan-2020 3754.51  638.32 81.16 4.00 134.44 2825.33
   13:33:35.778.18-Jan-2020 3754.51  638.26 81.16 4.00 134.64 2825.33
   13:33:35.978.18-Jan-2020 3754.51  638.39 81.16 4.00 134.84 2825.33
   13:33:36.178.18-Jan-2020 3754.51  637.70 81.16 4.00 135.04 2825.33
   13:33:36.378.18-Jan-2020 3754.51  637.70 81.16 4.00 135.24 2825.33
   13:33:36.578.18-Jan-2020 3754.51  638.34 81.16 4.00 135.44 2825.33
   13:33:36.779.18-Jan-2020 3754.51  639.27 81.15 4.00 135.64 2825.33
   13:33:36.979.18-Jan-2020 3754.51  638.81 81.15 4.00 135.84 2825.33
   13:33:37.179.18-Jan-2020 3754.51  638.79 81.15 4.00 136.04 2825.33
   13:33:37.379.18-Jan-2020 3754.51  638.79 81.15 4.00 136.24 2825.33
   13:33:37.579.18-Jan-2020 3754.51  638.54 81.15 4.00 136.44 2825.33
   13:33:37.779.18-Jan-2020 3754.51  638.65 81.15 4.00 136.64 2825.33
   13:33:37.979.18-Jan-2020 3754.51  638.61 81.15 4.00 136.84 2825.33
   13:33:38.179.18-Jan-2020 3754.51  638.59 81.15 4.00 137.04 2825.33
   13:33:38.379.18-Jan-2020 3754.51  638.59 81.15 4.00 137.24 2825.33
   13:33:38.579.18-Jan-2020 3754.51  638.48 81.15 4.00 137.44 2825.33
   13:33:38.779.18-Jan-2020 3754.51  638.32 81.15 4.00 137.64 2825.33
   13:33:38.979.18-Jan-2020 3754.51  638.38 81.15 4.00 137.84 2825.33
