~Version Information
 VERS.                  2.0:   CWLS log ASCII Standard -VERSION 2.0
 WRAP.                   NO:   One line per depth step
~Well Information Block
#MNEM.UNIT     VALUE/NAME     DESCRIPTION
#---------     -----------    ---------------------------
 STRT.S             17:36:42 18-Jan-20: START TIME 17:36:42 18-Jan-20
 STOP.S             17:44:57 18-Jan-20: STOP TIME  17:44:57 18-Jan-20
 STEP.S                   0.00: STEP TIME
 NULL.                 -999.25: NULL VALUE
 DFWT.                        :  DIST FWL TEXT
 DFST.                        :  DIST FSL TEXT
 DMF .             Drill Floor:  DRILL MEAS FROM
 STIM.      09.30.00 26-Dec-19:  START TIME
 DATE.      08.00.00 20-Jan-20:  END TIME
 SPUD.               23-Nov-19:  SPUD DATE
 NREF.                    Grid:  NORTH REFERENCE
 HPTY.       Minimum Curvature:  HOLE POS TYPE
 DMOD.             Drill Model:  DRILL MOD DESC
 SVYD.                  Survey:  SURVEY DESC
 ILTD.               Lithology:  INTERP LTH DESC
 FTOP.          Formation Tops:  FORM TOPS DESC
 SON .        AZ-XX-0906192647:  JOB NUMBER
 WTYP.                Deviated:  WELL TYPE
 COMP.     BP Exploration (Caspian Sea) Ltd:  COMPANY
 BASE.              Azerbaijan:  LOGGING EQUIPMENT BASE LOCATION
 REGN.                 Eurasia:  REGION
 FLD .                     ACG:  FIELD NAME
 SRVC.              KCA Deutag:  CONTRACTOR
 MWDS.                    Baku:  MWD SHOP
 WELL.     A10 (Slot 20) - SCP:  WELL NAME
 JOBN.        AZ-XX-0906192647:  JOB TICKET NUMB
 RIG .                 Chirag1:  RIG NAME
 DCON.     Halliburton Sperry Drilling:  DIRECTNL CONTR
 UNIT.                     N/A:  LOGGING EQUIPMENT ID
 PDAT.          Mean Sea Level:  PERMANENT DATUM
 MDS .        Operator Entered:  MAG DATA SOURCE
 CTRY.              Azerbaijan:  COUNTRY NAME
 UWI .            /AZE00000090:  UNIQUE WELL IDENTIFIER
 API .            /AZE00000090:  API NUMBER
 CNTY.                        :  COUNTY
 PROV.                        :  PROVINCE
 STAT.                        :  STATE
 LOC .                        :  LOCATION
 LMF .             Drill Floor:  LOG MEASURED FROM
 TVDS.m                  36.60:  TVDSS CORRECTN
 LATI.deg                40.08:  LATITUDE
 LONG.deg                51.24:  LONGITUDE
 WHNS.m                  -7.94:  WELL HEAD N/S
 WHEW.m                   1.56:  WELL HEAD E/W
 UTMX.m              520429.26:  UTM X
 UTMY.m             4438973.87:  UTM Y
 DFWL.m                   0.00:  DISTANCE FWL
 DFSL.m                   0.00:  DISTANCE FSL
 SDEP.m                1455.00:  START DEPTH
 TDD .m                3878.01:  TOTAL DEPTH (DRILLER)
 VSDR.deg               112.75:  VERT SEC DIRECT
 GVFD.g                   1.00:  GRAVITY FIELD
 MFLD.nT              50256.00:  MAGNETIC FIELD
 MDIP.deg                59.52:  MAGNETIC DIP
 MDEC.deg                 6.43:  MAGNETIC DECL
 GRDC.deg                 0.16:  GRID CORRECTION
 AZTC.deg                 6.27:  AZM TOTAL CORR
 EPD .m                   0.00:  ELEVATION
 EGL .m                   0.00:  GROUND ELEVATION
 WDMS.m                 121.00:  WD ELEV
 APD .m                  36.60:  DEPTH ABOVE PD
 AGAP.m                  36.60:  AIR GAP
 VSEW.m                   1.56:  VERT SEC E/W
 VSNS.m                  -7.94:  VERT SEC N/S
 DEP .m                1140.01:  DEPTH
 EKB .m                  36.60:  KB ELEVATION
 EDF .m                  36.60:  DF ELEVATION
 TDL .m                1293.00:  TOTAL DEPTH (LOGGER)
 VSC .                       0:  VS TO CLOSURE
 MAGU.                 1849164:  MAGUTM CHECKSUM
~Parameter Information Block
#MNEM.UNIT       Value        Description
#---------     -----------    ---------------------------
 AV  .mps                 2.40:  Ann Velocity 
 AVMX.mps                 2.55:  Max Ann Veloc 
 AZIF.deg               134.35:  Azm, Final 
 BHAT.        Rotary Steerable:  BHA Type 
 BREV.rev               847.00:  Rev Bit Total 
 BROT.°/30m              -2.51:  Build Rotating 
 BS  .in                  8.50:  Bit Size 
 BSZ .in                  8.50:  Bit Size 
 BTPL.psig              700.00:  Bit Press Loss 
 CABU.                     Yes:  Customer Abuse 
 CGEO.          Ilgar Gurbanov:  Customer Geo 
 COMM.                     Ä_:  Run Comments 1 
 TCS .hr                140.40:  Time Ciculation Ended 
 CV  .mps                 2.27:  Crit Velocity 
 CVMX.mps                 2.45:  Max Crit Veloc 
 DD1 .         Intigam Rahimov:  Direct Drillr 1 
 DD2 .         Rasim Ibrahimov:  Direct Drillr 2 
 DDSV.                 iCruise:  DD Service 
 DEFF.%                  99.00:  % Det Eff 
 DLRX.°/30m               3.28:  Dogleg Rot Max 
 DLSO.°/30m               0.00:  Dogleg Oriented 
 DLSX.°/30m               0.00:  Dogleg Str Max 
 DRET.      23.30.00 18-Jan-20:  Drill End Time 
 DRST.      01.45.00 11-Jan-20:  Drill Start Tim 
 DTIM.hr                 94.00:  Time Drilling 
 EDEP.m                3878.01:  End Depth 
 ENG1.       Dauren Baktybayev:  Engineer 1 
 ENG2.      Natik Hasanaghayev:  Engineer 2 
 ENG3.          Rustam Safarov:  Engineer 3 
 ETIM.      08.00.00 20-Jan-20:  End Time 
 FLOI.gpm               532.00:  Flow In 
 FLON.gpm               500.00:  Flow In Min 
 FLOS.cptm                0.00:  Fluid Loss 
 FLOX.gpm               540.00:  Flow In Max 
 FTRO.       Formation Presure:  FTWD Run Obj 
 HPRE.                     Yes:  High Pressure 
 HTEM.                      No:  High Temp 
 HYDO.m                   1.80:  Hydro Offset 
 IFIN.deg                39.86:  Inc, Final 
 IMAX.deg                59.73:  Inc Max 
 IMIN.deg                39.25:  Inc Min 
 IMND.m                3816.77:  Inc Min Depth 
 IMXD.m                2596.33:  Inc Max Depth 
 JARR.                      No:  Jarring 
 LETM.      23.30.00 18-Jan-20:  Log End Time 
 LOST.hr                     0:  Lost Rig Time 
 LSTM.      01.45.00 11-Jan-20:  Log Start Time 
 MDCL.ppm             41500.00:  Mud Chlorides 
 MDES.     Inversion Oil/Synthetic:  Mud Desc 
 DFD .sg                  1.48:  Mud Density 
 MDMN.sg                  1.48:  Dens Mud Min 
 MDMX.sg                  1.48:  Dens Mud Max 
 MOIL.                      54:  Run Mud Oil % 
 MOWR.                   72:28:  Run Mud OWR 
 MSND.                       0:  Run Mud Sand % 
 MSOL.                      23:  Run Mud Solids% 
 DFV .spqt               86.00:  Mud Viscosity 
 MWOD.in                  6.75:  MWD Tool OD 
 MWSI.                      No:  Serv Intrp, MWD 
 OTIM.hr                223.40:  Time Operating 
 PCON.           Look Like New:  Pad Condition 
 PMAX.psia            32446.79:  Press Op, Max 
 PV  .cP                 49.00:  Mud PV 
 RUN .                     200:  Run Number 
 ROPA.m/hr               12.48:  ROP Avg 
 ROPN.m/hr                8.00:  ROP Min 
 ROPX.m/hr               27.00:  ROP Max 
 RPMA.rpm               121.00:  RPM Surface Avg 
 RPMN.rpm                60.00:  RPM Surface Min 
 RPMX.rpm               140.00:  RPM Surface Max 
 RRUN.                    L202:  Rig Run Number 
 RTIM.hr                  7.25:  Time Reaming 
 SAZI.deg               123.49:  Azm, Start 
 SDEP.m                2585.01:  Start Depth 
 SIDD.                      No:  Serv Intrp, DD 
 SINC.deg                59.93:  Inc, Start 
 SPPA.psig             3539.00:  SPP Avg 
 SPPN.psig             3050.00:  SPP Min 
 SPPX.psig             3950.00:  SPP Max 
 STIM.      19.00.00 10-Jan-20:  Start Time 
 SVCS.                 DD, MWD:  Services 
 SVER.                    9.20:  Sperry Version 
 TDAT.m                1293.00:  Tot Depth Attmp 
 TDDF.                      No:  Trip for DD 
 TDLG.m                1293.00:  Tot Depth Loggd 
 TFF .                      No:  Trip for Fail 
 TQAA.f-kp               16.00:  Torque Abs Avg 
 TQAN.f-kp               11.00:  Torque Abs Min 
 TQAX.f-kp               18.00:  Torque Abs Max 
 TRRT.°/30m               1.25:  Turn Rotating 
 MRT .                  EWR-M5:  Maximum Recorded Temperature 
 TTMX.degC               84.00:  Max Tool Temp 
 VS01.          AZ90514619R5C6:  Virtual Str1 SN 
 VS02.        AZ90552592N2L2C6:  Virtual Str2 SN 
 VS03.        AZ90571337Z1W1C6:  Virtual Str3 SN 
 VS04.         AZ90513690K23C6:  Virtual Str4 SN 
 VS05.           AZ90594857F11:  Virtual Str5 SN 
 VS06.                13102166:  Virtual Str6 SN 
 WBMN.klb                 7.00:  WOB Min 
 WITN.            Peter Wilson:  Customer Rep 
 WOBA.klb                 9.95:  WOB Avg 
 WOBX.klb                10.00:  WOB Max 
 YP  .lhf2               36.00:  Yield Point 
~Curve Information Block
#MNEM.UNIT                 API CODE     Curve Description
#---------               -----------    ---------------------------
 TIME.HHMMSS            00 000 000 000:  GT Time & Date
 GTDEPTH.m              00 000 000 000:  GT Depth
 GTPQH.psia             00 000 000 000:  GT HR Quartz Pressure
 GTTQ.degC              00 000 000 000:  GT Quartz Temperature
 GTTN.NONE              00 000 000 000:  GT Test Number
 GTET.sec               00 000 000 000:  GT Elapsed Test Time
 GTTVD.m                00 000 000 000:  GT True Vertical Depth
#Other Information
#
#WARRANTY: Halliburton will use its best efforts to furnish customers with 
#accurate information and interpretations that are part of, and incident to, the services 
#provided.  However, Halliburton cannot and does not warrant the accuracy 
#or correctness of such information and interpretations.  Under no circumstances should any 
#such information or interpretation be relied upon as the sole basis for any drilling, 
#completion, production, or financial decision or any procedure involving any risk to the 
#safety of any drilling venture, drilling rig or its crew or any other third party.  The 
#Customer has full responsibility for all drilling, completion and production operation.  
#Halliburton makes no representations or warranties, either expressed or 
#implied, including, but not limited to, the implied warranties of merchantability or fitness 
#for a particular purpose, with respect to the services rendered.  In no event will 
#Halliburton be liable for failure to obtain any particular results or for 
#any damages, including, but not limited to, indirect, special or consequential damages, 
#resulting from the use of any information or interpretation provided by Halliburton.
#
~A           TIME           GTDEPTH  GTPQH  GTTQ  GTTN  GTET   GTTVD  
# ...
   17:41:41.915.18-Jan-2020 3785.01 3858.65 81.85 6.00 299.02 2848.88
   17:41:42.115.18-Jan-2020 3785.01 3858.65 81.85 6.00 299.22 2848.88
   17:41:42.315.18-Jan-2020 3785.01 3858.87 81.85 6.00 299.42 2848.88
   17:41:42.515.18-Jan-2020 3785.01 3858.55 81.85 6.00 299.62 2848.88
   17:41:42.715.18-Jan-2020 3785.01 3858.61 81.85 6.00 299.82 2848.88
   17:41:42.915.18-Jan-2020 3785.01 3858.78 81.85 6.00 300.02 2848.88
   17:41:43.115.18-Jan-2020 3785.01 3858.78 81.85 6.00 300.22 2848.88
   17:41:43.315.18-Jan-2020 3785.01 3858.65 81.85 6.00 300.42 2848.88
   17:41:43.515.18-Jan-2020 3785.01 3858.69 81.85 6.00 300.62 2848.88
   17:41:43.715.18-Jan-2020 3785.01 3858.53 81.85 6.00 300.82 2848.88
   17:41:43.915.18-Jan-2020 3785.01 3857.95 81.85 6.00 301.02 2848.88
   17:41:44.115.18-Jan-2020 3785.01 3857.95 81.85 6.00 301.22 2848.88
   17:41:44.315.18-Jan-2020 3785.01 3858.52 81.85 6.00 301.42 2848.88
   17:41:44.515.18-Jan-2020 3785.01 3858.94 81.85 6.00 301.62 2848.88
   17:41:44.715.18-Jan-2020 3785.01 3858.48 81.85 6.00 301.82 2848.88
   17:41:44.915.18-Jan-2020 3785.01 3858.66 81.85 6.00 302.02 2848.88
   17:41:45.115.18-Jan-2020 3785.01 3858.66 81.85 6.00 302.22 2848.88
   17:41:45.315.18-Jan-2020 3785.01 3858.64 81.85 6.00 302.42 2848.88
   17:41:45.515.18-Jan-2020 3785.01 3858.56 81.85 6.00 302.62 2848.88
   17:41:45.715.18-Jan-2020 3785.01 3858.46 81.85 6.00 302.82 2848.88
   17:41:45.915.18-Jan-2020 3785.01 3858.68 81.85 6.00 303.02 2848.88
   17:41:46.115.18-Jan-2020 3785.01 3858.68 81.85 6.00 303.22 2848.88
   17:41:46.315.18-Jan-2020 3785.01 3857.54 81.85 6.00 303.42 2848.88
   17:41:46.515.18-Jan-2020 3785.01 3858.66 81.85 6.00 303.62 2848.88
   17:41:46.715.18-Jan-2020 3785.01 3859.04 81.85 6.00 303.82 2848.88
   17:41:46.915.18-Jan-2020 3785.01 3858.58 81.85 6.00 304.02 2848.88
   17:41:47.115.18-Jan-2020 3785.01 3858.58 81.85 6.00 304.22 2848.88
   17:41:47.315.18-Jan-2020 3785.01 3858.79 81.85 6.00 304.42 2848.88
   17:41:47.515.18-Jan-2020 3785.01 3859.04 81.85 6.00 304.62 2848.88
   17:41:47.715.18-Jan-2020 3785.01 3858.49 81.85 6.00 304.82 2848.88
   17:41:47.915.18-Jan-2020 3785.01 3857.60 81.85 6.00 305.02 2848.88
   17:41:48.115.18-Jan-2020 3785.01 3857.60 81.85 6.00 305.22 2848.88
   17:41:48.316.18-Jan-2020 3785.01 3858.76 81.85 6.00 305.42 2848.88
   17:41:48.516.18-Jan-2020 3785.01 3858.61 81.85 6.00 305.62 2848.88
   17:41:48.716.18-Jan-2020 3785.01 3858.43 81.85 6.00 305.82 2848.88
   17:41:48.916.18-Jan-2020 3785.01 3858.65 81.84 6.00 306.02 2848.88
   17:41:49.116.18-Jan-2020 3785.01 3858.65 81.84 6.00 306.22 2848.88
   17:41:49.316.18-Jan-2020 3785.01 3859.18 81.84 6.00 306.42 2848.88
   17:41:49.516.18-Jan-2020 3785.01 3859.05 81.84 6.00 306.62 2848.88
   17:41:49.716.18-Jan-2020 3785.01 3859.02 81.84 6.00 306.82 2848.88
   17:41:49.916.18-Jan-2020 3785.01 3858.60 81.84 6.00 307.02 2848.88
   17:41:50.116.18-Jan-2020 3785.01 3858.60 81.84 6.00 307.22 2848.88
   17:41:50.316.18-Jan-2020 3785.01 3858.56 81.84 6.00 307.42 2848.88
   17:41:50.516.18-Jan-2020 3785.01 3858.61 81.84 6.00 307.62 2848.88
   17:41:50.716.18-Jan-2020 3785.01 3858.65 81.84 6.00 307.82 2848.88
   17:41:50.916.18-Jan-2020 3785.01 3858.53 81.84 6.00 308.02 2848.88
   17:41:51.116.18-Jan-2020 3785.01 3858.53 81.84 6.00 308.22 2848.88
   17:41:51.316.18-Jan-2020 3785.01 3858.66 81.84 6.00 308.42 2848.88
   17:41:51.516.18-Jan-2020 3785.01 3858.60 81.84 6.00 308.62 2848.88
   17:41:51.716.18-Jan-2020 3785.01 3858.57 81.84 6.00 308.82 2848.88
   17:41:51.916.18-Jan-2020 3785.01 3858.63 81.84 6.00 309.02 2848.88
   17:41:52.116.18-Jan-2020 3785.01 3858.63 81.84 6.00 309.22 2848.88
   17:41:52.316.18-Jan-2020 3785.01 3858.66 81.84 6.00 309.42 2848.88
   17:41:52.516.18-Jan-2020 3785.01 3858.39 81.84 6.00 309.62 2848.88
   17:41:52.716.18-Jan-2020 3785.01 3857.75 81.84 6.00 309.82 2848.88
   17:41:52.916.18-Jan-2020 3785.01 3858.99 81.84 6.00 310.02 2848.88
   17:41:53.116.18-Jan-2020 3785.01 3858.99 81.84 6.00 310.22 2848.88
   17:41:53.316.18-Jan-2020 3785.01 3858.70 81.84 6.00 310.42 2848.88
   17:41:53.516.18-Jan-2020 3785.01 3858.75 81.84 6.00 310.62 2848.88
   17:41:53.716.18-Jan-2020 3785.01 3858.76 81.84 6.00 310.82 2848.88
   17:41:53.916.18-Jan-2020 3785.01 3858.42 81.84 6.00 311.02 2848.88
   17:41:54.116.18-Jan-2020 3785.01 3858.42 81.84 6.00 311.22 2848.88
   17:41:54.316.18-Jan-2020 3785.01 3858.57 81.84 6.00 311.42 2848.88
   17:41:54.516.18-Jan-2020 3785.01 3858.62 81.84 6.00 311.62 2848.88
   17:41:54.716.18-Jan-2020 3785.01 3858.53 81.84 6.00 311.82 2848.88
   17:41:54.916.18-Jan-2020 3785.01 3858.04 81.84 6.00 312.02 2848.88
   17:41:55.116.18-Jan-2020 3785.01 3858.04 81.84 6.00 312.22 2848.88
   17:41:55.316.18-Jan-2020 3785.01 3858.87 81.84 6.00 312.42 2848.88
   17:41:55.516.18-Jan-2020 3785.01 3858.99 81.84 6.00 312.62 2848.88
   17:41:55.716.18-Jan-2020 3785.01 3857.85 81.84 6.00 312.82 2848.88
   17:41:55.916.18-Jan-2020 3785.01 3859.38 81.84 6.00 313.02 2848.88
   17:41:56.116.18-Jan-2020 3785.01 3859.38 81.84 6.00 313.22 2848.88
   17:41:56.316.18-Jan-2020 3785.01 3858.80 81.84 6.00 313.42 2848.88
   17:41:56.516.18-Jan-2020 3785.01 3857.64 81.84 6.00 313.62 2848.88
   17:41:56.716.18-Jan-2020 3785.01 3859.33 81.83 6.00 313.82 2848.88
   17:41:56.916.18-Jan-2020 3785.01 3858.65 81.83 6.00 314.02 2848.88
   17:41:57.116.18-Jan-2020 3785.01 3858.65 81.83 6.00 314.22 2848.88
   17:41:57.316.18-Jan-2020 3785.01 3580.69 81.83 6.00 314.42 2848.88
   17:41:57.516.18-Jan-2020 3785.01 3453.32 81.83 6.00 314.62 2848.88
   17:41:57.716.18-Jan-2020 3785.01 3374.23 81.83 6.00 314.82 2848.88
   17:41:57.916.18-Jan-2020 3785.01 3337.46 81.83 6.00 315.02 2848.88
   17:41:58.116.18-Jan-2020 3785.01 3337.46 81.83 6.00 315.22 2848.88
   17:41:58.316.18-Jan-2020 3785.01 3299.12 81.83 6.00 315.42 2848.88
   17:41:58.516.18-Jan-2020 3785.01 3285.35 81.83 6.00 315.62 2848.88
   17:41:58.716.18-Jan-2020 3785.01 3284.22 81.83 6.00 315.82 2848.88
   17:41:58.916.18-Jan-2020 3785.01 3294.19 81.83 6.00 316.02 2848.88
   17:41:59.116.18-Jan-2020 3785.01 3294.19 81.83 6.00 316.22 2848.88
   17:41:59.316.18-Jan-2020 3785.01 3276.25 81.83 6.00 316.42 2848.88
   17:41:59.516.18-Jan-2020 3785.01 3265.12 81.83 6.00 316.62 2848.88
   17:41:59.716.18-Jan-2020 3785.01 3263.57 81.83 6.00 316.82 2848.88
   17:41:59.916.18-Jan-2020 3785.01 3249.10 81.83 6.00 317.02 2848.88
   17:42:00.116.18-Jan-2020 3785.01 3249.10 81.83 6.00 317.22 2848.88
   17:42:00.316.18-Jan-2020 3785.01 3249.21 81.83 6.00 317.42 2848.88
   17:42:00.516.18-Jan-2020 3785.01 3243.50 81.83 6.00 317.62 2848.88
   17:42:00.716.18-Jan-2020 3785.01 3244.42 81.82 6.00 317.82 2848.88
   17:42:00.916.18-Jan-2020 3785.01 3243.54 81.82 6.00 318.02 2848.88
   17:42:01.116.18-Jan-2020 3785.01 3243.54 81.82 6.00 318.22 2848.88
   17:42:01.316.18-Jan-2020 3785.01 3237.82 81.82 6.00 318.42 2848.88
   17:42:01.516.18-Jan-2020 3785.01 3237.96 81.82 6.00 318.62 2848.88
   17:42:01.716.18-Jan-2020 3785.01 3239.68 81.82 6.00 318.82 2848.88
   17:42:01.917.18-Jan-2020 3785.01 3238.25 81.82 6.00 319.02 2848.88
   17:42:02.117.18-Jan-2020 3785.01 3238.25 81.82 6.00 319.22 2848.88
   17:42:02.317.18-Jan-2020 3785.01 3240.41 81.82 6.00 319.42 2848.88
   17:42:02.517.18-Jan-2020 3785.01 3232.98 81.82 6.00 319.62 2848.88
   17:42:02.717.18-Jan-2020 3785.01 3237.66 81.82 6.00 319.82 2848.88
   17:42:02.917.18-Jan-2020 3785.01 3244.39 81.82 6.00 320.02 2848.88
   17:42:03.117.18-Jan-2020 3785.01 3244.39 81.82 6.00 320.22 2848.88
   17:42:03.317.18-Jan-2020 3785.01 3228.53 81.82 6.00 320.42 2848.88
   17:42:03.517.18-Jan-2020 3785.01 3232.59 81.82 6.00 320.62 2848.88
   17:42:03.717.18-Jan-2020 3785.01 3233.95 81.82 6.00 320.82 2848.88
   17:42:03.917.18-Jan-2020 3785.01 3229.45 81.81 6.00 321.02 2848.88
   17:42:04.117.18-Jan-2020 3785.01 3229.45 81.81 6.00 321.22 2848.88
   17:42:04.317.18-Jan-2020 3785.01 3238.20 81.81 6.00 321.42 2848.88
   17:42:04.517.18-Jan-2020 3785.01 3234.18 81.81 6.00 321.62 2848.88
   17:42:04.717.18-Jan-2020 3785.01 3229.83 81.81 6.00 321.82 2848.88
