~Version Information
 VERS.                  2.0:   CWLS log ASCII Standard -VERSION 2.0
 WRAP.                   NO:   One line per depth step
~Well Information Block
#MNEM.UNIT     VALUE/NAME     DESCRIPTION
#---------     -----------    ---------------------------
 STRT.S             17:36:42 18-Jan-20: START TIME 17:36:42 18-Jan-20
 STOP.S             17:44:57 18-Jan-20: STOP TIME  17:44:57 18-Jan-20
 STEP.S                   0.00: STEP TIME
 NULL.                 -999.25: NULL VALUE
 DFWT.                        :  DIST FWL TEXT
 DFST.                        :  DIST FSL TEXT
 DMF .             Drill Floor:  DRILL MEAS FROM
 STIM.      09.30.00 26-Dec-19:  START TIME
 DATE.      08.00.00 20-Jan-20:  END TIME
 SPUD.               23-Nov-19:  SPUD DATE
 NREF.                    Grid:  NORTH REFERENCE
 HPTY.       Minimum Curvature:  HOLE POS TYPE
 DMOD.             Drill Model:  DRILL MOD DESC
 SVYD.                  Survey:  SURVEY DESC
 ILTD.               Lithology:  INTERP LTH DESC
 FTOP.          Formation Tops:  FORM TOPS DESC
 SON .        AZ-XX-0906192647:  JOB NUMBER
 WTYP.                Deviated:  WELL TYPE
 COMP.     BP Exploration (Caspian Sea) Ltd:  COMPANY
 BASE.              Azerbaijan:  LOGGING EQUIPMENT BASE LOCATION
 REGN.                 Eurasia:  REGION
 FLD .                     ACG:  FIELD NAME
 SRVC.              KCA Deutag:  CONTRACTOR
 MWDS.                    Baku:  MWD SHOP
 WELL.     A10 (Slot 20) - SCP:  WELL NAME
 JOBN.        AZ-XX-0906192647:  JOB TICKET NUMB
 RIG .                 Chirag1:  RIG NAME
 DCON.     Halliburton Sperry Drilling:  DIRECTNL CONTR
 UNIT.                     N/A:  LOGGING EQUIPMENT ID
 PDAT.          Mean Sea Level:  PERMANENT DATUM
 MDS .        Operator Entered:  MAG DATA SOURCE
 CTRY.              Azerbaijan:  COUNTRY NAME
 UWI .            /AZE00000090:  UNIQUE WELL IDENTIFIER
 API .            /AZE00000090:  API NUMBER
 CNTY.                        :  COUNTY
 PROV.                        :  PROVINCE
 STAT.                        :  STATE
 LOC .                        :  LOCATION
 LMF .             Drill Floor:  LOG MEASURED FROM
 TVDS.m                  36.60:  TVDSS CORRECTN
 LATI.deg                40.08:  LATITUDE
 LONG.deg                51.24:  LONGITUDE
 WHNS.m                  -7.94:  WELL HEAD N/S
 WHEW.m                   1.56:  WELL HEAD E/W
 UTMX.m              520429.26:  UTM X
 UTMY.m             4438973.87:  UTM Y
 DFWL.m                   0.00:  DISTANCE FWL
 DFSL.m                   0.00:  DISTANCE FSL
 SDEP.m                1455.00:  START DEPTH
 TDD .m                3878.01:  TOTAL DEPTH (DRILLER)
 VSDR.deg               112.75:  VERT SEC DIRECT
 GVFD.g                   1.00:  GRAVITY FIELD
 MFLD.nT              50256.00:  MAGNETIC FIELD
 MDIP.deg                59.52:  MAGNETIC DIP
 MDEC.deg                 6.43:  MAGNETIC DECL
 GRDC.deg                 0.16:  GRID CORRECTION
 AZTC.deg                 6.27:  AZM TOTAL CORR
 EPD .m                   0.00:  ELEVATION
 EGL .m                   0.00:  GROUND ELEVATION
 WDMS.m                 121.00:  WD ELEV
 APD .m                  36.60:  DEPTH ABOVE PD
 AGAP.m                  36.60:  AIR GAP
 VSEW.m                   1.56:  VERT SEC E/W
 VSNS.m                  -7.94:  VERT SEC N/S
 DEP .m                1140.01:  DEPTH
 EKB .m                  36.60:  KB ELEVATION
 EDF .m                  36.60:  DF ELEVATION
 TDL .m                1293.00:  TOTAL DEPTH (LOGGER)
 VSC .                       0:  VS TO CLOSURE
 MAGU.                 1849164:  MAGUTM CHECKSUM
~Parameter Information Block
#MNEM.UNIT       Value        Description
#---------     -----------    ---------------------------
 AV  .mps                 2.40:  Ann Velocity 
 AVMX.mps                 2.55:  Max Ann Veloc 
 AZIF.deg               134.35:  Azm, Final 
 BHAT.        Rotary Steerable:  BHA Type 
 BREV.rev               847.00:  Rev Bit Total 
 BROT.°/30m              -2.51:  Build Rotating 
 BS  .in                  8.50:  Bit Size 
 BSZ .in                  8.50:  Bit Size 
 BTPL.psig              700.00:  Bit Press Loss 
 CABU.                     Yes:  Customer Abuse 
 CGEO.          Ilgar Gurbanov:  Customer Geo 
 COMM.                     Ä_:  Run Comments 1 
 TCS .hr                140.40:  Time Ciculation Ended 
 CV  .mps                 2.27:  Crit Velocity 
 CVMX.mps                 2.45:  Max Crit Veloc 
 DD1 .         Intigam Rahimov:  Direct Drillr 1 
 DD2 .         Rasim Ibrahimov:  Direct Drillr 2 
 DDSV.                 iCruise:  DD Service 
 DEFF.%                  99.00:  % Det Eff 
 DLRX.°/30m               3.28:  Dogleg Rot Max 
 DLSO.°/30m               0.00:  Dogleg Oriented 
 DLSX.°/30m               0.00:  Dogleg Str Max 
 DRET.      23.30.00 18-Jan-20:  Drill End Time 
 DRST.      01.45.00 11-Jan-20:  Drill Start Tim 
 DTIM.hr                 94.00:  Time Drilling 
 EDEP.m                3878.01:  End Depth 
 ENG1.       Dauren Baktybayev:  Engineer 1 
 ENG2.      Natik Hasanaghayev:  Engineer 2 
 ENG3.          Rustam Safarov:  Engineer 3 
 ETIM.      08.00.00 20-Jan-20:  End Time 
 FLOI.gpm               532.00:  Flow In 
 FLON.gpm               500.00:  Flow In Min 
 FLOS.cptm                0.00:  Fluid Loss 
 FLOX.gpm               540.00:  Flow In Max 
 FTRO.       Formation Presure:  FTWD Run Obj 
 HPRE.                     Yes:  High Pressure 
 HTEM.                      No:  High Temp 
 HYDO.m                   1.80:  Hydro Offset 
 IFIN.deg                39.86:  Inc, Final 
 IMAX.deg                59.73:  Inc Max 
 IMIN.deg                39.25:  Inc Min 
 IMND.m                3816.77:  Inc Min Depth 
 IMXD.m                2596.33:  Inc Max Depth 
 JARR.                      No:  Jarring 
 LETM.      23.30.00 18-Jan-20:  Log End Time 
 LOST.hr                     0:  Lost Rig Time 
 LSTM.      01.45.00 11-Jan-20:  Log Start Time 
 MDCL.ppm             41500.00:  Mud Chlorides 
 MDES.     Inversion Oil/Synthetic:  Mud Desc 
 DFD .sg                  1.48:  Mud Density 
 MDMN.sg                  1.48:  Dens Mud Min 
 MDMX.sg                  1.48:  Dens Mud Max 
 MOIL.                      54:  Run Mud Oil % 
 MOWR.                   72:28:  Run Mud OWR 
 MSND.                       0:  Run Mud Sand % 
 MSOL.                      23:  Run Mud Solids% 
 DFV .spqt               86.00:  Mud Viscosity 
 MWOD.in                  6.75:  MWD Tool OD 
 MWSI.                      No:  Serv Intrp, MWD 
 OTIM.hr                223.40:  Time Operating 
 PCON.           Look Like New:  Pad Condition 
 PMAX.psia            32446.79:  Press Op, Max 
 PV  .cP                 49.00:  Mud PV 
 RUN .                     200:  Run Number 
 ROPA.m/hr               12.48:  ROP Avg 
 ROPN.m/hr                8.00:  ROP Min 
 ROPX.m/hr               27.00:  ROP Max 
 RPMA.rpm               121.00:  RPM Surface Avg 
 RPMN.rpm                60.00:  RPM Surface Min 
 RPMX.rpm               140.00:  RPM Surface Max 
 RRUN.                    L202:  Rig Run Number 
 RTIM.hr                  7.25:  Time Reaming 
 SAZI.deg               123.49:  Azm, Start 
 SDEP.m                2585.01:  Start Depth 
 SIDD.                      No:  Serv Intrp, DD 
 SINC.deg                59.93:  Inc, Start 
 SPPA.psig             3539.00:  SPP Avg 
 SPPN.psig             3050.00:  SPP Min 
 SPPX.psig             3950.00:  SPP Max 
 STIM.      19.00.00 10-Jan-20:  Start Time 
 SVCS.                 DD, MWD:  Services 
 SVER.                    9.20:  Sperry Version 
 TDAT.m                1293.00:  Tot Depth Attmp 
 TDDF.                      No:  Trip for DD 
 TDLG.m                1293.00:  Tot Depth Loggd 
 TFF .                      No:  Trip for Fail 
 TQAA.f-kp               16.00:  Torque Abs Avg 
 TQAN.f-kp               11.00:  Torque Abs Min 
 TQAX.f-kp               18.00:  Torque Abs Max 
 TRRT.°/30m               1.25:  Turn Rotating 
 MRT .                  EWR-M5:  Maximum Recorded Temperature 
 TTMX.degC               84.00:  Max Tool Temp 
 VS01.          AZ90514619R5C6:  Virtual Str1 SN 
 VS02.        AZ90552592N2L2C6:  Virtual Str2 SN 
 VS03.        AZ90571337Z1W1C6:  Virtual Str3 SN 
 VS04.         AZ90513690K23C6:  Virtual Str4 SN 
 VS05.           AZ90594857F11:  Virtual Str5 SN 
 VS06.                13102166:  Virtual Str6 SN 
 WBMN.klb                 7.00:  WOB Min 
 WITN.            Peter Wilson:  Customer Rep 
 WOBA.klb                 9.95:  WOB Avg 
 WOBX.klb                10.00:  WOB Max 
 YP  .lhf2               36.00:  Yield Point 
~Curve Information Block
#MNEM.UNIT                 API CODE     Curve Description
#---------               -----------    ---------------------------
 TIME.HHMMSS            00 000 000 000:  GT Time & Date
 GTDEPTH.m              00 000 000 000:  GT Depth
 GTPQH.psia             00 000 000 000:  GT HR Quartz Pressure
 GTTQ.degC              00 000 000 000:  GT Quartz Temperature
 GTTN.NONE              00 000 000 000:  GT Test Number
 GTET.sec               00 000 000 000:  GT Elapsed Test Time
 GTTVD.m                00 000 000 000:  GT True Vertical Depth
#Other Information
#
#WARRANTY: Halliburton will use its best efforts to furnish customers with 
#accurate information and interpretations that are part of, and incident to, the services 
#provided.  However, Halliburton cannot and does not warrant the accuracy 
#or correctness of such information and interpretations.  Under no circumstances should any 
#such information or interpretation be relied upon as the sole basis for any drilling, 
#completion, production, or financial decision or any procedure involving any risk to the 
#safety of any drilling venture, drilling rig or its crew or any other third party.  The 
#Customer has full responsibility for all drilling, completion and production operation.  
#Halliburton makes no representations or warranties, either expressed or 
#implied, including, but not limited to, the implied warranties of merchantability or fitness 
#for a particular purpose, with respect to the services rendered.  In no event will 
#Halliburton be liable for failure to obtain any particular results or for 
#any damages, including, but not limited to, indirect, special or consequential damages, 
#resulting from the use of any information or interpretation provided by Halliburton.
#
~A           TIME           GTDEPTH  GTPQH  GTTQ  GTTN  GTET   GTTVD  
# ...
   17:37:05.895.18-Jan-2020 3785.01 6444.64 82.32 6.00  23.00 2848.88
   17:37:06.095.18-Jan-2020 3785.01 6444.64 82.32 6.00  23.20 2848.88
   17:37:06.295.18-Jan-2020 3785.01 6444.48 82.32 6.00  23.40 2848.88
   17:37:06.495.18-Jan-2020 3785.01 6452.70 82.32 6.00  23.60 2848.88
   17:37:06.695.18-Jan-2020 3785.01 6444.76 82.32 6.00  23.80 2848.88
   17:37:06.895.18-Jan-2020 3785.01 6443.99 82.32 6.00  24.00 2848.88
   17:37:07.095.18-Jan-2020 3785.01 6443.99 82.32 6.00  24.20 2848.88
   17:37:07.295.18-Jan-2020 3785.01 6457.10 82.32 6.00  24.40 2848.88
   17:37:07.495.18-Jan-2020 3785.01 6443.55 82.32 6.00  24.60 2848.88
   17:37:07.695.18-Jan-2020 3785.01 6444.08 82.32 6.00  24.80 2848.88
   17:37:07.895.18-Jan-2020 3785.01 6445.60 82.31 6.00  25.00 2848.88
   17:37:08.095.18-Jan-2020 3785.01 6445.60 82.31 6.00  25.20 2848.88
   17:37:08.295.18-Jan-2020 3785.01 6450.00 82.31 6.00  25.40 2848.88
   17:37:08.495.18-Jan-2020 3785.01 6446.29 82.31 6.00  25.60 2848.88
   17:37:08.695.18-Jan-2020 3785.01 6443.80 82.31 6.00  25.80 2848.88
   17:37:08.895.18-Jan-2020 3785.01 6450.79 82.31 6.00  26.00 2848.88
   17:37:09.095.18-Jan-2020 3785.01 6450.79 82.31 6.00  26.20 2848.88
   17:37:09.295.18-Jan-2020 3785.01 6445.45 82.31 6.00  26.40 2848.88
   17:37:09.495.18-Jan-2020 3785.01 6448.47 82.31 6.00  26.60 2848.88
   17:37:09.695.18-Jan-2020 3785.01 6446.68 82.31 6.00  26.80 2848.88
   17:37:09.895.18-Jan-2020 3785.01 6447.19 82.31 6.00  27.00 2848.88
   17:37:10.095.18-Jan-2020 3785.01 6447.19 82.31 6.00  27.20 2848.88
   17:37:10.295.18-Jan-2020 3785.01 6450.70 82.31 6.00  27.40 2848.88
   17:37:10.495.18-Jan-2020 3785.01 6449.51 82.31 6.00  27.60 2848.88
   17:37:10.695.18-Jan-2020 3785.01 6449.02 82.31 6.00  27.80 2848.88
   17:37:10.895.18-Jan-2020 3785.01 6446.98 82.31 6.00  28.00 2848.88
   17:37:11.095.18-Jan-2020 3785.01 6446.98 82.31 6.00  28.20 2848.88
   17:37:11.295.18-Jan-2020 3785.01 6450.08 82.31 6.00  28.40 2848.88
   17:37:11.495.18-Jan-2020 3785.01 6341.10 82.31 6.00  28.60 2848.88
   17:37:11.695.18-Jan-2020 3785.01 6073.14 82.31 6.00  28.80 2848.88
   17:37:11.895.18-Jan-2020 3785.01 5978.23 82.31 6.00  29.00 2848.88
   17:37:12.095.18-Jan-2020 3785.01 5978.23 82.31 6.00  29.20 2848.88
   17:37:12.295.18-Jan-2020 3785.01 5965.70 82.31 6.00  29.40 2848.88
   17:37:12.495.18-Jan-2020 3785.01 6035.79 82.30 6.00  29.60 2848.88
   17:37:12.695.18-Jan-2020 3785.01 6016.75 82.30 6.00  29.80 2848.88
   17:37:12.895.18-Jan-2020 3785.01 5989.19 82.30 6.00  30.00 2848.88
   17:37:13.095.18-Jan-2020 3785.01 5989.19 82.30 6.00  30.20 2848.88
   17:37:13.295.18-Jan-2020 3785.01 5924.64 82.30 6.00  30.40 2848.88
   17:37:13.495.18-Jan-2020 3785.01 5899.51 82.30 6.00  30.60 2848.88
   17:37:13.695.18-Jan-2020 3785.01 5870.88 82.30 6.00  30.80 2848.88
   17:37:13.895.18-Jan-2020 3785.01 5839.41 82.30 6.00  31.00 2848.88
   17:37:14.095.18-Jan-2020 3785.01 5839.41 82.30 6.00  31.20 2848.88
   17:37:14.295.18-Jan-2020 3785.01 5783.00 82.30 6.00  31.40 2848.88
   17:37:14.495.18-Jan-2020 3785.01 5760.75 82.30 6.00  31.60 2848.88
   17:37:14.695.18-Jan-2020 3785.01 5740.67 82.30 6.00  31.80 2848.88
   17:37:14.895.18-Jan-2020 3785.01 5724.53 82.30 6.00  32.00 2848.88
   17:37:15.095.18-Jan-2020 3785.01 5724.53 82.30 6.00  32.20 2848.88
   17:37:15.295.18-Jan-2020 3785.01 5696.27 82.29 6.00  32.40 2848.88
   17:37:15.495.18-Jan-2020 3785.01 5680.23 82.29 6.00  32.60 2848.88
   17:37:15.695.18-Jan-2020 3785.01 5669.60 82.29 6.00  32.80 2848.88
   17:37:15.895.18-Jan-2020 3785.01 5651.75 82.29 6.00  33.00 2848.88
   17:37:16.095.18-Jan-2020 3785.01 5651.75 82.29 6.00  33.20 2848.88
   17:37:16.295.18-Jan-2020 3785.01 5625.57 82.29 6.00  33.40 2848.88
   17:37:16.495.18-Jan-2020 3785.01 5615.16 82.29 6.00  33.60 2848.88
   17:37:16.695.18-Jan-2020 3785.01 5608.89 82.29 6.00  33.80 2848.88
   17:37:16.895.18-Jan-2020 3785.01 5600.24 82.29 6.00  34.00 2848.88
   17:37:17.095.18-Jan-2020 3785.01 5600.24 82.29 6.00  34.20 2848.88
   17:37:17.295.18-Jan-2020 3785.01 5552.39 82.29 6.00  34.40 2848.88
   17:37:17.495.18-Jan-2020 3785.01 5517.69 82.28 6.00  34.60 2848.88
   17:37:17.695.18-Jan-2020 3785.01 5501.60 82.28 6.00  34.80 2848.88
   17:37:17.895.18-Jan-2020 3785.01 5469.43 82.28 6.00  35.00 2848.88
   17:37:18.095.18-Jan-2020 3785.01 5469.43 82.28 6.00  35.20 2848.88
   17:37:18.295.18-Jan-2020 3785.01 5395.74 82.28 6.00  35.40 2848.88
   17:37:18.495.18-Jan-2020 3785.01 5359.62 82.28 6.00  35.60 2848.88
   17:37:18.696.18-Jan-2020 3785.01 5329.83 82.28 6.00  35.80 2848.88
   17:37:18.896.18-Jan-2020 3785.01 5311.45 82.28 6.00  36.00 2848.88
   17:37:19.096.18-Jan-2020 3785.01 5311.45 82.28 6.00  36.20 2848.88
   17:37:19.296.18-Jan-2020 3785.01 5296.72 82.28 6.00  36.40 2848.88
   17:37:19.496.18-Jan-2020 3785.01 5293.90 82.28 6.00  36.60 2848.88
   17:37:19.696.18-Jan-2020 3785.01 5291.95 82.27 6.00  36.80 2848.88
   17:37:19.896.18-Jan-2020 3785.01 5290.44 82.27 6.00  37.00 2848.88
   17:37:20.096.18-Jan-2020 3785.01 5290.44 82.27 6.00  37.20 2848.88
   17:37:20.296.18-Jan-2020 3785.01 5288.52 82.27 6.00  37.40 2848.88
   17:37:20.496.18-Jan-2020 3785.01 5287.83 82.27 6.00  37.60 2848.88
   17:37:20.696.18-Jan-2020 3785.01 5287.60 82.27 6.00  37.80 2848.88
   17:37:20.896.18-Jan-2020 3785.01 5287.15 82.27 6.00  38.00 2848.88
   17:37:21.096.18-Jan-2020 3785.01 5287.15 82.27 6.00  38.20 2848.88
   17:37:21.296.18-Jan-2020 3785.01 5287.99 82.27 6.00  38.40 2848.88
   17:37:21.496.18-Jan-2020 3785.01 5288.05 82.27 6.00  38.60 2848.88
   17:37:21.696.18-Jan-2020 3785.01 5288.86 82.27 6.00  38.80 2848.88
   17:37:21.896.18-Jan-2020 3785.01 5288.25 82.27 6.00  39.00 2848.88
   17:37:22.096.18-Jan-2020 3785.01 5288.25 82.27 6.00  39.20 2848.88
   17:37:22.296.18-Jan-2020 3785.01 5288.78 82.26 6.00  39.40 2848.88
   17:37:22.496.18-Jan-2020 3785.01 5288.90 82.26 6.00  39.60 2848.88
   17:37:22.696.18-Jan-2020 3785.01 5289.81 82.26 6.00  39.80 2848.88
   17:37:22.896.18-Jan-2020 3785.01 5334.44 82.26 6.00  40.00 2848.88
   17:37:23.096.18-Jan-2020 3785.01 5334.44 82.26 6.00  40.20 2848.88
   17:37:23.296.18-Jan-2020 3785.01 4013.43 82.26 6.00  40.40 2848.88
   17:37:23.496.18-Jan-2020 3785.01 3249.02 82.26 6.00  40.60 2848.88
   17:37:23.696.18-Jan-2020 3785.01 2608.56 82.26 6.00  40.80 2848.88
   17:37:23.896.18-Jan-2020 3785.01 2065.77 82.26 6.00  41.00 2848.88
   17:37:24.096.18-Jan-2020 3785.01 2065.77 82.26 6.00  41.20 2848.88
   17:37:24.296.18-Jan-2020 3785.01 1240.39 82.25 6.00  41.40 2848.88
   17:37:24.496.18-Jan-2020 3785.01  962.10 82.25 6.00  41.60 2848.88
   17:37:24.696.18-Jan-2020 3785.01  732.92 82.25 6.00  41.80 2848.88
   17:37:24.896.18-Jan-2020 3785.01  661.28 82.25 6.00  42.00 2848.88
   17:37:25.096.18-Jan-2020 3785.01  661.28 82.25 6.00  42.20 2848.88
   17:37:25.296.18-Jan-2020 3785.01  699.57 82.24 6.00  42.40 2848.88
   17:37:25.496.18-Jan-2020 3785.01  716.95 82.24 6.00  42.60 2848.88
   17:37:25.696.18-Jan-2020 3785.01  714.63 82.23 6.00  42.80 2848.88
   17:37:25.896.18-Jan-2020 3785.01  727.31 82.23 6.00  43.00 2848.88
   17:37:26.096.18-Jan-2020 3785.01  727.31 82.23 6.00  43.20 2848.88
   17:37:26.296.18-Jan-2020 3785.01  668.17 82.22 6.00  43.40 2848.88
   17:37:26.496.18-Jan-2020 3785.01  672.73 82.22 6.00  43.60 2848.88
   17:37:26.696.18-Jan-2020 3785.01  659.32 82.22 6.00  43.80 2848.88
   17:37:26.896.18-Jan-2020 3785.01  633.19 82.21 6.00  44.00 2848.88
   17:37:27.096.18-Jan-2020 3785.01  633.19 82.21 6.00  44.20 2848.88
   17:37:27.296.18-Jan-2020 3785.01  579.66 82.21 6.00  44.40 2848.88
   17:37:27.496.18-Jan-2020 3785.01  586.41 82.20 6.00  44.60 2848.88
   17:37:27.696.18-Jan-2020 3785.01  581.82 82.20 6.00  44.80 2848.88
   17:37:27.896.18-Jan-2020 3785.01  563.11 82.19 6.00  45.00 2848.88
   17:37:28.096.18-Jan-2020 3785.01  563.11 82.19 6.00  45.20 2848.88
   17:37:28.296.18-Jan-2020 3785.01  554.41 82.19 6.00  45.40 2848.88
   17:37:28.496.18-Jan-2020 3785.01  547.98 82.18 6.00  45.60 2848.88
   17:37:28.696.18-Jan-2020 3785.01  541.35 82.18 6.00  45.80 2848.88
