~Version Information
 VERS.                  2.0:   CWLS log ASCII Standard -VERSION 2.0
 WRAP.                   NO:   One line per depth step
~Well Information Block
#MNEM.UNIT     VALUE/NAME     DESCRIPTION
#---------     -----------    ---------------------------
 STRT.S             17:36:42 18-Jan-20: START TIME 17:36:42 18-Jan-20
 STOP.S             17:44:57 18-Jan-20: STOP TIME  17:44:57 18-Jan-20
 STEP.S                   0.00: STEP TIME
 NULL.                 -999.25: NULL VALUE
 DFWT.                        :  DIST FWL TEXT
 DFST.                        :  DIST FSL TEXT
 DMF .             Drill Floor:  DRILL MEAS FROM
 STIM.      09.30.00 26-Dec-19:  START TIME
 DATE.      08.00.00 20-Jan-20:  END TIME
 SPUD.               23-Nov-19:  SPUD DATE
 NREF.                    Grid:  NORTH REFERENCE
 HPTY.       Minimum Curvature:  HOLE POS TYPE
 DMOD.             Drill Model:  DRILL MOD DESC
 SVYD.                  Survey:  SURVEY DESC
 ILTD.               Lithology:  INTERP LTH DESC
 FTOP.          Formation Tops:  FORM TOPS DESC
 SON .        AZ-XX-0906192647:  JOB NUMBER
 WTYP.                Deviated:  WELL TYPE
 COMP.     BP Exploration (Caspian Sea) Ltd:  COMPANY
 BASE.              Azerbaijan:  LOGGING EQUIPMENT BASE LOCATION
 REGN.                 Eurasia:  REGION
 FLD .                     ACG:  FIELD NAME
 SRVC.              KCA Deutag:  CONTRACTOR
 MWDS.                    Baku:  MWD SHOP
 WELL.     A10 (Slot 20) - SCP:  WELL NAME
 JOBN.        AZ-XX-0906192647:  JOB TICKET NUMB
 RIG .                 Chirag1:  RIG NAME
 DCON.     Halliburton Sperry Drilling:  DIRECTNL CONTR
 UNIT.                     N/A:  LOGGING EQUIPMENT ID
 PDAT.          Mean Sea Level:  PERMANENT DATUM
 MDS .        Operator Entered:  MAG DATA SOURCE
 CTRY.              Azerbaijan:  COUNTRY NAME
 UWI .            /AZE00000090:  UNIQUE WELL IDENTIFIER
 API .            /AZE00000090:  API NUMBER
 CNTY.                        :  COUNTY
 PROV.                        :  PROVINCE
 STAT.                        :  STATE
 LOC .                        :  LOCATION
 LMF .             Drill Floor:  LOG MEASURED FROM
 TVDS.m                  36.60:  TVDSS CORRECTN
 LATI.deg                40.08:  LATITUDE
 LONG.deg                51.24:  LONGITUDE
 WHNS.m                  -7.94:  WELL HEAD N/S
 WHEW.m                   1.56:  WELL HEAD E/W
 UTMX.m              520429.26:  UTM X
 UTMY.m             4438973.87:  UTM Y
 DFWL.m                   0.00:  DISTANCE FWL
 DFSL.m                   0.00:  DISTANCE FSL
 SDEP.m                1455.00:  START DEPTH
 TDD .m                3878.01:  TOTAL DEPTH (DRILLER)
 VSDR.deg               112.75:  VERT SEC DIRECT
 GVFD.g                   1.00:  GRAVITY FIELD
 MFLD.nT              50256.00:  MAGNETIC FIELD
 MDIP.deg                59.52:  MAGNETIC DIP
 MDEC.deg                 6.43:  MAGNETIC DECL
 GRDC.deg                 0.16:  GRID CORRECTION
 AZTC.deg                 6.27:  AZM TOTAL CORR
 EPD .m                   0.00:  ELEVATION
 EGL .m                   0.00:  GROUND ELEVATION
 WDMS.m                 121.00:  WD ELEV
 APD .m                  36.60:  DEPTH ABOVE PD
 AGAP.m                  36.60:  AIR GAP
 VSEW.m                   1.56:  VERT SEC E/W
 VSNS.m                  -7.94:  VERT SEC N/S
 DEP .m                1140.01:  DEPTH
 EKB .m                  36.60:  KB ELEVATION
 EDF .m                  36.60:  DF ELEVATION
 TDL .m                1293.00:  TOTAL DEPTH (LOGGER)
 VSC .                       0:  VS TO CLOSURE
 MAGU.                 1849164:  MAGUTM CHECKSUM
~Parameter Information Block
#MNEM.UNIT       Value        Description
#---------     -----------    ---------------------------
 AV  .mps                 2.40:  Ann Velocity 
 AVMX.mps                 2.55:  Max Ann Veloc 
 AZIF.deg               134.35:  Azm, Final 
 BHAT.        Rotary Steerable:  BHA Type 
 BREV.rev               847.00:  Rev Bit Total 
 BROT.°/30m              -2.51:  Build Rotating 
 BS  .in                  8.50:  Bit Size 
 BSZ .in                  8.50:  Bit Size 
 BTPL.psig              700.00:  Bit Press Loss 
 CABU.                     Yes:  Customer Abuse 
 CGEO.          Ilgar Gurbanov:  Customer Geo 
 COMM.                     Ä_:  Run Comments 1 
 TCS .hr                140.40:  Time Ciculation Ended 
 CV  .mps                 2.27:  Crit Velocity 
 CVMX.mps                 2.45:  Max Crit Veloc 
 DD1 .         Intigam Rahimov:  Direct Drillr 1 
 DD2 .         Rasim Ibrahimov:  Direct Drillr 2 
 DDSV.                 iCruise:  DD Service 
 DEFF.%                  99.00:  % Det Eff 
 DLRX.°/30m               3.28:  Dogleg Rot Max 
 DLSO.°/30m               0.00:  Dogleg Oriented 
 DLSX.°/30m               0.00:  Dogleg Str Max 
 DRET.      23.30.00 18-Jan-20:  Drill End Time 
 DRST.      01.45.00 11-Jan-20:  Drill Start Tim 
 DTIM.hr                 94.00:  Time Drilling 
 EDEP.m                3878.01:  End Depth 
 ENG1.       Dauren Baktybayev:  Engineer 1 
 ENG2.      Natik Hasanaghayev:  Engineer 2 
 ENG3.          Rustam Safarov:  Engineer 3 
 ETIM.      08.00.00 20-Jan-20:  End Time 
 FLOI.gpm               532.00:  Flow In 
 FLON.gpm               500.00:  Flow In Min 
 FLOS.cptm                0.00:  Fluid Loss 
 FLOX.gpm               540.00:  Flow In Max 
 FTRO.       Formation Presure:  FTWD Run Obj 
 HPRE.                     Yes:  High Pressure 
 HTEM.                      No:  High Temp 
 HYDO.m                   1.80:  Hydro Offset 
 IFIN.deg                39.86:  Inc, Final 
 IMAX.deg                59.73:  Inc Max 
 IMIN.deg                39.25:  Inc Min 
 IMND.m                3816.77:  Inc Min Depth 
 IMXD.m                2596.33:  Inc Max Depth 
 JARR.                      No:  Jarring 
 LETM.      23.30.00 18-Jan-20:  Log End Time 
 LOST.hr                     0:  Lost Rig Time 
 LSTM.      01.45.00 11-Jan-20:  Log Start Time 
 MDCL.ppm             41500.00:  Mud Chlorides 
 MDES.     Inversion Oil/Synthetic:  Mud Desc 
 DFD .sg                  1.48:  Mud Density 
 MDMN.sg                  1.48:  Dens Mud Min 
 MDMX.sg                  1.48:  Dens Mud Max 
 MOIL.                      54:  Run Mud Oil % 
 MOWR.                   72:28:  Run Mud OWR 
 MSND.                       0:  Run Mud Sand % 
 MSOL.                      23:  Run Mud Solids% 
 DFV .spqt               86.00:  Mud Viscosity 
 MWOD.in                  6.75:  MWD Tool OD 
 MWSI.                      No:  Serv Intrp, MWD 
 OTIM.hr                223.40:  Time Operating 
 PCON.           Look Like New:  Pad Condition 
 PMAX.psia            32446.79:  Press Op, Max 
 PV  .cP                 49.00:  Mud PV 
 RUN .                     200:  Run Number 
 ROPA.m/hr               12.48:  ROP Avg 
 ROPN.m/hr                8.00:  ROP Min 
 ROPX.m/hr               27.00:  ROP Max 
 RPMA.rpm               121.00:  RPM Surface Avg 
 RPMN.rpm                60.00:  RPM Surface Min 
 RPMX.rpm               140.00:  RPM Surface Max 
 RRUN.                    L202:  Rig Run Number 
 RTIM.hr                  7.25:  Time Reaming 
 SAZI.deg               123.49:  Azm, Start 
 SDEP.m                2585.01:  Start Depth 
 SIDD.                      No:  Serv Intrp, DD 
 SINC.deg                59.93:  Inc, Start 
 SPPA.psig             3539.00:  SPP Avg 
 SPPN.psig             3050.00:  SPP Min 
 SPPX.psig             3950.00:  SPP Max 
 STIM.      19.00.00 10-Jan-20:  Start Time 
 SVCS.                 DD, MWD:  Services 
 SVER.                    9.20:  Sperry Version 
 TDAT.m                1293.00:  Tot Depth Attmp 
 TDDF.                      No:  Trip for DD 
 TDLG.m                1293.00:  Tot Depth Loggd 
 TFF .                      No:  Trip for Fail 
 TQAA.f-kp               16.00:  Torque Abs Avg 
 TQAN.f-kp               11.00:  Torque Abs Min 
 TQAX.f-kp               18.00:  Torque Abs Max 
 TRRT.°/30m               1.25:  Turn Rotating 
 MRT .                  EWR-M5:  Maximum Recorded Temperature 
 TTMX.degC               84.00:  Max Tool Temp 
 VS01.          AZ90514619R5C6:  Virtual Str1 SN 
 VS02.        AZ90552592N2L2C6:  Virtual Str2 SN 
 VS03.        AZ90571337Z1W1C6:  Virtual Str3 SN 
 VS04.         AZ90513690K23C6:  Virtual Str4 SN 
 VS05.           AZ90594857F11:  Virtual Str5 SN 
 VS06.                13102166:  Virtual Str6 SN 
 WBMN.klb                 7.00:  WOB Min 
 WITN.            Peter Wilson:  Customer Rep 
 WOBA.klb                 9.95:  WOB Avg 
 WOBX.klb                10.00:  WOB Max 
 YP  .lhf2               36.00:  Yield Point 
~Curve Information Block
#MNEM.UNIT                 API CODE     Curve Description
#---------               -----------    ---------------------------
 TIME.HHMMSS            00 000 000 000:  GT Time & Date
 GTDEPTH.m              00 000 000 000:  GT Depth
 GTPQH.psia             00 000 000 000:  GT HR Quartz Pressure
 GTTQ.degC              00 000 000 000:  GT Quartz Temperature
 GTTN.NONE              00 000 000 000:  GT Test Number
 GTET.sec               00 000 000 000:  GT Elapsed Test Time
 GTTVD.m                00 000 000 000:  GT True Vertical Depth
#Other Information
#
#WARRANTY: Halliburton will use its best efforts to furnish customers with 
#accurate information and interpretations that are part of, and incident to, the services 
#provided.  However, Halliburton cannot and does not warrant the accuracy 
#or correctness of such information and interpretations.  Under no circumstances should any 
#such information or interpretation be relied upon as the sole basis for any drilling, 
#completion, production, or financial decision or any procedure involving any risk to the 
#safety of any drilling venture, drilling rig or its crew or any other third party.  The 
#Customer has full responsibility for all drilling, completion and production operation.  
#Halliburton makes no representations or warranties, either expressed or 
#implied, including, but not limited to, the implied warranties of merchantability or fitness 
#for a particular purpose, with respect to the services rendered.  In no event will 
#Halliburton be liable for failure to obtain any particular results or for 
#any damages, including, but not limited to, indirect, special or consequential damages, 
#resulting from the use of any information or interpretation provided by Halliburton.
#
~A           TIME           GTDEPTH  GTPQH  GTTQ  GTTN  GTET   GTTVD  
# ...
   17:39:00.903.18-Jan-2020 3785.01 3859.98 82.08 6.00 138.01 2848.88
   17:39:01.103.18-Jan-2020 3785.01 3859.98 82.08 6.00 138.21 2848.88
   17:39:01.303.18-Jan-2020 3785.01 3859.75 82.08 6.00 138.41 2848.88
   17:39:01.503.18-Jan-2020 3785.01 3859.92 82.08 6.00 138.61 2848.88
   17:39:01.703.18-Jan-2020 3785.01 3859.75 82.08 6.00 138.81 2848.88
   17:39:01.903.18-Jan-2020 3785.01 3859.71 82.08 6.00 139.01 2848.88
   17:39:02.103.18-Jan-2020 3785.01 3859.71 82.08 6.00 139.21 2848.88
   17:39:02.303.18-Jan-2020 3785.01 3860.01 82.08 6.00 139.41 2848.88
   17:39:02.503.18-Jan-2020 3785.01 3859.75 82.08 6.00 139.61 2848.88
   17:39:02.703.18-Jan-2020 3785.01 3857.58 82.08 6.00 139.81 2848.88
   17:39:02.903.18-Jan-2020 3785.01 3859.73 82.08 6.00 140.01 2848.88
   17:39:03.103.18-Jan-2020 3785.01 3859.73 82.08 6.00 140.21 2848.88
   17:39:03.303.18-Jan-2020 3785.01 3857.71 82.08 6.00 140.41 2848.88
   17:39:03.503.18-Jan-2020 3785.01 3859.78 82.07 6.00 140.61 2848.88
   17:39:03.703.18-Jan-2020 3785.01 3859.78 82.07 6.00 140.81 2848.88
   17:39:03.903.18-Jan-2020 3785.01 3860.11 82.07 6.00 141.01 2848.88
   17:39:04.103.18-Jan-2020 3785.01 3860.11 82.07 6.00 141.21 2848.88
   17:39:04.303.18-Jan-2020 3785.01 3859.83 82.07 6.00 141.41 2848.88
   17:39:04.503.18-Jan-2020 3785.01 3859.74 82.07 6.00 141.61 2848.88
   17:39:04.703.18-Jan-2020 3785.01 3860.15 82.07 6.00 141.81 2848.88
   17:39:04.903.18-Jan-2020 3785.01 3859.90 82.07 6.00 142.01 2848.88
   17:39:05.103.18-Jan-2020 3785.01 3859.90 82.07 6.00 142.21 2848.88
   17:39:05.303.18-Jan-2020 3785.01 3859.86 82.07 6.00 142.41 2848.88
   17:39:05.503.18-Jan-2020 3785.01 3857.91 82.07 6.00 142.61 2848.88
   17:39:05.703.18-Jan-2020 3785.01 3859.85 82.07 6.00 142.81 2848.88
   17:39:05.903.18-Jan-2020 3785.01 3860.19 82.07 6.00 143.01 2848.88
   17:39:06.103.18-Jan-2020 3785.01 3860.19 82.07 6.00 143.21 2848.88
   17:39:06.303.18-Jan-2020 3785.01 3859.92 82.07 6.00 143.41 2848.88
   17:39:06.504.18-Jan-2020 3785.01 3860.00 82.07 6.00 143.61 2848.88
   17:39:06.704.18-Jan-2020 3785.01 3859.71 82.07 6.00 143.81 2848.88
   17:39:06.904.18-Jan-2020 3785.01 3860.06 82.07 6.00 144.01 2848.88
   17:39:07.104.18-Jan-2020 3785.01 3860.06 82.07 6.00 144.21 2848.88
   17:39:07.304.18-Jan-2020 3785.01 3859.99 82.07 6.00 144.41 2848.88
   17:39:07.504.18-Jan-2020 3785.01 3860.04 82.07 6.00 144.61 2848.88
   17:39:07.704.18-Jan-2020 3785.01 3860.22 82.07 6.00 144.81 2848.88
   17:39:07.904.18-Jan-2020 3785.01 3860.06 82.07 6.00 145.01 2848.88
   17:39:08.104.18-Jan-2020 3785.01 3860.06 82.07 6.00 145.21 2848.88
   17:39:08.304.18-Jan-2020 3785.01 3859.94 82.07 6.00 145.41 2848.88
   17:39:08.504.18-Jan-2020 3785.01 3859.91 82.07 6.00 145.61 2848.88
   17:39:08.704.18-Jan-2020 3785.01 3860.09 82.07 6.00 145.81 2848.88
   17:39:08.904.18-Jan-2020 3785.01 3859.11 82.07 6.00 146.01 2848.88
   17:39:09.104.18-Jan-2020 3785.01 3859.11 82.07 6.00 146.21 2848.88
   17:39:09.304.18-Jan-2020 3785.01 3859.88 82.07 6.00 146.41 2848.88
   17:39:09.504.18-Jan-2020 3785.01 3860.27 82.07 6.00 146.61 2848.88
   17:39:09.704.18-Jan-2020 3785.01 3859.90 82.07 6.00 146.81 2848.88
   17:39:09.904.18-Jan-2020 3785.01 3860.14 82.07 6.00 147.01 2848.88
   17:39:10.104.18-Jan-2020 3785.01 3860.14 82.07 6.00 147.21 2848.88
   17:39:10.304.18-Jan-2020 3785.01 3859.88 82.06 6.00 147.41 2848.88
   17:39:10.504.18-Jan-2020 3785.01 3860.01 82.06 6.00 147.61 2848.88
   17:39:10.704.18-Jan-2020 3785.01 3860.05 82.06 6.00 147.81 2848.88
   17:39:10.904.18-Jan-2020 3785.01 3859.90 82.06 6.00 148.01 2848.88
   17:39:11.104.18-Jan-2020 3785.01 3859.90 82.06 6.00 148.21 2848.88
   17:39:11.304.18-Jan-2020 3785.01 3858.60 82.06 6.00 148.41 2848.88
   17:39:11.504.18-Jan-2020 3785.01 3859.25 82.06 6.00 148.61 2848.88
   17:39:11.704.18-Jan-2020 3785.01 3859.90 82.06 6.00 148.81 2848.88
   17:39:11.904.18-Jan-2020 3785.01 3859.45 82.06 6.00 149.01 2848.88
   17:39:12.104.18-Jan-2020 3785.01 3859.45 82.06 6.00 149.21 2848.88
   17:39:12.304.18-Jan-2020 3785.01 3859.78 82.06 6.00 149.41 2848.88
   17:39:12.504.18-Jan-2020 3785.01 3860.19 82.06 6.00 149.61 2848.88
   17:39:12.704.18-Jan-2020 3785.01 3859.96 82.06 6.00 149.81 2848.88
   17:39:12.904.18-Jan-2020 3785.01 3858.19 82.06 6.00 150.01 2848.88
   17:39:13.104.18-Jan-2020 3785.01 3858.19 82.06 6.00 150.21 2848.88
   17:39:13.304.18-Jan-2020 3785.01 3860.28 82.06 6.00 150.41 2848.88
   17:39:13.504.18-Jan-2020 3785.01 3860.09 82.06 6.00 150.61 2848.88
   17:39:13.704.18-Jan-2020 3785.01 3860.03 82.06 6.00 150.81 2848.88
   17:39:13.904.18-Jan-2020 3785.01 3860.11 82.06 6.00 151.01 2848.88
   17:39:14.104.18-Jan-2020 3785.01 3860.11 82.06 6.00 151.21 2848.88
   17:39:14.304.18-Jan-2020 3785.01 3860.24 82.06 6.00 151.41 2848.88
   17:39:14.504.18-Jan-2020 3785.01 3860.34 82.06 6.00 151.61 2848.88
   17:39:14.704.18-Jan-2020 3785.01 3860.18 82.06 6.00 151.81 2848.88
   17:39:14.904.18-Jan-2020 3785.01 3860.16 82.06 6.00 152.01 2848.88
   17:39:15.104.18-Jan-2020 3785.01 3860.16 82.06 6.00 152.21 2848.88
   17:39:15.304.18-Jan-2020 3785.01 3860.28 82.06 6.00 152.41 2848.88
   17:39:15.504.18-Jan-2020 3785.01 3860.14 82.06 6.00 152.61 2848.88
   17:39:15.704.18-Jan-2020 3785.01 3860.32 82.06 6.00 152.81 2848.88
   17:39:15.904.18-Jan-2020 3785.01 3860.06 82.06 6.00 153.01 2848.88
   17:39:16.104.18-Jan-2020 3785.01 3860.06 82.06 6.00 153.21 2848.88
   17:39:16.304.18-Jan-2020 3785.01 3860.19 82.06 6.00 153.41 2848.88
   17:39:16.504.18-Jan-2020 3785.01 3860.39 82.06 6.00 153.61 2848.88
   17:39:16.704.18-Jan-2020 3785.01 3860.07 82.05 6.00 153.81 2848.88
   17:39:16.904.18-Jan-2020 3785.01 3860.12 82.05 6.00 154.01 2848.88
   17:39:17.104.18-Jan-2020 3785.01 3860.12 82.05 6.00 154.21 2848.88
   17:39:17.304.18-Jan-2020 3785.01 3860.14 82.05 6.00 154.41 2848.88
   17:39:17.504.18-Jan-2020 3785.01 3860.08 82.05 6.00 154.61 2848.88
   17:39:17.704.18-Jan-2020 3785.01 3858.26 82.05 6.00 154.81 2848.88
   17:39:17.904.18-Jan-2020 3785.01 3860.20 82.05 6.00 155.01 2848.88
   17:39:18.104.18-Jan-2020 3785.01 3860.20 82.05 6.00 155.21 2848.88
   17:39:18.304.18-Jan-2020 3785.01 3860.14 82.05 6.00 155.41 2848.88
   17:39:18.504.18-Jan-2020 3785.01 3860.22 82.05 6.00 155.61 2848.88
   17:39:18.704.18-Jan-2020 3785.01 3860.37 82.05 6.00 155.81 2848.88
   17:39:18.904.18-Jan-2020 3785.01 3860.03 82.05 6.00 156.01 2848.88
   17:39:19.104.18-Jan-2020 3785.01 3860.03 82.05 6.00 156.21 2848.88
   17:39:19.304.18-Jan-2020 3785.01 3860.09 82.05 6.00 156.41 2848.88
   17:39:19.504.18-Jan-2020 3785.01 3860.17 82.05 6.00 156.61 2848.88
   17:39:19.704.18-Jan-2020 3785.01 3859.94 82.05 6.00 156.81 2848.88
   17:39:19.904.18-Jan-2020 3785.01 3859.35 82.05 6.00 157.01 2848.88
   17:39:20.105.18-Jan-2020 3785.01 3859.35 82.05 6.00 157.21 2848.88
   17:39:20.305.18-Jan-2020 3785.01 3860.14 82.05 6.00 157.41 2848.88
   17:39:20.505.18-Jan-2020 3785.01 3860.32 82.05 6.00 157.61 2848.88
   17:39:20.705.18-Jan-2020 3785.01 3858.22 82.05 6.00 157.81 2848.88
   17:39:20.905.18-Jan-2020 3785.01 3860.35 82.05 6.00 158.01 2848.88
   17:39:21.105.18-Jan-2020 3785.01 3860.35 82.05 6.00 158.21 2848.88
   17:39:21.305.18-Jan-2020 3785.01 3860.26 82.05 6.00 158.41 2848.88
   17:39:21.505.18-Jan-2020 3785.01 3857.95 82.05 6.00 158.61 2848.88
   17:39:21.705.18-Jan-2020 3785.01 3859.93 82.05 6.00 158.81 2848.88
   17:39:21.905.18-Jan-2020 3785.01 3860.03 82.05 6.00 159.01 2848.88
   17:39:22.105.18-Jan-2020 3785.01 3860.03 82.05 6.00 159.21 2848.88
   17:39:22.305.18-Jan-2020 3785.01 3860.03 82.05 6.00 159.41 2848.88
   17:39:22.505.18-Jan-2020 3785.01 3860.10 82.05 6.00 159.61 2848.88
   17:39:22.705.18-Jan-2020 3785.01 3858.60 82.05 6.00 159.81 2848.88
   17:39:22.905.18-Jan-2020 3785.01 3859.80 82.05 6.00 160.01 2848.88
   17:39:23.105.18-Jan-2020 3785.01 3860.44 82.05 6.00 160.21 2848.88
   17:39:23.305.18-Jan-2020 3785.01 3860.55 82.04 6.00 160.41 2848.88
   17:39:23.505.18-Jan-2020 3785.01 3860.26 82.04 6.00 160.61 2848.88
   17:39:23.705.18-Jan-2020 3785.01 3860.30 82.04 6.00 160.81 2848.88
