~Version Information
 VERS.                  2.0:   CWLS log ASCII Standard -VERSION 2.0
 WRAP.                   NO:   One line per depth step
~Well Information Block
#MNEM.UNIT     VALUE/NAME     DESCRIPTION
#---------     -----------    ---------------------------
 STRT.S             09:16:51 18-Jan-20: START TIME 09:16:51 18-Jan-20
 STOP.S             09:25:06 18-Jan-20: STOP TIME  09:25:06 18-Jan-20
 STEP.S                   0.00: STEP TIME
 NULL.                 -999.25: NULL VALUE
 DFWT.                        :  DIST FWL TEXT
 DFST.                        :  DIST FSL TEXT
 DMF .             Drill Floor:  DRILL MEAS FROM
 STIM.      09.30.00 26-Dec-19:  START TIME
 DATE.      08.00.00 20-Jan-20:  END TIME
 SPUD.               23-Nov-19:  SPUD DATE
 NREF.                    Grid:  NORTH REFERENCE
 HPTY.       Minimum Curvature:  HOLE POS TYPE
 DMOD.             Drill Model:  DRILL MOD DESC
 SVYD.                  Survey:  SURVEY DESC
 ILTD.               Lithology:  INTERP LTH DESC
 FTOP.          Formation Tops:  FORM TOPS DESC
 SON .        AZ-XX-0906192647:  JOB NUMBER
 WTYP.                Deviated:  WELL TYPE
 COMP.     BP Exploration (Caspian Sea) Ltd:  COMPANY
 BASE.              Azerbaijan:  LOGGING EQUIPMENT BASE LOCATION
 REGN.                 Eurasia:  REGION
 FLD .                     ACG:  FIELD NAME
 SRVC.              KCA Deutag:  CONTRACTOR
 MWDS.                    Baku:  MWD SHOP
 WELL.     A10 (Slot 20) - SCP:  WELL NAME
 JOBN.        AZ-XX-0906192647:  JOB TICKET NUMB
 RIG .                 Chirag1:  RIG NAME
 DCON.     Halliburton Sperry Drilling:  DIRECTNL CONTR
 UNIT.                     N/A:  LOGGING EQUIPMENT ID
 PDAT.          Mean Sea Level:  PERMANENT DATUM
 MDS .        Operator Entered:  MAG DATA SOURCE
 CTRY.              Azerbaijan:  COUNTRY NAME
 UWI .            /AZE00000090:  UNIQUE WELL IDENTIFIER
 API .            /AZE00000090:  API NUMBER
 CNTY.                        :  COUNTY
 PROV.                        :  PROVINCE
 STAT.                        :  STATE
 LOC .                        :  LOCATION
 LMF .             Drill Floor:  LOG MEASURED FROM
 TVDS.m                  36.60:  TVDSS CORRECTN
 LATI.deg                40.08:  LATITUDE
 LONG.deg                51.24:  LONGITUDE
 WHNS.m                  -7.94:  WELL HEAD N/S
 WHEW.m                   1.56:  WELL HEAD E/W
 UTMX.m              520429.26:  UTM X
 UTMY.m             4438973.87:  UTM Y
 DFWL.m                   0.00:  DISTANCE FWL
 DFSL.m                   0.00:  DISTANCE FSL
 SDEP.m                1455.00:  START DEPTH
 TDD .m                3878.01:  TOTAL DEPTH (DRILLER)
 VSDR.deg               112.75:  VERT SEC DIRECT
 GVFD.g                   1.00:  GRAVITY FIELD
 MFLD.nT              50256.00:  MAGNETIC FIELD
 MDIP.deg                59.52:  MAGNETIC DIP
 MDEC.deg                 6.43:  MAGNETIC DECL
 GRDC.deg                 0.16:  GRID CORRECTION
 AZTC.deg                 6.27:  AZM TOTAL CORR
 EPD .m                   0.00:  ELEVATION
 EGL .m                   0.00:  GROUND ELEVATION
 WDMS.m                 121.00:  WD ELEV
 APD .m                  36.60:  DEPTH ABOVE PD
 AGAP.m                  36.60:  AIR GAP
 VSEW.m                   1.56:  VERT SEC E/W
 VSNS.m                  -7.94:  VERT SEC N/S
 DEP .m                1140.01:  DEPTH
 EKB .m                  36.60:  KB ELEVATION
 EDF .m                  36.60:  DF ELEVATION
 TDL .m                1293.00:  TOTAL DEPTH (LOGGER)
 VSC .                       0:  VS TO CLOSURE
 MAGU.                 1849164:  MAGUTM CHECKSUM
~Parameter Information Block
#MNEM.UNIT       Value        Description
#---------     -----------    ---------------------------
 AV  .mps                 2.40:  Ann Velocity 
 AVMX.mps                 2.55:  Max Ann Veloc 
 AZIF.deg               134.35:  Azm, Final 
 BHAT.        Rotary Steerable:  BHA Type 
 BREV.rev               847.00:  Rev Bit Total 
 BROT.°/30m              -2.51:  Build Rotating 
 BS  .in                  8.50:  Bit Size 
 BSZ .in                  8.50:  Bit Size 
 BTPL.psig              700.00:  Bit Press Loss 
 CABU.                     Yes:  Customer Abuse 
 CGEO.          Ilgar Gurbanov:  Customer Geo 
 COMM.                     Áo:  Run Comments 1 
 TCS .hr                140.40:  Time Ciculation Ended 
 CV  .mps                 2.27:  Crit Velocity 
 CVMX.mps                 2.45:  Max Crit Veloc 
 DD1 .         Intigam Rahimov:  Direct Drillr 1 
 DD2 .         Rasim Ibrahimov:  Direct Drillr 2 
 DDSV.                 iCruise:  DD Service 
 DEFF.%                  99.00:  % Det Eff 
 DLRX.°/30m               3.28:  Dogleg Rot Max 
 DLSO.°/30m               0.00:  Dogleg Oriented 
 DLSX.°/30m               0.00:  Dogleg Str Max 
 DRET.      23.30.00 18-Jan-20:  Drill End Time 
 DRST.      01.45.00 11-Jan-20:  Drill Start Tim 
 DTIM.hr                 94.00:  Time Drilling 
 EDEP.m                3878.01:  End Depth 
 ENG1.       Dauren Baktybayev:  Engineer 1 
 ENG2.      Natik Hasanaghayev:  Engineer 2 
 ENG3.          Rustam Safarov:  Engineer 3 
 ETIM.      08.00.00 20-Jan-20:  End Time 
 FLOI.gpm               532.00:  Flow In 
 FLON.gpm               500.00:  Flow In Min 
 FLOS.cptm                0.00:  Fluid Loss 
 FLOX.gpm               540.00:  Flow In Max 
 FTRO.       Formation Presure:  FTWD Run Obj 
 HPRE.                     Yes:  High Pressure 
 HTEM.                      No:  High Temp 
 HYDO.m                   1.80:  Hydro Offset 
 IFIN.deg                39.86:  Inc, Final 
 IMAX.deg                59.73:  Inc Max 
 IMIN.deg                39.25:  Inc Min 
 IMND.m                3816.77:  Inc Min Depth 
 IMXD.m                2596.33:  Inc Max Depth 
 JARR.                      No:  Jarring 
 LETM.      23.30.00 18-Jan-20:  Log End Time 
 LOST.hr                     0:  Lost Rig Time 
 LSTM.      01.45.00 11-Jan-20:  Log Start Time 
 MDCL.ppm             41500.00:  Mud Chlorides 
 MDES.     Inversion Oil/Synthetic:  Mud Desc 
 DFD .sg                  1.48:  Mud Density 
 MDMN.sg                  1.48:  Dens Mud Min 
 MDMX.sg                  1.48:  Dens Mud Max 
 MOIL.                      54:  Run Mud Oil % 
 MOWR.                   72:28:  Run Mud OWR 
 MSND.                       0:  Run Mud Sand % 
 MSOL.                      23:  Run Mud Solids% 
 DFV .spqt               86.00:  Mud Viscosity 
 MWOD.in                  6.75:  MWD Tool OD 
 MWSI.                      No:  Serv Intrp, MWD 
 OTIM.hr                223.40:  Time Operating 
 PCON.           Look Like New:  Pad Condition 
 PMAX.psia            32446.79:  Press Op, Max 
 PV  .cP                 49.00:  Mud PV 
 RUN .                     200:  Run Number 
 ROPA.m/hr               12.48:  ROP Avg 
 ROPN.m/hr                8.00:  ROP Min 
 ROPX.m/hr               27.00:  ROP Max 
 RPMA.rpm               121.00:  RPM Surface Avg 
 RPMN.rpm                60.00:  RPM Surface Min 
 RPMX.rpm               140.00:  RPM Surface Max 
 RRUN.                    L202:  Rig Run Number 
 RTIM.hr                  7.25:  Time Reaming 
 SAZI.deg               123.49:  Azm, Start 
 SDEP.m                2585.01:  Start Depth 
 SIDD.                      No:  Serv Intrp, DD 
 SINC.deg                59.93:  Inc, Start 
 SPPA.psig             3539.00:  SPP Avg 
 SPPN.psig             3050.00:  SPP Min 
 SPPX.psig             3950.00:  SPP Max 
 STIM.      19.00.00 10-Jan-20:  Start Time 
 SVCS.                 DD, MWD:  Services 
 SVER.                    9.20:  Sperry Version 
 TDAT.m                1293.00:  Tot Depth Attmp 
 TDDF.                      No:  Trip for DD 
 TDLG.m                1293.00:  Tot Depth Loggd 
 TFF .                      No:  Trip for Fail 
 TQAA.f-kp               16.00:  Torque Abs Avg 
 TQAN.f-kp               11.00:  Torque Abs Min 
 TQAX.f-kp               18.00:  Torque Abs Max 
 TRRT.°/30m               1.25:  Turn Rotating 
 MRT .                  EWR-M5:  Maximum Recorded Temperature 
 TTMX.degC               84.00:  Max Tool Temp 
 VS01.          AZ90514619R5C6:  Virtual Str1 SN 
 VS02.        AZ90552592N2L2C6:  Virtual Str2 SN 
 VS03.        AZ90571337Z1W1C6:  Virtual Str3 SN 
 VS04.         AZ90513690K23C6:  Virtual Str4 SN 
 VS05.           AZ90594857F11:  Virtual Str5 SN 
 VS06.                13102166:  Virtual Str6 SN 
 WBMN.klb                 7.00:  WOB Min 
 WITN.            Peter Wilson:  Customer Rep 
 WOBA.klb                 9.95:  WOB Avg 
 WOBX.klb                10.00:  WOB Max 
 YP  .lhf2               36.00:  Yield Point 
~Curve Information Block
#MNEM.UNIT                 API CODE     Curve Description
#---------               -----------    ---------------------------
 TIME.HHMMSS            00 000 000 000:  GT Time & Date
 GTDEPTH.m              00 000 000 000:  GT Depth
 GTPQH.psia             00 000 000 000:  GT HR Quartz Pressure
 GTTQ.degC              00 000 000 000:  GT Quartz Temperature
 GTTN.NONE              00 000 000 000:  GT Test Number
 GTET.sec               00 000 000 000:  GT Elapsed Test Time
 GTTVD.m                00 000 000 000:  GT True Vertical Depth
#Other Information
#
#WARRANTY: Halliburton will use its best efforts to furnish customers with 
#accurate information and interpretations that are part of, and incident to, the services 
#provided.  However, Halliburton cannot and does not warrant the accuracy 
#or correctness of such information and interpretations.  Under no circumstances should any 
#such information or interpretation be relied upon as the sole basis for any drilling, 
#completion, production, or financial decision or any procedure involving any risk to the 
#safety of any drilling venture, drilling rig or its crew or any other third party.  The 
#Customer has full responsibility for all drilling, completion and production operation.  
#Halliburton makes no representations or warranties, either expressed or 
#implied, including, but not limited to, the implied warranties of merchantability or fitness 
#for a particular purpose, with respect to the services rendered.  In no event will 
#Halliburton be liable for failure to obtain any particular results or for 
#any damages, including, but not limited to, indirect, special or consequential damages, 
#resulting from the use of any information or interpretation provided by Halliburton.
#
~A           TIME           GTDEPTH  GTPQH  GTTQ  GTTN  GTET   GTTVD  
# ...
   09:18:00.810.18-Jan-2020 3746.01 3686.51 81.56 3.00  69.01 2818.83
   09:18:01.010.18-Jan-2020 3746.01 3686.51 81.56 3.00  69.21 2818.83
   09:18:01.210.18-Jan-2020 3746.01 3686.26 81.56 3.00  69.41 2818.83
   09:18:01.411.18-Jan-2020 3746.01 3686.01 81.56 3.00  69.61 2818.83
   09:18:01.611.18-Jan-2020 3746.01 3685.97 81.56 3.00  69.81 2818.83
   09:18:01.811.18-Jan-2020 3746.01 3686.03 81.56 3.00  70.01 2818.83
   09:18:02.011.18-Jan-2020 3746.01 3686.03 81.56 3.00  70.21 2818.83
   09:18:02.211.18-Jan-2020 3746.01 3685.99 81.56 3.00  70.41 2818.83
   09:18:02.411.18-Jan-2020 3746.01 3686.03 81.56 3.00  70.61 2818.83
   09:18:02.611.18-Jan-2020 3746.01 3686.00 81.56 3.00  70.81 2818.83
   09:18:02.811.18-Jan-2020 3746.01 3686.03 81.56 3.00  71.01 2818.83
   09:18:03.011.18-Jan-2020 3746.01 3686.03 81.56 3.00  71.21 2818.83
   09:18:03.211.18-Jan-2020 3746.01 3686.36 81.56 3.00  71.41 2818.83
   09:18:03.411.18-Jan-2020 3746.01 3686.51 81.56 3.00  71.61 2818.83
   09:18:03.611.18-Jan-2020 3746.01 3685.95 81.56 3.00  71.81 2818.83
   09:18:03.811.18-Jan-2020 3746.01 3686.31 81.56 3.00  72.01 2818.83
   09:18:04.011.18-Jan-2020 3746.01 3686.31 81.56 3.00  72.21 2818.83
   09:18:04.211.18-Jan-2020 3746.01 3686.23 81.56 3.00  72.41 2818.83
   09:18:04.411.18-Jan-2020 3746.01 3685.92 81.56 3.00  72.61 2818.83
   09:18:04.611.18-Jan-2020 3746.01 3686.14 81.55 3.00  72.81 2818.83
   09:18:04.811.18-Jan-2020 3746.01 3686.08 81.55 3.00  73.01 2818.83
   09:18:05.011.18-Jan-2020 3746.01 3686.08 81.55 3.00  73.21 2818.83
   09:18:05.211.18-Jan-2020 3746.01 3686.04 81.55 3.00  73.41 2818.83
   09:18:05.411.18-Jan-2020 3746.01 3686.16 81.55 3.00  73.61 2818.83
   09:18:05.611.18-Jan-2020 3746.01 3685.95 81.55 3.00  73.81 2818.83
   09:18:05.811.18-Jan-2020 3746.01 3686.21 81.55 3.00  74.01 2818.83
   09:18:06.011.18-Jan-2020 3746.01 3686.21 81.55 3.00  74.21 2818.83
   09:18:06.211.18-Jan-2020 3746.01 3686.07 81.55 3.00  74.41 2818.83
   09:18:06.411.18-Jan-2020 3746.01 3686.48 81.55 3.00  74.61 2818.83
   09:18:06.611.18-Jan-2020 3746.01 3686.35 81.55 3.00  74.81 2818.83
   09:18:06.811.18-Jan-2020 3746.01 3686.09 81.55 3.00  75.01 2818.83
   09:18:07.011.18-Jan-2020 3746.01 3686.09 81.55 3.00  75.21 2818.83
   09:18:07.212.18-Jan-2020 3746.01 3686.11 81.55 3.00  75.41 2818.83
   09:18:07.412.18-Jan-2020 3746.01 3685.95 81.55 3.00  75.61 2818.83
   09:18:07.612.18-Jan-2020 3746.01 3686.22 81.55 3.00  75.81 2818.83
   09:18:07.812.18-Jan-2020 3746.01 3686.19 81.55 3.00  76.01 2818.83
   09:18:08.012.18-Jan-2020 3746.01 3686.19 81.55 3.00  76.21 2818.83
   09:18:08.212.18-Jan-2020 3746.01 3686.08 81.55 3.00  76.41 2818.83
   09:18:08.412.18-Jan-2020 3746.01 3686.05 81.55 3.00  76.61 2818.83
   09:18:08.612.18-Jan-2020 3746.01 3686.11 81.55 3.00  76.81 2818.83
   09:18:08.812.18-Jan-2020 3746.01 3686.12 81.55 3.00  77.01 2818.83
   09:18:09.012.18-Jan-2020 3746.01 3686.12 81.55 3.00  77.21 2818.83
   09:18:09.212.18-Jan-2020 3746.01 3686.05 81.55 3.00  77.41 2818.83
   09:18:09.412.18-Jan-2020 3746.01 3686.19 81.55 3.00  77.61 2818.83
   09:18:09.612.18-Jan-2020 3746.01 3686.22 81.55 3.00  77.81 2818.83
   09:18:09.812.18-Jan-2020 3746.01 3686.66 81.55 3.00  78.01 2818.83
   09:18:10.012.18-Jan-2020 3746.01 3686.66 81.55 3.00  78.21 2818.83
   09:18:10.212.18-Jan-2020 3746.01 3686.33 81.54 3.00  78.41 2818.83
   09:18:10.412.18-Jan-2020 3746.01 3685.96 81.54 3.00  78.61 2818.83
   09:18:10.612.18-Jan-2020 3746.01 3686.12 81.54 3.00  78.81 2818.83
   09:18:10.812.18-Jan-2020 3746.01 3686.28 81.54 3.00  79.01 2818.83
   09:18:11.012.18-Jan-2020 3746.01 3686.28 81.54 3.00  79.21 2818.83
   09:18:11.212.18-Jan-2020 3746.01 3686.18 81.54 3.00  79.41 2818.83
   09:18:11.412.18-Jan-2020 3746.01 3686.08 81.54 3.00  79.61 2818.83
   09:18:11.612.18-Jan-2020 3746.01 3686.23 81.54 3.00  79.81 2818.83
   09:18:11.812.18-Jan-2020 3746.01 3686.07 81.54 3.00  80.01 2818.83
   09:18:12.012.18-Jan-2020 3746.01 3686.07 81.54 3.00  80.21 2818.83
   09:18:12.212.18-Jan-2020 3746.01 3686.52 81.54 3.00  80.41 2818.83
   09:18:12.412.18-Jan-2020 3746.01 3686.18 81.54 3.00  80.61 2818.83
   09:18:12.612.18-Jan-2020 3746.01 3686.13 81.54 3.00  80.81 2818.83
   09:18:12.812.18-Jan-2020 3746.01 3686.23 81.54 3.00  81.01 2818.83
   09:18:13.013.18-Jan-2020 3746.01 3686.23 81.54 3.00  81.21 2818.83
   09:18:13.213.18-Jan-2020 3746.01 3686.16 81.54 3.00  81.41 2818.83
   09:18:13.413.18-Jan-2020 3746.01 3686.38 81.54 3.00  81.61 2818.83
   09:18:13.613.18-Jan-2020 3746.01 3686.13 81.54 3.00  81.81 2818.83
   09:18:13.813.18-Jan-2020 3746.01 3686.16 81.54 3.00  82.01 2818.83
   09:18:14.013.18-Jan-2020 3746.01 3686.16 81.54 3.00  82.21 2818.83
   09:18:14.213.18-Jan-2020 3746.01 3686.45 81.54 3.00  82.41 2818.83
   09:18:14.413.18-Jan-2020 3746.01 3686.42 81.54 3.00  82.61 2818.83
   09:18:14.613.18-Jan-2020 3746.01 3686.03 81.54 3.00  82.81 2818.83
   09:18:14.813.18-Jan-2020 3746.01 3686.34 81.54 3.00  83.01 2818.83
   09:18:15.013.18-Jan-2020 3746.01 3686.34 81.54 3.00  83.21 2818.83
   09:18:15.213.18-Jan-2020 3746.01 3686.63 81.54 3.00  83.41 2818.83
   09:18:15.413.18-Jan-2020 3746.01 3686.07 81.54 3.00  83.61 2818.83
   09:18:15.613.18-Jan-2020 3746.01 3686.46 81.54 3.00  83.81 2818.83
   09:18:15.813.18-Jan-2020 3746.01 3685.99 81.53 3.00  84.01 2818.83
   09:18:16.013.18-Jan-2020 3746.01 3685.99 81.53 3.00  84.21 2818.83
   09:18:16.213.18-Jan-2020 3746.01 3686.26 81.53 3.00  84.41 2818.83
   09:18:16.413.18-Jan-2020 3746.01 3686.16 81.53 3.00  84.61 2818.83
   09:18:16.613.18-Jan-2020 3746.01 3686.16 81.53 3.00  84.81 2818.83
   09:18:16.813.18-Jan-2020 3746.01 3686.34 81.53 3.00  85.01 2818.83
   09:18:17.013.18-Jan-2020 3746.01 3686.34 81.53 3.00  85.21 2818.83
   09:18:17.213.18-Jan-2020 3746.01 3686.20 81.53 3.00  85.41 2818.83
   09:18:17.413.18-Jan-2020 3746.01 3686.16 81.53 3.00  85.61 2818.83
   09:18:17.613.18-Jan-2020 3746.01 3686.14 81.53 3.00  85.81 2818.83
   09:18:17.813.18-Jan-2020 3746.01 3686.28 81.53 3.00  86.01 2818.83
   09:18:18.013.18-Jan-2020 3746.01 3686.28 81.53 3.00  86.21 2818.83
   09:18:18.213.18-Jan-2020 3746.01 3686.28 81.53 3.00  86.41 2818.83
   09:18:18.413.18-Jan-2020 3746.01 3686.19 81.53 3.00  86.61 2818.83
   09:18:18.613.18-Jan-2020 3746.01 3686.38 81.53 3.00  86.81 2818.83
   09:18:18.813.18-Jan-2020 3746.01 3686.40 81.53 3.00  87.01 2818.83
   09:18:19.014.18-Jan-2020 3746.01 3686.40 81.53 3.00  87.21 2818.83
   09:18:19.214.18-Jan-2020 3746.01 3686.32 81.53 3.00  87.41 2818.83
   09:18:19.414.18-Jan-2020 3746.01 3686.34 81.53 3.00  87.61 2818.83
   09:18:19.614.18-Jan-2020 3746.01 3686.05 81.53 3.00  87.81 2818.83
   09:18:19.814.18-Jan-2020 3746.01 3686.29 81.53 3.00  88.01 2818.83
   09:18:20.014.18-Jan-2020 3746.01 3686.29 81.53 3.00  88.22 2818.83
   09:18:20.214.18-Jan-2020 3746.01 3686.26 81.53 3.00  88.42 2818.83
   09:18:20.414.18-Jan-2020 3746.01 3686.23 81.53 3.00  88.62 2818.83
   09:18:20.614.18-Jan-2020 3746.01 3686.19 81.53 3.00  88.82 2818.83
   09:18:20.814.18-Jan-2020 3746.01 3686.28 81.53 3.00  89.02 2818.83
   09:18:21.014.18-Jan-2020 3746.01 3686.28 81.53 3.00  89.22 2818.83
   09:18:21.214.18-Jan-2020 3746.01 3686.48 81.53 3.00  89.42 2818.83
   09:18:21.414.18-Jan-2020 3746.01 3686.52 81.52 3.00  89.62 2818.83
   09:18:21.614.18-Jan-2020 3746.01 3686.25 81.52 3.00  89.82 2818.83
   09:18:21.814.18-Jan-2020 3746.01 3686.24 81.52 3.00  90.02 2818.83
   09:18:22.014.18-Jan-2020 3746.01 3686.24 81.52 3.00  90.22 2818.83
   09:18:22.214.18-Jan-2020 3746.01 3686.51 81.52 3.00  90.42 2818.83
   09:18:22.414.18-Jan-2020 3746.01 3686.14 81.52 3.00  90.62 2818.83
   09:18:22.614.18-Jan-2020 3746.01 3686.30 81.52 3.00  90.82 2818.83
   09:18:22.814.18-Jan-2020 3746.01 3686.26 81.52 3.00  91.02 2818.83
   09:18:23.014.18-Jan-2020 3746.01 3686.26 81.52 3.00  91.22 2818.83
   09:18:23.214.18-Jan-2020 3746.01 3686.03 81.52 3.00  91.42 2818.83
   09:18:23.414.18-Jan-2020 3746.01 3686.46 81.52 3.00  91.62 2818.83
   09:18:23.614.18-Jan-2020 3746.01 3686.04 81.52 3.00  91.82 2818.83
