~Version Information
 VERS.                  2.0:   CWLS log ASCII Standard -VERSION 2.0
 WRAP.                   NO:   One line per depth step
~Well Information Block
#MNEM.UNIT     VALUE/NAME     DESCRIPTION
#---------     -----------    ---------------------------
 STRT.S             13:31:21 18-Jan-20: START TIME 13:31:21 18-Jan-20
 STOP.S             13:39:29 18-Jan-20: STOP TIME  13:39:29 18-Jan-20
 STEP.S                   0.00: STEP TIME
 NULL.                 -999.25: NULL VALUE
 DFWT.                        :  DIST FWL TEXT
 DFST.                        :  DIST FSL TEXT
 DMF .             Drill Floor:  DRILL MEAS FROM
 STIM.      09.30.00 26-Dec-19:  START TIME
 DATE.      08.00.00 20-Jan-20:  END TIME
 SPUD.               23-Nov-19:  SPUD DATE
 NREF.                    Grid:  NORTH REFERENCE
 HPTY.       Minimum Curvature:  HOLE POS TYPE
 DMOD.             Drill Model:  DRILL MOD DESC
 SVYD.                  Survey:  SURVEY DESC
 ILTD.               Lithology:  INTERP LTH DESC
 FTOP.          Formation Tops:  FORM TOPS DESC
 SON .        AZ-XX-0906192647:  JOB NUMBER
 WTYP.                Deviated:  WELL TYPE
 COMP.     BP Exploration (Caspian Sea) Ltd:  COMPANY
 BASE.              Azerbaijan:  LOGGING EQUIPMENT BASE LOCATION
 REGN.                 Eurasia:  REGION
 FLD .                     ACG:  FIELD NAME
 SRVC.              KCA Deutag:  CONTRACTOR
 MWDS.                    Baku:  MWD SHOP
 WELL.     A10 (Slot 20) - SCP:  WELL NAME
 JOBN.        AZ-XX-0906192647:  JOB TICKET NUMB
 RIG .                 Chirag1:  RIG NAME
 DCON.     Halliburton Sperry Drilling:  DIRECTNL CONTR
 UNIT.                     N/A:  LOGGING EQUIPMENT ID
 PDAT.          Mean Sea Level:  PERMANENT DATUM
 MDS .        Operator Entered:  MAG DATA SOURCE
 CTRY.              Azerbaijan:  COUNTRY NAME
 UWI .            /AZE00000090:  UNIQUE WELL IDENTIFIER
 API .            /AZE00000090:  API NUMBER
 CNTY.                        :  COUNTY
 PROV.                        :  PROVINCE
 STAT.                        :  STATE
 LOC .                        :  LOCATION
 LMF .             Drill Floor:  LOG MEASURED FROM
 TVDS.m                  36.60:  TVDSS CORRECTN
 LATI.deg                40.08:  LATITUDE
 LONG.deg                51.24:  LONGITUDE
 WHNS.m                  -7.94:  WELL HEAD N/S
 WHEW.m                   1.56:  WELL HEAD E/W
 UTMX.m              520429.26:  UTM X
 UTMY.m             4438973.87:  UTM Y
 DFWL.m                   0.00:  DISTANCE FWL
 DFSL.m                   0.00:  DISTANCE FSL
 SDEP.m                1455.00:  START DEPTH
 TDD .m                3878.01:  TOTAL DEPTH (DRILLER)
 VSDR.deg               112.75:  VERT SEC DIRECT
 GVFD.g                   1.00:  GRAVITY FIELD
 MFLD.nT              50256.00:  MAGNETIC FIELD
 MDIP.deg                59.52:  MAGNETIC DIP
 MDEC.deg                 6.43:  MAGNETIC DECL
 GRDC.deg                 0.16:  GRID CORRECTION
 AZTC.deg                 6.27:  AZM TOTAL CORR
 EPD .m                   0.00:  ELEVATION
 EGL .m                   0.00:  GROUND ELEVATION
 WDMS.m                 121.00:  WD ELEV
 APD .m                  36.60:  DEPTH ABOVE PD
 AGAP.m                  36.60:  AIR GAP
 VSEW.m                   1.56:  VERT SEC E/W
 VSNS.m                  -7.94:  VERT SEC N/S
 DEP .m                1140.01:  DEPTH
 EKB .m                  36.60:  KB ELEVATION
 EDF .m                  36.60:  DF ELEVATION
 TDL .m                1293.00:  TOTAL DEPTH (LOGGER)
 VSC .                       0:  VS TO CLOSURE
 MAGU.                 1849164:  MAGUTM CHECKSUM
~Parameter Information Block
#MNEM.UNIT       Value        Description
#---------     -----------    ---------------------------
 AV  .mps                 2.40:  Ann Velocity 
 AVMX.mps                 2.55:  Max Ann Veloc 
 AZIF.deg               134.35:  Azm, Final 
 BHAT.        Rotary Steerable:  BHA Type 
 BREV.rev               847.00:  Rev Bit Total 
 BROT.°/30m              -2.51:  Build Rotating 
 BS  .in                  8.50:  Bit Size 
 BSZ .in                  8.50:  Bit Size 
 BTPL.psig              700.00:  Bit Press Loss 
 CABU.                     Yes:  Customer Abuse 
 CGEO.          Ilgar Gurbanov:  Customer Geo 
 COMM.                     ¸P:  Run Comments 1 
 TCS .hr                140.40:  Time Ciculation Ended 
 CV  .mps                 2.27:  Crit Velocity 
 CVMX.mps                 2.45:  Max Crit Veloc 
 DD1 .         Intigam Rahimov:  Direct Drillr 1 
 DD2 .         Rasim Ibrahimov:  Direct Drillr 2 
 DDSV.                 iCruise:  DD Service 
 DEFF.%                  99.00:  % Det Eff 
 DLRX.°/30m               3.28:  Dogleg Rot Max 
 DLSO.°/30m               0.00:  Dogleg Oriented 
 DLSX.°/30m               0.00:  Dogleg Str Max 
 DRET.      23.30.00 18-Jan-20:  Drill End Time 
 DRST.      01.45.00 11-Jan-20:  Drill Start Tim 
 DTIM.hr                 94.00:  Time Drilling 
 EDEP.m                3878.01:  End Depth 
 ENG1.       Dauren Baktybayev:  Engineer 1 
 ENG2.      Natik Hasanaghayev:  Engineer 2 
 ENG3.          Rustam Safarov:  Engineer 3 
 ETIM.      08.00.00 20-Jan-20:  End Time 
 FLOI.gpm               532.00:  Flow In 
 FLON.gpm               500.00:  Flow In Min 
 FLOS.cptm                0.00:  Fluid Loss 
 FLOX.gpm               540.00:  Flow In Max 
 FTRO.       Formation Presure:  FTWD Run Obj 
 HPRE.                     Yes:  High Pressure 
 HTEM.                      No:  High Temp 
 HYDO.m                   1.80:  Hydro Offset 
 IFIN.deg                39.86:  Inc, Final 
 IMAX.deg                59.73:  Inc Max 
 IMIN.deg                39.25:  Inc Min 
 IMND.m                3816.77:  Inc Min Depth 
 IMXD.m                2596.33:  Inc Max Depth 
 JARR.                      No:  Jarring 
 LETM.      23.30.00 18-Jan-20:  Log End Time 
 LOST.hr                     0:  Lost Rig Time 
 LSTM.      01.45.00 11-Jan-20:  Log Start Time 
 MDCL.ppm             41500.00:  Mud Chlorides 
 MDES.     Inversion Oil/Synthetic:  Mud Desc 
 DFD .sg                  1.48:  Mud Density 
 MDMN.sg                  1.48:  Dens Mud Min 
 MDMX.sg                  1.48:  Dens Mud Max 
 MOIL.                      54:  Run Mud Oil % 
 MOWR.                   72:28:  Run Mud OWR 
 MSND.                       0:  Run Mud Sand % 
 MSOL.                      23:  Run Mud Solids% 
 DFV .spqt               86.00:  Mud Viscosity 
 MWOD.in                  6.75:  MWD Tool OD 
 MWSI.                      No:  Serv Intrp, MWD 
 OTIM.hr                223.40:  Time Operating 
 PCON.           Look Like New:  Pad Condition 
 PMAX.psia            32446.79:  Press Op, Max 
 PV  .cP                 49.00:  Mud PV 
 RUN .                     200:  Run Number 
 ROPA.m/hr               12.48:  ROP Avg 
 ROPN.m/hr                8.00:  ROP Min 
 ROPX.m/hr               27.00:  ROP Max 
 RPMA.rpm               121.00:  RPM Surface Avg 
 RPMN.rpm                60.00:  RPM Surface Min 
 RPMX.rpm               140.00:  RPM Surface Max 
 RRUN.                    L202:  Rig Run Number 
 RTIM.hr                  7.25:  Time Reaming 
 SAZI.deg               123.49:  Azm, Start 
 SDEP.m                2585.01:  Start Depth 
 SIDD.                      No:  Serv Intrp, DD 
 SINC.deg                59.93:  Inc, Start 
 SPPA.psig             3539.00:  SPP Avg 
 SPPN.psig             3050.00:  SPP Min 
 SPPX.psig             3950.00:  SPP Max 
 STIM.      19.00.00 10-Jan-20:  Start Time 
 SVCS.                 DD, MWD:  Services 
 SVER.                    9.20:  Sperry Version 
 TDAT.m                1293.00:  Tot Depth Attmp 
 TDDF.                      No:  Trip for DD 
 TDLG.m                1293.00:  Tot Depth Loggd 
 TFF .                      No:  Trip for Fail 
 TQAA.f-kp               16.00:  Torque Abs Avg 
 TQAN.f-kp               11.00:  Torque Abs Min 
 TQAX.f-kp               18.00:  Torque Abs Max 
 TRRT.°/30m               1.25:  Turn Rotating 
 MRT .                  EWR-M5:  Maximum Recorded Temperature 
 TTMX.degC               84.00:  Max Tool Temp 
 VS01.          AZ90514619R5C6:  Virtual Str1 SN 
 VS02.        AZ90552592N2L2C6:  Virtual Str2 SN 
 VS03.        AZ90571337Z1W1C6:  Virtual Str3 SN 
 VS04.         AZ90513690K23C6:  Virtual Str4 SN 
 VS05.           AZ90594857F11:  Virtual Str5 SN 
 VS06.                13102166:  Virtual Str6 SN 
 WBMN.klb                 7.00:  WOB Min 
 WITN.            Peter Wilson:  Customer Rep 
 WOBA.klb                 9.95:  WOB Avg 
 WOBX.klb                10.00:  WOB Max 
 YP  .lhf2               36.00:  Yield Point 
~Curve Information Block
#MNEM.UNIT                 API CODE     Curve Description
#---------               -----------    ---------------------------
 TIME.HHMMSS            00 000 000 000:  GT Time & Date
 GTDEPTH.m              00 000 000 000:  GT Depth
 GTPQH.psia             00 000 000 000:  GT HR Quartz Pressure
 GTTQ.degC              00 000 000 000:  GT Quartz Temperature
 GTTN.NONE              00 000 000 000:  GT Test Number
 GTET.sec               00 000 000 000:  GT Elapsed Test Time
 GTTVD.m                00 000 000 000:  GT True Vertical Depth
#Other Information
#
#WARRANTY: Halliburton will use its best efforts to furnish customers with 
#accurate information and interpretations that are part of, and incident to, the services 
#provided.  However, Halliburton cannot and does not warrant the accuracy 
#or correctness of such information and interpretations.  Under no circumstances should any 
#such information or interpretation be relied upon as the sole basis for any drilling, 
#completion, production, or financial decision or any procedure involving any risk to the 
#safety of any drilling venture, drilling rig or its crew or any other third party.  The 
#Customer has full responsibility for all drilling, completion and production operation.  
#Halliburton makes no representations or warranties, either expressed or 
#implied, including, but not limited to, the implied warranties of merchantability or fitness 
#for a particular purpose, with respect to the services rendered.  In no event will 
#Halliburton be liable for failure to obtain any particular results or for 
#any damages, including, but not limited to, indirect, special or consequential damages, 
#resulting from the use of any information or interpretation provided by Halliburton.
#
~A           TIME           GTDEPTH  GTPQH  GTTQ  GTTN  GTET   GTTVD  
# ...
   13:37:29.254.18-Jan-2020 3754.51  406.60 80.74 4.00 368.12 2825.33
   13:37:29.454.18-Jan-2020 3754.51  406.60 80.74 4.00 368.32 2825.33
   13:37:29.654.18-Jan-2020 3754.51  404.57 80.74 4.00 368.52 2825.33
   13:37:29.854.18-Jan-2020 3754.51  407.32 80.74 4.00 368.72 2825.33
   13:37:30.054.18-Jan-2020 3754.51  407.44 80.74 4.00 368.92 2825.33
   13:37:30.254.18-Jan-2020 3754.51  407.46 80.74 4.00 369.12 2825.33
   13:37:30.454.18-Jan-2020 3754.51  407.46 80.74 4.00 369.32 2825.33
   13:37:30.654.18-Jan-2020 3754.51  405.66 80.73 4.00 369.52 2825.33
   13:37:30.854.18-Jan-2020 3754.51  408.37 80.73 4.00 369.72 2825.33
   13:37:31.054.18-Jan-2020 3754.51  408.76 80.73 4.00 369.92 2825.33
   13:37:31.254.18-Jan-2020 3754.51  408.65 80.73 4.00 370.12 2825.33
   13:37:31.454.18-Jan-2020 3754.51  408.65 80.73 4.00 370.32 2825.33
   13:37:31.654.18-Jan-2020 3754.51  408.08 80.73 4.00 370.52 2825.33
   13:37:31.855.18-Jan-2020 3754.51  408.72 80.73 4.00 370.72 2825.33
   13:37:32.055.18-Jan-2020 3754.51  409.42 80.73 4.00 370.92 2825.33
   13:37:32.255.18-Jan-2020 3754.51  409.05 80.73 4.00 371.12 2825.33
   13:37:32.455.18-Jan-2020 3754.51  409.05 80.73 4.00 371.32 2825.33
   13:37:32.655.18-Jan-2020 3754.51  408.91 80.73 4.00 371.52 2825.33
   13:37:32.855.18-Jan-2020 3754.51  407.74 80.73 4.00 371.72 2825.33
   13:37:33.055.18-Jan-2020 3754.51  409.34 80.73 4.00 371.92 2825.33
   13:37:33.255.18-Jan-2020 3754.51  409.43 80.73 4.00 372.12 2825.33
   13:37:33.455.18-Jan-2020 3754.51  409.43 80.73 4.00 372.32 2825.33
   13:37:33.655.18-Jan-2020 3754.51  409.97 80.73 4.00 372.52 2825.33
   13:37:33.855.18-Jan-2020 3754.51  409.84 80.73 4.00 372.72 2825.33
   13:37:34.055.18-Jan-2020 3754.51  409.71 80.73 4.00 372.92 2825.33
   13:37:34.255.18-Jan-2020 3754.51  409.53 80.73 4.00 373.12 2825.33
   13:37:34.455.18-Jan-2020 3754.51  409.53 80.73 4.00 373.32 2825.33
   13:37:34.655.18-Jan-2020 3754.51  410.12 80.73 4.00 373.52 2825.33
   13:37:34.856.18-Jan-2020 3754.51  409.91 80.73 4.00 373.72 2825.33
   13:37:35.056.18-Jan-2020 3754.51  409.95 80.73 4.00 373.92 2825.33
   13:37:35.256.18-Jan-2020 3754.51  409.83 80.73 4.00 374.12 2825.33
   13:37:35.456.18-Jan-2020 3754.51  409.83 80.73 4.00 374.32 2825.33
   13:37:35.656.18-Jan-2020 3754.51  409.70 80.73 4.00 374.52 2825.33
   13:37:35.856.18-Jan-2020 3754.51  409.77 80.73 4.00 374.72 2825.33
   13:37:36.056.18-Jan-2020 3754.51  409.67 80.73 4.00 374.92 2825.33
   13:37:36.256.18-Jan-2020 3754.51  408.39 80.73 4.00 375.12 2825.33
   13:37:36.456.18-Jan-2020 3754.51  408.39 80.73 4.00 375.32 2825.33
   13:37:36.656.18-Jan-2020 3754.51  410.39 80.72 4.00 375.52 2825.33
   13:37:36.856.18-Jan-2020 3754.51  411.04 80.72 4.00 375.72 2825.33
   13:37:37.056.18-Jan-2020 3754.51  410.88 80.72 4.00 375.92 2825.33
   13:37:37.256.18-Jan-2020 3754.51  410.99 80.72 4.00 376.12 2825.33
   13:37:37.456.18-Jan-2020 3754.51  410.99 80.72 4.00 376.32 2825.33
   13:37:37.656.18-Jan-2020 3754.51  410.71 80.72 4.00 376.52 2825.33
   13:37:37.856.18-Jan-2020 3754.51  410.63 80.72 4.00 376.72 2825.33
   13:37:38.057.18-Jan-2020 3754.51  410.67 80.72 4.00 376.92 2825.33
   13:37:38.257.18-Jan-2020 3754.51  410.54 80.72 4.00 377.12 2825.33
   13:37:38.457.18-Jan-2020 3754.51  410.54 80.72 4.00 377.32 2825.33
   13:37:38.657.18-Jan-2020 3754.51  409.76 80.72 4.00 377.52 2825.33
   13:37:38.857.18-Jan-2020 3754.51  410.91 80.72 4.00 377.72 2825.33
   13:37:39.057.18-Jan-2020 3754.51  411.91 80.72 4.00 377.92 2825.33
   13:37:39.257.18-Jan-2020 3754.51  411.61 80.72 4.00 378.12 2825.33
   13:37:39.457.18-Jan-2020 3754.51  411.61 80.72 4.00 378.32 2825.33
   13:37:39.657.18-Jan-2020 3754.51  409.53 80.72 4.00 378.52 2825.33
   13:37:39.857.18-Jan-2020 3754.51  412.02 80.72 4.00 378.72 2825.33
   13:37:40.057.18-Jan-2020 3754.51  412.72 80.72 4.00 378.92 2825.33
   13:37:40.257.18-Jan-2020 3754.51  412.48 80.72 4.00 379.12 2825.33
   13:37:40.457.18-Jan-2020 3754.51  412.48 80.72 4.00 379.32 2825.33
   13:37:40.657.18-Jan-2020 3754.51  412.34 80.72 4.00 379.52 2825.33
   13:37:40.857.18-Jan-2020 3754.51  412.27 80.72 4.00 379.72 2825.33
   13:37:41.058.18-Jan-2020 3754.51  412.68 80.72 4.00 379.92 2825.33
   13:37:41.258.18-Jan-2020 3754.51  412.67 80.72 4.00 380.12 2825.33
   13:37:41.458.18-Jan-2020 3754.51  412.67 80.72 4.00 380.32 2825.33
   13:37:41.658.18-Jan-2020 3754.51  410.83 80.72 4.00 380.52 2825.33
   13:37:41.858.18-Jan-2020 3754.51  413.09 80.72 4.00 380.72 2825.33
   13:37:42.058.18-Jan-2020 3754.51  413.17 80.71 4.00 380.92 2825.33
   13:37:42.258.18-Jan-2020 3754.51  412.92 80.71 4.00 381.12 2825.33
   13:37:42.458.18-Jan-2020 3754.51  412.92 80.71 4.00 381.32 2825.33
   13:37:42.658.18-Jan-2020 3754.51  412.90 80.71 4.00 381.52 2825.33
   13:37:42.858.18-Jan-2020 3754.51  412.91 80.71 4.00 381.72 2825.33
   13:37:43.058.18-Jan-2020 3754.51  412.68 80.71 4.00 381.92 2825.33
   13:37:43.258.18-Jan-2020 3754.51  412.59 80.71 4.00 382.12 2825.33
   13:37:43.458.18-Jan-2020 3754.51  412.59 80.71 4.00 382.32 2825.33
   13:37:43.658.18-Jan-2020 3754.51  412.52 80.71 4.00 382.52 2825.33
   13:37:43.858.18-Jan-2020 3754.51  412.46 80.71 4.00 382.72 2825.33
   13:37:44.058.18-Jan-2020 3754.51  412.30 80.71 4.00 382.92 2825.33
   13:37:44.259.18-Jan-2020 3754.51  412.28 80.71 4.00 383.12 2825.33
   13:37:44.459.18-Jan-2020 3754.51  412.28 80.71 4.00 383.32 2825.33
   13:37:44.659.18-Jan-2020 3754.51  412.19 80.71 4.00 383.52 2825.33
   13:37:44.859.18-Jan-2020 3754.51  412.08 80.71 4.00 383.72 2825.33
   13:37:45.059.18-Jan-2020 3754.51  410.31 80.71 4.00 383.92 2825.33
   13:37:45.259.18-Jan-2020 3754.51  412.72 80.71 4.00 384.12 2825.33
   13:37:45.459.18-Jan-2020 3754.51  412.72 80.71 4.00 384.32 2825.33
   13:37:45.659.18-Jan-2020 3754.51  412.69 80.71 4.00 384.52 2825.33
   13:37:45.859.18-Jan-2020 3754.51  412.60 80.71 4.00 384.72 2825.33
   13:37:46.059.18-Jan-2020 3754.51  412.61 80.71 4.00 384.92 2825.33
   13:37:46.259.18-Jan-2020 3754.51  412.50 80.71 4.00 385.12 2825.33
   13:37:46.459.18-Jan-2020 3754.51  412.50 80.71 4.00 385.32 2825.33
   13:37:46.659.18-Jan-2020 3754.51  412.27 80.71 4.00 385.52 2825.33
   13:37:46.859.18-Jan-2020 3754.51  412.30 80.71 4.00 385.72 2825.33
   13:37:47.059.18-Jan-2020 3754.51  412.27 80.71 4.00 385.92 2825.33
   13:37:47.260.18-Jan-2020 3754.51  410.84 80.71 4.00 386.12 2825.33
   13:37:47.460.18-Jan-2020 3754.51  410.84 80.71 4.00 386.32 2825.33
   13:37:47.660.18-Jan-2020 3754.51  412.45 80.71 4.00 386.52 2825.33
   13:37:47.860.18-Jan-2020 3754.51  413.03 80.71 4.00 386.73 2825.33
   13:37:48.060.18-Jan-2020 3754.51  412.98 80.70 4.00 386.93 2825.33
   13:37:48.260.18-Jan-2020 3754.51  412.95 80.70 4.00 387.13 2825.33
   13:37:48.460.18-Jan-2020 3754.51  412.95 80.70 4.00 387.33 2825.33
   13:37:48.660.18-Jan-2020 3754.51  413.16 80.70 4.00 387.53 2825.33
   13:37:48.860.18-Jan-2020 3754.51  413.16 80.70 4.00 387.73 2825.33
   13:37:49.060.18-Jan-2020 3754.51  413.00 80.70 4.00 387.93 2825.33
   13:37:49.260.18-Jan-2020 3754.51  411.16 80.70 4.00 388.13 2825.33
   13:37:49.460.18-Jan-2020 3754.51  411.16 80.70 4.00 388.33 2825.33
   13:37:49.660.18-Jan-2020 3754.51  413.82 80.70 4.00 388.53 2825.33
   13:37:49.860.18-Jan-2020 3754.51  413.73 80.70 4.00 388.73 2825.33
   13:37:50.060.18-Jan-2020 3754.51  413.49 80.70 4.00 388.93 2825.33
   13:37:50.260.18-Jan-2020 3754.51  412.14 80.70 4.00 389.13 2825.33
   13:37:50.461.18-Jan-2020 3754.51  412.14 80.70 4.00 389.33 2825.33
   13:37:50.661.18-Jan-2020 3754.51  414.87 80.70 4.00 389.53 2825.33
   13:37:50.861.18-Jan-2020 3754.51  414.50 80.70 4.00 389.73 2825.33
   13:37:51.061.18-Jan-2020 3754.51  414.31 80.70 4.00 389.93 2825.33
   13:37:51.261.18-Jan-2020 3754.51  414.25 80.70 4.00 390.13 2825.33
   13:37:51.461.18-Jan-2020 3754.51  414.25 80.70 4.00 390.33 2825.33
   13:37:51.661.18-Jan-2020 3754.51  414.33 80.70 4.00 390.53 2825.33
   13:37:51.861.18-Jan-2020 3754.51  414.04 80.70 4.00 390.73 2825.33
   13:37:52.061.18-Jan-2020 3754.51  414.09 80.70 4.00 390.93 2825.33
