~Version Information
 VERS.                  2.0:   CWLS log ASCII Standard -VERSION 2.0
 WRAP.                   NO:   One line per depth step
~Well Information Block
#MNEM.UNIT     VALUE/NAME     DESCRIPTION
#---------     -----------    ---------------------------
 STRT.S             05:39:19 18-Jan-20: START TIME 05:39:19 18-Jan-20
 STOP.S             05:47:35 18-Jan-20: STOP TIME  05:47:35 18-Jan-20
 STEP.S                   0.00: STEP TIME
 NULL.                 -999.25: NULL VALUE
 DFWT.                        :  DIST FWL TEXT
 DFST.                        :  DIST FSL TEXT
 DMF .             Drill Floor:  DRILL MEAS FROM
 STIM.      09.30.00 26-Dec-19:  START TIME
 DATE.      08.00.00 20-Jan-20:  END TIME
 SPUD.               23-Nov-19:  SPUD DATE
 NREF.                    Grid:  NORTH REFERENCE
 HPTY.       Minimum Curvature:  HOLE POS TYPE
 DMOD.             Drill Model:  DRILL MOD DESC
 SVYD.                  Survey:  SURVEY DESC
 ILTD.               Lithology:  INTERP LTH DESC
 FTOP.          Formation Tops:  FORM TOPS DESC
 SON .        AZ-XX-0906192647:  JOB NUMBER
 WTYP.                Deviated:  WELL TYPE
 COMP.     BP Exploration (Caspian Sea) Ltd:  COMPANY
 BASE.              Azerbaijan:  LOGGING EQUIPMENT BASE LOCATION
 REGN.                 Eurasia:  REGION
 FLD .                     ACG:  FIELD NAME
 SRVC.              KCA Deutag:  CONTRACTOR
 MWDS.                    Baku:  MWD SHOP
 WELL.     A10 (Slot 20) - SCP:  WELL NAME
 JOBN.        AZ-XX-0906192647:  JOB TICKET NUMB
 RIG .                 Chirag1:  RIG NAME
 DCON.     Halliburton Sperry Drilling:  DIRECTNL CONTR
 UNIT.                     N/A:  LOGGING EQUIPMENT ID
 PDAT.          Mean Sea Level:  PERMANENT DATUM
 MDS .        Operator Entered:  MAG DATA SOURCE
 CTRY.              Azerbaijan:  COUNTRY NAME
 UWI .            /AZE00000090:  UNIQUE WELL IDENTIFIER
 API .            /AZE00000090:  API NUMBER
 CNTY.                        :  COUNTY
 PROV.                        :  PROVINCE
 STAT.                        :  STATE
 LOC .                        :  LOCATION
 LMF .             Drill Floor:  LOG MEASURED FROM
 TVDS.m                  36.60:  TVDSS CORRECTN
 LATI.deg                40.08:  LATITUDE
 LONG.deg                51.24:  LONGITUDE
 WHNS.m                  -7.94:  WELL HEAD N/S
 WHEW.m                   1.56:  WELL HEAD E/W
 UTMX.m              520429.26:  UTM X
 UTMY.m             4438973.87:  UTM Y
 DFWL.m                   0.00:  DISTANCE FWL
 DFSL.m                   0.00:  DISTANCE FSL
 SDEP.m                1455.00:  START DEPTH
 TDD .m                3878.01:  TOTAL DEPTH (DRILLER)
 VSDR.deg               112.75:  VERT SEC DIRECT
 GVFD.g                   1.00:  GRAVITY FIELD
 MFLD.nT              50256.00:  MAGNETIC FIELD
 MDIP.deg                59.52:  MAGNETIC DIP
 MDEC.deg                 6.43:  MAGNETIC DECL
 GRDC.deg                 0.16:  GRID CORRECTION
 AZTC.deg                 6.27:  AZM TOTAL CORR
 EPD .m                   0.00:  ELEVATION
 EGL .m                   0.00:  GROUND ELEVATION
 WDMS.m                 121.00:  WD ELEV
 APD .m                  36.60:  DEPTH ABOVE PD
 AGAP.m                  36.60:  AIR GAP
 VSEW.m                   1.56:  VERT SEC E/W
 VSNS.m                  -7.94:  VERT SEC N/S
 DEP .m                1140.01:  DEPTH
 EKB .m                  36.60:  KB ELEVATION
 EDF .m                  36.60:  DF ELEVATION
 TDL .m                1293.00:  TOTAL DEPTH (LOGGER)
 VSC .                       0:  VS TO CLOSURE
 MAGU.                 1849164:  MAGUTM CHECKSUM
~Parameter Information Block
#MNEM.UNIT       Value        Description
#---------     -----------    ---------------------------
 AV  .mps                 2.40:  Ann Velocity 
 AVMX.mps                 2.55:  Max Ann Veloc 
 AZIF.deg               134.35:  Azm, Final 
 BHAT.        Rotary Steerable:  BHA Type 
 BREV.rev               847.00:  Rev Bit Total 
 BROT.∞/30m              -2.51:  Build Rotating 
 BS  .in                  8.50:  Bit Size 
 BSZ .in                  8.50:  Bit Size 
 BTPL.psig              700.00:  Bit Press Loss 
 CABU.                     Yes:  Customer Abuse 
 CGEO.          Ilgar Gurbanov:  Customer Geo 
 COMM.                     ‹êX:  Run Comments 1 
 TCS .hr                140.40:  Time Ciculation Ended 
 CV  .mps                 2.27:  Crit Velocity 
 CVMX.mps                 2.45:  Max Crit Veloc 
 DD1 .         Intigam Rahimov:  Direct Drillr 1 
 DD2 .         Rasim Ibrahimov:  Direct Drillr 2 
 DDSV.                 iCruise:  DD Service 
 DEFF.%                  99.00:  % Det Eff 
 DLRX.∞/30m               3.28:  Dogleg Rot Max 
 DLSO.∞/30m               0.00:  Dogleg Oriented 
 DLSX.∞/30m               0.00:  Dogleg Str Max 
 DRET.      23.30.00 18-Jan-20:  Drill End Time 
 DRST.      01.45.00 11-Jan-20:  Drill Start Tim 
 DTIM.hr                 94.00:  Time Drilling 
 EDEP.m                3878.01:  End Depth 
 ENG1.       Dauren Baktybayev:  Engineer 1 
 ENG2.      Natik Hasanaghayev:  Engineer 2 
 ENG3.          Rustam Safarov:  Engineer 3 
 ETIM.      08.00.00 20-Jan-20:  End Time 
 FLOI.gpm               532.00:  Flow In 
 FLON.gpm               500.00:  Flow In Min 
 FLOS.cptm                0.00:  Fluid Loss 
 FLOX.gpm               540.00:  Flow In Max 
 FTRO.       Formation Presure:  FTWD Run Obj 
 HPRE.                     Yes:  High Pressure 
 HTEM.                      No:  High Temp 
 HYDO.m                   1.80:  Hydro Offset 
 IFIN.deg                39.86:  Inc, Final 
 IMAX.deg                59.73:  Inc Max 
 IMIN.deg                39.25:  Inc Min 
 IMND.m                3816.77:  Inc Min Depth 
 IMXD.m                2596.33:  Inc Max Depth 
 JARR.                      No:  Jarring 
 LETM.      23.30.00 18-Jan-20:  Log End Time 
 LOST.hr                     0:  Lost Rig Time 
 LSTM.      01.45.00 11-Jan-20:  Log Start Time 
 MDCL.ppm             41500.00:  Mud Chlorides 
 MDES.     Inversion Oil/Synthetic:  Mud Desc 
 DFD .sg                  1.48:  Mud Density 
 MDMN.sg                  1.48:  Dens Mud Min 
 MDMX.sg                  1.48:  Dens Mud Max 
 MOIL.                      54:  Run Mud Oil % 
 MOWR.                   72:28:  Run Mud OWR 
 MSND.                       0:  Run Mud Sand % 
 MSOL.                      23:  Run Mud Solids% 
 DFV .spqt               86.00:  Mud Viscosity 
 MWOD.in                  6.75:  MWD Tool OD 
 MWSI.                      No:  Serv Intrp, MWD 
 OTIM.hr                223.40:  Time Operating 
 PCON.           Look Like New:  Pad Condition 
 PMAX.psia            32446.79:  Press Op, Max 
 PV  .cP                 49.00:  Mud PV 
 RUN .                     200:  Run Number 
 ROPA.m/hr               12.48:  ROP Avg 
 ROPN.m/hr                8.00:  ROP Min 
 ROPX.m/hr               27.00:  ROP Max 
 RPMA.rpm               121.00:  RPM Surface Avg 
 RPMN.rpm                60.00:  RPM Surface Min 
 RPMX.rpm               140.00:  RPM Surface Max 
 RRUN.                    L202:  Rig Run Number 
 RTIM.hr                  7.25:  Time Reaming 
 SAZI.deg               123.49:  Azm, Start 
 SDEP.m                2585.01:  Start Depth 
 SIDD.                      No:  Serv Intrp, DD 
 SINC.deg                59.93:  Inc, Start 
 SPPA.psig             3539.00:  SPP Avg 
 SPPN.psig             3050.00:  SPP Min 
 SPPX.psig             3950.00:  SPP Max 
 STIM.      19.00.00 10-Jan-20:  Start Time 
 SVCS.                 DD, MWD:  Services 
 SVER.                    9.20:  Sperry Version 
 TDAT.m                1293.00:  Tot Depth Attmp 
 TDDF.                      No:  Trip for DD 
 TDLG.m                1293.00:  Tot Depth Loggd 
 TFF .                      No:  Trip for Fail 
 TQAA.f-kp               16.00:  Torque Abs Avg 
 TQAN.f-kp               11.00:  Torque Abs Min 
 TQAX.f-kp               18.00:  Torque Abs Max 
 TRRT.∞/30m               1.25:  Turn Rotating 
 MRT .                  EWR-M5:  Maximum Recorded Temperature 
 TTMX.degC               84.00:  Max Tool Temp 
 VS01.          AZ90514619R5C6:  Virtual Str1 SN 
 VS02.        AZ90552592N2L2C6:  Virtual Str2 SN 
 VS03.        AZ90571337Z1W1C6:  Virtual Str3 SN 
 VS04.         AZ90513690K23C6:  Virtual Str4 SN 
 VS05.           AZ90594857F11:  Virtual Str5 SN 
 VS06.                13102166:  Virtual Str6 SN 
 WBMN.klb                 7.00:  WOB Min 
 WITN.            Peter Wilson:  Customer Rep 
 WOBA.klb                 9.95:  WOB Avg 
 WOBX.klb                10.00:  WOB Max 
 YP  .lhf2               36.00:  Yield Point 
~Curve Information Block
#MNEM.UNIT                 API CODE     Curve Description
#---------               -----------    ---------------------------
 TIME.HHMMSS            00 000 000 000:  GT Time & Date
 GTDEPTH.m              00 000 000 000:  GT Depth
 GTPQH.psia             00 000 000 000:  GT HR Quartz Pressure
 GTTQ.degC              00 000 000 000:  GT Quartz Temperature
 GTTN.NONE              00 000 000 000:  GT Test Number
 GTET.sec               00 000 000 000:  GT Elapsed Test Time
 GTTVD.m                00 000 000 000:  GT True Vertical Depth
#Other Information
#
#WARRANTY: Halliburton will use its best efforts to furnish customers with 
#accurate information and interpretations that are part of, and incident to, the services 
#provided.  However, Halliburton cannot and does not warrant the accuracy 
#or correctness of such information and interpretations.  Under no circumstances should any 
#such information or interpretation be relied upon as the sole basis for any drilling, 
#completion, production, or financial decision or any procedure involving any risk to the 
#safety of any drilling venture, drilling rig or its crew or any other third party.  The 
#Customer has full responsibility for all drilling, completion and production operation.  
#Halliburton makes no representations or warranties, either expressed or 
#implied, including, but not limited to, the implied warranties of merchantability or fitness 
#for a particular purpose, with respect to the services rendered.  In no event will 
#Halliburton be liable for failure to obtain any particular results or for 
#any damages, including, but not limited to, indirect, special or consequential damages, 
#resulting from the use of any information or interpretation provided by Halliburton.
#
~A           TIME           GTDEPTH  GTPQH  GTTQ  GTTN  GTET   GTTVD  
# ...
   05:42:00.542.18-Jan-2020 3717.66 4263.23 78.21 2.00 161.05 2797.70
   05:42:00.742.18-Jan-2020 3717.66 4263.23 78.21 2.00 161.25 2797.70
   05:42:00.942.18-Jan-2020 3717.66 4263.17 78.21 2.00 161.45 2797.70
   05:42:01.143.18-Jan-2020 3717.66 4263.10 78.21 2.00 161.65 2797.70
   05:42:01.343.18-Jan-2020 3717.66 4263.22 78.21 2.00 161.85 2797.70
   05:42:01.543.18-Jan-2020 3717.66 4263.49 78.21 2.00 162.05 2797.70
   05:42:01.743.18-Jan-2020 3717.66 4263.49 78.21 2.00 162.25 2797.70
   05:42:01.943.18-Jan-2020 3717.66 4263.22 78.21 2.00 162.45 2797.70
   05:42:02.143.18-Jan-2020 3717.66 4262.92 78.21 2.00 162.65 2797.70
   05:42:02.343.18-Jan-2020 3717.66 4263.35 78.21 2.00 162.85 2797.70
   05:42:02.543.18-Jan-2020 3717.66 4263.12 78.21 2.00 163.05 2797.70
   05:42:02.743.18-Jan-2020 3717.66 4263.12 78.21 2.00 163.25 2797.70
   05:42:02.943.18-Jan-2020 3717.66 4263.23 78.21 2.00 163.45 2797.70
   05:42:03.143.18-Jan-2020 3717.66 4263.04 78.21 2.00 163.65 2797.70
   05:42:03.343.18-Jan-2020 3717.66 4263.26 78.21 2.00 163.85 2797.70
   05:42:03.543.18-Jan-2020 3717.66 4263.24 78.21 2.00 164.05 2797.70
   05:42:03.743.18-Jan-2020 3717.66 4263.24 78.21 2.00 164.25 2797.70
   05:42:03.943.18-Jan-2020 3717.66 4263.10 78.21 2.00 164.45 2797.70
   05:42:04.143.18-Jan-2020 3717.66 4263.25 78.21 2.00 164.65 2797.70
   05:42:04.343.18-Jan-2020 3717.66 4263.21 78.21 2.00 164.85 2797.70
   05:42:04.543.18-Jan-2020 3717.66 4263.12 78.21 2.00 165.05 2797.70
   05:42:04.744.18-Jan-2020 3717.66 4263.12 78.21 2.00 165.25 2797.70
   05:42:04.944.18-Jan-2020 3717.66 4263.25 78.21 2.00 165.45 2797.70
   05:42:05.144.18-Jan-2020 3717.66 4263.19 78.21 2.00 165.65 2797.70
   05:42:05.344.18-Jan-2020 3717.66 4263.19 78.21 2.00 165.85 2797.70
   05:42:05.544.18-Jan-2020 3717.66 4263.12 78.21 2.00 166.05 2797.70
   05:42:05.744.18-Jan-2020 3717.66 4263.12 78.21 2.00 166.25 2797.70
   05:42:05.944.18-Jan-2020 3717.66 4263.17 78.21 2.00 166.45 2797.70
   05:42:06.144.18-Jan-2020 3717.66 4263.25 78.21 2.00 166.65 2797.70
   05:42:06.344.18-Jan-2020 3717.66 4263.17 78.21 2.00 166.85 2797.70
   05:42:06.544.18-Jan-2020 3717.66 4263.05 78.21 2.00 167.05 2797.70
   05:42:06.744.18-Jan-2020 3717.66 4263.05 78.21 2.00 167.25 2797.70
   05:42:06.944.18-Jan-2020 3717.66 4263.19 78.21 2.00 167.45 2797.70
   05:42:07.144.18-Jan-2020 3717.66 4263.37 78.21 2.00 167.65 2797.70
   05:42:07.344.18-Jan-2020 3717.66 4263.12 78.21 2.00 167.85 2797.70
   05:42:07.544.18-Jan-2020 3717.66 4263.20 78.21 2.00 168.05 2797.70
   05:42:07.744.18-Jan-2020 3717.66 4263.20 78.21 2.00 168.25 2797.70
   05:42:07.944.18-Jan-2020 3717.66 4263.23 78.21 2.00 168.45 2797.70
   05:42:08.145.18-Jan-2020 3717.66 4263.11 78.21 2.00 168.65 2797.70
   05:42:08.345.18-Jan-2020 3717.66 4263.21 78.21 2.00 168.85 2797.70
   05:42:08.545.18-Jan-2020 3717.66 4263.19 78.21 2.00 169.05 2797.70
   05:42:08.745.18-Jan-2020 3717.66 4263.19 78.21 2.00 169.25 2797.70
   05:42:08.945.18-Jan-2020 3717.66 4262.98 78.21 2.00 169.45 2797.70
   05:42:09.145.18-Jan-2020 3717.66 4263.30 78.21 2.00 169.65 2797.70
   05:42:09.345.18-Jan-2020 3717.66 4263.26 78.21 2.00 169.85 2797.70
   05:42:09.545.18-Jan-2020 3717.66 4263.46 78.21 2.00 170.05 2797.70
   05:42:09.745.18-Jan-2020 3717.66 4263.46 78.21 2.00 170.25 2797.70
   05:42:09.945.18-Jan-2020 3717.66 4263.19 78.21 2.00 170.45 2797.70
   05:42:10.145.18-Jan-2020 3717.66 4263.15 78.21 2.00 170.65 2797.70
   05:42:10.345.18-Jan-2020 3717.66 4263.42 78.21 2.00 170.85 2797.70
   05:42:10.545.18-Jan-2020 3717.66 4263.18 78.21 2.00 171.05 2797.70
   05:42:10.745.18-Jan-2020 3717.66 4263.18 78.21 2.00 171.25 2797.70
   05:42:10.945.18-Jan-2020 3717.66 4262.97 78.21 2.00 171.45 2797.70
   05:42:11.145.18-Jan-2020 3717.66 4263.21 78.21 2.00 171.65 2797.70
   05:42:11.345.18-Jan-2020 3717.66 4263.20 78.21 2.00 171.85 2797.70
   05:42:11.545.18-Jan-2020 3717.66 4263.26 78.21 2.00 172.05 2797.70
   05:42:11.746.18-Jan-2020 3717.66 4263.26 78.21 2.00 172.25 2797.70
   05:42:11.946.18-Jan-2020 3717.66 4263.19 78.21 2.00 172.45 2797.70
   05:42:12.146.18-Jan-2020 3717.66 4263.06 78.21 2.00 172.65 2797.70
   05:42:12.346.18-Jan-2020 3717.66 4263.37 78.21 2.00 172.85 2797.70
   05:42:12.546.18-Jan-2020 3717.66 4263.20 78.21 2.00 173.05 2797.70
   05:42:12.746.18-Jan-2020 3717.66 4263.20 78.21 2.00 173.25 2797.70
   05:42:12.946.18-Jan-2020 3717.66 4263.22 78.21 2.00 173.45 2797.70
   05:42:13.146.18-Jan-2020 3717.66 4263.22 78.21 2.00 173.65 2797.70
   05:42:13.346.18-Jan-2020 3717.66 4263.15 78.21 2.00 173.85 2797.70
   05:42:13.546.18-Jan-2020 3717.66 4263.17 78.21 2.00 174.05 2797.70
   05:42:13.746.18-Jan-2020 3717.66 4263.17 78.21 2.00 174.25 2797.70
   05:42:13.946.18-Jan-2020 3717.66 4217.63 78.21 2.00 174.45 2797.70
   05:42:14.146.18-Jan-2020 3717.66 4212.16 78.21 2.00 174.65 2797.70
   05:42:14.346.18-Jan-2020 3717.66 4211.14 78.21 2.00 174.85 2797.70
   05:42:14.546.18-Jan-2020 3717.66 4212.17 78.21 2.00 175.05 2797.70
   05:42:14.746.18-Jan-2020 3717.66 4212.17 78.21 2.00 175.25 2797.70
   05:42:14.946.18-Jan-2020 3717.66 4210.87 78.21 2.00 175.45 2797.70
   05:42:15.146.18-Jan-2020 3717.66 4209.99 78.21 2.00 175.65 2797.70
   05:42:15.347.18-Jan-2020 3717.66 4212.20 78.21 2.00 175.85 2797.70
   05:42:15.547.18-Jan-2020 3717.66 4212.28 78.21 2.00 176.05 2797.70
   05:42:15.747.18-Jan-2020 3717.66 4212.28 78.21 2.00 176.25 2797.70
   05:42:15.947.18-Jan-2020 3717.66 4213.05 78.21 2.00 176.45 2797.70
   05:42:16.147.18-Jan-2020 3717.66 4211.46 78.21 2.00 176.65 2797.70
   05:42:16.347.18-Jan-2020 3717.66 4212.75 78.21 2.00 176.85 2797.70
   05:42:16.547.18-Jan-2020 3717.66 4211.97 78.21 2.00 177.05 2797.70
   05:42:16.747.18-Jan-2020 3717.66 4211.97 78.21 2.00 177.25 2797.70
   05:42:16.947.18-Jan-2020 3717.66 4210.34 78.21 2.00 177.45 2797.70
   05:42:17.147.18-Jan-2020 3717.66 4211.27 78.21 2.00 177.65 2797.70
   05:42:17.347.18-Jan-2020 3717.66 4210.29 78.21 2.00 177.85 2797.70
   05:42:17.547.18-Jan-2020 3717.66 4211.61 78.21 2.00 178.05 2797.70
   05:42:17.747.18-Jan-2020 3717.66 4211.61 78.21 2.00 178.25 2797.70
   05:42:17.947.18-Jan-2020 3717.66 4209.48 78.21 2.00 178.45 2797.70
   05:42:18.147.18-Jan-2020 3717.66 4210.52 78.21 2.00 178.65 2797.70
   05:42:18.347.18-Jan-2020 3717.66 4211.51 78.21 2.00 178.85 2797.70
   05:42:18.547.18-Jan-2020 3717.66 4210.45 78.21 2.00 179.05 2797.70
   05:42:18.748.18-Jan-2020 3717.66 4210.45 78.21 2.00 179.25 2797.70
   05:42:18.948.18-Jan-2020 3717.66 4210.75 78.21 2.00 179.45 2797.70
   05:42:19.148.18-Jan-2020 3717.66 4210.84 78.21 2.00 179.65 2797.70
   05:42:19.348.18-Jan-2020 3717.66 4212.27 78.21 2.00 179.85 2797.70
   05:42:19.548.18-Jan-2020 3717.66 4212.65 78.21 2.00 180.05 2797.70
   05:42:19.748.18-Jan-2020 3717.66 4212.65 78.21 2.00 180.25 2797.70
   05:42:19.948.18-Jan-2020 3717.66 4211.60 78.21 2.00 180.45 2797.70
   05:42:20.148.18-Jan-2020 3717.66 4211.31 78.21 2.00 180.65 2797.70
   05:42:20.348.18-Jan-2020 3717.66 4209.83 78.21 2.00 180.85 2797.70
   05:42:20.548.18-Jan-2020 3717.66 4211.05 78.21 2.00 181.05 2797.70
   05:42:20.748.18-Jan-2020 3717.66 4211.05 78.21 2.00 181.25 2797.70
   05:42:20.948.18-Jan-2020 3717.66 4210.57 78.21 2.00 181.45 2797.70
   05:42:21.148.18-Jan-2020 3717.66 4211.55 78.21 2.00 181.65 2797.70
   05:42:21.348.18-Jan-2020 3717.66 4210.52 78.21 2.00 181.85 2797.70
   05:42:21.548.18-Jan-2020 3717.66 4212.20 78.20 2.00 182.05 2797.70
   05:42:21.748.18-Jan-2020 3717.66 4212.20 78.20 2.00 182.25 2797.70
   05:42:21.948.18-Jan-2020 3717.66 4211.43 78.21 2.00 182.45 2797.70
   05:42:22.148.18-Jan-2020 3717.66 4211.88 78.20 2.00 182.65 2797.70
   05:42:22.349.18-Jan-2020 3717.66 4209.44 78.20 2.00 182.85 2797.70
   05:42:22.549.18-Jan-2020 3717.66 4211.51 78.21 2.00 183.05 2797.70
   05:42:22.749.18-Jan-2020 3717.66 4211.51 78.21 2.00 183.25 2797.70
   05:42:22.949.18-Jan-2020 3717.66 4211.16 78.20 2.00 183.45 2797.70
   05:42:23.149.18-Jan-2020 3717.66 4211.47 78.20 2.00 183.65 2797.70
   05:42:23.349.18-Jan-2020 3717.66 4210.22 78.20 2.00 183.85 2797.70
