~Version Information
 VERS.                  2.0:   CWLS log ASCII Standard -VERSION 2.0
 WRAP.                   NO:   One line per depth step
~Well Information Block
#MNEM.UNIT     VALUE/NAME     DESCRIPTION
#---------     -----------    ---------------------------
 STRT.S             17:36:42 18-Jan-20: START TIME 17:36:42 18-Jan-20
 STOP.S             17:44:57 18-Jan-20: STOP TIME  17:44:57 18-Jan-20
 STEP.S                   0.00: STEP TIME
 NULL.                 -999.25: NULL VALUE
 DFWT.                        :  DIST FWL TEXT
 DFST.                        :  DIST FSL TEXT
 DMF .             Drill Floor:  DRILL MEAS FROM
 STIM.      09.30.00 26-Dec-19:  START TIME
 DATE.      08.00.00 20-Jan-20:  END TIME
 SPUD.               23-Nov-19:  SPUD DATE
 NREF.                    Grid:  NORTH REFERENCE
 HPTY.       Minimum Curvature:  HOLE POS TYPE
 DMOD.             Drill Model:  DRILL MOD DESC
 SVYD.                  Survey:  SURVEY DESC
 ILTD.               Lithology:  INTERP LTH DESC
 FTOP.          Formation Tops:  FORM TOPS DESC
 SON .        AZ-XX-0906192647:  JOB NUMBER
 WTYP.                Deviated:  WELL TYPE
 COMP.     BP Exploration (Caspian Sea) Ltd:  COMPANY
 BASE.              Azerbaijan:  LOGGING EQUIPMENT BASE LOCATION
 REGN.                 Eurasia:  REGION
 FLD .                     ACG:  FIELD NAME
 SRVC.              KCA Deutag:  CONTRACTOR
 MWDS.                    Baku:  MWD SHOP
 WELL.     A10 (Slot 20) - SCP:  WELL NAME
 JOBN.        AZ-XX-0906192647:  JOB TICKET NUMB
 RIG .                 Chirag1:  RIG NAME
 DCON.     Halliburton Sperry Drilling:  DIRECTNL CONTR
 UNIT.                     N/A:  LOGGING EQUIPMENT ID
 PDAT.          Mean Sea Level:  PERMANENT DATUM
 MDS .        Operator Entered:  MAG DATA SOURCE
 CTRY.              Azerbaijan:  COUNTRY NAME
 UWI .            /AZE00000090:  UNIQUE WELL IDENTIFIER
 API .            /AZE00000090:  API NUMBER
 CNTY.                        :  COUNTY
 PROV.                        :  PROVINCE
 STAT.                        :  STATE
 LOC .                        :  LOCATION
 LMF .             Drill Floor:  LOG MEASURED FROM
 TVDS.m                  36.60:  TVDSS CORRECTN
 LATI.deg                40.08:  LATITUDE
 LONG.deg                51.24:  LONGITUDE
 WHNS.m                  -7.94:  WELL HEAD N/S
 WHEW.m                   1.56:  WELL HEAD E/W
 UTMX.m              520429.26:  UTM X
 UTMY.m             4438973.87:  UTM Y
 DFWL.m                   0.00:  DISTANCE FWL
 DFSL.m                   0.00:  DISTANCE FSL
 SDEP.m                1455.00:  START DEPTH
 TDD .m                3878.01:  TOTAL DEPTH (DRILLER)
 VSDR.deg               112.75:  VERT SEC DIRECT
 GVFD.g                   1.00:  GRAVITY FIELD
 MFLD.nT              50256.00:  MAGNETIC FIELD
 MDIP.deg                59.52:  MAGNETIC DIP
 MDEC.deg                 6.43:  MAGNETIC DECL
 GRDC.deg                 0.16:  GRID CORRECTION
 AZTC.deg                 6.27:  AZM TOTAL CORR
 EPD .m                   0.00:  ELEVATION
 EGL .m                   0.00:  GROUND ELEVATION
 WDMS.m                 121.00:  WD ELEV
 APD .m                  36.60:  DEPTH ABOVE PD
 AGAP.m                  36.60:  AIR GAP
 VSEW.m                   1.56:  VERT SEC E/W
 VSNS.m                  -7.94:  VERT SEC N/S
 DEP .m                1140.01:  DEPTH
 EKB .m                  36.60:  KB ELEVATION
 EDF .m                  36.60:  DF ELEVATION
 TDL .m                1293.00:  TOTAL DEPTH (LOGGER)
 VSC .                       0:  VS TO CLOSURE
 MAGU.                 1849164:  MAGUTM CHECKSUM
~Parameter Information Block
#MNEM.UNIT       Value        Description
#---------     -----------    ---------------------------
 AV  .mps                 2.40:  Ann Velocity 
 AVMX.mps                 2.55:  Max Ann Veloc 
 AZIF.deg               134.35:  Azm, Final 
 BHAT.        Rotary Steerable:  BHA Type 
 BREV.rev               847.00:  Rev Bit Total 
 BROT.°/30m              -2.51:  Build Rotating 
 BS  .in                  8.50:  Bit Size 
 BSZ .in                  8.50:  Bit Size 
 BTPL.psig              700.00:  Bit Press Loss 
 CABU.                     Yes:  Customer Abuse 
 CGEO.          Ilgar Gurbanov:  Customer Geo 
 COMM.                     Ä_:  Run Comments 1 
 TCS .hr                140.40:  Time Ciculation Ended 
 CV  .mps                 2.27:  Crit Velocity 
 CVMX.mps                 2.45:  Max Crit Veloc 
 DD1 .         Intigam Rahimov:  Direct Drillr 1 
 DD2 .         Rasim Ibrahimov:  Direct Drillr 2 
 DDSV.                 iCruise:  DD Service 
 DEFF.%                  99.00:  % Det Eff 
 DLRX.°/30m               3.28:  Dogleg Rot Max 
 DLSO.°/30m               0.00:  Dogleg Oriented 
 DLSX.°/30m               0.00:  Dogleg Str Max 
 DRET.      23.30.00 18-Jan-20:  Drill End Time 
 DRST.      01.45.00 11-Jan-20:  Drill Start Tim 
 DTIM.hr                 94.00:  Time Drilling 
 EDEP.m                3878.01:  End Depth 
 ENG1.       Dauren Baktybayev:  Engineer 1 
 ENG2.      Natik Hasanaghayev:  Engineer 2 
 ENG3.          Rustam Safarov:  Engineer 3 
 ETIM.      08.00.00 20-Jan-20:  End Time 
 FLOI.gpm               532.00:  Flow In 
 FLON.gpm               500.00:  Flow In Min 
 FLOS.cptm                0.00:  Fluid Loss 
 FLOX.gpm               540.00:  Flow In Max 
 FTRO.       Formation Presure:  FTWD Run Obj 
 HPRE.                     Yes:  High Pressure 
 HTEM.                      No:  High Temp 
 HYDO.m                   1.80:  Hydro Offset 
 IFIN.deg                39.86:  Inc, Final 
 IMAX.deg                59.73:  Inc Max 
 IMIN.deg                39.25:  Inc Min 
 IMND.m                3816.77:  Inc Min Depth 
 IMXD.m                2596.33:  Inc Max Depth 
 JARR.                      No:  Jarring 
 LETM.      23.30.00 18-Jan-20:  Log End Time 
 LOST.hr                     0:  Lost Rig Time 
 LSTM.      01.45.00 11-Jan-20:  Log Start Time 
 MDCL.ppm             41500.00:  Mud Chlorides 
 MDES.     Inversion Oil/Synthetic:  Mud Desc 
 DFD .sg                  1.48:  Mud Density 
 MDMN.sg                  1.48:  Dens Mud Min 
 MDMX.sg                  1.48:  Dens Mud Max 
 MOIL.                      54:  Run Mud Oil % 
 MOWR.                   72:28:  Run Mud OWR 
 MSND.                       0:  Run Mud Sand % 
 MSOL.                      23:  Run Mud Solids% 
 DFV .spqt               86.00:  Mud Viscosity 
 MWOD.in                  6.75:  MWD Tool OD 
 MWSI.                      No:  Serv Intrp, MWD 
 OTIM.hr                223.40:  Time Operating 
 PCON.           Look Like New:  Pad Condition 
 PMAX.psia            32446.79:  Press Op, Max 
 PV  .cP                 49.00:  Mud PV 
 RUN .                     200:  Run Number 
 ROPA.m/hr               12.48:  ROP Avg 
 ROPN.m/hr                8.00:  ROP Min 
 ROPX.m/hr               27.00:  ROP Max 
 RPMA.rpm               121.00:  RPM Surface Avg 
 RPMN.rpm                60.00:  RPM Surface Min 
 RPMX.rpm               140.00:  RPM Surface Max 
 RRUN.                    L202:  Rig Run Number 
 RTIM.hr                  7.25:  Time Reaming 
 SAZI.deg               123.49:  Azm, Start 
 SDEP.m                2585.01:  Start Depth 
 SIDD.                      No:  Serv Intrp, DD 
 SINC.deg                59.93:  Inc, Start 
 SPPA.psig             3539.00:  SPP Avg 
 SPPN.psig             3050.00:  SPP Min 
 SPPX.psig             3950.00:  SPP Max 
 STIM.      19.00.00 10-Jan-20:  Start Time 
 SVCS.                 DD, MWD:  Services 
 SVER.                    9.20:  Sperry Version 
 TDAT.m                1293.00:  Tot Depth Attmp 
 TDDF.                      No:  Trip for DD 
 TDLG.m                1293.00:  Tot Depth Loggd 
 TFF .                      No:  Trip for Fail 
 TQAA.f-kp               16.00:  Torque Abs Avg 
 TQAN.f-kp               11.00:  Torque Abs Min 
 TQAX.f-kp               18.00:  Torque Abs Max 
 TRRT.°/30m               1.25:  Turn Rotating 
 MRT .                  EWR-M5:  Maximum Recorded Temperature 
 TTMX.degC               84.00:  Max Tool Temp 
 VS01.          AZ90514619R5C6:  Virtual Str1 SN 
 VS02.        AZ90552592N2L2C6:  Virtual Str2 SN 
 VS03.        AZ90571337Z1W1C6:  Virtual Str3 SN 
 VS04.         AZ90513690K23C6:  Virtual Str4 SN 
 VS05.           AZ90594857F11:  Virtual Str5 SN 
 VS06.                13102166:  Virtual Str6 SN 
 WBMN.klb                 7.00:  WOB Min 
 WITN.            Peter Wilson:  Customer Rep 
 WOBA.klb                 9.95:  WOB Avg 
 WOBX.klb                10.00:  WOB Max 
 YP  .lhf2               36.00:  Yield Point 
~Curve Information Block
#MNEM.UNIT                 API CODE     Curve Description
#---------               -----------    ---------------------------
 TIME.HHMMSS            00 000 000 000:  GT Time & Date
 GTDEPTH.m              00 000 000 000:  GT Depth
 GTPQH.psia             00 000 000 000:  GT HR Quartz Pressure
 GTTQ.degC              00 000 000 000:  GT Quartz Temperature
 GTTN.NONE              00 000 000 000:  GT Test Number
 GTET.sec               00 000 000 000:  GT Elapsed Test Time
 GTTVD.m                00 000 000 000:  GT True Vertical Depth
#Other Information
#
#WARRANTY: Halliburton will use its best efforts to furnish customers with 
#accurate information and interpretations that are part of, and incident to, the services 
#provided.  However, Halliburton cannot and does not warrant the accuracy 
#or correctness of such information and interpretations.  Under no circumstances should any 
#such information or interpretation be relied upon as the sole basis for any drilling, 
#completion, production, or financial decision or any procedure involving any risk to the 
#safety of any drilling venture, drilling rig or its crew or any other third party.  The 
#Customer has full responsibility for all drilling, completion and production operation.  
#Halliburton makes no representations or warranties, either expressed or 
#implied, including, but not limited to, the implied warranties of merchantability or fitness 
#for a particular purpose, with respect to the services rendered.  In no event will 
#Halliburton be liable for failure to obtain any particular results or for 
#any damages, including, but not limited to, indirect, special or consequential damages, 
#resulting from the use of any information or interpretation provided by Halliburton.
#
~A           TIME           GTDEPTH  GTPQH  GTTQ  GTTN  GTET   GTTVD  
# ...
   17:44:22.927.18-Jan-2020 3785.01 6491.37 81.70 6.00 460.03 2848.88
   17:44:23.127.18-Jan-2020 3785.01 6491.37 81.70 6.00 460.23 2848.88
   17:44:23.327.18-Jan-2020 3785.01 6489.68 81.70 6.00 460.43 2848.88
   17:44:23.527.18-Jan-2020 3785.01 6489.27 81.71 6.00 460.63 2848.88
   17:44:23.727.18-Jan-2020 3785.01 6496.97 81.71 6.00 460.83 2848.88
   17:44:23.927.18-Jan-2020 3785.01 6490.97 81.71 6.00 461.03 2848.88
   17:44:24.127.18-Jan-2020 3785.01 6490.97 81.71 6.00 461.23 2848.88
   17:44:24.327.18-Jan-2020 3785.01 6489.35 81.71 6.00 461.43 2848.88
   17:44:24.527.18-Jan-2020 3785.01 6489.62 81.71 6.00 461.63 2848.88
   17:44:24.727.18-Jan-2020 3785.01 6487.48 81.71 6.00 461.83 2848.88
   17:44:24.927.18-Jan-2020 3785.01 6499.79 81.71 6.00 462.03 2848.88
   17:44:25.127.18-Jan-2020 3785.01 6499.79 81.71 6.00 462.23 2848.88
   17:44:25.327.18-Jan-2020 3785.01 6490.32 81.71 6.00 462.43 2848.88
   17:44:25.527.18-Jan-2020 3785.01 6490.43 81.71 6.00 462.63 2848.88
   17:44:25.727.18-Jan-2020 3785.01 6491.34 81.71 6.00 462.83 2848.88
   17:44:25.927.18-Jan-2020 3785.01 6491.81 81.71 6.00 463.03 2848.88
   17:44:26.127.18-Jan-2020 3785.01 6491.81 81.71 6.00 463.23 2848.88
   17:44:26.327.18-Jan-2020 3785.01 6489.90 81.71 6.00 463.43 2848.88
   17:44:26.527.18-Jan-2020 3785.01 6491.28 81.71 6.00 463.63 2848.88
   17:44:26.727.18-Jan-2020 3785.01 6490.93 81.71 6.00 463.83 2848.88
   17:44:26.927.18-Jan-2020 3785.01 6491.23 81.71 6.00 464.03 2848.88
   17:44:27.127.18-Jan-2020 3785.01 6491.23 81.71 6.00 464.23 2848.88
   17:44:27.327.18-Jan-2020 3785.01 6490.92 81.71 6.00 464.43 2848.88
   17:44:27.527.18-Jan-2020 3785.01 6490.23 81.71 6.00 464.63 2848.88
   17:44:27.727.18-Jan-2020 3785.01 6489.58 81.71 6.00 464.83 2848.88
   17:44:27.927.18-Jan-2020 3785.01 6491.74 81.71 6.00 465.03 2848.88
   17:44:28.127.18-Jan-2020 3785.01 6491.74 81.71 6.00 465.23 2848.88
   17:44:28.327.18-Jan-2020 3785.01 6496.63 81.71 6.00 465.43 2848.88
   17:44:28.527.18-Jan-2020 3785.01 6491.94 81.71 6.00 465.63 2848.88
   17:44:28.727.18-Jan-2020 3785.01 6491.18 81.71 6.00 465.83 2848.88
   17:44:28.927.18-Jan-2020 3785.01 6492.52 81.71 6.00 466.03 2848.88
   17:44:29.127.18-Jan-2020 3785.01 6492.52 81.71 6.00 466.23 2848.88
   17:44:29.327.18-Jan-2020 3785.01 6491.38 81.71 6.00 466.43 2848.88
   17:44:29.527.18-Jan-2020 3785.01 6490.64 81.71 6.00 466.63 2848.88
   17:44:29.727.18-Jan-2020 3785.01 6490.04 81.71 6.00 466.83 2848.88
   17:44:29.927.18-Jan-2020 3785.01 6489.62 81.71 6.00 467.03 2848.88
   17:44:30.128.18-Jan-2020 3785.01 6489.62 81.71 6.00 467.23 2848.88
   17:44:30.328.18-Jan-2020 3785.01 6489.52 81.71 6.00 467.43 2848.88
   17:44:30.528.18-Jan-2020 3785.01 6489.22 81.71 6.00 467.63 2848.88
   17:44:30.728.18-Jan-2020 3785.01 6488.77 81.71 6.00 467.83 2848.88
   17:44:30.928.18-Jan-2020 3785.01 6495.89 81.71 6.00 468.03 2848.88
   17:44:31.128.18-Jan-2020 3785.01 6495.89 81.71 6.00 468.23 2848.88
   17:44:31.328.18-Jan-2020 3785.01 6490.42 81.71 6.00 468.43 2848.88
   17:44:31.528.18-Jan-2020 3785.01 6497.79 81.71 6.00 468.63 2848.88
   17:44:31.728.18-Jan-2020 3785.01 6492.77 81.71 6.00 468.83 2848.88
   17:44:31.928.18-Jan-2020 3785.01 6489.65 81.71 6.00 469.03 2848.88
   17:44:32.128.18-Jan-2020 3785.01 6489.65 81.71 6.00 469.23 2848.88
   17:44:32.328.18-Jan-2020 3785.01 6489.87 81.71 6.00 469.43 2848.88
   17:44:32.528.18-Jan-2020 3785.01 6490.14 81.71 6.00 469.63 2848.88
   17:44:32.728.18-Jan-2020 3785.01 6490.47 81.71 6.00 469.83 2848.88
   17:44:32.928.18-Jan-2020 3785.01 6495.91 81.71 6.00 470.03 2848.88
   17:44:33.128.18-Jan-2020 3785.01 6495.91 81.71 6.00 470.23 2848.88
   17:44:33.328.18-Jan-2020 3785.01 6488.89 81.71 6.00 470.43 2848.88
   17:44:33.528.18-Jan-2020 3785.01 6488.71 81.70 6.00 470.63 2848.88
   17:44:33.728.18-Jan-2020 3785.01 6499.60 81.70 6.00 470.83 2848.88
   17:44:33.928.18-Jan-2020 3785.01 6490.60 81.70 6.00 471.03 2848.88
   17:44:34.128.18-Jan-2020 3785.01 6490.60 81.70 6.00 471.23 2848.88
   17:44:34.328.18-Jan-2020 3785.01 6491.10 81.70 6.00 471.43 2848.88
   17:44:34.528.18-Jan-2020 3785.01 6490.46 81.70 6.00 471.63 2848.88
   17:44:34.728.18-Jan-2020 3785.01 6491.06 81.70 6.00 471.83 2848.88
   17:44:34.928.18-Jan-2020 3785.01 6491.54 81.70 6.00 472.04 2848.88
   17:44:35.128.18-Jan-2020 3785.01 6491.54 81.70 6.00 472.24 2848.88
   17:44:35.328.18-Jan-2020 3785.01 6489.31 81.70 6.00 472.44 2848.88
   17:44:35.528.18-Jan-2020 3785.01 6487.69 81.70 6.00 472.64 2848.88
   17:44:35.728.18-Jan-2020 3785.01 6490.28 81.70 6.00 472.84 2848.88
   17:44:35.928.18-Jan-2020 3785.01 6491.20 81.70 6.00 473.04 2848.88
   17:44:36.128.18-Jan-2020 3785.01 6491.20 81.70 6.00 473.24 2848.88
   17:44:36.328.18-Jan-2020 3785.01 6488.70 81.70 6.00 473.44 2848.88
   17:44:36.528.18-Jan-2020 3785.01 6487.67 81.70 6.00 473.64 2848.88
   17:44:36.728.18-Jan-2020 3785.01 6489.62 81.70 6.00 473.84 2848.88
   17:44:36.928.18-Jan-2020 3785.01 6489.17 81.70 6.00 474.04 2848.88
   17:44:37.128.18-Jan-2020 3785.01 6489.17 81.70 6.00 474.24 2848.88
   17:44:37.328.18-Jan-2020 3785.01 6495.17 81.70 6.00 474.44 2848.88
   17:44:37.528.18-Jan-2020 3785.01 6491.50 81.70 6.00 474.64 2848.88
   17:44:37.728.18-Jan-2020 3785.01 6488.07 81.70 6.00 474.84 2848.88
   17:44:37.928.18-Jan-2020 3785.01 6488.95 81.70 6.00 475.04 2848.88
   17:44:38.128.18-Jan-2020 3785.01 6488.95 81.70 6.00 475.24 2848.88
   17:44:38.328.18-Jan-2020 3785.01 6489.99 81.70 6.00 475.44 2848.88
   17:44:38.528.18-Jan-2020 3785.01 6487.80 81.70 6.00 475.64 2848.88
   17:44:38.728.18-Jan-2020 3785.01 6488.19 81.70 6.00 475.84 2848.88
   17:44:38.928.18-Jan-2020 3785.01 6489.16 81.69 6.00 476.04 2848.88
   17:44:39.128.18-Jan-2020 3785.01 6489.16 81.69 6.00 476.24 2848.88
   17:44:39.328.18-Jan-2020 3785.01 6488.71 81.69 6.00 476.44 2848.88
   17:44:39.528.18-Jan-2020 3785.01 6487.65 81.69 6.00 476.64 2848.88
   17:44:39.728.18-Jan-2020 3785.01 6498.17 81.69 6.00 476.84 2848.88
   17:44:39.928.18-Jan-2020 3785.01 6483.87 81.69 6.00 477.04 2848.88
   17:44:40.128.18-Jan-2020 3785.01 6483.87 81.69 6.00 477.24 2848.88
   17:44:40.328.18-Jan-2020 3785.01 6497.95 81.69 6.00 477.44 2848.88
   17:44:40.528.18-Jan-2020 3785.01 6492.84 81.69 6.00 477.64 2848.88
   17:44:40.728.18-Jan-2020 3785.01 6488.75 81.69 6.00 477.84 2848.88
   17:44:40.928.18-Jan-2020 3785.01 6490.60 81.69 6.00 478.04 2848.88
   17:44:41.128.18-Jan-2020 3785.01 6490.60 81.69 6.00 478.24 2848.88
   17:44:41.328.18-Jan-2020 3785.01 6489.04 81.69 6.00 478.44 2848.88
   17:44:41.528.18-Jan-2020 3785.01 6494.62 81.69 6.00 478.64 2848.88
   17:44:41.728.18-Jan-2020 3785.01 6489.79 81.69 6.00 478.84 2848.88
   17:44:41.928.18-Jan-2020 3785.01 6489.56 81.69 6.00 479.04 2848.88
   17:44:42.128.18-Jan-2020 3785.01 6489.56 81.69 6.00 479.24 2848.88
   17:44:42.328.18-Jan-2020 3785.01 6488.49 81.69 6.00 479.44 2848.88
   17:44:42.528.18-Jan-2020 3785.01 6489.12 81.69 6.00 479.64 2848.88
   17:44:42.728.18-Jan-2020 3785.01 6491.58 81.69 6.00 479.84 2848.88
   17:44:42.928.18-Jan-2020 3785.01 6487.27 81.69 6.00 480.04 2848.88
   17:44:43.128.18-Jan-2020 3785.01 6487.27 81.69 6.00 480.24 2848.88
   17:44:43.328.18-Jan-2020 3785.01 6489.65 81.69 6.00 480.44 2848.88
   17:44:43.528.18-Jan-2020 3785.01 6490.72 81.69 6.00 480.64 2848.88
   17:44:43.729.18-Jan-2020 3785.01 6490.81 81.69 6.00 480.84 2848.88
   17:44:43.929.18-Jan-2020 3785.01 6490.24 81.69 6.00 481.04 2848.88
   17:44:44.129.18-Jan-2020 3785.01 6490.24 81.69 6.00 481.24 2848.88
   17:44:44.329.18-Jan-2020 3785.01 6487.97 81.69 6.00 481.44 2848.88
   17:44:44.529.18-Jan-2020 3785.01 6491.60 81.68 6.00 481.64 2848.88
   17:44:44.729.18-Jan-2020 3785.01 6490.63 81.68 6.00 481.84 2848.88
   17:44:44.929.18-Jan-2020 3785.01 6491.05 81.68 6.00 482.04 2848.88
   17:44:45.129.18-Jan-2020 3785.01 6491.05 81.68 6.00 482.24 2848.88
   17:44:45.329.18-Jan-2020 3785.01 6491.37 81.68 6.00 482.44 2848.88
   17:44:45.529.18-Jan-2020 3785.01 6489.13 81.68 6.00 482.64 2848.88
   17:44:45.729.18-Jan-2020 3785.01 6499.98 81.68 6.00 482.84 2848.88
