~Version Information
 VERS.                  2.0:   CWLS log ASCII Standard -VERSION 2.0
 WRAP.                   NO:   One line per depth step
~Well Information Block
#MNEM.UNIT     VALUE/NAME     DESCRIPTION
#---------     -----------    ---------------------------
 STRT.S             13:51:43 18-Jan-20: START TIME 13:51:43 18-Jan-20
 STOP.S             13:59:59 18-Jan-20: STOP TIME  13:59:59 18-Jan-20
 STEP.S                   0.00: STEP TIME
 NULL.                 -999.25: NULL VALUE
 DFWT.                        :  DIST FWL TEXT
 DFST.                        :  DIST FSL TEXT
 DMF .             Drill Floor:  DRILL MEAS FROM
 STIM.      09.30.00 26-Dec-19:  START TIME
 DATE.      08.00.00 20-Jan-20:  END TIME
 SPUD.               23-Nov-19:  SPUD DATE
 NREF.                    Grid:  NORTH REFERENCE
 HPTY.       Minimum Curvature:  HOLE POS TYPE
 DMOD.             Drill Model:  DRILL MOD DESC
 SVYD.                  Survey:  SURVEY DESC
 ILTD.               Lithology:  INTERP LTH DESC
 FTOP.          Formation Tops:  FORM TOPS DESC
 SON .        AZ-XX-0906192647:  JOB NUMBER
 WTYP.                Deviated:  WELL TYPE
 COMP.     BP Exploration (Caspian Sea) Ltd:  COMPANY
 BASE.              Azerbaijan:  LOGGING EQUIPMENT BASE LOCATION
 REGN.                 Eurasia:  REGION
 FLD .                     ACG:  FIELD NAME
 SRVC.              KCA Deutag:  CONTRACTOR
 MWDS.                    Baku:  MWD SHOP
 WELL.     A10 (Slot 20) - SCP:  WELL NAME
 JOBN.        AZ-XX-0906192647:  JOB TICKET NUMB
 RIG .                 Chirag1:  RIG NAME
 DCON.     Halliburton Sperry Drilling:  DIRECTNL CONTR
 UNIT.                     N/A:  LOGGING EQUIPMENT ID
 PDAT.          Mean Sea Level:  PERMANENT DATUM
 MDS .        Operator Entered:  MAG DATA SOURCE
 CTRY.              Azerbaijan:  COUNTRY NAME
 UWI .            /AZE00000090:  UNIQUE WELL IDENTIFIER
 API .            /AZE00000090:  API NUMBER
 CNTY.                        :  COUNTY
 PROV.                        :  PROVINCE
 STAT.                        :  STATE
 LOC .                        :  LOCATION
 LMF .             Drill Floor:  LOG MEASURED FROM
 TVDS.m                  36.60:  TVDSS CORRECTN
 LATI.deg                40.08:  LATITUDE
 LONG.deg                51.24:  LONGITUDE
 WHNS.m                  -7.94:  WELL HEAD N/S
 WHEW.m                   1.56:  WELL HEAD E/W
 UTMX.m              520429.26:  UTM X
 UTMY.m             4438973.87:  UTM Y
 DFWL.m                   0.00:  DISTANCE FWL
 DFSL.m                   0.00:  DISTANCE FSL
 SDEP.m                1455.00:  START DEPTH
 TDD .m                3878.01:  TOTAL DEPTH (DRILLER)
 VSDR.deg               112.75:  VERT SEC DIRECT
 GVFD.g                   1.00:  GRAVITY FIELD
 MFLD.nT              50256.00:  MAGNETIC FIELD
 MDIP.deg                59.52:  MAGNETIC DIP
 MDEC.deg                 6.43:  MAGNETIC DECL
 GRDC.deg                 0.16:  GRID CORRECTION
 AZTC.deg                 6.27:  AZM TOTAL CORR
 EPD .m                   0.00:  ELEVATION
 EGL .m                   0.00:  GROUND ELEVATION
 WDMS.m                 121.00:  WD ELEV
 APD .m                  36.60:  DEPTH ABOVE PD
 AGAP.m                  36.60:  AIR GAP
 VSEW.m                   1.56:  VERT SEC E/W
 VSNS.m                  -7.94:  VERT SEC N/S
 DEP .m                1140.01:  DEPTH
 EKB .m                  36.60:  KB ELEVATION
 EDF .m                  36.60:  DF ELEVATION
 TDL .m                1293.00:  TOTAL DEPTH (LOGGER)
 VSC .                       0:  VS TO CLOSURE
 MAGU.                 1849164:  MAGUTM CHECKSUM
~Parameter Information Block
#MNEM.UNIT       Value        Description
#---------     -----------    ---------------------------
 AV  .mps                 2.40:  Ann Velocity 
 AVMX.mps                 2.55:  Max Ann Veloc 
 AZIF.deg               134.35:  Azm, Final 
 BHAT.        Rotary Steerable:  BHA Type 
 BREV.rev               847.00:  Rev Bit Total 
 BROT.°/30m              -2.51:  Build Rotating 
 BS  .in                  8.50:  Bit Size 
 BSZ .in                  8.50:  Bit Size 
 BTPL.psig              700.00:  Bit Press Loss 
 CABU.                     Yes:  Customer Abuse 
 CGEO.          Ilgar Gurbanov:  Customer Geo 
 COMM.                     üÓ~:  Run Comments 1 
 TCS .hr                140.40:  Time Ciculation Ended 
 CV  .mps                 2.27:  Crit Velocity 
 CVMX.mps                 2.45:  Max Crit Veloc 
 DD1 .         Intigam Rahimov:  Direct Drillr 1 
 DD2 .         Rasim Ibrahimov:  Direct Drillr 2 
 DDSV.                 iCruise:  DD Service 
 DEFF.%                  99.00:  % Det Eff 
 DLRX.°/30m               3.28:  Dogleg Rot Max 
 DLSO.°/30m               0.00:  Dogleg Oriented 
 DLSX.°/30m               0.00:  Dogleg Str Max 
 DRET.      23.30.00 18-Jan-20:  Drill End Time 
 DRST.      01.45.00 11-Jan-20:  Drill Start Tim 
 DTIM.hr                 94.00:  Time Drilling 
 EDEP.m                3878.01:  End Depth 
 ENG1.       Dauren Baktybayev:  Engineer 1 
 ENG2.      Natik Hasanaghayev:  Engineer 2 
 ENG3.          Rustam Safarov:  Engineer 3 
 ETIM.      08.00.00 20-Jan-20:  End Time 
 FLOI.gpm               532.00:  Flow In 
 FLON.gpm               500.00:  Flow In Min 
 FLOS.cptm                0.00:  Fluid Loss 
 FLOX.gpm               540.00:  Flow In Max 
 FTRO.       Formation Presure:  FTWD Run Obj 
 HPRE.                     Yes:  High Pressure 
 HTEM.                      No:  High Temp 
 HYDO.m                   1.80:  Hydro Offset 
 IFIN.deg                39.86:  Inc, Final 
 IMAX.deg                59.73:  Inc Max 
 IMIN.deg                39.25:  Inc Min 
 IMND.m                3816.77:  Inc Min Depth 
 IMXD.m                2596.33:  Inc Max Depth 
 JARR.                      No:  Jarring 
 LETM.      23.30.00 18-Jan-20:  Log End Time 
 LOST.hr                     0:  Lost Rig Time 
 LSTM.      01.45.00 11-Jan-20:  Log Start Time 
 MDCL.ppm             41500.00:  Mud Chlorides 
 MDES.     Inversion Oil/Synthetic:  Mud Desc 
 DFD .sg                  1.48:  Mud Density 
 MDMN.sg                  1.48:  Dens Mud Min 
 MDMX.sg                  1.48:  Dens Mud Max 
 MOIL.                      54:  Run Mud Oil % 
 MOWR.                   72:28:  Run Mud OWR 
 MSND.                       0:  Run Mud Sand % 
 MSOL.                      23:  Run Mud Solids% 
 DFV .spqt               86.00:  Mud Viscosity 
 MWOD.in                  6.75:  MWD Tool OD 
 MWSI.                      No:  Serv Intrp, MWD 
 OTIM.hr                223.40:  Time Operating 
 PCON.           Look Like New:  Pad Condition 
 PMAX.psia            32446.79:  Press Op, Max 
 PV  .cP                 49.00:  Mud PV 
 RUN .                     200:  Run Number 
 ROPA.m/hr               12.48:  ROP Avg 
 ROPN.m/hr                8.00:  ROP Min 
 ROPX.m/hr               27.00:  ROP Max 
 RPMA.rpm               121.00:  RPM Surface Avg 
 RPMN.rpm                60.00:  RPM Surface Min 
 RPMX.rpm               140.00:  RPM Surface Max 
 RRUN.                    L202:  Rig Run Number 
 RTIM.hr                  7.25:  Time Reaming 
 SAZI.deg               123.49:  Azm, Start 
 SDEP.m                2585.01:  Start Depth 
 SIDD.                      No:  Serv Intrp, DD 
 SINC.deg                59.93:  Inc, Start 
 SPPA.psig             3539.00:  SPP Avg 
 SPPN.psig             3050.00:  SPP Min 
 SPPX.psig             3950.00:  SPP Max 
 STIM.      19.00.00 10-Jan-20:  Start Time 
 SVCS.                 DD, MWD:  Services 
 SVER.                    9.20:  Sperry Version 
 TDAT.m                1293.00:  Tot Depth Attmp 
 TDDF.                      No:  Trip for DD 
 TDLG.m                1293.00:  Tot Depth Loggd 
 TFF .                      No:  Trip for Fail 
 TQAA.f-kp               16.00:  Torque Abs Avg 
 TQAN.f-kp               11.00:  Torque Abs Min 
 TQAX.f-kp               18.00:  Torque Abs Max 
 TRRT.°/30m               1.25:  Turn Rotating 
 MRT .                  EWR-M5:  Maximum Recorded Temperature 
 TTMX.degC               84.00:  Max Tool Temp 
 VS01.          AZ90514619R5C6:  Virtual Str1 SN 
 VS02.        AZ90552592N2L2C6:  Virtual Str2 SN 
 VS03.        AZ90571337Z1W1C6:  Virtual Str3 SN 
 VS04.         AZ90513690K23C6:  Virtual Str4 SN 
 VS05.           AZ90594857F11:  Virtual Str5 SN 
 VS06.                13102166:  Virtual Str6 SN 
 WBMN.klb                 7.00:  WOB Min 
 WITN.            Peter Wilson:  Customer Rep 
 WOBA.klb                 9.95:  WOB Avg 
 WOBX.klb                10.00:  WOB Max 
 YP  .lhf2               36.00:  Yield Point 
~Curve Information Block
#MNEM.UNIT                 API CODE     Curve Description
#---------               -----------    ---------------------------
 TIME.HHMMSS            00 000 000 000:  GT Time & Date
 GTDEPTH.m              00 000 000 000:  GT Depth
 GTPQH.psia             00 000 000 000:  GT HR Quartz Pressure
 GTTQ.degC              00 000 000 000:  GT Quartz Temperature
 GTTN.NONE              00 000 000 000:  GT Test Number
 GTET.sec               00 000 000 000:  GT Elapsed Test Time
 GTTVD.m                00 000 000 000:  GT True Vertical Depth
#Other Information
#
#WARRANTY: Halliburton will use its best efforts to furnish customers with 
#accurate information and interpretations that are part of, and incident to, the services 
#provided.  However, Halliburton cannot and does not warrant the accuracy 
#or correctness of such information and interpretations.  Under no circumstances should any 
#such information or interpretation be relied upon as the sole basis for any drilling, 
#completion, production, or financial decision or any procedure involving any risk to the 
#safety of any drilling venture, drilling rig or its crew or any other third party.  The 
#Customer has full responsibility for all drilling, completion and production operation.  
#Halliburton makes no representations or warranties, either expressed or 
#implied, including, but not limited to, the implied warranties of merchantability or fitness 
#for a particular purpose, with respect to the services rendered.  In no event will 
#Halliburton be liable for failure to obtain any particular results or for 
#any damages, including, but not limited to, indirect, special or consequential damages, 
#resulting from the use of any information or interpretation provided by Halliburton.
#
~A           TIME           GTDEPTH  GTPQH  GTTQ  GTTN  GTET   GTTVD  
# ...
   13:54:24.582.18-Jan-2020 3754.01 3697.21 79.54 5.00 161.05 2824.94
   13:54:24.782.18-Jan-2020 3754.01 3697.21 79.54 5.00 161.25 2824.94
   13:54:24.982.18-Jan-2020 3754.01 3695.86 79.54 5.00 161.45 2824.94
   13:54:25.182.18-Jan-2020 3754.01 3694.78 79.54 5.00 161.65 2824.94
   13:54:25.382.18-Jan-2020 3754.01 3695.27 79.54 5.00 161.85 2824.94
   13:54:25.582.18-Jan-2020 3754.01 3695.18 79.54 5.00 162.05 2824.94
   13:54:25.782.18-Jan-2020 3754.01 3695.18 79.54 5.00 162.25 2824.94
   13:54:25.982.18-Jan-2020 3754.01 3695.05 79.54 5.00 162.45 2824.94
   13:54:26.182.18-Jan-2020 3754.01 3695.09 79.53 5.00 162.65 2824.94
   13:54:26.383.18-Jan-2020 3754.01 3695.25 79.53 5.00 162.85 2824.94
   13:54:26.583.18-Jan-2020 3754.01 3695.31 79.53 5.00 163.05 2824.94
   13:54:26.783.18-Jan-2020 3754.01 3695.31 79.53 5.00 163.25 2824.94
   13:54:26.983.18-Jan-2020 3754.01 3695.07 79.53 5.00 163.45 2824.94
   13:54:27.183.18-Jan-2020 3754.01 3695.27 79.53 5.00 163.65 2824.94
   13:54:27.383.18-Jan-2020 3754.01 3695.20 79.53 5.00 163.85 2824.94
   13:54:27.583.18-Jan-2020 3754.01 3695.14 79.53 5.00 164.05 2824.94
   13:54:27.783.18-Jan-2020 3754.01 3695.14 79.53 5.00 164.25 2824.94
   13:54:27.983.18-Jan-2020 3754.01 3696.89 79.53 5.00 164.45 2824.94
   13:54:28.183.18-Jan-2020 3754.01 3694.65 79.53 5.00 164.65 2824.94
   13:54:28.383.18-Jan-2020 3754.01 3694.76 79.53 5.00 164.85 2824.94
   13:54:28.583.18-Jan-2020 3754.01 3695.10 79.53 5.00 165.05 2824.94
   13:54:28.783.18-Jan-2020 3754.01 3695.10 79.53 5.00 165.25 2824.94
   13:54:28.983.18-Jan-2020 3754.01 3695.09 79.53 5.00 165.45 2824.94
   13:54:29.183.18-Jan-2020 3754.01 3695.08 79.53 5.00 165.65 2824.94
   13:54:29.384.18-Jan-2020 3754.01 3695.09 79.53 5.00 165.85 2824.94
   13:54:29.584.18-Jan-2020 3754.01 3695.16 79.53 5.00 166.05 2824.94
   13:54:29.784.18-Jan-2020 3754.01 3695.16 79.53 5.00 166.25 2824.94
   13:54:29.984.18-Jan-2020 3754.01 3695.14 79.53 5.00 166.45 2824.94
   13:54:30.184.18-Jan-2020 3754.01 3694.68 79.53 5.00 166.65 2824.94
   13:54:30.384.18-Jan-2020 3754.01 3697.74 79.53 5.00 166.85 2824.94
   13:54:30.584.18-Jan-2020 3754.01 3692.38 79.53 5.00 167.05 2824.94
   13:54:30.784.18-Jan-2020 3754.01 3692.38 79.53 5.00 167.25 2824.94
   13:54:30.984.18-Jan-2020 3754.01 3693.93 79.53 5.00 167.45 2824.94
   13:54:31.184.18-Jan-2020 3754.01 3698.16 79.53 5.00 167.65 2824.94
   13:54:31.384.18-Jan-2020 3754.01 3692.10 79.53 5.00 167.85 2824.94
   13:54:31.584.18-Jan-2020 3754.01 3696.88 79.53 5.00 168.05 2824.94
   13:54:31.784.18-Jan-2020 3754.01 3696.88 79.53 5.00 168.25 2824.94
   13:54:31.984.18-Jan-2020 3754.01 3695.71 79.53 5.00 168.45 2824.94
   13:54:32.184.18-Jan-2020 3754.01 3693.73 79.53 5.00 168.65 2824.94
   13:54:32.384.18-Jan-2020 3754.01 3698.18 79.53 5.00 168.85 2824.94
   13:54:32.585.18-Jan-2020 3754.01 3693.08 79.53 5.00 169.05 2824.94
   13:54:32.785.18-Jan-2020 3754.01 3693.08 79.53 5.00 169.25 2824.94
   13:54:32.985.18-Jan-2020 3754.01 3695.84 79.53 5.00 169.45 2824.94
   13:54:33.185.18-Jan-2020 3754.01 3695.34 79.53 5.00 169.65 2824.94
   13:54:33.385.18-Jan-2020 3754.01 3693.98 79.53 5.00 169.85 2824.94
   13:54:33.585.18-Jan-2020 3754.01 3695.58 79.53 5.00 170.05 2824.94
   13:54:33.785.18-Jan-2020 3754.01 3695.58 79.53 5.00 170.26 2824.94
   13:54:33.985.18-Jan-2020 3754.01 3695.03 79.53 5.00 170.46 2824.94
   13:54:34.185.18-Jan-2020 3754.01 3695.18 79.53 5.00 170.66 2824.94
   13:54:34.385.18-Jan-2020 3754.01 3695.25 79.53 5.00 170.86 2824.94
   13:54:34.585.18-Jan-2020 3754.01 3695.07 79.53 5.00 171.06 2824.94
   13:54:34.785.18-Jan-2020 3754.01 3695.07 79.53 5.00 171.26 2824.94
   13:54:34.985.18-Jan-2020 3754.01 3695.27 79.53 5.00 171.46 2824.94
   13:54:35.185.18-Jan-2020 3754.01 3695.35 79.53 5.00 171.66 2824.94
   13:54:35.385.18-Jan-2020 3754.01 3695.09 79.53 5.00 171.86 2824.94
   13:54:35.586.18-Jan-2020 3754.01 3695.27 79.53 5.00 172.06 2824.94
   13:54:35.786.18-Jan-2020 3754.01 3695.27 79.53 5.00 172.26 2824.94
   13:54:35.986.18-Jan-2020 3754.01 3695.19 79.53 5.00 172.46 2824.94
   13:54:36.186.18-Jan-2020 3754.01 3695.07 79.53 5.00 172.66 2824.94
   13:54:36.386.18-Jan-2020 3754.01 3694.22 79.53 5.00 172.86 2824.94
   13:54:36.586.18-Jan-2020 3754.01 3697.62 79.53 5.00 173.06 2824.94
   13:54:36.786.18-Jan-2020 3754.01 3697.62 79.53 5.00 173.26 2824.94
   13:54:36.986.18-Jan-2020 3754.01 3695.93 79.53 5.00 173.46 2824.94
   13:54:37.186.18-Jan-2020 3754.01 3694.75 79.53 5.00 173.66 2824.94
   13:54:37.386.18-Jan-2020 3754.01 3695.30 79.53 5.00 173.86 2824.94
   13:54:37.586.18-Jan-2020 3754.01 3695.03 79.53 5.00 174.06 2824.94
   13:54:37.786.18-Jan-2020 3754.01 3695.17 79.53 5.00 174.26 2824.94
   13:54:37.986.18-Jan-2020 3754.01 3695.23 79.53 5.00 174.46 2824.94
   13:54:38.186.18-Jan-2020 3754.01 3695.16 79.53 5.00 174.66 2824.94
   13:54:38.386.18-Jan-2020 3754.01 3681.70 79.53 5.00 174.86 2824.94
   13:54:38.586.18-Jan-2020 3754.01 3624.52 79.53 5.00 175.06 2824.94
   13:54:38.787.18-Jan-2020 3754.01 3624.52 79.53 5.00 175.26 2824.94
   13:54:38.987.18-Jan-2020 3754.01 3610.99 79.53 5.00 175.46 2824.94
   13:54:39.187.18-Jan-2020 3754.01 3607.90 79.53 5.00 175.66 2824.94
   13:54:39.387.18-Jan-2020 3754.01 3608.60 79.53 5.00 175.86 2824.94
   13:54:39.587.18-Jan-2020 3754.01 3608.46 79.53 5.00 176.06 2824.94
   13:54:39.787.18-Jan-2020 3754.01 3608.46 79.53 5.00 176.26 2824.94
   13:54:39.987.18-Jan-2020 3754.01 3606.23 79.53 5.00 176.46 2824.94
   13:54:40.187.18-Jan-2020 3754.01 3606.13 79.53 5.00 176.66 2824.94
   13:54:40.387.18-Jan-2020 3754.01 3605.52 79.53 5.00 176.86 2824.94
   13:54:40.587.18-Jan-2020 3754.01 3606.72 79.53 5.00 177.06 2824.94
   13:54:40.787.18-Jan-2020 3754.01 3606.72 79.53 5.00 177.26 2824.94
   13:54:40.987.18-Jan-2020 3754.01 3606.29 79.53 5.00 177.46 2824.94
   13:54:41.187.18-Jan-2020 3754.01 3605.42 79.53 5.00 177.66 2824.94
   13:54:41.387.18-Jan-2020 3754.01 3605.39 79.53 5.00 177.86 2824.94
   13:54:41.587.18-Jan-2020 3754.01 3606.57 79.53 5.00 178.06 2824.94
   13:54:41.788.18-Jan-2020 3754.01 3606.57 79.53 5.00 178.26 2824.94
   13:54:41.988.18-Jan-2020 3754.01 3605.21 79.53 5.00 178.46 2824.94
   13:54:42.188.18-Jan-2020 3754.01 3605.91 79.53 5.00 178.66 2824.94
   13:54:42.388.18-Jan-2020 3754.01 3605.19 79.53 5.00 178.86 2824.94
   13:54:42.588.18-Jan-2020 3754.01 3607.42 79.53 5.00 179.06 2824.94
   13:54:42.788.18-Jan-2020 3754.01 3607.42 79.53 5.00 179.26 2824.94
   13:54:42.988.18-Jan-2020 3754.01 3605.53 79.53 5.00 179.46 2824.94
   13:54:43.188.18-Jan-2020 3754.01 3604.44 79.53 5.00 179.66 2824.94
   13:54:43.388.18-Jan-2020 3754.01 3606.13 79.53 5.00 179.86 2824.94
   13:54:43.588.18-Jan-2020 3754.01 3607.42 79.53 5.00 180.06 2824.94
   13:54:43.788.18-Jan-2020 3754.01 3607.42 79.53 5.00 180.26 2824.94
   13:54:43.988.18-Jan-2020 3754.01 3608.64 79.53 5.00 180.46 2824.94
   13:54:44.188.18-Jan-2020 3754.01 3605.27 79.53 5.00 180.66 2824.94
   13:54:44.388.18-Jan-2020 3754.01 3605.18 79.53 5.00 180.86 2824.94
   13:54:44.588.18-Jan-2020 3754.01 3607.28 79.53 5.00 181.06 2824.94
   13:54:44.789.18-Jan-2020 3754.01 3607.28 79.53 5.00 181.26 2824.94
   13:54:44.989.18-Jan-2020 3754.01 3603.45 79.53 5.00 181.46 2824.94
   13:54:45.189.18-Jan-2020 3754.01 3605.36 79.53 5.00 181.66 2824.94
   13:54:45.389.18-Jan-2020 3754.01 3604.59 79.53 5.00 181.86 2824.94
   13:54:45.589.18-Jan-2020 3754.01 3609.51 79.53 5.00 182.06 2824.94
   13:54:45.789.18-Jan-2020 3754.01 3609.51 79.53 5.00 182.26 2824.94
   13:54:45.989.18-Jan-2020 3754.01 3606.13 79.53 5.00 182.46 2824.94
   13:54:46.189.18-Jan-2020 3754.01 3605.35 79.53 5.00 182.66 2824.94
   13:54:46.389.18-Jan-2020 3754.01 3603.11 79.53 5.00 182.86 2824.94
   13:54:46.589.18-Jan-2020 3754.01 3599.74 79.53 5.00 183.06 2824.94
   13:54:46.789.18-Jan-2020 3754.01 3599.74 79.53 5.00 183.26 2824.94
   13:54:46.989.18-Jan-2020 3754.01 3607.69 79.52 5.00 183.46 2824.94
   13:54:47.189.18-Jan-2020 3754.01 3605.97 79.52 5.00 183.66 2824.94
   13:54:47.389.18-Jan-2020 3754.01 3603.52 79.52 5.00 183.86 2824.94
