~Version Information
 VERS.                  2.0:   CWLS log ASCII Standard -VERSION 2.0
 WRAP.                   NO:   One line per depth step
~Well Information Block
#MNEM.UNIT     VALUE/NAME     DESCRIPTION
#---------     -----------    ---------------------------
 STRT.S             05:39:19 18-Jan-20: START TIME 05:39:19 18-Jan-20
 STOP.S             05:47:35 18-Jan-20: STOP TIME  05:47:35 18-Jan-20
 STEP.S                   0.00: STEP TIME
 NULL.                 -999.25: NULL VALUE
 DFWT.                        :  DIST FWL TEXT
 DFST.                        :  DIST FSL TEXT
 DMF .             Drill Floor:  DRILL MEAS FROM
 STIM.      09.30.00 26-Dec-19:  START TIME
 DATE.      08.00.00 20-Jan-20:  END TIME
 SPUD.               23-Nov-19:  SPUD DATE
 NREF.                    Grid:  NORTH REFERENCE
 HPTY.       Minimum Curvature:  HOLE POS TYPE
 DMOD.             Drill Model:  DRILL MOD DESC
 SVYD.                  Survey:  SURVEY DESC
 ILTD.               Lithology:  INTERP LTH DESC
 FTOP.          Formation Tops:  FORM TOPS DESC
 SON .        AZ-XX-0906192647:  JOB NUMBER
 WTYP.                Deviated:  WELL TYPE
 COMP.     BP Exploration (Caspian Sea) Ltd:  COMPANY
 BASE.              Azerbaijan:  LOGGING EQUIPMENT BASE LOCATION
 REGN.                 Eurasia:  REGION
 FLD .                     ACG:  FIELD NAME
 SRVC.              KCA Deutag:  CONTRACTOR
 MWDS.                    Baku:  MWD SHOP
 WELL.     A10 (Slot 20) - SCP:  WELL NAME
 JOBN.        AZ-XX-0906192647:  JOB TICKET NUMB
 RIG .                 Chirag1:  RIG NAME
 DCON.     Halliburton Sperry Drilling:  DIRECTNL CONTR
 UNIT.                     N/A:  LOGGING EQUIPMENT ID
 PDAT.          Mean Sea Level:  PERMANENT DATUM
 MDS .        Operator Entered:  MAG DATA SOURCE
 CTRY.              Azerbaijan:  COUNTRY NAME
 UWI .            /AZE00000090:  UNIQUE WELL IDENTIFIER
 API .            /AZE00000090:  API NUMBER
 CNTY.                        :  COUNTY
 PROV.                        :  PROVINCE
 STAT.                        :  STATE
 LOC .                        :  LOCATION
 LMF .             Drill Floor:  LOG MEASURED FROM
 TVDS.m                  36.60:  TVDSS CORRECTN
 LATI.deg                40.08:  LATITUDE
 LONG.deg                51.24:  LONGITUDE
 WHNS.m                  -7.94:  WELL HEAD N/S
 WHEW.m                   1.56:  WELL HEAD E/W
 UTMX.m              520429.26:  UTM X
 UTMY.m             4438973.87:  UTM Y
 DFWL.m                   0.00:  DISTANCE FWL
 DFSL.m                   0.00:  DISTANCE FSL
 SDEP.m                1455.00:  START DEPTH
 TDD .m                3878.01:  TOTAL DEPTH (DRILLER)
 VSDR.deg               112.75:  VERT SEC DIRECT
 GVFD.g                   1.00:  GRAVITY FIELD
 MFLD.nT              50256.00:  MAGNETIC FIELD
 MDIP.deg                59.52:  MAGNETIC DIP
 MDEC.deg                 6.43:  MAGNETIC DECL
 GRDC.deg                 0.16:  GRID CORRECTION
 AZTC.deg                 6.27:  AZM TOTAL CORR
 EPD .m                   0.00:  ELEVATION
 EGL .m                   0.00:  GROUND ELEVATION
 WDMS.m                 121.00:  WD ELEV
 APD .m                  36.60:  DEPTH ABOVE PD
 AGAP.m                  36.60:  AIR GAP
 VSEW.m                   1.56:  VERT SEC E/W
 VSNS.m                  -7.94:  VERT SEC N/S
 DEP .m                1140.01:  DEPTH
 EKB .m                  36.60:  KB ELEVATION
 EDF .m                  36.60:  DF ELEVATION
 TDL .m                1293.00:  TOTAL DEPTH (LOGGER)
 VSC .                       0:  VS TO CLOSURE
 MAGU.                 1849164:  MAGUTM CHECKSUM
~Parameter Information Block
#MNEM.UNIT       Value        Description
#---------     -----------    ---------------------------
 AV  .mps                 2.40:  Ann Velocity 
 AVMX.mps                 2.55:  Max Ann Veloc 
 AZIF.deg               134.35:  Azm, Final 
 BHAT.        Rotary Steerable:  BHA Type 
 BREV.rev               847.00:  Rev Bit Total 
 BROT.∞/30m              -2.51:  Build Rotating 
 BS  .in                  8.50:  Bit Size 
 BSZ .in                  8.50:  Bit Size 
 BTPL.psig              700.00:  Bit Press Loss 
 CABU.                     Yes:  Customer Abuse 
 CGEO.          Ilgar Gurbanov:  Customer Geo 
 COMM.                     ‹êX:  Run Comments 1 
 TCS .hr                140.40:  Time Ciculation Ended 
 CV  .mps                 2.27:  Crit Velocity 
 CVMX.mps                 2.45:  Max Crit Veloc 
 DD1 .         Intigam Rahimov:  Direct Drillr 1 
 DD2 .         Rasim Ibrahimov:  Direct Drillr 2 
 DDSV.                 iCruise:  DD Service 
 DEFF.%                  99.00:  % Det Eff 
 DLRX.∞/30m               3.28:  Dogleg Rot Max 
 DLSO.∞/30m               0.00:  Dogleg Oriented 
 DLSX.∞/30m               0.00:  Dogleg Str Max 
 DRET.      23.30.00 18-Jan-20:  Drill End Time 
 DRST.      01.45.00 11-Jan-20:  Drill Start Tim 
 DTIM.hr                 94.00:  Time Drilling 
 EDEP.m                3878.01:  End Depth 
 ENG1.       Dauren Baktybayev:  Engineer 1 
 ENG2.      Natik Hasanaghayev:  Engineer 2 
 ENG3.          Rustam Safarov:  Engineer 3 
 ETIM.      08.00.00 20-Jan-20:  End Time 
 FLOI.gpm               532.00:  Flow In 
 FLON.gpm               500.00:  Flow In Min 
 FLOS.cptm                0.00:  Fluid Loss 
 FLOX.gpm               540.00:  Flow In Max 
 FTRO.       Formation Presure:  FTWD Run Obj 
 HPRE.                     Yes:  High Pressure 
 HTEM.                      No:  High Temp 
 HYDO.m                   1.80:  Hydro Offset 
 IFIN.deg                39.86:  Inc, Final 
 IMAX.deg                59.73:  Inc Max 
 IMIN.deg                39.25:  Inc Min 
 IMND.m                3816.77:  Inc Min Depth 
 IMXD.m                2596.33:  Inc Max Depth 
 JARR.                      No:  Jarring 
 LETM.      23.30.00 18-Jan-20:  Log End Time 
 LOST.hr                     0:  Lost Rig Time 
 LSTM.      01.45.00 11-Jan-20:  Log Start Time 
 MDCL.ppm             41500.00:  Mud Chlorides 
 MDES.     Inversion Oil/Synthetic:  Mud Desc 
 DFD .sg                  1.48:  Mud Density 
 MDMN.sg                  1.48:  Dens Mud Min 
 MDMX.sg                  1.48:  Dens Mud Max 
 MOIL.                      54:  Run Mud Oil % 
 MOWR.                   72:28:  Run Mud OWR 
 MSND.                       0:  Run Mud Sand % 
 MSOL.                      23:  Run Mud Solids% 
 DFV .spqt               86.00:  Mud Viscosity 
 MWOD.in                  6.75:  MWD Tool OD 
 MWSI.                      No:  Serv Intrp, MWD 
 OTIM.hr                223.40:  Time Operating 
 PCON.           Look Like New:  Pad Condition 
 PMAX.psia            32446.79:  Press Op, Max 
 PV  .cP                 49.00:  Mud PV 
 RUN .                     200:  Run Number 
 ROPA.m/hr               12.48:  ROP Avg 
 ROPN.m/hr                8.00:  ROP Min 
 ROPX.m/hr               27.00:  ROP Max 
 RPMA.rpm               121.00:  RPM Surface Avg 
 RPMN.rpm                60.00:  RPM Surface Min 
 RPMX.rpm               140.00:  RPM Surface Max 
 RRUN.                    L202:  Rig Run Number 
 RTIM.hr                  7.25:  Time Reaming 
 SAZI.deg               123.49:  Azm, Start 
 SDEP.m                2585.01:  Start Depth 
 SIDD.                      No:  Serv Intrp, DD 
 SINC.deg                59.93:  Inc, Start 
 SPPA.psig             3539.00:  SPP Avg 
 SPPN.psig             3050.00:  SPP Min 
 SPPX.psig             3950.00:  SPP Max 
 STIM.      19.00.00 10-Jan-20:  Start Time 
 SVCS.                 DD, MWD:  Services 
 SVER.                    9.20:  Sperry Version 
 TDAT.m                1293.00:  Tot Depth Attmp 
 TDDF.                      No:  Trip for DD 
 TDLG.m                1293.00:  Tot Depth Loggd 
 TFF .                      No:  Trip for Fail 
 TQAA.f-kp               16.00:  Torque Abs Avg 
 TQAN.f-kp               11.00:  Torque Abs Min 
 TQAX.f-kp               18.00:  Torque Abs Max 
 TRRT.∞/30m               1.25:  Turn Rotating 
 MRT .                  EWR-M5:  Maximum Recorded Temperature 
 TTMX.degC               84.00:  Max Tool Temp 
 VS01.          AZ90514619R5C6:  Virtual Str1 SN 
 VS02.        AZ90552592N2L2C6:  Virtual Str2 SN 
 VS03.        AZ90571337Z1W1C6:  Virtual Str3 SN 
 VS04.         AZ90513690K23C6:  Virtual Str4 SN 
 VS05.           AZ90594857F11:  Virtual Str5 SN 
 VS06.                13102166:  Virtual Str6 SN 
 WBMN.klb                 7.00:  WOB Min 
 WITN.            Peter Wilson:  Customer Rep 
 WOBA.klb                 9.95:  WOB Avg 
 WOBX.klb                10.00:  WOB Max 
 YP  .lhf2               36.00:  Yield Point 
~Curve Information Block
#MNEM.UNIT                 API CODE     Curve Description
#---------               -----------    ---------------------------
 TIME.HHMMSS            00 000 000 000:  GT Time & Date
 GTDEPTH.m              00 000 000 000:  GT Depth
 GTPQH.psia             00 000 000 000:  GT HR Quartz Pressure
 GTTQ.degC              00 000 000 000:  GT Quartz Temperature
 GTTN.NONE              00 000 000 000:  GT Test Number
 GTET.sec               00 000 000 000:  GT Elapsed Test Time
 GTTVD.m                00 000 000 000:  GT True Vertical Depth
#Other Information
#
#WARRANTY: Halliburton will use its best efforts to furnish customers with 
#accurate information and interpretations that are part of, and incident to, the services 
#provided.  However, Halliburton cannot and does not warrant the accuracy 
#or correctness of such information and interpretations.  Under no circumstances should any 
#such information or interpretation be relied upon as the sole basis for any drilling, 
#completion, production, or financial decision or any procedure involving any risk to the 
#safety of any drilling venture, drilling rig or its crew or any other third party.  The 
#Customer has full responsibility for all drilling, completion and production operation.  
#Halliburton makes no representations or warranties, either expressed or 
#implied, including, but not limited to, the implied warranties of merchantability or fitness 
#for a particular purpose, with respect to the services rendered.  In no event will 
#Halliburton be liable for failure to obtain any particular results or for 
#any damages, including, but not limited to, indirect, special or consequential damages, 
#resulting from the use of any information or interpretation provided by Halliburton.
#
~A           TIME           GTDEPTH  GTPQH  GTTQ  GTTN  GTET   GTTVD  
# ...
   05:40:51.523.18-Jan-2020 3717.66 4263.06 78.22 2.00  92.03 2797.70
   05:40:51.723.18-Jan-2020 3717.66 4263.06 78.22 2.00  92.23 2797.70
   05:40:51.923.18-Jan-2020 3717.66 4263.14 78.22 2.00  92.43 2797.70
   05:40:52.123.18-Jan-2020 3717.66 4263.12 78.22 2.00  92.63 2797.70
   05:40:52.323.18-Jan-2020 3717.66 4263.38 78.22 2.00  92.83 2797.70
   05:40:52.523.18-Jan-2020 3717.66 4262.92 78.22 2.00  93.03 2797.70
   05:40:52.723.18-Jan-2020 3717.66 4262.92 78.22 2.00  93.23 2797.70
   05:40:52.923.18-Jan-2020 3717.66 4263.06 78.22 2.00  93.43 2797.70
   05:40:53.123.18-Jan-2020 3717.66 4263.12 78.22 2.00  93.63 2797.70
   05:40:53.323.18-Jan-2020 3717.66 4263.10 78.22 2.00  93.83 2797.70
   05:40:53.523.18-Jan-2020 3717.66 4262.99 78.22 2.00  94.03 2797.70
   05:40:53.723.18-Jan-2020 3717.66 4262.99 78.22 2.00  94.23 2797.70
   05:40:53.923.18-Jan-2020 3717.66 4263.15 78.22 2.00  94.43 2797.70
   05:40:54.124.18-Jan-2020 3717.66 4263.14 78.22 2.00  94.63 2797.70
   05:40:54.324.18-Jan-2020 3717.66 4263.07 78.22 2.00  94.83 2797.70
   05:40:54.524.18-Jan-2020 3717.66 4263.08 78.22 2.00  95.03 2797.70
   05:40:54.724.18-Jan-2020 3717.66 4263.08 78.22 2.00  95.23 2797.70
   05:40:54.924.18-Jan-2020 3717.66 4263.17 78.22 2.00  95.43 2797.70
   05:40:55.124.18-Jan-2020 3717.66 4263.15 78.22 2.00  95.63 2797.70
   05:40:55.324.18-Jan-2020 3717.66 4263.12 78.22 2.00  95.83 2797.70
   05:40:55.524.18-Jan-2020 3717.66 4263.16 78.22 2.00  96.03 2797.70
   05:40:55.724.18-Jan-2020 3717.66 4263.16 78.22 2.00  96.23 2797.70
   05:40:55.924.18-Jan-2020 3717.66 4262.90 78.22 2.00  96.43 2797.70
   05:40:56.124.18-Jan-2020 3717.66 4263.16 78.22 2.00  96.63 2797.70
   05:40:56.324.18-Jan-2020 3717.66 4263.04 78.22 2.00  96.83 2797.70
   05:40:56.524.18-Jan-2020 3717.66 4263.08 78.22 2.00  97.03 2797.70
   05:40:56.724.18-Jan-2020 3717.66 4263.08 78.22 2.00  97.23 2797.70
   05:40:56.924.18-Jan-2020 3717.66 4263.11 78.22 2.00  97.43 2797.70
   05:40:57.124.18-Jan-2020 3717.66 4263.05 78.22 2.00  97.63 2797.70
   05:40:57.324.18-Jan-2020 3717.66 4263.12 78.22 2.00  97.83 2797.70
   05:40:57.525.18-Jan-2020 3717.66 4263.13 78.22 2.00  98.03 2797.70
   05:40:57.725.18-Jan-2020 3717.66 4263.13 78.22 2.00  98.23 2797.70
   05:40:57.925.18-Jan-2020 3717.66 4263.14 78.22 2.00  98.43 2797.70
   05:40:58.125.18-Jan-2020 3717.66 4263.41 78.22 2.00  98.63 2797.70
   05:40:58.325.18-Jan-2020 3717.66 4263.01 78.22 2.00  98.83 2797.70
   05:40:58.525.18-Jan-2020 3717.66 4263.15 78.22 2.00  99.03 2797.70
   05:40:58.725.18-Jan-2020 3717.66 4263.15 78.22 2.00  99.23 2797.70
   05:40:58.925.18-Jan-2020 3717.66 4263.01 78.22 2.00  99.43 2797.70
   05:40:59.125.18-Jan-2020 3717.66 4262.98 78.22 2.00  99.63 2797.70
   05:40:59.325.18-Jan-2020 3717.66 4263.18 78.22 2.00  99.83 2797.70
   05:40:59.525.18-Jan-2020 3717.66 4263.18 78.22 2.00 100.03 2797.70
   05:40:59.725.18-Jan-2020 3717.66 4263.18 78.22 2.00 100.23 2797.70
   05:40:59.925.18-Jan-2020 3717.66 4263.24 78.22 2.00 100.43 2797.70
   05:41:00.125.18-Jan-2020 3717.66 4263.39 78.22 2.00 100.63 2797.70
   05:41:00.325.18-Jan-2020 3717.66 4262.89 78.22 2.00 100.83 2797.70
   05:41:00.525.18-Jan-2020 3717.66 4263.13 78.22 2.00 101.03 2797.70
   05:41:00.725.18-Jan-2020 3717.66 4263.13 78.22 2.00 101.23 2797.70
   05:41:00.925.18-Jan-2020 3717.66 4263.13 78.22 2.00 101.43 2797.70
   05:41:01.126.18-Jan-2020 3717.66 4263.31 78.22 2.00 101.63 2797.70
   05:41:01.326.18-Jan-2020 3717.66 4263.14 78.22 2.00 101.83 2797.70
   05:41:01.526.18-Jan-2020 3717.66 4263.03 78.22 2.00 102.03 2797.70
   05:41:01.726.18-Jan-2020 3717.66 4263.03 78.22 2.00 102.23 2797.70
   05:41:01.926.18-Jan-2020 3717.66 4263.14 78.22 2.00 102.43 2797.70
   05:41:02.126.18-Jan-2020 3717.66 4263.19 78.22 2.00 102.63 2797.70
   05:41:02.326.18-Jan-2020 3717.66 4263.01 78.22 2.00 102.83 2797.70
   05:41:02.526.18-Jan-2020 3717.66 4263.14 78.22 2.00 103.03 2797.70
   05:41:02.726.18-Jan-2020 3717.66 4263.14 78.22 2.00 103.23 2797.70
   05:41:02.926.18-Jan-2020 3717.66 4263.17 78.22 2.00 103.43 2797.70
   05:41:03.126.18-Jan-2020 3717.66 4263.12 78.22 2.00 103.63 2797.70
   05:41:03.326.18-Jan-2020 3717.66 4263.10 78.22 2.00 103.83 2797.70
   05:41:03.526.18-Jan-2020 3717.66 4263.11 78.22 2.00 104.03 2797.70
   05:41:03.726.18-Jan-2020 3717.66 4263.11 78.22 2.00 104.23 2797.70
   05:41:03.926.18-Jan-2020 3717.66 4263.21 78.22 2.00 104.43 2797.70
   05:41:04.126.18-Jan-2020 3717.66 4263.12 78.22 2.00 104.63 2797.70
   05:41:04.326.18-Jan-2020 3717.66 4263.15 78.22 2.00 104.83 2797.70
   05:41:04.527.18-Jan-2020 3717.66 4263.34 78.22 2.00 105.03 2797.70
   05:41:04.727.18-Jan-2020 3717.66 4263.34 78.22 2.00 105.23 2797.70
   05:41:04.927.18-Jan-2020 3717.66 4263.10 78.22 2.00 105.43 2797.70
   05:41:05.127.18-Jan-2020 3717.66 4263.07 78.22 2.00 105.63 2797.70
   05:41:05.327.18-Jan-2020 3717.66 4263.12 78.22 2.00 105.83 2797.70
   05:41:05.527.18-Jan-2020 3717.66 4263.12 78.22 2.00 106.03 2797.70
   05:41:05.727.18-Jan-2020 3717.66 4263.12 78.22 2.00 106.23 2797.70
   05:41:05.927.18-Jan-2020 3717.66 4263.10 78.22 2.00 106.43 2797.70
   05:41:06.127.18-Jan-2020 3717.66 4263.09 78.22 2.00 106.63 2797.70
   05:41:06.327.18-Jan-2020 3717.66 4263.14 78.22 2.00 106.83 2797.70
   05:41:06.527.18-Jan-2020 3717.66 4263.18 78.22 2.00 107.03 2797.70
   05:41:06.727.18-Jan-2020 3717.66 4263.18 78.22 2.00 107.23 2797.70
   05:41:06.927.18-Jan-2020 3717.66 4263.39 78.22 2.00 107.43 2797.70
   05:41:07.127.18-Jan-2020 3717.66 4263.12 78.22 2.00 107.63 2797.70
   05:41:07.327.18-Jan-2020 3717.66 4263.21 78.22 2.00 107.83 2797.70
   05:41:07.527.18-Jan-2020 3717.66 4262.98 78.22 2.00 108.03 2797.70
   05:41:07.727.18-Jan-2020 3717.66 4262.98 78.22 2.00 108.23 2797.70
   05:41:07.927.18-Jan-2020 3717.66 4263.02 78.22 2.00 108.43 2797.70
   05:41:08.128.18-Jan-2020 3717.66 4263.00 78.22 2.00 108.63 2797.70
   05:41:08.328.18-Jan-2020 3717.66 4263.34 78.22 2.00 108.83 2797.70
   05:41:08.528.18-Jan-2020 3717.66 4263.13 78.22 2.00 109.03 2797.70
   05:41:08.728.18-Jan-2020 3717.66 4263.13 78.22 2.00 109.23 2797.70
   05:41:08.928.18-Jan-2020 3717.66 4263.33 78.22 2.00 109.43 2797.70
   05:41:09.128.18-Jan-2020 3717.66 4263.07 78.22 2.00 109.63 2797.70
   05:41:09.328.18-Jan-2020 3717.66 4263.07 78.22 2.00 109.83 2797.70
   05:41:09.528.18-Jan-2020 3717.66 4263.07 78.22 2.00 110.03 2797.70
   05:41:09.728.18-Jan-2020 3717.66 4263.07 78.22 2.00 110.23 2797.70
   05:41:09.928.18-Jan-2020 3717.66 4263.23 78.22 2.00 110.43 2797.70
   05:41:10.128.18-Jan-2020 3717.66 4263.39 78.22 2.00 110.63 2797.70
   05:41:10.328.18-Jan-2020 3717.66 4263.00 78.22 2.00 110.83 2797.70
   05:41:10.528.18-Jan-2020 3717.66 4263.09 78.22 2.00 111.03 2797.70
   05:41:10.728.18-Jan-2020 3717.66 4263.09 78.22 2.00 111.23 2797.70
   05:41:10.928.18-Jan-2020 3717.66 4263.17 78.22 2.00 111.43 2797.70
   05:41:11.128.18-Jan-2020 3717.66 4263.16 78.22 2.00 111.63 2797.70
   05:41:11.328.18-Jan-2020 3717.66 4263.07 78.22 2.00 111.83 2797.70
   05:41:11.528.18-Jan-2020 3717.66 4263.18 78.22 2.00 112.03 2797.70
   05:41:11.729.18-Jan-2020 3717.66 4263.18 78.22 2.00 112.23 2797.70
   05:41:11.929.18-Jan-2020 3717.66 4263.15 78.22 2.00 112.43 2797.70
   05:41:12.129.18-Jan-2020 3717.66 4263.15 78.22 2.00 112.63 2797.70
   05:41:12.329.18-Jan-2020 3717.66 4263.09 78.22 2.00 112.83 2797.70
   05:41:12.529.18-Jan-2020 3717.66 4263.14 78.22 2.00 113.03 2797.70
   05:41:12.729.18-Jan-2020 3717.66 4263.14 78.22 2.00 113.23 2797.70
   05:41:12.929.18-Jan-2020 3717.66 4263.17 78.22 2.00 113.43 2797.70
   05:41:13.129.18-Jan-2020 3717.66 4263.12 78.22 2.00 113.63 2797.70
   05:41:13.329.18-Jan-2020 3717.66 4263.23 78.21 2.00 113.83 2797.70
   05:41:13.529.18-Jan-2020 3717.66 4263.42 78.22 2.00 114.03 2797.70
   05:41:13.729.18-Jan-2020 3717.66 4263.42 78.22 2.00 114.23 2797.70
   05:41:13.929.18-Jan-2020 3717.66 4263.20 78.22 2.00 114.43 2797.70
   05:41:14.129.18-Jan-2020 3717.66 4263.10 78.21 2.00 114.63 2797.70
   05:41:14.329.18-Jan-2020 3717.66 4263.12 78.22 2.00 114.83 2797.70
