~Version Information
 VERS.                  2.0:   CWLS log ASCII Standard -VERSION 2.0
 WRAP.                   NO:   One line per depth step
~Well Information Block
#MNEM.UNIT     VALUE/NAME     DESCRIPTION
#---------     -----------    ---------------------------
 STRT.S             13:31:21 18-Jan-20: START TIME 13:31:21 18-Jan-20
 STOP.S             13:39:29 18-Jan-20: STOP TIME  13:39:29 18-Jan-20
 STEP.S                   0.00: STEP TIME
 NULL.                 -999.25: NULL VALUE
 DFWT.                        :  DIST FWL TEXT
 DFST.                        :  DIST FSL TEXT
 DMF .             Drill Floor:  DRILL MEAS FROM
 STIM.      09.30.00 26-Dec-19:  START TIME
 DATE.      08.00.00 20-Jan-20:  END TIME
 SPUD.               23-Nov-19:  SPUD DATE
 NREF.                    Grid:  NORTH REFERENCE
 HPTY.       Minimum Curvature:  HOLE POS TYPE
 DMOD.             Drill Model:  DRILL MOD DESC
 SVYD.                  Survey:  SURVEY DESC
 ILTD.               Lithology:  INTERP LTH DESC
 FTOP.          Formation Tops:  FORM TOPS DESC
 SON .        AZ-XX-0906192647:  JOB NUMBER
 WTYP.                Deviated:  WELL TYPE
 COMP.     BP Exploration (Caspian Sea) Ltd:  COMPANY
 BASE.              Azerbaijan:  LOGGING EQUIPMENT BASE LOCATION
 REGN.                 Eurasia:  REGION
 FLD .                     ACG:  FIELD NAME
 SRVC.              KCA Deutag:  CONTRACTOR
 MWDS.                    Baku:  MWD SHOP
 WELL.     A10 (Slot 20) - SCP:  WELL NAME
 JOBN.        AZ-XX-0906192647:  JOB TICKET NUMB
 RIG .                 Chirag1:  RIG NAME
 DCON.     Halliburton Sperry Drilling:  DIRECTNL CONTR
 UNIT.                     N/A:  LOGGING EQUIPMENT ID
 PDAT.          Mean Sea Level:  PERMANENT DATUM
 MDS .        Operator Entered:  MAG DATA SOURCE
 CTRY.              Azerbaijan:  COUNTRY NAME
 UWI .            /AZE00000090:  UNIQUE WELL IDENTIFIER
 API .            /AZE00000090:  API NUMBER
 CNTY.                        :  COUNTY
 PROV.                        :  PROVINCE
 STAT.                        :  STATE
 LOC .                        :  LOCATION
 LMF .             Drill Floor:  LOG MEASURED FROM
 TVDS.m                  36.60:  TVDSS CORRECTN
 LATI.deg                40.08:  LATITUDE
 LONG.deg                51.24:  LONGITUDE
 WHNS.m                  -7.94:  WELL HEAD N/S
 WHEW.m                   1.56:  WELL HEAD E/W
 UTMX.m              520429.26:  UTM X
 UTMY.m             4438973.87:  UTM Y
 DFWL.m                   0.00:  DISTANCE FWL
 DFSL.m                   0.00:  DISTANCE FSL
 SDEP.m                1455.00:  START DEPTH
 TDD .m                3878.01:  TOTAL DEPTH (DRILLER)
 VSDR.deg               112.75:  VERT SEC DIRECT
 GVFD.g                   1.00:  GRAVITY FIELD
 MFLD.nT              50256.00:  MAGNETIC FIELD
 MDIP.deg                59.52:  MAGNETIC DIP
 MDEC.deg                 6.43:  MAGNETIC DECL
 GRDC.deg                 0.16:  GRID CORRECTION
 AZTC.deg                 6.27:  AZM TOTAL CORR
 EPD .m                   0.00:  ELEVATION
 EGL .m                   0.00:  GROUND ELEVATION
 WDMS.m                 121.00:  WD ELEV
 APD .m                  36.60:  DEPTH ABOVE PD
 AGAP.m                  36.60:  AIR GAP
 VSEW.m                   1.56:  VERT SEC E/W
 VSNS.m                  -7.94:  VERT SEC N/S
 DEP .m                1140.01:  DEPTH
 EKB .m                  36.60:  KB ELEVATION
 EDF .m                  36.60:  DF ELEVATION
 TDL .m                1293.00:  TOTAL DEPTH (LOGGER)
 VSC .                       0:  VS TO CLOSURE
 MAGU.                 1849164:  MAGUTM CHECKSUM
~Parameter Information Block
#MNEM.UNIT       Value        Description
#---------     -----------    ---------------------------
 AV  .mps                 2.40:  Ann Velocity 
 AVMX.mps                 2.55:  Max Ann Veloc 
 AZIF.deg               134.35:  Azm, Final 
 BHAT.        Rotary Steerable:  BHA Type 
 BREV.rev               847.00:  Rev Bit Total 
 BROT.°/30m              -2.51:  Build Rotating 
 BS  .in                  8.50:  Bit Size 
 BSZ .in                  8.50:  Bit Size 
 BTPL.psig              700.00:  Bit Press Loss 
 CABU.                     Yes:  Customer Abuse 
 CGEO.          Ilgar Gurbanov:  Customer Geo 
 COMM.                     ¸P:  Run Comments 1 
 TCS .hr                140.40:  Time Ciculation Ended 
 CV  .mps                 2.27:  Crit Velocity 
 CVMX.mps                 2.45:  Max Crit Veloc 
 DD1 .         Intigam Rahimov:  Direct Drillr 1 
 DD2 .         Rasim Ibrahimov:  Direct Drillr 2 
 DDSV.                 iCruise:  DD Service 
 DEFF.%                  99.00:  % Det Eff 
 DLRX.°/30m               3.28:  Dogleg Rot Max 
 DLSO.°/30m               0.00:  Dogleg Oriented 
 DLSX.°/30m               0.00:  Dogleg Str Max 
 DRET.      23.30.00 18-Jan-20:  Drill End Time 
 DRST.      01.45.00 11-Jan-20:  Drill Start Tim 
 DTIM.hr                 94.00:  Time Drilling 
 EDEP.m                3878.01:  End Depth 
 ENG1.       Dauren Baktybayev:  Engineer 1 
 ENG2.      Natik Hasanaghayev:  Engineer 2 
 ENG3.          Rustam Safarov:  Engineer 3 
 ETIM.      08.00.00 20-Jan-20:  End Time 
 FLOI.gpm               532.00:  Flow In 
 FLON.gpm               500.00:  Flow In Min 
 FLOS.cptm                0.00:  Fluid Loss 
 FLOX.gpm               540.00:  Flow In Max 
 FTRO.       Formation Presure:  FTWD Run Obj 
 HPRE.                     Yes:  High Pressure 
 HTEM.                      No:  High Temp 
 HYDO.m                   1.80:  Hydro Offset 
 IFIN.deg                39.86:  Inc, Final 
 IMAX.deg                59.73:  Inc Max 
 IMIN.deg                39.25:  Inc Min 
 IMND.m                3816.77:  Inc Min Depth 
 IMXD.m                2596.33:  Inc Max Depth 
 JARR.                      No:  Jarring 
 LETM.      23.30.00 18-Jan-20:  Log End Time 
 LOST.hr                     0:  Lost Rig Time 
 LSTM.      01.45.00 11-Jan-20:  Log Start Time 
 MDCL.ppm             41500.00:  Mud Chlorides 
 MDES.     Inversion Oil/Synthetic:  Mud Desc 
 DFD .sg                  1.48:  Mud Density 
 MDMN.sg                  1.48:  Dens Mud Min 
 MDMX.sg                  1.48:  Dens Mud Max 
 MOIL.                      54:  Run Mud Oil % 
 MOWR.                   72:28:  Run Mud OWR 
 MSND.                       0:  Run Mud Sand % 
 MSOL.                      23:  Run Mud Solids% 
 DFV .spqt               86.00:  Mud Viscosity 
 MWOD.in                  6.75:  MWD Tool OD 
 MWSI.                      No:  Serv Intrp, MWD 
 OTIM.hr                223.40:  Time Operating 
 PCON.           Look Like New:  Pad Condition 
 PMAX.psia            32446.79:  Press Op, Max 
 PV  .cP                 49.00:  Mud PV 
 RUN .                     200:  Run Number 
 ROPA.m/hr               12.48:  ROP Avg 
 ROPN.m/hr                8.00:  ROP Min 
 ROPX.m/hr               27.00:  ROP Max 
 RPMA.rpm               121.00:  RPM Surface Avg 
 RPMN.rpm                60.00:  RPM Surface Min 
 RPMX.rpm               140.00:  RPM Surface Max 
 RRUN.                    L202:  Rig Run Number 
 RTIM.hr                  7.25:  Time Reaming 
 SAZI.deg               123.49:  Azm, Start 
 SDEP.m                2585.01:  Start Depth 
 SIDD.                      No:  Serv Intrp, DD 
 SINC.deg                59.93:  Inc, Start 
 SPPA.psig             3539.00:  SPP Avg 
 SPPN.psig             3050.00:  SPP Min 
 SPPX.psig             3950.00:  SPP Max 
 STIM.      19.00.00 10-Jan-20:  Start Time 
 SVCS.                 DD, MWD:  Services 
 SVER.                    9.20:  Sperry Version 
 TDAT.m                1293.00:  Tot Depth Attmp 
 TDDF.                      No:  Trip for DD 
 TDLG.m                1293.00:  Tot Depth Loggd 
 TFF .                      No:  Trip for Fail 
 TQAA.f-kp               16.00:  Torque Abs Avg 
 TQAN.f-kp               11.00:  Torque Abs Min 
 TQAX.f-kp               18.00:  Torque Abs Max 
 TRRT.°/30m               1.25:  Turn Rotating 
 MRT .                  EWR-M5:  Maximum Recorded Temperature 
 TTMX.degC               84.00:  Max Tool Temp 
 VS01.          AZ90514619R5C6:  Virtual Str1 SN 
 VS02.        AZ90552592N2L2C6:  Virtual Str2 SN 
 VS03.        AZ90571337Z1W1C6:  Virtual Str3 SN 
 VS04.         AZ90513690K23C6:  Virtual Str4 SN 
 VS05.           AZ90594857F11:  Virtual Str5 SN 
 VS06.                13102166:  Virtual Str6 SN 
 WBMN.klb                 7.00:  WOB Min 
 WITN.            Peter Wilson:  Customer Rep 
 WOBA.klb                 9.95:  WOB Avg 
 WOBX.klb                10.00:  WOB Max 
 YP  .lhf2               36.00:  Yield Point 
~Curve Information Block
#MNEM.UNIT                 API CODE     Curve Description
#---------               -----------    ---------------------------
 TIME.HHMMSS            00 000 000 000:  GT Time & Date
 GTDEPTH.m              00 000 000 000:  GT Depth
 GTPQH.psia             00 000 000 000:  GT HR Quartz Pressure
 GTTQ.degC              00 000 000 000:  GT Quartz Temperature
 GTTN.NONE              00 000 000 000:  GT Test Number
 GTET.sec               00 000 000 000:  GT Elapsed Test Time
 GTTVD.m                00 000 000 000:  GT True Vertical Depth
#Other Information
#
#WARRANTY: Halliburton will use its best efforts to furnish customers with 
#accurate information and interpretations that are part of, and incident to, the services 
#provided.  However, Halliburton cannot and does not warrant the accuracy 
#or correctness of such information and interpretations.  Under no circumstances should any 
#such information or interpretation be relied upon as the sole basis for any drilling, 
#completion, production, or financial decision or any procedure involving any risk to the 
#safety of any drilling venture, drilling rig or its crew or any other third party.  The 
#Customer has full responsibility for all drilling, completion and production operation.  
#Halliburton makes no representations or warranties, either expressed or 
#implied, including, but not limited to, the implied warranties of merchantability or fitness 
#for a particular purpose, with respect to the services rendered.  In no event will 
#Halliburton be liable for failure to obtain any particular results or for 
#any damages, including, but not limited to, indirect, special or consequential damages, 
#resulting from the use of any information or interpretation provided by Halliburton.
#
~A           TIME           GTDEPTH  GTPQH  GTTQ  GTTN  GTET   GTTVD  
# ...
   13:35:57.224.18-Jan-2020 3754.51  457.33 80.90 4.00 276.09 2825.33
   13:35:57.424.18-Jan-2020 3754.51  455.62 80.90 4.00 276.29 2825.33
   13:35:57.624.18-Jan-2020 3754.51  457.93 80.90 4.00 276.49 2825.33
   13:35:57.824.18-Jan-2020 3754.51  458.52 80.90 4.00 276.69 2825.33
   13:35:58.024.18-Jan-2020 3754.51  458.09 80.90 4.00 276.89 2825.33
   13:35:58.224.18-Jan-2020 3754.51  457.85 80.90 4.00 277.09 2825.33
   13:35:58.424.18-Jan-2020 3754.51  457.85 80.90 4.00 277.29 2825.33
   13:35:58.624.18-Jan-2020 3754.51  457.82 80.90 4.00 277.49 2825.33
   13:35:58.824.18-Jan-2020 3754.51  457.75 80.90 4.00 277.69 2825.33
   13:35:59.025.18-Jan-2020 3754.51  457.67 80.90 4.00 277.89 2825.33
   13:35:59.225.18-Jan-2020 3754.51  457.72 80.90 4.00 278.09 2825.33
   13:35:59.425.18-Jan-2020 3754.51  457.72 80.90 4.00 278.29 2825.33
   13:35:59.625.18-Jan-2020 3754.51  457.46 80.90 4.00 278.49 2825.33
   13:35:59.825.18-Jan-2020 3754.51  457.34 80.90 4.00 278.69 2825.33
   13:36:00.025.18-Jan-2020 3754.51  457.31 80.89 4.00 278.89 2825.33
   13:36:00.225.18-Jan-2020 3754.51  457.24 80.89 4.00 279.09 2825.33
   13:36:00.425.18-Jan-2020 3754.51  457.24 80.89 4.00 279.29 2825.33
   13:36:00.625.18-Jan-2020 3754.51  457.02 80.89 4.00 279.49 2825.33
   13:36:00.825.18-Jan-2020 3754.51  455.41 80.89 4.00 279.69 2825.33
   13:36:01.025.18-Jan-2020 3754.51  457.49 80.89 4.00 279.89 2825.33
   13:36:01.225.18-Jan-2020 3754.51  458.02 80.89 4.00 280.09 2825.33
   13:36:01.425.18-Jan-2020 3754.51  458.02 80.89 4.00 280.29 2825.33
   13:36:01.625.18-Jan-2020 3754.51  457.37 80.89 4.00 280.49 2825.33
   13:36:01.825.18-Jan-2020 3754.51  457.40 80.89 4.00 280.69 2825.33
   13:36:02.026.18-Jan-2020 3754.51  457.32 80.89 4.00 280.89 2825.33
   13:36:02.226.18-Jan-2020 3754.51  457.28 80.89 4.00 281.09 2825.33
   13:36:02.426.18-Jan-2020 3754.51  457.28 80.89 4.00 281.29 2825.33
   13:36:02.626.18-Jan-2020 3754.51  457.02 80.89 4.00 281.49 2825.33
   13:36:02.826.18-Jan-2020 3754.51  456.93 80.89 4.00 281.69 2825.33
   13:36:03.026.18-Jan-2020 3754.51  455.07 80.89 4.00 281.89 2825.33
   13:36:03.226.18-Jan-2020 3754.51  457.57 80.89 4.00 282.09 2825.33
   13:36:03.426.18-Jan-2020 3754.51  457.57 80.89 4.00 282.29 2825.33
   13:36:03.626.18-Jan-2020 3754.51  457.51 80.89 4.00 282.49 2825.33
   13:36:03.826.18-Jan-2020 3754.51  457.31 80.89 4.00 282.69 2825.33
   13:36:04.026.18-Jan-2020 3754.51  456.08 80.89 4.00 282.89 2825.33
   13:36:04.226.18-Jan-2020 3754.51  457.51 80.89 4.00 283.09 2825.33
   13:36:04.426.18-Jan-2020 3754.51  457.51 80.89 4.00 283.29 2825.33
   13:36:04.626.18-Jan-2020 3754.51  457.76 80.89 4.00 283.49 2825.33
   13:36:04.826.18-Jan-2020 3754.51  457.75 80.89 4.00 283.69 2825.33
   13:36:05.026.18-Jan-2020 3754.51  457.76 80.89 4.00 283.89 2825.33
   13:36:05.227.18-Jan-2020 3754.51  455.80 80.89 4.00 284.09 2825.33
   13:36:05.427.18-Jan-2020 3754.51  455.80 80.89 4.00 284.29 2825.33
   13:36:05.627.18-Jan-2020 3754.51  457.65 80.88 4.00 284.49 2825.33
   13:36:05.827.18-Jan-2020 3754.51  455.87 80.88 4.00 284.69 2825.33
   13:36:06.027.18-Jan-2020 3754.51  458.26 80.88 4.00 284.89 2825.33
   13:36:06.227.18-Jan-2020 3754.51  458.12 80.88 4.00 285.09 2825.33
   13:36:06.427.18-Jan-2020 3754.51  458.12 80.88 4.00 285.29 2825.33
   13:36:06.627.18-Jan-2020 3754.51  457.80 80.88 4.00 285.49 2825.33
   13:36:06.827.18-Jan-2020 3754.51  457.77 80.88 4.00 285.69 2825.33
   13:36:07.027.18-Jan-2020 3754.51  457.82 80.88 4.00 285.89 2825.33
   13:36:07.227.18-Jan-2020 3754.51  457.71 80.88 4.00 286.09 2825.33
   13:36:07.427.18-Jan-2020 3754.51  457.71 80.88 4.00 286.29 2825.33
   13:36:07.627.18-Jan-2020 3754.51  457.34 80.88 4.00 286.49 2825.33
   13:36:07.827.18-Jan-2020 3754.51  457.32 80.88 4.00 286.69 2825.33
   13:36:08.027.18-Jan-2020 3754.51  457.44 80.88 4.00 286.89 2825.33
   13:36:08.228.18-Jan-2020 3754.51  457.29 80.88 4.00 287.09 2825.33
   13:36:08.428.18-Jan-2020 3754.51  457.29 80.88 4.00 287.29 2825.33
   13:36:08.628.18-Jan-2020 3754.51  457.08 80.88 4.00 287.49 2825.33
   13:36:08.828.18-Jan-2020 3754.51  457.12 80.88 4.00 287.69 2825.33
   13:36:09.028.18-Jan-2020 3754.51  457.00 80.88 4.00 287.89 2825.33
   13:36:09.228.18-Jan-2020 3754.51  455.19 80.88 4.00 288.09 2825.33
   13:36:09.428.18-Jan-2020 3754.51  455.19 80.88 4.00 288.29 2825.33
   13:36:09.628.18-Jan-2020 3754.51  457.50 80.88 4.00 288.49 2825.33
   13:36:09.828.18-Jan-2020 3754.51  457.33 80.88 4.00 288.69 2825.33
   13:36:10.028.18-Jan-2020 3754.51  457.31 80.88 4.00 288.89 2825.33
   13:36:10.228.18-Jan-2020 3754.51  457.45 80.88 4.00 289.09 2825.33
   13:36:10.428.18-Jan-2020 3754.51  457.45 80.88 4.00 289.29 2825.33
   13:36:10.628.18-Jan-2020 3754.51  457.29 80.88 4.00 289.49 2825.33
   13:36:10.828.18-Jan-2020 3754.51  457.01 80.88 4.00 289.69 2825.33
   13:36:11.028.18-Jan-2020 3754.51  457.03 80.88 4.00 289.89 2825.33
   13:36:11.228.18-Jan-2020 3754.51  457.07 80.87 4.00 290.09 2825.33
   13:36:11.429.18-Jan-2020 3754.51  457.07 80.87 4.00 290.29 2825.33
   13:36:11.629.18-Jan-2020 3754.51  457.59 80.87 4.00 290.49 2825.33
   13:36:11.829.18-Jan-2020 3754.51  457.48 80.87 4.00 290.69 2825.33
   13:36:12.029.18-Jan-2020 3754.51  457.86 80.87 4.00 290.89 2825.33
   13:36:12.229.18-Jan-2020 3754.51  457.94 80.87 4.00 291.09 2825.33
   13:36:12.429.18-Jan-2020 3754.51  457.94 80.87 4.00 291.29 2825.33
   13:36:12.629.18-Jan-2020 3754.51  455.89 80.87 4.00 291.49 2825.33
   13:36:12.829.18-Jan-2020 3754.51  458.34 80.87 4.00 291.69 2825.33
   13:36:13.029.18-Jan-2020 3754.51  458.05 80.87 4.00 291.89 2825.33
   13:36:13.229.18-Jan-2020 3754.51  457.93 80.87 4.00 292.09 2825.33
   13:36:13.429.18-Jan-2020 3754.51  457.93 80.87 4.00 292.29 2825.33
   13:36:13.629.18-Jan-2020 3754.51  456.03 80.87 4.00 292.49 2825.33
   13:36:13.829.18-Jan-2020 3754.51  458.59 80.87 4.00 292.69 2825.33
   13:36:14.029.18-Jan-2020 3754.51  458.35 80.87 4.00 292.89 2825.33
   13:36:14.229.18-Jan-2020 3754.51  458.19 80.87 4.00 293.09 2825.33
   13:36:14.430.18-Jan-2020 3754.51  458.19 80.87 4.00 293.29 2825.33
   13:36:14.630.18-Jan-2020 3754.51  458.20 80.87 4.00 293.49 2825.33
   13:36:14.830.18-Jan-2020 3754.51  457.60 80.87 4.00 293.69 2825.33
   13:36:15.030.18-Jan-2020 3754.51  457.46 80.87 4.00 293.90 2825.33
   13:36:15.230.18-Jan-2020 3754.51  458.20 80.87 4.00 294.10 2825.33
   13:36:15.430.18-Jan-2020 3754.51  458.20 80.87 4.00 294.30 2825.33
   13:36:15.630.18-Jan-2020 3754.51  458.81 80.87 4.00 294.50 2825.33
   13:36:15.830.18-Jan-2020 3754.51  458.68 80.87 4.00 294.70 2825.33
   13:36:16.030.18-Jan-2020 3754.51  458.30 80.87 4.00 294.90 2825.33
   13:36:16.230.18-Jan-2020 3754.51  458.34 80.87 4.00 295.10 2825.33
   13:36:16.430.18-Jan-2020 3754.51  458.34 80.87 4.00 295.30 2825.33
   13:36:16.630.18-Jan-2020 3754.51  458.38 80.87 4.00 295.50 2825.33
   13:36:16.830.18-Jan-2020 3754.51  458.24 80.86 4.00 295.70 2825.33
   13:36:17.030.18-Jan-2020 3754.51  458.12 80.86 4.00 295.90 2825.33
   13:36:17.230.18-Jan-2020 3754.51  458.02 80.86 4.00 296.10 2825.33
   13:36:17.430.18-Jan-2020 3754.51  457.99 80.86 4.00 296.30 2825.33
   13:36:17.631.18-Jan-2020 3754.51  457.95 80.86 4.00 296.50 2825.33
   13:36:17.831.18-Jan-2020 3754.51  457.92 80.86 4.00 296.70 2825.33
   13:36:18.031.18-Jan-2020 3754.51  457.82 80.86 4.00 296.90 2825.33
   13:36:18.231.18-Jan-2020 3754.51  457.02 80.86 4.00 297.10 2825.33
   13:36:18.431.18-Jan-2020 3754.51  457.02 80.86 4.00 297.30 2825.33
   13:36:18.631.18-Jan-2020 3754.51  457.68 80.86 4.00 297.50 2825.33
   13:36:18.831.18-Jan-2020 3754.51  458.53 80.86 4.00 297.70 2825.33
   13:36:19.031.18-Jan-2020 3754.51  458.17 80.86 4.00 297.90 2825.33
   13:36:19.231.18-Jan-2020 3754.51  458.07 80.86 4.00 298.10 2825.33
   13:36:19.431.18-Jan-2020 3754.51  458.07 80.86 4.00 298.30 2825.33
   13:36:19.631.18-Jan-2020 3754.51  457.82 80.86 4.00 298.50 2825.33
   13:36:19.831.18-Jan-2020 3754.51  457.84 80.86 4.00 298.70 2825.33
   13:36:20.031.18-Jan-2020 3754.51  457.75 80.86 4.00 298.90 2825.33
