~Version Information
 VERS.                  2.0:   CWLS log ASCII Standard -VERSION 2.0
 WRAP.                   NO:   One line per depth step
~Well Information Block
#MNEM.UNIT     VALUE/NAME     DESCRIPTION
#---------     -----------    ---------------------------
 STRT.S             13:51:43 18-Jan-20: START TIME 13:51:43 18-Jan-20
 STOP.S             13:59:59 18-Jan-20: STOP TIME  13:59:59 18-Jan-20
 STEP.S                   0.00: STEP TIME
 NULL.                 -999.25: NULL VALUE
 DFWT.                        :  DIST FWL TEXT
 DFST.                        :  DIST FSL TEXT
 DMF .             Drill Floor:  DRILL MEAS FROM
 STIM.      09.30.00 26-Dec-19:  START TIME
 DATE.      08.00.00 20-Jan-20:  END TIME
 SPUD.               23-Nov-19:  SPUD DATE
 NREF.                    Grid:  NORTH REFERENCE
 HPTY.       Minimum Curvature:  HOLE POS TYPE
 DMOD.             Drill Model:  DRILL MOD DESC
 SVYD.                  Survey:  SURVEY DESC
 ILTD.               Lithology:  INTERP LTH DESC
 FTOP.          Formation Tops:  FORM TOPS DESC
 SON .        AZ-XX-0906192647:  JOB NUMBER
 WTYP.                Deviated:  WELL TYPE
 COMP.     BP Exploration (Caspian Sea) Ltd:  COMPANY
 BASE.              Azerbaijan:  LOGGING EQUIPMENT BASE LOCATION
 REGN.                 Eurasia:  REGION
 FLD .                     ACG:  FIELD NAME
 SRVC.              KCA Deutag:  CONTRACTOR
 MWDS.                    Baku:  MWD SHOP
 WELL.     A10 (Slot 20) - SCP:  WELL NAME
 JOBN.        AZ-XX-0906192647:  JOB TICKET NUMB
 RIG .                 Chirag1:  RIG NAME
 DCON.     Halliburton Sperry Drilling:  DIRECTNL CONTR
 UNIT.                     N/A:  LOGGING EQUIPMENT ID
 PDAT.          Mean Sea Level:  PERMANENT DATUM
 MDS .        Operator Entered:  MAG DATA SOURCE
 CTRY.              Azerbaijan:  COUNTRY NAME
 UWI .            /AZE00000090:  UNIQUE WELL IDENTIFIER
 API .            /AZE00000090:  API NUMBER
 CNTY.                        :  COUNTY
 PROV.                        :  PROVINCE
 STAT.                        :  STATE
 LOC .                        :  LOCATION
 LMF .             Drill Floor:  LOG MEASURED FROM
 TVDS.m                  36.60:  TVDSS CORRECTN
 LATI.deg                40.08:  LATITUDE
 LONG.deg                51.24:  LONGITUDE
 WHNS.m                  -7.94:  WELL HEAD N/S
 WHEW.m                   1.56:  WELL HEAD E/W
 UTMX.m              520429.26:  UTM X
 UTMY.m             4438973.87:  UTM Y
 DFWL.m                   0.00:  DISTANCE FWL
 DFSL.m                   0.00:  DISTANCE FSL
 SDEP.m                1455.00:  START DEPTH
 TDD .m                3878.01:  TOTAL DEPTH (DRILLER)
 VSDR.deg               112.75:  VERT SEC DIRECT
 GVFD.g                   1.00:  GRAVITY FIELD
 MFLD.nT              50256.00:  MAGNETIC FIELD
 MDIP.deg                59.52:  MAGNETIC DIP
 MDEC.deg                 6.43:  MAGNETIC DECL
 GRDC.deg                 0.16:  GRID CORRECTION
 AZTC.deg                 6.27:  AZM TOTAL CORR
 EPD .m                   0.00:  ELEVATION
 EGL .m                   0.00:  GROUND ELEVATION
 WDMS.m                 121.00:  WD ELEV
 APD .m                  36.60:  DEPTH ABOVE PD
 AGAP.m                  36.60:  AIR GAP
 VSEW.m                   1.56:  VERT SEC E/W
 VSNS.m                  -7.94:  VERT SEC N/S
 DEP .m                1140.01:  DEPTH
 EKB .m                  36.60:  KB ELEVATION
 EDF .m                  36.60:  DF ELEVATION
 TDL .m                1293.00:  TOTAL DEPTH (LOGGER)
 VSC .                       0:  VS TO CLOSURE
 MAGU.                 1849164:  MAGUTM CHECKSUM
~Parameter Information Block
#MNEM.UNIT       Value        Description
#---------     -----------    ---------------------------
 AV  .mps                 2.40:  Ann Velocity 
 AVMX.mps                 2.55:  Max Ann Veloc 
 AZIF.deg               134.35:  Azm, Final 
 BHAT.        Rotary Steerable:  BHA Type 
 BREV.rev               847.00:  Rev Bit Total 
 BROT.°/30m              -2.51:  Build Rotating 
 BS  .in                  8.50:  Bit Size 
 BSZ .in                  8.50:  Bit Size 
 BTPL.psig              700.00:  Bit Press Loss 
 CABU.                     Yes:  Customer Abuse 
 CGEO.          Ilgar Gurbanov:  Customer Geo 
 COMM.                     üÓ~:  Run Comments 1 
 TCS .hr                140.40:  Time Ciculation Ended 
 CV  .mps                 2.27:  Crit Velocity 
 CVMX.mps                 2.45:  Max Crit Veloc 
 DD1 .         Intigam Rahimov:  Direct Drillr 1 
 DD2 .         Rasim Ibrahimov:  Direct Drillr 2 
 DDSV.                 iCruise:  DD Service 
 DEFF.%                  99.00:  % Det Eff 
 DLRX.°/30m               3.28:  Dogleg Rot Max 
 DLSO.°/30m               0.00:  Dogleg Oriented 
 DLSX.°/30m               0.00:  Dogleg Str Max 
 DRET.      23.30.00 18-Jan-20:  Drill End Time 
 DRST.      01.45.00 11-Jan-20:  Drill Start Tim 
 DTIM.hr                 94.00:  Time Drilling 
 EDEP.m                3878.01:  End Depth 
 ENG1.       Dauren Baktybayev:  Engineer 1 
 ENG2.      Natik Hasanaghayev:  Engineer 2 
 ENG3.          Rustam Safarov:  Engineer 3 
 ETIM.      08.00.00 20-Jan-20:  End Time 
 FLOI.gpm               532.00:  Flow In 
 FLON.gpm               500.00:  Flow In Min 
 FLOS.cptm                0.00:  Fluid Loss 
 FLOX.gpm               540.00:  Flow In Max 
 FTRO.       Formation Presure:  FTWD Run Obj 
 HPRE.                     Yes:  High Pressure 
 HTEM.                      No:  High Temp 
 HYDO.m                   1.80:  Hydro Offset 
 IFIN.deg                39.86:  Inc, Final 
 IMAX.deg                59.73:  Inc Max 
 IMIN.deg                39.25:  Inc Min 
 IMND.m                3816.77:  Inc Min Depth 
 IMXD.m                2596.33:  Inc Max Depth 
 JARR.                      No:  Jarring 
 LETM.      23.30.00 18-Jan-20:  Log End Time 
 LOST.hr                     0:  Lost Rig Time 
 LSTM.      01.45.00 11-Jan-20:  Log Start Time 
 MDCL.ppm             41500.00:  Mud Chlorides 
 MDES.     Inversion Oil/Synthetic:  Mud Desc 
 DFD .sg                  1.48:  Mud Density 
 MDMN.sg                  1.48:  Dens Mud Min 
 MDMX.sg                  1.48:  Dens Mud Max 
 MOIL.                      54:  Run Mud Oil % 
 MOWR.                   72:28:  Run Mud OWR 
 MSND.                       0:  Run Mud Sand % 
 MSOL.                      23:  Run Mud Solids% 
 DFV .spqt               86.00:  Mud Viscosity 
 MWOD.in                  6.75:  MWD Tool OD 
 MWSI.                      No:  Serv Intrp, MWD 
 OTIM.hr                223.40:  Time Operating 
 PCON.           Look Like New:  Pad Condition 
 PMAX.psia            32446.79:  Press Op, Max 
 PV  .cP                 49.00:  Mud PV 
 RUN .                     200:  Run Number 
 ROPA.m/hr               12.48:  ROP Avg 
 ROPN.m/hr                8.00:  ROP Min 
 ROPX.m/hr               27.00:  ROP Max 
 RPMA.rpm               121.00:  RPM Surface Avg 
 RPMN.rpm                60.00:  RPM Surface Min 
 RPMX.rpm               140.00:  RPM Surface Max 
 RRUN.                    L202:  Rig Run Number 
 RTIM.hr                  7.25:  Time Reaming 
 SAZI.deg               123.49:  Azm, Start 
 SDEP.m                2585.01:  Start Depth 
 SIDD.                      No:  Serv Intrp, DD 
 SINC.deg                59.93:  Inc, Start 
 SPPA.psig             3539.00:  SPP Avg 
 SPPN.psig             3050.00:  SPP Min 
 SPPX.psig             3950.00:  SPP Max 
 STIM.      19.00.00 10-Jan-20:  Start Time 
 SVCS.                 DD, MWD:  Services 
 SVER.                    9.20:  Sperry Version 
 TDAT.m                1293.00:  Tot Depth Attmp 
 TDDF.                      No:  Trip for DD 
 TDLG.m                1293.00:  Tot Depth Loggd 
 TFF .                      No:  Trip for Fail 
 TQAA.f-kp               16.00:  Torque Abs Avg 
 TQAN.f-kp               11.00:  Torque Abs Min 
 TQAX.f-kp               18.00:  Torque Abs Max 
 TRRT.°/30m               1.25:  Turn Rotating 
 MRT .                  EWR-M5:  Maximum Recorded Temperature 
 TTMX.degC               84.00:  Max Tool Temp 
 VS01.          AZ90514619R5C6:  Virtual Str1 SN 
 VS02.        AZ90552592N2L2C6:  Virtual Str2 SN 
 VS03.        AZ90571337Z1W1C6:  Virtual Str3 SN 
 VS04.         AZ90513690K23C6:  Virtual Str4 SN 
 VS05.           AZ90594857F11:  Virtual Str5 SN 
 VS06.                13102166:  Virtual Str6 SN 
 WBMN.klb                 7.00:  WOB Min 
 WITN.            Peter Wilson:  Customer Rep 
 WOBA.klb                 9.95:  WOB Avg 
 WOBX.klb                10.00:  WOB Max 
 YP  .lhf2               36.00:  Yield Point 
~Curve Information Block
#MNEM.UNIT                 API CODE     Curve Description
#---------               -----------    ---------------------------
 TIME.HHMMSS            00 000 000 000:  GT Time & Date
 GTDEPTH.m              00 000 000 000:  GT Depth
 GTPQH.psia             00 000 000 000:  GT HR Quartz Pressure
 GTTQ.degC              00 000 000 000:  GT Quartz Temperature
 GTTN.NONE              00 000 000 000:  GT Test Number
 GTET.sec               00 000 000 000:  GT Elapsed Test Time
 GTTVD.m                00 000 000 000:  GT True Vertical Depth
#Other Information
#
#WARRANTY: Halliburton will use its best efforts to furnish customers with 
#accurate information and interpretations that are part of, and incident to, the services 
#provided.  However, Halliburton cannot and does not warrant the accuracy 
#or correctness of such information and interpretations.  Under no circumstances should any 
#such information or interpretation be relied upon as the sole basis for any drilling, 
#completion, production, or financial decision or any procedure involving any risk to the 
#safety of any drilling venture, drilling rig or its crew or any other third party.  The 
#Customer has full responsibility for all drilling, completion and production operation.  
#Halliburton makes no representations or warranties, either expressed or 
#implied, including, but not limited to, the implied warranties of merchantability or fitness 
#for a particular purpose, with respect to the services rendered.  In no event will 
#Halliburton be liable for failure to obtain any particular results or for 
#any damages, including, but not limited to, indirect, special or consequential damages, 
#resulting from the use of any information or interpretation provided by Halliburton.
#
~A           TIME           GTDEPTH  GTPQH  GTTQ  GTTN  GTET   GTTVD  
# ...
   13:59:23.679.18-Jan-2020 3754.01 6393.22 79.49 5.00 460.15 2824.94
   13:59:23.879.18-Jan-2020 3754.01 6393.22 79.49 5.00 460.35 2824.94
   13:59:24.079.18-Jan-2020 3754.01 6392.57 79.49 5.00 460.55 2824.94
   13:59:24.279.18-Jan-2020 3754.01 6390.61 79.49 5.00 460.75 2824.94
   13:59:24.479.18-Jan-2020 3754.01 6390.52 79.49 5.00 460.95 2824.94
   13:59:24.679.18-Jan-2020 3754.01 6390.25 79.49 5.00 461.15 2824.94
   13:59:24.879.18-Jan-2020 3754.01 6390.25 79.49 5.00 461.35 2824.94
   13:59:25.079.18-Jan-2020 3754.01 6393.26 79.49 5.00 461.55 2824.94
   13:59:25.279.18-Jan-2020 3754.01 6390.08 79.49 5.00 461.75 2824.94
   13:59:25.479.18-Jan-2020 3754.01 6391.24 79.49 5.00 461.95 2824.94
   13:59:25.679.18-Jan-2020 3754.01 6397.90 79.49 5.00 462.15 2824.94
   13:59:25.879.18-Jan-2020 3754.01 6397.90 79.49 5.00 462.35 2824.94
   13:59:26.079.18-Jan-2020 3754.01 6392.28 79.49 5.00 462.55 2824.94
   13:59:26.280.18-Jan-2020 3754.01 6391.95 79.49 5.00 462.75 2824.94
   13:59:26.480.18-Jan-2020 3754.01 6391.70 79.49 5.00 462.95 2824.94
   13:59:26.680.18-Jan-2020 3754.01 6392.99 79.49 5.00 463.15 2824.94
   13:59:26.880.18-Jan-2020 3754.01 6392.99 79.49 5.00 463.35 2824.94
   13:59:27.080.18-Jan-2020 3754.01 6394.13 79.49 5.00 463.55 2824.94
   13:59:27.280.18-Jan-2020 3754.01 6392.70 79.49 5.00 463.75 2824.94
   13:59:27.480.18-Jan-2020 3754.01 6390.52 79.49 5.00 463.95 2824.94
   13:59:27.680.18-Jan-2020 3754.01 6392.33 79.49 5.00 464.15 2824.94
   13:59:27.880.18-Jan-2020 3754.01 6392.33 79.49 5.00 464.35 2824.94
   13:59:28.080.18-Jan-2020 3754.01 6394.02 79.49 5.00 464.55 2824.94
   13:59:28.280.18-Jan-2020 3754.01 6391.99 79.49 5.00 464.75 2824.94
   13:59:28.480.18-Jan-2020 3754.01 6393.63 79.49 5.00 464.95 2824.94
   13:59:28.680.18-Jan-2020 3754.01 6392.76 79.49 5.00 465.15 2824.94
   13:59:28.880.18-Jan-2020 3754.01 6392.76 79.49 5.00 465.35 2824.94
   13:59:29.080.18-Jan-2020 3754.01 6399.59 79.49 5.00 465.55 2824.94
   13:59:29.280.18-Jan-2020 3754.01 6392.62 79.49 5.00 465.75 2824.94
   13:59:29.481.18-Jan-2020 3754.01 6390.54 79.49 5.00 465.95 2824.94
   13:59:29.681.18-Jan-2020 3754.01 6392.14 79.49 5.00 466.15 2824.94
   13:59:29.881.18-Jan-2020 3754.01 6392.14 79.49 5.00 466.35 2824.94
   13:59:30.081.18-Jan-2020 3754.01 6392.17 79.49 5.00 466.55 2824.94
   13:59:30.281.18-Jan-2020 3754.01 6392.37 79.49 5.00 466.75 2824.94
   13:59:30.481.18-Jan-2020 3754.01 6391.37 79.49 5.00 466.95 2824.94
   13:59:30.681.18-Jan-2020 3754.01 6390.35 79.49 5.00 467.15 2824.94
   13:59:30.881.18-Jan-2020 3754.01 6390.35 79.49 5.00 467.35 2824.94
   13:59:31.081.18-Jan-2020 3754.01 6391.77 79.49 5.00 467.55 2824.94
   13:59:31.281.18-Jan-2020 3754.01 6390.27 79.49 5.00 467.75 2824.94
   13:59:31.481.18-Jan-2020 3754.01 6399.79 79.49 5.00 467.95 2824.94
   13:59:31.681.18-Jan-2020 3754.01 6390.82 79.49 5.00 468.15 2824.94
   13:59:31.881.18-Jan-2020 3754.01 6390.82 79.49 5.00 468.35 2824.94
   13:59:32.081.18-Jan-2020 3754.01 6393.70 79.49 5.00 468.55 2824.94
   13:59:32.281.18-Jan-2020 3754.01 6391.97 79.49 5.00 468.75 2824.94
   13:59:32.482.18-Jan-2020 3754.01 6390.98 79.49 5.00 468.95 2824.94
   13:59:32.682.18-Jan-2020 3754.01 6389.94 79.49 5.00 469.15 2824.94
   13:59:32.882.18-Jan-2020 3754.01 6389.94 79.49 5.00 469.35 2824.94
   13:59:33.082.18-Jan-2020 3754.01 6389.25 79.49 5.00 469.55 2824.94
   13:59:33.282.18-Jan-2020 3754.01 6389.40 79.49 5.00 469.75 2824.94
   13:59:33.482.18-Jan-2020 3754.01 6390.39 79.49 5.00 469.95 2824.94
   13:59:33.682.18-Jan-2020 3754.01 6389.78 79.49 5.00 470.15 2824.94
   13:59:33.882.18-Jan-2020 3754.01 6389.78 79.49 5.00 470.35 2824.94
   13:59:34.082.18-Jan-2020 3754.01 6396.63 79.49 5.00 470.55 2824.94
   13:59:34.282.18-Jan-2020 3754.01 6390.45 79.49 5.00 470.75 2824.94
   13:59:34.482.18-Jan-2020 3754.01 6390.81 79.49 5.00 470.95 2824.94
   13:59:34.682.18-Jan-2020 3754.01 6393.06 79.49 5.00 471.15 2824.94
   13:59:34.882.18-Jan-2020 3754.01 6393.06 79.49 5.00 471.35 2824.94
   13:59:35.082.18-Jan-2020 3754.01 6391.52 79.49 5.00 471.55 2824.94
   13:59:35.282.18-Jan-2020 3754.01 6395.69 79.49 5.00 471.75 2824.94
   13:59:35.482.18-Jan-2020 3754.01 6394.01 79.49 5.00 471.95 2824.94
   13:59:35.683.18-Jan-2020 3754.01 6390.78 79.49 5.00 472.15 2824.94
   13:59:35.883.18-Jan-2020 3754.01 6390.78 79.49 5.00 472.35 2824.94
   13:59:36.083.18-Jan-2020 3754.01 6389.53 79.49 5.00 472.55 2824.94
   13:59:36.283.18-Jan-2020 3754.01 6391.43 79.49 5.00 472.75 2824.94
   13:59:36.483.18-Jan-2020 3754.01 6389.80 79.49 5.00 472.95 2824.94
   13:59:36.683.18-Jan-2020 3754.01 6388.67 79.49 5.00 473.15 2824.94
   13:59:36.883.18-Jan-2020 3754.01 6388.67 79.49 5.00 473.35 2824.94
   13:59:37.083.18-Jan-2020 3754.01 6389.32 79.49 5.00 473.55 2824.94
   13:59:37.283.18-Jan-2020 3754.01 6390.02 79.49 5.00 473.75 2824.94
   13:59:37.483.18-Jan-2020 3754.01 6388.52 79.49 5.00 473.95 2824.94
   13:59:37.683.18-Jan-2020 3754.01 6389.88 79.49 5.00 474.15 2824.94
   13:59:37.883.18-Jan-2020 3754.01 6389.88 79.49 5.00 474.35 2824.94
   13:59:38.083.18-Jan-2020 3754.01 6390.12 79.49 5.00 474.55 2824.94
   13:59:38.283.18-Jan-2020 3754.01 6390.88 79.49 5.00 474.75 2824.94
   13:59:38.483.18-Jan-2020 3754.01 6391.51 79.49 5.00 474.95 2824.94
   13:59:38.684.18-Jan-2020 3754.01 6391.48 79.49 5.00 475.15 2824.94
   13:59:38.884.18-Jan-2020 3754.01 6391.48 79.49 5.00 475.35 2824.94
   13:59:39.084.18-Jan-2020 3754.01 6390.71 79.49 5.00 475.55 2824.94
   13:59:39.284.18-Jan-2020 3754.01 6389.06 79.48 5.00 475.75 2824.94
   13:59:39.484.18-Jan-2020 3754.01 6391.97 79.48 5.00 475.95 2824.94
   13:59:39.684.18-Jan-2020 3754.01 6387.77 79.48 5.00 476.15 2824.94
   13:59:39.884.18-Jan-2020 3754.01 6387.77 79.48 5.00 476.35 2824.94
   13:59:40.084.18-Jan-2020 3754.01 6388.66 79.48 5.00 476.55 2824.94
   13:59:40.284.18-Jan-2020 3754.01 6389.93 79.48 5.00 476.75 2824.94
   13:59:40.484.18-Jan-2020 3754.01 6388.60 79.48 5.00 476.95 2824.94
   13:59:40.684.18-Jan-2020 3754.01 6388.97 79.48 5.00 477.15 2824.94
   13:59:40.884.18-Jan-2020 3754.01 6388.97 79.48 5.00 477.35 2824.94
   13:59:41.084.18-Jan-2020 3754.01 6387.88 79.48 5.00 477.55 2824.94
   13:59:41.284.18-Jan-2020 3754.01 6399.55 79.48 5.00 477.75 2824.94
   13:59:41.484.18-Jan-2020 3754.01 6388.56 79.48 5.00 477.95 2824.94
   13:59:41.684.18-Jan-2020 3754.01 6389.94 79.48 5.00 478.15 2824.94
   13:59:41.885.18-Jan-2020 3754.01 6389.94 79.48 5.00 478.35 2824.94
   13:59:42.085.18-Jan-2020 3754.01 6391.30 79.48 5.00 478.55 2824.94
   13:59:42.285.18-Jan-2020 3754.01 6388.02 79.48 5.00 478.75 2824.94
   13:59:42.485.18-Jan-2020 3754.01 6395.29 79.48 5.00 478.95 2824.94
   13:59:42.685.18-Jan-2020 3754.01 6392.02 79.48 5.00 479.15 2824.94
   13:59:42.885.18-Jan-2020 3754.01 6392.02 79.48 5.00 479.35 2824.94
   13:59:43.085.18-Jan-2020 3754.01 6388.70 79.48 5.00 479.56 2824.94
   13:59:43.285.18-Jan-2020 3754.01 6387.67 79.48 5.00 479.76 2824.94
   13:59:43.485.18-Jan-2020 3754.01 6388.22 79.48 5.00 479.96 2824.94
   13:59:43.685.18-Jan-2020 3754.01 6387.44 79.48 5.00 480.16 2824.94
   13:59:43.885.18-Jan-2020 3754.01 6387.44 79.48 5.00 480.36 2824.94
   13:59:44.085.18-Jan-2020 3754.01 6390.72 79.48 5.00 480.56 2824.94
   13:59:44.285.18-Jan-2020 3754.01 6390.05 79.48 5.00 480.76 2824.94
   13:59:44.485.18-Jan-2020 3754.01 6390.31 79.48 5.00 480.96 2824.94
   13:59:44.685.18-Jan-2020 3754.01 6390.18 79.48 5.00 481.16 2824.94
   13:59:44.886.18-Jan-2020 3754.01 6390.18 79.48 5.00 481.36 2824.94
   13:59:45.086.18-Jan-2020 3754.01 6388.70 79.48 5.00 481.56 2824.94
   13:59:45.286.18-Jan-2020 3754.01 6388.60 79.48 5.00 481.76 2824.94
   13:59:45.486.18-Jan-2020 3754.01 6392.53 79.48 5.00 481.96 2824.94
   13:59:45.686.18-Jan-2020 3754.01 6389.84 79.48 5.00 482.16 2824.94
   13:59:45.886.18-Jan-2020 3754.01 6389.84 79.48 5.00 482.36 2824.94
   13:59:46.086.18-Jan-2020 3754.01 6391.01 79.48 5.00 482.56 2824.94
   13:59:46.286.18-Jan-2020 3754.01 6389.80 79.48 5.00 482.76 2824.94
   13:59:46.486.18-Jan-2020 3754.01 6388.80 79.48 5.00 482.96 2824.94
