~Version Information
 VERS.                  2.0:   CWLS log ASCII Standard -VERSION 2.0
 WRAP.                   NO:   One line per depth step
~Well Information Block
#MNEM.UNIT     VALUE/NAME     DESCRIPTION
#---------     -----------    ---------------------------
 STRT.S             05:39:19 18-Jan-20: START TIME 05:39:19 18-Jan-20
 STOP.S             05:47:35 18-Jan-20: STOP TIME  05:47:35 18-Jan-20
 STEP.S                   0.00: STEP TIME
 NULL.                 -999.25: NULL VALUE
 DFWT.                        :  DIST FWL TEXT
 DFST.                        :  DIST FSL TEXT
 DMF .             Drill Floor:  DRILL MEAS FROM
 STIM.      09.30.00 26-Dec-19:  START TIME
 DATE.      08.00.00 20-Jan-20:  END TIME
 SPUD.               23-Nov-19:  SPUD DATE
 NREF.                    Grid:  NORTH REFERENCE
 HPTY.       Minimum Curvature:  HOLE POS TYPE
 DMOD.             Drill Model:  DRILL MOD DESC
 SVYD.                  Survey:  SURVEY DESC
 ILTD.               Lithology:  INTERP LTH DESC
 FTOP.          Formation Tops:  FORM TOPS DESC
 SON .        AZ-XX-0906192647:  JOB NUMBER
 WTYP.                Deviated:  WELL TYPE
 COMP.     BP Exploration (Caspian Sea) Ltd:  COMPANY
 BASE.              Azerbaijan:  LOGGING EQUIPMENT BASE LOCATION
 REGN.                 Eurasia:  REGION
 FLD .                     ACG:  FIELD NAME
 SRVC.              KCA Deutag:  CONTRACTOR
 MWDS.                    Baku:  MWD SHOP
 WELL.     A10 (Slot 20) - SCP:  WELL NAME
 JOBN.        AZ-XX-0906192647:  JOB TICKET NUMB
 RIG .                 Chirag1:  RIG NAME
 DCON.     Halliburton Sperry Drilling:  DIRECTNL CONTR
 UNIT.                     N/A:  LOGGING EQUIPMENT ID
 PDAT.          Mean Sea Level:  PERMANENT DATUM
 MDS .        Operator Entered:  MAG DATA SOURCE
 CTRY.              Azerbaijan:  COUNTRY NAME
 UWI .            /AZE00000090:  UNIQUE WELL IDENTIFIER
 API .            /AZE00000090:  API NUMBER
 CNTY.                        :  COUNTY
 PROV.                        :  PROVINCE
 STAT.                        :  STATE
 LOC .                        :  LOCATION
 LMF .             Drill Floor:  LOG MEASURED FROM
 TVDS.m                  36.60:  TVDSS CORRECTN
 LATI.deg                40.08:  LATITUDE
 LONG.deg                51.24:  LONGITUDE
 WHNS.m                  -7.94:  WELL HEAD N/S
 WHEW.m                   1.56:  WELL HEAD E/W
 UTMX.m              520429.26:  UTM X
 UTMY.m             4438973.87:  UTM Y
 DFWL.m                   0.00:  DISTANCE FWL
 DFSL.m                   0.00:  DISTANCE FSL
 SDEP.m                1455.00:  START DEPTH
 TDD .m                3878.01:  TOTAL DEPTH (DRILLER)
 VSDR.deg               112.75:  VERT SEC DIRECT
 GVFD.g                   1.00:  GRAVITY FIELD
 MFLD.nT              50256.00:  MAGNETIC FIELD
 MDIP.deg                59.52:  MAGNETIC DIP
 MDEC.deg                 6.43:  MAGNETIC DECL
 GRDC.deg                 0.16:  GRID CORRECTION
 AZTC.deg                 6.27:  AZM TOTAL CORR
 EPD .m                   0.00:  ELEVATION
 EGL .m                   0.00:  GROUND ELEVATION
 WDMS.m                 121.00:  WD ELEV
 APD .m                  36.60:  DEPTH ABOVE PD
 AGAP.m                  36.60:  AIR GAP
 VSEW.m                   1.56:  VERT SEC E/W
 VSNS.m                  -7.94:  VERT SEC N/S
 DEP .m                1140.01:  DEPTH
 EKB .m                  36.60:  KB ELEVATION
 EDF .m                  36.60:  DF ELEVATION
 TDL .m                1293.00:  TOTAL DEPTH (LOGGER)
 VSC .                       0:  VS TO CLOSURE
 MAGU.                 1849164:  MAGUTM CHECKSUM
~Parameter Information Block
#MNEM.UNIT       Value        Description
#---------     -----------    ---------------------------
 AV  .mps                 2.40:  Ann Velocity 
 AVMX.mps                 2.55:  Max Ann Veloc 
 AZIF.deg               134.35:  Azm, Final 
 BHAT.        Rotary Steerable:  BHA Type 
 BREV.rev               847.00:  Rev Bit Total 
 BROT.∞/30m              -2.51:  Build Rotating 
 BS  .in                  8.50:  Bit Size 
 BSZ .in                  8.50:  Bit Size 
 BTPL.psig              700.00:  Bit Press Loss 
 CABU.                     Yes:  Customer Abuse 
 CGEO.          Ilgar Gurbanov:  Customer Geo 
 COMM.                     ‹êX:  Run Comments 1 
 TCS .hr                140.40:  Time Ciculation Ended 
 CV  .mps                 2.27:  Crit Velocity 
 CVMX.mps                 2.45:  Max Crit Veloc 
 DD1 .         Intigam Rahimov:  Direct Drillr 1 
 DD2 .         Rasim Ibrahimov:  Direct Drillr 2 
 DDSV.                 iCruise:  DD Service 
 DEFF.%                  99.00:  % Det Eff 
 DLRX.∞/30m               3.28:  Dogleg Rot Max 
 DLSO.∞/30m               0.00:  Dogleg Oriented 
 DLSX.∞/30m               0.00:  Dogleg Str Max 
 DRET.      23.30.00 18-Jan-20:  Drill End Time 
 DRST.      01.45.00 11-Jan-20:  Drill Start Tim 
 DTIM.hr                 94.00:  Time Drilling 
 EDEP.m                3878.01:  End Depth 
 ENG1.       Dauren Baktybayev:  Engineer 1 
 ENG2.      Natik Hasanaghayev:  Engineer 2 
 ENG3.          Rustam Safarov:  Engineer 3 
 ETIM.      08.00.00 20-Jan-20:  End Time 
 FLOI.gpm               532.00:  Flow In 
 FLON.gpm               500.00:  Flow In Min 
 FLOS.cptm                0.00:  Fluid Loss 
 FLOX.gpm               540.00:  Flow In Max 
 FTRO.       Formation Presure:  FTWD Run Obj 
 HPRE.                     Yes:  High Pressure 
 HTEM.                      No:  High Temp 
 HYDO.m                   1.80:  Hydro Offset 
 IFIN.deg                39.86:  Inc, Final 
 IMAX.deg                59.73:  Inc Max 
 IMIN.deg                39.25:  Inc Min 
 IMND.m                3816.77:  Inc Min Depth 
 IMXD.m                2596.33:  Inc Max Depth 
 JARR.                      No:  Jarring 
 LETM.      23.30.00 18-Jan-20:  Log End Time 
 LOST.hr                     0:  Lost Rig Time 
 LSTM.      01.45.00 11-Jan-20:  Log Start Time 
 MDCL.ppm             41500.00:  Mud Chlorides 
 MDES.     Inversion Oil/Synthetic:  Mud Desc 
 DFD .sg                  1.48:  Mud Density 
 MDMN.sg                  1.48:  Dens Mud Min 
 MDMX.sg                  1.48:  Dens Mud Max 
 MOIL.                      54:  Run Mud Oil % 
 MOWR.                   72:28:  Run Mud OWR 
 MSND.                       0:  Run Mud Sand % 
 MSOL.                      23:  Run Mud Solids% 
 DFV .spqt               86.00:  Mud Viscosity 
 MWOD.in                  6.75:  MWD Tool OD 
 MWSI.                      No:  Serv Intrp, MWD 
 OTIM.hr                223.40:  Time Operating 
 PCON.           Look Like New:  Pad Condition 
 PMAX.psia            32446.79:  Press Op, Max 
 PV  .cP                 49.00:  Mud PV 
 RUN .                     200:  Run Number 
 ROPA.m/hr               12.48:  ROP Avg 
 ROPN.m/hr                8.00:  ROP Min 
 ROPX.m/hr               27.00:  ROP Max 
 RPMA.rpm               121.00:  RPM Surface Avg 
 RPMN.rpm                60.00:  RPM Surface Min 
 RPMX.rpm               140.00:  RPM Surface Max 
 RRUN.                    L202:  Rig Run Number 
 RTIM.hr                  7.25:  Time Reaming 
 SAZI.deg               123.49:  Azm, Start 
 SDEP.m                2585.01:  Start Depth 
 SIDD.                      No:  Serv Intrp, DD 
 SINC.deg                59.93:  Inc, Start 
 SPPA.psig             3539.00:  SPP Avg 
 SPPN.psig             3050.00:  SPP Min 
 SPPX.psig             3950.00:  SPP Max 
 STIM.      19.00.00 10-Jan-20:  Start Time 
 SVCS.                 DD, MWD:  Services 
 SVER.                    9.20:  Sperry Version 
 TDAT.m                1293.00:  Tot Depth Attmp 
 TDDF.                      No:  Trip for DD 
 TDLG.m                1293.00:  Tot Depth Loggd 
 TFF .                      No:  Trip for Fail 
 TQAA.f-kp               16.00:  Torque Abs Avg 
 TQAN.f-kp               11.00:  Torque Abs Min 
 TQAX.f-kp               18.00:  Torque Abs Max 
 TRRT.∞/30m               1.25:  Turn Rotating 
 MRT .                  EWR-M5:  Maximum Recorded Temperature 
 TTMX.degC               84.00:  Max Tool Temp 
 VS01.          AZ90514619R5C6:  Virtual Str1 SN 
 VS02.        AZ90552592N2L2C6:  Virtual Str2 SN 
 VS03.        AZ90571337Z1W1C6:  Virtual Str3 SN 
 VS04.         AZ90513690K23C6:  Virtual Str4 SN 
 VS05.           AZ90594857F11:  Virtual Str5 SN 
 VS06.                13102166:  Virtual Str6 SN 
 WBMN.klb                 7.00:  WOB Min 
 WITN.            Peter Wilson:  Customer Rep 
 WOBA.klb                 9.95:  WOB Avg 
 WOBX.klb                10.00:  WOB Max 
 YP  .lhf2               36.00:  Yield Point 
~Curve Information Block
#MNEM.UNIT                 API CODE     Curve Description
#---------               -----------    ---------------------------
 TIME.HHMMSS            00 000 000 000:  GT Time & Date
 GTDEPTH.m              00 000 000 000:  GT Depth
 GTPQH.psia             00 000 000 000:  GT HR Quartz Pressure
 GTTQ.degC              00 000 000 000:  GT Quartz Temperature
 GTTN.NONE              00 000 000 000:  GT Test Number
 GTET.sec               00 000 000 000:  GT Elapsed Test Time
 GTTVD.m                00 000 000 000:  GT True Vertical Depth
#Other Information
#
#WARRANTY: Halliburton will use its best efforts to furnish customers with 
#accurate information and interpretations that are part of, and incident to, the services 
#provided.  However, Halliburton cannot and does not warrant the accuracy 
#or correctness of such information and interpretations.  Under no circumstances should any 
#such information or interpretation be relied upon as the sole basis for any drilling, 
#completion, production, or financial decision or any procedure involving any risk to the 
#safety of any drilling venture, drilling rig or its crew or any other third party.  The 
#Customer has full responsibility for all drilling, completion and production operation.  
#Halliburton makes no representations or warranties, either expressed or 
#implied, including, but not limited to, the implied warranties of merchantability or fitness 
#for a particular purpose, with respect to the services rendered.  In no event will 
#Halliburton be liable for failure to obtain any particular results or for 
#any damages, including, but not limited to, indirect, special or consequential damages, 
#resulting from the use of any information or interpretation provided by Halliburton.
#
~A           TIME           GTDEPTH  GTPQH  GTTQ  GTTN  GTET   GTTVD  
# ...
   05:44:41.588.18-Jan-2020 3717.66 4210.18 78.19 2.00 322.09 2797.70
   05:44:41.788.18-Jan-2020 3717.66 4210.18 78.19 2.00 322.29 2797.70
   05:44:41.988.18-Jan-2020 3717.66 4246.69 78.19 2.00 322.49 2797.70
   05:44:42.188.18-Jan-2020 3717.66 4261.60 78.19 2.00 322.69 2797.70
   05:44:42.388.18-Jan-2020 3717.66 4262.70 78.19 2.00 322.89 2797.70
   05:44:42.588.18-Jan-2020 3717.66 4262.73 78.19 2.00 323.09 2797.70
   05:44:42.788.18-Jan-2020 3717.66 4262.73 78.19 2.00 323.29 2797.70
   05:44:42.988.18-Jan-2020 3717.66 4262.63 78.19 2.00 323.49 2797.70
   05:44:43.188.18-Jan-2020 3717.66 4263.18 78.19 2.00 323.69 2797.70
   05:44:43.388.18-Jan-2020 3717.66 4262.91 78.19 2.00 323.89 2797.70
   05:44:43.589.18-Jan-2020 3717.66 4263.09 78.19 2.00 324.09 2797.70
   05:44:43.789.18-Jan-2020 3717.66 4263.09 78.19 2.00 324.29 2797.70
   05:44:43.989.18-Jan-2020 3717.66 4263.06 78.19 2.00 324.49 2797.70
   05:44:44.189.18-Jan-2020 3717.66 4263.00 78.19 2.00 324.69 2797.70
   05:44:44.389.18-Jan-2020 3717.66 4262.93 78.19 2.00 324.89 2797.70
   05:44:44.589.18-Jan-2020 3717.66 4263.04 78.19 2.00 325.09 2797.70
   05:44:44.789.18-Jan-2020 3717.66 4263.04 78.19 2.00 325.29 2797.70
   05:44:44.989.18-Jan-2020 3717.66 4263.10 78.19 2.00 325.49 2797.70
   05:44:45.189.18-Jan-2020 3717.66 4263.01 78.19 2.00 325.69 2797.70
   05:44:45.389.18-Jan-2020 3717.66 4263.06 78.19 2.00 325.89 2797.70
   05:44:45.589.18-Jan-2020 3717.66 4262.98 78.19 2.00 326.09 2797.70
   05:44:45.789.18-Jan-2020 3717.66 4262.98 78.19 2.00 326.29 2797.70
   05:44:45.989.18-Jan-2020 3717.66 4263.12 78.19 2.00 326.49 2797.70
   05:44:46.189.18-Jan-2020 3717.66 4263.13 78.19 2.00 326.69 2797.70
   05:44:46.389.18-Jan-2020 3717.66 4262.90 78.19 2.00 326.89 2797.70
   05:44:46.589.18-Jan-2020 3717.66 4263.19 78.19 2.00 327.09 2797.70
   05:44:46.789.18-Jan-2020 3717.66 4263.19 78.19 2.00 327.29 2797.70
   05:44:46.989.18-Jan-2020 3717.66 4263.30 78.19 2.00 327.49 2797.70
   05:44:47.190.18-Jan-2020 3717.66 4263.01 78.19 2.00 327.69 2797.70
   05:44:47.390.18-Jan-2020 3717.66 4263.11 78.19 2.00 327.89 2797.70
   05:44:47.590.18-Jan-2020 3717.66 4263.10 78.19 2.00 328.09 2797.70
   05:44:47.790.18-Jan-2020 3717.66 4263.10 78.19 2.00 328.29 2797.70
   05:44:47.990.18-Jan-2020 3717.66 4263.09 78.19 2.00 328.49 2797.70
   05:44:48.190.18-Jan-2020 3717.66 4263.07 78.19 2.00 328.69 2797.70
   05:44:48.390.18-Jan-2020 3717.66 4263.19 78.19 2.00 328.89 2797.70
   05:44:48.590.18-Jan-2020 3717.66 4263.09 78.19 2.00 329.09 2797.70
   05:44:48.790.18-Jan-2020 3717.66 4263.09 78.19 2.00 329.29 2797.70
   05:44:48.990.18-Jan-2020 3717.66 4263.14 78.19 2.00 329.49 2797.70
   05:44:49.190.18-Jan-2020 3717.66 4263.27 78.19 2.00 329.69 2797.70
   05:44:49.390.18-Jan-2020 3717.66 4263.29 78.19 2.00 329.89 2797.70
   05:44:49.590.18-Jan-2020 3717.66 4263.07 78.19 2.00 330.09 2797.70
   05:44:49.790.18-Jan-2020 3717.66 4263.07 78.19 2.00 330.29 2797.70
   05:44:49.990.18-Jan-2020 3717.66 4263.11 78.19 2.00 330.49 2797.70
   05:44:50.190.18-Jan-2020 3717.66 4263.13 78.19 2.00 330.69 2797.70
   05:44:50.390.18-Jan-2020 3717.66 4263.04 78.19 2.00 330.89 2797.70
   05:44:50.591.18-Jan-2020 3717.66 4263.17 78.19 2.00 331.09 2797.70
   05:44:50.791.18-Jan-2020 3717.66 4263.17 78.19 2.00 331.29 2797.70
   05:44:50.991.18-Jan-2020 3717.66 4263.01 78.19 2.00 331.49 2797.70
   05:44:51.191.18-Jan-2020 3717.66 4263.27 78.19 2.00 331.69 2797.70
   05:44:51.391.18-Jan-2020 3717.66 4263.13 78.19 2.00 331.89 2797.70
   05:44:51.591.18-Jan-2020 3717.66 4263.19 78.19 2.00 332.09 2797.70
   05:44:51.791.18-Jan-2020 3717.66 4263.19 78.19 2.00 332.29 2797.70
   05:44:51.991.18-Jan-2020 3717.66 4263.34 78.19 2.00 332.49 2797.70
   05:44:52.191.18-Jan-2020 3717.66 4262.96 78.19 2.00 332.69 2797.70
   05:44:52.391.18-Jan-2020 3717.66 4263.19 78.19 2.00 332.89 2797.70
   05:44:52.591.18-Jan-2020 3717.66 4263.12 78.19 2.00 333.09 2797.70
   05:44:52.791.18-Jan-2020 3717.66 4263.12 78.19 2.00 333.29 2797.70
   05:44:52.991.18-Jan-2020 3717.66 4263.13 78.19 2.00 333.49 2797.70
   05:44:53.191.18-Jan-2020 3717.66 4263.11 78.19 2.00 333.69 2797.70
   05:44:53.391.18-Jan-2020 3717.66 4263.11 78.19 2.00 333.89 2797.70
   05:44:53.591.18-Jan-2020 3717.66 4263.20 78.19 2.00 334.09 2797.70
   05:44:53.791.18-Jan-2020 3717.66 4263.20 78.19 2.00 334.29 2797.70
   05:44:53.991.18-Jan-2020 3717.66 4263.20 78.19 2.00 334.49 2797.70
   05:44:54.192.18-Jan-2020 3717.66 4263.20 78.19 2.00 334.69 2797.70
   05:44:54.392.18-Jan-2020 3717.66 4263.15 78.19 2.00 334.89 2797.70
   05:44:54.592.18-Jan-2020 3717.66 4263.19 78.19 2.00 335.09 2797.70
   05:44:54.792.18-Jan-2020 3717.66 4263.19 78.19 2.00 335.29 2797.70
   05:44:54.992.18-Jan-2020 3717.66 4263.15 78.19 2.00 335.49 2797.70
   05:44:55.192.18-Jan-2020 3717.66 4263.24 78.19 2.00 335.70 2797.70
   05:44:55.392.18-Jan-2020 3717.66 4263.47 78.19 2.00 335.90 2797.70
   05:44:55.592.18-Jan-2020 3717.66 4262.90 78.19 2.00 336.10 2797.70
   05:44:55.792.18-Jan-2020 3717.66 4262.90 78.19 2.00 336.30 2797.70
   05:44:55.992.18-Jan-2020 3717.66 4263.14 78.19 2.00 336.50 2797.70
   05:44:56.192.18-Jan-2020 3717.66 4263.18 78.19 2.00 336.70 2797.70
   05:44:56.392.18-Jan-2020 3717.66 4263.14 78.19 2.00 336.90 2797.70
   05:44:56.592.18-Jan-2020 3717.66 4263.11 78.19 2.00 337.10 2797.70
   05:44:56.792.18-Jan-2020 3717.66 4263.11 78.19 2.00 337.30 2797.70
   05:44:56.992.18-Jan-2020 3717.66 4263.18 78.19 2.00 337.50 2797.70
   05:44:57.192.18-Jan-2020 3717.66 4263.15 78.19 2.00 337.70 2797.70
   05:44:57.392.18-Jan-2020 3717.66 4263.15 78.19 2.00 337.90 2797.70
   05:44:57.592.18-Jan-2020 3717.66 4263.20 78.19 2.00 338.10 2797.70
   05:44:57.793.18-Jan-2020 3717.66 4263.20 78.19 2.00 338.30 2797.70
   05:44:57.993.18-Jan-2020 3717.66 4263.02 78.19 2.00 338.50 2797.70
   05:44:58.193.18-Jan-2020 3717.66 4263.27 78.19 2.00 338.70 2797.70
   05:44:58.393.18-Jan-2020 3717.66 4263.13 78.19 2.00 338.90 2797.70
   05:44:58.593.18-Jan-2020 3717.66 4263.09 78.19 2.00 339.10 2797.70
   05:44:58.793.18-Jan-2020 3717.66 4263.09 78.19 2.00 339.30 2797.70
   05:44:58.993.18-Jan-2020 3717.66 4263.24 78.19 2.00 339.50 2797.70
   05:44:59.193.18-Jan-2020 3717.66 4263.22 78.19 2.00 339.70 2797.70
   05:44:59.393.18-Jan-2020 3717.66 4263.33 78.19 2.00 339.90 2797.70
   05:44:59.593.18-Jan-2020 3717.66 4263.11 78.19 2.00 340.10 2797.70
   05:44:59.793.18-Jan-2020 3717.66 4263.11 78.19 2.00 340.30 2797.70
   05:44:59.993.18-Jan-2020 3717.66 4262.85 78.19 2.00 340.50 2797.70
   05:45:00.193.18-Jan-2020 3717.66 4263.25 78.19 2.00 340.70 2797.70
   05:45:00.393.18-Jan-2020 3717.66 4263.14 78.19 2.00 340.90 2797.70
   05:45:00.593.18-Jan-2020 3717.66 4263.19 78.19 2.00 341.10 2797.70
   05:45:00.793.18-Jan-2020 3717.66 4263.19 78.19 2.00 341.30 2797.70
   05:45:00.993.18-Jan-2020 3717.66 4263.19 78.19 2.00 341.50 2797.70
   05:45:01.194.18-Jan-2020 3717.66 4263.13 78.19 2.00 341.70 2797.70
   05:45:01.394.18-Jan-2020 3717.66 4263.05 78.19 2.00 341.90 2797.70
   05:45:01.594.18-Jan-2020 3717.66 4263.24 78.19 2.00 342.10 2797.70
   05:45:01.794.18-Jan-2020 3717.66 4263.24 78.19 2.00 342.30 2797.70
   05:45:01.994.18-Jan-2020 3717.66 4263.13 78.19 2.00 342.50 2797.70
   05:45:02.194.18-Jan-2020 3717.66 4263.17 78.19 2.00 342.70 2797.70
   05:45:02.394.18-Jan-2020 3717.66 4263.23 78.19 2.00 342.90 2797.70
   05:45:02.594.18-Jan-2020 3717.66 4263.21 78.19 2.00 343.10 2797.70
   05:45:02.794.18-Jan-2020 3717.66 4263.21 78.19 2.00 343.30 2797.70
   05:45:02.994.18-Jan-2020 3717.66 4263.10 78.19 2.00 343.50 2797.70
   05:45:03.194.18-Jan-2020 3717.66 4263.17 78.19 2.00 343.70 2797.70
   05:45:03.394.18-Jan-2020 3717.66 4263.14 78.19 2.00 343.90 2797.70
   05:45:03.594.18-Jan-2020 3717.66 4263.24 78.19 2.00 344.10 2797.70
   05:45:03.794.18-Jan-2020 3717.66 4263.24 78.19 2.00 344.30 2797.70
   05:45:03.994.18-Jan-2020 3717.66 4263.17 78.19 2.00 344.50 2797.70
   05:45:04.194.18-Jan-2020 3717.66 4263.37 78.19 2.00 344.70 2797.70
   05:45:04.394.18-Jan-2020 3717.66 4263.11 78.19 2.00 344.90 2797.70
