~Version Information
 VERS.                  2.0:   CWLS log ASCII Standard -VERSION 2.0
 WRAP.                   NO:   One line per depth step
~Well Information Block
#MNEM.UNIT     VALUE/NAME     DESCRIPTION
#---------     -----------    ---------------------------
 STRT.S             13:31:21 18-Jan-20: START TIME 13:31:21 18-Jan-20
 STOP.S             13:39:29 18-Jan-20: STOP TIME  13:39:29 18-Jan-20
 STEP.S                   0.00: STEP TIME
 NULL.                 -999.25: NULL VALUE
 DFWT.                        :  DIST FWL TEXT
 DFST.                        :  DIST FSL TEXT
 DMF .             Drill Floor:  DRILL MEAS FROM
 STIM.      09.30.00 26-Dec-19:  START TIME
 DATE.      08.00.00 20-Jan-20:  END TIME
 SPUD.               23-Nov-19:  SPUD DATE
 NREF.                    Grid:  NORTH REFERENCE
 HPTY.       Minimum Curvature:  HOLE POS TYPE
 DMOD.             Drill Model:  DRILL MOD DESC
 SVYD.                  Survey:  SURVEY DESC
 ILTD.               Lithology:  INTERP LTH DESC
 FTOP.          Formation Tops:  FORM TOPS DESC
 SON .        AZ-XX-0906192647:  JOB NUMBER
 WTYP.                Deviated:  WELL TYPE
 COMP.     BP Exploration (Caspian Sea) Ltd:  COMPANY
 BASE.              Azerbaijan:  LOGGING EQUIPMENT BASE LOCATION
 REGN.                 Eurasia:  REGION
 FLD .                     ACG:  FIELD NAME
 SRVC.              KCA Deutag:  CONTRACTOR
 MWDS.                    Baku:  MWD SHOP
 WELL.     A10 (Slot 20) - SCP:  WELL NAME
 JOBN.        AZ-XX-0906192647:  JOB TICKET NUMB
 RIG .                 Chirag1:  RIG NAME
 DCON.     Halliburton Sperry Drilling:  DIRECTNL CONTR
 UNIT.                     N/A:  LOGGING EQUIPMENT ID
 PDAT.          Mean Sea Level:  PERMANENT DATUM
 MDS .        Operator Entered:  MAG DATA SOURCE
 CTRY.              Azerbaijan:  COUNTRY NAME
 UWI .            /AZE00000090:  UNIQUE WELL IDENTIFIER
 API .            /AZE00000090:  API NUMBER
 CNTY.                        :  COUNTY
 PROV.                        :  PROVINCE
 STAT.                        :  STATE
 LOC .                        :  LOCATION
 LMF .             Drill Floor:  LOG MEASURED FROM
 TVDS.m                  36.60:  TVDSS CORRECTN
 LATI.deg                40.08:  LATITUDE
 LONG.deg                51.24:  LONGITUDE
 WHNS.m                  -7.94:  WELL HEAD N/S
 WHEW.m                   1.56:  WELL HEAD E/W
 UTMX.m              520429.26:  UTM X
 UTMY.m             4438973.87:  UTM Y
 DFWL.m                   0.00:  DISTANCE FWL
 DFSL.m                   0.00:  DISTANCE FSL
 SDEP.m                1455.00:  START DEPTH
 TDD .m                3878.01:  TOTAL DEPTH (DRILLER)
 VSDR.deg               112.75:  VERT SEC DIRECT
 GVFD.g                   1.00:  GRAVITY FIELD
 MFLD.nT              50256.00:  MAGNETIC FIELD
 MDIP.deg                59.52:  MAGNETIC DIP
 MDEC.deg                 6.43:  MAGNETIC DECL
 GRDC.deg                 0.16:  GRID CORRECTION
 AZTC.deg                 6.27:  AZM TOTAL CORR
 EPD .m                   0.00:  ELEVATION
 EGL .m                   0.00:  GROUND ELEVATION
 WDMS.m                 121.00:  WD ELEV
 APD .m                  36.60:  DEPTH ABOVE PD
 AGAP.m                  36.60:  AIR GAP
 VSEW.m                   1.56:  VERT SEC E/W
 VSNS.m                  -7.94:  VERT SEC N/S
 DEP .m                1140.01:  DEPTH
 EKB .m                  36.60:  KB ELEVATION
 EDF .m                  36.60:  DF ELEVATION
 TDL .m                1293.00:  TOTAL DEPTH (LOGGER)
 VSC .                       0:  VS TO CLOSURE
 MAGU.                 1849164:  MAGUTM CHECKSUM
~Parameter Information Block
#MNEM.UNIT       Value        Description
#---------     -----------    ---------------------------
 AV  .mps                 2.40:  Ann Velocity 
 AVMX.mps                 2.55:  Max Ann Veloc 
 AZIF.deg               134.35:  Azm, Final 
 BHAT.        Rotary Steerable:  BHA Type 
 BREV.rev               847.00:  Rev Bit Total 
 BROT.°/30m              -2.51:  Build Rotating 
 BS  .in                  8.50:  Bit Size 
 BSZ .in                  8.50:  Bit Size 
 BTPL.psig              700.00:  Bit Press Loss 
 CABU.                     Yes:  Customer Abuse 
 CGEO.          Ilgar Gurbanov:  Customer Geo 
 COMM.                     ¸P:  Run Comments 1 
 TCS .hr                140.40:  Time Ciculation Ended 
 CV  .mps                 2.27:  Crit Velocity 
 CVMX.mps                 2.45:  Max Crit Veloc 
 DD1 .         Intigam Rahimov:  Direct Drillr 1 
 DD2 .         Rasim Ibrahimov:  Direct Drillr 2 
 DDSV.                 iCruise:  DD Service 
 DEFF.%                  99.00:  % Det Eff 
 DLRX.°/30m               3.28:  Dogleg Rot Max 
 DLSO.°/30m               0.00:  Dogleg Oriented 
 DLSX.°/30m               0.00:  Dogleg Str Max 
 DRET.      23.30.00 18-Jan-20:  Drill End Time 
 DRST.      01.45.00 11-Jan-20:  Drill Start Tim 
 DTIM.hr                 94.00:  Time Drilling 
 EDEP.m                3878.01:  End Depth 
 ENG1.       Dauren Baktybayev:  Engineer 1 
 ENG2.      Natik Hasanaghayev:  Engineer 2 
 ENG3.          Rustam Safarov:  Engineer 3 
 ETIM.      08.00.00 20-Jan-20:  End Time 
 FLOI.gpm               532.00:  Flow In 
 FLON.gpm               500.00:  Flow In Min 
 FLOS.cptm                0.00:  Fluid Loss 
 FLOX.gpm               540.00:  Flow In Max 
 FTRO.       Formation Presure:  FTWD Run Obj 
 HPRE.                     Yes:  High Pressure 
 HTEM.                      No:  High Temp 
 HYDO.m                   1.80:  Hydro Offset 
 IFIN.deg                39.86:  Inc, Final 
 IMAX.deg                59.73:  Inc Max 
 IMIN.deg                39.25:  Inc Min 
 IMND.m                3816.77:  Inc Min Depth 
 IMXD.m                2596.33:  Inc Max Depth 
 JARR.                      No:  Jarring 
 LETM.      23.30.00 18-Jan-20:  Log End Time 
 LOST.hr                     0:  Lost Rig Time 
 LSTM.      01.45.00 11-Jan-20:  Log Start Time 
 MDCL.ppm             41500.00:  Mud Chlorides 
 MDES.     Inversion Oil/Synthetic:  Mud Desc 
 DFD .sg                  1.48:  Mud Density 
 MDMN.sg                  1.48:  Dens Mud Min 
 MDMX.sg                  1.48:  Dens Mud Max 
 MOIL.                      54:  Run Mud Oil % 
 MOWR.                   72:28:  Run Mud OWR 
 MSND.                       0:  Run Mud Sand % 
 MSOL.                      23:  Run Mud Solids% 
 DFV .spqt               86.00:  Mud Viscosity 
 MWOD.in                  6.75:  MWD Tool OD 
 MWSI.                      No:  Serv Intrp, MWD 
 OTIM.hr                223.40:  Time Operating 
 PCON.           Look Like New:  Pad Condition 
 PMAX.psia            32446.79:  Press Op, Max 
 PV  .cP                 49.00:  Mud PV 
 RUN .                     200:  Run Number 
 ROPA.m/hr               12.48:  ROP Avg 
 ROPN.m/hr                8.00:  ROP Min 
 ROPX.m/hr               27.00:  ROP Max 
 RPMA.rpm               121.00:  RPM Surface Avg 
 RPMN.rpm                60.00:  RPM Surface Min 
 RPMX.rpm               140.00:  RPM Surface Max 
 RRUN.                    L202:  Rig Run Number 
 RTIM.hr                  7.25:  Time Reaming 
 SAZI.deg               123.49:  Azm, Start 
 SDEP.m                2585.01:  Start Depth 
 SIDD.                      No:  Serv Intrp, DD 
 SINC.deg                59.93:  Inc, Start 
 SPPA.psig             3539.00:  SPP Avg 
 SPPN.psig             3050.00:  SPP Min 
 SPPX.psig             3950.00:  SPP Max 
 STIM.      19.00.00 10-Jan-20:  Start Time 
 SVCS.                 DD, MWD:  Services 
 SVER.                    9.20:  Sperry Version 
 TDAT.m                1293.00:  Tot Depth Attmp 
 TDDF.                      No:  Trip for DD 
 TDLG.m                1293.00:  Tot Depth Loggd 
 TFF .                      No:  Trip for Fail 
 TQAA.f-kp               16.00:  Torque Abs Avg 
 TQAN.f-kp               11.00:  Torque Abs Min 
 TQAX.f-kp               18.00:  Torque Abs Max 
 TRRT.°/30m               1.25:  Turn Rotating 
 MRT .                  EWR-M5:  Maximum Recorded Temperature 
 TTMX.degC               84.00:  Max Tool Temp 
 VS01.          AZ90514619R5C6:  Virtual Str1 SN 
 VS02.        AZ90552592N2L2C6:  Virtual Str2 SN 
 VS03.        AZ90571337Z1W1C6:  Virtual Str3 SN 
 VS04.         AZ90513690K23C6:  Virtual Str4 SN 
 VS05.           AZ90594857F11:  Virtual Str5 SN 
 VS06.                13102166:  Virtual Str6 SN 
 WBMN.klb                 7.00:  WOB Min 
 WITN.            Peter Wilson:  Customer Rep 
 WOBA.klb                 9.95:  WOB Avg 
 WOBX.klb                10.00:  WOB Max 
 YP  .lhf2               36.00:  Yield Point 
~Curve Information Block
#MNEM.UNIT                 API CODE     Curve Description
#---------               -----------    ---------------------------
 TIME.HHMMSS            00 000 000 000:  GT Time & Date
 GTDEPTH.m              00 000 000 000:  GT Depth
 GTPQH.psia             00 000 000 000:  GT HR Quartz Pressure
 GTTQ.degC              00 000 000 000:  GT Quartz Temperature
 GTTN.NONE              00 000 000 000:  GT Test Number
 GTET.sec               00 000 000 000:  GT Elapsed Test Time
 GTTVD.m                00 000 000 000:  GT True Vertical Depth
#Other Information
#
#WARRANTY: Halliburton will use its best efforts to furnish customers with 
#accurate information and interpretations that are part of, and incident to, the services 
#provided.  However, Halliburton cannot and does not warrant the accuracy 
#or correctness of such information and interpretations.  Under no circumstances should any 
#such information or interpretation be relied upon as the sole basis for any drilling, 
#completion, production, or financial decision or any procedure involving any risk to the 
#safety of any drilling venture, drilling rig or its crew or any other third party.  The 
#Customer has full responsibility for all drilling, completion and production operation.  
#Halliburton makes no representations or warranties, either expressed or 
#implied, including, but not limited to, the implied warranties of merchantability or fitness 
#for a particular purpose, with respect to the services rendered.  In no event will 
#Halliburton be liable for failure to obtain any particular results or for 
#any damages, including, but not limited to, indirect, special or consequential damages, 
#resulting from the use of any information or interpretation provided by Halliburton.
#
~A           TIME           GTDEPTH  GTPQH  GTTQ  GTTN  GTET   GTTVD  
# ...
   13:32:53.164.18-Jan-2020 3754.51  623.52 81.22 4.00  92.03 2825.33
   13:32:53.365.18-Jan-2020 3754.51  623.52 81.22 4.00  92.23 2825.33
   13:32:53.565.18-Jan-2020 3754.51  624.07 81.22 4.00  92.43 2825.33
   13:32:53.765.18-Jan-2020 3754.51  624.20 81.22 4.00  92.63 2825.33
   13:32:53.965.18-Jan-2020 3754.51  624.00 81.22 4.00  92.83 2825.33
   13:32:54.165.18-Jan-2020 3754.51  624.21 81.22 4.00  93.03 2825.33
   13:32:54.365.18-Jan-2020 3754.51  624.21 81.22 4.00  93.23 2825.33
   13:32:54.565.18-Jan-2020 3754.51  624.30 81.22 4.00  93.43 2825.33
   13:32:54.765.18-Jan-2020 3754.51  624.38 81.22 4.00  93.63 2825.33
   13:32:54.965.18-Jan-2020 3754.51  624.47 81.22 4.00  93.83 2825.33
   13:32:55.165.18-Jan-2020 3754.51  624.48 81.22 4.00  94.03 2825.33
   13:32:55.365.18-Jan-2020 3754.51  624.48 81.22 4.00  94.23 2825.33
   13:32:55.565.18-Jan-2020 3754.51  624.60 81.22 4.00  94.43 2825.33
   13:32:55.765.18-Jan-2020 3754.51  624.66 81.22 4.00  94.63 2825.33
   13:32:55.965.18-Jan-2020 3754.51  624.75 81.22 4.00  94.83 2825.33
   13:32:56.165.18-Jan-2020 3754.51  624.59 81.22 4.00  95.03 2825.33
   13:32:56.365.18-Jan-2020 3754.51  624.59 81.22 4.00  95.23 2825.33
   13:32:56.566.18-Jan-2020 3754.51  625.57 81.22 4.00  95.43 2825.33
   13:32:56.766.18-Jan-2020 3754.51  625.93 81.22 4.00  95.63 2825.33
   13:32:56.966.18-Jan-2020 3754.51  625.75 81.22 4.00  95.83 2825.33
   13:32:57.166.18-Jan-2020 3754.51  625.73 81.22 4.00  96.03 2825.33
   13:32:57.366.18-Jan-2020 3754.51  625.73 81.22 4.00  96.23 2825.33
   13:32:57.566.18-Jan-2020 3754.51  625.74 81.22 4.00  96.43 2825.33
   13:32:57.766.18-Jan-2020 3754.51  625.89 81.22 4.00  96.63 2825.33
   13:32:57.966.18-Jan-2020 3754.51  625.85 81.22 4.00  96.83 2825.33
   13:32:58.166.18-Jan-2020 3754.51  625.90 81.22 4.00  97.03 2825.33
   13:32:58.366.18-Jan-2020 3754.51  625.90 81.22 4.00  97.23 2825.33
   13:32:58.566.18-Jan-2020 3754.51  624.28 81.21 4.00  97.43 2825.33
   13:32:58.766.18-Jan-2020 3754.51  626.70 81.21 4.00  97.63 2825.33
   13:32:58.966.18-Jan-2020 3754.51  627.14 81.21 4.00  97.83 2825.33
   13:32:59.166.18-Jan-2020 3754.51  626.89 81.21 4.00  98.03 2825.33
   13:32:59.366.18-Jan-2020 3754.51  626.89 81.21 4.00  98.23 2825.33
   13:32:59.567.18-Jan-2020 3754.51  626.12 81.21 4.00  98.43 2825.33
   13:32:59.767.18-Jan-2020 3754.51  627.04 81.21 4.00  98.63 2825.33
   13:32:59.967.18-Jan-2020 3754.51  627.87 81.21 4.00  98.83 2825.33
   13:33:00.167.18-Jan-2020 3754.51  627.65 81.21 4.00  99.03 2825.33
   13:33:00.367.18-Jan-2020 3754.51  627.65 81.21 4.00  99.23 2825.33
   13:33:00.567.18-Jan-2020 3754.51  626.74 81.21 4.00  99.43 2825.33
   13:33:00.767.18-Jan-2020 3754.51  627.83 81.21 4.00  99.63 2825.33
   13:33:00.967.18-Jan-2020 3754.51  628.53 81.21 4.00  99.83 2825.33
   13:33:01.167.18-Jan-2020 3754.51  627.88 81.21 4.00 100.03 2825.33
   13:33:01.367.18-Jan-2020 3754.51  627.88 81.21 4.00 100.23 2825.33
   13:33:01.567.18-Jan-2020 3754.51  629.14 81.21 4.00 100.43 2825.33
   13:33:01.767.18-Jan-2020 3754.51  629.18 81.21 4.00 100.63 2825.33
   13:33:01.967.18-Jan-2020 3754.51  629.12 81.21 4.00 100.83 2825.33
   13:33:02.167.18-Jan-2020 3754.51  629.06 81.21 4.00 101.03 2825.33
   13:33:02.367.18-Jan-2020 3754.51  629.06 81.21 4.00 101.23 2825.33
   13:33:02.567.18-Jan-2020 3754.51  629.05 81.21 4.00 101.43 2825.33
   13:33:02.768.18-Jan-2020 3754.51  629.15 81.21 4.00 101.63 2825.33
   13:33:02.968.18-Jan-2020 3754.51  629.21 81.21 4.00 101.83 2825.33
   13:33:03.168.18-Jan-2020 3754.51  629.05 81.21 4.00 102.03 2825.33
   13:33:03.368.18-Jan-2020 3754.51  629.05 81.21 4.00 102.23 2825.33
   13:33:03.568.18-Jan-2020 3754.51  629.22 81.21 4.00 102.43 2825.33
   13:33:03.768.18-Jan-2020 3754.51  629.25 81.21 4.00 102.63 2825.33
   13:33:03.968.18-Jan-2020 3754.51  629.25 81.21 4.00 102.83 2825.33
   13:33:04.168.18-Jan-2020 3754.51  629.29 81.21 4.00 103.03 2825.33
   13:33:04.368.18-Jan-2020 3754.51  629.29 81.21 4.00 103.23 2825.33
   13:33:04.568.18-Jan-2020 3754.51  629.22 81.21 4.00 103.43 2825.33
   13:33:04.768.18-Jan-2020 3754.51  627.62 81.21 4.00 103.63 2825.33
   13:33:04.968.18-Jan-2020 3754.51  629.82 81.21 4.00 103.83 2825.33
   13:33:05.168.18-Jan-2020 3754.51  630.18 81.21 4.00 104.03 2825.33
   13:33:05.368.18-Jan-2020 3754.51  630.18 81.21 4.00 104.23 2825.33
   13:33:05.568.18-Jan-2020 3754.51  629.79 81.20 4.00 104.43 2825.33
   13:33:05.769.18-Jan-2020 3754.51  629.81 81.20 4.00 104.63 2825.33
   13:33:05.969.18-Jan-2020 3754.51  629.93 81.20 4.00 104.83 2825.33
   13:33:06.169.18-Jan-2020 3754.51  629.89 81.20 4.00 105.03 2825.33
   13:33:06.369.18-Jan-2020 3754.51  629.89 81.20 4.00 105.23 2825.33
   13:33:06.569.18-Jan-2020 3754.51  629.93 81.20 4.00 105.43 2825.33
   13:33:06.769.18-Jan-2020 3754.51  629.91 81.20 4.00 105.63 2825.33
   13:33:06.969.18-Jan-2020 3754.51  628.35 81.20 4.00 105.83 2825.33
   13:33:07.169.18-Jan-2020 3754.51  630.43 81.20 4.00 106.03 2825.33
   13:33:07.369.18-Jan-2020 3754.51  630.43 81.20 4.00 106.23 2825.33
   13:33:07.569.18-Jan-2020 3754.51  630.54 81.20 4.00 106.43 2825.33
   13:33:07.769.18-Jan-2020 3754.51  628.60 81.20 4.00 106.63 2825.33
   13:33:07.969.18-Jan-2020 3754.51  631.29 81.20 4.00 106.83 2825.33
   13:33:08.169.18-Jan-2020 3754.51  631.62 81.20 4.00 107.03 2825.33
   13:33:08.369.18-Jan-2020 3754.51  631.62 81.20 4.00 107.23 2825.33
   13:33:08.569.18-Jan-2020 3754.51  631.27 81.20 4.00 107.43 2825.33
   13:33:08.769.18-Jan-2020 3754.51  631.18 81.20 4.00 107.63 2825.33
   13:33:08.970.18-Jan-2020 3754.51  629.77 81.20 4.00 107.83 2825.33
   13:33:09.170.18-Jan-2020 3754.51  632.07 81.20 4.00 108.03 2825.33
   13:33:09.370.18-Jan-2020 3754.51  632.07 81.20 4.00 108.23 2825.33
   13:33:09.570.18-Jan-2020 3754.51  630.22 81.20 4.00 108.44 2825.33
   13:33:09.770.18-Jan-2020 3754.51  632.30 81.20 4.00 108.64 2825.33
   13:33:09.970.18-Jan-2020 3754.51  632.74 81.20 4.00 108.84 2825.33
   13:33:10.170.18-Jan-2020 3754.51  632.54 81.20 4.00 109.04 2825.33
   13:33:10.370.18-Jan-2020 3754.51  632.54 81.20 4.00 109.24 2825.33
   13:33:10.570.18-Jan-2020 3754.51  632.33 81.20 4.00 109.44 2825.33
   13:33:10.770.18-Jan-2020 3754.51  632.47 81.20 4.00 109.64 2825.33
   13:33:10.970.18-Jan-2020 3754.51  632.47 81.20 4.00 109.84 2825.33
   13:33:11.170.18-Jan-2020 3754.51  632.49 81.20 4.00 110.04 2825.33
   13:33:11.370.18-Jan-2020 3754.51  632.49 81.20 4.00 110.24 2825.33
   13:33:11.570.18-Jan-2020 3754.51  632.39 81.20 4.00 110.44 2825.33
   13:33:11.770.18-Jan-2020 3754.51  632.51 81.20 4.00 110.64 2825.33
   13:33:11.971.18-Jan-2020 3754.51  632.72 81.19 4.00 110.84 2825.33
   13:33:12.171.18-Jan-2020 3754.51  632.64 81.19 4.00 111.04 2825.33
   13:33:12.371.18-Jan-2020 3754.51  632.64 81.19 4.00 111.24 2825.33
   13:33:12.571.18-Jan-2020 3754.51  632.70 81.19 4.00 111.44 2825.33
   13:33:12.771.18-Jan-2020 3754.51  632.74 81.19 4.00 111.64 2825.33
   13:33:12.971.18-Jan-2020 3754.51  630.93 81.19 4.00 111.84 2825.33
   13:33:13.171.18-Jan-2020 3754.51  633.84 81.19 4.00 112.04 2825.33
   13:33:13.371.18-Jan-2020 3754.51  633.84 81.19 4.00 112.24 2825.33
   13:33:13.571.18-Jan-2020 3754.51  633.60 81.19 4.00 112.44 2825.33
   13:33:13.771.18-Jan-2020 3754.51  633.46 81.19 4.00 112.64 2825.33
   13:33:13.971.18-Jan-2020 3754.51  633.61 81.19 4.00 112.84 2825.33
   13:33:14.171.18-Jan-2020 3754.51  633.81 81.19 4.00 113.04 2825.33
   13:33:14.371.18-Jan-2020 3754.51  633.81 81.19 4.00 113.24 2825.33
   13:33:14.571.18-Jan-2020 3754.51  633.51 81.19 4.00 113.44 2825.33
   13:33:14.771.18-Jan-2020 3754.51  633.53 81.19 4.00 113.64 2825.33
   13:33:14.971.18-Jan-2020 3754.51  633.69 81.19 4.00 113.84 2825.33
   13:33:15.172.18-Jan-2020 3754.51  631.79 81.19 4.00 114.04 2825.33
   13:33:15.372.18-Jan-2020 3754.51  631.79 81.19 4.00 114.24 2825.33
   13:33:15.572.18-Jan-2020 3754.51  634.26 81.19 4.00 114.44 2825.33
   13:33:15.772.18-Jan-2020 3754.51  634.18 81.19 4.00 114.64 2825.33
   13:33:15.972.18-Jan-2020 3754.51  632.28 81.19 4.00 114.84 2825.33
