~Version Information
 VERS.                  2.0:   CWLS log ASCII Standard -VERSION 2.0
 WRAP.                   NO:   One line per depth step
~Well Information Block
#MNEM.UNIT     VALUE/NAME     DESCRIPTION
#---------     -----------    ---------------------------
 STRT.S             17:36:42 18-Jan-20: START TIME 17:36:42 18-Jan-20
 STOP.S             17:44:57 18-Jan-20: STOP TIME  17:44:57 18-Jan-20
 STEP.S                   0.00: STEP TIME
 NULL.                 -999.25: NULL VALUE
 DFWT.                        :  DIST FWL TEXT
 DFST.                        :  DIST FSL TEXT
 DMF .             Drill Floor:  DRILL MEAS FROM
 STIM.      09.30.00 26-Dec-19:  START TIME
 DATE.      08.00.00 20-Jan-20:  END TIME
 SPUD.               23-Nov-19:  SPUD DATE
 NREF.                    Grid:  NORTH REFERENCE
 HPTY.       Minimum Curvature:  HOLE POS TYPE
 DMOD.             Drill Model:  DRILL MOD DESC
 SVYD.                  Survey:  SURVEY DESC
 ILTD.               Lithology:  INTERP LTH DESC
 FTOP.          Formation Tops:  FORM TOPS DESC
 SON .        AZ-XX-0906192647:  JOB NUMBER
 WTYP.                Deviated:  WELL TYPE
 COMP.     BP Exploration (Caspian Sea) Ltd:  COMPANY
 BASE.              Azerbaijan:  LOGGING EQUIPMENT BASE LOCATION
 REGN.                 Eurasia:  REGION
 FLD .                     ACG:  FIELD NAME
 SRVC.              KCA Deutag:  CONTRACTOR
 MWDS.                    Baku:  MWD SHOP
 WELL.     A10 (Slot 20) - SCP:  WELL NAME
 JOBN.        AZ-XX-0906192647:  JOB TICKET NUMB
 RIG .                 Chirag1:  RIG NAME
 DCON.     Halliburton Sperry Drilling:  DIRECTNL CONTR
 UNIT.                     N/A:  LOGGING EQUIPMENT ID
 PDAT.          Mean Sea Level:  PERMANENT DATUM
 MDS .        Operator Entered:  MAG DATA SOURCE
 CTRY.              Azerbaijan:  COUNTRY NAME
 UWI .            /AZE00000090:  UNIQUE WELL IDENTIFIER
 API .            /AZE00000090:  API NUMBER
 CNTY.                        :  COUNTY
 PROV.                        :  PROVINCE
 STAT.                        :  STATE
 LOC .                        :  LOCATION
 LMF .             Drill Floor:  LOG MEASURED FROM
 TVDS.m                  36.60:  TVDSS CORRECTN
 LATI.deg                40.08:  LATITUDE
 LONG.deg                51.24:  LONGITUDE
 WHNS.m                  -7.94:  WELL HEAD N/S
 WHEW.m                   1.56:  WELL HEAD E/W
 UTMX.m              520429.26:  UTM X
 UTMY.m             4438973.87:  UTM Y
 DFWL.m                   0.00:  DISTANCE FWL
 DFSL.m                   0.00:  DISTANCE FSL
 SDEP.m                1455.00:  START DEPTH
 TDD .m                3878.01:  TOTAL DEPTH (DRILLER)
 VSDR.deg               112.75:  VERT SEC DIRECT
 GVFD.g                   1.00:  GRAVITY FIELD
 MFLD.nT              50256.00:  MAGNETIC FIELD
 MDIP.deg                59.52:  MAGNETIC DIP
 MDEC.deg                 6.43:  MAGNETIC DECL
 GRDC.deg                 0.16:  GRID CORRECTION
 AZTC.deg                 6.27:  AZM TOTAL CORR
 EPD .m                   0.00:  ELEVATION
 EGL .m                   0.00:  GROUND ELEVATION
 WDMS.m                 121.00:  WD ELEV
 APD .m                  36.60:  DEPTH ABOVE PD
 AGAP.m                  36.60:  AIR GAP
 VSEW.m                   1.56:  VERT SEC E/W
 VSNS.m                  -7.94:  VERT SEC N/S
 DEP .m                1140.01:  DEPTH
 EKB .m                  36.60:  KB ELEVATION
 EDF .m                  36.60:  DF ELEVATION
 TDL .m                1293.00:  TOTAL DEPTH (LOGGER)
 VSC .                       0:  VS TO CLOSURE
 MAGU.                 1849164:  MAGUTM CHECKSUM
~Parameter Information Block
#MNEM.UNIT       Value        Description
#---------     -----------    ---------------------------
 AV  .mps                 2.40:  Ann Velocity 
 AVMX.mps                 2.55:  Max Ann Veloc 
 AZIF.deg               134.35:  Azm, Final 
 BHAT.        Rotary Steerable:  BHA Type 
 BREV.rev               847.00:  Rev Bit Total 
 BROT.°/30m              -2.51:  Build Rotating 
 BS  .in                  8.50:  Bit Size 
 BSZ .in                  8.50:  Bit Size 
 BTPL.psig              700.00:  Bit Press Loss 
 CABU.                     Yes:  Customer Abuse 
 CGEO.          Ilgar Gurbanov:  Customer Geo 
 COMM.                     Ä_:  Run Comments 1 
 TCS .hr                140.40:  Time Ciculation Ended 
 CV  .mps                 2.27:  Crit Velocity 
 CVMX.mps                 2.45:  Max Crit Veloc 
 DD1 .         Intigam Rahimov:  Direct Drillr 1 
 DD2 .         Rasim Ibrahimov:  Direct Drillr 2 
 DDSV.                 iCruise:  DD Service 
 DEFF.%                  99.00:  % Det Eff 
 DLRX.°/30m               3.28:  Dogleg Rot Max 
 DLSO.°/30m               0.00:  Dogleg Oriented 
 DLSX.°/30m               0.00:  Dogleg Str Max 
 DRET.      23.30.00 18-Jan-20:  Drill End Time 
 DRST.      01.45.00 11-Jan-20:  Drill Start Tim 
 DTIM.hr                 94.00:  Time Drilling 
 EDEP.m                3878.01:  End Depth 
 ENG1.       Dauren Baktybayev:  Engineer 1 
 ENG2.      Natik Hasanaghayev:  Engineer 2 
 ENG3.          Rustam Safarov:  Engineer 3 
 ETIM.      08.00.00 20-Jan-20:  End Time 
 FLOI.gpm               532.00:  Flow In 
 FLON.gpm               500.00:  Flow In Min 
 FLOS.cptm                0.00:  Fluid Loss 
 FLOX.gpm               540.00:  Flow In Max 
 FTRO.       Formation Presure:  FTWD Run Obj 
 HPRE.                     Yes:  High Pressure 
 HTEM.                      No:  High Temp 
 HYDO.m                   1.80:  Hydro Offset 
 IFIN.deg                39.86:  Inc, Final 
 IMAX.deg                59.73:  Inc Max 
 IMIN.deg                39.25:  Inc Min 
 IMND.m                3816.77:  Inc Min Depth 
 IMXD.m                2596.33:  Inc Max Depth 
 JARR.                      No:  Jarring 
 LETM.      23.30.00 18-Jan-20:  Log End Time 
 LOST.hr                     0:  Lost Rig Time 
 LSTM.      01.45.00 11-Jan-20:  Log Start Time 
 MDCL.ppm             41500.00:  Mud Chlorides 
 MDES.     Inversion Oil/Synthetic:  Mud Desc 
 DFD .sg                  1.48:  Mud Density 
 MDMN.sg                  1.48:  Dens Mud Min 
 MDMX.sg                  1.48:  Dens Mud Max 
 MOIL.                      54:  Run Mud Oil % 
 MOWR.                   72:28:  Run Mud OWR 
 MSND.                       0:  Run Mud Sand % 
 MSOL.                      23:  Run Mud Solids% 
 DFV .spqt               86.00:  Mud Viscosity 
 MWOD.in                  6.75:  MWD Tool OD 
 MWSI.                      No:  Serv Intrp, MWD 
 OTIM.hr                223.40:  Time Operating 
 PCON.           Look Like New:  Pad Condition 
 PMAX.psia            32446.79:  Press Op, Max 
 PV  .cP                 49.00:  Mud PV 
 RUN .                     200:  Run Number 
 ROPA.m/hr               12.48:  ROP Avg 
 ROPN.m/hr                8.00:  ROP Min 
 ROPX.m/hr               27.00:  ROP Max 
 RPMA.rpm               121.00:  RPM Surface Avg 
 RPMN.rpm                60.00:  RPM Surface Min 
 RPMX.rpm               140.00:  RPM Surface Max 
 RRUN.                    L202:  Rig Run Number 
 RTIM.hr                  7.25:  Time Reaming 
 SAZI.deg               123.49:  Azm, Start 
 SDEP.m                2585.01:  Start Depth 
 SIDD.                      No:  Serv Intrp, DD 
 SINC.deg                59.93:  Inc, Start 
 SPPA.psig             3539.00:  SPP Avg 
 SPPN.psig             3050.00:  SPP Min 
 SPPX.psig             3950.00:  SPP Max 
 STIM.      19.00.00 10-Jan-20:  Start Time 
 SVCS.                 DD, MWD:  Services 
 SVER.                    9.20:  Sperry Version 
 TDAT.m                1293.00:  Tot Depth Attmp 
 TDDF.                      No:  Trip for DD 
 TDLG.m                1293.00:  Tot Depth Loggd 
 TFF .                      No:  Trip for Fail 
 TQAA.f-kp               16.00:  Torque Abs Avg 
 TQAN.f-kp               11.00:  Torque Abs Min 
 TQAX.f-kp               18.00:  Torque Abs Max 
 TRRT.°/30m               1.25:  Turn Rotating 
 MRT .                  EWR-M5:  Maximum Recorded Temperature 
 TTMX.degC               84.00:  Max Tool Temp 
 VS01.          AZ90514619R5C6:  Virtual Str1 SN 
 VS02.        AZ90552592N2L2C6:  Virtual Str2 SN 
 VS03.        AZ90571337Z1W1C6:  Virtual Str3 SN 
 VS04.         AZ90513690K23C6:  Virtual Str4 SN 
 VS05.           AZ90594857F11:  Virtual Str5 SN 
 VS06.                13102166:  Virtual Str6 SN 
 WBMN.klb                 7.00:  WOB Min 
 WITN.            Peter Wilson:  Customer Rep 
 WOBA.klb                 9.95:  WOB Avg 
 WOBX.klb                10.00:  WOB Max 
 YP  .lhf2               36.00:  Yield Point 
~Curve Information Block
#MNEM.UNIT                 API CODE     Curve Description
#---------               -----------    ---------------------------
 TIME.HHMMSS            00 000 000 000:  GT Time & Date
 GTDEPTH.m              00 000 000 000:  GT Depth
 GTPQH.psia             00 000 000 000:  GT HR Quartz Pressure
 GTTQ.degC              00 000 000 000:  GT Quartz Temperature
 GTTN.NONE              00 000 000 000:  GT Test Number
 GTET.sec               00 000 000 000:  GT Elapsed Test Time
 GTTVD.m                00 000 000 000:  GT True Vertical Depth
#Other Information
#
#WARRANTY: Halliburton will use its best efforts to furnish customers with 
#accurate information and interpretations that are part of, and incident to, the services 
#provided.  However, Halliburton cannot and does not warrant the accuracy 
#or correctness of such information and interpretations.  Under no circumstances should any 
#such information or interpretation be relied upon as the sole basis for any drilling, 
#completion, production, or financial decision or any procedure involving any risk to the 
#safety of any drilling venture, drilling rig or its crew or any other third party.  The 
#Customer has full responsibility for all drilling, completion and production operation.  
#Halliburton makes no representations or warranties, either expressed or 
#implied, including, but not limited to, the implied warranties of merchantability or fitness 
#for a particular purpose, with respect to the services rendered.  In no event will 
#Halliburton be liable for failure to obtain any particular results or for 
#any damages, including, but not limited to, indirect, special or consequential damages, 
#resulting from the use of any information or interpretation provided by Halliburton.
#
~A           TIME           GTDEPTH  GTPQH  GTTQ  GTTN  GTET   GTTVD  
# ...
   17:42:04.917.18-Jan-2020 3785.01 3229.81 81.81 6.00 322.02 2848.88
   17:42:05.117.18-Jan-2020 3785.01 3229.81 81.81 6.00 322.22 2848.88
   17:42:05.317.18-Jan-2020 3785.01 3230.43 81.81 6.00 322.42 2848.88
   17:42:05.517.18-Jan-2020 3785.01 3231.83 81.81 6.00 322.62 2848.88
   17:42:05.717.18-Jan-2020 3785.01 3239.06 81.81 6.00 322.82 2848.88
   17:42:05.917.18-Jan-2020 3785.01 3237.21 81.81 6.00 323.02 2848.88
   17:42:06.117.18-Jan-2020 3785.01 3237.21 81.81 6.00 323.22 2848.88
   17:42:06.317.18-Jan-2020 3785.01 3241.40 81.81 6.00 323.42 2848.88
   17:42:06.517.18-Jan-2020 3785.01 3240.12 81.81 6.00 323.62 2848.88
   17:42:06.717.18-Jan-2020 3785.01 3233.56 81.81 6.00 323.82 2848.88
   17:42:06.917.18-Jan-2020 3785.01 3237.73 81.81 6.00 324.02 2848.88
   17:42:07.117.18-Jan-2020 3785.01 3237.73 81.81 6.00 324.22 2848.88
   17:42:07.317.18-Jan-2020 3785.01 3423.64 81.81 6.00 324.42 2848.88
   17:42:07.517.18-Jan-2020 3785.01 3613.36 81.81 6.00 324.62 2848.88
   17:42:07.717.18-Jan-2020 3785.01 3719.98 81.81 6.00 324.82 2848.88
   17:42:07.917.18-Jan-2020 3785.01 3779.03 81.81 6.00 325.02 2848.88
   17:42:08.117.18-Jan-2020 3785.01 3779.03 81.81 6.00 325.22 2848.88
   17:42:08.317.18-Jan-2020 3785.01 3829.52 81.81 6.00 325.42 2848.88
   17:42:08.517.18-Jan-2020 3785.01 3840.22 81.81 6.00 325.62 2848.88
   17:42:08.717.18-Jan-2020 3785.01 3846.15 81.81 6.00 325.82 2848.88
   17:42:08.917.18-Jan-2020 3785.01 3849.34 81.81 6.00 326.02 2848.88
   17:42:09.117.18-Jan-2020 3785.01 3849.34 81.81 6.00 326.22 2848.88
   17:42:09.317.18-Jan-2020 3785.01 3852.48 81.81 6.00 326.42 2848.88
   17:42:09.517.18-Jan-2020 3785.01 3853.62 81.80 6.00 326.62 2848.88
   17:42:09.717.18-Jan-2020 3785.01 3854.19 81.81 6.00 326.82 2848.88
   17:42:09.917.18-Jan-2020 3785.01 3854.16 81.81 6.00 327.02 2848.88
   17:42:10.117.18-Jan-2020 3785.01 3854.16 81.81 6.00 327.22 2848.88
   17:42:10.317.18-Jan-2020 3785.01 3855.32 81.81 6.00 327.42 2848.88
   17:42:10.517.18-Jan-2020 3785.01 3855.84 81.81 6.00 327.62 2848.88
   17:42:10.717.18-Jan-2020 3785.01 3855.81 81.81 6.00 327.82 2848.88
   17:42:10.917.18-Jan-2020 3785.01 3856.02 81.81 6.00 328.02 2848.88
   17:42:11.117.18-Jan-2020 3785.01 3856.02 81.81 6.00 328.22 2848.88
   17:42:11.317.18-Jan-2020 3785.01 3856.20 81.81 6.00 328.42 2848.88
   17:42:11.517.18-Jan-2020 3785.01 3856.27 81.81 6.00 328.62 2848.88
   17:42:11.717.18-Jan-2020 3785.01 3856.45 81.81 6.00 328.82 2848.88
   17:42:11.917.18-Jan-2020 3785.01 3856.39 81.81 6.00 329.02 2848.88
   17:42:12.117.18-Jan-2020 3785.01 3856.39 81.81 6.00 329.22 2848.88
   17:42:12.317.18-Jan-2020 3785.01 3855.76 81.81 6.00 329.42 2848.88
   17:42:12.517.18-Jan-2020 3785.01 3857.44 81.81 6.00 329.62 2848.88
   17:42:12.717.18-Jan-2020 3785.01 3857.21 81.81 6.00 329.82 2848.88
   17:42:12.917.18-Jan-2020 3785.01 3857.11 81.81 6.00 330.02 2848.88
   17:42:13.117.18-Jan-2020 3785.01 3857.11 81.81 6.00 330.22 2848.88
   17:42:13.317.18-Jan-2020 3785.01 3856.98 81.81 6.00 330.42 2848.88
   17:42:13.517.18-Jan-2020 3785.01 3855.85 81.81 6.00 330.62 2848.88
   17:42:13.717.18-Jan-2020 3785.01 3857.72 81.81 6.00 330.82 2848.88
   17:42:13.917.18-Jan-2020 3785.01 3857.73 81.81 6.00 331.02 2848.88
   17:42:14.117.18-Jan-2020 3785.01 3857.73 81.81 6.00 331.22 2848.88
   17:42:14.317.18-Jan-2020 3785.01 3856.60 81.81 6.00 331.42 2848.88
   17:42:14.517.18-Jan-2020 3785.01 3857.89 81.81 6.00 331.62 2848.88
   17:42:14.717.18-Jan-2020 3785.01 3857.87 81.81 6.00 331.82 2848.88
   17:42:14.917.18-Jan-2020 3785.01 3857.47 81.81 6.00 332.02 2848.88
   17:42:15.117.18-Jan-2020 3785.01 3857.47 81.81 6.00 332.22 2848.88
   17:42:15.318.18-Jan-2020 3785.01 3857.51 81.81 6.00 332.42 2848.88
   17:42:15.518.18-Jan-2020 3785.01 3857.07 81.81 6.00 332.62 2848.88
   17:42:15.718.18-Jan-2020 3785.01 3857.29 81.81 6.00 332.82 2848.88
   17:42:15.918.18-Jan-2020 3785.01 3857.99 81.81 6.00 333.02 2848.88
   17:42:16.118.18-Jan-2020 3785.01 3857.99 81.81 6.00 333.22 2848.88
   17:42:16.318.18-Jan-2020 3785.01 3857.79 81.81 6.00 333.42 2848.88
   17:42:16.518.18-Jan-2020 3785.01 3857.63 81.81 6.00 333.62 2848.88
   17:42:16.718.18-Jan-2020 3785.01 3857.74 81.81 6.00 333.82 2848.88
   17:42:16.918.18-Jan-2020 3785.01 3857.50 81.81 6.00 334.02 2848.88
   17:42:17.118.18-Jan-2020 3785.01 3857.50 81.81 6.00 334.22 2848.88
   17:42:17.318.18-Jan-2020 3785.01 3857.76 81.81 6.00 334.42 2848.88
   17:42:17.518.18-Jan-2020 3785.01 3857.80 81.81 6.00 334.62 2848.88
   17:42:17.718.18-Jan-2020 3785.01 3857.73 81.81 6.00 334.82 2848.88
   17:42:17.918.18-Jan-2020 3785.01 3857.66 81.81 6.00 335.02 2848.88
   17:42:18.118.18-Jan-2020 3785.01 3857.66 81.81 6.00 335.22 2848.88
   17:42:18.318.18-Jan-2020 3785.01 3857.74 81.81 6.00 335.42 2848.88
   17:42:18.518.18-Jan-2020 3785.01 3857.84 81.81 6.00 335.62 2848.88
   17:42:18.718.18-Jan-2020 3785.01 3857.80 81.81 6.00 335.82 2848.88
   17:42:18.918.18-Jan-2020 3785.01 3857.79 81.81 6.00 336.02 2848.88
   17:42:19.118.18-Jan-2020 3785.01 3857.79 81.81 6.00 336.22 2848.88
   17:42:19.318.18-Jan-2020 3785.01 3858.02 81.81 6.00 336.42 2848.88
   17:42:19.518.18-Jan-2020 3785.01 3858.35 81.81 6.00 336.62 2848.88
   17:42:19.718.18-Jan-2020 3785.01 3858.34 81.81 6.00 336.82 2848.88
   17:42:19.918.18-Jan-2020 3785.01 3857.88 81.80 6.00 337.02 2848.88
   17:42:20.118.18-Jan-2020 3785.01 3857.88 81.80 6.00 337.23 2848.88
   17:42:20.318.18-Jan-2020 3785.01 3857.75 81.80 6.00 337.43 2848.88
   17:42:20.518.18-Jan-2020 3785.01 3857.81 81.80 6.00 337.63 2848.88
   17:42:20.718.18-Jan-2020 3785.01 3857.95 81.80 6.00 337.83 2848.88
   17:42:20.918.18-Jan-2020 3785.01 3858.09 81.80 6.00 338.03 2848.88
   17:42:21.118.18-Jan-2020 3785.01 3858.09 81.80 6.00 338.23 2848.88
   17:42:21.318.18-Jan-2020 3785.01 3857.98 81.80 6.00 338.43 2848.88
   17:42:21.518.18-Jan-2020 3785.01 3856.83 81.80 6.00 338.63 2848.88
   17:42:21.718.18-Jan-2020 3785.01 3858.54 81.80 6.00 338.83 2848.88
   17:42:21.918.18-Jan-2020 3785.01 3858.43 81.80 6.00 339.03 2848.88
   17:42:22.118.18-Jan-2020 3785.01 3858.43 81.80 6.00 339.23 2848.88
   17:42:22.318.18-Jan-2020 3785.01 3858.68 81.80 6.00 339.43 2848.88
   17:42:22.518.18-Jan-2020 3785.01 3857.96 81.80 6.00 339.63 2848.88
   17:42:22.718.18-Jan-2020 3785.01 3858.18 81.80 6.00 339.83 2848.88
   17:42:22.918.18-Jan-2020 3785.01 3857.09 81.80 6.00 340.03 2848.88
   17:42:23.118.18-Jan-2020 3785.01 3857.09 81.80 6.00 340.23 2848.88
   17:42:23.318.18-Jan-2020 3785.01 3858.34 81.80 6.00 340.43 2848.88
   17:42:23.518.18-Jan-2020 3785.01 3858.37 81.80 6.00 340.63 2848.88
   17:42:23.718.18-Jan-2020 3785.01 3858.00 81.80 6.00 340.83 2848.88
   17:42:23.918.18-Jan-2020 3785.01 3857.81 81.80 6.00 341.03 2848.88
   17:42:24.118.18-Jan-2020 3785.01 3857.81 81.80 6.00 341.23 2848.88
   17:42:24.318.18-Jan-2020 3785.01 3858.52 81.80 6.00 341.43 2848.88
   17:42:24.518.18-Jan-2020 3785.01 3858.65 81.80 6.00 341.63 2848.88
   17:42:24.718.18-Jan-2020 3785.01 3858.35 81.80 6.00 341.83 2848.88
   17:42:24.918.18-Jan-2020 3785.01 3858.16 81.80 6.00 342.03 2848.88
   17:42:25.118.18-Jan-2020 3785.01 3858.16 81.80 6.00 342.23 2848.88
   17:42:25.318.18-Jan-2020 3785.01 3858.09 81.80 6.00 342.43 2848.88
   17:42:25.518.18-Jan-2020 3785.01 3858.12 81.80 6.00 342.63 2848.88
   17:42:25.718.18-Jan-2020 3785.01 3858.16 81.80 6.00 342.83 2848.88
   17:42:25.918.18-Jan-2020 3785.01 3858.01 81.80 6.00 343.03 2848.88
   17:42:26.118.18-Jan-2020 3785.01 3858.01 81.80 6.00 343.23 2848.88
   17:42:26.318.18-Jan-2020 3785.01 3858.19 81.80 6.00 343.43 2848.88
   17:42:26.518.18-Jan-2020 3785.01 3858.26 81.80 6.00 343.63 2848.88
   17:42:26.718.18-Jan-2020 3785.01 3858.24 81.80 6.00 343.83 2848.88
   17:42:26.918.18-Jan-2020 3785.01 3857.95 81.80 6.00 344.03 2848.88
   17:42:27.118.18-Jan-2020 3785.01 3857.95 81.80 6.00 344.23 2848.88
   17:42:27.318.18-Jan-2020 3785.01 3858.09 81.80 6.00 344.43 2848.88
   17:42:27.518.18-Jan-2020 3785.01 3857.70 81.80 6.00 344.63 2848.88
   17:42:27.718.18-Jan-2020 3785.01 3857.85 81.80 6.00 344.83 2848.88
