~Version Information
 VERS.                  2.0:   CWLS log ASCII Standard -VERSION 2.0
 WRAP.                   NO:   One line per depth step
~Well Information Block
#MNEM.UNIT     VALUE/NAME     DESCRIPTION
#---------     -----------    ---------------------------
 STRT.S             13:51:43 18-Jan-20: START TIME 13:51:43 18-Jan-20
 STOP.S             13:59:59 18-Jan-20: STOP TIME  13:59:59 18-Jan-20
 STEP.S                   0.00: STEP TIME
 NULL.                 -999.25: NULL VALUE
 DFWT.                        :  DIST FWL TEXT
 DFST.                        :  DIST FSL TEXT
 DMF .             Drill Floor:  DRILL MEAS FROM
 STIM.      09.30.00 26-Dec-19:  START TIME
 DATE.      08.00.00 20-Jan-20:  END TIME
 SPUD.               23-Nov-19:  SPUD DATE
 NREF.                    Grid:  NORTH REFERENCE
 HPTY.       Minimum Curvature:  HOLE POS TYPE
 DMOD.             Drill Model:  DRILL MOD DESC
 SVYD.                  Survey:  SURVEY DESC
 ILTD.               Lithology:  INTERP LTH DESC
 FTOP.          Formation Tops:  FORM TOPS DESC
 SON .        AZ-XX-0906192647:  JOB NUMBER
 WTYP.                Deviated:  WELL TYPE
 COMP.     BP Exploration (Caspian Sea) Ltd:  COMPANY
 BASE.              Azerbaijan:  LOGGING EQUIPMENT BASE LOCATION
 REGN.                 Eurasia:  REGION
 FLD .                     ACG:  FIELD NAME
 SRVC.              KCA Deutag:  CONTRACTOR
 MWDS.                    Baku:  MWD SHOP
 WELL.     A10 (Slot 20) - SCP:  WELL NAME
 JOBN.        AZ-XX-0906192647:  JOB TICKET NUMB
 RIG .                 Chirag1:  RIG NAME
 DCON.     Halliburton Sperry Drilling:  DIRECTNL CONTR
 UNIT.                     N/A:  LOGGING EQUIPMENT ID
 PDAT.          Mean Sea Level:  PERMANENT DATUM
 MDS .        Operator Entered:  MAG DATA SOURCE
 CTRY.              Azerbaijan:  COUNTRY NAME
 UWI .            /AZE00000090:  UNIQUE WELL IDENTIFIER
 API .            /AZE00000090:  API NUMBER
 CNTY.                        :  COUNTY
 PROV.                        :  PROVINCE
 STAT.                        :  STATE
 LOC .                        :  LOCATION
 LMF .             Drill Floor:  LOG MEASURED FROM
 TVDS.m                  36.60:  TVDSS CORRECTN
 LATI.deg                40.08:  LATITUDE
 LONG.deg                51.24:  LONGITUDE
 WHNS.m                  -7.94:  WELL HEAD N/S
 WHEW.m                   1.56:  WELL HEAD E/W
 UTMX.m              520429.26:  UTM X
 UTMY.m             4438973.87:  UTM Y
 DFWL.m                   0.00:  DISTANCE FWL
 DFSL.m                   0.00:  DISTANCE FSL
 SDEP.m                1455.00:  START DEPTH
 TDD .m                3878.01:  TOTAL DEPTH (DRILLER)
 VSDR.deg               112.75:  VERT SEC DIRECT
 GVFD.g                   1.00:  GRAVITY FIELD
 MFLD.nT              50256.00:  MAGNETIC FIELD
 MDIP.deg                59.52:  MAGNETIC DIP
 MDEC.deg                 6.43:  MAGNETIC DECL
 GRDC.deg                 0.16:  GRID CORRECTION
 AZTC.deg                 6.27:  AZM TOTAL CORR
 EPD .m                   0.00:  ELEVATION
 EGL .m                   0.00:  GROUND ELEVATION
 WDMS.m                 121.00:  WD ELEV
 APD .m                  36.60:  DEPTH ABOVE PD
 AGAP.m                  36.60:  AIR GAP
 VSEW.m                   1.56:  VERT SEC E/W
 VSNS.m                  -7.94:  VERT SEC N/S
 DEP .m                1140.01:  DEPTH
 EKB .m                  36.60:  KB ELEVATION
 EDF .m                  36.60:  DF ELEVATION
 TDL .m                1293.00:  TOTAL DEPTH (LOGGER)
 VSC .                       0:  VS TO CLOSURE
 MAGU.                 1849164:  MAGUTM CHECKSUM
~Parameter Information Block
#MNEM.UNIT       Value        Description
#---------     -----------    ---------------------------
 AV  .mps                 2.40:  Ann Velocity 
 AVMX.mps                 2.55:  Max Ann Veloc 
 AZIF.deg               134.35:  Azm, Final 
 BHAT.        Rotary Steerable:  BHA Type 
 BREV.rev               847.00:  Rev Bit Total 
 BROT.°/30m              -2.51:  Build Rotating 
 BS  .in                  8.50:  Bit Size 
 BSZ .in                  8.50:  Bit Size 
 BTPL.psig              700.00:  Bit Press Loss 
 CABU.                     Yes:  Customer Abuse 
 CGEO.          Ilgar Gurbanov:  Customer Geo 
 COMM.                     üÓ~:  Run Comments 1 
 TCS .hr                140.40:  Time Ciculation Ended 
 CV  .mps                 2.27:  Crit Velocity 
 CVMX.mps                 2.45:  Max Crit Veloc 
 DD1 .         Intigam Rahimov:  Direct Drillr 1 
 DD2 .         Rasim Ibrahimov:  Direct Drillr 2 
 DDSV.                 iCruise:  DD Service 
 DEFF.%                  99.00:  % Det Eff 
 DLRX.°/30m               3.28:  Dogleg Rot Max 
 DLSO.°/30m               0.00:  Dogleg Oriented 
 DLSX.°/30m               0.00:  Dogleg Str Max 
 DRET.      23.30.00 18-Jan-20:  Drill End Time 
 DRST.      01.45.00 11-Jan-20:  Drill Start Tim 
 DTIM.hr                 94.00:  Time Drilling 
 EDEP.m                3878.01:  End Depth 
 ENG1.       Dauren Baktybayev:  Engineer 1 
 ENG2.      Natik Hasanaghayev:  Engineer 2 
 ENG3.          Rustam Safarov:  Engineer 3 
 ETIM.      08.00.00 20-Jan-20:  End Time 
 FLOI.gpm               532.00:  Flow In 
 FLON.gpm               500.00:  Flow In Min 
 FLOS.cptm                0.00:  Fluid Loss 
 FLOX.gpm               540.00:  Flow In Max 
 FTRO.       Formation Presure:  FTWD Run Obj 
 HPRE.                     Yes:  High Pressure 
 HTEM.                      No:  High Temp 
 HYDO.m                   1.80:  Hydro Offset 
 IFIN.deg                39.86:  Inc, Final 
 IMAX.deg                59.73:  Inc Max 
 IMIN.deg                39.25:  Inc Min 
 IMND.m                3816.77:  Inc Min Depth 
 IMXD.m                2596.33:  Inc Max Depth 
 JARR.                      No:  Jarring 
 LETM.      23.30.00 18-Jan-20:  Log End Time 
 LOST.hr                     0:  Lost Rig Time 
 LSTM.      01.45.00 11-Jan-20:  Log Start Time 
 MDCL.ppm             41500.00:  Mud Chlorides 
 MDES.     Inversion Oil/Synthetic:  Mud Desc 
 DFD .sg                  1.48:  Mud Density 
 MDMN.sg                  1.48:  Dens Mud Min 
 MDMX.sg                  1.48:  Dens Mud Max 
 MOIL.                      54:  Run Mud Oil % 
 MOWR.                   72:28:  Run Mud OWR 
 MSND.                       0:  Run Mud Sand % 
 MSOL.                      23:  Run Mud Solids% 
 DFV .spqt               86.00:  Mud Viscosity 
 MWOD.in                  6.75:  MWD Tool OD 
 MWSI.                      No:  Serv Intrp, MWD 
 OTIM.hr                223.40:  Time Operating 
 PCON.           Look Like New:  Pad Condition 
 PMAX.psia            32446.79:  Press Op, Max 
 PV  .cP                 49.00:  Mud PV 
 RUN .                     200:  Run Number 
 ROPA.m/hr               12.48:  ROP Avg 
 ROPN.m/hr                8.00:  ROP Min 
 ROPX.m/hr               27.00:  ROP Max 
 RPMA.rpm               121.00:  RPM Surface Avg 
 RPMN.rpm                60.00:  RPM Surface Min 
 RPMX.rpm               140.00:  RPM Surface Max 
 RRUN.                    L202:  Rig Run Number 
 RTIM.hr                  7.25:  Time Reaming 
 SAZI.deg               123.49:  Azm, Start 
 SDEP.m                2585.01:  Start Depth 
 SIDD.                      No:  Serv Intrp, DD 
 SINC.deg                59.93:  Inc, Start 
 SPPA.psig             3539.00:  SPP Avg 
 SPPN.psig             3050.00:  SPP Min 
 SPPX.psig             3950.00:  SPP Max 
 STIM.      19.00.00 10-Jan-20:  Start Time 
 SVCS.                 DD, MWD:  Services 
 SVER.                    9.20:  Sperry Version 
 TDAT.m                1293.00:  Tot Depth Attmp 
 TDDF.                      No:  Trip for DD 
 TDLG.m                1293.00:  Tot Depth Loggd 
 TFF .                      No:  Trip for Fail 
 TQAA.f-kp               16.00:  Torque Abs Avg 
 TQAN.f-kp               11.00:  Torque Abs Min 
 TQAX.f-kp               18.00:  Torque Abs Max 
 TRRT.°/30m               1.25:  Turn Rotating 
 MRT .                  EWR-M5:  Maximum Recorded Temperature 
 TTMX.degC               84.00:  Max Tool Temp 
 VS01.          AZ90514619R5C6:  Virtual Str1 SN 
 VS02.        AZ90552592N2L2C6:  Virtual Str2 SN 
 VS03.        AZ90571337Z1W1C6:  Virtual Str3 SN 
 VS04.         AZ90513690K23C6:  Virtual Str4 SN 
 VS05.           AZ90594857F11:  Virtual Str5 SN 
 VS06.                13102166:  Virtual Str6 SN 
 WBMN.klb                 7.00:  WOB Min 
 WITN.            Peter Wilson:  Customer Rep 
 WOBA.klb                 9.95:  WOB Avg 
 WOBX.klb                10.00:  WOB Max 
 YP  .lhf2               36.00:  Yield Point 
~Curve Information Block
#MNEM.UNIT                 API CODE     Curve Description
#---------               -----------    ---------------------------
 TIME.HHMMSS            00 000 000 000:  GT Time & Date
 GTDEPTH.m              00 000 000 000:  GT Depth
 GTPQH.psia             00 000 000 000:  GT HR Quartz Pressure
 GTTQ.degC              00 000 000 000:  GT Quartz Temperature
 GTTN.NONE              00 000 000 000:  GT Test Number
 GTET.sec               00 000 000 000:  GT Elapsed Test Time
 GTTVD.m                00 000 000 000:  GT True Vertical Depth
#Other Information
#
#WARRANTY: Halliburton will use its best efforts to furnish customers with 
#accurate information and interpretations that are part of, and incident to, the services 
#provided.  However, Halliburton cannot and does not warrant the accuracy 
#or correctness of such information and interpretations.  Under no circumstances should any 
#such information or interpretation be relied upon as the sole basis for any drilling, 
#completion, production, or financial decision or any procedure involving any risk to the 
#safety of any drilling venture, drilling rig or its crew or any other third party.  The 
#Customer has full responsibility for all drilling, completion and production operation.  
#Halliburton makes no representations or warranties, either expressed or 
#implied, including, but not limited to, the implied warranties of merchantability or fitness 
#for a particular purpose, with respect to the services rendered.  In no event will 
#Halliburton be liable for failure to obtain any particular results or for 
#any damages, including, but not limited to, indirect, special or consequential damages, 
#resulting from the use of any information or interpretation provided by Halliburton.
#
~A           TIME           GTDEPTH  GTPQH  GTTQ  GTTN  GTET   GTTVD  
# ...
   13:52:06.537.18-Jan-2020 3754.01 6361.64 79.67 5.00  23.01 2824.94
   13:52:06.737.18-Jan-2020 3754.01 6361.64 79.67 5.00  23.21 2824.94
   13:52:06.937.18-Jan-2020 3754.01 6359.49 79.67 5.00  23.41 2824.94
   13:52:07.138.18-Jan-2020 3754.01 6360.74 79.67 5.00  23.61 2824.94
   13:52:07.338.18-Jan-2020 3754.01 6361.15 79.67 5.00  23.81 2824.94
   13:52:07.538.18-Jan-2020 3754.01 6362.42 79.67 5.00  24.01 2824.94
   13:52:07.738.18-Jan-2020 3754.01 6362.42 79.67 5.00  24.21 2824.94
   13:52:07.938.18-Jan-2020 3754.01 6361.92 79.67 5.00  24.41 2824.94
   13:52:08.138.18-Jan-2020 3754.01 6362.35 79.67 5.00  24.61 2824.94
   13:52:08.338.18-Jan-2020 3754.01 6373.92 79.67 5.00  24.81 2824.94
   13:52:08.538.18-Jan-2020 3754.01 6360.89 79.67 5.00  25.01 2824.94
   13:52:08.738.18-Jan-2020 3754.01 6360.89 79.67 5.00  25.21 2824.94
   13:52:08.938.18-Jan-2020 3754.01 6366.56 79.67 5.00  25.41 2824.94
   13:52:09.138.18-Jan-2020 3754.01 6364.52 79.67 5.00  25.61 2824.94
   13:52:09.338.18-Jan-2020 3754.01 6367.89 79.67 5.00  25.81 2824.94
   13:52:09.538.18-Jan-2020 3754.01 6366.05 79.67 5.00  26.01 2824.94
   13:52:09.738.18-Jan-2020 3754.01 6366.05 79.67 5.00  26.21 2824.94
   13:52:09.938.18-Jan-2020 3754.01 6363.40 79.67 5.00  26.41 2824.94
   13:52:10.139.18-Jan-2020 3754.01 6361.89 79.67 5.00  26.61 2824.94
   13:52:10.339.18-Jan-2020 3754.01 6363.22 79.67 5.00  26.81 2824.94
   13:52:10.539.18-Jan-2020 3754.01 6373.88 79.67 5.00  27.01 2824.94
   13:52:10.739.18-Jan-2020 3754.01 6373.88 79.67 5.00  27.21 2824.94
   13:52:10.939.18-Jan-2020 3754.01 6362.52 79.67 5.00  27.41 2824.94
   13:52:11.139.18-Jan-2020 3754.01 6366.28 79.67 5.00  27.61 2824.94
   13:52:11.339.18-Jan-2020 3754.01 6372.51 79.67 5.00  27.81 2824.94
   13:52:11.539.18-Jan-2020 3754.01 6369.85 79.67 5.00  28.01 2824.94
   13:52:11.739.18-Jan-2020 3754.01 6369.85 79.67 5.00  28.21 2824.94
   13:52:11.939.18-Jan-2020 3754.01 6431.31 79.66 5.00  28.41 2824.94
   13:52:12.139.18-Jan-2020 3754.01 6343.09 79.66 5.00  28.61 2824.94
   13:52:12.339.18-Jan-2020 3754.01 6062.30 79.66 5.00  28.81 2824.94
   13:52:12.539.18-Jan-2020 3754.01 5959.22 79.66 5.00  29.01 2824.94
   13:52:12.739.18-Jan-2020 3754.01 5959.22 79.66 5.00  29.21 2824.94
   13:52:12.939.18-Jan-2020 3754.01 5840.84 79.66 5.00  29.41 2824.94
   13:52:13.139.18-Jan-2020 3754.01 5795.34 79.66 5.00  29.61 2824.94
   13:52:13.340.18-Jan-2020 3754.01 5749.27 79.66 5.00  29.81 2824.94
   13:52:13.540.18-Jan-2020 3754.01 5709.23 79.66 5.00  30.01 2824.94
   13:52:13.740.18-Jan-2020 3754.01 5709.23 79.66 5.00  30.21 2824.94
   13:52:13.940.18-Jan-2020 3754.01 5666.76 79.66 5.00  30.41 2824.94
   13:52:14.140.18-Jan-2020 3754.01 5588.68 79.66 5.00  30.61 2824.94
   13:52:14.340.18-Jan-2020 3754.01 5560.99 79.66 5.00  30.81 2824.94
   13:52:14.540.18-Jan-2020 3754.01 5536.90 79.66 5.00  31.01 2824.94
   13:52:14.740.18-Jan-2020 3754.01 5536.90 79.66 5.00  31.21 2824.94
   13:52:14.940.18-Jan-2020 3754.01 5494.12 79.66 5.00  31.41 2824.94
   13:52:15.140.18-Jan-2020 3754.01 5469.00 79.66 5.00  31.61 2824.94
   13:52:15.340.18-Jan-2020 3754.01 5447.52 79.66 5.00  31.81 2824.94
   13:52:15.540.18-Jan-2020 3754.01 5437.13 79.66 5.00  32.01 2824.94
   13:52:15.740.18-Jan-2020 3754.01 5437.13 79.66 5.00  32.21 2824.94
   13:52:15.940.18-Jan-2020 3754.01 5422.85 79.65 5.00  32.41 2824.94
   13:52:16.140.18-Jan-2020 3754.01 5412.69 79.65 5.00  32.61 2824.94
   13:52:16.341.18-Jan-2020 3754.01 5393.94 79.65 5.00  32.81 2824.94
   13:52:16.541.18-Jan-2020 3754.01 5351.49 79.65 5.00  33.01 2824.94
   13:52:16.741.18-Jan-2020 3754.01 5351.49 79.65 5.00  33.21 2824.94
   13:52:16.941.18-Jan-2020 3754.01 5285.03 79.65 5.00  33.41 2824.94
   13:52:17.141.18-Jan-2020 3754.01 5243.80 79.65 5.00  33.61 2824.94
   13:52:17.341.18-Jan-2020 3754.01 5197.66 79.65 5.00  33.81 2824.94
   13:52:17.541.18-Jan-2020 3754.01 5151.93 79.65 5.00  34.01 2824.94
   13:52:17.741.18-Jan-2020 3754.01 5151.93 79.65 5.00  34.21 2824.94
   13:52:17.941.18-Jan-2020 3754.01 5056.31 79.65 5.00  34.41 2824.94
   13:52:18.141.18-Jan-2020 3754.01 5009.01 79.65 5.00  34.61 2824.94
   13:52:18.341.18-Jan-2020 3754.01 4963.10 79.64 5.00  34.81 2824.94
   13:52:18.541.18-Jan-2020 3754.01 4924.68 79.64 5.00  35.01 2824.94
   13:52:18.741.18-Jan-2020 3754.01 4924.68 79.64 5.00  35.21 2824.94
   13:52:18.941.18-Jan-2020 3754.01 4860.12 79.64 5.00  35.41 2824.94
   13:52:19.141.18-Jan-2020 3754.01 4840.28 79.64 5.00  35.61 2824.94
   13:52:19.341.18-Jan-2020 3754.01 4828.41 79.64 5.00  35.81 2824.94
   13:52:19.542.18-Jan-2020 3754.01 4819.65 79.64 5.00  36.01 2824.94
   13:52:19.742.18-Jan-2020 3754.01 4819.65 79.64 5.00  36.21 2824.94
   13:52:19.942.18-Jan-2020 3754.01 4805.56 79.64 5.00  36.41 2824.94
   13:52:20.142.18-Jan-2020 3754.01 4796.02 79.64 5.00  36.61 2824.94
   13:52:20.342.18-Jan-2020 3754.01 4791.76 79.64 5.00  36.81 2824.94
   13:52:20.542.18-Jan-2020 3754.01 4788.85 79.63 5.00  37.01 2824.94
   13:52:20.742.18-Jan-2020 3754.01 4788.85 79.63 5.00  37.21 2824.94
   13:52:20.942.18-Jan-2020 3754.01 4778.89 79.63 5.00  37.41 2824.94
   13:52:21.142.18-Jan-2020 3754.01 4771.13 79.63 5.00  37.61 2824.94
   13:52:21.342.18-Jan-2020 3754.01 4768.15 79.63 5.00  37.81 2824.94
   13:52:21.542.18-Jan-2020 3754.01 4766.69 79.63 5.00  38.01 2824.94
   13:52:21.742.18-Jan-2020 3754.01 4766.69 79.63 5.00  38.21 2824.94
   13:52:21.942.18-Jan-2020 3754.01 4763.69 79.63 5.00  38.41 2824.94
   13:52:22.142.18-Jan-2020 3754.01 4763.19 79.63 5.00  38.61 2824.94
   13:52:22.342.18-Jan-2020 3754.01 4801.52 79.63 5.00  38.81 2824.94
   13:52:22.543.18-Jan-2020 3754.01 4645.32 79.63 5.00  39.01 2824.94
   13:52:22.743.18-Jan-2020 3754.01 4645.32 79.63 5.00  39.21 2824.94
   13:52:22.943.18-Jan-2020 3754.01 3377.35 79.62 5.00  39.41 2824.94
   13:52:23.143.18-Jan-2020 3754.01 3426.87 79.62 5.00  39.61 2824.94
   13:52:23.343.18-Jan-2020 3754.01 3474.63 79.62 5.00  39.81 2824.94
   13:52:23.543.18-Jan-2020 3754.01 3503.63 79.62 5.00  40.01 2824.94
   13:52:23.743.18-Jan-2020 3754.01 3503.63 79.62 5.00  40.21 2824.94
   13:52:23.943.18-Jan-2020 3754.01 3539.11 79.62 5.00  40.41 2824.94
   13:52:24.143.18-Jan-2020 3754.01 3551.78 79.62 5.00  40.61 2824.94
   13:52:24.343.18-Jan-2020 3754.01 3626.30 79.62 5.00  40.81 2824.94
   13:52:24.543.18-Jan-2020 3754.01 3589.93 79.61 5.00  41.01 2824.94
   13:52:24.743.18-Jan-2020 3754.01 3589.93 79.61 5.00  41.21 2824.94
   13:52:24.943.18-Jan-2020 3754.01 3627.02 79.61 5.00  41.41 2824.94
   13:52:25.143.18-Jan-2020 3754.01 3606.86 79.61 5.00  41.61 2824.94
   13:52:25.343.18-Jan-2020 3754.01 3600.19 79.61 5.00  41.81 2824.94
   13:52:25.543.18-Jan-2020 3754.01 3608.15 79.61 5.00  42.01 2824.94
   13:52:25.744.18-Jan-2020 3754.01 3608.15 79.61 5.00  42.21 2824.94
   13:52:25.944.18-Jan-2020 3754.01 3616.27 79.61 5.00  42.41 2824.94
   13:52:26.144.18-Jan-2020 3754.01 3621.54 79.60 5.00  42.61 2824.94
   13:52:26.344.18-Jan-2020 3754.01 3621.58 79.60 5.00  42.81 2824.94
   13:52:26.544.18-Jan-2020 3754.01 3619.64 79.60 5.00  43.01 2824.94
   13:52:26.744.18-Jan-2020 3754.01 3619.64 79.60 5.00  43.21 2824.94
   13:52:26.944.18-Jan-2020 3754.01 3619.70 79.60 5.00  43.41 2824.94
   13:52:27.144.18-Jan-2020 3754.01 3626.69 79.60 5.00  43.61 2824.94
   13:52:27.344.18-Jan-2020 3754.01 3656.16 79.60 5.00  43.81 2824.94
   13:52:27.544.18-Jan-2020 3754.01 3657.91 79.60 5.00  44.01 2824.94
   13:52:27.744.18-Jan-2020 3754.01 3657.91 79.60 5.00  44.21 2824.94
   13:52:27.944.18-Jan-2020 3754.01 3636.00 79.59 5.00  44.41 2824.94
   13:52:28.144.18-Jan-2020 3754.01 3629.55 79.59 5.00  44.61 2824.94
   13:52:28.344.18-Jan-2020 3754.01 3629.20 79.59 5.00  44.81 2824.94
   13:52:28.544.18-Jan-2020 3754.01 3627.94 79.59 5.00  45.01 2824.94
   13:52:28.745.18-Jan-2020 3754.01 3627.94 79.59 5.00  45.21 2824.94
   13:52:28.945.18-Jan-2020 3754.01 3633.38 79.59 5.00  45.41 2824.94
   13:52:29.145.18-Jan-2020 3754.01 3640.93 79.59 5.00  45.61 2824.94
   13:52:29.345.18-Jan-2020 3754.01 3636.82 79.59 5.00  45.81 2824.94
