~Version Information
 VERS.                  2.0:   CWLS log ASCII Standard -VERSION 2.0
 WRAP.                   NO:   One line per depth step
~Well Information Block
#MNEM.UNIT     VALUE/NAME     DESCRIPTION
#---------     -----------    ---------------------------
 STRT.S             13:51:43 18-Jan-20: START TIME 13:51:43 18-Jan-20
 STOP.S             13:59:59 18-Jan-20: STOP TIME  13:59:59 18-Jan-20
 STEP.S                   0.00: STEP TIME
 NULL.                 -999.25: NULL VALUE
 DFWT.                        :  DIST FWL TEXT
 DFST.                        :  DIST FSL TEXT
 DMF .             Drill Floor:  DRILL MEAS FROM
 STIM.      09.30.00 26-Dec-19:  START TIME
 DATE.      08.00.00 20-Jan-20:  END TIME
 SPUD.               23-Nov-19:  SPUD DATE
 NREF.                    Grid:  NORTH REFERENCE
 HPTY.       Minimum Curvature:  HOLE POS TYPE
 DMOD.             Drill Model:  DRILL MOD DESC
 SVYD.                  Survey:  SURVEY DESC
 ILTD.               Lithology:  INTERP LTH DESC
 FTOP.          Formation Tops:  FORM TOPS DESC
 SON .        AZ-XX-0906192647:  JOB NUMBER
 WTYP.                Deviated:  WELL TYPE
 COMP.     BP Exploration (Caspian Sea) Ltd:  COMPANY
 BASE.              Azerbaijan:  LOGGING EQUIPMENT BASE LOCATION
 REGN.                 Eurasia:  REGION
 FLD .                     ACG:  FIELD NAME
 SRVC.              KCA Deutag:  CONTRACTOR
 MWDS.                    Baku:  MWD SHOP
 WELL.     A10 (Slot 20) - SCP:  WELL NAME
 JOBN.        AZ-XX-0906192647:  JOB TICKET NUMB
 RIG .                 Chirag1:  RIG NAME
 DCON.     Halliburton Sperry Drilling:  DIRECTNL CONTR
 UNIT.                     N/A:  LOGGING EQUIPMENT ID
 PDAT.          Mean Sea Level:  PERMANENT DATUM
 MDS .        Operator Entered:  MAG DATA SOURCE
 CTRY.              Azerbaijan:  COUNTRY NAME
 UWI .            /AZE00000090:  UNIQUE WELL IDENTIFIER
 API .            /AZE00000090:  API NUMBER
 CNTY.                        :  COUNTY
 PROV.                        :  PROVINCE
 STAT.                        :  STATE
 LOC .                        :  LOCATION
 LMF .             Drill Floor:  LOG MEASURED FROM
 TVDS.m                  36.60:  TVDSS CORRECTN
 LATI.deg                40.08:  LATITUDE
 LONG.deg                51.24:  LONGITUDE
 WHNS.m                  -7.94:  WELL HEAD N/S
 WHEW.m                   1.56:  WELL HEAD E/W
 UTMX.m              520429.26:  UTM X
 UTMY.m             4438973.87:  UTM Y
 DFWL.m                   0.00:  DISTANCE FWL
 DFSL.m                   0.00:  DISTANCE FSL
 SDEP.m                1455.00:  START DEPTH
 TDD .m                3878.01:  TOTAL DEPTH (DRILLER)
 VSDR.deg               112.75:  VERT SEC DIRECT
 GVFD.g                   1.00:  GRAVITY FIELD
 MFLD.nT              50256.00:  MAGNETIC FIELD
 MDIP.deg                59.52:  MAGNETIC DIP
 MDEC.deg                 6.43:  MAGNETIC DECL
 GRDC.deg                 0.16:  GRID CORRECTION
 AZTC.deg                 6.27:  AZM TOTAL CORR
 EPD .m                   0.00:  ELEVATION
 EGL .m                   0.00:  GROUND ELEVATION
 WDMS.m                 121.00:  WD ELEV
 APD .m                  36.60:  DEPTH ABOVE PD
 AGAP.m                  36.60:  AIR GAP
 VSEW.m                   1.56:  VERT SEC E/W
 VSNS.m                  -7.94:  VERT SEC N/S
 DEP .m                1140.01:  DEPTH
 EKB .m                  36.60:  KB ELEVATION
 EDF .m                  36.60:  DF ELEVATION
 TDL .m                1293.00:  TOTAL DEPTH (LOGGER)
 VSC .                       0:  VS TO CLOSURE
 MAGU.                 1849164:  MAGUTM CHECKSUM
~Parameter Information Block
#MNEM.UNIT       Value        Description
#---------     -----------    ---------------------------
 AV  .mps                 2.40:  Ann Velocity 
 AVMX.mps                 2.55:  Max Ann Veloc 
 AZIF.deg               134.35:  Azm, Final 
 BHAT.        Rotary Steerable:  BHA Type 
 BREV.rev               847.00:  Rev Bit Total 
 BROT.°/30m              -2.51:  Build Rotating 
 BS  .in                  8.50:  Bit Size 
 BSZ .in                  8.50:  Bit Size 
 BTPL.psig              700.00:  Bit Press Loss 
 CABU.                     Yes:  Customer Abuse 
 CGEO.          Ilgar Gurbanov:  Customer Geo 
 COMM.                     üÓ~:  Run Comments 1 
 TCS .hr                140.40:  Time Ciculation Ended 
 CV  .mps                 2.27:  Crit Velocity 
 CVMX.mps                 2.45:  Max Crit Veloc 
 DD1 .         Intigam Rahimov:  Direct Drillr 1 
 DD2 .         Rasim Ibrahimov:  Direct Drillr 2 
 DDSV.                 iCruise:  DD Service 
 DEFF.%                  99.00:  % Det Eff 
 DLRX.°/30m               3.28:  Dogleg Rot Max 
 DLSO.°/30m               0.00:  Dogleg Oriented 
 DLSX.°/30m               0.00:  Dogleg Str Max 
 DRET.      23.30.00 18-Jan-20:  Drill End Time 
 DRST.      01.45.00 11-Jan-20:  Drill Start Tim 
 DTIM.hr                 94.00:  Time Drilling 
 EDEP.m                3878.01:  End Depth 
 ENG1.       Dauren Baktybayev:  Engineer 1 
 ENG2.      Natik Hasanaghayev:  Engineer 2 
 ENG3.          Rustam Safarov:  Engineer 3 
 ETIM.      08.00.00 20-Jan-20:  End Time 
 FLOI.gpm               532.00:  Flow In 
 FLON.gpm               500.00:  Flow In Min 
 FLOS.cptm                0.00:  Fluid Loss 
 FLOX.gpm               540.00:  Flow In Max 
 FTRO.       Formation Presure:  FTWD Run Obj 
 HPRE.                     Yes:  High Pressure 
 HTEM.                      No:  High Temp 
 HYDO.m                   1.80:  Hydro Offset 
 IFIN.deg                39.86:  Inc, Final 
 IMAX.deg                59.73:  Inc Max 
 IMIN.deg                39.25:  Inc Min 
 IMND.m                3816.77:  Inc Min Depth 
 IMXD.m                2596.33:  Inc Max Depth 
 JARR.                      No:  Jarring 
 LETM.      23.30.00 18-Jan-20:  Log End Time 
 LOST.hr                     0:  Lost Rig Time 
 LSTM.      01.45.00 11-Jan-20:  Log Start Time 
 MDCL.ppm             41500.00:  Mud Chlorides 
 MDES.     Inversion Oil/Synthetic:  Mud Desc 
 DFD .sg                  1.48:  Mud Density 
 MDMN.sg                  1.48:  Dens Mud Min 
 MDMX.sg                  1.48:  Dens Mud Max 
 MOIL.                      54:  Run Mud Oil % 
 MOWR.                   72:28:  Run Mud OWR 
 MSND.                       0:  Run Mud Sand % 
 MSOL.                      23:  Run Mud Solids% 
 DFV .spqt               86.00:  Mud Viscosity 
 MWOD.in                  6.75:  MWD Tool OD 
 MWSI.                      No:  Serv Intrp, MWD 
 OTIM.hr                223.40:  Time Operating 
 PCON.           Look Like New:  Pad Condition 
 PMAX.psia            32446.79:  Press Op, Max 
 PV  .cP                 49.00:  Mud PV 
 RUN .                     200:  Run Number 
 ROPA.m/hr               12.48:  ROP Avg 
 ROPN.m/hr                8.00:  ROP Min 
 ROPX.m/hr               27.00:  ROP Max 
 RPMA.rpm               121.00:  RPM Surface Avg 
 RPMN.rpm                60.00:  RPM Surface Min 
 RPMX.rpm               140.00:  RPM Surface Max 
 RRUN.                    L202:  Rig Run Number 
 RTIM.hr                  7.25:  Time Reaming 
 SAZI.deg               123.49:  Azm, Start 
 SDEP.m                2585.01:  Start Depth 
 SIDD.                      No:  Serv Intrp, DD 
 SINC.deg                59.93:  Inc, Start 
 SPPA.psig             3539.00:  SPP Avg 
 SPPN.psig             3050.00:  SPP Min 
 SPPX.psig             3950.00:  SPP Max 
 STIM.      19.00.00 10-Jan-20:  Start Time 
 SVCS.                 DD, MWD:  Services 
 SVER.                    9.20:  Sperry Version 
 TDAT.m                1293.00:  Tot Depth Attmp 
 TDDF.                      No:  Trip for DD 
 TDLG.m                1293.00:  Tot Depth Loggd 
 TFF .                      No:  Trip for Fail 
 TQAA.f-kp               16.00:  Torque Abs Avg 
 TQAN.f-kp               11.00:  Torque Abs Min 
 TQAX.f-kp               18.00:  Torque Abs Max 
 TRRT.°/30m               1.25:  Turn Rotating 
 MRT .                  EWR-M5:  Maximum Recorded Temperature 
 TTMX.degC               84.00:  Max Tool Temp 
 VS01.          AZ90514619R5C6:  Virtual Str1 SN 
 VS02.        AZ90552592N2L2C6:  Virtual Str2 SN 
 VS03.        AZ90571337Z1W1C6:  Virtual Str3 SN 
 VS04.         AZ90513690K23C6:  Virtual Str4 SN 
 VS05.           AZ90594857F11:  Virtual Str5 SN 
 VS06.                13102166:  Virtual Str6 SN 
 WBMN.klb                 7.00:  WOB Min 
 WITN.            Peter Wilson:  Customer Rep 
 WOBA.klb                 9.95:  WOB Avg 
 WOBX.klb                10.00:  WOB Max 
 YP  .lhf2               36.00:  Yield Point 
~Curve Information Block
#MNEM.UNIT                 API CODE     Curve Description
#---------               -----------    ---------------------------
 TIME.HHMMSS            00 000 000 000:  GT Time & Date
 GTDEPTH.m              00 000 000 000:  GT Depth
 GTPQH.psia             00 000 000 000:  GT HR Quartz Pressure
 GTTQ.degC              00 000 000 000:  GT Quartz Temperature
 GTTN.NONE              00 000 000 000:  GT Test Number
 GTET.sec               00 000 000 000:  GT Elapsed Test Time
 GTTVD.m                00 000 000 000:  GT True Vertical Depth
#Other Information
#
#WARRANTY: Halliburton will use its best efforts to furnish customers with 
#accurate information and interpretations that are part of, and incident to, the services 
#provided.  However, Halliburton cannot and does not warrant the accuracy 
#or correctness of such information and interpretations.  Under no circumstances should any 
#such information or interpretation be relied upon as the sole basis for any drilling, 
#completion, production, or financial decision or any procedure involving any risk to the 
#safety of any drilling venture, drilling rig or its crew or any other third party.  The 
#Customer has full responsibility for all drilling, completion and production operation.  
#Halliburton makes no representations or warranties, either expressed or 
#implied, including, but not limited to, the implied warranties of merchantability or fitness 
#for a particular purpose, with respect to the services rendered.  In no event will 
#Halliburton be liable for failure to obtain any particular results or for 
#any damages, including, but not limited to, indirect, special or consequential damages, 
#resulting from the use of any information or interpretation provided by Halliburton.
#
~A           TIME           GTDEPTH  GTPQH  GTTQ  GTTN  GTET   GTTVD  
# ...
   13:53:15.560.18-Jan-2020 3754.01 3695.45 79.56 5.00  92.03 2824.94
   13:53:15.760.18-Jan-2020 3754.01 3695.45 79.56 5.00  92.23 2824.94
   13:53:15.960.18-Jan-2020 3754.01 3694.99 79.56 5.00  92.43 2824.94
   13:53:16.160.18-Jan-2020 3754.01 3694.63 79.56 5.00  92.63 2824.94
   13:53:16.360.18-Jan-2020 3754.01 3695.01 79.56 5.00  92.83 2824.94
   13:53:16.560.18-Jan-2020 3754.01 3694.74 79.56 5.00  93.03 2824.94
   13:53:16.760.18-Jan-2020 3754.01 3694.74 79.56 5.00  93.23 2824.94
   13:53:16.960.18-Jan-2020 3754.01 3694.97 79.56 5.00  93.43 2824.94
   13:53:17.160.18-Jan-2020 3754.01 3695.03 79.56 5.00  93.63 2824.94
   13:53:17.360.18-Jan-2020 3754.01 3694.97 79.56 5.00  93.83 2824.94
   13:53:17.560.18-Jan-2020 3754.01 3694.80 79.56 5.00  94.03 2824.94
   13:53:17.760.18-Jan-2020 3754.01 3694.80 79.56 5.00  94.23 2824.94
   13:53:17.960.18-Jan-2020 3754.01 3694.95 79.56 5.00  94.43 2824.94
   13:53:18.160.18-Jan-2020 3754.01 3694.89 79.56 5.00  94.63 2824.94
   13:53:18.361.18-Jan-2020 3754.01 3694.81 79.56 5.00  94.83 2824.94
   13:53:18.561.18-Jan-2020 3754.01 3694.53 79.56 5.00  95.03 2824.94
   13:53:18.761.18-Jan-2020 3754.01 3694.53 79.56 5.00  95.23 2824.94
   13:53:18.961.18-Jan-2020 3754.01 3692.41 79.56 5.00  95.43 2824.94
   13:53:19.161.18-Jan-2020 3754.01 3695.86 79.56 5.00  95.63 2824.94
   13:53:19.361.18-Jan-2020 3754.01 3694.35 79.56 5.00  95.83 2824.94
   13:53:19.561.18-Jan-2020 3754.01 3695.29 79.56 5.00  96.03 2824.94
   13:53:19.761.18-Jan-2020 3754.01 3695.29 79.56 5.00  96.23 2824.94
   13:53:19.961.18-Jan-2020 3754.01 3695.01 79.56 5.00  96.43 2824.94
   13:53:20.161.18-Jan-2020 3754.01 3694.84 79.56 5.00  96.63 2824.94
   13:53:20.361.18-Jan-2020 3754.01 3694.96 79.56 5.00  96.83 2824.94
   13:53:20.561.18-Jan-2020 3754.01 3694.83 79.56 5.00  97.03 2824.94
   13:53:20.761.18-Jan-2020 3754.01 3694.83 79.56 5.00  97.23 2824.94
   13:53:20.961.18-Jan-2020 3754.01 3696.90 79.56 5.00  97.43 2824.94
   13:53:21.161.18-Jan-2020 3754.01 3694.29 79.56 5.00  97.63 2824.94
   13:53:21.362.18-Jan-2020 3754.01 3694.45 79.56 5.00  97.83 2824.94
   13:53:21.562.18-Jan-2020 3754.01 3695.03 79.56 5.00  98.03 2824.94
   13:53:21.762.18-Jan-2020 3754.01 3695.03 79.56 5.00  98.23 2824.94
   13:53:21.962.18-Jan-2020 3754.01 3697.52 79.56 5.00  98.43 2824.94
   13:53:22.162.18-Jan-2020 3754.01 3692.20 79.56 5.00  98.63 2824.94
   13:53:22.362.18-Jan-2020 3754.01 3696.14 79.56 5.00  98.83 2824.94
   13:53:22.562.18-Jan-2020 3754.01 3694.13 79.56 5.00  99.03 2824.94
   13:53:22.762.18-Jan-2020 3754.01 3694.13 79.56 5.00  99.23 2824.94
   13:53:22.962.18-Jan-2020 3754.01 3696.39 79.56 5.00  99.43 2824.94
   13:53:23.162.18-Jan-2020 3754.01 3694.77 79.56 5.00  99.63 2824.94
   13:53:23.362.18-Jan-2020 3754.01 3693.82 79.56 5.00  99.83 2824.94
   13:53:23.562.18-Jan-2020 3754.01 3695.14 79.56 5.00 100.03 2824.94
   13:53:23.762.18-Jan-2020 3754.01 3695.14 79.56 5.00 100.23 2824.94
   13:53:23.962.18-Jan-2020 3754.01 3697.36 79.56 5.00 100.43 2824.94
   13:53:24.162.18-Jan-2020 3754.01 3693.26 79.56 5.00 100.63 2824.94
   13:53:24.363.18-Jan-2020 3754.01 3695.82 79.56 5.00 100.83 2824.94
   13:53:24.563.18-Jan-2020 3754.01 3694.46 79.56 5.00 101.03 2824.94
   13:53:24.763.18-Jan-2020 3754.01 3694.46 79.56 5.00 101.23 2824.94
   13:53:24.963.18-Jan-2020 3754.01 3694.61 79.56 5.00 101.43 2824.94
   13:53:25.163.18-Jan-2020 3754.01 3695.07 79.56 5.00 101.63 2824.94
   13:53:25.363.18-Jan-2020 3754.01 3694.76 79.56 5.00 101.83 2824.94
   13:53:25.563.18-Jan-2020 3754.01 3694.92 79.56 5.00 102.03 2824.94
   13:53:25.763.18-Jan-2020 3754.01 3694.92 79.56 5.00 102.23 2824.94
   13:53:25.963.18-Jan-2020 3754.01 3694.96 79.56 5.00 102.43 2824.94
   13:53:26.163.18-Jan-2020 3754.01 3694.94 79.56 5.00 102.63 2824.94
   13:53:26.363.18-Jan-2020 3754.01 3694.86 79.56 5.00 102.83 2824.94
   13:53:26.563.18-Jan-2020 3754.01 3694.93 79.56 5.00 103.03 2824.94
   13:53:26.763.18-Jan-2020 3754.01 3694.93 79.56 5.00 103.23 2824.94
   13:53:26.963.18-Jan-2020 3754.01 3694.93 79.56 5.00 103.43 2824.94
   13:53:27.163.18-Jan-2020 3754.01 3695.04 79.56 5.00 103.63 2824.94
   13:53:27.363.18-Jan-2020 3754.01 3694.42 79.56 5.00 103.83 2824.94
   13:53:27.564.18-Jan-2020 3754.01 3697.67 79.56 5.00 104.03 2824.94
   13:53:27.764.18-Jan-2020 3754.01 3697.67 79.56 5.00 104.23 2824.94
   13:53:27.964.18-Jan-2020 3754.01 3696.03 79.56 5.00 104.43 2824.94
   13:53:28.164.18-Jan-2020 3754.01 3694.42 79.56 5.00 104.63 2824.94
   13:53:28.364.18-Jan-2020 3754.01 3695.19 79.56 5.00 104.83 2824.94
   13:53:28.564.18-Jan-2020 3754.01 3694.66 79.56 5.00 105.03 2824.94
   13:53:28.764.18-Jan-2020 3754.01 3694.66 79.56 5.00 105.23 2824.94
   13:53:28.964.18-Jan-2020 3754.01 3694.93 79.56 5.00 105.43 2824.94
   13:53:29.164.18-Jan-2020 3754.01 3694.87 79.56 5.00 105.63 2824.94
   13:53:29.364.18-Jan-2020 3754.01 3695.01 79.56 5.00 105.83 2824.94
   13:53:29.564.18-Jan-2020 3754.01 3694.81 79.56 5.00 106.03 2824.94
   13:53:29.764.18-Jan-2020 3754.01 3694.81 79.56 5.00 106.23 2824.94
   13:53:29.964.18-Jan-2020 3754.01 3694.41 79.56 5.00 106.43 2824.94
   13:53:30.164.18-Jan-2020 3754.01 3694.74 79.56 5.00 106.63 2824.94
   13:53:30.364.18-Jan-2020 3754.01 3694.91 79.56 5.00 106.83 2824.94
   13:53:30.565.18-Jan-2020 3754.01 3693.66 79.56 5.00 107.03 2824.94
   13:53:30.765.18-Jan-2020 3754.01 3693.66 79.56 5.00 107.23 2824.94
   13:53:30.965.18-Jan-2020 3754.01 3693.30 79.56 5.00 107.43 2824.94
   13:53:31.165.18-Jan-2020 3754.01 3695.97 79.56 5.00 107.63 2824.94
   13:53:31.365.18-Jan-2020 3754.01 3694.38 79.56 5.00 107.83 2824.94
   13:53:31.565.18-Jan-2020 3754.01 3695.19 79.56 5.00 108.03 2824.94
   13:53:31.765.18-Jan-2020 3754.01 3695.19 79.56 5.00 108.23 2824.94
   13:53:31.965.18-Jan-2020 3754.01 3696.93 79.56 5.00 108.44 2824.94
   13:53:32.165.18-Jan-2020 3754.01 3692.65 79.56 5.00 108.64 2824.94
   13:53:32.365.18-Jan-2020 3754.01 3695.92 79.56 5.00 108.84 2824.94
   13:53:32.565.18-Jan-2020 3754.01 3696.30 79.56 5.00 109.04 2824.94
   13:53:32.765.18-Jan-2020 3754.01 3696.30 79.56 5.00 109.24 2824.94
   13:53:32.965.18-Jan-2020 3754.01 3694.06 79.56 5.00 109.44 2824.94
   13:53:33.165.18-Jan-2020 3754.01 3695.15 79.56 5.00 109.64 2824.94
   13:53:33.365.18-Jan-2020 3754.01 3694.58 79.56 5.00 109.84 2824.94
   13:53:33.565.18-Jan-2020 3754.01 3695.02 79.56 5.00 110.04 2824.94
   13:53:33.766.18-Jan-2020 3754.01 3695.02 79.56 5.00 110.24 2824.94
   13:53:33.966.18-Jan-2020 3754.01 3694.98 79.56 5.00 110.44 2824.94
   13:53:34.166.18-Jan-2020 3754.01 3694.82 79.56 5.00 110.64 2824.94
   13:53:34.366.18-Jan-2020 3754.01 3694.98 79.56 5.00 110.84 2824.94
   13:53:34.566.18-Jan-2020 3754.01 3695.16 79.56 5.00 111.04 2824.94
   13:53:34.766.18-Jan-2020 3754.01 3695.16 79.56 5.00 111.24 2824.94
   13:53:34.966.18-Jan-2020 3754.01 3694.90 79.56 5.00 111.44 2824.94
   13:53:35.166.18-Jan-2020 3754.01 3695.01 79.56 5.00 111.64 2824.94
   13:53:35.366.18-Jan-2020 3754.01 3695.16 79.56 5.00 111.84 2824.94
   13:53:35.566.18-Jan-2020 3754.01 3694.94 79.56 5.00 112.04 2824.94
   13:53:35.766.18-Jan-2020 3754.01 3694.94 79.56 5.00 112.24 2824.94
   13:53:35.966.18-Jan-2020 3754.01 3694.01 79.56 5.00 112.44 2824.94
   13:53:36.166.18-Jan-2020 3754.01 3697.73 79.56 5.00 112.64 2824.94
   13:53:36.366.18-Jan-2020 3754.01 3693.80 79.56 5.00 112.84 2824.94
   13:53:36.566.18-Jan-2020 3754.01 3695.46 79.56 5.00 113.04 2824.94
   13:53:36.767.18-Jan-2020 3754.01 3695.46 79.56 5.00 113.24 2824.94
   13:53:36.967.18-Jan-2020 3754.01 3694.95 79.56 5.00 113.44 2824.94
   13:53:37.167.18-Jan-2020 3754.01 3694.84 79.55 5.00 113.64 2824.94
   13:53:37.367.18-Jan-2020 3754.01 3695.01 79.55 5.00 113.84 2824.94
   13:53:37.567.18-Jan-2020 3754.01 3694.86 79.55 5.00 114.04 2824.94
   13:53:37.767.18-Jan-2020 3754.01 3694.86 79.55 5.00 114.24 2824.94
   13:53:37.967.18-Jan-2020 3754.01 3695.06 79.55 5.00 114.44 2824.94
   13:53:38.167.18-Jan-2020 3754.01 3694.90 79.55 5.00 114.64 2824.94
   13:53:38.367.18-Jan-2020 3754.01 3695.35 79.55 5.00 114.84 2824.94
