~Version Information
 VERS.                  2.0:   CWLS log ASCII Standard -VERSION 2.0
 WRAP.                   NO:   One line per depth step
~Well Information Block
#MNEM.UNIT     VALUE/NAME     DESCRIPTION
#---------     -----------    ---------------------------
 STRT.S             09:16:51 18-Jan-20: START TIME 09:16:51 18-Jan-20
 STOP.S             09:25:06 18-Jan-20: STOP TIME  09:25:06 18-Jan-20
 STEP.S                   0.00: STEP TIME
 NULL.                 -999.25: NULL VALUE
 DFWT.                        :  DIST FWL TEXT
 DFST.                        :  DIST FSL TEXT
 DMF .             Drill Floor:  DRILL MEAS FROM
 STIM.      09.30.00 26-Dec-19:  START TIME
 DATE.      08.00.00 20-Jan-20:  END TIME
 SPUD.               23-Nov-19:  SPUD DATE
 NREF.                    Grid:  NORTH REFERENCE
 HPTY.       Minimum Curvature:  HOLE POS TYPE
 DMOD.             Drill Model:  DRILL MOD DESC
 SVYD.                  Survey:  SURVEY DESC
 ILTD.               Lithology:  INTERP LTH DESC
 FTOP.          Formation Tops:  FORM TOPS DESC
 SON .        AZ-XX-0906192647:  JOB NUMBER
 WTYP.                Deviated:  WELL TYPE
 COMP.     BP Exploration (Caspian Sea) Ltd:  COMPANY
 BASE.              Azerbaijan:  LOGGING EQUIPMENT BASE LOCATION
 REGN.                 Eurasia:  REGION
 FLD .                     ACG:  FIELD NAME
 SRVC.              KCA Deutag:  CONTRACTOR
 MWDS.                    Baku:  MWD SHOP
 WELL.     A10 (Slot 20) - SCP:  WELL NAME
 JOBN.        AZ-XX-0906192647:  JOB TICKET NUMB
 RIG .                 Chirag1:  RIG NAME
 DCON.     Halliburton Sperry Drilling:  DIRECTNL CONTR
 UNIT.                     N/A:  LOGGING EQUIPMENT ID
 PDAT.          Mean Sea Level:  PERMANENT DATUM
 MDS .        Operator Entered:  MAG DATA SOURCE
 CTRY.              Azerbaijan:  COUNTRY NAME
 UWI .            /AZE00000090:  UNIQUE WELL IDENTIFIER
 API .            /AZE00000090:  API NUMBER
 CNTY.                        :  COUNTY
 PROV.                        :  PROVINCE
 STAT.                        :  STATE
 LOC .                        :  LOCATION
 LMF .             Drill Floor:  LOG MEASURED FROM
 TVDS.m                  36.60:  TVDSS CORRECTN
 LATI.deg                40.08:  LATITUDE
 LONG.deg                51.24:  LONGITUDE
 WHNS.m                  -7.94:  WELL HEAD N/S
 WHEW.m                   1.56:  WELL HEAD E/W
 UTMX.m              520429.26:  UTM X
 UTMY.m             4438973.87:  UTM Y
 DFWL.m                   0.00:  DISTANCE FWL
 DFSL.m                   0.00:  DISTANCE FSL
 SDEP.m                1455.00:  START DEPTH
 TDD .m                3878.01:  TOTAL DEPTH (DRILLER)
 VSDR.deg               112.75:  VERT SEC DIRECT
 GVFD.g                   1.00:  GRAVITY FIELD
 MFLD.nT              50256.00:  MAGNETIC FIELD
 MDIP.deg                59.52:  MAGNETIC DIP
 MDEC.deg                 6.43:  MAGNETIC DECL
 GRDC.deg                 0.16:  GRID CORRECTION
 AZTC.deg                 6.27:  AZM TOTAL CORR
 EPD .m                   0.00:  ELEVATION
 EGL .m                   0.00:  GROUND ELEVATION
 WDMS.m                 121.00:  WD ELEV
 APD .m                  36.60:  DEPTH ABOVE PD
 AGAP.m                  36.60:  AIR GAP
 VSEW.m                   1.56:  VERT SEC E/W
 VSNS.m                  -7.94:  VERT SEC N/S
 DEP .m                1140.01:  DEPTH
 EKB .m                  36.60:  KB ELEVATION
 EDF .m                  36.60:  DF ELEVATION
 TDL .m                1293.00:  TOTAL DEPTH (LOGGER)
 VSC .                       0:  VS TO CLOSURE
 MAGU.                 1849164:  MAGUTM CHECKSUM
~Parameter Information Block
#MNEM.UNIT       Value        Description
#---------     -----------    ---------------------------
 AV  .mps                 2.40:  Ann Velocity 
 AVMX.mps                 2.55:  Max Ann Veloc 
 AZIF.deg               134.35:  Azm, Final 
 BHAT.        Rotary Steerable:  BHA Type 
 BREV.rev               847.00:  Rev Bit Total 
 BROT.°/30m              -2.51:  Build Rotating 
 BS  .in                  8.50:  Bit Size 
 BSZ .in                  8.50:  Bit Size 
 BTPL.psig              700.00:  Bit Press Loss 
 CABU.                     Yes:  Customer Abuse 
 CGEO.          Ilgar Gurbanov:  Customer Geo 
 COMM.                     Áo:  Run Comments 1 
 TCS .hr                140.40:  Time Ciculation Ended 
 CV  .mps                 2.27:  Crit Velocity 
 CVMX.mps                 2.45:  Max Crit Veloc 
 DD1 .         Intigam Rahimov:  Direct Drillr 1 
 DD2 .         Rasim Ibrahimov:  Direct Drillr 2 
 DDSV.                 iCruise:  DD Service 
 DEFF.%                  99.00:  % Det Eff 
 DLRX.°/30m               3.28:  Dogleg Rot Max 
 DLSO.°/30m               0.00:  Dogleg Oriented 
 DLSX.°/30m               0.00:  Dogleg Str Max 
 DRET.      23.30.00 18-Jan-20:  Drill End Time 
 DRST.      01.45.00 11-Jan-20:  Drill Start Tim 
 DTIM.hr                 94.00:  Time Drilling 
 EDEP.m                3878.01:  End Depth 
 ENG1.       Dauren Baktybayev:  Engineer 1 
 ENG2.      Natik Hasanaghayev:  Engineer 2 
 ENG3.          Rustam Safarov:  Engineer 3 
 ETIM.      08.00.00 20-Jan-20:  End Time 
 FLOI.gpm               532.00:  Flow In 
 FLON.gpm               500.00:  Flow In Min 
 FLOS.cptm                0.00:  Fluid Loss 
 FLOX.gpm               540.00:  Flow In Max 
 FTRO.       Formation Presure:  FTWD Run Obj 
 HPRE.                     Yes:  High Pressure 
 HTEM.                      No:  High Temp 
 HYDO.m                   1.80:  Hydro Offset 
 IFIN.deg                39.86:  Inc, Final 
 IMAX.deg                59.73:  Inc Max 
 IMIN.deg                39.25:  Inc Min 
 IMND.m                3816.77:  Inc Min Depth 
 IMXD.m                2596.33:  Inc Max Depth 
 JARR.                      No:  Jarring 
 LETM.      23.30.00 18-Jan-20:  Log End Time 
 LOST.hr                     0:  Lost Rig Time 
 LSTM.      01.45.00 11-Jan-20:  Log Start Time 
 MDCL.ppm             41500.00:  Mud Chlorides 
 MDES.     Inversion Oil/Synthetic:  Mud Desc 
 DFD .sg                  1.48:  Mud Density 
 MDMN.sg                  1.48:  Dens Mud Min 
 MDMX.sg                  1.48:  Dens Mud Max 
 MOIL.                      54:  Run Mud Oil % 
 MOWR.                   72:28:  Run Mud OWR 
 MSND.                       0:  Run Mud Sand % 
 MSOL.                      23:  Run Mud Solids% 
 DFV .spqt               86.00:  Mud Viscosity 
 MWOD.in                  6.75:  MWD Tool OD 
 MWSI.                      No:  Serv Intrp, MWD 
 OTIM.hr                223.40:  Time Operating 
 PCON.           Look Like New:  Pad Condition 
 PMAX.psia            32446.79:  Press Op, Max 
 PV  .cP                 49.00:  Mud PV 
 RUN .                     200:  Run Number 
 ROPA.m/hr               12.48:  ROP Avg 
 ROPN.m/hr                8.00:  ROP Min 
 ROPX.m/hr               27.00:  ROP Max 
 RPMA.rpm               121.00:  RPM Surface Avg 
 RPMN.rpm                60.00:  RPM Surface Min 
 RPMX.rpm               140.00:  RPM Surface Max 
 RRUN.                    L202:  Rig Run Number 
 RTIM.hr                  7.25:  Time Reaming 
 SAZI.deg               123.49:  Azm, Start 
 SDEP.m                2585.01:  Start Depth 
 SIDD.                      No:  Serv Intrp, DD 
 SINC.deg                59.93:  Inc, Start 
 SPPA.psig             3539.00:  SPP Avg 
 SPPN.psig             3050.00:  SPP Min 
 SPPX.psig             3950.00:  SPP Max 
 STIM.      19.00.00 10-Jan-20:  Start Time 
 SVCS.                 DD, MWD:  Services 
 SVER.                    9.20:  Sperry Version 
 TDAT.m                1293.00:  Tot Depth Attmp 
 TDDF.                      No:  Trip for DD 
 TDLG.m                1293.00:  Tot Depth Loggd 
 TFF .                      No:  Trip for Fail 
 TQAA.f-kp               16.00:  Torque Abs Avg 
 TQAN.f-kp               11.00:  Torque Abs Min 
 TQAX.f-kp               18.00:  Torque Abs Max 
 TRRT.°/30m               1.25:  Turn Rotating 
 MRT .                  EWR-M5:  Maximum Recorded Temperature 
 TTMX.degC               84.00:  Max Tool Temp 
 VS01.          AZ90514619R5C6:  Virtual Str1 SN 
 VS02.        AZ90552592N2L2C6:  Virtual Str2 SN 
 VS03.        AZ90571337Z1W1C6:  Virtual Str3 SN 
 VS04.         AZ90513690K23C6:  Virtual Str4 SN 
 VS05.           AZ90594857F11:  Virtual Str5 SN 
 VS06.                13102166:  Virtual Str6 SN 
 WBMN.klb                 7.00:  WOB Min 
 WITN.            Peter Wilson:  Customer Rep 
 WOBA.klb                 9.95:  WOB Avg 
 WOBX.klb                10.00:  WOB Max 
 YP  .lhf2               36.00:  Yield Point 
~Curve Information Block
#MNEM.UNIT                 API CODE     Curve Description
#---------               -----------    ---------------------------
 TIME.HHMMSS            00 000 000 000:  GT Time & Date
 GTDEPTH.m              00 000 000 000:  GT Depth
 GTPQH.psia             00 000 000 000:  GT HR Quartz Pressure
 GTTQ.degC              00 000 000 000:  GT Quartz Temperature
 GTTN.NONE              00 000 000 000:  GT Test Number
 GTET.sec               00 000 000 000:  GT Elapsed Test Time
 GTTVD.m                00 000 000 000:  GT True Vertical Depth
#Other Information
#
#WARRANTY: Halliburton will use its best efforts to furnish customers with 
#accurate information and interpretations that are part of, and incident to, the services 
#provided.  However, Halliburton cannot and does not warrant the accuracy 
#or correctness of such information and interpretations.  Under no circumstances should any 
#such information or interpretation be relied upon as the sole basis for any drilling, 
#completion, production, or financial decision or any procedure involving any risk to the 
#safety of any drilling venture, drilling rig or its crew or any other third party.  The 
#Customer has full responsibility for all drilling, completion and production operation.  
#Halliburton makes no representations or warranties, either expressed or 
#implied, including, but not limited to, the implied warranties of merchantability or fitness 
#for a particular purpose, with respect to the services rendered.  In no event will 
#Halliburton be liable for failure to obtain any particular results or for 
#any damages, including, but not limited to, indirect, special or consequential damages, 
#resulting from the use of any information or interpretation provided by Halliburton.
#
~A           TIME           GTDEPTH  GTPQH  GTTQ  GTTN  GTET   GTTVD  
# ...
   09:19:32.826.18-Jan-2020 3746.01 3686.32 81.39 3.00 161.03 2818.83
   09:19:33.026.18-Jan-2020 3746.01 3686.32 81.39 3.00 161.23 2818.83
   09:19:33.226.18-Jan-2020 3746.01 3686.67 81.39 3.00 161.43 2818.83
   09:19:33.426.18-Jan-2020 3746.01 3686.23 81.39 3.00 161.63 2818.83
   09:19:33.626.18-Jan-2020 3746.01 3686.61 81.39 3.00 161.83 2818.83
   09:19:33.826.18-Jan-2020 3746.01 3686.35 81.39 3.00 162.03 2818.83
   09:19:34.026.18-Jan-2020 3746.01 3686.35 81.39 3.00 162.23 2818.83
   09:19:34.226.18-Jan-2020 3746.01 3686.09 81.39 3.00 162.43 2818.83
   09:19:34.426.18-Jan-2020 3746.01 3686.49 81.39 3.00 162.63 2818.83
   09:19:34.626.18-Jan-2020 3746.01 3686.38 81.38 3.00 162.83 2818.83
   09:19:34.826.18-Jan-2020 3746.01 3686.78 81.38 3.00 163.03 2818.83
   09:19:35.026.18-Jan-2020 3746.01 3686.78 81.38 3.00 163.23 2818.83
   09:19:35.226.18-Jan-2020 3746.01 3686.38 81.38 3.00 163.43 2818.83
   09:19:35.427.18-Jan-2020 3746.01 3686.18 81.38 3.00 163.63 2818.83
   09:19:35.627.18-Jan-2020 3746.01 3686.44 81.38 3.00 163.83 2818.83
   09:19:35.827.18-Jan-2020 3746.01 3686.47 81.38 3.00 164.03 2818.83
   09:19:36.027.18-Jan-2020 3746.01 3686.47 81.38 3.00 164.23 2818.83
   09:19:36.227.18-Jan-2020 3746.01 3686.33 81.38 3.00 164.43 2818.83
   09:19:36.427.18-Jan-2020 3746.01 3686.45 81.38 3.00 164.63 2818.83
   09:19:36.627.18-Jan-2020 3746.01 3686.46 81.38 3.00 164.83 2818.83
   09:19:36.827.18-Jan-2020 3746.01 3686.15 81.38 3.00 165.03 2818.83
   09:19:37.027.18-Jan-2020 3746.01 3686.15 81.38 3.00 165.23 2818.83
   09:19:37.227.18-Jan-2020 3746.01 3686.18 81.38 3.00 165.43 2818.83
   09:19:37.427.18-Jan-2020 3746.01 3686.47 81.38 3.00 165.63 2818.83
   09:19:37.627.18-Jan-2020 3746.01 3686.39 81.38 3.00 165.83 2818.83
   09:19:37.827.18-Jan-2020 3746.01 3686.36 81.38 3.00 166.03 2818.83
   09:19:38.027.18-Jan-2020 3746.01 3686.36 81.38 3.00 166.23 2818.83
   09:19:38.227.18-Jan-2020 3746.01 3686.28 81.38 3.00 166.43 2818.83
   09:19:38.427.18-Jan-2020 3746.01 3686.36 81.38 3.00 166.63 2818.83
   09:19:38.627.18-Jan-2020 3746.01 3686.35 81.38 3.00 166.83 2818.83
   09:19:38.827.18-Jan-2020 3746.01 3686.44 81.38 3.00 167.03 2818.83
   09:19:39.027.18-Jan-2020 3746.01 3686.44 81.38 3.00 167.23 2818.83
   09:19:39.227.18-Jan-2020 3746.01 3686.43 81.38 3.00 167.43 2818.83
   09:19:39.427.18-Jan-2020 3746.01 3686.46 81.38 3.00 167.63 2818.83
   09:19:39.627.18-Jan-2020 3746.01 3686.50 81.38 3.00 167.83 2818.83
   09:19:39.827.18-Jan-2020 3746.01 3686.25 81.38 3.00 168.03 2818.83
   09:19:40.027.18-Jan-2020 3746.01 3686.25 81.38 3.00 168.23 2818.83
   09:19:40.227.18-Jan-2020 3746.01 3686.43 81.37 3.00 168.43 2818.83
   09:19:40.427.18-Jan-2020 3746.01 3686.22 81.37 3.00 168.63 2818.83
   09:19:40.627.18-Jan-2020 3746.01 3686.42 81.37 3.00 168.83 2818.83
   09:19:40.827.18-Jan-2020 3746.01 3686.31 81.37 3.00 169.03 2818.83
   09:19:41.027.18-Jan-2020 3746.01 3686.31 81.37 3.00 169.23 2818.83
   09:19:41.228.18-Jan-2020 3746.01 3686.27 81.37 3.00 169.43 2818.83
   09:19:41.428.18-Jan-2020 3746.01 3686.40 81.37 3.00 169.63 2818.83
   09:19:41.628.18-Jan-2020 3746.01 3686.37 81.37 3.00 169.83 2818.83
   09:19:41.828.18-Jan-2020 3746.01 3686.65 81.37 3.00 170.03 2818.83
   09:19:42.028.18-Jan-2020 3746.01 3686.65 81.37 3.00 170.23 2818.83
   09:19:42.228.18-Jan-2020 3746.01 3686.60 81.37 3.00 170.43 2818.83
   09:19:42.428.18-Jan-2020 3746.01 3686.21 81.37 3.00 170.63 2818.83
   09:19:42.628.18-Jan-2020 3746.01 3686.26 81.37 3.00 170.83 2818.83
   09:19:42.828.18-Jan-2020 3746.01 3686.40 81.37 3.00 171.03 2818.83
   09:19:43.028.18-Jan-2020 3746.01 3686.40 81.37 3.00 171.23 2818.83
   09:19:43.228.18-Jan-2020 3746.01 3686.30 81.37 3.00 171.43 2818.83
   09:19:43.428.18-Jan-2020 3746.01 3686.27 81.37 3.00 171.63 2818.83
   09:19:43.628.18-Jan-2020 3746.01 3686.39 81.37 3.00 171.83 2818.83
   09:19:43.828.18-Jan-2020 3746.01 3686.41 81.37 3.00 172.03 2818.83
   09:19:44.028.18-Jan-2020 3746.01 3686.41 81.37 3.00 172.23 2818.83
   09:19:44.228.18-Jan-2020 3746.01 3686.31 81.37 3.00 172.43 2818.83
   09:19:44.428.18-Jan-2020 3746.01 3686.47 81.37 3.00 172.63 2818.83
   09:19:44.628.18-Jan-2020 3746.01 3686.29 81.37 3.00 172.83 2818.83
   09:19:44.828.18-Jan-2020 3746.01 3686.60 81.37 3.00 173.03 2818.83
   09:19:45.028.18-Jan-2020 3746.01 3686.60 81.37 3.00 173.23 2818.83
   09:19:45.228.18-Jan-2020 3746.01 3686.31 81.36 3.00 173.43 2818.83
   09:19:45.428.18-Jan-2020 3746.01 3686.10 81.36 3.00 173.63 2818.83
   09:19:45.628.18-Jan-2020 3746.01 3646.36 81.36 3.00 173.83 2818.83
   09:19:45.828.18-Jan-2020 3746.01 3622.38 81.36 3.00 174.03 2818.83
   09:19:46.028.18-Jan-2020 3746.01 3622.38 81.36 3.00 174.23 2818.83
   09:19:46.228.18-Jan-2020 3746.01 3619.07 81.36 3.00 174.43 2818.83
   09:19:46.428.18-Jan-2020 3746.01 3620.85 81.36 3.00 174.63 2818.83
   09:19:46.628.18-Jan-2020 3746.01 3627.24 81.36 3.00 174.83 2818.83
   09:19:46.828.18-Jan-2020 3746.01 3622.57 81.36 3.00 175.03 2818.83
   09:19:47.028.18-Jan-2020 3746.01 3622.57 81.36 3.00 175.23 2818.83
   09:19:47.229.18-Jan-2020 3746.01 3622.35 81.36 3.00 175.43 2818.83
   09:19:47.429.18-Jan-2020 3746.01 3620.44 81.36 3.00 175.63 2818.83
   09:19:47.629.18-Jan-2020 3746.01 3620.35 81.36 3.00 175.83 2818.83
   09:19:47.829.18-Jan-2020 3746.01 3621.52 81.36 3.00 176.03 2818.83
   09:19:48.029.18-Jan-2020 3746.01 3621.52 81.36 3.00 176.23 2818.83
   09:19:48.229.18-Jan-2020 3746.01 3622.29 81.36 3.00 176.43 2818.83
   09:19:48.429.18-Jan-2020 3746.01 3619.75 81.36 3.00 176.63 2818.83
   09:19:48.629.18-Jan-2020 3746.01 3620.29 81.36 3.00 176.83 2818.83
   09:19:48.829.18-Jan-2020 3746.01 3621.04 81.36 3.00 177.03 2818.83
   09:19:49.029.18-Jan-2020 3746.01 3621.04 81.36 3.00 177.23 2818.83
   09:19:49.229.18-Jan-2020 3746.01 3620.61 81.36 3.00 177.43 2818.83
   09:19:49.429.18-Jan-2020 3746.01 3620.82 81.36 3.00 177.63 2818.83
   09:19:49.629.18-Jan-2020 3746.01 3620.11 81.36 3.00 177.83 2818.83
   09:19:49.829.18-Jan-2020 3746.01 3619.87 81.36 3.00 178.03 2818.83
   09:19:50.029.18-Jan-2020 3746.01 3619.87 81.36 3.00 178.23 2818.83
   09:19:50.229.18-Jan-2020 3746.01 3619.10 81.35 3.00 178.43 2818.83
   09:19:50.429.18-Jan-2020 3746.01 3621.19 81.35 3.00 178.63 2818.83
   09:19:50.629.18-Jan-2020 3746.01 3620.50 81.35 3.00 178.83 2818.83
   09:19:50.829.18-Jan-2020 3746.01 3619.46 81.35 3.00 179.03 2818.83
   09:19:51.029.18-Jan-2020 3746.01 3619.46 81.35 3.00 179.23 2818.83
   09:19:51.229.18-Jan-2020 3746.01 3622.54 81.35 3.00 179.43 2818.83
   09:19:51.429.18-Jan-2020 3746.01 3622.65 81.35 3.00 179.63 2818.83
   09:19:51.629.18-Jan-2020 3746.01 3619.29 81.35 3.00 179.83 2818.83
   09:19:51.829.18-Jan-2020 3746.01 3621.65 81.35 3.00 180.03 2818.83
   09:19:52.029.18-Jan-2020 3746.01 3621.65 81.35 3.00 180.23 2818.83
   09:19:52.229.18-Jan-2020 3746.01 3633.83 81.35 3.00 180.43 2818.83
   09:19:52.429.18-Jan-2020 3746.01 3622.72 81.35 3.00 180.63 2818.83
   09:19:52.629.18-Jan-2020 3746.01 3623.93 81.35 3.00 180.83 2818.83
   09:19:52.829.18-Jan-2020 3746.01 3622.10 81.35 3.00 181.03 2818.83
   09:19:53.030.18-Jan-2020 3746.01 3622.10 81.35 3.00 181.23 2818.83
   09:19:53.230.18-Jan-2020 3746.01 3622.21 81.35 3.00 181.43 2818.83
   09:19:53.430.18-Jan-2020 3746.01 3622.20 81.35 3.00 181.63 2818.83
   09:19:53.630.18-Jan-2020 3746.01 3624.75 81.35 3.00 181.83 2818.83
   09:19:53.830.18-Jan-2020 3746.01 3625.77 81.35 3.00 182.03 2818.83
   09:19:54.030.18-Jan-2020 3746.01 3625.77 81.35 3.00 182.23 2818.83
   09:19:54.230.18-Jan-2020 3746.01 3632.53 81.35 3.00 182.43 2818.83
   09:19:54.430.18-Jan-2020 3746.01 3630.81 81.35 3.00 182.63 2818.83
   09:19:54.630.18-Jan-2020 3746.01 3627.54 81.35 3.00 182.83 2818.83
   09:19:54.830.18-Jan-2020 3746.01 3623.24 81.35 3.00 183.03 2818.83
   09:19:55.030.18-Jan-2020 3746.01 3623.24 81.35 3.00 183.23 2818.83
   09:19:55.230.18-Jan-2020 3746.01 3623.54 81.34 3.00 183.43 2818.83
   09:19:55.430.18-Jan-2020 3746.01 3622.95 81.34 3.00 183.63 2818.83
   09:19:55.630.18-Jan-2020 3746.01 3645.32 81.34 3.00 183.83 2818.83
