~Version Information
 VERS.                  2.0:   CWLS log ASCII Standard -VERSION 2.0
 WRAP.                   NO:   One line per depth step
~Well Information Block
#MNEM.UNIT     VALUE/NAME     DESCRIPTION
#---------     -----------    ---------------------------
 STRT.S             13:51:43 18-Jan-20: START TIME 13:51:43 18-Jan-20
 STOP.S             13:59:59 18-Jan-20: STOP TIME  13:59:59 18-Jan-20
 STEP.S                   0.00: STEP TIME
 NULL.                 -999.25: NULL VALUE
 DFWT.                        :  DIST FWL TEXT
 DFST.                        :  DIST FSL TEXT
 DMF .             Drill Floor:  DRILL MEAS FROM
 STIM.      09.30.00 26-Dec-19:  START TIME
 DATE.      08.00.00 20-Jan-20:  END TIME
 SPUD.               23-Nov-19:  SPUD DATE
 NREF.                    Grid:  NORTH REFERENCE
 HPTY.       Minimum Curvature:  HOLE POS TYPE
 DMOD.             Drill Model:  DRILL MOD DESC
 SVYD.                  Survey:  SURVEY DESC
 ILTD.               Lithology:  INTERP LTH DESC
 FTOP.          Formation Tops:  FORM TOPS DESC
 SON .        AZ-XX-0906192647:  JOB NUMBER
 WTYP.                Deviated:  WELL TYPE
 COMP.     BP Exploration (Caspian Sea) Ltd:  COMPANY
 BASE.              Azerbaijan:  LOGGING EQUIPMENT BASE LOCATION
 REGN.                 Eurasia:  REGION
 FLD .                     ACG:  FIELD NAME
 SRVC.              KCA Deutag:  CONTRACTOR
 MWDS.                    Baku:  MWD SHOP
 WELL.     A10 (Slot 20) - SCP:  WELL NAME
 JOBN.        AZ-XX-0906192647:  JOB TICKET NUMB
 RIG .                 Chirag1:  RIG NAME
 DCON.     Halliburton Sperry Drilling:  DIRECTNL CONTR
 UNIT.                     N/A:  LOGGING EQUIPMENT ID
 PDAT.          Mean Sea Level:  PERMANENT DATUM
 MDS .        Operator Entered:  MAG DATA SOURCE
 CTRY.              Azerbaijan:  COUNTRY NAME
 UWI .            /AZE00000090:  UNIQUE WELL IDENTIFIER
 API .            /AZE00000090:  API NUMBER
 CNTY.                        :  COUNTY
 PROV.                        :  PROVINCE
 STAT.                        :  STATE
 LOC .                        :  LOCATION
 LMF .             Drill Floor:  LOG MEASURED FROM
 TVDS.m                  36.60:  TVDSS CORRECTN
 LATI.deg                40.08:  LATITUDE
 LONG.deg                51.24:  LONGITUDE
 WHNS.m                  -7.94:  WELL HEAD N/S
 WHEW.m                   1.56:  WELL HEAD E/W
 UTMX.m              520429.26:  UTM X
 UTMY.m             4438973.87:  UTM Y
 DFWL.m                   0.00:  DISTANCE FWL
 DFSL.m                   0.00:  DISTANCE FSL
 SDEP.m                1455.00:  START DEPTH
 TDD .m                3878.01:  TOTAL DEPTH (DRILLER)
 VSDR.deg               112.75:  VERT SEC DIRECT
 GVFD.g                   1.00:  GRAVITY FIELD
 MFLD.nT              50256.00:  MAGNETIC FIELD
 MDIP.deg                59.52:  MAGNETIC DIP
 MDEC.deg                 6.43:  MAGNETIC DECL
 GRDC.deg                 0.16:  GRID CORRECTION
 AZTC.deg                 6.27:  AZM TOTAL CORR
 EPD .m                   0.00:  ELEVATION
 EGL .m                   0.00:  GROUND ELEVATION
 WDMS.m                 121.00:  WD ELEV
 APD .m                  36.60:  DEPTH ABOVE PD
 AGAP.m                  36.60:  AIR GAP
 VSEW.m                   1.56:  VERT SEC E/W
 VSNS.m                  -7.94:  VERT SEC N/S
 DEP .m                1140.01:  DEPTH
 EKB .m                  36.60:  KB ELEVATION
 EDF .m                  36.60:  DF ELEVATION
 TDL .m                1293.00:  TOTAL DEPTH (LOGGER)
 VSC .                       0:  VS TO CLOSURE
 MAGU.                 1849164:  MAGUTM CHECKSUM
~Parameter Information Block
#MNEM.UNIT       Value        Description
#---------     -----------    ---------------------------
 AV  .mps                 2.40:  Ann Velocity 
 AVMX.mps                 2.55:  Max Ann Veloc 
 AZIF.deg               134.35:  Azm, Final 
 BHAT.        Rotary Steerable:  BHA Type 
 BREV.rev               847.00:  Rev Bit Total 
 BROT.°/30m              -2.51:  Build Rotating 
 BS  .in                  8.50:  Bit Size 
 BSZ .in                  8.50:  Bit Size 
 BTPL.psig              700.00:  Bit Press Loss 
 CABU.                     Yes:  Customer Abuse 
 CGEO.          Ilgar Gurbanov:  Customer Geo 
 COMM.                     üÓ~:  Run Comments 1 
 TCS .hr                140.40:  Time Ciculation Ended 
 CV  .mps                 2.27:  Crit Velocity 
 CVMX.mps                 2.45:  Max Crit Veloc 
 DD1 .         Intigam Rahimov:  Direct Drillr 1 
 DD2 .         Rasim Ibrahimov:  Direct Drillr 2 
 DDSV.                 iCruise:  DD Service 
 DEFF.%                  99.00:  % Det Eff 
 DLRX.°/30m               3.28:  Dogleg Rot Max 
 DLSO.°/30m               0.00:  Dogleg Oriented 
 DLSX.°/30m               0.00:  Dogleg Str Max 
 DRET.      23.30.00 18-Jan-20:  Drill End Time 
 DRST.      01.45.00 11-Jan-20:  Drill Start Tim 
 DTIM.hr                 94.00:  Time Drilling 
 EDEP.m                3878.01:  End Depth 
 ENG1.       Dauren Baktybayev:  Engineer 1 
 ENG2.      Natik Hasanaghayev:  Engineer 2 
 ENG3.          Rustam Safarov:  Engineer 3 
 ETIM.      08.00.00 20-Jan-20:  End Time 
 FLOI.gpm               532.00:  Flow In 
 FLON.gpm               500.00:  Flow In Min 
 FLOS.cptm                0.00:  Fluid Loss 
 FLOX.gpm               540.00:  Flow In Max 
 FTRO.       Formation Presure:  FTWD Run Obj 
 HPRE.                     Yes:  High Pressure 
 HTEM.                      No:  High Temp 
 HYDO.m                   1.80:  Hydro Offset 
 IFIN.deg                39.86:  Inc, Final 
 IMAX.deg                59.73:  Inc Max 
 IMIN.deg                39.25:  Inc Min 
 IMND.m                3816.77:  Inc Min Depth 
 IMXD.m                2596.33:  Inc Max Depth 
 JARR.                      No:  Jarring 
 LETM.      23.30.00 18-Jan-20:  Log End Time 
 LOST.hr                     0:  Lost Rig Time 
 LSTM.      01.45.00 11-Jan-20:  Log Start Time 
 MDCL.ppm             41500.00:  Mud Chlorides 
 MDES.     Inversion Oil/Synthetic:  Mud Desc 
 DFD .sg                  1.48:  Mud Density 
 MDMN.sg                  1.48:  Dens Mud Min 
 MDMX.sg                  1.48:  Dens Mud Max 
 MOIL.                      54:  Run Mud Oil % 
 MOWR.                   72:28:  Run Mud OWR 
 MSND.                       0:  Run Mud Sand % 
 MSOL.                      23:  Run Mud Solids% 
 DFV .spqt               86.00:  Mud Viscosity 
 MWOD.in                  6.75:  MWD Tool OD 
 MWSI.                      No:  Serv Intrp, MWD 
 OTIM.hr                223.40:  Time Operating 
 PCON.           Look Like New:  Pad Condition 
 PMAX.psia            32446.79:  Press Op, Max 
 PV  .cP                 49.00:  Mud PV 
 RUN .                     200:  Run Number 
 ROPA.m/hr               12.48:  ROP Avg 
 ROPN.m/hr                8.00:  ROP Min 
 ROPX.m/hr               27.00:  ROP Max 
 RPMA.rpm               121.00:  RPM Surface Avg 
 RPMN.rpm                60.00:  RPM Surface Min 
 RPMX.rpm               140.00:  RPM Surface Max 
 RRUN.                    L202:  Rig Run Number 
 RTIM.hr                  7.25:  Time Reaming 
 SAZI.deg               123.49:  Azm, Start 
 SDEP.m                2585.01:  Start Depth 
 SIDD.                      No:  Serv Intrp, DD 
 SINC.deg                59.93:  Inc, Start 
 SPPA.psig             3539.00:  SPP Avg 
 SPPN.psig             3050.00:  SPP Min 
 SPPX.psig             3950.00:  SPP Max 
 STIM.      19.00.00 10-Jan-20:  Start Time 
 SVCS.                 DD, MWD:  Services 
 SVER.                    9.20:  Sperry Version 
 TDAT.m                1293.00:  Tot Depth Attmp 
 TDDF.                      No:  Trip for DD 
 TDLG.m                1293.00:  Tot Depth Loggd 
 TFF .                      No:  Trip for Fail 
 TQAA.f-kp               16.00:  Torque Abs Avg 
 TQAN.f-kp               11.00:  Torque Abs Min 
 TQAX.f-kp               18.00:  Torque Abs Max 
 TRRT.°/30m               1.25:  Turn Rotating 
 MRT .                  EWR-M5:  Maximum Recorded Temperature 
 TTMX.degC               84.00:  Max Tool Temp 
 VS01.          AZ90514619R5C6:  Virtual Str1 SN 
 VS02.        AZ90552592N2L2C6:  Virtual Str2 SN 
 VS03.        AZ90571337Z1W1C6:  Virtual Str3 SN 
 VS04.         AZ90513690K23C6:  Virtual Str4 SN 
 VS05.           AZ90594857F11:  Virtual Str5 SN 
 VS06.                13102166:  Virtual Str6 SN 
 WBMN.klb                 7.00:  WOB Min 
 WITN.            Peter Wilson:  Customer Rep 
 WOBA.klb                 9.95:  WOB Avg 
 WOBX.klb                10.00:  WOB Max 
 YP  .lhf2               36.00:  Yield Point 
~Curve Information Block
#MNEM.UNIT                 API CODE     Curve Description
#---------               -----------    ---------------------------
 TIME.HHMMSS            00 000 000 000:  GT Time & Date
 GTDEPTH.m              00 000 000 000:  GT Depth
 GTPQH.psia             00 000 000 000:  GT HR Quartz Pressure
 GTTQ.degC              00 000 000 000:  GT Quartz Temperature
 GTTN.NONE              00 000 000 000:  GT Test Number
 GTET.sec               00 000 000 000:  GT Elapsed Test Time
 GTTVD.m                00 000 000 000:  GT True Vertical Depth
#Other Information
#
#WARRANTY: Halliburton will use its best efforts to furnish customers with 
#accurate information and interpretations that are part of, and incident to, the services 
#provided.  However, Halliburton cannot and does not warrant the accuracy 
#or correctness of such information and interpretations.  Under no circumstances should any 
#such information or interpretation be relied upon as the sole basis for any drilling, 
#completion, production, or financial decision or any procedure involving any risk to the 
#safety of any drilling venture, drilling rig or its crew or any other third party.  The 
#Customer has full responsibility for all drilling, completion and production operation.  
#Halliburton makes no representations or warranties, either expressed or 
#implied, including, but not limited to, the implied warranties of merchantability or fitness 
#for a particular purpose, with respect to the services rendered.  In no event will 
#Halliburton be liable for failure to obtain any particular results or for 
#any damages, including, but not limited to, indirect, special or consequential damages, 
#resulting from the use of any information or interpretation provided by Halliburton.
#
~A           TIME           GTDEPTH  GTPQH  GTTQ  GTTN  GTET   GTTVD  
# ...
   13:57:28.641.18-Jan-2020 3754.01 3697.68 79.47 5.00 345.11 2824.94
   13:57:28.842.18-Jan-2020 3754.01 3697.68 79.47 5.00 345.31 2824.94
   13:57:29.042.18-Jan-2020 3754.01 3696.44 79.47 5.00 345.51 2824.94
   13:57:29.242.18-Jan-2020 3754.01 3694.89 79.47 5.00 345.71 2824.94
   13:57:29.442.18-Jan-2020 3754.01 3695.71 79.47 5.00 345.91 2824.94
   13:57:29.642.18-Jan-2020 3754.01 3695.07 79.47 5.00 346.11 2824.94
   13:57:29.842.18-Jan-2020 3754.01 3695.07 79.47 5.00 346.31 2824.94
   13:57:30.042.18-Jan-2020 3754.01 3695.22 79.47 5.00 346.51 2824.94
   13:57:30.242.18-Jan-2020 3754.01 3695.38 79.47 5.00 346.71 2824.94
   13:57:30.442.18-Jan-2020 3754.01 3695.38 79.47 5.00 346.91 2824.94
   13:57:30.642.18-Jan-2020 3754.01 3695.25 79.47 5.00 347.11 2824.94
   13:57:30.842.18-Jan-2020 3754.01 3695.25 79.47 5.00 347.31 2824.94
   13:57:31.042.18-Jan-2020 3754.01 3694.88 79.47 5.00 347.51 2824.94
   13:57:31.242.18-Jan-2020 3754.01 3694.84 79.47 5.00 347.71 2824.94
   13:57:31.442.18-Jan-2020 3754.01 3695.66 79.47 5.00 347.91 2824.94
   13:57:31.642.18-Jan-2020 3754.01 3694.22 79.47 5.00 348.11 2824.94
   13:57:31.843.18-Jan-2020 3754.01 3694.22 79.47 5.00 348.31 2824.94
   13:57:32.043.18-Jan-2020 3754.01 3692.83 79.47 5.00 348.51 2824.94
   13:57:32.243.18-Jan-2020 3754.01 3696.48 79.47 5.00 348.71 2824.94
   13:57:32.443.18-Jan-2020 3754.01 3694.56 79.47 5.00 348.91 2824.94
   13:57:32.643.18-Jan-2020 3754.01 3695.79 79.47 5.00 349.11 2824.94
   13:57:32.843.18-Jan-2020 3754.01 3695.79 79.47 5.00 349.31 2824.94
   13:57:33.043.18-Jan-2020 3754.01 3697.26 79.47 5.00 349.51 2824.94
   13:57:33.243.18-Jan-2020 3754.01 3692.85 79.47 5.00 349.71 2824.94
   13:57:33.443.18-Jan-2020 3754.01 3696.38 79.47 5.00 349.91 2824.94
   13:57:33.643.18-Jan-2020 3754.01 3694.17 79.47 5.00 350.11 2824.94
   13:57:33.843.18-Jan-2020 3754.01 3694.17 79.47 5.00 350.31 2824.94
   13:57:34.043.18-Jan-2020 3754.01 3692.29 79.47 5.00 350.51 2824.94
   13:57:34.243.18-Jan-2020 3754.01 3697.09 79.47 5.00 350.71 2824.94
   13:57:34.443.18-Jan-2020 3754.01 3694.36 79.47 5.00 350.91 2824.94
   13:57:34.643.18-Jan-2020 3754.01 3696.09 79.47 5.00 351.11 2824.94
   13:57:34.843.18-Jan-2020 3754.01 3696.09 79.47 5.00 351.31 2824.94
   13:57:35.044.18-Jan-2020 3754.01 3695.87 79.47 5.00 351.51 2824.94
   13:57:35.244.18-Jan-2020 3754.01 3694.91 79.47 5.00 351.71 2824.94
   13:57:35.444.18-Jan-2020 3754.01 3695.54 79.47 5.00 351.91 2824.94
   13:57:35.644.18-Jan-2020 3754.01 3695.42 79.47 5.00 352.11 2824.94
   13:57:35.844.18-Jan-2020 3754.01 3695.42 79.47 5.00 352.31 2824.94
   13:57:36.044.18-Jan-2020 3754.01 3695.30 79.47 5.00 352.51 2824.94
   13:57:36.244.18-Jan-2020 3754.01 3695.25 79.47 5.00 352.71 2824.94
   13:57:36.444.18-Jan-2020 3754.01 3695.43 79.47 5.00 352.91 2824.94
   13:57:36.644.18-Jan-2020 3754.01 3695.43 79.47 5.00 353.11 2824.94
   13:57:36.844.18-Jan-2020 3754.01 3695.43 79.47 5.00 353.31 2824.94
   13:57:37.044.18-Jan-2020 3754.01 3695.23 79.47 5.00 353.51 2824.94
   13:57:37.244.18-Jan-2020 3754.01 3695.51 79.47 5.00 353.71 2824.94
   13:57:37.444.18-Jan-2020 3754.01 3697.08 79.47 5.00 353.91 2824.94
   13:57:37.644.18-Jan-2020 3754.01 3693.36 79.47 5.00 354.11 2824.94
   13:57:37.844.18-Jan-2020 3754.01 3693.36 79.47 5.00 354.31 2824.94
   13:57:38.045.18-Jan-2020 3754.01 3694.75 79.47 5.00 354.51 2824.94
   13:57:38.245.18-Jan-2020 3754.01 3695.60 79.47 5.00 354.71 2824.94
   13:57:38.445.18-Jan-2020 3754.01 3695.08 79.47 5.00 354.91 2824.94
   13:57:38.645.18-Jan-2020 3754.01 3695.50 79.47 5.00 355.11 2824.94
   13:57:38.845.18-Jan-2020 3754.01 3695.50 79.47 5.00 355.31 2824.94
   13:57:39.045.18-Jan-2020 3754.01 3695.32 79.47 5.00 355.51 2824.94
   13:57:39.245.18-Jan-2020 3754.01 3695.42 79.47 5.00 355.72 2824.94
   13:57:39.445.18-Jan-2020 3754.01 3694.53 79.47 5.00 355.92 2824.94
   13:57:39.645.18-Jan-2020 3754.01 3697.50 79.47 5.00 356.12 2824.94
   13:57:39.845.18-Jan-2020 3754.01 3697.50 79.47 5.00 356.32 2824.94
   13:57:40.045.18-Jan-2020 3754.01 3696.28 79.47 5.00 356.52 2824.94
   13:57:40.245.18-Jan-2020 3754.01 3694.34 79.47 5.00 356.72 2824.94
   13:57:40.445.18-Jan-2020 3754.01 3697.63 79.47 5.00 356.92 2824.94
   13:57:40.645.18-Jan-2020 3754.01 3693.77 79.47 5.00 357.12 2824.94
   13:57:40.845.18-Jan-2020 3754.01 3693.77 79.47 5.00 357.32 2824.94
   13:57:41.045.18-Jan-2020 3754.01 3695.14 79.47 5.00 357.52 2824.94
   13:57:41.246.18-Jan-2020 3754.01 3695.16 79.47 5.00 357.72 2824.94
   13:57:41.446.18-Jan-2020 3754.01 3695.28 79.47 5.00 357.92 2824.94
   13:57:41.646.18-Jan-2020 3754.01 3696.93 79.47 5.00 358.12 2824.94
   13:57:41.846.18-Jan-2020 3754.01 3696.93 79.47 5.00 358.32 2824.94
   13:57:42.046.18-Jan-2020 3754.01 3694.41 79.47 5.00 358.52 2824.94
   13:57:42.246.18-Jan-2020 3754.01 3695.18 79.47 5.00 358.72 2824.94
   13:57:42.446.18-Jan-2020 3754.01 3697.29 79.47 5.00 358.92 2824.94
   13:57:42.646.18-Jan-2020 3754.01 3693.25 79.47 5.00 359.12 2824.94
   13:57:42.846.18-Jan-2020 3754.01 3693.25 79.47 5.00 359.32 2824.94
   13:57:43.046.18-Jan-2020 3754.01 3695.10 79.47 5.00 359.52 2824.94
   13:57:43.246.18-Jan-2020 3754.01 3695.60 79.47 5.00 359.72 2824.94
   13:57:43.446.18-Jan-2020 3754.01 3695.20 79.47 5.00 359.92 2824.94
   13:57:43.646.18-Jan-2020 3754.01 3695.48 79.47 5.00 360.12 2824.94
   13:57:43.846.18-Jan-2020 3754.01 3695.48 79.47 5.00 360.32 2824.94
   13:57:44.046.18-Jan-2020 3754.01 3695.36 79.47 5.00 360.52 2824.94
   13:57:44.247.18-Jan-2020 3754.01 3695.45 79.47 5.00 360.72 2824.94
   13:57:44.447.18-Jan-2020 3754.01 3695.60 79.47 5.00 360.92 2824.94
   13:57:44.647.18-Jan-2020 3754.01 3695.40 79.47 5.00 361.12 2824.94
   13:57:44.847.18-Jan-2020 3754.01 3695.40 79.47 5.00 361.32 2824.94
   13:57:45.047.18-Jan-2020 3754.01 3695.41 79.47 5.00 361.52 2824.94
   13:57:45.247.18-Jan-2020 3754.01 3695.43 79.46 5.00 361.72 2824.94
   13:57:45.447.18-Jan-2020 3754.01 3695.38 79.46 5.00 361.92 2824.94
   13:57:45.647.18-Jan-2020 3754.01 3695.25 79.46 5.00 362.12 2824.94
   13:57:45.847.18-Jan-2020 3754.01 3695.25 79.46 5.00 362.32 2824.94
   13:57:46.047.18-Jan-2020 3754.01 3694.99 79.46 5.00 362.52 2824.94
   13:57:46.247.18-Jan-2020 3754.01 3694.83 79.46 5.00 362.72 2824.94
   13:57:46.447.18-Jan-2020 3754.01 3695.42 79.46 5.00 362.92 2824.94
   13:57:46.647.18-Jan-2020 3754.01 3695.13 79.46 5.00 363.12 2824.94
   13:57:46.847.18-Jan-2020 3754.01 3695.13 79.46 5.00 363.32 2824.94
   13:57:47.047.18-Jan-2020 3754.01 3695.16 79.46 5.00 363.52 2824.94
   13:57:47.247.18-Jan-2020 3754.01 3695.34 79.46 5.00 363.72 2824.94
   13:57:47.448.18-Jan-2020 3754.01 3695.35 79.46 5.00 363.92 2824.94
   13:57:47.648.18-Jan-2020 3754.01 3695.55 79.46 5.00 364.12 2824.94
   13:57:47.848.18-Jan-2020 3754.01 3695.55 79.46 5.00 364.32 2824.94
   13:57:48.048.18-Jan-2020 3754.01 3694.77 79.46 5.00 364.52 2824.94
   13:57:48.248.18-Jan-2020 3754.01 3697.74 79.46 5.00 364.72 2824.94
   13:57:48.448.18-Jan-2020 3754.01 3693.03 79.46 5.00 364.92 2824.94
   13:57:48.648.18-Jan-2020 3754.01 3696.65 79.46 5.00 365.12 2824.94
   13:57:48.848.18-Jan-2020 3754.01 3696.65 79.46 5.00 365.32 2824.94
   13:57:49.048.18-Jan-2020 3754.01 3697.88 79.46 5.00 365.52 2824.94
   13:57:49.248.18-Jan-2020 3754.01 3692.73 79.46 5.00 365.72 2824.94
   13:57:49.448.18-Jan-2020 3754.01 3696.75 79.46 5.00 365.92 2824.94
   13:57:49.648.18-Jan-2020 3754.01 3694.69 79.46 5.00 366.12 2824.94
   13:57:49.848.18-Jan-2020 3754.01 3694.69 79.46 5.00 366.32 2824.94
   13:57:50.048.18-Jan-2020 3754.01 3694.10 79.46 5.00 366.52 2824.94
   13:57:50.248.18-Jan-2020 3754.01 3697.84 79.46 5.00 366.72 2824.94
   13:57:50.449.18-Jan-2020 3754.01 3693.60 79.46 5.00 366.92 2824.94
   13:57:50.649.18-Jan-2020 3754.01 3696.32 79.46 5.00 367.12 2824.94
   13:57:50.849.18-Jan-2020 3754.01 3696.32 79.46 5.00 367.32 2824.94
   13:57:51.049.18-Jan-2020 3754.01 3695.69 79.46 5.00 367.52 2824.94
   13:57:51.249.18-Jan-2020 3754.01 3694.30 79.46 5.00 367.72 2824.94
   13:57:51.449.18-Jan-2020 3754.01 3695.83 79.46 5.00 367.92 2824.94
