~Version Information
 VERS.                  2.0:   CWLS log ASCII Standard -VERSION 2.0
 WRAP.                   NO:   One line per depth step
~Well Information Block
#MNEM.UNIT     VALUE/NAME     DESCRIPTION
#---------     -----------    ---------------------------
 STRT.S             17:36:42 18-Jan-20: START TIME 17:36:42 18-Jan-20
 STOP.S             17:44:57 18-Jan-20: STOP TIME  17:44:57 18-Jan-20
 STEP.S                   0.00: STEP TIME
 NULL.                 -999.25: NULL VALUE
 DFWT.                        :  DIST FWL TEXT
 DFST.                        :  DIST FSL TEXT
 DMF .             Drill Floor:  DRILL MEAS FROM
 STIM.      09.30.00 26-Dec-19:  START TIME
 DATE.      08.00.00 20-Jan-20:  END TIME
 SPUD.               23-Nov-19:  SPUD DATE
 NREF.                    Grid:  NORTH REFERENCE
 HPTY.       Minimum Curvature:  HOLE POS TYPE
 DMOD.             Drill Model:  DRILL MOD DESC
 SVYD.                  Survey:  SURVEY DESC
 ILTD.               Lithology:  INTERP LTH DESC
 FTOP.          Formation Tops:  FORM TOPS DESC
 SON .        AZ-XX-0906192647:  JOB NUMBER
 WTYP.                Deviated:  WELL TYPE
 COMP.     BP Exploration (Caspian Sea) Ltd:  COMPANY
 BASE.              Azerbaijan:  LOGGING EQUIPMENT BASE LOCATION
 REGN.                 Eurasia:  REGION
 FLD .                     ACG:  FIELD NAME
 SRVC.              KCA Deutag:  CONTRACTOR
 MWDS.                    Baku:  MWD SHOP
 WELL.     A10 (Slot 20) - SCP:  WELL NAME
 JOBN.        AZ-XX-0906192647:  JOB TICKET NUMB
 RIG .                 Chirag1:  RIG NAME
 DCON.     Halliburton Sperry Drilling:  DIRECTNL CONTR
 UNIT.                     N/A:  LOGGING EQUIPMENT ID
 PDAT.          Mean Sea Level:  PERMANENT DATUM
 MDS .        Operator Entered:  MAG DATA SOURCE
 CTRY.              Azerbaijan:  COUNTRY NAME
 UWI .            /AZE00000090:  UNIQUE WELL IDENTIFIER
 API .            /AZE00000090:  API NUMBER
 CNTY.                        :  COUNTY
 PROV.                        :  PROVINCE
 STAT.                        :  STATE
 LOC .                        :  LOCATION
 LMF .             Drill Floor:  LOG MEASURED FROM
 TVDS.m                  36.60:  TVDSS CORRECTN
 LATI.deg                40.08:  LATITUDE
 LONG.deg                51.24:  LONGITUDE
 WHNS.m                  -7.94:  WELL HEAD N/S
 WHEW.m                   1.56:  WELL HEAD E/W
 UTMX.m              520429.26:  UTM X
 UTMY.m             4438973.87:  UTM Y
 DFWL.m                   0.00:  DISTANCE FWL
 DFSL.m                   0.00:  DISTANCE FSL
 SDEP.m                1455.00:  START DEPTH
 TDD .m                3878.01:  TOTAL DEPTH (DRILLER)
 VSDR.deg               112.75:  VERT SEC DIRECT
 GVFD.g                   1.00:  GRAVITY FIELD
 MFLD.nT              50256.00:  MAGNETIC FIELD
 MDIP.deg                59.52:  MAGNETIC DIP
 MDEC.deg                 6.43:  MAGNETIC DECL
 GRDC.deg                 0.16:  GRID CORRECTION
 AZTC.deg                 6.27:  AZM TOTAL CORR
 EPD .m                   0.00:  ELEVATION
 EGL .m                   0.00:  GROUND ELEVATION
 WDMS.m                 121.00:  WD ELEV
 APD .m                  36.60:  DEPTH ABOVE PD
 AGAP.m                  36.60:  AIR GAP
 VSEW.m                   1.56:  VERT SEC E/W
 VSNS.m                  -7.94:  VERT SEC N/S
 DEP .m                1140.01:  DEPTH
 EKB .m                  36.60:  KB ELEVATION
 EDF .m                  36.60:  DF ELEVATION
 TDL .m                1293.00:  TOTAL DEPTH (LOGGER)
 VSC .                       0:  VS TO CLOSURE
 MAGU.                 1849164:  MAGUTM CHECKSUM
~Parameter Information Block
#MNEM.UNIT       Value        Description
#---------     -----------    ---------------------------
 AV  .mps                 2.40:  Ann Velocity 
 AVMX.mps                 2.55:  Max Ann Veloc 
 AZIF.deg               134.35:  Azm, Final 
 BHAT.        Rotary Steerable:  BHA Type 
 BREV.rev               847.00:  Rev Bit Total 
 BROT.°/30m              -2.51:  Build Rotating 
 BS  .in                  8.50:  Bit Size 
 BSZ .in                  8.50:  Bit Size 
 BTPL.psig              700.00:  Bit Press Loss 
 CABU.                     Yes:  Customer Abuse 
 CGEO.          Ilgar Gurbanov:  Customer Geo 
 COMM.                     Ä_:  Run Comments 1 
 TCS .hr                140.40:  Time Ciculation Ended 
 CV  .mps                 2.27:  Crit Velocity 
 CVMX.mps                 2.45:  Max Crit Veloc 
 DD1 .         Intigam Rahimov:  Direct Drillr 1 
 DD2 .         Rasim Ibrahimov:  Direct Drillr 2 
 DDSV.                 iCruise:  DD Service 
 DEFF.%                  99.00:  % Det Eff 
 DLRX.°/30m               3.28:  Dogleg Rot Max 
 DLSO.°/30m               0.00:  Dogleg Oriented 
 DLSX.°/30m               0.00:  Dogleg Str Max 
 DRET.      23.30.00 18-Jan-20:  Drill End Time 
 DRST.      01.45.00 11-Jan-20:  Drill Start Tim 
 DTIM.hr                 94.00:  Time Drilling 
 EDEP.m                3878.01:  End Depth 
 ENG1.       Dauren Baktybayev:  Engineer 1 
 ENG2.      Natik Hasanaghayev:  Engineer 2 
 ENG3.          Rustam Safarov:  Engineer 3 
 ETIM.      08.00.00 20-Jan-20:  End Time 
 FLOI.gpm               532.00:  Flow In 
 FLON.gpm               500.00:  Flow In Min 
 FLOS.cptm                0.00:  Fluid Loss 
 FLOX.gpm               540.00:  Flow In Max 
 FTRO.       Formation Presure:  FTWD Run Obj 
 HPRE.                     Yes:  High Pressure 
 HTEM.                      No:  High Temp 
 HYDO.m                   1.80:  Hydro Offset 
 IFIN.deg                39.86:  Inc, Final 
 IMAX.deg                59.73:  Inc Max 
 IMIN.deg                39.25:  Inc Min 
 IMND.m                3816.77:  Inc Min Depth 
 IMXD.m                2596.33:  Inc Max Depth 
 JARR.                      No:  Jarring 
 LETM.      23.30.00 18-Jan-20:  Log End Time 
 LOST.hr                     0:  Lost Rig Time 
 LSTM.      01.45.00 11-Jan-20:  Log Start Time 
 MDCL.ppm             41500.00:  Mud Chlorides 
 MDES.     Inversion Oil/Synthetic:  Mud Desc 
 DFD .sg                  1.48:  Mud Density 
 MDMN.sg                  1.48:  Dens Mud Min 
 MDMX.sg                  1.48:  Dens Mud Max 
 MOIL.                      54:  Run Mud Oil % 
 MOWR.                   72:28:  Run Mud OWR 
 MSND.                       0:  Run Mud Sand % 
 MSOL.                      23:  Run Mud Solids% 
 DFV .spqt               86.00:  Mud Viscosity 
 MWOD.in                  6.75:  MWD Tool OD 
 MWSI.                      No:  Serv Intrp, MWD 
 OTIM.hr                223.40:  Time Operating 
 PCON.           Look Like New:  Pad Condition 
 PMAX.psia            32446.79:  Press Op, Max 
 PV  .cP                 49.00:  Mud PV 
 RUN .                     200:  Run Number 
 ROPA.m/hr               12.48:  ROP Avg 
 ROPN.m/hr                8.00:  ROP Min 
 ROPX.m/hr               27.00:  ROP Max 
 RPMA.rpm               121.00:  RPM Surface Avg 
 RPMN.rpm                60.00:  RPM Surface Min 
 RPMX.rpm               140.00:  RPM Surface Max 
 RRUN.                    L202:  Rig Run Number 
 RTIM.hr                  7.25:  Time Reaming 
 SAZI.deg               123.49:  Azm, Start 
 SDEP.m                2585.01:  Start Depth 
 SIDD.                      No:  Serv Intrp, DD 
 SINC.deg                59.93:  Inc, Start 
 SPPA.psig             3539.00:  SPP Avg 
 SPPN.psig             3050.00:  SPP Min 
 SPPX.psig             3950.00:  SPP Max 
 STIM.      19.00.00 10-Jan-20:  Start Time 
 SVCS.                 DD, MWD:  Services 
 SVER.                    9.20:  Sperry Version 
 TDAT.m                1293.00:  Tot Depth Attmp 
 TDDF.                      No:  Trip for DD 
 TDLG.m                1293.00:  Tot Depth Loggd 
 TFF .                      No:  Trip for Fail 
 TQAA.f-kp               16.00:  Torque Abs Avg 
 TQAN.f-kp               11.00:  Torque Abs Min 
 TQAX.f-kp               18.00:  Torque Abs Max 
 TRRT.°/30m               1.25:  Turn Rotating 
 MRT .                  EWR-M5:  Maximum Recorded Temperature 
 TTMX.degC               84.00:  Max Tool Temp 
 VS01.          AZ90514619R5C6:  Virtual Str1 SN 
 VS02.        AZ90552592N2L2C6:  Virtual Str2 SN 
 VS03.        AZ90571337Z1W1C6:  Virtual Str3 SN 
 VS04.         AZ90513690K23C6:  Virtual Str4 SN 
 VS05.           AZ90594857F11:  Virtual Str5 SN 
 VS06.                13102166:  Virtual Str6 SN 
 WBMN.klb                 7.00:  WOB Min 
 WITN.            Peter Wilson:  Customer Rep 
 WOBA.klb                 9.95:  WOB Avg 
 WOBX.klb                10.00:  WOB Max 
 YP  .lhf2               36.00:  Yield Point 
~Curve Information Block
#MNEM.UNIT                 API CODE     Curve Description
#---------               -----------    ---------------------------
 TIME.HHMMSS            00 000 000 000:  GT Time & Date
 GTDEPTH.m              00 000 000 000:  GT Depth
 GTPQH.psia             00 000 000 000:  GT HR Quartz Pressure
 GTTQ.degC              00 000 000 000:  GT Quartz Temperature
 GTTN.NONE              00 000 000 000:  GT Test Number
 GTET.sec               00 000 000 000:  GT Elapsed Test Time
 GTTVD.m                00 000 000 000:  GT True Vertical Depth
#Other Information
#
#WARRANTY: Halliburton will use its best efforts to furnish customers with 
#accurate information and interpretations that are part of, and incident to, the services 
#provided.  However, Halliburton cannot and does not warrant the accuracy 
#or correctness of such information and interpretations.  Under no circumstances should any 
#such information or interpretation be relied upon as the sole basis for any drilling, 
#completion, production, or financial decision or any procedure involving any risk to the 
#safety of any drilling venture, drilling rig or its crew or any other third party.  The 
#Customer has full responsibility for all drilling, completion and production operation.  
#Halliburton makes no representations or warranties, either expressed or 
#implied, including, but not limited to, the implied warranties of merchantability or fitness 
#for a particular purpose, with respect to the services rendered.  In no event will 
#Halliburton be liable for failure to obtain any particular results or for 
#any damages, including, but not limited to, indirect, special or consequential damages, 
#resulting from the use of any information or interpretation provided by Halliburton.
#
~A           TIME           GTDEPTH  GTPQH  GTTQ  GTTN  GTET   GTTVD  
# ...
   17:39:46.907.18-Jan-2020 3785.01  829.59 81.95 6.00 184.01 2848.88
   17:39:47.107.18-Jan-2020 3785.01  829.59 81.95 6.00 184.21 2848.88
   17:39:47.307.18-Jan-2020 3785.01 1945.89 81.95 6.00 184.41 2848.88
   17:39:47.507.18-Jan-2020 3785.01 2534.92 81.95 6.00 184.61 2848.88
   17:39:47.707.18-Jan-2020 3785.01 2840.30 81.94 6.00 184.81 2848.88
   17:39:47.907.18-Jan-2020 3785.01 2996.48 81.94 6.00 185.01 2848.88
   17:39:48.107.18-Jan-2020 3785.01 2996.48 81.94 6.00 185.21 2848.88
   17:39:48.307.18-Jan-2020 3785.01 3147.97 81.94 6.00 185.41 2848.88
   17:39:48.507.18-Jan-2020 3785.01 3188.76 81.94 6.00 185.61 2848.88
   17:39:48.707.18-Jan-2020 3785.01 3223.04 81.94 6.00 185.81 2848.88
   17:39:48.907.18-Jan-2020 3785.01 3250.71 81.94 6.00 186.01 2848.88
   17:39:49.107.18-Jan-2020 3785.01 3250.71 81.94 6.00 186.21 2848.88
   17:39:49.307.18-Jan-2020 3785.01 3353.55 81.94 6.00 186.41 2848.88
   17:39:49.507.18-Jan-2020 3785.01 3575.35 81.94 6.00 186.61 2848.88
   17:39:49.707.18-Jan-2020 3785.01 3708.69 81.94 6.00 186.81 2848.88
   17:39:49.907.18-Jan-2020 3785.01 3777.80 81.94 6.00 187.01 2848.88
   17:39:50.107.18-Jan-2020 3785.01 3777.80 81.94 6.00 187.21 2848.88
   17:39:50.307.18-Jan-2020 3785.01 3829.78 81.95 6.00 187.41 2848.88
   17:39:50.507.18-Jan-2020 3785.01 3838.96 81.95 6.00 187.61 2848.88
   17:39:50.707.18-Jan-2020 3785.01 3843.72 81.95 6.00 187.81 2848.88
   17:39:50.907.18-Jan-2020 3785.01 3847.08 81.95 6.00 188.01 2848.88
   17:39:51.107.18-Jan-2020 3785.01 3847.08 81.95 6.00 188.21 2848.88
   17:39:51.307.18-Jan-2020 3785.01 3850.14 81.95 6.00 188.41 2848.88
   17:39:51.507.18-Jan-2020 3785.01 3850.89 81.95 6.00 188.61 2848.88
   17:39:51.707.18-Jan-2020 3785.01 3851.60 81.96 6.00 188.81 2848.88
   17:39:51.907.18-Jan-2020 3785.01 3852.30 81.96 6.00 189.01 2848.88
   17:39:52.107.18-Jan-2020 3785.01 3852.30 81.96 6.00 189.21 2848.88
   17:39:52.307.18-Jan-2020 3785.01 3851.97 81.96 6.00 189.41 2848.88
   17:39:52.507.18-Jan-2020 3785.01 3853.17 81.96 6.00 189.61 2848.88
   17:39:52.707.18-Jan-2020 3785.01 3854.03 81.96 6.00 189.81 2848.88
   17:39:52.907.18-Jan-2020 3785.01 3854.45 81.96 6.00 190.01 2848.88
   17:39:53.107.18-Jan-2020 3785.01 3854.45 81.96 6.00 190.21 2848.88
   17:39:53.307.18-Jan-2020 3785.01 3854.66 81.97 6.00 190.41 2848.88
   17:39:53.507.18-Jan-2020 3785.01 3854.95 81.97 6.00 190.61 2848.88
   17:39:53.707.18-Jan-2020 3785.01 3854.70 81.97 6.00 190.81 2848.88
   17:39:53.907.18-Jan-2020 3785.01 3855.32 81.97 6.00 191.01 2848.88
   17:39:54.107.18-Jan-2020 3785.01 3855.32 81.97 6.00 191.21 2848.88
   17:39:54.307.18-Jan-2020 3785.01 3855.42 81.97 6.00 191.41 2848.88
   17:39:54.507.18-Jan-2020 3785.01 3854.58 81.97 6.00 191.61 2848.88
   17:39:54.707.18-Jan-2020 3785.01 3855.72 81.97 6.00 191.81 2848.88
   17:39:54.907.18-Jan-2020 3785.01 3856.30 81.98 6.00 192.01 2848.88
   17:39:55.107.18-Jan-2020 3785.01 3856.30 81.98 6.00 192.21 2848.88
   17:39:55.307.18-Jan-2020 3785.01 3856.17 81.98 6.00 192.41 2848.88
   17:39:55.507.18-Jan-2020 3785.01 3855.51 81.98 6.00 192.61 2848.88
   17:39:55.707.18-Jan-2020 3785.01 3856.83 81.98 6.00 192.81 2848.88
   17:39:55.907.18-Jan-2020 3785.01 3856.72 81.98 6.00 193.01 2848.88
   17:39:56.107.18-Jan-2020 3785.01 3856.72 81.98 6.00 193.21 2848.88
   17:39:56.307.18-Jan-2020 3785.01 3855.73 81.98 6.00 193.41 2848.88
   17:39:56.507.18-Jan-2020 3785.01 3856.94 81.98 6.00 193.61 2848.88
   17:39:56.707.18-Jan-2020 3785.01 3857.00 81.98 6.00 193.81 2848.88
   17:39:56.907.18-Jan-2020 3785.01 3857.23 81.98 6.00 194.01 2848.88
   17:39:57.107.18-Jan-2020 3785.01 3857.23 81.98 6.00 194.21 2848.88
   17:39:57.307.18-Jan-2020 3785.01 3856.91 81.98 6.00 194.41 2848.88
   17:39:57.507.18-Jan-2020 3785.01 3856.52 81.98 6.00 194.61 2848.88
   17:39:57.707.18-Jan-2020 3785.01 3856.65 81.99 6.00 194.81 2848.88
   17:39:57.907.18-Jan-2020 3785.01 3857.58 81.99 6.00 195.01 2848.88
   17:39:58.107.18-Jan-2020 3785.01 3857.58 81.99 6.00 195.21 2848.88
   17:39:58.307.18-Jan-2020 3785.01 3857.42 81.99 6.00 195.41 2848.88
   17:39:58.507.18-Jan-2020 3785.01 3857.43 81.99 6.00 195.61 2848.88
   17:39:58.707.18-Jan-2020 3785.01 3857.25 81.99 6.00 195.81 2848.88
   17:39:58.907.18-Jan-2020 3785.01 3857.21 81.99 6.00 196.01 2848.88
   17:39:59.107.18-Jan-2020 3785.01 3857.21 81.99 6.00 196.21 2848.88
   17:39:59.307.18-Jan-2020 3785.01 3857.27 81.99 6.00 196.41 2848.88
   17:39:59.507.18-Jan-2020 3785.01 3857.38 81.99 6.00 196.61 2848.88
   17:39:59.707.18-Jan-2020 3785.01 3857.42 81.99 6.00 196.81 2848.88
   17:39:59.907.18-Jan-2020 3785.01 3857.46 81.99 6.00 197.01 2848.88
   17:40:00.107.18-Jan-2020 3785.01 3857.46 81.99 6.00 197.21 2848.88
   17:40:00.307.18-Jan-2020 3785.01 3857.43 81.99 6.00 197.41 2848.88
   17:40:00.508.18-Jan-2020 3785.01 3857.52 81.99 6.00 197.61 2848.88
   17:40:00.708.18-Jan-2020 3785.01 3857.52 81.99 6.00 197.81 2848.88
   17:40:00.908.18-Jan-2020 3785.01 3857.50 81.99 6.00 198.01 2848.88
   17:40:01.108.18-Jan-2020 3785.01 3857.50 81.99 6.00 198.21 2848.88
   17:40:01.308.18-Jan-2020 3785.01 3857.79 81.99 6.00 198.41 2848.88
   17:40:01.508.18-Jan-2020 3785.01 3857.98 81.99 6.00 198.61 2848.88
   17:40:01.708.18-Jan-2020 3785.01 3858.33 81.99 6.00 198.81 2848.88
   17:40:01.908.18-Jan-2020 3785.01 3858.00 81.99 6.00 199.01 2848.88
   17:40:02.108.18-Jan-2020 3785.01 3858.00 81.99 6.00 199.21 2848.88
   17:40:02.308.18-Jan-2020 3785.01 3857.78 81.99 6.00 199.41 2848.88
   17:40:02.508.18-Jan-2020 3785.01 3857.81 81.99 6.00 199.61 2848.88
   17:40:02.708.18-Jan-2020 3785.01 3857.93 81.99 6.00 199.81 2848.88
   17:40:02.908.18-Jan-2020 3785.01 3857.68 81.99 6.00 200.01 2848.88
   17:40:03.108.18-Jan-2020 3785.01 3857.68 81.99 6.00 200.21 2848.88
   17:40:03.308.18-Jan-2020 3785.01 3857.64 81.99 6.00 200.41 2848.88
   17:40:03.508.18-Jan-2020 3785.01 3856.86 81.99 6.00 200.61 2848.88
   17:40:03.708.18-Jan-2020 3785.01 3858.54 81.99 6.00 200.81 2848.88
   17:40:03.908.18-Jan-2020 3785.01 3858.36 81.99 6.00 201.01 2848.88
   17:40:04.108.18-Jan-2020 3785.01 3858.36 81.99 6.00 201.21 2848.88
   17:40:04.308.18-Jan-2020 3785.01 3857.91 81.99 6.00 201.41 2848.88
   17:40:04.508.18-Jan-2020 3785.01 3858.24 81.99 6.00 201.61 2848.88
   17:40:04.708.18-Jan-2020 3785.01 3858.49 81.99 6.00 201.81 2848.88
   17:40:04.908.18-Jan-2020 3785.01 3857.01 81.99 6.00 202.01 2848.88
   17:40:05.108.18-Jan-2020 3785.01 3857.01 81.99 6.00 202.21 2848.88
   17:40:05.308.18-Jan-2020 3785.01 3858.45 81.99 6.00 202.42 2848.88
   17:40:05.508.18-Jan-2020 3785.01 3858.26 81.99 6.00 202.62 2848.88
   17:40:05.708.18-Jan-2020 3785.01 3858.12 81.99 6.00 202.82 2848.88
   17:40:05.908.18-Jan-2020 3785.01 3858.10 81.99 6.00 203.02 2848.88
   17:40:06.108.18-Jan-2020 3785.01 3858.10 81.99 6.00 203.22 2848.88
   17:40:06.308.18-Jan-2020 3785.01 3857.23 81.99 6.00 203.42 2848.88
   17:40:06.508.18-Jan-2020 3785.01 3858.72 81.99 6.00 203.62 2848.88
   17:40:06.708.18-Jan-2020 3785.01 3858.62 81.99 6.00 203.82 2848.88
   17:40:06.908.18-Jan-2020 3785.01 3858.14 81.99 6.00 204.02 2848.88
   17:40:07.108.18-Jan-2020 3785.01 3858.14 81.99 6.00 204.22 2848.88
   17:40:07.308.18-Jan-2020 3785.01 3858.27 81.99 6.00 204.42 2848.88
   17:40:07.508.18-Jan-2020 3785.01 3858.08 81.99 6.00 204.62 2848.88
   17:40:07.708.18-Jan-2020 3785.01 3858.18 81.99 6.00 204.82 2848.88
   17:40:07.908.18-Jan-2020 3785.01 3858.30 81.99 6.00 205.02 2848.88
   17:40:08.108.18-Jan-2020 3785.01 3858.30 81.99 6.00 205.22 2848.88
   17:40:08.308.18-Jan-2020 3785.01 3858.25 81.99 6.00 205.42 2848.88
   17:40:08.508.18-Jan-2020 3785.01 3858.21 81.99 6.00 205.62 2848.88
   17:40:08.708.18-Jan-2020 3785.01 3858.12 81.99 6.00 205.82 2848.88
   17:40:08.908.18-Jan-2020 3785.01 3858.03 81.99 6.00 206.02 2848.88
   17:40:09.108.18-Jan-2020 3785.01 3858.03 81.99 6.00 206.22 2848.88
   17:40:09.308.18-Jan-2020 3785.01 3858.25 81.98 6.00 206.42 2848.88
   17:40:09.508.18-Jan-2020 3785.01 3858.19 81.98 6.00 206.62 2848.88
   17:40:09.708.18-Jan-2020 3785.01 3857.84 81.98 6.00 206.82 2848.88
