~Version Information
 VERS.                  2.0:   CWLS log ASCII Standard -VERSION 2.0
 WRAP.                   NO:   One line per depth step
~Well Information Block
#MNEM.UNIT     VALUE/NAME     DESCRIPTION
#---------     -----------    ---------------------------
 STRT.S             17:36:42 18-Jan-20: START TIME 17:36:42 18-Jan-20
 STOP.S             17:44:57 18-Jan-20: STOP TIME  17:44:57 18-Jan-20
 STEP.S                   0.00: STEP TIME
 NULL.                 -999.25: NULL VALUE
 DFWT.                        :  DIST FWL TEXT
 DFST.                        :  DIST FSL TEXT
 DMF .             Drill Floor:  DRILL MEAS FROM
 STIM.      09.30.00 26-Dec-19:  START TIME
 DATE.      08.00.00 20-Jan-20:  END TIME
 SPUD.               23-Nov-19:  SPUD DATE
 NREF.                    Grid:  NORTH REFERENCE
 HPTY.       Minimum Curvature:  HOLE POS TYPE
 DMOD.             Drill Model:  DRILL MOD DESC
 SVYD.                  Survey:  SURVEY DESC
 ILTD.               Lithology:  INTERP LTH DESC
 FTOP.          Formation Tops:  FORM TOPS DESC
 SON .        AZ-XX-0906192647:  JOB NUMBER
 WTYP.                Deviated:  WELL TYPE
 COMP.     BP Exploration (Caspian Sea) Ltd:  COMPANY
 BASE.              Azerbaijan:  LOGGING EQUIPMENT BASE LOCATION
 REGN.                 Eurasia:  REGION
 FLD .                     ACG:  FIELD NAME
 SRVC.              KCA Deutag:  CONTRACTOR
 MWDS.                    Baku:  MWD SHOP
 WELL.     A10 (Slot 20) - SCP:  WELL NAME
 JOBN.        AZ-XX-0906192647:  JOB TICKET NUMB
 RIG .                 Chirag1:  RIG NAME
 DCON.     Halliburton Sperry Drilling:  DIRECTNL CONTR
 UNIT.                     N/A:  LOGGING EQUIPMENT ID
 PDAT.          Mean Sea Level:  PERMANENT DATUM
 MDS .        Operator Entered:  MAG DATA SOURCE
 CTRY.              Azerbaijan:  COUNTRY NAME
 UWI .            /AZE00000090:  UNIQUE WELL IDENTIFIER
 API .            /AZE00000090:  API NUMBER
 CNTY.                        :  COUNTY
 PROV.                        :  PROVINCE
 STAT.                        :  STATE
 LOC .                        :  LOCATION
 LMF .             Drill Floor:  LOG MEASURED FROM
 TVDS.m                  36.60:  TVDSS CORRECTN
 LATI.deg                40.08:  LATITUDE
 LONG.deg                51.24:  LONGITUDE
 WHNS.m                  -7.94:  WELL HEAD N/S
 WHEW.m                   1.56:  WELL HEAD E/W
 UTMX.m              520429.26:  UTM X
 UTMY.m             4438973.87:  UTM Y
 DFWL.m                   0.00:  DISTANCE FWL
 DFSL.m                   0.00:  DISTANCE FSL
 SDEP.m                1455.00:  START DEPTH
 TDD .m                3878.01:  TOTAL DEPTH (DRILLER)
 VSDR.deg               112.75:  VERT SEC DIRECT
 GVFD.g                   1.00:  GRAVITY FIELD
 MFLD.nT              50256.00:  MAGNETIC FIELD
 MDIP.deg                59.52:  MAGNETIC DIP
 MDEC.deg                 6.43:  MAGNETIC DECL
 GRDC.deg                 0.16:  GRID CORRECTION
 AZTC.deg                 6.27:  AZM TOTAL CORR
 EPD .m                   0.00:  ELEVATION
 EGL .m                   0.00:  GROUND ELEVATION
 WDMS.m                 121.00:  WD ELEV
 APD .m                  36.60:  DEPTH ABOVE PD
 AGAP.m                  36.60:  AIR GAP
 VSEW.m                   1.56:  VERT SEC E/W
 VSNS.m                  -7.94:  VERT SEC N/S
 DEP .m                1140.01:  DEPTH
 EKB .m                  36.60:  KB ELEVATION
 EDF .m                  36.60:  DF ELEVATION
 TDL .m                1293.00:  TOTAL DEPTH (LOGGER)
 VSC .                       0:  VS TO CLOSURE
 MAGU.                 1849164:  MAGUTM CHECKSUM
~Parameter Information Block
#MNEM.UNIT       Value        Description
#---------     -----------    ---------------------------
 AV  .mps                 2.40:  Ann Velocity 
 AVMX.mps                 2.55:  Max Ann Veloc 
 AZIF.deg               134.35:  Azm, Final 
 BHAT.        Rotary Steerable:  BHA Type 
 BREV.rev               847.00:  Rev Bit Total 
 BROT.°/30m              -2.51:  Build Rotating 
 BS  .in                  8.50:  Bit Size 
 BSZ .in                  8.50:  Bit Size 
 BTPL.psig              700.00:  Bit Press Loss 
 CABU.                     Yes:  Customer Abuse 
 CGEO.          Ilgar Gurbanov:  Customer Geo 
 COMM.                     Ä_:  Run Comments 1 
 TCS .hr                140.40:  Time Ciculation Ended 
 CV  .mps                 2.27:  Crit Velocity 
 CVMX.mps                 2.45:  Max Crit Veloc 
 DD1 .         Intigam Rahimov:  Direct Drillr 1 
 DD2 .         Rasim Ibrahimov:  Direct Drillr 2 
 DDSV.                 iCruise:  DD Service 
 DEFF.%                  99.00:  % Det Eff 
 DLRX.°/30m               3.28:  Dogleg Rot Max 
 DLSO.°/30m               0.00:  Dogleg Oriented 
 DLSX.°/30m               0.00:  Dogleg Str Max 
 DRET.      23.30.00 18-Jan-20:  Drill End Time 
 DRST.      01.45.00 11-Jan-20:  Drill Start Tim 
 DTIM.hr                 94.00:  Time Drilling 
 EDEP.m                3878.01:  End Depth 
 ENG1.       Dauren Baktybayev:  Engineer 1 
 ENG2.      Natik Hasanaghayev:  Engineer 2 
 ENG3.          Rustam Safarov:  Engineer 3 
 ETIM.      08.00.00 20-Jan-20:  End Time 
 FLOI.gpm               532.00:  Flow In 
 FLON.gpm               500.00:  Flow In Min 
 FLOS.cptm                0.00:  Fluid Loss 
 FLOX.gpm               540.00:  Flow In Max 
 FTRO.       Formation Presure:  FTWD Run Obj 
 HPRE.                     Yes:  High Pressure 
 HTEM.                      No:  High Temp 
 HYDO.m                   1.80:  Hydro Offset 
 IFIN.deg                39.86:  Inc, Final 
 IMAX.deg                59.73:  Inc Max 
 IMIN.deg                39.25:  Inc Min 
 IMND.m                3816.77:  Inc Min Depth 
 IMXD.m                2596.33:  Inc Max Depth 
 JARR.                      No:  Jarring 
 LETM.      23.30.00 18-Jan-20:  Log End Time 
 LOST.hr                     0:  Lost Rig Time 
 LSTM.      01.45.00 11-Jan-20:  Log Start Time 
 MDCL.ppm             41500.00:  Mud Chlorides 
 MDES.     Inversion Oil/Synthetic:  Mud Desc 
 DFD .sg                  1.48:  Mud Density 
 MDMN.sg                  1.48:  Dens Mud Min 
 MDMX.sg                  1.48:  Dens Mud Max 
 MOIL.                      54:  Run Mud Oil % 
 MOWR.                   72:28:  Run Mud OWR 
 MSND.                       0:  Run Mud Sand % 
 MSOL.                      23:  Run Mud Solids% 
 DFV .spqt               86.00:  Mud Viscosity 
 MWOD.in                  6.75:  MWD Tool OD 
 MWSI.                      No:  Serv Intrp, MWD 
 OTIM.hr                223.40:  Time Operating 
 PCON.           Look Like New:  Pad Condition 
 PMAX.psia            32446.79:  Press Op, Max 
 PV  .cP                 49.00:  Mud PV 
 RUN .                     200:  Run Number 
 ROPA.m/hr               12.48:  ROP Avg 
 ROPN.m/hr                8.00:  ROP Min 
 ROPX.m/hr               27.00:  ROP Max 
 RPMA.rpm               121.00:  RPM Surface Avg 
 RPMN.rpm                60.00:  RPM Surface Min 
 RPMX.rpm               140.00:  RPM Surface Max 
 RRUN.                    L202:  Rig Run Number 
 RTIM.hr                  7.25:  Time Reaming 
 SAZI.deg               123.49:  Azm, Start 
 SDEP.m                2585.01:  Start Depth 
 SIDD.                      No:  Serv Intrp, DD 
 SINC.deg                59.93:  Inc, Start 
 SPPA.psig             3539.00:  SPP Avg 
 SPPN.psig             3050.00:  SPP Min 
 SPPX.psig             3950.00:  SPP Max 
 STIM.      19.00.00 10-Jan-20:  Start Time 
 SVCS.                 DD, MWD:  Services 
 SVER.                    9.20:  Sperry Version 
 TDAT.m                1293.00:  Tot Depth Attmp 
 TDDF.                      No:  Trip for DD 
 TDLG.m                1293.00:  Tot Depth Loggd 
 TFF .                      No:  Trip for Fail 
 TQAA.f-kp               16.00:  Torque Abs Avg 
 TQAN.f-kp               11.00:  Torque Abs Min 
 TQAX.f-kp               18.00:  Torque Abs Max 
 TRRT.°/30m               1.25:  Turn Rotating 
 MRT .                  EWR-M5:  Maximum Recorded Temperature 
 TTMX.degC               84.00:  Max Tool Temp 
 VS01.          AZ90514619R5C6:  Virtual Str1 SN 
 VS02.        AZ90552592N2L2C6:  Virtual Str2 SN 
 VS03.        AZ90571337Z1W1C6:  Virtual Str3 SN 
 VS04.         AZ90513690K23C6:  Virtual Str4 SN 
 VS05.           AZ90594857F11:  Virtual Str5 SN 
 VS06.                13102166:  Virtual Str6 SN 
 WBMN.klb                 7.00:  WOB Min 
 WITN.            Peter Wilson:  Customer Rep 
 WOBA.klb                 9.95:  WOB Avg 
 WOBX.klb                10.00:  WOB Max 
 YP  .lhf2               36.00:  Yield Point 
~Curve Information Block
#MNEM.UNIT                 API CODE     Curve Description
#---------               -----------    ---------------------------
 TIME.HHMMSS            00 000 000 000:  GT Time & Date
 GTDEPTH.m              00 000 000 000:  GT Depth
 GTPQH.psia             00 000 000 000:  GT HR Quartz Pressure
 GTTQ.degC              00 000 000 000:  GT Quartz Temperature
 GTTN.NONE              00 000 000 000:  GT Test Number
 GTET.sec               00 000 000 000:  GT Elapsed Test Time
 GTTVD.m                00 000 000 000:  GT True Vertical Depth
#Other Information
#
#WARRANTY: Halliburton will use its best efforts to furnish customers with 
#accurate information and interpretations that are part of, and incident to, the services 
#provided.  However, Halliburton cannot and does not warrant the accuracy 
#or correctness of such information and interpretations.  Under no circumstances should any 
#such information or interpretation be relied upon as the sole basis for any drilling, 
#completion, production, or financial decision or any procedure involving any risk to the 
#safety of any drilling venture, drilling rig or its crew or any other third party.  The 
#Customer has full responsibility for all drilling, completion and production operation.  
#Halliburton makes no representations or warranties, either expressed or 
#implied, including, but not limited to, the implied warranties of merchantability or fitness 
#for a particular purpose, with respect to the services rendered.  In no event will 
#Halliburton be liable for failure to obtain any particular results or for 
#any damages, including, but not limited to, indirect, special or consequential damages, 
#resulting from the use of any information or interpretation provided by Halliburton.
#
~A           TIME           GTDEPTH  GTPQH  GTTQ  GTTN  GTET   GTTVD  
# ...
   17:42:27.918.18-Jan-2020 3785.01 3858.62 81.80 6.00 345.03 2848.88
   17:42:28.118.18-Jan-2020 3785.01 3858.62 81.80 6.00 345.23 2848.88
   17:42:28.318.18-Jan-2020 3785.01 3858.16 81.80 6.00 345.43 2848.88
   17:42:28.518.18-Jan-2020 3785.01 3858.15 81.80 6.00 345.63 2848.88
   17:42:28.719.18-Jan-2020 3785.01 3858.32 81.80 6.00 345.83 2848.88
   17:42:28.919.18-Jan-2020 3785.01 3858.01 81.79 6.00 346.03 2848.88
   17:42:29.119.18-Jan-2020 3785.01 3858.01 81.79 6.00 346.23 2848.88
   17:42:29.319.18-Jan-2020 3785.01 3858.29 81.79 6.00 346.43 2848.88
   17:42:29.519.18-Jan-2020 3785.01 3858.20 81.79 6.00 346.63 2848.88
   17:42:29.719.18-Jan-2020 3785.01 3858.17 81.79 6.00 346.83 2848.88
   17:42:29.919.18-Jan-2020 3785.01 3857.12 81.79 6.00 347.03 2848.88
   17:42:30.119.18-Jan-2020 3785.01 3857.12 81.79 6.00 347.23 2848.88
   17:42:30.319.18-Jan-2020 3785.01 3858.35 81.79 6.00 347.43 2848.88
   17:42:30.519.18-Jan-2020 3785.01 3857.92 81.79 6.00 347.63 2848.88
   17:42:30.719.18-Jan-2020 3785.01 3858.61 81.79 6.00 347.83 2848.88
   17:42:30.919.18-Jan-2020 3785.01 3858.30 81.79 6.00 348.03 2848.88
   17:42:31.119.18-Jan-2020 3785.01 3858.30 81.79 6.00 348.23 2848.88
   17:42:31.319.18-Jan-2020 3785.01 3857.87 81.79 6.00 348.43 2848.88
   17:42:31.519.18-Jan-2020 3785.01 3857.96 81.79 6.00 348.63 2848.88
   17:42:31.719.18-Jan-2020 3785.01 3858.37 81.79 6.00 348.83 2848.88
   17:42:31.919.18-Jan-2020 3785.01 3858.64 81.79 6.00 349.03 2848.88
   17:42:32.119.18-Jan-2020 3785.01 3858.64 81.79 6.00 349.23 2848.88
   17:42:32.319.18-Jan-2020 3785.01 3858.21 81.79 6.00 349.43 2848.88
   17:42:32.519.18-Jan-2020 3785.01 3857.25 81.79 6.00 349.63 2848.88
   17:42:32.719.18-Jan-2020 3785.01 3858.63 81.79 6.00 349.83 2848.88
   17:42:32.919.18-Jan-2020 3785.01 3858.44 81.79 6.00 350.03 2848.88
   17:42:33.119.18-Jan-2020 3785.01 3858.44 81.79 6.00 350.23 2848.88
   17:42:33.319.18-Jan-2020 3785.01 3858.30 81.79 6.00 350.43 2848.88
   17:42:33.519.18-Jan-2020 3785.01 3858.37 81.79 6.00 350.63 2848.88
   17:42:33.719.18-Jan-2020 3785.01 3858.25 81.79 6.00 350.83 2848.88
   17:42:33.919.18-Jan-2020 3785.01 3858.17 81.79 6.00 351.03 2848.88
   17:42:34.119.18-Jan-2020 3785.01 3858.17 81.79 6.00 351.23 2848.88
   17:42:34.319.18-Jan-2020 3785.01 3858.24 81.79 6.00 351.43 2848.88
   17:42:34.519.18-Jan-2020 3785.01 3858.30 81.79 6.00 351.63 2848.88
   17:42:34.719.18-Jan-2020 3785.01 3858.40 81.79 6.00 351.83 2848.88
   17:42:34.919.18-Jan-2020 3785.01 3858.42 81.79 6.00 352.03 2848.88
   17:42:35.119.18-Jan-2020 3785.01 3858.42 81.79 6.00 352.23 2848.88
   17:42:35.319.18-Jan-2020 3785.01 3858.26 81.79 6.00 352.43 2848.88
   17:42:35.519.18-Jan-2020 3785.01 3858.15 81.79 6.00 352.63 2848.88
   17:42:35.719.18-Jan-2020 3785.01 3858.27 81.79 6.00 352.83 2848.88
   17:42:35.919.18-Jan-2020 3785.01 3857.77 81.79 6.00 353.03 2848.88
   17:42:36.119.18-Jan-2020 3785.01 3857.77 81.79 6.00 353.23 2848.88
   17:42:36.319.18-Jan-2020 3785.01 3858.65 81.79 6.00 353.43 2848.88
   17:42:36.519.18-Jan-2020 3785.01 3858.61 81.79 6.00 353.63 2848.88
   17:42:36.719.18-Jan-2020 3785.01 3858.40 81.78 6.00 353.83 2848.88
   17:42:36.919.18-Jan-2020 3785.01 3858.15 81.78 6.00 354.03 2848.88
   17:42:37.119.18-Jan-2020 3785.01 3858.15 81.78 6.00 354.23 2848.88
   17:42:37.319.18-Jan-2020 3785.01 3858.27 81.78 6.00 354.43 2848.88
   17:42:37.519.18-Jan-2020 3785.01 3858.15 81.78 6.00 354.63 2848.88
   17:42:37.719.18-Jan-2020 3785.01 3858.21 81.78 6.00 354.83 2848.88
   17:42:37.919.18-Jan-2020 3785.01 3858.35 81.78 6.00 355.03 2848.88
   17:42:38.119.18-Jan-2020 3785.01 3858.35 81.78 6.00 355.23 2848.88
   17:42:38.319.18-Jan-2020 3785.01 3857.32 81.78 6.00 355.43 2848.88
   17:42:38.519.18-Jan-2020 3785.01 3858.58 81.78 6.00 355.63 2848.88
   17:42:38.719.18-Jan-2020 3785.01 3858.72 81.78 6.00 355.83 2848.88
   17:42:38.919.18-Jan-2020 3785.01 3858.22 81.78 6.00 356.03 2848.88
   17:42:39.119.18-Jan-2020 3785.01 3858.22 81.78 6.00 356.23 2848.88
   17:42:39.319.18-Jan-2020 3785.01 3858.54 81.78 6.00 356.43 2848.88
   17:42:39.519.18-Jan-2020 3785.01 3858.47 81.78 6.00 356.63 2848.88
   17:42:39.719.18-Jan-2020 3785.01 3858.02 81.78 6.00 356.83 2848.88
   17:42:39.919.18-Jan-2020 3785.01 3858.07 81.78 6.00 357.03 2848.88
   17:42:40.119.18-Jan-2020 3785.01 3858.07 81.78 6.00 357.23 2848.88
   17:42:40.319.18-Jan-2020 3785.01 3858.56 81.78 6.00 357.43 2848.88
   17:42:40.519.18-Jan-2020 3785.01 3858.31 81.78 6.00 357.63 2848.88
   17:42:40.719.18-Jan-2020 3785.01 3858.06 81.78 6.00 357.83 2848.88
   17:42:40.919.18-Jan-2020 3785.01 3858.22 81.78 6.00 358.03 2848.88
   17:42:41.119.18-Jan-2020 3785.01 3858.22 81.78 6.00 358.23 2848.88
   17:42:41.319.18-Jan-2020 3785.01 3858.70 81.78 6.00 358.43 2848.88
   17:42:41.519.18-Jan-2020 3785.01 3858.71 81.78 6.00 358.63 2848.88
   17:42:41.719.18-Jan-2020 3785.01 3858.59 81.78 6.00 358.83 2848.88
   17:42:41.919.18-Jan-2020 3785.01 3858.56 81.78 6.00 359.03 2848.88
   17:42:42.119.18-Jan-2020 3785.01 3858.56 81.78 6.00 359.23 2848.88
   17:42:42.320.18-Jan-2020 3785.01 3858.13 81.78 6.00 359.43 2848.88
   17:42:42.520.18-Jan-2020 3785.01 3858.26 81.78 6.00 359.63 2848.88
   17:42:42.720.18-Jan-2020 3785.01 3858.48 81.78 6.00 359.83 2848.88
   17:42:42.920.18-Jan-2020 3785.01 3858.17 81.78 6.00 360.03 2848.88
   17:42:43.120.18-Jan-2020 3785.01 3858.17 81.78 6.00 360.23 2848.88
   17:42:43.320.18-Jan-2020 3785.01 3858.44 81.78 6.00 360.43 2848.88
   17:42:43.520.18-Jan-2020 3785.01 3858.39 81.78 6.00 360.63 2848.88
   17:42:43.720.18-Jan-2020 3785.01 3858.27 81.78 6.00 360.83 2848.88
   17:42:43.920.18-Jan-2020 3785.01 3858.41 81.78 6.00 361.03 2848.88
   17:42:44.120.18-Jan-2020 3785.01 3858.41 81.78 6.00 361.23 2848.88
   17:42:44.320.18-Jan-2020 3785.01 3858.28 81.78 6.00 361.43 2848.88
   17:42:44.520.18-Jan-2020 3785.01 3858.29 81.77 6.00 361.63 2848.88
   17:42:44.720.18-Jan-2020 3785.01 3857.33 81.77 6.00 361.83 2848.88
   17:42:44.920.18-Jan-2020 3785.01 3858.76 81.77 6.00 362.03 2848.88
   17:42:45.120.18-Jan-2020 3785.01 3858.76 81.77 6.00 362.23 2848.88
   17:42:45.320.18-Jan-2020 3785.01 3858.50 81.77 6.00 362.43 2848.88
   17:42:45.520.18-Jan-2020 3785.01 3858.31 81.77 6.00 362.63 2848.88
   17:42:45.720.18-Jan-2020 3785.01 3858.25 81.77 6.00 362.83 2848.88
   17:42:45.920.18-Jan-2020 3785.01 3858.09 81.77 6.00 363.03 2848.88
   17:42:46.120.18-Jan-2020 3785.01 3858.09 81.77 6.00 363.23 2848.88
   17:42:46.320.18-Jan-2020 3785.01 3858.38 81.77 6.00 363.43 2848.88
   17:42:46.520.18-Jan-2020 3785.01 3858.23 81.77 6.00 363.63 2848.88
   17:42:46.720.18-Jan-2020 3785.01 3858.22 81.77 6.00 363.83 2848.88
   17:42:46.920.18-Jan-2020 3785.01 3858.34 81.77 6.00 364.03 2848.88
   17:42:47.120.18-Jan-2020 3785.01 3858.34 81.77 6.00 364.23 2848.88
   17:42:47.320.18-Jan-2020 3785.01 3858.66 81.77 6.00 364.43 2848.88
   17:42:47.520.18-Jan-2020 3785.01 3858.65 81.77 6.00 364.63 2848.88
   17:42:47.720.18-Jan-2020 3785.01 3857.34 81.77 6.00 364.83 2848.88
   17:42:47.920.18-Jan-2020 3785.01 3859.08 81.77 6.00 365.03 2848.88
   17:42:48.120.18-Jan-2020 3785.01 3859.08 81.77 6.00 365.23 2848.88
   17:42:48.320.18-Jan-2020 3785.01 3858.67 81.77 6.00 365.43 2848.88
   17:42:48.520.18-Jan-2020 3785.01 3857.48 81.77 6.00 365.63 2848.88
   17:42:48.720.18-Jan-2020 3785.01 3858.80 81.77 6.00 365.83 2848.88
   17:42:48.920.18-Jan-2020 3785.01 3858.47 81.77 6.00 366.03 2848.88
   17:42:49.120.18-Jan-2020 3785.01 3858.47 81.77 6.00 366.23 2848.88
   17:42:49.320.18-Jan-2020 3785.01 3858.52 81.77 6.00 366.43 2848.88
   17:42:49.520.18-Jan-2020 3785.01 3858.05 81.77 6.00 366.63 2848.88
   17:42:49.720.18-Jan-2020 3785.01 3858.28 81.77 6.00 366.83 2848.88
   17:42:49.920.18-Jan-2020 3785.01 3857.39 81.77 6.00 367.03 2848.88
   17:42:50.120.18-Jan-2020 3785.01 3857.39 81.77 6.00 367.23 2848.88
   17:42:50.320.18-Jan-2020 3785.01 3858.31 81.77 6.00 367.43 2848.88
   17:42:50.520.18-Jan-2020 3785.01 3858.31 81.77 6.00 367.63 2848.88
   17:42:50.720.18-Jan-2020 3785.01 3858.57 81.77 6.00 367.83 2848.88
