~Version Information
 VERS.                  2.0:   CWLS log ASCII Standard -VERSION 2.0
 WRAP.                   NO:   One line per depth step
~Well Information Block
#MNEM.UNIT     VALUE/NAME     DESCRIPTION
#---------     -----------    ---------------------------
 STRT.S             17:36:42 18-Jan-20: START TIME 17:36:42 18-Jan-20
 STOP.S             17:44:57 18-Jan-20: STOP TIME  17:44:57 18-Jan-20
 STEP.S                   0.00: STEP TIME
 NULL.                 -999.25: NULL VALUE
 DFWT.                        :  DIST FWL TEXT
 DFST.                        :  DIST FSL TEXT
 DMF .             Drill Floor:  DRILL MEAS FROM
 STIM.      09.30.00 26-Dec-19:  START TIME
 DATE.      08.00.00 20-Jan-20:  END TIME
 SPUD.               23-Nov-19:  SPUD DATE
 NREF.                    Grid:  NORTH REFERENCE
 HPTY.       Minimum Curvature:  HOLE POS TYPE
 DMOD.             Drill Model:  DRILL MOD DESC
 SVYD.                  Survey:  SURVEY DESC
 ILTD.               Lithology:  INTERP LTH DESC
 FTOP.          Formation Tops:  FORM TOPS DESC
 SON .        AZ-XX-0906192647:  JOB NUMBER
 WTYP.                Deviated:  WELL TYPE
 COMP.     BP Exploration (Caspian Sea) Ltd:  COMPANY
 BASE.              Azerbaijan:  LOGGING EQUIPMENT BASE LOCATION
 REGN.                 Eurasia:  REGION
 FLD .                     ACG:  FIELD NAME
 SRVC.              KCA Deutag:  CONTRACTOR
 MWDS.                    Baku:  MWD SHOP
 WELL.     A10 (Slot 20) - SCP:  WELL NAME
 JOBN.        AZ-XX-0906192647:  JOB TICKET NUMB
 RIG .                 Chirag1:  RIG NAME
 DCON.     Halliburton Sperry Drilling:  DIRECTNL CONTR
 UNIT.                     N/A:  LOGGING EQUIPMENT ID
 PDAT.          Mean Sea Level:  PERMANENT DATUM
 MDS .        Operator Entered:  MAG DATA SOURCE
 CTRY.              Azerbaijan:  COUNTRY NAME
 UWI .            /AZE00000090:  UNIQUE WELL IDENTIFIER
 API .            /AZE00000090:  API NUMBER
 CNTY.                        :  COUNTY
 PROV.                        :  PROVINCE
 STAT.                        :  STATE
 LOC .                        :  LOCATION
 LMF .             Drill Floor:  LOG MEASURED FROM
 TVDS.m                  36.60:  TVDSS CORRECTN
 LATI.deg                40.08:  LATITUDE
 LONG.deg                51.24:  LONGITUDE
 WHNS.m                  -7.94:  WELL HEAD N/S
 WHEW.m                   1.56:  WELL HEAD E/W
 UTMX.m              520429.26:  UTM X
 UTMY.m             4438973.87:  UTM Y
 DFWL.m                   0.00:  DISTANCE FWL
 DFSL.m                   0.00:  DISTANCE FSL
 SDEP.m                1455.00:  START DEPTH
 TDD .m                3878.01:  TOTAL DEPTH (DRILLER)
 VSDR.deg               112.75:  VERT SEC DIRECT
 GVFD.g                   1.00:  GRAVITY FIELD
 MFLD.nT              50256.00:  MAGNETIC FIELD
 MDIP.deg                59.52:  MAGNETIC DIP
 MDEC.deg                 6.43:  MAGNETIC DECL
 GRDC.deg                 0.16:  GRID CORRECTION
 AZTC.deg                 6.27:  AZM TOTAL CORR
 EPD .m                   0.00:  ELEVATION
 EGL .m                   0.00:  GROUND ELEVATION
 WDMS.m                 121.00:  WD ELEV
 APD .m                  36.60:  DEPTH ABOVE PD
 AGAP.m                  36.60:  AIR GAP
 VSEW.m                   1.56:  VERT SEC E/W
 VSNS.m                  -7.94:  VERT SEC N/S
 DEP .m                1140.01:  DEPTH
 EKB .m                  36.60:  KB ELEVATION
 EDF .m                  36.60:  DF ELEVATION
 TDL .m                1293.00:  TOTAL DEPTH (LOGGER)
 VSC .                       0:  VS TO CLOSURE
 MAGU.                 1849164:  MAGUTM CHECKSUM
~Parameter Information Block
#MNEM.UNIT       Value        Description
#---------     -----------    ---------------------------
 AV  .mps                 2.40:  Ann Velocity 
 AVMX.mps                 2.55:  Max Ann Veloc 
 AZIF.deg               134.35:  Azm, Final 
 BHAT.        Rotary Steerable:  BHA Type 
 BREV.rev               847.00:  Rev Bit Total 
 BROT.°/30m              -2.51:  Build Rotating 
 BS  .in                  8.50:  Bit Size 
 BSZ .in                  8.50:  Bit Size 
 BTPL.psig              700.00:  Bit Press Loss 
 CABU.                     Yes:  Customer Abuse 
 CGEO.          Ilgar Gurbanov:  Customer Geo 
 COMM.                     Ä_:  Run Comments 1 
 TCS .hr                140.40:  Time Ciculation Ended 
 CV  .mps                 2.27:  Crit Velocity 
 CVMX.mps                 2.45:  Max Crit Veloc 
 DD1 .         Intigam Rahimov:  Direct Drillr 1 
 DD2 .         Rasim Ibrahimov:  Direct Drillr 2 
 DDSV.                 iCruise:  DD Service 
 DEFF.%                  99.00:  % Det Eff 
 DLRX.°/30m               3.28:  Dogleg Rot Max 
 DLSO.°/30m               0.00:  Dogleg Oriented 
 DLSX.°/30m               0.00:  Dogleg Str Max 
 DRET.      23.30.00 18-Jan-20:  Drill End Time 
 DRST.      01.45.00 11-Jan-20:  Drill Start Tim 
 DTIM.hr                 94.00:  Time Drilling 
 EDEP.m                3878.01:  End Depth 
 ENG1.       Dauren Baktybayev:  Engineer 1 
 ENG2.      Natik Hasanaghayev:  Engineer 2 
 ENG3.          Rustam Safarov:  Engineer 3 
 ETIM.      08.00.00 20-Jan-20:  End Time 
 FLOI.gpm               532.00:  Flow In 
 FLON.gpm               500.00:  Flow In Min 
 FLOS.cptm                0.00:  Fluid Loss 
 FLOX.gpm               540.00:  Flow In Max 
 FTRO.       Formation Presure:  FTWD Run Obj 
 HPRE.                     Yes:  High Pressure 
 HTEM.                      No:  High Temp 
 HYDO.m                   1.80:  Hydro Offset 
 IFIN.deg                39.86:  Inc, Final 
 IMAX.deg                59.73:  Inc Max 
 IMIN.deg                39.25:  Inc Min 
 IMND.m                3816.77:  Inc Min Depth 
 IMXD.m                2596.33:  Inc Max Depth 
 JARR.                      No:  Jarring 
 LETM.      23.30.00 18-Jan-20:  Log End Time 
 LOST.hr                     0:  Lost Rig Time 
 LSTM.      01.45.00 11-Jan-20:  Log Start Time 
 MDCL.ppm             41500.00:  Mud Chlorides 
 MDES.     Inversion Oil/Synthetic:  Mud Desc 
 DFD .sg                  1.48:  Mud Density 
 MDMN.sg                  1.48:  Dens Mud Min 
 MDMX.sg                  1.48:  Dens Mud Max 
 MOIL.                      54:  Run Mud Oil % 
 MOWR.                   72:28:  Run Mud OWR 
 MSND.                       0:  Run Mud Sand % 
 MSOL.                      23:  Run Mud Solids% 
 DFV .spqt               86.00:  Mud Viscosity 
 MWOD.in                  6.75:  MWD Tool OD 
 MWSI.                      No:  Serv Intrp, MWD 
 OTIM.hr                223.40:  Time Operating 
 PCON.           Look Like New:  Pad Condition 
 PMAX.psia            32446.79:  Press Op, Max 
 PV  .cP                 49.00:  Mud PV 
 RUN .                     200:  Run Number 
 ROPA.m/hr               12.48:  ROP Avg 
 ROPN.m/hr                8.00:  ROP Min 
 ROPX.m/hr               27.00:  ROP Max 
 RPMA.rpm               121.00:  RPM Surface Avg 
 RPMN.rpm                60.00:  RPM Surface Min 
 RPMX.rpm               140.00:  RPM Surface Max 
 RRUN.                    L202:  Rig Run Number 
 RTIM.hr                  7.25:  Time Reaming 
 SAZI.deg               123.49:  Azm, Start 
 SDEP.m                2585.01:  Start Depth 
 SIDD.                      No:  Serv Intrp, DD 
 SINC.deg                59.93:  Inc, Start 
 SPPA.psig             3539.00:  SPP Avg 
 SPPN.psig             3050.00:  SPP Min 
 SPPX.psig             3950.00:  SPP Max 
 STIM.      19.00.00 10-Jan-20:  Start Time 
 SVCS.                 DD, MWD:  Services 
 SVER.                    9.20:  Sperry Version 
 TDAT.m                1293.00:  Tot Depth Attmp 
 TDDF.                      No:  Trip for DD 
 TDLG.m                1293.00:  Tot Depth Loggd 
 TFF .                      No:  Trip for Fail 
 TQAA.f-kp               16.00:  Torque Abs Avg 
 TQAN.f-kp               11.00:  Torque Abs Min 
 TQAX.f-kp               18.00:  Torque Abs Max 
 TRRT.°/30m               1.25:  Turn Rotating 
 MRT .                  EWR-M5:  Maximum Recorded Temperature 
 TTMX.degC               84.00:  Max Tool Temp 
 VS01.          AZ90514619R5C6:  Virtual Str1 SN 
 VS02.        AZ90552592N2L2C6:  Virtual Str2 SN 
 VS03.        AZ90571337Z1W1C6:  Virtual Str3 SN 
 VS04.         AZ90513690K23C6:  Virtual Str4 SN 
 VS05.           AZ90594857F11:  Virtual Str5 SN 
 VS06.                13102166:  Virtual Str6 SN 
 WBMN.klb                 7.00:  WOB Min 
 WITN.            Peter Wilson:  Customer Rep 
 WOBA.klb                 9.95:  WOB Avg 
 WOBX.klb                10.00:  WOB Max 
 YP  .lhf2               36.00:  Yield Point 
~Curve Information Block
#MNEM.UNIT                 API CODE     Curve Description
#---------               -----------    ---------------------------
 TIME.HHMMSS            00 000 000 000:  GT Time & Date
 GTDEPTH.m              00 000 000 000:  GT Depth
 GTPQH.psia             00 000 000 000:  GT HR Quartz Pressure
 GTTQ.degC              00 000 000 000:  GT Quartz Temperature
 GTTN.NONE              00 000 000 000:  GT Test Number
 GTET.sec               00 000 000 000:  GT Elapsed Test Time
 GTTVD.m                00 000 000 000:  GT True Vertical Depth
#Other Information
#
#WARRANTY: Halliburton will use its best efforts to furnish customers with 
#accurate information and interpretations that are part of, and incident to, the services 
#provided.  However, Halliburton cannot and does not warrant the accuracy 
#or correctness of such information and interpretations.  Under no circumstances should any 
#such information or interpretation be relied upon as the sole basis for any drilling, 
#completion, production, or financial decision or any procedure involving any risk to the 
#safety of any drilling venture, drilling rig or its crew or any other third party.  The 
#Customer has full responsibility for all drilling, completion and production operation.  
#Halliburton makes no representations or warranties, either expressed or 
#implied, including, but not limited to, the implied warranties of merchantability or fitness 
#for a particular purpose, with respect to the services rendered.  In no event will 
#Halliburton be liable for failure to obtain any particular results or for 
#any damages, including, but not limited to, indirect, special or consequential damages, 
#resulting from the use of any information or interpretation provided by Halliburton.
#
~A           TIME           GTDEPTH  GTPQH  GTTQ  GTTN  GTET   GTTVD  
# ...
   17:39:23.905.18-Jan-2020 3785.01 3860.30 82.04 6.00 161.01 2848.88
   17:39:24.105.18-Jan-2020 3785.01 3860.30 82.04 6.00 161.21 2848.88
   17:39:24.305.18-Jan-2020 3785.01 3860.44 82.04 6.00 161.41 2848.88
   17:39:24.505.18-Jan-2020 3785.01 3860.07 82.04 6.00 161.61 2848.88
   17:39:24.705.18-Jan-2020 3785.01 3860.28 82.04 6.00 161.81 2848.88
   17:39:24.905.18-Jan-2020 3785.01 3860.36 82.04 6.00 162.01 2848.88
   17:39:25.105.18-Jan-2020 3785.01 3860.36 82.04 6.00 162.21 2848.88
   17:39:25.305.18-Jan-2020 3785.01 3860.26 82.04 6.00 162.41 2848.88
   17:39:25.505.18-Jan-2020 3785.01 3860.22 82.04 6.00 162.61 2848.88
   17:39:25.705.18-Jan-2020 3785.01 3860.52 82.04 6.00 162.81 2848.88
   17:39:25.905.18-Jan-2020 3785.01 3860.42 82.04 6.00 163.01 2848.88
   17:39:26.105.18-Jan-2020 3785.01 3860.42 82.04 6.00 163.21 2848.88
   17:39:26.305.18-Jan-2020 3785.01 3858.17 82.04 6.00 163.41 2848.88
   17:39:26.505.18-Jan-2020 3785.01 3860.13 82.04 6.00 163.61 2848.88
   17:39:26.705.18-Jan-2020 3785.01 3860.25 82.04 6.00 163.81 2848.88
   17:39:26.905.18-Jan-2020 3785.01 3860.21 82.04 6.00 164.01 2848.88
   17:39:27.105.18-Jan-2020 3785.01 3860.21 82.04 6.00 164.21 2848.88
   17:39:27.305.18-Jan-2020 3785.01 3860.50 82.04 6.00 164.41 2848.88
   17:39:27.505.18-Jan-2020 3785.01 3860.13 82.04 6.00 164.61 2848.88
   17:39:27.705.18-Jan-2020 3785.01 3860.04 82.04 6.00 164.81 2848.88
   17:39:27.905.18-Jan-2020 3785.01 3860.34 82.04 6.00 165.01 2848.88
   17:39:28.105.18-Jan-2020 3785.01 3860.34 82.04 6.00 165.21 2848.88
   17:39:28.305.18-Jan-2020 3785.01 3860.22 82.04 6.00 165.41 2848.88
   17:39:28.505.18-Jan-2020 3785.01 3859.84 82.04 6.00 165.61 2848.88
   17:39:28.705.18-Jan-2020 3785.01 3858.13 82.04 6.00 165.81 2848.88
   17:39:28.905.18-Jan-2020 3785.01 3859.92 82.04 6.00 166.01 2848.88
   17:39:29.105.18-Jan-2020 3785.01 3859.92 82.04 6.00 166.21 2848.88
   17:39:29.305.18-Jan-2020 3785.01 3857.97 82.04 6.00 166.41 2848.88
   17:39:29.505.18-Jan-2020 3785.01 3860.26 82.04 6.00 166.61 2848.88
   17:39:29.705.18-Jan-2020 3785.01 3860.22 82.04 6.00 166.81 2848.88
   17:39:29.905.18-Jan-2020 3785.01 3860.05 82.03 6.00 167.01 2848.88
   17:39:30.105.18-Jan-2020 3785.01 3860.05 82.03 6.00 167.21 2848.88
   17:39:30.305.18-Jan-2020 3785.01 3859.28 82.03 6.00 167.41 2848.88
   17:39:30.505.18-Jan-2020 3785.01 3859.79 82.03 6.00 167.61 2848.88
   17:39:30.705.18-Jan-2020 3785.01 3860.01 82.03 6.00 167.81 2848.88
   17:39:30.905.18-Jan-2020 3785.01 3859.85 82.03 6.00 168.01 2848.88
   17:39:31.105.18-Jan-2020 3785.01 3859.85 82.03 6.00 168.21 2848.88
   17:39:31.305.18-Jan-2020 3785.01 3859.73 82.03 6.00 168.41 2848.88
   17:39:31.505.18-Jan-2020 3785.01 3857.64 82.03 6.00 168.61 2848.88
   17:39:31.705.18-Jan-2020 3785.01 3859.83 82.03 6.00 168.81 2848.88
   17:39:31.905.18-Jan-2020 3785.01 3859.72 82.03 6.00 169.01 2848.88
   17:39:32.105.18-Jan-2020 3785.01 3859.72 82.03 6.00 169.21 2848.88
   17:39:32.305.18-Jan-2020 3785.01 3859.75 82.03 6.00 169.41 2848.88
   17:39:32.505.18-Jan-2020 3785.01 3859.86 82.03 6.00 169.61 2848.88
   17:39:32.705.18-Jan-2020 3785.01 3859.83 82.03 6.00 169.81 2848.88
   17:39:32.905.18-Jan-2020 3785.01 3859.69 82.03 6.00 170.01 2848.88
   17:39:33.105.18-Jan-2020 3785.01 3859.69 82.03 6.00 170.21 2848.88
   17:39:33.305.18-Jan-2020 3785.01 3859.49 82.03 6.00 170.41 2848.88
   17:39:33.506.18-Jan-2020 3785.01 3859.87 82.03 6.00 170.61 2848.88
   17:39:33.706.18-Jan-2020 3785.01 3859.72 82.03 6.00 170.81 2848.88
   17:39:33.906.18-Jan-2020 3785.01 3859.81 82.03 6.00 171.01 2848.88
   17:39:34.106.18-Jan-2020 3785.01 3859.81 82.03 6.00 171.21 2848.88
   17:39:34.306.18-Jan-2020 3785.01 3859.75 82.03 6.00 171.41 2848.88
   17:39:34.506.18-Jan-2020 3785.01 3859.78 82.03 6.00 171.61 2848.88
   17:39:34.706.18-Jan-2020 3785.01 3859.78 82.03 6.00 171.81 2848.88
   17:39:34.906.18-Jan-2020 3785.01 3859.69 82.03 6.00 172.01 2848.88
   17:39:35.106.18-Jan-2020 3785.01 3859.69 82.03 6.00 172.21 2848.88
   17:39:35.306.18-Jan-2020 3785.01 3859.77 82.03 6.00 172.41 2848.88
   17:39:35.506.18-Jan-2020 3785.01 3859.87 82.03 6.00 172.61 2848.88
   17:39:35.706.18-Jan-2020 3785.01 3859.90 82.03 6.00 172.81 2848.88
   17:39:35.906.18-Jan-2020 3785.01 3860.04 82.03 6.00 173.01 2848.88
   17:39:36.106.18-Jan-2020 3785.01 3860.04 82.03 6.00 173.21 2848.88
   17:39:36.306.18-Jan-2020 3785.01 3859.82 82.03 6.00 173.41 2848.88
   17:39:36.506.18-Jan-2020 3785.01 3860.14 82.03 6.00 173.61 2848.88
   17:39:36.706.18-Jan-2020 3785.01 3859.92 82.02 6.00 173.81 2848.88
   17:39:36.906.18-Jan-2020 3785.01 3860.03 82.02 6.00 174.01 2848.88
   17:39:37.106.18-Jan-2020 3785.01 3860.03 82.02 6.00 174.21 2848.88
   17:39:37.306.18-Jan-2020 3785.01 3859.10 82.02 6.00 174.41 2848.88
   17:39:37.506.18-Jan-2020 3785.01 3858.66 82.02 6.00 174.61 2848.88
   17:39:37.706.18-Jan-2020 3785.01 3859.52 82.02 6.00 174.81 2848.88
   17:39:37.906.18-Jan-2020 3785.01 3859.56 82.02 6.00 175.01 2848.88
   17:39:38.106.18-Jan-2020 3785.01 3859.56 82.02 6.00 175.21 2848.88
   17:39:38.306.18-Jan-2020 3785.01 3859.92 82.02 6.00 175.41 2848.88
   17:39:38.506.18-Jan-2020 3785.01 3860.09 82.02 6.00 175.61 2848.88
   17:39:38.706.18-Jan-2020 3785.01 3859.89 82.02 6.00 175.81 2848.88
   17:39:38.906.18-Jan-2020 3785.01 3857.97 82.02 6.00 176.01 2848.88
   17:39:39.106.18-Jan-2020 3785.01 3857.97 82.02 6.00 176.21 2848.88
   17:39:39.306.18-Jan-2020 3785.01 3858.60 82.02 6.00 176.41 2848.88
   17:39:39.506.18-Jan-2020 3785.01 3510.19 82.02 6.00 176.61 2848.88
   17:39:39.706.18-Jan-2020 3785.01 3056.38 82.02 6.00 176.81 2848.88
   17:39:39.906.18-Jan-2020 3785.01 2650.84 82.02 6.00 177.01 2848.88
   17:39:40.106.18-Jan-2020 3785.01 2650.84 82.02 6.00 177.21 2848.88
   17:39:40.306.18-Jan-2020 3785.01 2002.44 82.02 6.00 177.41 2848.88
   17:39:40.506.18-Jan-2020 3785.01 1730.74 82.02 6.00 177.61 2848.88
   17:39:40.706.18-Jan-2020 3785.01 1476.29 82.02 6.00 177.81 2848.88
   17:39:40.906.18-Jan-2020 3785.01 1236.69 82.02 6.00 178.01 2848.88
   17:39:41.106.18-Jan-2020 3785.01 1236.69 82.02 6.00 178.21 2848.88
   17:39:41.306.18-Jan-2020 3785.01  948.30 82.01 6.00 178.41 2848.88
   17:39:41.506.18-Jan-2020 3785.01  854.35 82.01 6.00 178.61 2848.88
   17:39:41.706.18-Jan-2020 3785.01  768.56 82.01 6.00 178.81 2848.88
   17:39:41.906.18-Jan-2020 3785.01  685.19 82.01 6.00 179.01 2848.88
   17:39:42.106.18-Jan-2020 3785.01  685.19 82.01 6.00 179.21 2848.88
   17:39:42.306.18-Jan-2020 3785.01  563.07 82.00 6.00 179.41 2848.88
   17:39:42.506.18-Jan-2020 3785.01  555.75 82.00 6.00 179.61 2848.88
   17:39:42.706.18-Jan-2020 3785.01  549.30 82.00 6.00 179.81 2848.88
   17:39:42.906.18-Jan-2020 3785.01  550.97 82.00 6.00 180.01 2848.88
   17:39:43.106.18-Jan-2020 3785.01  550.97 82.00 6.00 180.21 2848.88
   17:39:43.306.18-Jan-2020 3785.01  546.83 81.99 6.00 180.41 2848.88
   17:39:43.506.18-Jan-2020 3785.01  545.39 81.99 6.00 180.61 2848.88
   17:39:43.706.18-Jan-2020 3785.01  553.92 81.99 6.00 180.81 2848.88
   17:39:43.906.18-Jan-2020 3785.01  572.06 81.98 6.00 181.01 2848.88
   17:39:44.106.18-Jan-2020 3785.01  572.06 81.98 6.00 181.21 2848.88
   17:39:44.306.18-Jan-2020 3785.01  548.34 81.98 6.00 181.41 2848.88
   17:39:44.506.18-Jan-2020 3785.01  533.08 81.98 6.00 181.61 2848.88
   17:39:44.706.18-Jan-2020 3785.01  534.45 81.97 6.00 181.81 2848.88
   17:39:44.906.18-Jan-2020 3785.01  534.01 81.97 6.00 182.01 2848.88
   17:39:45.106.18-Jan-2020 3785.01  534.01 81.97 6.00 182.21 2848.88
   17:39:45.306.18-Jan-2020 3785.01  553.28 81.97 6.00 182.41 2848.88
   17:39:45.506.18-Jan-2020 3785.01  665.13 81.96 6.00 182.61 2848.88
   17:39:45.706.18-Jan-2020 3785.01  742.50 81.96 6.00 182.81 2848.88
   17:39:45.906.18-Jan-2020 3785.01  791.82 81.96 6.00 183.01 2848.88
   17:39:46.106.18-Jan-2020 3785.01  791.82 81.96 6.00 183.21 2848.88
   17:39:46.306.18-Jan-2020 3785.01  797.76 81.96 6.00 183.41 2848.88
   17:39:46.506.18-Jan-2020 3785.01  801.54 81.95 6.00 183.61 2848.88
   17:39:46.706.18-Jan-2020 3785.01  811.52 81.95 6.00 183.81 2848.88
