~Version Information
 VERS.                  2.0:   CWLS log ASCII Standard -VERSION 2.0
 WRAP.                   NO:   One line per depth step
~Well Information Block
#MNEM.UNIT     VALUE/NAME     DESCRIPTION
#---------     -----------    ---------------------------
 STRT.S             05:39:19 18-Jan-20: START TIME 05:39:19 18-Jan-20
 STOP.S             05:47:35 18-Jan-20: STOP TIME  05:47:35 18-Jan-20
 STEP.S                   0.00: STEP TIME
 NULL.                 -999.25: NULL VALUE
 DFWT.                        :  DIST FWL TEXT
 DFST.                        :  DIST FSL TEXT
 DMF .             Drill Floor:  DRILL MEAS FROM
 STIM.      09.30.00 26-Dec-19:  START TIME
 DATE.      08.00.00 20-Jan-20:  END TIME
 SPUD.               23-Nov-19:  SPUD DATE
 NREF.                    Grid:  NORTH REFERENCE
 HPTY.       Minimum Curvature:  HOLE POS TYPE
 DMOD.             Drill Model:  DRILL MOD DESC
 SVYD.                  Survey:  SURVEY DESC
 ILTD.               Lithology:  INTERP LTH DESC
 FTOP.          Formation Tops:  FORM TOPS DESC
 SON .        AZ-XX-0906192647:  JOB NUMBER
 WTYP.                Deviated:  WELL TYPE
 COMP.     BP Exploration (Caspian Sea) Ltd:  COMPANY
 BASE.              Azerbaijan:  LOGGING EQUIPMENT BASE LOCATION
 REGN.                 Eurasia:  REGION
 FLD .                     ACG:  FIELD NAME
 SRVC.              KCA Deutag:  CONTRACTOR
 MWDS.                    Baku:  MWD SHOP
 WELL.     A10 (Slot 20) - SCP:  WELL NAME
 JOBN.        AZ-XX-0906192647:  JOB TICKET NUMB
 RIG .                 Chirag1:  RIG NAME
 DCON.     Halliburton Sperry Drilling:  DIRECTNL CONTR
 UNIT.                     N/A:  LOGGING EQUIPMENT ID
 PDAT.          Mean Sea Level:  PERMANENT DATUM
 MDS .        Operator Entered:  MAG DATA SOURCE
 CTRY.              Azerbaijan:  COUNTRY NAME
 UWI .            /AZE00000090:  UNIQUE WELL IDENTIFIER
 API .            /AZE00000090:  API NUMBER
 CNTY.                        :  COUNTY
 PROV.                        :  PROVINCE
 STAT.                        :  STATE
 LOC .                        :  LOCATION
 LMF .             Drill Floor:  LOG MEASURED FROM
 TVDS.m                  36.60:  TVDSS CORRECTN
 LATI.deg                40.08:  LATITUDE
 LONG.deg                51.24:  LONGITUDE
 WHNS.m                  -7.94:  WELL HEAD N/S
 WHEW.m                   1.56:  WELL HEAD E/W
 UTMX.m              520429.26:  UTM X
 UTMY.m             4438973.87:  UTM Y
 DFWL.m                   0.00:  DISTANCE FWL
 DFSL.m                   0.00:  DISTANCE FSL
 SDEP.m                1455.00:  START DEPTH
 TDD .m                3878.01:  TOTAL DEPTH (DRILLER)
 VSDR.deg               112.75:  VERT SEC DIRECT
 GVFD.g                   1.00:  GRAVITY FIELD
 MFLD.nT              50256.00:  MAGNETIC FIELD
 MDIP.deg                59.52:  MAGNETIC DIP
 MDEC.deg                 6.43:  MAGNETIC DECL
 GRDC.deg                 0.16:  GRID CORRECTION
 AZTC.deg                 6.27:  AZM TOTAL CORR
 EPD .m                   0.00:  ELEVATION
 EGL .m                   0.00:  GROUND ELEVATION
 WDMS.m                 121.00:  WD ELEV
 APD .m                  36.60:  DEPTH ABOVE PD
 AGAP.m                  36.60:  AIR GAP
 VSEW.m                   1.56:  VERT SEC E/W
 VSNS.m                  -7.94:  VERT SEC N/S
 DEP .m                1140.01:  DEPTH
 EKB .m                  36.60:  KB ELEVATION
 EDF .m                  36.60:  DF ELEVATION
 TDL .m                1293.00:  TOTAL DEPTH (LOGGER)
 VSC .                       0:  VS TO CLOSURE
 MAGU.                 1849164:  MAGUTM CHECKSUM
~Parameter Information Block
#MNEM.UNIT       Value        Description
#---------     -----------    ---------------------------
 AV  .mps                 2.40:  Ann Velocity 
 AVMX.mps                 2.55:  Max Ann Veloc 
 AZIF.deg               134.35:  Azm, Final 
 BHAT.        Rotary Steerable:  BHA Type 
 BREV.rev               847.00:  Rev Bit Total 
 BROT.∞/30m              -2.51:  Build Rotating 
 BS  .in                  8.50:  Bit Size 
 BSZ .in                  8.50:  Bit Size 
 BTPL.psig              700.00:  Bit Press Loss 
 CABU.                     Yes:  Customer Abuse 
 CGEO.          Ilgar Gurbanov:  Customer Geo 
 COMM.                     ‹êX:  Run Comments 1 
 TCS .hr                140.40:  Time Ciculation Ended 
 CV  .mps                 2.27:  Crit Velocity 
 CVMX.mps                 2.45:  Max Crit Veloc 
 DD1 .         Intigam Rahimov:  Direct Drillr 1 
 DD2 .         Rasim Ibrahimov:  Direct Drillr 2 
 DDSV.                 iCruise:  DD Service 
 DEFF.%                  99.00:  % Det Eff 
 DLRX.∞/30m               3.28:  Dogleg Rot Max 
 DLSO.∞/30m               0.00:  Dogleg Oriented 
 DLSX.∞/30m               0.00:  Dogleg Str Max 
 DRET.      23.30.00 18-Jan-20:  Drill End Time 
 DRST.      01.45.00 11-Jan-20:  Drill Start Tim 
 DTIM.hr                 94.00:  Time Drilling 
 EDEP.m                3878.01:  End Depth 
 ENG1.       Dauren Baktybayev:  Engineer 1 
 ENG2.      Natik Hasanaghayev:  Engineer 2 
 ENG3.          Rustam Safarov:  Engineer 3 
 ETIM.      08.00.00 20-Jan-20:  End Time 
 FLOI.gpm               532.00:  Flow In 
 FLON.gpm               500.00:  Flow In Min 
 FLOS.cptm                0.00:  Fluid Loss 
 FLOX.gpm               540.00:  Flow In Max 
 FTRO.       Formation Presure:  FTWD Run Obj 
 HPRE.                     Yes:  High Pressure 
 HTEM.                      No:  High Temp 
 HYDO.m                   1.80:  Hydro Offset 
 IFIN.deg                39.86:  Inc, Final 
 IMAX.deg                59.73:  Inc Max 
 IMIN.deg                39.25:  Inc Min 
 IMND.m                3816.77:  Inc Min Depth 
 IMXD.m                2596.33:  Inc Max Depth 
 JARR.                      No:  Jarring 
 LETM.      23.30.00 18-Jan-20:  Log End Time 
 LOST.hr                     0:  Lost Rig Time 
 LSTM.      01.45.00 11-Jan-20:  Log Start Time 
 MDCL.ppm             41500.00:  Mud Chlorides 
 MDES.     Inversion Oil/Synthetic:  Mud Desc 
 DFD .sg                  1.48:  Mud Density 
 MDMN.sg                  1.48:  Dens Mud Min 
 MDMX.sg                  1.48:  Dens Mud Max 
 MOIL.                      54:  Run Mud Oil % 
 MOWR.                   72:28:  Run Mud OWR 
 MSND.                       0:  Run Mud Sand % 
 MSOL.                      23:  Run Mud Solids% 
 DFV .spqt               86.00:  Mud Viscosity 
 MWOD.in                  6.75:  MWD Tool OD 
 MWSI.                      No:  Serv Intrp, MWD 
 OTIM.hr                223.40:  Time Operating 
 PCON.           Look Like New:  Pad Condition 
 PMAX.psia            32446.79:  Press Op, Max 
 PV  .cP                 49.00:  Mud PV 
 RUN .                     200:  Run Number 
 ROPA.m/hr               12.48:  ROP Avg 
 ROPN.m/hr                8.00:  ROP Min 
 ROPX.m/hr               27.00:  ROP Max 
 RPMA.rpm               121.00:  RPM Surface Avg 
 RPMN.rpm                60.00:  RPM Surface Min 
 RPMX.rpm               140.00:  RPM Surface Max 
 RRUN.                    L202:  Rig Run Number 
 RTIM.hr                  7.25:  Time Reaming 
 SAZI.deg               123.49:  Azm, Start 
 SDEP.m                2585.01:  Start Depth 
 SIDD.                      No:  Serv Intrp, DD 
 SINC.deg                59.93:  Inc, Start 
 SPPA.psig             3539.00:  SPP Avg 
 SPPN.psig             3050.00:  SPP Min 
 SPPX.psig             3950.00:  SPP Max 
 STIM.      19.00.00 10-Jan-20:  Start Time 
 SVCS.                 DD, MWD:  Services 
 SVER.                    9.20:  Sperry Version 
 TDAT.m                1293.00:  Tot Depth Attmp 
 TDDF.                      No:  Trip for DD 
 TDLG.m                1293.00:  Tot Depth Loggd 
 TFF .                      No:  Trip for Fail 
 TQAA.f-kp               16.00:  Torque Abs Avg 
 TQAN.f-kp               11.00:  Torque Abs Min 
 TQAX.f-kp               18.00:  Torque Abs Max 
 TRRT.∞/30m               1.25:  Turn Rotating 
 MRT .                  EWR-M5:  Maximum Recorded Temperature 
 TTMX.degC               84.00:  Max Tool Temp 
 VS01.          AZ90514619R5C6:  Virtual Str1 SN 
 VS02.        AZ90552592N2L2C6:  Virtual Str2 SN 
 VS03.        AZ90571337Z1W1C6:  Virtual Str3 SN 
 VS04.         AZ90513690K23C6:  Virtual Str4 SN 
 VS05.           AZ90594857F11:  Virtual Str5 SN 
 VS06.                13102166:  Virtual Str6 SN 
 WBMN.klb                 7.00:  WOB Min 
 WITN.            Peter Wilson:  Customer Rep 
 WOBA.klb                 9.95:  WOB Avg 
 WOBX.klb                10.00:  WOB Max 
 YP  .lhf2               36.00:  Yield Point 
~Curve Information Block
#MNEM.UNIT                 API CODE     Curve Description
#---------               -----------    ---------------------------
 TIME.HHMMSS            00 000 000 000:  GT Time & Date
 GTDEPTH.m              00 000 000 000:  GT Depth
 GTPQH.psia             00 000 000 000:  GT HR Quartz Pressure
 GTTQ.degC              00 000 000 000:  GT Quartz Temperature
 GTTN.NONE              00 000 000 000:  GT Test Number
 GTET.sec               00 000 000 000:  GT Elapsed Test Time
 GTTVD.m                00 000 000 000:  GT True Vertical Depth
#Other Information
#
#WARRANTY: Halliburton will use its best efforts to furnish customers with 
#accurate information and interpretations that are part of, and incident to, the services 
#provided.  However, Halliburton cannot and does not warrant the accuracy 
#or correctness of such information and interpretations.  Under no circumstances should any 
#such information or interpretation be relied upon as the sole basis for any drilling, 
#completion, production, or financial decision or any procedure involving any risk to the 
#safety of any drilling venture, drilling rig or its crew or any other third party.  The 
#Customer has full responsibility for all drilling, completion and production operation.  
#Halliburton makes no representations or warranties, either expressed or 
#implied, including, but not limited to, the implied warranties of merchantability or fitness 
#for a particular purpose, with respect to the services rendered.  In no event will 
#Halliburton be liable for failure to obtain any particular results or for 
#any damages, including, but not limited to, indirect, special or consequential damages, 
#resulting from the use of any information or interpretation provided by Halliburton.
#
~A           TIME           GTDEPTH  GTPQH  GTTQ  GTTN  GTET   GTTVD  
# ...
   05:43:32.568.18-Jan-2020 3717.66 4263.01 78.20 2.00 253.07 2797.70
   05:43:32.768.18-Jan-2020 3717.66 4263.01 78.20 2.00 253.27 2797.70
   05:43:32.969.18-Jan-2020 3717.66 4263.19 78.20 2.00 253.47 2797.70
   05:43:33.169.18-Jan-2020 3717.66 4263.18 78.20 2.00 253.67 2797.70
   05:43:33.369.18-Jan-2020 3717.66 4263.10 78.20 2.00 253.87 2797.70
   05:43:33.569.18-Jan-2020 3717.66 4263.23 78.20 2.00 254.07 2797.70
   05:43:33.769.18-Jan-2020 3717.66 4263.23 78.20 2.00 254.27 2797.70
   05:43:33.969.18-Jan-2020 3717.66 4263.20 78.20 2.00 254.47 2797.70
   05:43:34.169.18-Jan-2020 3717.66 4263.12 78.20 2.00 254.67 2797.70
   05:43:34.369.18-Jan-2020 3717.66 4263.13 78.20 2.00 254.87 2797.70
   05:43:34.569.18-Jan-2020 3717.66 4263.19 78.20 2.00 255.07 2797.70
   05:43:34.769.18-Jan-2020 3717.66 4263.19 78.20 2.00 255.27 2797.70
   05:43:34.969.18-Jan-2020 3717.66 4263.19 78.20 2.00 255.47 2797.70
   05:43:35.169.18-Jan-2020 3717.66 4263.00 78.20 2.00 255.67 2797.70
   05:43:35.369.18-Jan-2020 3717.66 4263.26 78.20 2.00 255.87 2797.70
   05:43:35.569.18-Jan-2020 3717.66 4263.16 78.20 2.00 256.07 2797.70
   05:43:35.769.18-Jan-2020 3717.66 4263.16 78.20 2.00 256.27 2797.70
   05:43:35.969.18-Jan-2020 3717.66 4263.08 78.20 2.00 256.47 2797.70
   05:43:36.169.18-Jan-2020 3717.66 4263.24 78.20 2.00 256.67 2797.70
   05:43:36.369.18-Jan-2020 3717.66 4263.14 78.20 2.00 256.87 2797.70
   05:43:36.570.18-Jan-2020 3717.66 4263.20 78.20 2.00 257.07 2797.70
   05:43:36.770.18-Jan-2020 3717.66 4263.20 78.20 2.00 257.27 2797.70
   05:43:36.970.18-Jan-2020 3717.66 4263.12 78.20 2.00 257.47 2797.70
   05:43:37.170.18-Jan-2020 3717.66 4263.18 78.20 2.00 257.67 2797.70
   05:43:37.370.18-Jan-2020 3717.66 4263.22 78.20 2.00 257.87 2797.70
   05:43:37.570.18-Jan-2020 3717.66 4263.00 78.20 2.00 258.07 2797.70
   05:43:37.770.18-Jan-2020 3717.66 4263.00 78.20 2.00 258.27 2797.70
   05:43:37.970.18-Jan-2020 3717.66 4263.29 78.20 2.00 258.47 2797.70
   05:43:38.170.18-Jan-2020 3717.66 4263.35 78.20 2.00 258.67 2797.70
   05:43:38.370.18-Jan-2020 3717.66 4263.11 78.20 2.00 258.87 2797.70
   05:43:38.570.18-Jan-2020 3717.66 4263.09 78.20 2.00 259.07 2797.70
   05:43:38.770.18-Jan-2020 3717.66 4263.09 78.20 2.00 259.27 2797.70
   05:43:38.970.18-Jan-2020 3717.66 4263.33 78.20 2.00 259.47 2797.70
   05:43:39.170.18-Jan-2020 3717.66 4263.20 78.20 2.00 259.67 2797.70
   05:43:39.370.18-Jan-2020 3717.66 4263.10 78.20 2.00 259.87 2797.70
   05:43:39.570.18-Jan-2020 3717.66 4262.97 78.20 2.00 260.07 2797.70
   05:43:39.770.18-Jan-2020 3717.66 4262.97 78.20 2.00 260.27 2797.70
   05:43:39.971.18-Jan-2020 3717.66 4263.15 78.20 2.00 260.47 2797.70
   05:43:40.171.18-Jan-2020 3717.66 4263.29 78.20 2.00 260.67 2797.70
   05:43:40.371.18-Jan-2020 3717.66 4263.11 78.20 2.00 260.87 2797.70
   05:43:40.571.18-Jan-2020 3717.66 4263.22 78.20 2.00 261.07 2797.70
   05:43:40.771.18-Jan-2020 3717.66 4263.22 78.20 2.00 261.27 2797.70
   05:43:40.971.18-Jan-2020 3717.66 4263.43 78.20 2.00 261.47 2797.70
   05:43:41.171.18-Jan-2020 3717.66 4263.11 78.20 2.00 261.67 2797.70
   05:43:41.371.18-Jan-2020 3717.66 4263.21 78.20 2.00 261.87 2797.70
   05:43:41.571.18-Jan-2020 3717.66 4263.15 78.20 2.00 262.07 2797.70
   05:43:41.771.18-Jan-2020 3717.66 4263.15 78.20 2.00 262.27 2797.70
   05:43:41.971.18-Jan-2020 3717.66 4263.09 78.20 2.00 262.47 2797.70
   05:43:42.171.18-Jan-2020 3717.66 4263.18 78.20 2.00 262.67 2797.70
   05:43:42.371.18-Jan-2020 3717.66 4263.19 78.20 2.00 262.87 2797.70
   05:43:42.571.18-Jan-2020 3717.66 4263.26 78.20 2.00 263.07 2797.70
   05:43:42.771.18-Jan-2020 3717.66 4263.26 78.20 2.00 263.27 2797.70
   05:43:42.971.18-Jan-2020 3717.66 4263.16 78.20 2.00 263.47 2797.70
   05:43:43.171.18-Jan-2020 3717.66 4263.13 78.20 2.00 263.67 2797.70
   05:43:43.371.18-Jan-2020 3717.66 4263.14 78.20 2.00 263.87 2797.70
   05:43:43.572.18-Jan-2020 3717.66 4263.25 78.20 2.00 264.07 2797.70
   05:43:43.772.18-Jan-2020 3717.66 4263.25 78.20 2.00 264.27 2797.70
   05:43:43.972.18-Jan-2020 3717.66 4263.20 78.20 2.00 264.47 2797.70
   05:43:44.172.18-Jan-2020 3717.66 4262.98 78.20 2.00 264.67 2797.70
   05:43:44.372.18-Jan-2020 3717.66 4263.37 78.20 2.00 264.88 2797.70
   05:43:44.572.18-Jan-2020 3717.66 4263.15 78.20 2.00 265.08 2797.70
   05:43:44.772.18-Jan-2020 3717.66 4263.15 78.20 2.00 265.28 2797.70
   05:43:44.972.18-Jan-2020 3717.66 4263.17 78.20 2.00 265.48 2797.70
   05:43:45.172.18-Jan-2020 3717.66 4263.15 78.20 2.00 265.68 2797.70
   05:43:45.372.18-Jan-2020 3717.66 4263.18 78.20 2.00 265.88 2797.70
   05:43:45.572.18-Jan-2020 3717.66 4263.16 78.20 2.00 266.08 2797.70
   05:43:45.772.18-Jan-2020 3717.66 4263.16 78.20 2.00 266.28 2797.70
   05:43:45.972.18-Jan-2020 3717.66 4263.20 78.20 2.00 266.48 2797.70
   05:43:46.172.18-Jan-2020 3717.66 4263.23 78.20 2.00 266.68 2797.70
   05:43:46.372.18-Jan-2020 3717.66 4263.12 78.20 2.00 266.88 2797.70
   05:43:46.572.18-Jan-2020 3717.66 4263.00 78.20 2.00 267.08 2797.70
   05:43:46.772.18-Jan-2020 3717.66 4263.00 78.20 2.00 267.28 2797.70
   05:43:46.972.18-Jan-2020 3717.66 4263.25 78.20 2.00 267.48 2797.70
   05:43:47.173.18-Jan-2020 3717.66 4263.20 78.20 2.00 267.68 2797.70
   05:43:47.373.18-Jan-2020 3717.66 4263.19 78.20 2.00 267.88 2797.70
   05:43:47.573.18-Jan-2020 3717.66 4263.06 78.20 2.00 268.08 2797.70
   05:43:47.773.18-Jan-2020 3717.66 4263.06 78.20 2.00 268.28 2797.70
   05:43:47.973.18-Jan-2020 3717.66 4263.45 78.20 2.00 268.48 2797.70
   05:43:48.173.18-Jan-2020 3717.66 4262.97 78.20 2.00 268.68 2797.70
   05:43:48.373.18-Jan-2020 3717.66 4263.21 78.20 2.00 268.88 2797.70
   05:43:48.573.18-Jan-2020 3717.66 4262.94 78.20 2.00 269.08 2797.70
   05:43:48.773.18-Jan-2020 3717.66 4262.94 78.20 2.00 269.28 2797.70
   05:43:48.973.18-Jan-2020 3717.66 4263.10 78.20 2.00 269.48 2797.70
   05:43:49.173.18-Jan-2020 3717.66 4263.21 78.20 2.00 269.68 2797.70
   05:43:49.373.18-Jan-2020 3717.66 4263.21 78.20 2.00 269.88 2797.70
   05:43:49.573.18-Jan-2020 3717.66 4263.03 78.19 2.00 270.08 2797.70
   05:43:49.773.18-Jan-2020 3717.66 4263.03 78.19 2.00 270.28 2797.70
   05:43:49.973.18-Jan-2020 3717.66 4263.24 78.19 2.00 270.48 2797.70
   05:43:50.173.18-Jan-2020 3717.66 4263.29 78.20 2.00 270.68 2797.70
   05:43:50.373.18-Jan-2020 3717.66 4263.09 78.19 2.00 270.88 2797.70
   05:43:50.574.18-Jan-2020 3717.66 4263.24 78.19 2.00 271.08 2797.70
   05:43:50.774.18-Jan-2020 3717.66 4263.24 78.19 2.00 271.28 2797.70
   05:43:50.974.18-Jan-2020 3717.66 4263.10 78.19 2.00 271.48 2797.70
   05:43:51.174.18-Jan-2020 3717.66 4263.21 78.19 2.00 271.68 2797.70
   05:43:51.374.18-Jan-2020 3717.66 4263.22 78.19 2.00 271.88 2797.70
   05:43:51.574.18-Jan-2020 3717.66 4263.22 78.19 2.00 272.08 2797.70
   05:43:51.774.18-Jan-2020 3717.66 4263.22 78.19 2.00 272.28 2797.70
   05:43:51.974.18-Jan-2020 3717.66 4263.13 78.19 2.00 272.48 2797.70
   05:43:52.174.18-Jan-2020 3717.66 4263.15 78.19 2.00 272.68 2797.70
   05:43:52.374.18-Jan-2020 3717.66 4263.19 78.19 2.00 272.88 2797.70
   05:43:52.574.18-Jan-2020 3717.66 4263.22 78.19 2.00 273.08 2797.70
   05:43:52.774.18-Jan-2020 3717.66 4263.22 78.19 2.00 273.28 2797.70
   05:43:52.974.18-Jan-2020 3717.66 4263.02 78.19 2.00 273.48 2797.70
   05:43:53.174.18-Jan-2020 3717.66 4263.25 78.19 2.00 273.68 2797.70
   05:43:53.374.18-Jan-2020 3717.66 4263.17 78.19 2.00 273.88 2797.70
   05:43:53.574.18-Jan-2020 3717.66 4263.36 78.19 2.00 274.08 2797.70
   05:43:53.774.18-Jan-2020 3717.66 4263.36 78.19 2.00 274.28 2797.70
   05:43:53.974.18-Jan-2020 3717.66 4263.20 78.19 2.00 274.48 2797.70
   05:43:54.175.18-Jan-2020 3717.66 4263.18 78.19 2.00 274.68 2797.70
   05:43:54.375.18-Jan-2020 3717.66 4263.19 78.19 2.00 274.88 2797.70
   05:43:54.575.18-Jan-2020 3717.66 4263.13 78.19 2.00 275.08 2797.70
   05:43:54.775.18-Jan-2020 3717.66 4263.13 78.19 2.00 275.28 2797.70
   05:43:54.975.18-Jan-2020 3717.66 4263.21 78.19 2.00 275.48 2797.70
   05:43:55.175.18-Jan-2020 3717.66 4263.19 78.19 2.00 275.68 2797.70
   05:43:55.375.18-Jan-2020 3717.66 4263.01 78.19 2.00 275.88 2797.70
