~Version Information
 VERS.                  2.0:   CWLS log ASCII Standard -VERSION 2.0
 WRAP.                   NO:   One line per depth step
~Well Information Block
#MNEM.UNIT     VALUE/NAME     DESCRIPTION
#---------     -----------    ---------------------------
 STRT.S             09:16:51 18-Jan-20: START TIME 09:16:51 18-Jan-20
 STOP.S             09:25:06 18-Jan-20: STOP TIME  09:25:06 18-Jan-20
 STEP.S                   0.00: STEP TIME
 NULL.                 -999.25: NULL VALUE
 DFWT.                        :  DIST FWL TEXT
 DFST.                        :  DIST FSL TEXT
 DMF .             Drill Floor:  DRILL MEAS FROM
 STIM.      09.30.00 26-Dec-19:  START TIME
 DATE.      08.00.00 20-Jan-20:  END TIME
 SPUD.               23-Nov-19:  SPUD DATE
 NREF.                    Grid:  NORTH REFERENCE
 HPTY.       Minimum Curvature:  HOLE POS TYPE
 DMOD.             Drill Model:  DRILL MOD DESC
 SVYD.                  Survey:  SURVEY DESC
 ILTD.               Lithology:  INTERP LTH DESC
 FTOP.          Formation Tops:  FORM TOPS DESC
 SON .        AZ-XX-0906192647:  JOB NUMBER
 WTYP.                Deviated:  WELL TYPE
 COMP.     BP Exploration (Caspian Sea) Ltd:  COMPANY
 BASE.              Azerbaijan:  LOGGING EQUIPMENT BASE LOCATION
 REGN.                 Eurasia:  REGION
 FLD .                     ACG:  FIELD NAME
 SRVC.              KCA Deutag:  CONTRACTOR
 MWDS.                    Baku:  MWD SHOP
 WELL.     A10 (Slot 20) - SCP:  WELL NAME
 JOBN.        AZ-XX-0906192647:  JOB TICKET NUMB
 RIG .                 Chirag1:  RIG NAME
 DCON.     Halliburton Sperry Drilling:  DIRECTNL CONTR
 UNIT.                     N/A:  LOGGING EQUIPMENT ID
 PDAT.          Mean Sea Level:  PERMANENT DATUM
 MDS .        Operator Entered:  MAG DATA SOURCE
 CTRY.              Azerbaijan:  COUNTRY NAME
 UWI .            /AZE00000090:  UNIQUE WELL IDENTIFIER
 API .            /AZE00000090:  API NUMBER
 CNTY.                        :  COUNTY
 PROV.                        :  PROVINCE
 STAT.                        :  STATE
 LOC .                        :  LOCATION
 LMF .             Drill Floor:  LOG MEASURED FROM
 TVDS.m                  36.60:  TVDSS CORRECTN
 LATI.deg                40.08:  LATITUDE
 LONG.deg                51.24:  LONGITUDE
 WHNS.m                  -7.94:  WELL HEAD N/S
 WHEW.m                   1.56:  WELL HEAD E/W
 UTMX.m              520429.26:  UTM X
 UTMY.m             4438973.87:  UTM Y
 DFWL.m                   0.00:  DISTANCE FWL
 DFSL.m                   0.00:  DISTANCE FSL
 SDEP.m                1455.00:  START DEPTH
 TDD .m                3878.01:  TOTAL DEPTH (DRILLER)
 VSDR.deg               112.75:  VERT SEC DIRECT
 GVFD.g                   1.00:  GRAVITY FIELD
 MFLD.nT              50256.00:  MAGNETIC FIELD
 MDIP.deg                59.52:  MAGNETIC DIP
 MDEC.deg                 6.43:  MAGNETIC DECL
 GRDC.deg                 0.16:  GRID CORRECTION
 AZTC.deg                 6.27:  AZM TOTAL CORR
 EPD .m                   0.00:  ELEVATION
 EGL .m                   0.00:  GROUND ELEVATION
 WDMS.m                 121.00:  WD ELEV
 APD .m                  36.60:  DEPTH ABOVE PD
 AGAP.m                  36.60:  AIR GAP
 VSEW.m                   1.56:  VERT SEC E/W
 VSNS.m                  -7.94:  VERT SEC N/S
 DEP .m                1140.01:  DEPTH
 EKB .m                  36.60:  KB ELEVATION
 EDF .m                  36.60:  DF ELEVATION
 TDL .m                1293.00:  TOTAL DEPTH (LOGGER)
 VSC .                       0:  VS TO CLOSURE
 MAGU.                 1849164:  MAGUTM CHECKSUM
~Parameter Information Block
#MNEM.UNIT       Value        Description
#---------     -----------    ---------------------------
 AV  .mps                 2.40:  Ann Velocity 
 AVMX.mps                 2.55:  Max Ann Veloc 
 AZIF.deg               134.35:  Azm, Final 
 BHAT.        Rotary Steerable:  BHA Type 
 BREV.rev               847.00:  Rev Bit Total 
 BROT.°/30m              -2.51:  Build Rotating 
 BS  .in                  8.50:  Bit Size 
 BSZ .in                  8.50:  Bit Size 
 BTPL.psig              700.00:  Bit Press Loss 
 CABU.                     Yes:  Customer Abuse 
 CGEO.          Ilgar Gurbanov:  Customer Geo 
 COMM.                     Áo:  Run Comments 1 
 TCS .hr                140.40:  Time Ciculation Ended 
 CV  .mps                 2.27:  Crit Velocity 
 CVMX.mps                 2.45:  Max Crit Veloc 
 DD1 .         Intigam Rahimov:  Direct Drillr 1 
 DD2 .         Rasim Ibrahimov:  Direct Drillr 2 
 DDSV.                 iCruise:  DD Service 
 DEFF.%                  99.00:  % Det Eff 
 DLRX.°/30m               3.28:  Dogleg Rot Max 
 DLSO.°/30m               0.00:  Dogleg Oriented 
 DLSX.°/30m               0.00:  Dogleg Str Max 
 DRET.      23.30.00 18-Jan-20:  Drill End Time 
 DRST.      01.45.00 11-Jan-20:  Drill Start Tim 
 DTIM.hr                 94.00:  Time Drilling 
 EDEP.m                3878.01:  End Depth 
 ENG1.       Dauren Baktybayev:  Engineer 1 
 ENG2.      Natik Hasanaghayev:  Engineer 2 
 ENG3.          Rustam Safarov:  Engineer 3 
 ETIM.      08.00.00 20-Jan-20:  End Time 
 FLOI.gpm               532.00:  Flow In 
 FLON.gpm               500.00:  Flow In Min 
 FLOS.cptm                0.00:  Fluid Loss 
 FLOX.gpm               540.00:  Flow In Max 
 FTRO.       Formation Presure:  FTWD Run Obj 
 HPRE.                     Yes:  High Pressure 
 HTEM.                      No:  High Temp 
 HYDO.m                   1.80:  Hydro Offset 
 IFIN.deg                39.86:  Inc, Final 
 IMAX.deg                59.73:  Inc Max 
 IMIN.deg                39.25:  Inc Min 
 IMND.m                3816.77:  Inc Min Depth 
 IMXD.m                2596.33:  Inc Max Depth 
 JARR.                      No:  Jarring 
 LETM.      23.30.00 18-Jan-20:  Log End Time 
 LOST.hr                     0:  Lost Rig Time 
 LSTM.      01.45.00 11-Jan-20:  Log Start Time 
 MDCL.ppm             41500.00:  Mud Chlorides 
 MDES.     Inversion Oil/Synthetic:  Mud Desc 
 DFD .sg                  1.48:  Mud Density 
 MDMN.sg                  1.48:  Dens Mud Min 
 MDMX.sg                  1.48:  Dens Mud Max 
 MOIL.                      54:  Run Mud Oil % 
 MOWR.                   72:28:  Run Mud OWR 
 MSND.                       0:  Run Mud Sand % 
 MSOL.                      23:  Run Mud Solids% 
 DFV .spqt               86.00:  Mud Viscosity 
 MWOD.in                  6.75:  MWD Tool OD 
 MWSI.                      No:  Serv Intrp, MWD 
 OTIM.hr                223.40:  Time Operating 
 PCON.           Look Like New:  Pad Condition 
 PMAX.psia            32446.79:  Press Op, Max 
 PV  .cP                 49.00:  Mud PV 
 RUN .                     200:  Run Number 
 ROPA.m/hr               12.48:  ROP Avg 
 ROPN.m/hr                8.00:  ROP Min 
 ROPX.m/hr               27.00:  ROP Max 
 RPMA.rpm               121.00:  RPM Surface Avg 
 RPMN.rpm                60.00:  RPM Surface Min 
 RPMX.rpm               140.00:  RPM Surface Max 
 RRUN.                    L202:  Rig Run Number 
 RTIM.hr                  7.25:  Time Reaming 
 SAZI.deg               123.49:  Azm, Start 
 SDEP.m                2585.01:  Start Depth 
 SIDD.                      No:  Serv Intrp, DD 
 SINC.deg                59.93:  Inc, Start 
 SPPA.psig             3539.00:  SPP Avg 
 SPPN.psig             3050.00:  SPP Min 
 SPPX.psig             3950.00:  SPP Max 
 STIM.      19.00.00 10-Jan-20:  Start Time 
 SVCS.                 DD, MWD:  Services 
 SVER.                    9.20:  Sperry Version 
 TDAT.m                1293.00:  Tot Depth Attmp 
 TDDF.                      No:  Trip for DD 
 TDLG.m                1293.00:  Tot Depth Loggd 
 TFF .                      No:  Trip for Fail 
 TQAA.f-kp               16.00:  Torque Abs Avg 
 TQAN.f-kp               11.00:  Torque Abs Min 
 TQAX.f-kp               18.00:  Torque Abs Max 
 TRRT.°/30m               1.25:  Turn Rotating 
 MRT .                  EWR-M5:  Maximum Recorded Temperature 
 TTMX.degC               84.00:  Max Tool Temp 
 VS01.          AZ90514619R5C6:  Virtual Str1 SN 
 VS02.        AZ90552592N2L2C6:  Virtual Str2 SN 
 VS03.        AZ90571337Z1W1C6:  Virtual Str3 SN 
 VS04.         AZ90513690K23C6:  Virtual Str4 SN 
 VS05.           AZ90594857F11:  Virtual Str5 SN 
 VS06.                13102166:  Virtual Str6 SN 
 WBMN.klb                 7.00:  WOB Min 
 WITN.            Peter Wilson:  Customer Rep 
 WOBA.klb                 9.95:  WOB Avg 
 WOBX.klb                10.00:  WOB Max 
 YP  .lhf2               36.00:  Yield Point 
~Curve Information Block
#MNEM.UNIT                 API CODE     Curve Description
#---------               -----------    ---------------------------
 TIME.HHMMSS            00 000 000 000:  GT Time & Date
 GTDEPTH.m              00 000 000 000:  GT Depth
 GTPQH.psia             00 000 000 000:  GT HR Quartz Pressure
 GTTQ.degC              00 000 000 000:  GT Quartz Temperature
 GTTN.NONE              00 000 000 000:  GT Test Number
 GTET.sec               00 000 000 000:  GT Elapsed Test Time
 GTTVD.m                00 000 000 000:  GT True Vertical Depth
#Other Information
#
#WARRANTY: Halliburton will use its best efforts to furnish customers with 
#accurate information and interpretations that are part of, and incident to, the services 
#provided.  However, Halliburton cannot and does not warrant the accuracy 
#or correctness of such information and interpretations.  Under no circumstances should any 
#such information or interpretation be relied upon as the sole basis for any drilling, 
#completion, production, or financial decision or any procedure involving any risk to the 
#safety of any drilling venture, drilling rig or its crew or any other third party.  The 
#Customer has full responsibility for all drilling, completion and production operation.  
#Halliburton makes no representations or warranties, either expressed or 
#implied, including, but not limited to, the implied warranties of merchantability or fitness 
#for a particular purpose, with respect to the services rendered.  In no event will 
#Halliburton be liable for failure to obtain any particular results or for 
#any damages, including, but not limited to, indirect, special or consequential damages, 
#resulting from the use of any information or interpretation provided by Halliburton.
#
~A           TIME           GTDEPTH  GTPQH  GTTQ  GTTN  GTET   GTTVD  
# ...
   09:19:55.830.18-Jan-2020 3746.01 3679.02 81.34 3.00 184.03 2818.83
   09:19:56.030.18-Jan-2020 3746.01 3679.02 81.34 3.00 184.23 2818.83
   09:19:56.230.18-Jan-2020 3746.01 3681.90 81.34 3.00 184.43 2818.83
   09:19:56.430.18-Jan-2020 3746.01 3683.36 81.34 3.00 184.63 2818.83
   09:19:56.630.18-Jan-2020 3746.01 3683.94 81.34 3.00 184.83 2818.83
   09:19:56.830.18-Jan-2020 3746.01 3684.10 81.34 3.00 185.03 2818.83
   09:19:57.030.18-Jan-2020 3746.01 3684.10 81.34 3.00 185.23 2818.83
   09:19:57.230.18-Jan-2020 3746.01 3684.82 81.34 3.00 185.43 2818.83
   09:19:57.430.18-Jan-2020 3746.01 3685.13 81.34 3.00 185.63 2818.83
   09:19:57.630.18-Jan-2020 3746.01 3684.79 81.34 3.00 185.83 2818.83
   09:19:57.830.18-Jan-2020 3746.01 3685.20 81.34 3.00 186.03 2818.83
   09:19:58.030.18-Jan-2020 3746.01 3685.20 81.34 3.00 186.23 2818.83
   09:19:58.230.18-Jan-2020 3746.01 3685.16 81.34 3.00 186.43 2818.83
   09:19:58.430.18-Jan-2020 3746.01 3685.48 81.34 3.00 186.63 2818.83
   09:19:58.630.18-Jan-2020 3746.01 3685.33 81.34 3.00 186.83 2818.83
   09:19:58.831.18-Jan-2020 3746.01 3685.54 81.34 3.00 187.03 2818.83
   09:19:59.031.18-Jan-2020 3746.01 3685.54 81.34 3.00 187.23 2818.83
   09:19:59.231.18-Jan-2020 3746.01 3685.63 81.34 3.00 187.43 2818.83
   09:19:59.431.18-Jan-2020 3746.01 3685.54 81.34 3.00 187.63 2818.83
   09:19:59.631.18-Jan-2020 3746.01 3686.00 81.34 3.00 187.83 2818.83
   09:19:59.831.18-Jan-2020 3746.01 3685.81 81.34 3.00 188.03 2818.83
   09:20:00.031.18-Jan-2020 3746.01 3685.81 81.34 3.00 188.23 2818.83
   09:20:00.231.18-Jan-2020 3746.01 3685.79 81.34 3.00 188.43 2818.83
   09:20:00.431.18-Jan-2020 3746.01 3686.11 81.34 3.00 188.63 2818.83
   09:20:00.631.18-Jan-2020 3746.01 3685.98 81.33 3.00 188.83 2818.83
   09:20:00.831.18-Jan-2020 3746.01 3685.73 81.33 3.00 189.03 2818.83
   09:20:01.031.18-Jan-2020 3746.01 3685.73 81.33 3.00 189.23 2818.83
   09:20:01.231.18-Jan-2020 3746.01 3686.16 81.33 3.00 189.43 2818.83
   09:20:01.431.18-Jan-2020 3746.01 3685.78 81.33 3.00 189.63 2818.83
   09:20:01.631.18-Jan-2020 3746.01 3686.00 81.33 3.00 189.83 2818.83
   09:20:01.831.18-Jan-2020 3746.01 3685.79 81.33 3.00 190.03 2818.83
   09:20:02.031.18-Jan-2020 3746.01 3685.79 81.33 3.00 190.23 2818.83
   09:20:02.231.18-Jan-2020 3746.01 3685.99 81.33 3.00 190.43 2818.83
   09:20:02.431.18-Jan-2020 3746.01 3686.44 81.33 3.00 190.63 2818.83
   09:20:02.631.18-Jan-2020 3746.01 3686.08 81.33 3.00 190.83 2818.83
   09:20:02.831.18-Jan-2020 3746.01 3685.88 81.33 3.00 191.03 2818.83
   09:20:03.031.18-Jan-2020 3746.01 3685.88 81.33 3.00 191.23 2818.83
   09:20:03.231.18-Jan-2020 3746.01 3686.33 81.33 3.00 191.43 2818.83
   09:20:03.431.18-Jan-2020 3746.01 3685.95 81.33 3.00 191.63 2818.83
   09:20:03.631.18-Jan-2020 3746.01 3686.08 81.33 3.00 191.83 2818.83
   09:20:03.831.18-Jan-2020 3746.01 3686.06 81.33 3.00 192.03 2818.83
   09:20:04.031.18-Jan-2020 3746.01 3686.06 81.33 3.00 192.23 2818.83
   09:20:04.231.18-Jan-2020 3746.01 3686.05 81.33 3.00 192.43 2818.83
   09:20:04.431.18-Jan-2020 3746.01 3686.09 81.33 3.00 192.63 2818.83
   09:20:04.631.18-Jan-2020 3746.01 3686.13 81.33 3.00 192.83 2818.83
   09:20:04.832.18-Jan-2020 3746.01 3686.04 81.33 3.00 193.03 2818.83
   09:20:05.032.18-Jan-2020 3746.01 3686.04 81.33 3.00 193.23 2818.83
   09:20:05.232.18-Jan-2020 3746.01 3686.15 81.33 3.00 193.43 2818.83
   09:20:05.432.18-Jan-2020 3746.01 3686.22 81.33 3.00 193.63 2818.83
   09:20:05.632.18-Jan-2020 3746.01 3686.05 81.33 3.00 193.83 2818.83
   09:20:05.832.18-Jan-2020 3746.01 3686.20 81.33 3.00 194.03 2818.83
   09:20:06.032.18-Jan-2020 3746.01 3686.20 81.33 3.00 194.23 2818.83
   09:20:06.232.18-Jan-2020 3746.01 3686.33 81.32 3.00 194.43 2818.83
   09:20:06.432.18-Jan-2020 3746.01 3686.24 81.32 3.00 194.63 2818.83
   09:20:06.632.18-Jan-2020 3746.01 3686.14 81.32 3.00 194.83 2818.83
   09:20:06.832.18-Jan-2020 3746.01 3686.24 81.32 3.00 195.03 2818.83
   09:20:07.032.18-Jan-2020 3746.01 3686.24 81.32 3.00 195.23 2818.83
   09:20:07.232.18-Jan-2020 3746.01 3686.12 81.32 3.00 195.43 2818.83
   09:20:07.432.18-Jan-2020 3746.01 3686.21 81.32 3.00 195.63 2818.83
   09:20:07.632.18-Jan-2020 3746.01 3686.17 81.32 3.00 195.83 2818.83
   09:20:07.832.18-Jan-2020 3746.01 3686.07 81.32 3.00 196.03 2818.83
   09:20:08.032.18-Jan-2020 3746.01 3686.07 81.32 3.00 196.23 2818.83
   09:20:08.232.18-Jan-2020 3746.01 3686.28 81.32 3.00 196.43 2818.83
   09:20:08.432.18-Jan-2020 3746.01 3686.48 81.32 3.00 196.63 2818.83
   09:20:08.632.18-Jan-2020 3746.01 3686.01 81.32 3.00 196.83 2818.83
   09:20:08.832.18-Jan-2020 3746.01 3686.48 81.32 3.00 197.03 2818.83
   09:20:09.032.18-Jan-2020 3746.01 3686.48 81.32 3.00 197.23 2818.83
   09:20:09.232.18-Jan-2020 3746.01 3686.15 81.32 3.00 197.43 2818.83
   09:20:09.432.18-Jan-2020 3746.01 3686.16 81.32 3.00 197.63 2818.83
   09:20:09.632.18-Jan-2020 3746.01 3686.33 81.32 3.00 197.83 2818.83
   09:20:09.832.18-Jan-2020 3746.01 3686.30 81.32 3.00 198.03 2818.83
   09:20:10.032.18-Jan-2020 3746.01 3686.30 81.32 3.00 198.23 2818.83
   09:20:10.232.18-Jan-2020 3746.01 3686.35 81.32 3.00 198.43 2818.83
   09:20:10.432.18-Jan-2020 3746.01 3686.17 81.32 3.00 198.63 2818.83
   09:20:10.633.18-Jan-2020 3746.01 3686.56 81.32 3.00 198.83 2818.83
   09:20:10.833.18-Jan-2020 3746.01 3685.94 81.32 3.00 199.03 2818.83
   09:20:11.033.18-Jan-2020 3746.01 3685.94 81.32 3.00 199.23 2818.83
   09:20:11.233.18-Jan-2020 3746.01 3686.17 81.32 3.00 199.43 2818.83
   09:20:11.433.18-Jan-2020 3746.01 3686.38 81.32 3.00 199.63 2818.83
   09:20:11.633.18-Jan-2020 3746.01 3686.54 81.31 3.00 199.83 2818.83
   09:20:11.833.18-Jan-2020 3746.01 3686.05 81.31 3.00 200.03 2818.83
   09:20:12.033.18-Jan-2020 3746.01 3686.05 81.31 3.00 200.23 2818.83
   09:20:12.233.18-Jan-2020 3746.01 3685.98 81.31 3.00 200.43 2818.83
   09:20:12.433.18-Jan-2020 3746.01 3686.32 81.31 3.00 200.63 2818.83
   09:20:12.633.18-Jan-2020 3746.01 3686.12 81.31 3.00 200.83 2818.83
   09:20:12.833.18-Jan-2020 3746.01 3686.28 81.31 3.00 201.03 2818.83
   09:20:13.033.18-Jan-2020 3746.01 3686.28 81.31 3.00 201.23 2818.83
   09:20:13.233.18-Jan-2020 3746.01 3686.30 81.31 3.00 201.43 2818.83
   09:20:13.433.18-Jan-2020 3746.01 3686.20 81.31 3.00 201.63 2818.83
   09:20:13.633.18-Jan-2020 3746.01 3686.27 81.31 3.00 201.83 2818.83
   09:20:13.833.18-Jan-2020 3746.01 3686.15 81.31 3.00 202.03 2818.83
   09:20:14.033.18-Jan-2020 3746.01 3686.15 81.31 3.00 202.23 2818.83
   09:20:14.233.18-Jan-2020 3746.01 3686.24 81.31 3.00 202.43 2818.83
   09:20:14.433.18-Jan-2020 3746.01 3686.33 81.31 3.00 202.63 2818.83
   09:20:14.633.18-Jan-2020 3746.01 3686.29 81.31 3.00 202.83 2818.83
   09:20:14.833.18-Jan-2020 3746.01 3686.24 81.31 3.00 203.03 2818.83
   09:20:15.033.18-Jan-2020 3746.01 3686.24 81.31 3.00 203.23 2818.83
   09:20:15.233.18-Jan-2020 3746.01 3686.36 81.31 3.00 203.43 2818.83
   09:20:15.433.18-Jan-2020 3746.01 3686.27 81.31 3.00 203.63 2818.83
   09:20:15.633.18-Jan-2020 3746.01 3686.32 81.31 3.00 203.83 2818.83
   09:20:15.833.18-Jan-2020 3746.01 3686.27 81.31 3.00 204.03 2818.83
   09:20:16.033.18-Jan-2020 3746.01 3686.27 81.31 3.00 204.23 2818.83
   09:20:16.233.18-Jan-2020 3746.01 3686.32 81.31 3.00 204.43 2818.83
   09:20:16.434.18-Jan-2020 3746.01 3686.20 81.31 3.00 204.63 2818.83
   09:20:16.634.18-Jan-2020 3746.01 3686.26 81.31 3.00 204.83 2818.83
   09:20:16.834.18-Jan-2020 3746.01 3686.22 81.31 3.00 205.03 2818.83
   09:20:17.034.18-Jan-2020 3746.01 3686.22 81.31 3.00 205.23 2818.83
   09:20:17.234.18-Jan-2020 3746.01 3686.28 81.30 3.00 205.43 2818.83
   09:20:17.434.18-Jan-2020 3746.01 3686.23 81.30 3.00 205.63 2818.83
   09:20:17.634.18-Jan-2020 3746.01 3686.33 81.30 3.00 205.84 2818.83
   09:20:17.834.18-Jan-2020 3746.01 3686.46 81.30 3.00 206.04 2818.83
   09:20:18.034.18-Jan-2020 3746.01 3686.46 81.30 3.00 206.24 2818.83
   09:20:18.234.18-Jan-2020 3746.01 3686.45 81.30 3.00 206.44 2818.83
   09:20:18.434.18-Jan-2020 3746.01 3686.38 81.30 3.00 206.64 2818.83
   09:20:18.634.18-Jan-2020 3746.01 3686.13 81.30 3.00 206.84 2818.83
