~Version Information
 VERS.                  2.0:   CWLS log ASCII Standard -VERSION 2.0
 WRAP.                   NO:   One line per depth step
~Well Information Block
#MNEM.UNIT     VALUE/NAME     DESCRIPTION
#---------     -----------    ---------------------------
 STRT.S             09:16:51 18-Jan-20: START TIME 09:16:51 18-Jan-20
 STOP.S             09:25:06 18-Jan-20: STOP TIME  09:25:06 18-Jan-20
 STEP.S                   0.00: STEP TIME
 NULL.                 -999.25: NULL VALUE
 DFWT.                        :  DIST FWL TEXT
 DFST.                        :  DIST FSL TEXT
 DMF .             Drill Floor:  DRILL MEAS FROM
 STIM.      09.30.00 26-Dec-19:  START TIME
 DATE.      08.00.00 20-Jan-20:  END TIME
 SPUD.               23-Nov-19:  SPUD DATE
 NREF.                    Grid:  NORTH REFERENCE
 HPTY.       Minimum Curvature:  HOLE POS TYPE
 DMOD.             Drill Model:  DRILL MOD DESC
 SVYD.                  Survey:  SURVEY DESC
 ILTD.               Lithology:  INTERP LTH DESC
 FTOP.          Formation Tops:  FORM TOPS DESC
 SON .        AZ-XX-0906192647:  JOB NUMBER
 WTYP.                Deviated:  WELL TYPE
 COMP.     BP Exploration (Caspian Sea) Ltd:  COMPANY
 BASE.              Azerbaijan:  LOGGING EQUIPMENT BASE LOCATION
 REGN.                 Eurasia:  REGION
 FLD .                     ACG:  FIELD NAME
 SRVC.              KCA Deutag:  CONTRACTOR
 MWDS.                    Baku:  MWD SHOP
 WELL.     A10 (Slot 20) - SCP:  WELL NAME
 JOBN.        AZ-XX-0906192647:  JOB TICKET NUMB
 RIG .                 Chirag1:  RIG NAME
 DCON.     Halliburton Sperry Drilling:  DIRECTNL CONTR
 UNIT.                     N/A:  LOGGING EQUIPMENT ID
 PDAT.          Mean Sea Level:  PERMANENT DATUM
 MDS .        Operator Entered:  MAG DATA SOURCE
 CTRY.              Azerbaijan:  COUNTRY NAME
 UWI .            /AZE00000090:  UNIQUE WELL IDENTIFIER
 API .            /AZE00000090:  API NUMBER
 CNTY.                        :  COUNTY
 PROV.                        :  PROVINCE
 STAT.                        :  STATE
 LOC .                        :  LOCATION
 LMF .             Drill Floor:  LOG MEASURED FROM
 TVDS.m                  36.60:  TVDSS CORRECTN
 LATI.deg                40.08:  LATITUDE
 LONG.deg                51.24:  LONGITUDE
 WHNS.m                  -7.94:  WELL HEAD N/S
 WHEW.m                   1.56:  WELL HEAD E/W
 UTMX.m              520429.26:  UTM X
 UTMY.m             4438973.87:  UTM Y
 DFWL.m                   0.00:  DISTANCE FWL
 DFSL.m                   0.00:  DISTANCE FSL
 SDEP.m                1455.00:  START DEPTH
 TDD .m                3878.01:  TOTAL DEPTH (DRILLER)
 VSDR.deg               112.75:  VERT SEC DIRECT
 GVFD.g                   1.00:  GRAVITY FIELD
 MFLD.nT              50256.00:  MAGNETIC FIELD
 MDIP.deg                59.52:  MAGNETIC DIP
 MDEC.deg                 6.43:  MAGNETIC DECL
 GRDC.deg                 0.16:  GRID CORRECTION
 AZTC.deg                 6.27:  AZM TOTAL CORR
 EPD .m                   0.00:  ELEVATION
 EGL .m                   0.00:  GROUND ELEVATION
 WDMS.m                 121.00:  WD ELEV
 APD .m                  36.60:  DEPTH ABOVE PD
 AGAP.m                  36.60:  AIR GAP
 VSEW.m                   1.56:  VERT SEC E/W
 VSNS.m                  -7.94:  VERT SEC N/S
 DEP .m                1140.01:  DEPTH
 EKB .m                  36.60:  KB ELEVATION
 EDF .m                  36.60:  DF ELEVATION
 TDL .m                1293.00:  TOTAL DEPTH (LOGGER)
 VSC .                       0:  VS TO CLOSURE
 MAGU.                 1849164:  MAGUTM CHECKSUM
~Parameter Information Block
#MNEM.UNIT       Value        Description
#---------     -----------    ---------------------------
 AV  .mps                 2.40:  Ann Velocity 
 AVMX.mps                 2.55:  Max Ann Veloc 
 AZIF.deg               134.35:  Azm, Final 
 BHAT.        Rotary Steerable:  BHA Type 
 BREV.rev               847.00:  Rev Bit Total 
 BROT.°/30m              -2.51:  Build Rotating 
 BS  .in                  8.50:  Bit Size 
 BSZ .in                  8.50:  Bit Size 
 BTPL.psig              700.00:  Bit Press Loss 
 CABU.                     Yes:  Customer Abuse 
 CGEO.          Ilgar Gurbanov:  Customer Geo 
 COMM.                     Áo:  Run Comments 1 
 TCS .hr                140.40:  Time Ciculation Ended 
 CV  .mps                 2.27:  Crit Velocity 
 CVMX.mps                 2.45:  Max Crit Veloc 
 DD1 .         Intigam Rahimov:  Direct Drillr 1 
 DD2 .         Rasim Ibrahimov:  Direct Drillr 2 
 DDSV.                 iCruise:  DD Service 
 DEFF.%                  99.00:  % Det Eff 
 DLRX.°/30m               3.28:  Dogleg Rot Max 
 DLSO.°/30m               0.00:  Dogleg Oriented 
 DLSX.°/30m               0.00:  Dogleg Str Max 
 DRET.      23.30.00 18-Jan-20:  Drill End Time 
 DRST.      01.45.00 11-Jan-20:  Drill Start Tim 
 DTIM.hr                 94.00:  Time Drilling 
 EDEP.m                3878.01:  End Depth 
 ENG1.       Dauren Baktybayev:  Engineer 1 
 ENG2.      Natik Hasanaghayev:  Engineer 2 
 ENG3.          Rustam Safarov:  Engineer 3 
 ETIM.      08.00.00 20-Jan-20:  End Time 
 FLOI.gpm               532.00:  Flow In 
 FLON.gpm               500.00:  Flow In Min 
 FLOS.cptm                0.00:  Fluid Loss 
 FLOX.gpm               540.00:  Flow In Max 
 FTRO.       Formation Presure:  FTWD Run Obj 
 HPRE.                     Yes:  High Pressure 
 HTEM.                      No:  High Temp 
 HYDO.m                   1.80:  Hydro Offset 
 IFIN.deg                39.86:  Inc, Final 
 IMAX.deg                59.73:  Inc Max 
 IMIN.deg                39.25:  Inc Min 
 IMND.m                3816.77:  Inc Min Depth 
 IMXD.m                2596.33:  Inc Max Depth 
 JARR.                      No:  Jarring 
 LETM.      23.30.00 18-Jan-20:  Log End Time 
 LOST.hr                     0:  Lost Rig Time 
 LSTM.      01.45.00 11-Jan-20:  Log Start Time 
 MDCL.ppm             41500.00:  Mud Chlorides 
 MDES.     Inversion Oil/Synthetic:  Mud Desc 
 DFD .sg                  1.48:  Mud Density 
 MDMN.sg                  1.48:  Dens Mud Min 
 MDMX.sg                  1.48:  Dens Mud Max 
 MOIL.                      54:  Run Mud Oil % 
 MOWR.                   72:28:  Run Mud OWR 
 MSND.                       0:  Run Mud Sand % 
 MSOL.                      23:  Run Mud Solids% 
 DFV .spqt               86.00:  Mud Viscosity 
 MWOD.in                  6.75:  MWD Tool OD 
 MWSI.                      No:  Serv Intrp, MWD 
 OTIM.hr                223.40:  Time Operating 
 PCON.           Look Like New:  Pad Condition 
 PMAX.psia            32446.79:  Press Op, Max 
 PV  .cP                 49.00:  Mud PV 
 RUN .                     200:  Run Number 
 ROPA.m/hr               12.48:  ROP Avg 
 ROPN.m/hr                8.00:  ROP Min 
 ROPX.m/hr               27.00:  ROP Max 
 RPMA.rpm               121.00:  RPM Surface Avg 
 RPMN.rpm                60.00:  RPM Surface Min 
 RPMX.rpm               140.00:  RPM Surface Max 
 RRUN.                    L202:  Rig Run Number 
 RTIM.hr                  7.25:  Time Reaming 
 SAZI.deg               123.49:  Azm, Start 
 SDEP.m                2585.01:  Start Depth 
 SIDD.                      No:  Serv Intrp, DD 
 SINC.deg                59.93:  Inc, Start 
 SPPA.psig             3539.00:  SPP Avg 
 SPPN.psig             3050.00:  SPP Min 
 SPPX.psig             3950.00:  SPP Max 
 STIM.      19.00.00 10-Jan-20:  Start Time 
 SVCS.                 DD, MWD:  Services 
 SVER.                    9.20:  Sperry Version 
 TDAT.m                1293.00:  Tot Depth Attmp 
 TDDF.                      No:  Trip for DD 
 TDLG.m                1293.00:  Tot Depth Loggd 
 TFF .                      No:  Trip for Fail 
 TQAA.f-kp               16.00:  Torque Abs Avg 
 TQAN.f-kp               11.00:  Torque Abs Min 
 TQAX.f-kp               18.00:  Torque Abs Max 
 TRRT.°/30m               1.25:  Turn Rotating 
 MRT .                  EWR-M5:  Maximum Recorded Temperature 
 TTMX.degC               84.00:  Max Tool Temp 
 VS01.          AZ90514619R5C6:  Virtual Str1 SN 
 VS02.        AZ90552592N2L2C6:  Virtual Str2 SN 
 VS03.        AZ90571337Z1W1C6:  Virtual Str3 SN 
 VS04.         AZ90513690K23C6:  Virtual Str4 SN 
 VS05.           AZ90594857F11:  Virtual Str5 SN 
 VS06.                13102166:  Virtual Str6 SN 
 WBMN.klb                 7.00:  WOB Min 
 WITN.            Peter Wilson:  Customer Rep 
 WOBA.klb                 9.95:  WOB Avg 
 WOBX.klb                10.00:  WOB Max 
 YP  .lhf2               36.00:  Yield Point 
~Curve Information Block
#MNEM.UNIT                 API CODE     Curve Description
#---------               -----------    ---------------------------
 TIME.HHMMSS            00 000 000 000:  GT Time & Date
 GTDEPTH.m              00 000 000 000:  GT Depth
 GTPQH.psia             00 000 000 000:  GT HR Quartz Pressure
 GTTQ.degC              00 000 000 000:  GT Quartz Temperature
 GTTN.NONE              00 000 000 000:  GT Test Number
 GTET.sec               00 000 000 000:  GT Elapsed Test Time
 GTTVD.m                00 000 000 000:  GT True Vertical Depth
#Other Information
#
#WARRANTY: Halliburton will use its best efforts to furnish customers with 
#accurate information and interpretations that are part of, and incident to, the services 
#provided.  However, Halliburton cannot and does not warrant the accuracy 
#or correctness of such information and interpretations.  Under no circumstances should any 
#such information or interpretation be relied upon as the sole basis for any drilling, 
#completion, production, or financial decision or any procedure involving any risk to the 
#safety of any drilling venture, drilling rig or its crew or any other third party.  The 
#Customer has full responsibility for all drilling, completion and production operation.  
#Halliburton makes no representations or warranties, either expressed or 
#implied, including, but not limited to, the implied warranties of merchantability or fitness 
#for a particular purpose, with respect to the services rendered.  In no event will 
#Halliburton be liable for failure to obtain any particular results or for 
#any damages, including, but not limited to, indirect, special or consequential damages, 
#resulting from the use of any information or interpretation provided by Halliburton.
#
~A           TIME           GTDEPTH  GTPQH  GTTQ  GTTN  GTET   GTTVD  
# ...
   09:20:41.838.18-Jan-2020 3746.01 3686.41 81.26 3.00 230.04 2818.83
   09:20:42.038.18-Jan-2020 3746.01 3686.41 81.26 3.00 230.24 2818.83
   09:20:42.238.18-Jan-2020 3746.01 3686.03 81.26 3.00 230.44 2818.83
   09:20:42.438.18-Jan-2020 3746.01 3686.50 81.26 3.00 230.64 2818.83
   09:20:42.638.18-Jan-2020 3746.01 3686.09 81.26 3.00 230.84 2818.83
   09:20:42.838.18-Jan-2020 3746.01 3686.24 81.26 3.00 231.04 2818.83
   09:20:43.038.18-Jan-2020 3746.01 3686.24 81.26 3.00 231.24 2818.83
   09:20:43.238.18-Jan-2020 3746.01 3686.30 81.26 3.00 231.44 2818.83
   09:20:43.438.18-Jan-2020 3746.01 3686.32 81.26 3.00 231.64 2818.83
   09:20:43.638.18-Jan-2020 3746.01 3686.21 81.26 3.00 231.84 2818.83
   09:20:43.838.18-Jan-2020 3746.01 3686.35 81.25 3.00 232.04 2818.83
   09:20:44.038.18-Jan-2020 3746.01 3686.35 81.25 3.00 232.24 2818.83
   09:20:44.238.18-Jan-2020 3746.01 3686.64 81.25 3.00 232.44 2818.83
   09:20:44.438.18-Jan-2020 3746.01 3686.21 81.25 3.00 232.64 2818.83
   09:20:44.638.18-Jan-2020 3746.01 3686.31 81.25 3.00 232.84 2818.83
   09:20:44.838.18-Jan-2020 3746.01 3686.22 81.25 3.00 233.04 2818.83
   09:20:45.038.18-Jan-2020 3746.01 3686.22 81.25 3.00 233.24 2818.83
   09:20:45.238.18-Jan-2020 3746.01 3686.17 81.25 3.00 233.44 2818.83
   09:20:45.438.18-Jan-2020 3746.01 3686.28 81.25 3.00 233.64 2818.83
   09:20:45.638.18-Jan-2020 3746.01 3686.35 81.25 3.00 233.84 2818.83
   09:20:45.839.18-Jan-2020 3746.01 3686.33 81.25 3.00 234.04 2818.83
   09:20:46.039.18-Jan-2020 3746.01 3686.33 81.25 3.00 234.24 2818.83
   09:20:46.239.18-Jan-2020 3746.01 3686.24 81.25 3.00 234.44 2818.83
   09:20:46.439.18-Jan-2020 3746.01 3686.36 81.25 3.00 234.64 2818.83
   09:20:46.639.18-Jan-2020 3746.01 3686.38 81.25 3.00 234.84 2818.83
   09:20:46.839.18-Jan-2020 3746.01 3686.21 81.25 3.00 235.04 2818.83
   09:20:47.039.18-Jan-2020 3746.01 3686.21 81.25 3.00 235.24 2818.83
   09:20:47.239.18-Jan-2020 3746.01 3686.52 81.25 3.00 235.44 2818.83
   09:20:47.439.18-Jan-2020 3746.01 3686.50 81.25 3.00 235.64 2818.83
   09:20:47.639.18-Jan-2020 3746.01 3686.08 81.25 3.00 235.84 2818.83
   09:20:47.839.18-Jan-2020 3746.01 3686.47 81.25 3.00 236.04 2818.83
   09:20:48.039.18-Jan-2020 3746.01 3686.47 81.25 3.00 236.24 2818.83
   09:20:48.239.18-Jan-2020 3746.01 3686.28 81.25 3.00 236.44 2818.83
   09:20:48.439.18-Jan-2020 3746.01 3686.31 81.25 3.00 236.64 2818.83
   09:20:48.639.18-Jan-2020 3746.01 3686.21 81.25 3.00 236.84 2818.83
   09:20:48.839.18-Jan-2020 3746.01 3686.25 81.25 3.00 237.04 2818.83
   09:20:49.039.18-Jan-2020 3746.01 3686.25 81.25 3.00 237.24 2818.83
   09:20:49.239.18-Jan-2020 3746.01 3686.30 81.25 3.00 237.44 2818.83
   09:20:49.439.18-Jan-2020 3746.01 3686.25 81.24 3.00 237.64 2818.83
   09:20:49.639.18-Jan-2020 3746.01 3686.20 81.24 3.00 237.84 2818.83
   09:20:49.839.18-Jan-2020 3746.01 3686.29 81.24 3.00 238.04 2818.83
   09:20:50.039.18-Jan-2020 3746.01 3686.29 81.24 3.00 238.24 2818.83
   09:20:50.239.18-Jan-2020 3746.01 3686.34 81.24 3.00 238.44 2818.83
   09:20:50.439.18-Jan-2020 3746.01 3686.27 81.24 3.00 238.64 2818.83
   09:20:50.639.18-Jan-2020 3746.01 3686.27 81.24 3.00 238.84 2818.83
   09:20:50.839.18-Jan-2020 3746.01 3686.38 81.24 3.00 239.04 2818.83
   09:20:51.039.18-Jan-2020 3746.01 3686.38 81.24 3.00 239.24 2818.83
   09:20:51.239.18-Jan-2020 3746.01 3686.31 81.24 3.00 239.44 2818.83
   09:20:51.439.18-Jan-2020 3746.01 3686.38 81.24 3.00 239.64 2818.83
   09:20:51.639.18-Jan-2020 3746.01 3686.41 81.24 3.00 239.84 2818.83
   09:20:51.840.18-Jan-2020 3746.01 3686.07 81.24 3.00 240.04 2818.83
   09:20:52.040.18-Jan-2020 3746.01 3686.07 81.24 3.00 240.24 2818.83
   09:20:52.240.18-Jan-2020 3746.01 3686.23 81.24 3.00 240.44 2818.83
   09:20:52.440.18-Jan-2020 3746.01 3686.36 81.24 3.00 240.64 2818.83
   09:20:52.640.18-Jan-2020 3746.01 3686.19 81.24 3.00 240.84 2818.83
   09:20:52.840.18-Jan-2020 3746.01 3686.34 81.24 3.00 241.04 2818.83
   09:20:53.040.18-Jan-2020 3746.01 3686.34 81.24 3.00 241.24 2818.83
   09:20:53.240.18-Jan-2020 3746.01 3686.30 81.24 3.00 241.44 2818.83
   09:20:53.440.18-Jan-2020 3746.01 3686.33 81.24 3.00 241.64 2818.83
   09:20:53.640.18-Jan-2020 3746.01 3686.54 81.24 3.00 241.84 2818.83
   09:20:53.840.18-Jan-2020 3746.01 3686.24 81.24 3.00 242.04 2818.83
   09:20:54.040.18-Jan-2020 3746.01 3686.24 81.24 3.00 242.24 2818.83
   09:20:54.240.18-Jan-2020 3746.01 3686.34 81.24 3.00 242.44 2818.83
   09:20:54.440.18-Jan-2020 3746.01 3686.07 81.24 3.00 242.64 2818.83
   09:20:54.640.18-Jan-2020 3746.01 3686.25 81.24 3.00 242.84 2818.83
   09:20:54.840.18-Jan-2020 3746.01 3686.33 81.23 3.00 243.04 2818.83
   09:20:55.040.18-Jan-2020 3746.01 3686.33 81.23 3.00 243.24 2818.83
   09:20:55.240.18-Jan-2020 3746.01 3686.53 81.23 3.00 243.44 2818.83
   09:20:55.440.18-Jan-2020 3746.01 3686.02 81.23 3.00 243.64 2818.83
   09:20:55.640.18-Jan-2020 3746.01 3686.34 81.23 3.00 243.84 2818.83
   09:20:55.840.18-Jan-2020 3746.01 3686.12 81.23 3.00 244.04 2818.83
   09:20:56.040.18-Jan-2020 3746.01 3686.12 81.23 3.00 244.24 2818.83
   09:20:56.240.18-Jan-2020 3746.01 3686.30 81.23 3.00 244.44 2818.83
   09:20:56.440.18-Jan-2020 3746.01 3686.36 81.23 3.00 244.64 2818.83
   09:20:56.640.18-Jan-2020 3746.01 3686.12 81.23 3.00 244.84 2818.83
   09:20:56.840.18-Jan-2020 3746.01 3686.55 81.23 3.00 245.04 2818.83
   09:20:57.040.18-Jan-2020 3746.01 3686.55 81.23 3.00 245.24 2818.83
   09:20:57.240.18-Jan-2020 3746.01 3686.28 81.23 3.00 245.44 2818.83
   09:20:57.440.18-Jan-2020 3746.01 3686.24 81.23 3.00 245.64 2818.83
   09:20:57.641.18-Jan-2020 3746.01 3686.18 81.23 3.00 245.84 2818.83
   09:20:57.841.18-Jan-2020 3746.01 3686.38 81.23 3.00 246.04 2818.83
   09:20:58.041.18-Jan-2020 3746.01 3686.38 81.23 3.00 246.24 2818.83
   09:20:58.241.18-Jan-2020 3746.01 3686.29 81.23 3.00 246.44 2818.83
   09:20:58.441.18-Jan-2020 3746.01 3686.21 81.23 3.00 246.64 2818.83
   09:20:58.641.18-Jan-2020 3746.01 3686.32 81.23 3.00 246.84 2818.83
   09:20:58.841.18-Jan-2020 3746.01 3686.21 81.23 3.00 247.04 2818.83
   09:20:59.041.18-Jan-2020 3746.01 3686.21 81.23 3.00 247.24 2818.83
   09:20:59.241.18-Jan-2020 3746.01 3686.30 81.23 3.00 247.44 2818.83
   09:20:59.441.18-Jan-2020 3746.01 3686.28 81.23 3.00 247.64 2818.83
   09:20:59.641.18-Jan-2020 3746.01 3686.23 81.23 3.00 247.84 2818.83
   09:20:59.841.18-Jan-2020 3746.01 3686.60 81.23 3.00 248.04 2818.83
   09:21:00.041.18-Jan-2020 3746.01 3686.60 81.23 3.00 248.24 2818.83
   09:21:00.241.18-Jan-2020 3746.01 3686.23 81.22 3.00 248.44 2818.83
   09:21:00.441.18-Jan-2020 3746.01 3686.21 81.22 3.00 248.64 2818.83
   09:21:00.641.18-Jan-2020 3746.01 3686.35 81.22 3.00 248.84 2818.83
   09:21:00.841.18-Jan-2020 3746.01 3686.19 81.22 3.00 249.04 2818.83
   09:21:01.041.18-Jan-2020 3746.01 3686.19 81.22 3.00 249.24 2818.83
   09:21:01.241.18-Jan-2020 3746.01 3686.35 81.22 3.00 249.44 2818.83
   09:21:01.441.18-Jan-2020 3746.01 3686.20 81.22 3.00 249.64 2818.83
   09:21:01.641.18-Jan-2020 3746.01 3686.33 81.22 3.00 249.84 2818.83
   09:21:01.841.18-Jan-2020 3746.01 3686.20 81.22 3.00 250.04 2818.83
   09:21:02.041.18-Jan-2020 3746.01 3686.20 81.22 3.00 250.24 2818.83
   09:21:02.241.18-Jan-2020 3746.01 3686.49 81.22 3.00 250.44 2818.83
   09:21:02.441.18-Jan-2020 3746.01 3686.09 81.22 3.00 250.64 2818.83
   09:21:02.641.18-Jan-2020 3746.01 3686.44 81.22 3.00 250.84 2818.83
   09:21:02.841.18-Jan-2020 3746.01 3686.20 81.22 3.00 251.04 2818.83
   09:21:03.041.18-Jan-2020 3746.01 3686.20 81.22 3.00 251.24 2818.83
   09:21:03.241.18-Jan-2020 3746.01 3686.24 81.22 3.00 251.44 2818.83
   09:21:03.442.18-Jan-2020 3746.01 3686.55 81.22 3.00 251.64 2818.83
   09:21:03.642.18-Jan-2020 3746.01 3686.11 81.22 3.00 251.84 2818.83
   09:21:03.842.18-Jan-2020 3746.01 3686.35 81.22 3.00 252.04 2818.83
   09:21:04.042.18-Jan-2020 3746.01 3686.35 81.22 3.00 252.24 2818.83
   09:21:04.242.18-Jan-2020 3746.01 3686.40 81.22 3.00 252.44 2818.83
   09:21:04.442.18-Jan-2020 3746.01 3686.15 81.22 3.00 252.64 2818.83
   09:21:04.642.18-Jan-2020 3746.01 3686.38 81.22 3.00 252.84 2818.83
