~Version Information
 VERS.                  2.0:   CWLS log ASCII Standard -VERSION 2.0
 WRAP.                   NO:   One line per depth step
~Well Information Block
#MNEM.UNIT     VALUE/NAME     DESCRIPTION
#---------     -----------    ---------------------------
 STRT.S             17:36:42 18-Jan-20: START TIME 17:36:42 18-Jan-20
 STOP.S             17:44:57 18-Jan-20: STOP TIME  17:44:57 18-Jan-20
 STEP.S                   0.00: STEP TIME
 NULL.                 -999.25: NULL VALUE
 DFWT.                        :  DIST FWL TEXT
 DFST.                        :  DIST FSL TEXT
 DMF .             Drill Floor:  DRILL MEAS FROM
 STIM.      09.30.00 26-Dec-19:  START TIME
 DATE.      08.00.00 20-Jan-20:  END TIME
 SPUD.               23-Nov-19:  SPUD DATE
 NREF.                    Grid:  NORTH REFERENCE
 HPTY.       Minimum Curvature:  HOLE POS TYPE
 DMOD.             Drill Model:  DRILL MOD DESC
 SVYD.                  Survey:  SURVEY DESC
 ILTD.               Lithology:  INTERP LTH DESC
 FTOP.          Formation Tops:  FORM TOPS DESC
 SON .        AZ-XX-0906192647:  JOB NUMBER
 WTYP.                Deviated:  WELL TYPE
 COMP.     BP Exploration (Caspian Sea) Ltd:  COMPANY
 BASE.              Azerbaijan:  LOGGING EQUIPMENT BASE LOCATION
 REGN.                 Eurasia:  REGION
 FLD .                     ACG:  FIELD NAME
 SRVC.              KCA Deutag:  CONTRACTOR
 MWDS.                    Baku:  MWD SHOP
 WELL.     A10 (Slot 20) - SCP:  WELL NAME
 JOBN.        AZ-XX-0906192647:  JOB TICKET NUMB
 RIG .                 Chirag1:  RIG NAME
 DCON.     Halliburton Sperry Drilling:  DIRECTNL CONTR
 UNIT.                     N/A:  LOGGING EQUIPMENT ID
 PDAT.          Mean Sea Level:  PERMANENT DATUM
 MDS .        Operator Entered:  MAG DATA SOURCE
 CTRY.              Azerbaijan:  COUNTRY NAME
 UWI .            /AZE00000090:  UNIQUE WELL IDENTIFIER
 API .            /AZE00000090:  API NUMBER
 CNTY.                        :  COUNTY
 PROV.                        :  PROVINCE
 STAT.                        :  STATE
 LOC .                        :  LOCATION
 LMF .             Drill Floor:  LOG MEASURED FROM
 TVDS.m                  36.60:  TVDSS CORRECTN
 LATI.deg                40.08:  LATITUDE
 LONG.deg                51.24:  LONGITUDE
 WHNS.m                  -7.94:  WELL HEAD N/S
 WHEW.m                   1.56:  WELL HEAD E/W
 UTMX.m              520429.26:  UTM X
 UTMY.m             4438973.87:  UTM Y
 DFWL.m                   0.00:  DISTANCE FWL
 DFSL.m                   0.00:  DISTANCE FSL
 SDEP.m                1455.00:  START DEPTH
 TDD .m                3878.01:  TOTAL DEPTH (DRILLER)
 VSDR.deg               112.75:  VERT SEC DIRECT
 GVFD.g                   1.00:  GRAVITY FIELD
 MFLD.nT              50256.00:  MAGNETIC FIELD
 MDIP.deg                59.52:  MAGNETIC DIP
 MDEC.deg                 6.43:  MAGNETIC DECL
 GRDC.deg                 0.16:  GRID CORRECTION
 AZTC.deg                 6.27:  AZM TOTAL CORR
 EPD .m                   0.00:  ELEVATION
 EGL .m                   0.00:  GROUND ELEVATION
 WDMS.m                 121.00:  WD ELEV
 APD .m                  36.60:  DEPTH ABOVE PD
 AGAP.m                  36.60:  AIR GAP
 VSEW.m                   1.56:  VERT SEC E/W
 VSNS.m                  -7.94:  VERT SEC N/S
 DEP .m                1140.01:  DEPTH
 EKB .m                  36.60:  KB ELEVATION
 EDF .m                  36.60:  DF ELEVATION
 TDL .m                1293.00:  TOTAL DEPTH (LOGGER)
 VSC .                       0:  VS TO CLOSURE
 MAGU.                 1849164:  MAGUTM CHECKSUM
~Parameter Information Block
#MNEM.UNIT       Value        Description
#---------     -----------    ---------------------------
 AV  .mps                 2.40:  Ann Velocity 
 AVMX.mps                 2.55:  Max Ann Veloc 
 AZIF.deg               134.35:  Azm, Final 
 BHAT.        Rotary Steerable:  BHA Type 
 BREV.rev               847.00:  Rev Bit Total 
 BROT.°/30m              -2.51:  Build Rotating 
 BS  .in                  8.50:  Bit Size 
 BSZ .in                  8.50:  Bit Size 
 BTPL.psig              700.00:  Bit Press Loss 
 CABU.                     Yes:  Customer Abuse 
 CGEO.          Ilgar Gurbanov:  Customer Geo 
 COMM.                     Ä_:  Run Comments 1 
 TCS .hr                140.40:  Time Ciculation Ended 
 CV  .mps                 2.27:  Crit Velocity 
 CVMX.mps                 2.45:  Max Crit Veloc 
 DD1 .         Intigam Rahimov:  Direct Drillr 1 
 DD2 .         Rasim Ibrahimov:  Direct Drillr 2 
 DDSV.                 iCruise:  DD Service 
 DEFF.%                  99.00:  % Det Eff 
 DLRX.°/30m               3.28:  Dogleg Rot Max 
 DLSO.°/30m               0.00:  Dogleg Oriented 
 DLSX.°/30m               0.00:  Dogleg Str Max 
 DRET.      23.30.00 18-Jan-20:  Drill End Time 
 DRST.      01.45.00 11-Jan-20:  Drill Start Tim 
 DTIM.hr                 94.00:  Time Drilling 
 EDEP.m                3878.01:  End Depth 
 ENG1.       Dauren Baktybayev:  Engineer 1 
 ENG2.      Natik Hasanaghayev:  Engineer 2 
 ENG3.          Rustam Safarov:  Engineer 3 
 ETIM.      08.00.00 20-Jan-20:  End Time 
 FLOI.gpm               532.00:  Flow In 
 FLON.gpm               500.00:  Flow In Min 
 FLOS.cptm                0.00:  Fluid Loss 
 FLOX.gpm               540.00:  Flow In Max 
 FTRO.       Formation Presure:  FTWD Run Obj 
 HPRE.                     Yes:  High Pressure 
 HTEM.                      No:  High Temp 
 HYDO.m                   1.80:  Hydro Offset 
 IFIN.deg                39.86:  Inc, Final 
 IMAX.deg                59.73:  Inc Max 
 IMIN.deg                39.25:  Inc Min 
 IMND.m                3816.77:  Inc Min Depth 
 IMXD.m                2596.33:  Inc Max Depth 
 JARR.                      No:  Jarring 
 LETM.      23.30.00 18-Jan-20:  Log End Time 
 LOST.hr                     0:  Lost Rig Time 
 LSTM.      01.45.00 11-Jan-20:  Log Start Time 
 MDCL.ppm             41500.00:  Mud Chlorides 
 MDES.     Inversion Oil/Synthetic:  Mud Desc 
 DFD .sg                  1.48:  Mud Density 
 MDMN.sg                  1.48:  Dens Mud Min 
 MDMX.sg                  1.48:  Dens Mud Max 
 MOIL.                      54:  Run Mud Oil % 
 MOWR.                   72:28:  Run Mud OWR 
 MSND.                       0:  Run Mud Sand % 
 MSOL.                      23:  Run Mud Solids% 
 DFV .spqt               86.00:  Mud Viscosity 
 MWOD.in                  6.75:  MWD Tool OD 
 MWSI.                      No:  Serv Intrp, MWD 
 OTIM.hr                223.40:  Time Operating 
 PCON.           Look Like New:  Pad Condition 
 PMAX.psia            32446.79:  Press Op, Max 
 PV  .cP                 49.00:  Mud PV 
 RUN .                     200:  Run Number 
 ROPA.m/hr               12.48:  ROP Avg 
 ROPN.m/hr                8.00:  ROP Min 
 ROPX.m/hr               27.00:  ROP Max 
 RPMA.rpm               121.00:  RPM Surface Avg 
 RPMN.rpm                60.00:  RPM Surface Min 
 RPMX.rpm               140.00:  RPM Surface Max 
 RRUN.                    L202:  Rig Run Number 
 RTIM.hr                  7.25:  Time Reaming 
 SAZI.deg               123.49:  Azm, Start 
 SDEP.m                2585.01:  Start Depth 
 SIDD.                      No:  Serv Intrp, DD 
 SINC.deg                59.93:  Inc, Start 
 SPPA.psig             3539.00:  SPP Avg 
 SPPN.psig             3050.00:  SPP Min 
 SPPX.psig             3950.00:  SPP Max 
 STIM.      19.00.00 10-Jan-20:  Start Time 
 SVCS.                 DD, MWD:  Services 
 SVER.                    9.20:  Sperry Version 
 TDAT.m                1293.00:  Tot Depth Attmp 
 TDDF.                      No:  Trip for DD 
 TDLG.m                1293.00:  Tot Depth Loggd 
 TFF .                      No:  Trip for Fail 
 TQAA.f-kp               16.00:  Torque Abs Avg 
 TQAN.f-kp               11.00:  Torque Abs Min 
 TQAX.f-kp               18.00:  Torque Abs Max 
 TRRT.°/30m               1.25:  Turn Rotating 
 MRT .                  EWR-M5:  Maximum Recorded Temperature 
 TTMX.degC               84.00:  Max Tool Temp 
 VS01.          AZ90514619R5C6:  Virtual Str1 SN 
 VS02.        AZ90552592N2L2C6:  Virtual Str2 SN 
 VS03.        AZ90571337Z1W1C6:  Virtual Str3 SN 
 VS04.         AZ90513690K23C6:  Virtual Str4 SN 
 VS05.           AZ90594857F11:  Virtual Str5 SN 
 VS06.                13102166:  Virtual Str6 SN 
 WBMN.klb                 7.00:  WOB Min 
 WITN.            Peter Wilson:  Customer Rep 
 WOBA.klb                 9.95:  WOB Avg 
 WOBX.klb                10.00:  WOB Max 
 YP  .lhf2               36.00:  Yield Point 
~Curve Information Block
#MNEM.UNIT                 API CODE     Curve Description
#---------               -----------    ---------------------------
 TIME.HHMMSS            00 000 000 000:  GT Time & Date
 GTDEPTH.m              00 000 000 000:  GT Depth
 GTPQH.psia             00 000 000 000:  GT HR Quartz Pressure
 GTTQ.degC              00 000 000 000:  GT Quartz Temperature
 GTTN.NONE              00 000 000 000:  GT Test Number
 GTET.sec               00 000 000 000:  GT Elapsed Test Time
 GTTVD.m                00 000 000 000:  GT True Vertical Depth
#Other Information
#
#WARRANTY: Halliburton will use its best efforts to furnish customers with 
#accurate information and interpretations that are part of, and incident to, the services 
#provided.  However, Halliburton cannot and does not warrant the accuracy 
#or correctness of such information and interpretations.  Under no circumstances should any 
#such information or interpretation be relied upon as the sole basis for any drilling, 
#completion, production, or financial decision or any procedure involving any risk to the 
#safety of any drilling venture, drilling rig or its crew or any other third party.  The 
#Customer has full responsibility for all drilling, completion and production operation.  
#Halliburton makes no representations or warranties, either expressed or 
#implied, including, but not limited to, the implied warranties of merchantability or fitness 
#for a particular purpose, with respect to the services rendered.  In no event will 
#Halliburton be liable for failure to obtain any particular results or for 
#any damages, including, but not limited to, indirect, special or consequential damages, 
#resulting from the use of any information or interpretation provided by Halliburton.
#
~A           TIME           GTDEPTH  GTPQH  GTTQ  GTTN  GTET   GTTVD  
# ...
   17:37:51.898.18-Jan-2020 3785.01 3650.94 82.17 6.00  69.01 2848.88
   17:37:52.098.18-Jan-2020 3785.01 3650.94 82.17 6.00  69.21 2848.88
   17:37:52.298.18-Jan-2020 3785.01 3659.43 82.17 6.00  69.41 2848.88
   17:37:52.498.18-Jan-2020 3785.01 3660.94 82.17 6.00  69.61 2848.88
   17:37:52.698.18-Jan-2020 3785.01 3666.35 82.17 6.00  69.81 2848.88
   17:37:52.898.18-Jan-2020 3785.01 3670.49 82.17 6.00  70.01 2848.88
   17:37:53.098.18-Jan-2020 3785.01 3670.49 82.17 6.00  70.21 2848.88
   17:37:53.298.18-Jan-2020 3785.01 3678.22 82.17 6.00  70.41 2848.88
   17:37:53.498.18-Jan-2020 3785.01 3680.16 82.17 6.00  70.61 2848.88
   17:37:53.698.18-Jan-2020 3785.01 3685.47 82.17 6.00  70.81 2848.88
   17:37:53.898.18-Jan-2020 3785.01 3689.42 82.17 6.00  71.01 2848.88
   17:37:54.098.18-Jan-2020 3785.01 3689.42 82.17 6.00  71.21 2848.88
   17:37:54.298.18-Jan-2020 3785.01 3694.85 82.17 6.00  71.41 2848.88
   17:37:54.498.18-Jan-2020 3785.01 3698.85 82.17 6.00  71.61 2848.88
   17:37:54.698.18-Jan-2020 3785.01 3702.72 82.17 6.00  71.81 2848.88
   17:37:54.898.18-Jan-2020 3785.01 3705.42 82.17 6.00  72.01 2848.88
   17:37:55.098.18-Jan-2020 3785.01 3705.42 82.17 6.00  72.21 2848.88
   17:37:55.298.18-Jan-2020 3785.01 3711.70 82.17 6.00  72.41 2848.88
   17:37:55.498.18-Jan-2020 3785.01 3714.68 82.17 6.00  72.61 2848.88
   17:37:55.698.18-Jan-2020 3785.01 3717.49 82.17 6.00  72.81 2848.88
   17:37:55.898.18-Jan-2020 3785.01 3720.03 82.17 6.00  73.01 2848.88
   17:37:56.098.18-Jan-2020 3785.01 3720.03 82.17 6.00  73.21 2848.88
   17:37:56.298.18-Jan-2020 3785.01 3725.53 82.17 6.00  73.41 2848.88
   17:37:56.498.18-Jan-2020 3785.01 3728.21 82.17 6.00  73.61 2848.88
   17:37:56.698.18-Jan-2020 3785.01 3730.57 82.17 6.00  73.81 2848.88
   17:37:56.898.18-Jan-2020 3785.01 3731.23 82.17 6.00  74.01 2848.88
   17:37:57.098.18-Jan-2020 3785.01 3731.23 82.17 6.00  74.21 2848.88
   17:37:57.298.18-Jan-2020 3785.01 3736.18 82.17 6.00  74.41 2848.88
   17:37:57.498.18-Jan-2020 3785.01 3738.46 82.17 6.00  74.61 2848.88
   17:37:57.698.18-Jan-2020 3785.01 3738.77 82.17 6.00  74.81 2848.88
   17:37:57.898.18-Jan-2020 3785.01 3742.71 82.17 6.00  75.01 2848.88
   17:37:58.098.18-Jan-2020 3785.01 3742.71 82.17 6.00  75.21 2848.88
   17:37:58.298.18-Jan-2020 3785.01 3747.37 82.17 6.00  75.41 2848.88
   17:37:58.498.18-Jan-2020 3785.01 3749.29 82.17 6.00  75.61 2848.88
   17:37:58.698.18-Jan-2020 3785.01 3751.47 82.17 6.00  75.81 2848.88
   17:37:58.898.18-Jan-2020 3785.01 3753.24 82.17 6.00  76.01 2848.88
   17:37:59.099.18-Jan-2020 3785.01 3753.24 82.17 6.00  76.21 2848.88
   17:37:59.299.18-Jan-2020 3785.01 3757.03 82.17 6.00  76.41 2848.88
   17:37:59.499.18-Jan-2020 3785.01 3758.99 82.17 6.00  76.61 2848.88
   17:37:59.699.18-Jan-2020 3785.01 3760.85 82.17 6.00  76.81 2848.88
   17:37:59.899.18-Jan-2020 3785.01 3762.58 82.17 6.00  77.01 2848.88
   17:38:00.099.18-Jan-2020 3785.01 3762.58 82.17 6.00  77.21 2848.88
   17:38:00.299.18-Jan-2020 3785.01 3764.96 82.17 6.00  77.41 2848.88
   17:38:00.499.18-Jan-2020 3785.01 3767.22 82.17 6.00  77.61 2848.88
   17:38:00.699.18-Jan-2020 3785.01 3769.01 82.17 6.00  77.81 2848.88
   17:38:00.899.18-Jan-2020 3785.01 3770.83 82.17 6.00  78.01 2848.88
   17:38:01.099.18-Jan-2020 3785.01 3770.83 82.17 6.00  78.21 2848.88
   17:38:01.299.18-Jan-2020 3785.01 3773.02 82.17 6.00  78.41 2848.88
   17:38:01.499.18-Jan-2020 3785.01 3773.94 82.17 6.00  78.61 2848.88
   17:38:01.699.18-Jan-2020 3785.01 3776.65 82.17 6.00  78.81 2848.88
   17:38:01.899.18-Jan-2020 3785.01 3778.43 82.17 6.00  79.01 2848.88
   17:38:02.099.18-Jan-2020 3785.01 3778.43 82.17 6.00  79.21 2848.88
   17:38:02.299.18-Jan-2020 3785.01 3781.12 82.17 6.00  79.41 2848.88
   17:38:02.499.18-Jan-2020 3785.01 3782.26 82.17 6.00  79.61 2848.88
   17:38:02.699.18-Jan-2020 3785.01 3781.64 82.17 6.00  79.81 2848.88
   17:38:02.899.18-Jan-2020 3785.01 3784.87 82.17 6.00  80.01 2848.88
   17:38:03.099.18-Jan-2020 3785.01 3784.87 82.17 6.00  80.21 2848.88
   17:38:03.299.18-Jan-2020 3785.01 3785.86 82.17 6.00  80.41 2848.88
   17:38:03.499.18-Jan-2020 3785.01 3788.89 82.17 6.00  80.61 2848.88
   17:38:03.699.18-Jan-2020 3785.01 3790.14 82.17 6.00  80.81 2848.88
   17:38:03.899.18-Jan-2020 3785.01 3791.59 82.16 6.00  81.01 2848.88
   17:38:04.099.18-Jan-2020 3785.01 3791.59 82.16 6.00  81.21 2848.88
   17:38:04.299.18-Jan-2020 3785.01 3793.86 82.16 6.00  81.41 2848.88
   17:38:04.499.18-Jan-2020 3785.01 3794.89 82.16 6.00  81.61 2848.88
   17:38:04.699.18-Jan-2020 3785.01 3795.99 82.16 6.00  81.81 2848.88
   17:38:04.899.18-Jan-2020 3785.01 3797.25 82.16 6.00  82.01 2848.88
   17:38:05.099.18-Jan-2020 3785.01 3797.25 82.16 6.00  82.21 2848.88
   17:38:05.299.18-Jan-2020 3785.01 3799.34 82.16 6.00  82.41 2848.88
   17:38:05.499.18-Jan-2020 3785.01 3800.24 82.16 6.00  82.61 2848.88
   17:38:05.699.18-Jan-2020 3785.01 3801.23 82.16 6.00  82.81 2848.88
   17:38:05.899.18-Jan-2020 3785.01 3802.20 82.16 6.00  83.01 2848.88
   17:38:06.099.18-Jan-2020 3785.01 3802.20 82.16 6.00  83.21 2848.88
   17:38:06.299.18-Jan-2020 3785.01 3804.15 82.16 6.00  83.41 2848.88
   17:38:06.499.18-Jan-2020 3785.01 3805.16 82.16 6.00  83.61 2848.88
   17:38:06.699.18-Jan-2020 3785.01 3805.75 82.16 6.00  83.81 2848.88
   17:38:06.899.18-Jan-2020 3785.01 3803.50 82.16 6.00  84.01 2848.88
   17:38:07.099.18-Jan-2020 3785.01 3803.50 82.16 6.00  84.21 2848.88
   17:38:07.299.18-Jan-2020 3785.01 3807.51 82.16 6.00  84.41 2848.88
   17:38:07.499.18-Jan-2020 3785.01 3808.30 82.16 6.00  84.61 2848.88
   17:38:07.699.18-Jan-2020 3785.01 3809.16 82.16 6.00  84.81 2848.88
   17:38:07.899.18-Jan-2020 3785.01 3809.92 82.16 6.00  85.01 2848.88
   17:38:08.099.18-Jan-2020 3785.01 3809.92 82.16 6.00  85.21 2848.88
   17:38:08.299.18-Jan-2020 3785.01 3811.38 82.16 6.00  85.41 2848.88
   17:38:08.499.18-Jan-2020 3785.01 3812.32 82.16 6.00  85.61 2848.88
   17:38:08.699.18-Jan-2020 3785.01 3813.21 82.16 6.00  85.81 2848.88
   17:38:08.899.18-Jan-2020 3785.01 3813.88 82.16 6.00  86.01 2848.88
   17:38:09.099.18-Jan-2020 3785.01 3813.88 82.16 6.00  86.21 2848.88
   17:38:09.299.18-Jan-2020 3785.01 3814.53 82.16 6.00  86.41 2848.88
   17:38:09.499.18-Jan-2020 3785.01 3815.84 82.16 6.00  86.61 2848.88
   17:38:09.699.18-Jan-2020 3785.01 3817.13 82.16 6.00  86.81 2848.88
   17:38:09.899.18-Jan-2020 3785.01 3817.87 82.16 6.00  87.01 2848.88
   17:38:10.099.18-Jan-2020 3785.01 3817.87 82.16 6.00  87.21 2848.88
   17:38:10.299.18-Jan-2020 3785.01 3818.17 82.16 6.00  87.41 2848.88
   17:38:10.499.18-Jan-2020 3785.01 3818.31 82.16 6.00  87.61 2848.88
   17:38:10.699.18-Jan-2020 3785.01 3820.24 82.16 6.00  87.81 2848.88
   17:38:10.899.18-Jan-2020 3785.01 3821.32 82.16 6.00  88.01 2848.88
   17:38:11.099.18-Jan-2020 3785.01 3821.32 82.16 6.00  88.21 2848.88
   17:38:11.299.18-Jan-2020 3785.01 3822.37 82.16 6.00  88.41 2848.88
   17:38:11.499.18-Jan-2020 3785.01 3823.10 82.15 6.00  88.61 2848.88
   17:38:11.699.18-Jan-2020 3785.01 3823.73 82.15 6.00  88.81 2848.88
   17:38:11.899.18-Jan-2020 3785.01 3824.24 82.15 6.00  89.01 2848.88
   17:38:12.099.18-Jan-2020 3785.01 3824.24 82.15 6.00  89.21 2848.88
   17:38:12.299.18-Jan-2020 3785.01 3823.95 82.15 6.00  89.41 2848.88
   17:38:12.500.18-Jan-2020 3785.01 3825.27 82.15 6.00  89.61 2848.88
   17:38:12.700.18-Jan-2020 3785.01 3826.43 82.15 6.00  89.81 2848.88
   17:38:12.900.18-Jan-2020 3785.01 3827.44 82.15 6.00  90.01 2848.88
   17:38:13.100.18-Jan-2020 3785.01 3827.44 82.15 6.00  90.21 2848.88
   17:38:13.300.18-Jan-2020 3785.01 3828.21 82.15 6.00  90.41 2848.88
   17:38:13.500.18-Jan-2020 3785.01 3828.84 82.15 6.00  90.61 2848.88
   17:38:13.700.18-Jan-2020 3785.01 3829.04 82.15 6.00  90.81 2848.88
   17:38:13.900.18-Jan-2020 3785.01 3829.81 82.15 6.00  91.01 2848.88
   17:38:14.100.18-Jan-2020 3785.01 3829.81 82.15 6.00  91.21 2848.88
   17:38:14.300.18-Jan-2020 3785.01 3830.30 82.15 6.00  91.41 2848.88
   17:38:14.500.18-Jan-2020 3785.01 3831.10 82.15 6.00  91.61 2848.88
   17:38:14.700.18-Jan-2020 3785.01 3831.64 82.15 6.00  91.81 2848.88
