~Version Information
 VERS.                  2.0:   CWLS log ASCII Standard -VERSION 2.0
 WRAP.                   NO:   One line per depth step
~Well Information Block
#MNEM.UNIT     VALUE/NAME     DESCRIPTION
#---------     -----------    ---------------------------
 STRT.S             13:31:21 18-Jan-20: START TIME 13:31:21 18-Jan-20
 STOP.S             13:39:29 18-Jan-20: STOP TIME  13:39:29 18-Jan-20
 STEP.S                   0.00: STEP TIME
 NULL.                 -999.25: NULL VALUE
 DFWT.                        :  DIST FWL TEXT
 DFST.                        :  DIST FSL TEXT
 DMF .             Drill Floor:  DRILL MEAS FROM
 STIM.      09.30.00 26-Dec-19:  START TIME
 DATE.      08.00.00 20-Jan-20:  END TIME
 SPUD.               23-Nov-19:  SPUD DATE
 NREF.                    Grid:  NORTH REFERENCE
 HPTY.       Minimum Curvature:  HOLE POS TYPE
 DMOD.             Drill Model:  DRILL MOD DESC
 SVYD.                  Survey:  SURVEY DESC
 ILTD.               Lithology:  INTERP LTH DESC
 FTOP.          Formation Tops:  FORM TOPS DESC
 SON .        AZ-XX-0906192647:  JOB NUMBER
 WTYP.                Deviated:  WELL TYPE
 COMP.     BP Exploration (Caspian Sea) Ltd:  COMPANY
 BASE.              Azerbaijan:  LOGGING EQUIPMENT BASE LOCATION
 REGN.                 Eurasia:  REGION
 FLD .                     ACG:  FIELD NAME
 SRVC.              KCA Deutag:  CONTRACTOR
 MWDS.                    Baku:  MWD SHOP
 WELL.     A10 (Slot 20) - SCP:  WELL NAME
 JOBN.        AZ-XX-0906192647:  JOB TICKET NUMB
 RIG .                 Chirag1:  RIG NAME
 DCON.     Halliburton Sperry Drilling:  DIRECTNL CONTR
 UNIT.                     N/A:  LOGGING EQUIPMENT ID
 PDAT.          Mean Sea Level:  PERMANENT DATUM
 MDS .        Operator Entered:  MAG DATA SOURCE
 CTRY.              Azerbaijan:  COUNTRY NAME
 UWI .            /AZE00000090:  UNIQUE WELL IDENTIFIER
 API .            /AZE00000090:  API NUMBER
 CNTY.                        :  COUNTY
 PROV.                        :  PROVINCE
 STAT.                        :  STATE
 LOC .                        :  LOCATION
 LMF .             Drill Floor:  LOG MEASURED FROM
 TVDS.m                  36.60:  TVDSS CORRECTN
 LATI.deg                40.08:  LATITUDE
 LONG.deg                51.24:  LONGITUDE
 WHNS.m                  -7.94:  WELL HEAD N/S
 WHEW.m                   1.56:  WELL HEAD E/W
 UTMX.m              520429.26:  UTM X
 UTMY.m             4438973.87:  UTM Y
 DFWL.m                   0.00:  DISTANCE FWL
 DFSL.m                   0.00:  DISTANCE FSL
 SDEP.m                1455.00:  START DEPTH
 TDD .m                3878.01:  TOTAL DEPTH (DRILLER)
 VSDR.deg               112.75:  VERT SEC DIRECT
 GVFD.g                   1.00:  GRAVITY FIELD
 MFLD.nT              50256.00:  MAGNETIC FIELD
 MDIP.deg                59.52:  MAGNETIC DIP
 MDEC.deg                 6.43:  MAGNETIC DECL
 GRDC.deg                 0.16:  GRID CORRECTION
 AZTC.deg                 6.27:  AZM TOTAL CORR
 EPD .m                   0.00:  ELEVATION
 EGL .m                   0.00:  GROUND ELEVATION
 WDMS.m                 121.00:  WD ELEV
 APD .m                  36.60:  DEPTH ABOVE PD
 AGAP.m                  36.60:  AIR GAP
 VSEW.m                   1.56:  VERT SEC E/W
 VSNS.m                  -7.94:  VERT SEC N/S
 DEP .m                1140.01:  DEPTH
 EKB .m                  36.60:  KB ELEVATION
 EDF .m                  36.60:  DF ELEVATION
 TDL .m                1293.00:  TOTAL DEPTH (LOGGER)
 VSC .                       0:  VS TO CLOSURE
 MAGU.                 1849164:  MAGUTM CHECKSUM
~Parameter Information Block
#MNEM.UNIT       Value        Description
#---------     -----------    ---------------------------
 AV  .mps                 2.40:  Ann Velocity 
 AVMX.mps                 2.55:  Max Ann Veloc 
 AZIF.deg               134.35:  Azm, Final 
 BHAT.        Rotary Steerable:  BHA Type 
 BREV.rev               847.00:  Rev Bit Total 
 BROT.°/30m              -2.51:  Build Rotating 
 BS  .in                  8.50:  Bit Size 
 BSZ .in                  8.50:  Bit Size 
 BTPL.psig              700.00:  Bit Press Loss 
 CABU.                     Yes:  Customer Abuse 
 CGEO.          Ilgar Gurbanov:  Customer Geo 
 COMM.                     ¸P:  Run Comments 1 
 TCS .hr                140.40:  Time Ciculation Ended 
 CV  .mps                 2.27:  Crit Velocity 
 CVMX.mps                 2.45:  Max Crit Veloc 
 DD1 .         Intigam Rahimov:  Direct Drillr 1 
 DD2 .         Rasim Ibrahimov:  Direct Drillr 2 
 DDSV.                 iCruise:  DD Service 
 DEFF.%                  99.00:  % Det Eff 
 DLRX.°/30m               3.28:  Dogleg Rot Max 
 DLSO.°/30m               0.00:  Dogleg Oriented 
 DLSX.°/30m               0.00:  Dogleg Str Max 
 DRET.      23.30.00 18-Jan-20:  Drill End Time 
 DRST.      01.45.00 11-Jan-20:  Drill Start Tim 
 DTIM.hr                 94.00:  Time Drilling 
 EDEP.m                3878.01:  End Depth 
 ENG1.       Dauren Baktybayev:  Engineer 1 
 ENG2.      Natik Hasanaghayev:  Engineer 2 
 ENG3.          Rustam Safarov:  Engineer 3 
 ETIM.      08.00.00 20-Jan-20:  End Time 
 FLOI.gpm               532.00:  Flow In 
 FLON.gpm               500.00:  Flow In Min 
 FLOS.cptm                0.00:  Fluid Loss 
 FLOX.gpm               540.00:  Flow In Max 
 FTRO.       Formation Presure:  FTWD Run Obj 
 HPRE.                     Yes:  High Pressure 
 HTEM.                      No:  High Temp 
 HYDO.m                   1.80:  Hydro Offset 
 IFIN.deg                39.86:  Inc, Final 
 IMAX.deg                59.73:  Inc Max 
 IMIN.deg                39.25:  Inc Min 
 IMND.m                3816.77:  Inc Min Depth 
 IMXD.m                2596.33:  Inc Max Depth 
 JARR.                      No:  Jarring 
 LETM.      23.30.00 18-Jan-20:  Log End Time 
 LOST.hr                     0:  Lost Rig Time 
 LSTM.      01.45.00 11-Jan-20:  Log Start Time 
 MDCL.ppm             41500.00:  Mud Chlorides 
 MDES.     Inversion Oil/Synthetic:  Mud Desc 
 DFD .sg                  1.48:  Mud Density 
 MDMN.sg                  1.48:  Dens Mud Min 
 MDMX.sg                  1.48:  Dens Mud Max 
 MOIL.                      54:  Run Mud Oil % 
 MOWR.                   72:28:  Run Mud OWR 
 MSND.                       0:  Run Mud Sand % 
 MSOL.                      23:  Run Mud Solids% 
 DFV .spqt               86.00:  Mud Viscosity 
 MWOD.in                  6.75:  MWD Tool OD 
 MWSI.                      No:  Serv Intrp, MWD 
 OTIM.hr                223.40:  Time Operating 
 PCON.           Look Like New:  Pad Condition 
 PMAX.psia            32446.79:  Press Op, Max 
 PV  .cP                 49.00:  Mud PV 
 RUN .                     200:  Run Number 
 ROPA.m/hr               12.48:  ROP Avg 
 ROPN.m/hr                8.00:  ROP Min 
 ROPX.m/hr               27.00:  ROP Max 
 RPMA.rpm               121.00:  RPM Surface Avg 
 RPMN.rpm                60.00:  RPM Surface Min 
 RPMX.rpm               140.00:  RPM Surface Max 
 RRUN.                    L202:  Rig Run Number 
 RTIM.hr                  7.25:  Time Reaming 
 SAZI.deg               123.49:  Azm, Start 
 SDEP.m                2585.01:  Start Depth 
 SIDD.                      No:  Serv Intrp, DD 
 SINC.deg                59.93:  Inc, Start 
 SPPA.psig             3539.00:  SPP Avg 
 SPPN.psig             3050.00:  SPP Min 
 SPPX.psig             3950.00:  SPP Max 
 STIM.      19.00.00 10-Jan-20:  Start Time 
 SVCS.                 DD, MWD:  Services 
 SVER.                    9.20:  Sperry Version 
 TDAT.m                1293.00:  Tot Depth Attmp 
 TDDF.                      No:  Trip for DD 
 TDLG.m                1293.00:  Tot Depth Loggd 
 TFF .                      No:  Trip for Fail 
 TQAA.f-kp               16.00:  Torque Abs Avg 
 TQAN.f-kp               11.00:  Torque Abs Min 
 TQAX.f-kp               18.00:  Torque Abs Max 
 TRRT.°/30m               1.25:  Turn Rotating 
 MRT .                  EWR-M5:  Maximum Recorded Temperature 
 TTMX.degC               84.00:  Max Tool Temp 
 VS01.          AZ90514619R5C6:  Virtual Str1 SN 
 VS02.        AZ90552592N2L2C6:  Virtual Str2 SN 
 VS03.        AZ90571337Z1W1C6:  Virtual Str3 SN 
 VS04.         AZ90513690K23C6:  Virtual Str4 SN 
 VS05.           AZ90594857F11:  Virtual Str5 SN 
 VS06.                13102166:  Virtual Str6 SN 
 WBMN.klb                 7.00:  WOB Min 
 WITN.            Peter Wilson:  Customer Rep 
 WOBA.klb                 9.95:  WOB Avg 
 WOBX.klb                10.00:  WOB Max 
 YP  .lhf2               36.00:  Yield Point 
~Curve Information Block
#MNEM.UNIT                 API CODE     Curve Description
#---------               -----------    ---------------------------
 TIME.HHMMSS            00 000 000 000:  GT Time & Date
 GTDEPTH.m              00 000 000 000:  GT Depth
 GTPQH.psia             00 000 000 000:  GT HR Quartz Pressure
 GTTQ.degC              00 000 000 000:  GT Quartz Temperature
 GTTN.NONE              00 000 000 000:  GT Test Number
 GTET.sec               00 000 000 000:  GT Elapsed Test Time
 GTTVD.m                00 000 000 000:  GT True Vertical Depth
#Other Information
#
#WARRANTY: Halliburton will use its best efforts to furnish customers with 
#accurate information and interpretations that are part of, and incident to, the services 
#provided.  However, Halliburton cannot and does not warrant the accuracy 
#or correctness of such information and interpretations.  Under no circumstances should any 
#such information or interpretation be relied upon as the sole basis for any drilling, 
#completion, production, or financial decision or any procedure involving any risk to the 
#safety of any drilling venture, drilling rig or its crew or any other third party.  The 
#Customer has full responsibility for all drilling, completion and production operation.  
#Halliburton makes no representations or warranties, either expressed or 
#implied, including, but not limited to, the implied warranties of merchantability or fitness 
#for a particular purpose, with respect to the services rendered.  In no event will 
#Halliburton be liable for failure to obtain any particular results or for 
#any damages, including, but not limited to, indirect, special or consequential damages, 
#resulting from the use of any information or interpretation provided by Halliburton.
#
~A           TIME           GTDEPTH  GTPQH  GTTQ  GTTN  GTET   GTTVD  
   13:31:21.135.18-Jan-2020 3754.51 6376.93 81.55 4.00   0.00 2825.33
   13:31:21.335.18-Jan-2020 3754.51 6376.93 81.55 4.00   0.20 2825.33
   13:31:21.535.18-Jan-2020 3754.51 6378.31 81.55 4.00   0.40 2825.33
   13:31:21.735.18-Jan-2020 3754.51 6377.79 81.55 4.00   0.60 2825.33
   13:31:21.935.18-Jan-2020 3754.51 6378.18 81.55 4.00   0.80 2825.33
   13:31:22.135.18-Jan-2020 3754.51 6389.78 81.55 4.00   1.00 2825.33
   13:31:22.335.18-Jan-2020 3754.51 6389.78 81.55 4.00   1.20 2825.33
   13:31:22.535.18-Jan-2020 3754.51 6377.93 81.55 4.00   1.40 2825.33
   13:31:22.735.18-Jan-2020 3754.51 6379.64 81.55 4.00   1.60 2825.33
   13:31:22.935.18-Jan-2020 3754.51 6380.49 81.55 4.00   1.80 2825.33
   13:31:23.135.18-Jan-2020 3754.51 6380.46 81.55 4.00   2.00 2825.33
   13:31:23.335.18-Jan-2020 3754.51 6380.46 81.55 4.00   2.20 2825.33
   13:31:23.535.18-Jan-2020 3754.51 6380.23 81.55 4.00   2.40 2825.33
   13:31:23.736.18-Jan-2020 3754.51 6381.22 81.55 4.00   2.60 2825.33
   13:31:23.936.18-Jan-2020 3754.51 6392.07 81.55 4.00   2.80 2825.33
   13:31:24.136.18-Jan-2020 3754.51 6382.65 81.55 4.00   3.00 2825.33
   13:31:24.336.18-Jan-2020 3754.51 6382.65 81.55 4.00   3.20 2825.33
   13:31:24.536.18-Jan-2020 3754.51 6393.76 81.54 4.00   3.40 2825.33
   13:31:24.736.18-Jan-2020 3754.51 6381.32 81.54 4.00   3.60 2825.33
   13:31:24.936.18-Jan-2020 3754.51 6381.97 81.54 4.00   3.80 2825.33
   13:31:25.136.18-Jan-2020 3754.51 6385.33 81.54 4.00   4.00 2825.33
   13:31:25.336.18-Jan-2020 3754.51 6385.33 81.54 4.00   4.20 2825.33
   13:31:25.536.18-Jan-2020 3754.51 6381.88 81.54 4.00   4.40 2825.33
   13:31:25.736.18-Jan-2020 3754.51 6381.36 81.54 4.00   4.60 2825.33
   13:31:25.936.18-Jan-2020 3754.51 6389.55 81.54 4.00   4.80 2825.33
   13:31:26.136.18-Jan-2020 3754.51 6383.50 81.54 4.00   5.00 2825.33
   13:31:26.336.18-Jan-2020 3754.51 6383.50 81.54 4.00   5.20 2825.33
   13:31:26.536.18-Jan-2020 3754.51 6382.20 81.54 4.00   5.40 2825.33
   13:31:26.736.18-Jan-2020 3754.51 6385.07 81.54 4.00   5.60 2825.33
   13:31:26.937.18-Jan-2020 3754.51 6390.12 81.54 4.00   5.80 2825.33
   13:31:27.137.18-Jan-2020 3754.51 6386.63 81.54 4.00   6.00 2825.33
   13:31:27.337.18-Jan-2020 3754.51 6386.63 81.54 4.00   6.20 2825.33
   13:31:27.537.18-Jan-2020 3754.51 6387.79 81.54 4.00   6.40 2825.33
   13:31:27.737.18-Jan-2020 3754.51 6396.57 81.54 4.00   6.60 2825.33
   13:31:27.937.18-Jan-2020 3754.51 6385.89 81.54 4.00   6.80 2825.33
   13:31:28.137.18-Jan-2020 3754.51 6385.51 81.53 4.00   7.00 2825.33
   13:31:28.337.18-Jan-2020 3754.51 6385.51 81.53 4.00   7.20 2825.33
   13:31:28.537.18-Jan-2020 3754.51 6386.00 81.53 4.00   7.40 2825.33
   13:31:28.737.18-Jan-2020 3754.51 6386.94 81.53 4.00   7.60 2825.33
   13:31:28.937.18-Jan-2020 3754.51 6386.61 81.53 4.00   7.80 2825.33
   13:31:29.137.18-Jan-2020 3754.51 6389.14 81.53 4.00   8.00 2825.33
   13:31:29.337.18-Jan-2020 3754.51 6389.14 81.53 4.00   8.20 2825.33
   13:31:29.537.18-Jan-2020 3754.51 6388.16 81.53 4.00   8.40 2825.33
   13:31:29.737.18-Jan-2020 3754.51 6399.39 81.53 4.00   8.60 2825.33
   13:31:29.938.18-Jan-2020 3754.51 6391.79 81.53 4.00   8.80 2825.33
   13:31:30.138.18-Jan-2020 3754.51 6388.81 81.53 4.00   9.00 2825.33
   13:31:30.338.18-Jan-2020 3754.51 6388.81 81.53 4.00   9.20 2825.33
   13:31:30.538.18-Jan-2020 3754.51 6392.53 81.53 4.00   9.40 2825.33
   13:31:30.738.18-Jan-2020 3754.51 6391.41 81.53 4.00   9.60 2825.33
   13:31:30.938.18-Jan-2020 3754.51 6392.01 81.53 4.00   9.80 2825.33
   13:31:31.138.18-Jan-2020 3754.51 6390.42 81.53 4.00  10.00 2825.33
   13:31:31.338.18-Jan-2020 3754.51 6390.42 81.53 4.00  10.20 2825.33
   13:31:31.538.18-Jan-2020 3754.51 6395.43 81.53 4.00  10.40 2825.33
   13:31:31.738.18-Jan-2020 3754.51 6394.11 81.53 4.00  10.60 2825.33
   13:31:31.938.18-Jan-2020 3754.51 6393.61 81.53 4.00  10.80 2825.33
   13:31:32.138.18-Jan-2020 3754.51 6391.54 81.52 4.00  11.00 2825.33
   13:31:32.338.18-Jan-2020 3754.51 6391.54 81.52 4.00  11.20 2825.33
   13:31:32.538.18-Jan-2020 3754.51 6394.61 81.52 4.00  11.40 2825.33
   13:31:32.738.18-Jan-2020 3754.51 6392.80 81.52 4.00  11.60 2825.33
   13:31:32.939.18-Jan-2020 3754.51 6392.94 81.52 4.00  11.80 2825.33
   13:31:33.139.18-Jan-2020 3754.51 6394.44 81.52 4.00  12.00 2825.33
   13:31:33.339.18-Jan-2020 3754.51 6394.44 81.52 4.00  12.20 2825.33
   13:31:33.539.18-Jan-2020 3754.51 6396.53 81.52 4.00  12.40 2825.33
   13:31:33.739.18-Jan-2020 3754.51 6395.64 81.52 4.00  12.60 2825.33
   13:31:33.939.18-Jan-2020 3754.51 6394.22 81.52 4.00  12.80 2825.33
   13:31:34.139.18-Jan-2020 3754.51 6395.18 81.52 4.00  13.00 2825.33
   13:31:34.339.18-Jan-2020 3754.51 6395.18 81.52 4.00  13.20 2825.33
   13:31:34.539.18-Jan-2020 3754.51 6397.93 81.52 4.00  13.40 2825.33
   13:31:34.739.18-Jan-2020 3754.51 6404.23 81.52 4.00  13.60 2825.33
   13:31:34.939.18-Jan-2020 3754.51 6401.32 81.52 4.00  13.80 2825.33
   13:31:35.139.18-Jan-2020 3754.51 6398.92 81.52 4.00  14.00 2825.33
   13:31:35.339.18-Jan-2020 3754.51 6398.92 81.52 4.00  14.20 2825.33
   13:31:35.539.18-Jan-2020 3754.51 6396.87 81.52 4.00  14.40 2825.33
   13:31:35.739.18-Jan-2020 3754.51 6398.79 81.52 4.00  14.60 2825.33
   13:31:35.939.18-Jan-2020 3754.51 6397.18 81.51 4.00  14.80 2825.33
   13:31:36.140.18-Jan-2020 3754.51 6398.50 81.51 4.00  15.00 2825.33
   13:31:36.340.18-Jan-2020 3754.51 6398.50 81.51 4.00  15.20 2825.33
   13:31:36.540.18-Jan-2020 3754.51 6398.84 81.51 4.00  15.40 2825.33
   13:31:36.740.18-Jan-2020 3754.51 6397.51 81.51 4.00  15.61 2825.33
   13:31:36.940.18-Jan-2020 3754.51 6400.18 81.51 4.00  15.81 2825.33
   13:31:37.140.18-Jan-2020 3754.51 6399.86 81.51 4.00  16.01 2825.33
   13:31:37.340.18-Jan-2020 3754.51 6399.86 81.51 4.00  16.21 2825.33
   13:31:37.540.18-Jan-2020 3754.51 6401.57 81.51 4.00  16.41 2825.33
   13:31:37.740.18-Jan-2020 3754.51 6404.77 81.51 4.00  16.61 2825.33
   13:31:37.940.18-Jan-2020 3754.51 6403.69 81.51 4.00  16.81 2825.33
   13:31:38.140.18-Jan-2020 3754.51 6412.66 81.51 4.00  17.01 2825.33
   13:31:38.340.18-Jan-2020 3754.51 6412.66 81.51 4.00  17.21 2825.33
   13:31:38.540.18-Jan-2020 3754.51 6399.74 81.51 4.00  17.41 2825.33
   13:31:38.740.18-Jan-2020 3754.51 6403.71 81.51 4.00  17.61 2825.33
   13:31:38.940.18-Jan-2020 3754.51 6401.37 81.51 4.00  17.81 2825.33
   13:31:39.141.18-Jan-2020 3754.51 6409.90 81.51 4.00  18.01 2825.33
   13:31:39.341.18-Jan-2020 3754.51 6409.90 81.51 4.00  18.21 2825.33
   13:31:39.541.18-Jan-2020 3754.51 6402.45 81.51 4.00  18.41 2825.33
   13:31:39.741.18-Jan-2020 3754.51 6401.71 81.51 4.00  18.61 2825.33
   13:31:39.941.18-Jan-2020 3754.51 6402.70 81.50 4.00  18.81 2825.33
   13:31:40.141.18-Jan-2020 3754.51 6413.73 81.50 4.00  19.01 2825.33
   13:31:40.341.18-Jan-2020 3754.51 6413.73 81.50 4.00  19.21 2825.33
   13:31:40.541.18-Jan-2020 3754.51 6403.37 81.50 4.00  19.41 2825.33
   13:31:40.741.18-Jan-2020 3754.51 6404.67 81.50 4.00  19.61 2825.33
   13:31:40.941.18-Jan-2020 3754.51 6407.49 81.50 4.00  19.81 2825.33
   13:31:41.141.18-Jan-2020 3754.51 6417.47 81.50 4.00  20.01 2825.33
   13:31:41.341.18-Jan-2020 3754.51 6417.47 81.50 4.00  20.21 2825.33
   13:31:41.541.18-Jan-2020 3754.51 6404.66 81.50 4.00  20.41 2825.33
   13:31:41.741.18-Jan-2020 3754.51 6415.05 81.50 4.00  20.61 2825.33
   13:31:41.941.18-Jan-2020 3754.51 6409.27 81.50 4.00  20.81 2825.33
   13:31:42.141.18-Jan-2020 3754.51 6408.52 81.50 4.00  21.01 2825.33
   13:31:42.342.18-Jan-2020 3754.51 6408.52 81.50 4.00  21.21 2825.33
   13:31:42.542.18-Jan-2020 3754.51 6416.18 81.50 4.00  21.41 2825.33
   13:31:42.742.18-Jan-2020 3754.51 6405.92 81.50 4.00  21.61 2825.33
   13:31:42.942.18-Jan-2020 3754.51 6405.55 81.50 4.00  21.81 2825.33
   13:31:43.142.18-Jan-2020 3754.51 6409.89 81.50 4.00  22.01 2825.33
   13:31:43.342.18-Jan-2020 3754.51 6409.89 81.50 4.00  22.21 2825.33
   13:31:43.542.18-Jan-2020 3754.51 6406.19 81.50 4.00  22.41 2825.33
   13:31:43.742.18-Jan-2020 3754.51 6406.18 81.50 4.00  22.61 2825.33
   13:31:43.942.18-Jan-2020 3754.51 6409.98 81.49 4.00  22.81 2825.33
