~Version Information
 VERS.                  2.0:   CWLS log ASCII Standard -VERSION 2.0
 WRAP.                   NO:   One line per depth step
~Well Information Block
#MNEM.UNIT     VALUE/NAME     DESCRIPTION
#---------     -----------    ---------------------------
 STRT.S             13:31:21 18-Jan-20: START TIME 13:31:21 18-Jan-20
 STOP.S             13:39:29 18-Jan-20: STOP TIME  13:39:29 18-Jan-20
 STEP.S                   0.00: STEP TIME
 NULL.                 -999.25: NULL VALUE
 DFWT.                        :  DIST FWL TEXT
 DFST.                        :  DIST FSL TEXT
 DMF .             Drill Floor:  DRILL MEAS FROM
 STIM.      09.30.00 26-Dec-19:  START TIME
 DATE.      08.00.00 20-Jan-20:  END TIME
 SPUD.               23-Nov-19:  SPUD DATE
 NREF.                    Grid:  NORTH REFERENCE
 HPTY.       Minimum Curvature:  HOLE POS TYPE
 DMOD.             Drill Model:  DRILL MOD DESC
 SVYD.                  Survey:  SURVEY DESC
 ILTD.               Lithology:  INTERP LTH DESC
 FTOP.          Formation Tops:  FORM TOPS DESC
 SON .        AZ-XX-0906192647:  JOB NUMBER
 WTYP.                Deviated:  WELL TYPE
 COMP.     BP Exploration (Caspian Sea) Ltd:  COMPANY
 BASE.              Azerbaijan:  LOGGING EQUIPMENT BASE LOCATION
 REGN.                 Eurasia:  REGION
 FLD .                     ACG:  FIELD NAME
 SRVC.              KCA Deutag:  CONTRACTOR
 MWDS.                    Baku:  MWD SHOP
 WELL.     A10 (Slot 20) - SCP:  WELL NAME
 JOBN.        AZ-XX-0906192647:  JOB TICKET NUMB
 RIG .                 Chirag1:  RIG NAME
 DCON.     Halliburton Sperry Drilling:  DIRECTNL CONTR
 UNIT.                     N/A:  LOGGING EQUIPMENT ID
 PDAT.          Mean Sea Level:  PERMANENT DATUM
 MDS .        Operator Entered:  MAG DATA SOURCE
 CTRY.              Azerbaijan:  COUNTRY NAME
 UWI .            /AZE00000090:  UNIQUE WELL IDENTIFIER
 API .            /AZE00000090:  API NUMBER
 CNTY.                        :  COUNTY
 PROV.                        :  PROVINCE
 STAT.                        :  STATE
 LOC .                        :  LOCATION
 LMF .             Drill Floor:  LOG MEASURED FROM
 TVDS.m                  36.60:  TVDSS CORRECTN
 LATI.deg                40.08:  LATITUDE
 LONG.deg                51.24:  LONGITUDE
 WHNS.m                  -7.94:  WELL HEAD N/S
 WHEW.m                   1.56:  WELL HEAD E/W
 UTMX.m              520429.26:  UTM X
 UTMY.m             4438973.87:  UTM Y
 DFWL.m                   0.00:  DISTANCE FWL
 DFSL.m                   0.00:  DISTANCE FSL
 SDEP.m                1455.00:  START DEPTH
 TDD .m                3878.01:  TOTAL DEPTH (DRILLER)
 VSDR.deg               112.75:  VERT SEC DIRECT
 GVFD.g                   1.00:  GRAVITY FIELD
 MFLD.nT              50256.00:  MAGNETIC FIELD
 MDIP.deg                59.52:  MAGNETIC DIP
 MDEC.deg                 6.43:  MAGNETIC DECL
 GRDC.deg                 0.16:  GRID CORRECTION
 AZTC.deg                 6.27:  AZM TOTAL CORR
 EPD .m                   0.00:  ELEVATION
 EGL .m                   0.00:  GROUND ELEVATION
 WDMS.m                 121.00:  WD ELEV
 APD .m                  36.60:  DEPTH ABOVE PD
 AGAP.m                  36.60:  AIR GAP
 VSEW.m                   1.56:  VERT SEC E/W
 VSNS.m                  -7.94:  VERT SEC N/S
 DEP .m                1140.01:  DEPTH
 EKB .m                  36.60:  KB ELEVATION
 EDF .m                  36.60:  DF ELEVATION
 TDL .m                1293.00:  TOTAL DEPTH (LOGGER)
 VSC .                       0:  VS TO CLOSURE
 MAGU.                 1849164:  MAGUTM CHECKSUM
~Parameter Information Block
#MNEM.UNIT       Value        Description
#---------     -----------    ---------------------------
 AV  .mps                 2.40:  Ann Velocity 
 AVMX.mps                 2.55:  Max Ann Veloc 
 AZIF.deg               134.35:  Azm, Final 
 BHAT.        Rotary Steerable:  BHA Type 
 BREV.rev               847.00:  Rev Bit Total 
 BROT.°/30m              -2.51:  Build Rotating 
 BS  .in                  8.50:  Bit Size 
 BSZ .in                  8.50:  Bit Size 
 BTPL.psig              700.00:  Bit Press Loss 
 CABU.                     Yes:  Customer Abuse 
 CGEO.          Ilgar Gurbanov:  Customer Geo 
 COMM.                     ¸P:  Run Comments 1 
 TCS .hr                140.40:  Time Ciculation Ended 
 CV  .mps                 2.27:  Crit Velocity 
 CVMX.mps                 2.45:  Max Crit Veloc 
 DD1 .         Intigam Rahimov:  Direct Drillr 1 
 DD2 .         Rasim Ibrahimov:  Direct Drillr 2 
 DDSV.                 iCruise:  DD Service 
 DEFF.%                  99.00:  % Det Eff 
 DLRX.°/30m               3.28:  Dogleg Rot Max 
 DLSO.°/30m               0.00:  Dogleg Oriented 
 DLSX.°/30m               0.00:  Dogleg Str Max 
 DRET.      23.30.00 18-Jan-20:  Drill End Time 
 DRST.      01.45.00 11-Jan-20:  Drill Start Tim 
 DTIM.hr                 94.00:  Time Drilling 
 EDEP.m                3878.01:  End Depth 
 ENG1.       Dauren Baktybayev:  Engineer 1 
 ENG2.      Natik Hasanaghayev:  Engineer 2 
 ENG3.          Rustam Safarov:  Engineer 3 
 ETIM.      08.00.00 20-Jan-20:  End Time 
 FLOI.gpm               532.00:  Flow In 
 FLON.gpm               500.00:  Flow In Min 
 FLOS.cptm                0.00:  Fluid Loss 
 FLOX.gpm               540.00:  Flow In Max 
 FTRO.       Formation Presure:  FTWD Run Obj 
 HPRE.                     Yes:  High Pressure 
 HTEM.                      No:  High Temp 
 HYDO.m                   1.80:  Hydro Offset 
 IFIN.deg                39.86:  Inc, Final 
 IMAX.deg                59.73:  Inc Max 
 IMIN.deg                39.25:  Inc Min 
 IMND.m                3816.77:  Inc Min Depth 
 IMXD.m                2596.33:  Inc Max Depth 
 JARR.                      No:  Jarring 
 LETM.      23.30.00 18-Jan-20:  Log End Time 
 LOST.hr                     0:  Lost Rig Time 
 LSTM.      01.45.00 11-Jan-20:  Log Start Time 
 MDCL.ppm             41500.00:  Mud Chlorides 
 MDES.     Inversion Oil/Synthetic:  Mud Desc 
 DFD .sg                  1.48:  Mud Density 
 MDMN.sg                  1.48:  Dens Mud Min 
 MDMX.sg                  1.48:  Dens Mud Max 
 MOIL.                      54:  Run Mud Oil % 
 MOWR.                   72:28:  Run Mud OWR 
 MSND.                       0:  Run Mud Sand % 
 MSOL.                      23:  Run Mud Solids% 
 DFV .spqt               86.00:  Mud Viscosity 
 MWOD.in                  6.75:  MWD Tool OD 
 MWSI.                      No:  Serv Intrp, MWD 
 OTIM.hr                223.40:  Time Operating 
 PCON.           Look Like New:  Pad Condition 
 PMAX.psia            32446.79:  Press Op, Max 
 PV  .cP                 49.00:  Mud PV 
 RUN .                     200:  Run Number 
 ROPA.m/hr               12.48:  ROP Avg 
 ROPN.m/hr                8.00:  ROP Min 
 ROPX.m/hr               27.00:  ROP Max 
 RPMA.rpm               121.00:  RPM Surface Avg 
 RPMN.rpm                60.00:  RPM Surface Min 
 RPMX.rpm               140.00:  RPM Surface Max 
 RRUN.                    L202:  Rig Run Number 
 RTIM.hr                  7.25:  Time Reaming 
 SAZI.deg               123.49:  Azm, Start 
 SDEP.m                2585.01:  Start Depth 
 SIDD.                      No:  Serv Intrp, DD 
 SINC.deg                59.93:  Inc, Start 
 SPPA.psig             3539.00:  SPP Avg 
 SPPN.psig             3050.00:  SPP Min 
 SPPX.psig             3950.00:  SPP Max 
 STIM.      19.00.00 10-Jan-20:  Start Time 
 SVCS.                 DD, MWD:  Services 
 SVER.                    9.20:  Sperry Version 
 TDAT.m                1293.00:  Tot Depth Attmp 
 TDDF.                      No:  Trip for DD 
 TDLG.m                1293.00:  Tot Depth Loggd 
 TFF .                      No:  Trip for Fail 
 TQAA.f-kp               16.00:  Torque Abs Avg 
 TQAN.f-kp               11.00:  Torque Abs Min 
 TQAX.f-kp               18.00:  Torque Abs Max 
 TRRT.°/30m               1.25:  Turn Rotating 
 MRT .                  EWR-M5:  Maximum Recorded Temperature 
 TTMX.degC               84.00:  Max Tool Temp 
 VS01.          AZ90514619R5C6:  Virtual Str1 SN 
 VS02.        AZ90552592N2L2C6:  Virtual Str2 SN 
 VS03.        AZ90571337Z1W1C6:  Virtual Str3 SN 
 VS04.         AZ90513690K23C6:  Virtual Str4 SN 
 VS05.           AZ90594857F11:  Virtual Str5 SN 
 VS06.                13102166:  Virtual Str6 SN 
 WBMN.klb                 7.00:  WOB Min 
 WITN.            Peter Wilson:  Customer Rep 
 WOBA.klb                 9.95:  WOB Avg 
 WOBX.klb                10.00:  WOB Max 
 YP  .lhf2               36.00:  Yield Point 
~Curve Information Block
#MNEM.UNIT                 API CODE     Curve Description
#---------               -----------    ---------------------------
 TIME.HHMMSS            00 000 000 000:  GT Time & Date
 GTDEPTH.m              00 000 000 000:  GT Depth
 GTPQH.psia             00 000 000 000:  GT HR Quartz Pressure
 GTTQ.degC              00 000 000 000:  GT Quartz Temperature
 GTTN.NONE              00 000 000 000:  GT Test Number
 GTET.sec               00 000 000 000:  GT Elapsed Test Time
 GTTVD.m                00 000 000 000:  GT True Vertical Depth
#Other Information
#
#WARRANTY: Halliburton will use its best efforts to furnish customers with 
#accurate information and interpretations that are part of, and incident to, the services 
#provided.  However, Halliburton cannot and does not warrant the accuracy 
#or correctness of such information and interpretations.  Under no circumstances should any 
#such information or interpretation be relied upon as the sole basis for any drilling, 
#completion, production, or financial decision or any procedure involving any risk to the 
#safety of any drilling venture, drilling rig or its crew or any other third party.  The 
#Customer has full responsibility for all drilling, completion and production operation.  
#Halliburton makes no representations or warranties, either expressed or 
#implied, including, but not limited to, the implied warranties of merchantability or fitness 
#for a particular purpose, with respect to the services rendered.  In no event will 
#Halliburton be liable for failure to obtain any particular results or for 
#any damages, including, but not limited to, indirect, special or consequential damages, 
#resulting from the use of any information or interpretation provided by Halliburton.
#
~A           TIME           GTDEPTH  GTPQH  GTTQ  GTTN  GTET   GTTVD  
# ...
   13:31:44.142.18-Jan-2020 3754.51 6409.63 81.49 4.00  23.01 2825.33
   13:31:44.342.18-Jan-2020 3754.51 6409.63 81.49 4.00  23.21 2825.33
   13:31:44.542.18-Jan-2020 3754.51 6410.60 81.49 4.00  23.41 2825.33
   13:31:44.742.18-Jan-2020 3754.51 6412.33 81.49 4.00  23.61 2825.33
   13:31:44.942.18-Jan-2020 3754.51 6410.46 81.49 4.00  23.81 2825.33
   13:31:45.142.18-Jan-2020 3754.51 6409.53 81.49 4.00  24.01 2825.33
   13:31:45.343.18-Jan-2020 3754.51 6409.53 81.49 4.00  24.21 2825.33
   13:31:45.543.18-Jan-2020 3754.51 6413.30 81.49 4.00  24.41 2825.33
   13:31:45.743.18-Jan-2020 3754.51 6412.41 81.49 4.00  24.61 2825.33
   13:31:45.943.18-Jan-2020 3754.51 6415.22 81.49 4.00  24.81 2825.33
   13:31:46.143.18-Jan-2020 3754.51 6413.92 81.49 4.00  25.01 2825.33
   13:31:46.343.18-Jan-2020 3754.51 6413.92 81.49 4.00  25.21 2825.33
   13:31:46.543.18-Jan-2020 3754.51 6411.06 81.49 4.00  25.41 2825.33
   13:31:46.743.18-Jan-2020 3754.51 6409.75 81.49 4.00  25.61 2825.33
   13:31:46.943.18-Jan-2020 3754.51 6410.42 81.49 4.00  25.81 2825.33
   13:31:47.143.18-Jan-2020 3754.51 6409.92 81.49 4.00  26.01 2825.33
   13:31:47.343.18-Jan-2020 3754.51 6409.92 81.49 4.00  26.21 2825.33
   13:31:47.543.18-Jan-2020 3754.51 6411.74 81.49 4.00  26.41 2825.33
   13:31:47.743.18-Jan-2020 3754.51 6411.84 81.48 4.00  26.61 2825.33
   13:31:47.943.18-Jan-2020 3754.51 6411.62 81.48 4.00  26.81 2825.33
   13:31:48.143.18-Jan-2020 3754.51 6411.12 81.48 4.00  27.01 2825.33
   13:31:48.343.18-Jan-2020 3754.51 6411.12 81.48 4.00  27.21 2825.33
   13:31:48.544.18-Jan-2020 3754.51 6418.76 81.48 4.00  27.41 2825.33
   13:31:48.744.18-Jan-2020 3754.51 6413.68 81.48 4.00  27.61 2825.33
   13:31:48.944.18-Jan-2020 3754.51 6414.92 81.48 4.00  27.81 2825.33
   13:31:49.144.18-Jan-2020 3754.51 6425.09 81.48 4.00  28.01 2825.33
   13:31:49.344.18-Jan-2020 3754.51 6425.09 81.48 4.00  28.21 2825.33
   13:31:49.544.18-Jan-2020 3754.51 6409.95 81.48 4.00  28.41 2825.33
   13:31:49.744.18-Jan-2020 3754.51 6421.64 81.48 4.00  28.61 2825.33
   13:31:49.944.18-Jan-2020 3754.51 6413.08 81.48 4.00  28.81 2825.33
   13:31:50.144.18-Jan-2020 3754.51 6410.53 81.48 4.00  29.01 2825.33
   13:31:50.344.18-Jan-2020 3754.51 6410.53 81.48 4.00  29.21 2825.33
   13:31:50.544.18-Jan-2020 3754.51 6411.35 81.48 4.00  29.41 2825.33
   13:31:50.744.18-Jan-2020 3754.51 6422.40 81.48 4.00  29.61 2825.33
   13:31:50.944.18-Jan-2020 3754.51 6410.24 81.48 4.00  29.81 2825.33
   13:31:51.144.18-Jan-2020 3754.51 6411.79 81.48 4.00  30.01 2825.33
   13:31:51.344.18-Jan-2020 3754.51 6411.79 81.48 4.00  30.21 2825.33
   13:31:51.545.18-Jan-2020 3754.51 6413.93 81.47 4.00  30.41 2825.33
   13:31:51.745.18-Jan-2020 3754.51 6414.56 81.47 4.00  30.61 2825.33
   13:31:51.945.18-Jan-2020 3754.51 6416.77 81.47 4.00  30.81 2825.33
   13:31:52.145.18-Jan-2020 3754.51 6417.08 81.47 4.00  31.01 2825.33
   13:31:52.345.18-Jan-2020 3754.51 6417.08 81.47 4.00  31.21 2825.33
   13:31:52.545.18-Jan-2020 3754.51 6415.84 81.47 4.00  31.41 2825.33
   13:31:52.745.18-Jan-2020 3754.51 6417.55 81.47 4.00  31.61 2825.33
   13:31:52.945.18-Jan-2020 3754.51 6415.12 81.47 4.00  31.81 2825.33
   13:31:53.145.18-Jan-2020 3754.51 6415.00 81.47 4.00  32.01 2825.33
   13:31:53.345.18-Jan-2020 3754.51 6415.00 81.47 4.00  32.21 2825.33
   13:31:53.545.18-Jan-2020 3754.51 6417.22 81.47 4.00  32.41 2825.33
   13:31:53.745.18-Jan-2020 3754.51 6417.11 81.47 4.00  32.61 2825.33
   13:31:53.945.18-Jan-2020 3754.51 6415.75 81.47 4.00  32.81 2825.33
   13:31:54.145.18-Jan-2020 3754.51 6420.31 81.47 4.00  33.01 2825.33
   13:31:54.345.18-Jan-2020 3754.51 6420.31 81.47 4.00  33.21 2825.33
   13:31:54.545.18-Jan-2020 3754.51 6414.16 81.47 4.00  33.41 2825.33
   13:31:54.746.18-Jan-2020 3754.51 6416.18 81.47 4.00  33.61 2825.33
   13:31:54.946.18-Jan-2020 3754.51 6411.88 81.47 4.00  33.81 2825.33
   13:31:55.146.18-Jan-2020 3754.51 6396.47 81.47 4.00  34.01 2825.33
   13:31:55.346.18-Jan-2020 3754.51 6396.47 81.47 4.00  34.21 2825.33
   13:31:55.546.18-Jan-2020 3754.51 6346.50 81.46 4.00  34.41 2825.33
   13:31:55.746.18-Jan-2020 3754.51 6314.15 81.46 4.00  34.61 2825.33
   13:31:55.946.18-Jan-2020 3754.51 6278.65 81.46 4.00  34.81 2825.33
   13:31:56.146.18-Jan-2020 3754.51 6242.30 81.46 4.00  35.01 2825.33
   13:31:56.346.18-Jan-2020 3754.51 6242.30 81.46 4.00  35.21 2825.33
   13:31:56.546.18-Jan-2020 3754.51 6172.21 81.46 4.00  35.41 2825.33
   13:31:56.746.18-Jan-2020 3754.51 6141.53 81.46 4.00  35.61 2825.33
   13:31:56.946.18-Jan-2020 3754.51 6111.51 81.46 4.00  35.81 2825.33
   13:31:57.146.18-Jan-2020 3754.51 6089.72 81.46 4.00  36.01 2825.33
   13:31:57.346.18-Jan-2020 3754.51 6089.72 81.46 4.00  36.21 2825.33
   13:31:57.546.18-Jan-2020 3754.51 6070.28 81.46 4.00  36.41 2825.33
   13:31:57.747.18-Jan-2020 3754.51 6061.73 81.46 4.00  36.61 2825.33
   13:31:57.947.18-Jan-2020 3754.51 6061.67 81.46 4.00  36.81 2825.33
   13:31:58.147.18-Jan-2020 3754.51 6059.76 81.46 4.00  37.01 2825.33
   13:31:58.347.18-Jan-2020 3754.51 6059.76 81.46 4.00  37.21 2825.33
   13:31:58.547.18-Jan-2020 3754.51 6057.49 81.46 4.00  37.41 2825.33
   13:31:58.747.18-Jan-2020 3754.51 6059.70 81.45 4.00  37.61 2825.33
   13:31:58.947.18-Jan-2020 3754.51 6062.96 81.45 4.00  37.81 2825.33
   13:31:59.147.18-Jan-2020 3754.51 6066.51 81.45 4.00  38.01 2825.33
   13:31:59.347.18-Jan-2020 3754.51 6066.51 81.45 4.00  38.21 2825.33
   13:31:59.547.18-Jan-2020 3754.51 6074.06 81.45 4.00  38.41 2825.33
   13:31:59.747.18-Jan-2020 3754.51 6072.29 81.45 4.00  38.61 2825.33
   13:31:59.947.18-Jan-2020 3754.51 6073.27 81.45 4.00  38.81 2825.33
   13:32:00.147.18-Jan-2020 3754.51 6076.62 81.45 4.00  39.01 2825.33
   13:32:00.347.18-Jan-2020 3754.51 6076.62 81.45 4.00  39.21 2825.33
   13:32:00.547.18-Jan-2020 3754.51 6081.45 81.45 4.00  39.41 2825.33
   13:32:00.747.18-Jan-2020 3754.51 6007.00 81.45 4.00  39.61 2825.33
   13:32:00.948.18-Jan-2020 3754.51 5325.12 81.45 4.00  39.81 2825.33
   13:32:01.148.18-Jan-2020 3754.51 4405.08 81.45 4.00  40.01 2825.33
   13:32:01.348.18-Jan-2020 3754.51 4405.08 81.45 4.00  40.21 2825.33
   13:32:01.548.18-Jan-2020 3754.51 2890.64 81.44 4.00  40.41 2825.33
   13:32:01.748.18-Jan-2020 3754.51 2294.45 81.44 4.00  40.61 2825.33
   13:32:01.948.18-Jan-2020 3754.51 1787.08 81.44 4.00  40.81 2825.33
   13:32:02.148.18-Jan-2020 3754.51 1351.45 81.44 4.00  41.01 2825.33
   13:32:02.348.18-Jan-2020 3754.51 1351.45 81.44 4.00  41.21 2825.33
   13:32:02.548.18-Jan-2020 3754.51  778.74 81.43 4.00  41.41 2825.33
   13:32:02.748.18-Jan-2020 3754.51  689.45 81.43 4.00  41.61 2825.33
   13:32:02.948.18-Jan-2020 3754.51  615.38 81.43 4.00  41.81 2825.33
   13:32:03.148.18-Jan-2020 3754.51  560.89 81.42 4.00  42.01 2825.33
   13:32:03.348.18-Jan-2020 3754.51  560.89 81.42 4.00  42.21 2825.33
   13:32:03.548.18-Jan-2020 3754.51  495.17 81.42 4.00  42.41 2825.33
   13:32:03.748.18-Jan-2020 3754.51  478.52 81.41 4.00  42.61 2825.33
   13:32:03.949.18-Jan-2020 3754.51  465.56 81.41 4.00  42.81 2825.33
   13:32:04.149.18-Jan-2020 3754.51  457.83 81.40 4.00  43.01 2825.33
   13:32:04.349.18-Jan-2020 3754.51  457.83 81.40 4.00  43.21 2825.33
   13:32:04.549.18-Jan-2020 3754.51  442.97 81.40 4.00  43.41 2825.33
   13:32:04.749.18-Jan-2020 3754.51  438.93 81.39 4.00  43.61 2825.33
   13:32:04.949.18-Jan-2020 3754.51  435.80 81.39 4.00  43.81 2825.33
   13:32:05.149.18-Jan-2020 3754.51  432.65 81.38 4.00  44.01 2825.33
   13:32:05.349.18-Jan-2020 3754.51  432.65 81.38 4.00  44.21 2825.33
   13:32:05.549.18-Jan-2020 3754.51  427.67 81.37 4.00  44.41 2825.33
   13:32:05.749.18-Jan-2020 3754.51  423.78 81.37 4.00  44.61 2825.33
   13:32:05.949.18-Jan-2020 3754.51  420.78 81.37 4.00  44.81 2825.33
   13:32:06.149.18-Jan-2020 3754.51  427.79 81.36 4.00  45.01 2825.33
   13:32:06.349.18-Jan-2020 3754.51  427.79 81.36 4.00  45.21 2825.33
   13:32:06.549.18-Jan-2020 3754.51  429.70 81.35 4.00  45.41 2825.33
   13:32:06.749.18-Jan-2020 3754.51  420.54 81.35 4.00  45.61 2825.33
   13:32:06.950.18-Jan-2020 3754.51  423.99 81.35 4.00  45.81 2825.33
