~Version Information
 VERS.                  2.0:   CWLS log ASCII Standard -VERSION 2.0
 WRAP.                   NO:   One line per depth step
~Well Information Block
#MNEM.UNIT     VALUE/NAME     DESCRIPTION
#---------     -----------    ---------------------------
 STRT.S             13:51:43 18-Jan-20: START TIME 13:51:43 18-Jan-20
 STOP.S             13:59:59 18-Jan-20: STOP TIME  13:59:59 18-Jan-20
 STEP.S                   0.00: STEP TIME
 NULL.                 -999.25: NULL VALUE
 DFWT.                        :  DIST FWL TEXT
 DFST.                        :  DIST FSL TEXT
 DMF .             Drill Floor:  DRILL MEAS FROM
 STIM.      09.30.00 26-Dec-19:  START TIME
 DATE.      08.00.00 20-Jan-20:  END TIME
 SPUD.               23-Nov-19:  SPUD DATE
 NREF.                    Grid:  NORTH REFERENCE
 HPTY.       Minimum Curvature:  HOLE POS TYPE
 DMOD.             Drill Model:  DRILL MOD DESC
 SVYD.                  Survey:  SURVEY DESC
 ILTD.               Lithology:  INTERP LTH DESC
 FTOP.          Formation Tops:  FORM TOPS DESC
 SON .        AZ-XX-0906192647:  JOB NUMBER
 WTYP.                Deviated:  WELL TYPE
 COMP.     BP Exploration (Caspian Sea) Ltd:  COMPANY
 BASE.              Azerbaijan:  LOGGING EQUIPMENT BASE LOCATION
 REGN.                 Eurasia:  REGION
 FLD .                     ACG:  FIELD NAME
 SRVC.              KCA Deutag:  CONTRACTOR
 MWDS.                    Baku:  MWD SHOP
 WELL.     A10 (Slot 20) - SCP:  WELL NAME
 JOBN.        AZ-XX-0906192647:  JOB TICKET NUMB
 RIG .                 Chirag1:  RIG NAME
 DCON.     Halliburton Sperry Drilling:  DIRECTNL CONTR
 UNIT.                     N/A:  LOGGING EQUIPMENT ID
 PDAT.          Mean Sea Level:  PERMANENT DATUM
 MDS .        Operator Entered:  MAG DATA SOURCE
 CTRY.              Azerbaijan:  COUNTRY NAME
 UWI .            /AZE00000090:  UNIQUE WELL IDENTIFIER
 API .            /AZE00000090:  API NUMBER
 CNTY.                        :  COUNTY
 PROV.                        :  PROVINCE
 STAT.                        :  STATE
 LOC .                        :  LOCATION
 LMF .             Drill Floor:  LOG MEASURED FROM
 TVDS.m                  36.60:  TVDSS CORRECTN
 LATI.deg                40.08:  LATITUDE
 LONG.deg                51.24:  LONGITUDE
 WHNS.m                  -7.94:  WELL HEAD N/S
 WHEW.m                   1.56:  WELL HEAD E/W
 UTMX.m              520429.26:  UTM X
 UTMY.m             4438973.87:  UTM Y
 DFWL.m                   0.00:  DISTANCE FWL
 DFSL.m                   0.00:  DISTANCE FSL
 SDEP.m                1455.00:  START DEPTH
 TDD .m                3878.01:  TOTAL DEPTH (DRILLER)
 VSDR.deg               112.75:  VERT SEC DIRECT
 GVFD.g                   1.00:  GRAVITY FIELD
 MFLD.nT              50256.00:  MAGNETIC FIELD
 MDIP.deg                59.52:  MAGNETIC DIP
 MDEC.deg                 6.43:  MAGNETIC DECL
 GRDC.deg                 0.16:  GRID CORRECTION
 AZTC.deg                 6.27:  AZM TOTAL CORR
 EPD .m                   0.00:  ELEVATION
 EGL .m                   0.00:  GROUND ELEVATION
 WDMS.m                 121.00:  WD ELEV
 APD .m                  36.60:  DEPTH ABOVE PD
 AGAP.m                  36.60:  AIR GAP
 VSEW.m                   1.56:  VERT SEC E/W
 VSNS.m                  -7.94:  VERT SEC N/S
 DEP .m                1140.01:  DEPTH
 EKB .m                  36.60:  KB ELEVATION
 EDF .m                  36.60:  DF ELEVATION
 TDL .m                1293.00:  TOTAL DEPTH (LOGGER)
 VSC .                       0:  VS TO CLOSURE
 MAGU.                 1849164:  MAGUTM CHECKSUM
~Parameter Information Block
#MNEM.UNIT       Value        Description
#---------     -----------    ---------------------------
 AV  .mps                 2.40:  Ann Velocity 
 AVMX.mps                 2.55:  Max Ann Veloc 
 AZIF.deg               134.35:  Azm, Final 
 BHAT.        Rotary Steerable:  BHA Type 
 BREV.rev               847.00:  Rev Bit Total 
 BROT.°/30m              -2.51:  Build Rotating 
 BS  .in                  8.50:  Bit Size 
 BSZ .in                  8.50:  Bit Size 
 BTPL.psig              700.00:  Bit Press Loss 
 CABU.                     Yes:  Customer Abuse 
 CGEO.          Ilgar Gurbanov:  Customer Geo 
 COMM.                     üÓ~:  Run Comments 1 
 TCS .hr                140.40:  Time Ciculation Ended 
 CV  .mps                 2.27:  Crit Velocity 
 CVMX.mps                 2.45:  Max Crit Veloc 
 DD1 .         Intigam Rahimov:  Direct Drillr 1 
 DD2 .         Rasim Ibrahimov:  Direct Drillr 2 
 DDSV.                 iCruise:  DD Service 
 DEFF.%                  99.00:  % Det Eff 
 DLRX.°/30m               3.28:  Dogleg Rot Max 
 DLSO.°/30m               0.00:  Dogleg Oriented 
 DLSX.°/30m               0.00:  Dogleg Str Max 
 DRET.      23.30.00 18-Jan-20:  Drill End Time 
 DRST.      01.45.00 11-Jan-20:  Drill Start Tim 
 DTIM.hr                 94.00:  Time Drilling 
 EDEP.m                3878.01:  End Depth 
 ENG1.       Dauren Baktybayev:  Engineer 1 
 ENG2.      Natik Hasanaghayev:  Engineer 2 
 ENG3.          Rustam Safarov:  Engineer 3 
 ETIM.      08.00.00 20-Jan-20:  End Time 
 FLOI.gpm               532.00:  Flow In 
 FLON.gpm               500.00:  Flow In Min 
 FLOS.cptm                0.00:  Fluid Loss 
 FLOX.gpm               540.00:  Flow In Max 
 FTRO.       Formation Presure:  FTWD Run Obj 
 HPRE.                     Yes:  High Pressure 
 HTEM.                      No:  High Temp 
 HYDO.m                   1.80:  Hydro Offset 
 IFIN.deg                39.86:  Inc, Final 
 IMAX.deg                59.73:  Inc Max 
 IMIN.deg                39.25:  Inc Min 
 IMND.m                3816.77:  Inc Min Depth 
 IMXD.m                2596.33:  Inc Max Depth 
 JARR.                      No:  Jarring 
 LETM.      23.30.00 18-Jan-20:  Log End Time 
 LOST.hr                     0:  Lost Rig Time 
 LSTM.      01.45.00 11-Jan-20:  Log Start Time 
 MDCL.ppm             41500.00:  Mud Chlorides 
 MDES.     Inversion Oil/Synthetic:  Mud Desc 
 DFD .sg                  1.48:  Mud Density 
 MDMN.sg                  1.48:  Dens Mud Min 
 MDMX.sg                  1.48:  Dens Mud Max 
 MOIL.                      54:  Run Mud Oil % 
 MOWR.                   72:28:  Run Mud OWR 
 MSND.                       0:  Run Mud Sand % 
 MSOL.                      23:  Run Mud Solids% 
 DFV .spqt               86.00:  Mud Viscosity 
 MWOD.in                  6.75:  MWD Tool OD 
 MWSI.                      No:  Serv Intrp, MWD 
 OTIM.hr                223.40:  Time Operating 
 PCON.           Look Like New:  Pad Condition 
 PMAX.psia            32446.79:  Press Op, Max 
 PV  .cP                 49.00:  Mud PV 
 RUN .                     200:  Run Number 
 ROPA.m/hr               12.48:  ROP Avg 
 ROPN.m/hr                8.00:  ROP Min 
 ROPX.m/hr               27.00:  ROP Max 
 RPMA.rpm               121.00:  RPM Surface Avg 
 RPMN.rpm                60.00:  RPM Surface Min 
 RPMX.rpm               140.00:  RPM Surface Max 
 RRUN.                    L202:  Rig Run Number 
 RTIM.hr                  7.25:  Time Reaming 
 SAZI.deg               123.49:  Azm, Start 
 SDEP.m                2585.01:  Start Depth 
 SIDD.                      No:  Serv Intrp, DD 
 SINC.deg                59.93:  Inc, Start 
 SPPA.psig             3539.00:  SPP Avg 
 SPPN.psig             3050.00:  SPP Min 
 SPPX.psig             3950.00:  SPP Max 
 STIM.      19.00.00 10-Jan-20:  Start Time 
 SVCS.                 DD, MWD:  Services 
 SVER.                    9.20:  Sperry Version 
 TDAT.m                1293.00:  Tot Depth Attmp 
 TDDF.                      No:  Trip for DD 
 TDLG.m                1293.00:  Tot Depth Loggd 
 TFF .                      No:  Trip for Fail 
 TQAA.f-kp               16.00:  Torque Abs Avg 
 TQAN.f-kp               11.00:  Torque Abs Min 
 TQAX.f-kp               18.00:  Torque Abs Max 
 TRRT.°/30m               1.25:  Turn Rotating 
 MRT .                  EWR-M5:  Maximum Recorded Temperature 
 TTMX.degC               84.00:  Max Tool Temp 
 VS01.          AZ90514619R5C6:  Virtual Str1 SN 
 VS02.        AZ90552592N2L2C6:  Virtual Str2 SN 
 VS03.        AZ90571337Z1W1C6:  Virtual Str3 SN 
 VS04.         AZ90513690K23C6:  Virtual Str4 SN 
 VS05.           AZ90594857F11:  Virtual Str5 SN 
 VS06.                13102166:  Virtual Str6 SN 
 WBMN.klb                 7.00:  WOB Min 
 WITN.            Peter Wilson:  Customer Rep 
 WOBA.klb                 9.95:  WOB Avg 
 WOBX.klb                10.00:  WOB Max 
 YP  .lhf2               36.00:  Yield Point 
~Curve Information Block
#MNEM.UNIT                 API CODE     Curve Description
#---------               -----------    ---------------------------
 TIME.HHMMSS            00 000 000 000:  GT Time & Date
 GTDEPTH.m              00 000 000 000:  GT Depth
 GTPQH.psia             00 000 000 000:  GT HR Quartz Pressure
 GTTQ.degC              00 000 000 000:  GT Quartz Temperature
 GTTN.NONE              00 000 000 000:  GT Test Number
 GTET.sec               00 000 000 000:  GT Elapsed Test Time
 GTTVD.m                00 000 000 000:  GT True Vertical Depth
#Other Information
#
#WARRANTY: Halliburton will use its best efforts to furnish customers with 
#accurate information and interpretations that are part of, and incident to, the services 
#provided.  However, Halliburton cannot and does not warrant the accuracy 
#or correctness of such information and interpretations.  Under no circumstances should any 
#such information or interpretation be relied upon as the sole basis for any drilling, 
#completion, production, or financial decision or any procedure involving any risk to the 
#safety of any drilling venture, drilling rig or its crew or any other third party.  The 
#Customer has full responsibility for all drilling, completion and production operation.  
#Halliburton makes no representations or warranties, either expressed or 
#implied, including, but not limited to, the implied warranties of merchantability or fitness 
#for a particular purpose, with respect to the services rendered.  In no event will 
#Halliburton be liable for failure to obtain any particular results or for 
#any damages, including, but not limited to, indirect, special or consequential damages, 
#resulting from the use of any information or interpretation provided by Halliburton.
#
~A           TIME           GTDEPTH  GTPQH  GTTQ  GTTN  GTET   GTTVD  
# ...
   13:55:33.604.18-Jan-2020 3754.01 3695.19 79.51 5.00 230.07 2824.94
   13:55:33.804.18-Jan-2020 3754.01 3695.19 79.51 5.00 230.27 2824.94
   13:55:34.004.18-Jan-2020 3754.01 3695.16 79.51 5.00 230.47 2824.94
   13:55:34.204.18-Jan-2020 3754.01 3695.17 79.51 5.00 230.67 2824.94
   13:55:34.405.18-Jan-2020 3754.01 3694.96 79.51 5.00 230.87 2824.94
   13:55:34.605.18-Jan-2020 3754.01 3695.32 79.51 5.00 231.07 2824.94
   13:55:34.805.18-Jan-2020 3754.01 3695.32 79.51 5.00 231.27 2824.94
   13:55:35.005.18-Jan-2020 3754.01 3695.25 79.51 5.00 231.47 2824.94
   13:55:35.205.18-Jan-2020 3754.01 3695.05 79.51 5.00 231.67 2824.94
   13:55:35.405.18-Jan-2020 3754.01 3695.26 79.51 5.00 231.87 2824.94
   13:55:35.605.18-Jan-2020 3754.01 3695.33 79.51 5.00 232.08 2824.94
   13:55:35.805.18-Jan-2020 3754.01 3695.33 79.51 5.00 232.28 2824.94
   13:55:36.005.18-Jan-2020 3754.01 3695.14 79.51 5.00 232.48 2824.94
   13:55:36.205.18-Jan-2020 3754.01 3694.43 79.51 5.00 232.68 2824.94
   13:55:36.405.18-Jan-2020 3754.01 3697.85 79.51 5.00 232.88 2824.94
   13:55:36.605.18-Jan-2020 3754.01 3692.70 79.51 5.00 233.08 2824.94
   13:55:36.805.18-Jan-2020 3754.01 3692.70 79.51 5.00 233.28 2824.94
   13:55:37.005.18-Jan-2020 3754.01 3694.87 79.51 5.00 233.48 2824.94
   13:55:37.205.18-Jan-2020 3754.01 3695.53 79.51 5.00 233.68 2824.94
   13:55:37.406.18-Jan-2020 3754.01 3694.91 79.51 5.00 233.88 2824.94
   13:55:37.606.18-Jan-2020 3754.01 3695.27 79.51 5.00 234.08 2824.94
   13:55:37.806.18-Jan-2020 3754.01 3695.27 79.51 5.00 234.28 2824.94
   13:55:38.006.18-Jan-2020 3754.01 3695.27 79.51 5.00 234.48 2824.94
   13:55:38.206.18-Jan-2020 3754.01 3695.24 79.51 5.00 234.68 2824.94
   13:55:38.406.18-Jan-2020 3754.01 3695.04 79.51 5.00 234.88 2824.94
   13:55:38.606.18-Jan-2020 3754.01 3696.79 79.51 5.00 235.08 2824.94
   13:55:38.806.18-Jan-2020 3754.01 3696.79 79.51 5.00 235.28 2824.94
   13:55:39.006.18-Jan-2020 3754.01 3694.51 79.51 5.00 235.48 2824.94
   13:55:39.206.18-Jan-2020 3754.01 3695.67 79.51 5.00 235.68 2824.94
   13:55:39.406.18-Jan-2020 3754.01 3693.64 79.51 5.00 235.88 2824.94
   13:55:39.606.18-Jan-2020 3754.01 3697.60 79.51 5.00 236.08 2824.94
   13:55:39.806.18-Jan-2020 3754.01 3697.60 79.51 5.00 236.28 2824.94
   13:55:40.006.18-Jan-2020 3754.01 3696.04 79.51 5.00 236.48 2824.94
   13:55:40.206.18-Jan-2020 3754.01 3694.82 79.51 5.00 236.68 2824.94
   13:55:40.406.18-Jan-2020 3754.01 3695.26 79.51 5.00 236.88 2824.94
   13:55:40.607.18-Jan-2020 3754.01 3694.16 79.51 5.00 237.08 2824.94
   13:55:40.807.18-Jan-2020 3754.01 3694.16 79.51 5.00 237.28 2824.94
   13:55:41.007.18-Jan-2020 3754.01 3692.48 79.51 5.00 237.48 2824.94
   13:55:41.207.18-Jan-2020 3754.01 3695.44 79.51 5.00 237.68 2824.94
   13:55:41.407.18-Jan-2020 3754.01 3697.45 79.51 5.00 237.88 2824.94
   13:55:41.607.18-Jan-2020 3754.01 3694.00 79.51 5.00 238.08 2824.94
   13:55:41.807.18-Jan-2020 3754.01 3694.00 79.51 5.00 238.28 2824.94
   13:55:42.007.18-Jan-2020 3754.01 3695.37 79.51 5.00 238.48 2824.94
   13:55:42.207.18-Jan-2020 3754.01 3694.96 79.51 5.00 238.68 2824.94
   13:55:42.407.18-Jan-2020 3754.01 3695.28 79.51 5.00 238.88 2824.94
   13:55:42.607.18-Jan-2020 3754.01 3695.31 79.51 5.00 239.08 2824.94
   13:55:42.807.18-Jan-2020 3754.01 3695.31 79.51 5.00 239.28 2824.94
   13:55:43.007.18-Jan-2020 3754.01 3695.20 79.51 5.00 239.48 2824.94
   13:55:43.207.18-Jan-2020 3754.01 3695.25 79.51 5.00 239.68 2824.94
   13:55:43.407.18-Jan-2020 3754.01 3695.28 79.51 5.00 239.88 2824.94
   13:55:43.608.18-Jan-2020 3754.01 3695.30 79.51 5.00 240.08 2824.94
   13:55:43.808.18-Jan-2020 3754.01 3695.30 79.51 5.00 240.28 2824.94
   13:55:44.008.18-Jan-2020 3754.01 3695.31 79.51 5.00 240.48 2824.94
   13:55:44.208.18-Jan-2020 3754.01 3695.26 79.51 5.00 240.68 2824.94
   13:55:44.408.18-Jan-2020 3754.01 3695.30 79.51 5.00 240.88 2824.94
   13:55:44.608.18-Jan-2020 3754.01 3695.06 79.51 5.00 241.08 2824.94
   13:55:44.808.18-Jan-2020 3754.01 3695.06 79.51 5.00 241.28 2824.94
   13:55:45.008.18-Jan-2020 3754.01 3697.71 79.51 5.00 241.48 2824.94
   13:55:45.208.18-Jan-2020 3754.01 3692.98 79.51 5.00 241.68 2824.94
   13:55:45.408.18-Jan-2020 3754.01 3696.17 79.51 5.00 241.88 2824.94
   13:55:45.608.18-Jan-2020 3754.01 3694.90 79.51 5.00 242.08 2824.94
   13:55:45.808.18-Jan-2020 3754.01 3694.90 79.51 5.00 242.28 2824.94
   13:55:46.008.18-Jan-2020 3754.01 3695.01 79.51 5.00 242.48 2824.94
   13:55:46.208.18-Jan-2020 3754.01 3695.34 79.51 5.00 242.68 2824.94
   13:55:46.408.18-Jan-2020 3754.01 3695.07 79.51 5.00 242.88 2824.94
   13:55:46.608.18-Jan-2020 3754.01 3695.31 79.51 5.00 243.08 2824.94
   13:55:46.809.18-Jan-2020 3754.01 3695.31 79.51 5.00 243.28 2824.94
   13:55:47.009.18-Jan-2020 3754.01 3695.22 79.51 5.00 243.48 2824.94
   13:55:47.209.18-Jan-2020 3754.01 3696.71 79.51 5.00 243.68 2824.94
   13:55:47.409.18-Jan-2020 3754.01 3694.63 79.50 5.00 243.88 2824.94
   13:55:47.609.18-Jan-2020 3754.01 3694.94 79.50 5.00 244.08 2824.94
   13:55:47.809.18-Jan-2020 3754.01 3694.94 79.50 5.00 244.28 2824.94
   13:55:48.009.18-Jan-2020 3754.01 3694.31 79.50 5.00 244.48 2824.94
   13:55:48.209.18-Jan-2020 3754.01 3697.69 79.50 5.00 244.68 2824.94
   13:55:48.409.18-Jan-2020 3754.01 3692.57 79.50 5.00 244.88 2824.94
   13:55:48.609.18-Jan-2020 3754.01 3696.55 79.50 5.00 245.08 2824.94
   13:55:48.809.18-Jan-2020 3754.01 3696.55 79.50 5.00 245.28 2824.94
   13:55:49.009.18-Jan-2020 3754.01 3695.59 79.50 5.00 245.48 2824.94
   13:55:49.209.18-Jan-2020 3754.01 3696.36 79.50 5.00 245.68 2824.94
   13:55:49.409.18-Jan-2020 3754.01 3695.32 79.50 5.00 245.88 2824.94
   13:55:49.609.18-Jan-2020 3754.01 3694.09 79.50 5.00 246.08 2824.94
   13:55:49.810.18-Jan-2020 3754.01 3694.09 79.50 5.00 246.28 2824.94
   13:55:50.010.18-Jan-2020 3754.01 3693.94 79.50 5.00 246.48 2824.94
   13:55:50.210.18-Jan-2020 3754.01 3697.50 79.50 5.00 246.68 2824.94
   13:55:50.410.18-Jan-2020 3754.01 3693.72 79.50 5.00 246.88 2824.94
   13:55:50.610.18-Jan-2020 3754.01 3696.01 79.50 5.00 247.08 2824.94
   13:55:50.810.18-Jan-2020 3754.01 3696.01 79.50 5.00 247.28 2824.94
   13:55:51.010.18-Jan-2020 3754.01 3695.61 79.50 5.00 247.48 2824.94
   13:55:51.210.18-Jan-2020 3754.01 3694.93 79.50 5.00 247.68 2824.94
   13:55:51.410.18-Jan-2020 3754.01 3695.46 79.50 5.00 247.88 2824.94
   13:55:51.610.18-Jan-2020 3754.01 3694.92 79.50 5.00 248.08 2824.94
   13:55:51.810.18-Jan-2020 3754.01 3694.92 79.50 5.00 248.28 2824.94
   13:55:52.010.18-Jan-2020 3754.01 3695.47 79.50 5.00 248.48 2824.94
   13:55:52.210.18-Jan-2020 3754.01 3695.27 79.50 5.00 248.68 2824.94
   13:55:52.410.18-Jan-2020 3754.01 3695.09 79.50 5.00 248.88 2824.94
   13:55:52.610.18-Jan-2020 3754.01 3695.25 79.50 5.00 249.08 2824.94
   13:55:52.810.18-Jan-2020 3754.01 3695.25 79.50 5.00 249.28 2824.94
   13:55:53.011.18-Jan-2020 3754.01 3695.24 79.50 5.00 249.48 2824.94
   13:55:53.211.18-Jan-2020 3754.01 3695.31 79.50 5.00 249.68 2824.94
   13:55:53.411.18-Jan-2020 3754.01 3695.21 79.50 5.00 249.88 2824.94
   13:55:53.611.18-Jan-2020 3754.01 3694.82 79.50 5.00 250.08 2824.94
   13:55:53.811.18-Jan-2020 3754.01 3694.82 79.50 5.00 250.28 2824.94
   13:55:54.011.18-Jan-2020 3754.01 3692.54 79.50 5.00 250.48 2824.94
   13:55:54.211.18-Jan-2020 3754.01 3696.38 79.50 5.00 250.68 2824.94
   13:55:54.411.18-Jan-2020 3754.01 3694.83 79.50 5.00 250.88 2824.94
   13:55:54.611.18-Jan-2020 3754.01 3695.66 79.50 5.00 251.08 2824.94
   13:55:54.811.18-Jan-2020 3754.01 3695.66 79.50 5.00 251.28 2824.94
   13:55:55.011.18-Jan-2020 3754.01 3695.66 79.50 5.00 251.48 2824.94
   13:55:55.211.18-Jan-2020 3754.01 3695.66 79.50 5.00 251.68 2824.94
   13:55:55.411.18-Jan-2020 3754.01 3695.34 79.50 5.00 251.88 2824.94
   13:55:55.611.18-Jan-2020 3754.01 3695.20 79.50 5.00 252.08 2824.94
   13:55:55.811.18-Jan-2020 3754.01 3695.20 79.50 5.00 252.28 2824.94
   13:55:56.012.18-Jan-2020 3754.01 3696.84 79.50 5.00 252.48 2824.94
   13:55:56.212.18-Jan-2020 3754.01 3694.82 79.50 5.00 252.68 2824.94
   13:55:56.412.18-Jan-2020 3754.01 3694.80 79.50 5.00 252.88 2824.94
