~Version Information
 VERS.                  2.0:   CWLS log ASCII Standard -VERSION 2.0
 WRAP.                   NO:   One line per depth step
~Well Information Block
#MNEM.UNIT     VALUE/NAME     DESCRIPTION
#---------     -----------    ---------------------------
 STRT.S             17:36:42 18-Jan-20: START TIME 17:36:42 18-Jan-20
 STOP.S             17:44:57 18-Jan-20: STOP TIME  17:44:57 18-Jan-20
 STEP.S                   0.00: STEP TIME
 NULL.                 -999.25: NULL VALUE
 DFWT.                        :  DIST FWL TEXT
 DFST.                        :  DIST FSL TEXT
 DMF .             Drill Floor:  DRILL MEAS FROM
 STIM.      09.30.00 26-Dec-19:  START TIME
 DATE.      08.00.00 20-Jan-20:  END TIME
 SPUD.               23-Nov-19:  SPUD DATE
 NREF.                    Grid:  NORTH REFERENCE
 HPTY.       Minimum Curvature:  HOLE POS TYPE
 DMOD.             Drill Model:  DRILL MOD DESC
 SVYD.                  Survey:  SURVEY DESC
 ILTD.               Lithology:  INTERP LTH DESC
 FTOP.          Formation Tops:  FORM TOPS DESC
 SON .        AZ-XX-0906192647:  JOB NUMBER
 WTYP.                Deviated:  WELL TYPE
 COMP.     BP Exploration (Caspian Sea) Ltd:  COMPANY
 BASE.              Azerbaijan:  LOGGING EQUIPMENT BASE LOCATION
 REGN.                 Eurasia:  REGION
 FLD .                     ACG:  FIELD NAME
 SRVC.              KCA Deutag:  CONTRACTOR
 MWDS.                    Baku:  MWD SHOP
 WELL.     A10 (Slot 20) - SCP:  WELL NAME
 JOBN.        AZ-XX-0906192647:  JOB TICKET NUMB
 RIG .                 Chirag1:  RIG NAME
 DCON.     Halliburton Sperry Drilling:  DIRECTNL CONTR
 UNIT.                     N/A:  LOGGING EQUIPMENT ID
 PDAT.          Mean Sea Level:  PERMANENT DATUM
 MDS .        Operator Entered:  MAG DATA SOURCE
 CTRY.              Azerbaijan:  COUNTRY NAME
 UWI .            /AZE00000090:  UNIQUE WELL IDENTIFIER
 API .            /AZE00000090:  API NUMBER
 CNTY.                        :  COUNTY
 PROV.                        :  PROVINCE
 STAT.                        :  STATE
 LOC .                        :  LOCATION
 LMF .             Drill Floor:  LOG MEASURED FROM
 TVDS.m                  36.60:  TVDSS CORRECTN
 LATI.deg                40.08:  LATITUDE
 LONG.deg                51.24:  LONGITUDE
 WHNS.m                  -7.94:  WELL HEAD N/S
 WHEW.m                   1.56:  WELL HEAD E/W
 UTMX.m              520429.26:  UTM X
 UTMY.m             4438973.87:  UTM Y
 DFWL.m                   0.00:  DISTANCE FWL
 DFSL.m                   0.00:  DISTANCE FSL
 SDEP.m                1455.00:  START DEPTH
 TDD .m                3878.01:  TOTAL DEPTH (DRILLER)
 VSDR.deg               112.75:  VERT SEC DIRECT
 GVFD.g                   1.00:  GRAVITY FIELD
 MFLD.nT              50256.00:  MAGNETIC FIELD
 MDIP.deg                59.52:  MAGNETIC DIP
 MDEC.deg                 6.43:  MAGNETIC DECL
 GRDC.deg                 0.16:  GRID CORRECTION
 AZTC.deg                 6.27:  AZM TOTAL CORR
 EPD .m                   0.00:  ELEVATION
 EGL .m                   0.00:  GROUND ELEVATION
 WDMS.m                 121.00:  WD ELEV
 APD .m                  36.60:  DEPTH ABOVE PD
 AGAP.m                  36.60:  AIR GAP
 VSEW.m                   1.56:  VERT SEC E/W
 VSNS.m                  -7.94:  VERT SEC N/S
 DEP .m                1140.01:  DEPTH
 EKB .m                  36.60:  KB ELEVATION
 EDF .m                  36.60:  DF ELEVATION
 TDL .m                1293.00:  TOTAL DEPTH (LOGGER)
 VSC .                       0:  VS TO CLOSURE
 MAGU.                 1849164:  MAGUTM CHECKSUM
~Parameter Information Block
#MNEM.UNIT       Value        Description
#---------     -----------    ---------------------------
 AV  .mps                 2.40:  Ann Velocity 
 AVMX.mps                 2.55:  Max Ann Veloc 
 AZIF.deg               134.35:  Azm, Final 
 BHAT.        Rotary Steerable:  BHA Type 
 BREV.rev               847.00:  Rev Bit Total 
 BROT.°/30m              -2.51:  Build Rotating 
 BS  .in                  8.50:  Bit Size 
 BSZ .in                  8.50:  Bit Size 
 BTPL.psig              700.00:  Bit Press Loss 
 CABU.                     Yes:  Customer Abuse 
 CGEO.          Ilgar Gurbanov:  Customer Geo 
 COMM.                     Ä_:  Run Comments 1 
 TCS .hr                140.40:  Time Ciculation Ended 
 CV  .mps                 2.27:  Crit Velocity 
 CVMX.mps                 2.45:  Max Crit Veloc 
 DD1 .         Intigam Rahimov:  Direct Drillr 1 
 DD2 .         Rasim Ibrahimov:  Direct Drillr 2 
 DDSV.                 iCruise:  DD Service 
 DEFF.%                  99.00:  % Det Eff 
 DLRX.°/30m               3.28:  Dogleg Rot Max 
 DLSO.°/30m               0.00:  Dogleg Oriented 
 DLSX.°/30m               0.00:  Dogleg Str Max 
 DRET.      23.30.00 18-Jan-20:  Drill End Time 
 DRST.      01.45.00 11-Jan-20:  Drill Start Tim 
 DTIM.hr                 94.00:  Time Drilling 
 EDEP.m                3878.01:  End Depth 
 ENG1.       Dauren Baktybayev:  Engineer 1 
 ENG2.      Natik Hasanaghayev:  Engineer 2 
 ENG3.          Rustam Safarov:  Engineer 3 
 ETIM.      08.00.00 20-Jan-20:  End Time 
 FLOI.gpm               532.00:  Flow In 
 FLON.gpm               500.00:  Flow In Min 
 FLOS.cptm                0.00:  Fluid Loss 
 FLOX.gpm               540.00:  Flow In Max 
 FTRO.       Formation Presure:  FTWD Run Obj 
 HPRE.                     Yes:  High Pressure 
 HTEM.                      No:  High Temp 
 HYDO.m                   1.80:  Hydro Offset 
 IFIN.deg                39.86:  Inc, Final 
 IMAX.deg                59.73:  Inc Max 
 IMIN.deg                39.25:  Inc Min 
 IMND.m                3816.77:  Inc Min Depth 
 IMXD.m                2596.33:  Inc Max Depth 
 JARR.                      No:  Jarring 
 LETM.      23.30.00 18-Jan-20:  Log End Time 
 LOST.hr                     0:  Lost Rig Time 
 LSTM.      01.45.00 11-Jan-20:  Log Start Time 
 MDCL.ppm             41500.00:  Mud Chlorides 
 MDES.     Inversion Oil/Synthetic:  Mud Desc 
 DFD .sg                  1.48:  Mud Density 
 MDMN.sg                  1.48:  Dens Mud Min 
 MDMX.sg                  1.48:  Dens Mud Max 
 MOIL.                      54:  Run Mud Oil % 
 MOWR.                   72:28:  Run Mud OWR 
 MSND.                       0:  Run Mud Sand % 
 MSOL.                      23:  Run Mud Solids% 
 DFV .spqt               86.00:  Mud Viscosity 
 MWOD.in                  6.75:  MWD Tool OD 
 MWSI.                      No:  Serv Intrp, MWD 
 OTIM.hr                223.40:  Time Operating 
 PCON.           Look Like New:  Pad Condition 
 PMAX.psia            32446.79:  Press Op, Max 
 PV  .cP                 49.00:  Mud PV 
 RUN .                     200:  Run Number 
 ROPA.m/hr               12.48:  ROP Avg 
 ROPN.m/hr                8.00:  ROP Min 
 ROPX.m/hr               27.00:  ROP Max 
 RPMA.rpm               121.00:  RPM Surface Avg 
 RPMN.rpm                60.00:  RPM Surface Min 
 RPMX.rpm               140.00:  RPM Surface Max 
 RRUN.                    L202:  Rig Run Number 
 RTIM.hr                  7.25:  Time Reaming 
 SAZI.deg               123.49:  Azm, Start 
 SDEP.m                2585.01:  Start Depth 
 SIDD.                      No:  Serv Intrp, DD 
 SINC.deg                59.93:  Inc, Start 
 SPPA.psig             3539.00:  SPP Avg 
 SPPN.psig             3050.00:  SPP Min 
 SPPX.psig             3950.00:  SPP Max 
 STIM.      19.00.00 10-Jan-20:  Start Time 
 SVCS.                 DD, MWD:  Services 
 SVER.                    9.20:  Sperry Version 
 TDAT.m                1293.00:  Tot Depth Attmp 
 TDDF.                      No:  Trip for DD 
 TDLG.m                1293.00:  Tot Depth Loggd 
 TFF .                      No:  Trip for Fail 
 TQAA.f-kp               16.00:  Torque Abs Avg 
 TQAN.f-kp               11.00:  Torque Abs Min 
 TQAX.f-kp               18.00:  Torque Abs Max 
 TRRT.°/30m               1.25:  Turn Rotating 
 MRT .                  EWR-M5:  Maximum Recorded Temperature 
 TTMX.degC               84.00:  Max Tool Temp 
 VS01.          AZ90514619R5C6:  Virtual Str1 SN 
 VS02.        AZ90552592N2L2C6:  Virtual Str2 SN 
 VS03.        AZ90571337Z1W1C6:  Virtual Str3 SN 
 VS04.         AZ90513690K23C6:  Virtual Str4 SN 
 VS05.           AZ90594857F11:  Virtual Str5 SN 
 VS06.                13102166:  Virtual Str6 SN 
 WBMN.klb                 7.00:  WOB Min 
 WITN.            Peter Wilson:  Customer Rep 
 WOBA.klb                 9.95:  WOB Avg 
 WOBX.klb                10.00:  WOB Max 
 YP  .lhf2               36.00:  Yield Point 
~Curve Information Block
#MNEM.UNIT                 API CODE     Curve Description
#---------               -----------    ---------------------------
 TIME.HHMMSS            00 000 000 000:  GT Time & Date
 GTDEPTH.m              00 000 000 000:  GT Depth
 GTPQH.psia             00 000 000 000:  GT HR Quartz Pressure
 GTTQ.degC              00 000 000 000:  GT Quartz Temperature
 GTTN.NONE              00 000 000 000:  GT Test Number
 GTET.sec               00 000 000 000:  GT Elapsed Test Time
 GTTVD.m                00 000 000 000:  GT True Vertical Depth
#Other Information
#
#WARRANTY: Halliburton will use its best efforts to furnish customers with 
#accurate information and interpretations that are part of, and incident to, the services 
#provided.  However, Halliburton cannot and does not warrant the accuracy 
#or correctness of such information and interpretations.  Under no circumstances should any 
#such information or interpretation be relied upon as the sole basis for any drilling, 
#completion, production, or financial decision or any procedure involving any risk to the 
#safety of any drilling venture, drilling rig or its crew or any other third party.  The 
#Customer has full responsibility for all drilling, completion and production operation.  
#Halliburton makes no representations or warranties, either expressed or 
#implied, including, but not limited to, the implied warranties of merchantability or fitness 
#for a particular purpose, with respect to the services rendered.  In no event will 
#Halliburton be liable for failure to obtain any particular results or for 
#any damages, including, but not limited to, indirect, special or consequential damages, 
#resulting from the use of any information or interpretation provided by Halliburton.
#
~A           TIME           GTDEPTH  GTPQH  GTTQ  GTTN  GTET   GTTVD  
# ...
   17:43:36.924.18-Jan-2020 3785.01 3857.38 81.71 6.00 414.03 2848.88
   17:43:37.124.18-Jan-2020 3785.01 3857.38 81.71 6.00 414.23 2848.88
   17:43:37.324.18-Jan-2020 3785.01 3858.77 81.71 6.00 414.43 2848.88
   17:43:37.524.18-Jan-2020 3785.01 3858.69 81.71 6.00 414.63 2848.88
   17:43:37.724.18-Jan-2020 3785.01 3858.65 81.71 6.00 414.83 2848.88
   17:43:37.924.18-Jan-2020 3785.01 3858.37 81.71 6.00 415.03 2848.88
   17:43:38.124.18-Jan-2020 3785.01 3858.37 81.71 6.00 415.23 2848.88
   17:43:38.324.18-Jan-2020 3785.01 3858.41 81.71 6.00 415.43 2848.88
   17:43:38.524.18-Jan-2020 3785.01 3858.60 81.71 6.00 415.63 2848.88
   17:43:38.724.18-Jan-2020 3785.01 3858.41 81.71 6.00 415.83 2848.88
   17:43:38.924.18-Jan-2020 3785.01 3858.33 81.71 6.00 416.03 2848.88
   17:43:39.124.18-Jan-2020 3785.01 3858.33 81.71 6.00 416.23 2848.88
   17:43:39.324.18-Jan-2020 3785.01 3857.85 81.71 6.00 416.43 2848.88
   17:43:39.524.18-Jan-2020 3785.01 3859.09 81.71 6.00 416.63 2848.88
   17:43:39.724.18-Jan-2020 3785.01 3858.59 81.71 6.00 416.83 2848.88
   17:43:39.924.18-Jan-2020 3785.01 3857.72 81.70 6.00 417.03 2848.88
   17:43:40.124.18-Jan-2020 3785.01 3857.72 81.70 6.00 417.23 2848.88
   17:43:40.324.18-Jan-2020 3785.01 3858.43 81.70 6.00 417.43 2848.88
   17:43:40.524.18-Jan-2020 3785.01 3858.61 81.70 6.00 417.63 2848.88
   17:43:40.724.18-Jan-2020 3785.01 3857.70 81.70 6.00 417.83 2848.88
   17:43:40.924.18-Jan-2020 3785.01 3858.96 81.70 6.00 418.03 2848.88
   17:43:41.124.18-Jan-2020 3785.01 3858.96 81.70 6.00 418.23 2848.88
   17:43:41.324.18-Jan-2020 3785.01 3858.39 81.70 6.00 418.43 2848.88
   17:43:41.524.18-Jan-2020 3785.01 3858.46 81.70 6.00 418.63 2848.88
   17:43:41.724.18-Jan-2020 3785.01 3858.31 81.70 6.00 418.83 2848.88
   17:43:41.924.18-Jan-2020 3785.01 3858.31 81.70 6.00 419.03 2848.88
   17:43:42.124.18-Jan-2020 3785.01 3858.31 81.70 6.00 419.23 2848.88
   17:43:42.324.18-Jan-2020 3785.01 3858.98 81.70 6.00 419.43 2848.88
   17:43:42.524.18-Jan-2020 3785.01 3858.71 81.70 6.00 419.63 2848.88
   17:43:42.724.18-Jan-2020 3785.01 3858.65 81.70 6.00 419.83 2848.88
   17:43:42.924.18-Jan-2020 3785.01 3858.67 81.70 6.00 420.03 2848.88
   17:43:43.124.18-Jan-2020 3785.01 3858.67 81.70 6.00 420.23 2848.88
   17:43:43.324.18-Jan-2020 3785.01 3858.31 81.70 6.00 420.43 2848.88
   17:43:43.524.18-Jan-2020 3785.01 3858.40 81.70 6.00 420.63 2848.88
   17:43:43.724.18-Jan-2020 3785.01 3858.34 81.70 6.00 420.83 2848.88
   17:43:43.924.18-Jan-2020 3785.01 3858.23 81.70 6.00 421.03 2848.88
   17:43:44.124.18-Jan-2020 3785.01 3858.23 81.70 6.00 421.23 2848.88
   17:43:44.324.18-Jan-2020 3785.01 3858.62 81.70 6.00 421.43 2848.88
   17:43:44.524.18-Jan-2020 3785.01 3858.52 81.70 6.00 421.63 2848.88
   17:43:44.724.18-Jan-2020 3785.01 3858.31 81.70 6.00 421.83 2848.88
   17:43:44.924.18-Jan-2020 3785.01 3858.21 81.70 6.00 422.03 2848.88
   17:43:45.124.18-Jan-2020 3785.01 3858.21 81.70 6.00 422.23 2848.88
   17:43:45.324.18-Jan-2020 3785.01 3858.40 81.70 6.00 422.43 2848.88
   17:43:45.524.18-Jan-2020 3785.01 3857.93 81.70 6.00 422.63 2848.88
   17:43:45.724.18-Jan-2020 3785.01 3858.12 81.70 6.00 422.83 2848.88
   17:43:45.924.18-Jan-2020 3785.01 3858.71 81.70 6.00 423.03 2848.88
   17:43:46.124.18-Jan-2020 3785.01 3858.71 81.70 6.00 423.23 2848.88
   17:43:46.324.18-Jan-2020 3785.01 3858.62 81.70 6.00 423.43 2848.88
   17:43:46.524.18-Jan-2020 3785.01 3858.58 81.70 6.00 423.63 2848.88
   17:43:46.724.18-Jan-2020 3785.01 3858.38 81.70 6.00 423.83 2848.88
   17:43:46.924.18-Jan-2020 3785.01 3858.29 81.70 6.00 424.03 2848.88
   17:43:47.124.18-Jan-2020 3785.01 3858.29 81.70 6.00 424.23 2848.88
   17:43:47.324.18-Jan-2020 3785.01 3858.47 81.70 6.00 424.43 2848.88
   17:43:47.524.18-Jan-2020 3785.01 3858.34 81.70 6.00 424.63 2848.88
   17:43:47.724.18-Jan-2020 3785.01 3858.35 81.70 6.00 424.83 2848.88
   17:43:47.924.18-Jan-2020 3785.01 3857.62 81.70 6.00 425.03 2848.88
   17:43:48.124.18-Jan-2020 3785.01 3857.62 81.70 6.00 425.23 2848.88
   17:43:48.324.18-Jan-2020 3785.01 3858.65 81.69 6.00 425.43 2848.88
   17:43:48.524.18-Jan-2020 3785.01 3858.22 81.69 6.00 425.63 2848.88
   17:43:48.724.18-Jan-2020 3785.01 3859.18 81.69 6.00 425.83 2848.88
   17:43:48.924.18-Jan-2020 3785.01 3858.78 81.69 6.00 426.03 2848.88
   17:43:49.124.18-Jan-2020 3785.01 3858.78 81.69 6.00 426.23 2848.88
   17:43:49.324.18-Jan-2020 3785.01 3858.01 81.69 6.00 426.43 2848.88
   17:43:49.524.18-Jan-2020 3785.01 3858.39 81.69 6.00 426.63 2848.88
   17:43:49.725.18-Jan-2020 3785.01 3858.75 81.69 6.00 426.83 2848.88
   17:43:49.925.18-Jan-2020 3785.01 3858.51 81.69 6.00 427.03 2848.88
   17:43:50.125.18-Jan-2020 3785.01 3858.51 81.69 6.00 427.23 2848.88
   17:43:50.325.18-Jan-2020 3785.01 3858.30 81.69 6.00 427.43 2848.88
   17:43:50.525.18-Jan-2020 3785.01 3857.78 81.69 6.00 427.63 2848.88
   17:43:50.725.18-Jan-2020 3785.01 3859.14 81.69 6.00 427.83 2848.88
   17:43:50.925.18-Jan-2020 3785.01 3858.66 81.69 6.00 428.03 2848.88
   17:43:51.125.18-Jan-2020 3785.01 3858.66 81.69 6.00 428.23 2848.88
   17:43:51.325.18-Jan-2020 3785.01 3858.71 81.69 6.00 428.43 2848.88
   17:43:51.525.18-Jan-2020 3785.01 3858.35 81.69 6.00 428.63 2848.88
   17:43:51.725.18-Jan-2020 3785.01 3858.53 81.69 6.00 428.83 2848.88
   17:43:51.925.18-Jan-2020 3785.01 3858.55 81.69 6.00 429.03 2848.88
   17:43:52.125.18-Jan-2020 3785.01 3858.55 81.69 6.00 429.23 2848.88
   17:43:52.325.18-Jan-2020 3785.01 3858.53 81.69 6.00 429.43 2848.88
   17:43:52.525.18-Jan-2020 3785.01 3858.39 81.69 6.00 429.63 2848.88
   17:43:52.725.18-Jan-2020 3785.01 3858.45 81.69 6.00 429.83 2848.88
   17:43:52.925.18-Jan-2020 3785.01 3858.48 81.69 6.00 430.03 2848.88
   17:43:53.125.18-Jan-2020 3785.01 3858.48 81.69 6.00 430.23 2848.88
   17:43:53.325.18-Jan-2020 3785.01 3858.55 81.69 6.00 430.43 2848.88
   17:43:53.525.18-Jan-2020 3785.01 3858.55 81.69 6.00 430.63 2848.88
   17:43:53.725.18-Jan-2020 3785.01 3858.36 81.69 6.00 430.83 2848.88
   17:43:53.925.18-Jan-2020 3785.01 3857.89 81.69 6.00 431.03 2848.88
   17:43:54.125.18-Jan-2020 3785.01 3857.89 81.69 6.00 431.23 2848.88
   17:43:54.325.18-Jan-2020 3785.01 3858.78 81.69 6.00 431.43 2848.88
   17:43:54.525.18-Jan-2020 3785.01 3858.75 81.69 6.00 431.63 2848.88
   17:43:54.725.18-Jan-2020 3785.01 3858.55 81.69 6.00 431.83 2848.88
   17:43:54.925.18-Jan-2020 3785.01 3858.35 81.69 6.00 432.03 2848.88
   17:43:55.125.18-Jan-2020 3785.01 3858.35 81.69 6.00 432.23 2848.88
   17:43:55.325.18-Jan-2020 3785.01 3858.47 81.69 6.00 432.43 2848.88
   17:43:55.525.18-Jan-2020 3785.01 3858.38 81.69 6.00 432.63 2848.88
   17:43:55.725.18-Jan-2020 3785.01 3858.34 81.69 6.00 432.83 2848.88
   17:43:55.925.18-Jan-2020 3785.01 3858.57 81.69 6.00 433.03 2848.88
   17:43:56.125.18-Jan-2020 3785.01 3858.57 81.69 6.00 433.23 2848.88
   17:43:56.325.18-Jan-2020 3785.01 3857.58 81.68 6.00 433.43 2848.88
   17:43:56.525.18-Jan-2020 3785.01 3858.61 81.68 6.00 433.63 2848.88
   17:43:56.725.18-Jan-2020 3785.01 3858.75 81.68 6.00 433.83 2848.88
   17:43:56.925.18-Jan-2020 3785.01 3858.37 81.68 6.00 434.03 2848.88
   17:43:57.125.18-Jan-2020 3785.01 3858.37 81.68 6.00 434.23 2848.88
   17:43:57.325.18-Jan-2020 3785.01 3858.88 81.68 6.00 434.43 2848.88
   17:43:57.525.18-Jan-2020 3785.01 3858.62 81.68 6.00 434.63 2848.88
   17:43:57.725.18-Jan-2020 3785.01 3858.04 81.68 6.00 434.83 2848.88
   17:43:57.925.18-Jan-2020 3785.01 3858.30 81.68 6.00 435.03 2848.88
   17:43:58.125.18-Jan-2020 3785.01 3858.30 81.68 6.00 435.23 2848.88
   17:43:58.325.18-Jan-2020 3785.01 3858.58 81.68 6.00 435.43 2848.88
   17:43:58.525.18-Jan-2020 3785.01 3858.50 81.68 6.00 435.63 2848.88
   17:43:58.725.18-Jan-2020 3785.01 3858.49 81.68 6.00 435.83 2848.88
   17:43:58.925.18-Jan-2020 3785.01 3858.39 81.68 6.00 436.03 2848.88
   17:43:59.125.18-Jan-2020 3785.01 3858.39 81.68 6.00 436.23 2848.88
   17:43:59.325.18-Jan-2020 3785.01 3858.80 81.68 6.00 436.43 2848.88
   17:43:59.525.18-Jan-2020 3785.01 3858.81 81.68 6.00 436.63 2848.88
   17:43:59.725.18-Jan-2020 3785.01 3858.99 81.68 6.00 436.83 2848.88
