~Version Information
 VERS.                  2.0:   CWLS log ASCII Standard -VERSION 2.0
 WRAP.                   NO:   One line per depth step
~Well Information Block
#MNEM.UNIT     VALUE/NAME     DESCRIPTION
#---------     -----------    ---------------------------
 STRT.S             09:16:51 18-Jan-20: START TIME 09:16:51 18-Jan-20
 STOP.S             09:25:06 18-Jan-20: STOP TIME  09:25:06 18-Jan-20
 STEP.S                   0.00: STEP TIME
 NULL.                 -999.25: NULL VALUE
 DFWT.                        :  DIST FWL TEXT
 DFST.                        :  DIST FSL TEXT
 DMF .             Drill Floor:  DRILL MEAS FROM
 STIM.      09.30.00 26-Dec-19:  START TIME
 DATE.      08.00.00 20-Jan-20:  END TIME
 SPUD.               23-Nov-19:  SPUD DATE
 NREF.                    Grid:  NORTH REFERENCE
 HPTY.       Minimum Curvature:  HOLE POS TYPE
 DMOD.             Drill Model:  DRILL MOD DESC
 SVYD.                  Survey:  SURVEY DESC
 ILTD.               Lithology:  INTERP LTH DESC
 FTOP.          Formation Tops:  FORM TOPS DESC
 SON .        AZ-XX-0906192647:  JOB NUMBER
 WTYP.                Deviated:  WELL TYPE
 COMP.     BP Exploration (Caspian Sea) Ltd:  COMPANY
 BASE.              Azerbaijan:  LOGGING EQUIPMENT BASE LOCATION
 REGN.                 Eurasia:  REGION
 FLD .                     ACG:  FIELD NAME
 SRVC.              KCA Deutag:  CONTRACTOR
 MWDS.                    Baku:  MWD SHOP
 WELL.     A10 (Slot 20) - SCP:  WELL NAME
 JOBN.        AZ-XX-0906192647:  JOB TICKET NUMB
 RIG .                 Chirag1:  RIG NAME
 DCON.     Halliburton Sperry Drilling:  DIRECTNL CONTR
 UNIT.                     N/A:  LOGGING EQUIPMENT ID
 PDAT.          Mean Sea Level:  PERMANENT DATUM
 MDS .        Operator Entered:  MAG DATA SOURCE
 CTRY.              Azerbaijan:  COUNTRY NAME
 UWI .            /AZE00000090:  UNIQUE WELL IDENTIFIER
 API .            /AZE00000090:  API NUMBER
 CNTY.                        :  COUNTY
 PROV.                        :  PROVINCE
 STAT.                        :  STATE
 LOC .                        :  LOCATION
 LMF .             Drill Floor:  LOG MEASURED FROM
 TVDS.m                  36.60:  TVDSS CORRECTN
 LATI.deg                40.08:  LATITUDE
 LONG.deg                51.24:  LONGITUDE
 WHNS.m                  -7.94:  WELL HEAD N/S
 WHEW.m                   1.56:  WELL HEAD E/W
 UTMX.m              520429.26:  UTM X
 UTMY.m             4438973.87:  UTM Y
 DFWL.m                   0.00:  DISTANCE FWL
 DFSL.m                   0.00:  DISTANCE FSL
 SDEP.m                1455.00:  START DEPTH
 TDD .m                3878.01:  TOTAL DEPTH (DRILLER)
 VSDR.deg               112.75:  VERT SEC DIRECT
 GVFD.g                   1.00:  GRAVITY FIELD
 MFLD.nT              50256.00:  MAGNETIC FIELD
 MDIP.deg                59.52:  MAGNETIC DIP
 MDEC.deg                 6.43:  MAGNETIC DECL
 GRDC.deg                 0.16:  GRID CORRECTION
 AZTC.deg                 6.27:  AZM TOTAL CORR
 EPD .m                   0.00:  ELEVATION
 EGL .m                   0.00:  GROUND ELEVATION
 WDMS.m                 121.00:  WD ELEV
 APD .m                  36.60:  DEPTH ABOVE PD
 AGAP.m                  36.60:  AIR GAP
 VSEW.m                   1.56:  VERT SEC E/W
 VSNS.m                  -7.94:  VERT SEC N/S
 DEP .m                1140.01:  DEPTH
 EKB .m                  36.60:  KB ELEVATION
 EDF .m                  36.60:  DF ELEVATION
 TDL .m                1293.00:  TOTAL DEPTH (LOGGER)
 VSC .                       0:  VS TO CLOSURE
 MAGU.                 1849164:  MAGUTM CHECKSUM
~Parameter Information Block
#MNEM.UNIT       Value        Description
#---------     -----------    ---------------------------
 AV  .mps                 2.40:  Ann Velocity 
 AVMX.mps                 2.55:  Max Ann Veloc 
 AZIF.deg               134.35:  Azm, Final 
 BHAT.        Rotary Steerable:  BHA Type 
 BREV.rev               847.00:  Rev Bit Total 
 BROT.°/30m              -2.51:  Build Rotating 
 BS  .in                  8.50:  Bit Size 
 BSZ .in                  8.50:  Bit Size 
 BTPL.psig              700.00:  Bit Press Loss 
 CABU.                     Yes:  Customer Abuse 
 CGEO.          Ilgar Gurbanov:  Customer Geo 
 COMM.                     Áo:  Run Comments 1 
 TCS .hr                140.40:  Time Ciculation Ended 
 CV  .mps                 2.27:  Crit Velocity 
 CVMX.mps                 2.45:  Max Crit Veloc 
 DD1 .         Intigam Rahimov:  Direct Drillr 1 
 DD2 .         Rasim Ibrahimov:  Direct Drillr 2 
 DDSV.                 iCruise:  DD Service 
 DEFF.%                  99.00:  % Det Eff 
 DLRX.°/30m               3.28:  Dogleg Rot Max 
 DLSO.°/30m               0.00:  Dogleg Oriented 
 DLSX.°/30m               0.00:  Dogleg Str Max 
 DRET.      23.30.00 18-Jan-20:  Drill End Time 
 DRST.      01.45.00 11-Jan-20:  Drill Start Tim 
 DTIM.hr                 94.00:  Time Drilling 
 EDEP.m                3878.01:  End Depth 
 ENG1.       Dauren Baktybayev:  Engineer 1 
 ENG2.      Natik Hasanaghayev:  Engineer 2 
 ENG3.          Rustam Safarov:  Engineer 3 
 ETIM.      08.00.00 20-Jan-20:  End Time 
 FLOI.gpm               532.00:  Flow In 
 FLON.gpm               500.00:  Flow In Min 
 FLOS.cptm                0.00:  Fluid Loss 
 FLOX.gpm               540.00:  Flow In Max 
 FTRO.       Formation Presure:  FTWD Run Obj 
 HPRE.                     Yes:  High Pressure 
 HTEM.                      No:  High Temp 
 HYDO.m                   1.80:  Hydro Offset 
 IFIN.deg                39.86:  Inc, Final 
 IMAX.deg                59.73:  Inc Max 
 IMIN.deg                39.25:  Inc Min 
 IMND.m                3816.77:  Inc Min Depth 
 IMXD.m                2596.33:  Inc Max Depth 
 JARR.                      No:  Jarring 
 LETM.      23.30.00 18-Jan-20:  Log End Time 
 LOST.hr                     0:  Lost Rig Time 
 LSTM.      01.45.00 11-Jan-20:  Log Start Time 
 MDCL.ppm             41500.00:  Mud Chlorides 
 MDES.     Inversion Oil/Synthetic:  Mud Desc 
 DFD .sg                  1.48:  Mud Density 
 MDMN.sg                  1.48:  Dens Mud Min 
 MDMX.sg                  1.48:  Dens Mud Max 
 MOIL.                      54:  Run Mud Oil % 
 MOWR.                   72:28:  Run Mud OWR 
 MSND.                       0:  Run Mud Sand % 
 MSOL.                      23:  Run Mud Solids% 
 DFV .spqt               86.00:  Mud Viscosity 
 MWOD.in                  6.75:  MWD Tool OD 
 MWSI.                      No:  Serv Intrp, MWD 
 OTIM.hr                223.40:  Time Operating 
 PCON.           Look Like New:  Pad Condition 
 PMAX.psia            32446.79:  Press Op, Max 
 PV  .cP                 49.00:  Mud PV 
 RUN .                     200:  Run Number 
 ROPA.m/hr               12.48:  ROP Avg 
 ROPN.m/hr                8.00:  ROP Min 
 ROPX.m/hr               27.00:  ROP Max 
 RPMA.rpm               121.00:  RPM Surface Avg 
 RPMN.rpm                60.00:  RPM Surface Min 
 RPMX.rpm               140.00:  RPM Surface Max 
 RRUN.                    L202:  Rig Run Number 
 RTIM.hr                  7.25:  Time Reaming 
 SAZI.deg               123.49:  Azm, Start 
 SDEP.m                2585.01:  Start Depth 
 SIDD.                      No:  Serv Intrp, DD 
 SINC.deg                59.93:  Inc, Start 
 SPPA.psig             3539.00:  SPP Avg 
 SPPN.psig             3050.00:  SPP Min 
 SPPX.psig             3950.00:  SPP Max 
 STIM.      19.00.00 10-Jan-20:  Start Time 
 SVCS.                 DD, MWD:  Services 
 SVER.                    9.20:  Sperry Version 
 TDAT.m                1293.00:  Tot Depth Attmp 
 TDDF.                      No:  Trip for DD 
 TDLG.m                1293.00:  Tot Depth Loggd 
 TFF .                      No:  Trip for Fail 
 TQAA.f-kp               16.00:  Torque Abs Avg 
 TQAN.f-kp               11.00:  Torque Abs Min 
 TQAX.f-kp               18.00:  Torque Abs Max 
 TRRT.°/30m               1.25:  Turn Rotating 
 MRT .                  EWR-M5:  Maximum Recorded Temperature 
 TTMX.degC               84.00:  Max Tool Temp 
 VS01.          AZ90514619R5C6:  Virtual Str1 SN 
 VS02.        AZ90552592N2L2C6:  Virtual Str2 SN 
 VS03.        AZ90571337Z1W1C6:  Virtual Str3 SN 
 VS04.         AZ90513690K23C6:  Virtual Str4 SN 
 VS05.           AZ90594857F11:  Virtual Str5 SN 
 VS06.                13102166:  Virtual Str6 SN 
 WBMN.klb                 7.00:  WOB Min 
 WITN.            Peter Wilson:  Customer Rep 
 WOBA.klb                 9.95:  WOB Avg 
 WOBX.klb                10.00:  WOB Max 
 YP  .lhf2               36.00:  Yield Point 
~Curve Information Block
#MNEM.UNIT                 API CODE     Curve Description
#---------               -----------    ---------------------------
 TIME.HHMMSS            00 000 000 000:  GT Time & Date
 GTDEPTH.m              00 000 000 000:  GT Depth
 GTPQH.psia             00 000 000 000:  GT HR Quartz Pressure
 GTTQ.degC              00 000 000 000:  GT Quartz Temperature
 GTTN.NONE              00 000 000 000:  GT Test Number
 GTET.sec               00 000 000 000:  GT Elapsed Test Time
 GTTVD.m                00 000 000 000:  GT True Vertical Depth
#Other Information
#
#WARRANTY: Halliburton will use its best efforts to furnish customers with 
#accurate information and interpretations that are part of, and incident to, the services 
#provided.  However, Halliburton cannot and does not warrant the accuracy 
#or correctness of such information and interpretations.  Under no circumstances should any 
#such information or interpretation be relied upon as the sole basis for any drilling, 
#completion, production, or financial decision or any procedure involving any risk to the 
#safety of any drilling venture, drilling rig or its crew or any other third party.  The 
#Customer has full responsibility for all drilling, completion and production operation.  
#Halliburton makes no representations or warranties, either expressed or 
#implied, including, but not limited to, the implied warranties of merchantability or fitness 
#for a particular purpose, with respect to the services rendered.  In no event will 
#Halliburton be liable for failure to obtain any particular results or for 
#any damages, including, but not limited to, indirect, special or consequential damages, 
#resulting from the use of any information or interpretation provided by Halliburton.
#
~A           TIME           GTDEPTH  GTPQH  GTTQ  GTTN  GTET   GTTVD  
# ...
   09:22:36.857.18-Jan-2020 3746.01 3686.40 81.05 3.00 345.06 2818.83
   09:22:37.057.18-Jan-2020 3746.01 3686.40 81.05 3.00 345.26 2818.83
   09:22:37.257.18-Jan-2020 3746.01 3686.38 81.05 3.00 345.46 2818.83
   09:22:37.457.18-Jan-2020 3746.01 3686.39 81.05 3.00 345.66 2818.83
   09:22:37.658.18-Jan-2020 3746.01 3686.60 81.05 3.00 345.86 2818.83
   09:22:37.858.18-Jan-2020 3746.01 3687.28 81.05 3.00 346.06 2818.83
   09:22:38.058.18-Jan-2020 3746.01 3687.28 81.05 3.00 346.26 2818.83
   09:22:38.258.18-Jan-2020 3746.01 3686.92 81.05 3.00 346.46 2818.83
   09:22:38.458.18-Jan-2020 3746.01 3686.50 81.05 3.00 346.66 2818.83
   09:22:38.658.18-Jan-2020 3746.01 3686.37 81.05 3.00 346.86 2818.83
   09:22:38.858.18-Jan-2020 3746.01 3686.60 81.05 3.00 347.06 2818.83
   09:22:39.058.18-Jan-2020 3746.01 3686.60 81.05 3.00 347.26 2818.83
   09:22:39.258.18-Jan-2020 3746.01 3686.50 81.05 3.00 347.46 2818.83
   09:22:39.458.18-Jan-2020 3746.01 3686.35 81.05 3.00 347.66 2818.83
   09:22:39.658.18-Jan-2020 3746.01 3686.49 81.05 3.00 347.86 2818.83
   09:22:39.858.18-Jan-2020 3746.01 3686.33 81.05 3.00 348.06 2818.83
   09:22:40.058.18-Jan-2020 3746.01 3686.33 81.05 3.00 348.26 2818.83
   09:22:40.258.18-Jan-2020 3746.01 3687.19 81.05 3.00 348.46 2818.83
   09:22:40.458.18-Jan-2020 3746.01 3686.65 81.05 3.00 348.66 2818.83
   09:22:40.658.18-Jan-2020 3746.01 3686.57 81.05 3.00 348.86 2818.83
   09:22:40.858.18-Jan-2020 3746.01 3686.75 81.05 3.00 349.06 2818.83
   09:22:41.058.18-Jan-2020 3746.01 3686.75 81.05 3.00 349.26 2818.83
   09:22:41.258.18-Jan-2020 3746.01 3686.74 81.05 3.00 349.46 2818.83
   09:22:41.458.18-Jan-2020 3746.01 3686.77 81.04 3.00 349.66 2818.83
   09:22:41.658.18-Jan-2020 3746.01 3686.39 81.04 3.00 349.86 2818.83
   09:22:41.858.18-Jan-2020 3746.01 3686.41 81.04 3.00 350.06 2818.83
   09:22:42.058.18-Jan-2020 3746.01 3686.41 81.04 3.00 350.26 2818.83
   09:22:42.258.18-Jan-2020 3746.01 3687.01 81.04 3.00 350.46 2818.83
   09:22:42.458.18-Jan-2020 3746.01 3686.74 81.04 3.00 350.66 2818.83
   09:22:42.658.18-Jan-2020 3746.01 3686.35 81.04 3.00 350.86 2818.83
   09:22:42.858.18-Jan-2020 3746.01 3686.62 81.04 3.00 351.06 2818.83
   09:22:43.058.18-Jan-2020 3746.01 3686.62 81.04 3.00 351.26 2818.83
   09:22:43.258.18-Jan-2020 3746.01 3687.20 81.04 3.00 351.46 2818.83
   09:22:43.459.18-Jan-2020 3746.01 3686.54 81.04 3.00 351.66 2818.83
   09:22:43.659.18-Jan-2020 3746.01 3686.79 81.04 3.00 351.86 2818.83
   09:22:43.859.18-Jan-2020 3746.01 3686.28 81.04 3.00 352.06 2818.83
   09:22:44.059.18-Jan-2020 3746.01 3686.28 81.04 3.00 352.26 2818.83
   09:22:44.259.18-Jan-2020 3746.01 3686.36 81.04 3.00 352.46 2818.83
   09:22:44.459.18-Jan-2020 3746.01 3686.37 81.04 3.00 352.66 2818.83
   09:22:44.659.18-Jan-2020 3746.01 3686.43 81.04 3.00 352.86 2818.83
   09:22:44.859.18-Jan-2020 3746.01 3686.44 81.04 3.00 353.06 2818.83
   09:22:45.059.18-Jan-2020 3746.01 3686.44 81.04 3.00 353.26 2818.83
   09:22:45.259.18-Jan-2020 3746.01 3686.28 81.04 3.00 353.46 2818.83
   09:22:45.459.18-Jan-2020 3746.01 3686.38 81.04 3.00 353.66 2818.83
   09:22:45.659.18-Jan-2020 3746.01 3686.28 81.04 3.00 353.86 2818.83
   09:22:45.859.18-Jan-2020 3746.01 3686.46 81.04 3.00 354.06 2818.83
   09:22:46.059.18-Jan-2020 3746.01 3686.46 81.04 3.00 354.26 2818.83
   09:22:46.259.18-Jan-2020 3746.01 3686.41 81.04 3.00 354.46 2818.83
   09:22:46.459.18-Jan-2020 3746.01 3686.25 81.04 3.00 354.66 2818.83
   09:22:46.659.18-Jan-2020 3746.01 3686.62 81.04 3.00 354.86 2818.83
   09:22:46.859.18-Jan-2020 3746.01 3686.90 81.04 3.00 355.06 2818.83
   09:22:47.059.18-Jan-2020 3746.01 3686.90 81.04 3.00 355.26 2818.83
   09:22:47.259.18-Jan-2020 3746.01 3686.57 81.03 3.00 355.46 2818.83
   09:22:47.459.18-Jan-2020 3746.01 3686.44 81.03 3.00 355.66 2818.83
   09:22:47.659.18-Jan-2020 3746.01 3686.24 81.03 3.00 355.86 2818.83
   09:22:47.859.18-Jan-2020 3746.01 3686.38 81.03 3.00 356.06 2818.83
   09:22:48.059.18-Jan-2020 3746.01 3686.38 81.03 3.00 356.26 2818.83
   09:22:48.259.18-Jan-2020 3746.01 3686.30 81.03 3.00 356.46 2818.83
   09:22:48.459.18-Jan-2020 3746.01 3686.34 81.03 3.00 356.66 2818.83
   09:22:48.659.18-Jan-2020 3746.01 3686.31 81.03 3.00 356.86 2818.83
   09:22:48.859.18-Jan-2020 3746.01 3686.36 81.03 3.00 357.06 2818.83
   09:22:49.059.18-Jan-2020 3746.01 3686.36 81.03 3.00 357.26 2818.83
   09:22:49.260.18-Jan-2020 3746.01 3686.83 81.03 3.00 357.46 2818.83
   09:22:49.460.18-Jan-2020 3746.01 3686.74 81.03 3.00 357.66 2818.83
   09:22:49.660.18-Jan-2020 3746.01 3686.36 81.03 3.00 357.86 2818.83
   09:22:49.860.18-Jan-2020 3746.01 3686.85 81.03 3.00 358.06 2818.83
   09:22:50.060.18-Jan-2020 3746.01 3686.85 81.03 3.00 358.26 2818.83
   09:22:50.260.18-Jan-2020 3746.01 3686.45 81.03 3.00 358.46 2818.83
   09:22:50.460.18-Jan-2020 3746.01 3686.25 81.03 3.00 358.66 2818.83
   09:22:50.660.18-Jan-2020 3746.01 3686.51 81.03 3.00 358.86 2818.83
   09:22:50.860.18-Jan-2020 3746.01 3686.42 81.03 3.00 359.06 2818.83
   09:22:51.060.18-Jan-2020 3746.01 3686.42 81.03 3.00 359.26 2818.83
   09:22:51.260.18-Jan-2020 3746.01 3686.24 81.03 3.00 359.46 2818.83
   09:22:51.460.18-Jan-2020 3746.01 3686.62 81.03 3.00 359.66 2818.83
   09:22:51.660.18-Jan-2020 3746.01 3686.12 81.03 3.00 359.86 2818.83
   09:22:51.860.18-Jan-2020 3746.01 3686.50 81.03 3.00 360.06 2818.83
   09:22:52.060.18-Jan-2020 3746.01 3686.50 81.03 3.00 360.26 2818.83
   09:22:52.260.18-Jan-2020 3746.01 3686.71 81.03 3.00 360.46 2818.83
   09:22:52.460.18-Jan-2020 3746.01 3686.49 81.03 3.00 360.66 2818.83
   09:22:52.660.18-Jan-2020 3746.01 3686.55 81.03 3.00 360.86 2818.83
   09:22:52.860.18-Jan-2020 3746.01 3686.48 81.02 3.00 361.06 2818.83
   09:22:53.060.18-Jan-2020 3746.01 3686.48 81.02 3.00 361.26 2818.83
   09:22:53.260.18-Jan-2020 3746.01 3686.40 81.02 3.00 361.46 2818.83
   09:22:53.460.18-Jan-2020 3746.01 3686.21 81.02 3.00 361.66 2818.83
   09:22:53.660.18-Jan-2020 3746.01 3686.45 81.02 3.00 361.86 2818.83
   09:22:53.860.18-Jan-2020 3746.01 3686.35 81.02 3.00 362.06 2818.83
   09:22:54.060.18-Jan-2020 3746.01 3686.35 81.02 3.00 362.26 2818.83
   09:22:54.260.18-Jan-2020 3746.01 3686.28 81.02 3.00 362.46 2818.83
   09:22:54.460.18-Jan-2020 3746.01 3686.31 81.02 3.00 362.66 2818.83
   09:22:54.660.18-Jan-2020 3746.01 3686.30 81.02 3.00 362.86 2818.83
   09:22:54.860.18-Jan-2020 3746.01 3686.37 81.02 3.00 363.06 2818.83
   09:22:55.060.18-Jan-2020 3746.01 3686.37 81.02 3.00 363.26 2818.83
   09:22:55.261.18-Jan-2020 3746.01 3686.28 81.02 3.00 363.46 2818.83
   09:22:55.461.18-Jan-2020 3746.01 3686.37 81.02 3.00 363.66 2818.83
   09:22:55.661.18-Jan-2020 3746.01 3686.70 81.02 3.00 363.86 2818.83
   09:22:55.861.18-Jan-2020 3746.01 3686.79 81.02 3.00 364.06 2818.83
   09:22:56.061.18-Jan-2020 3746.01 3686.79 81.02 3.00 364.26 2818.83
   09:22:56.261.18-Jan-2020 3746.01 3686.30 81.02 3.00 364.46 2818.83
   09:22:56.461.18-Jan-2020 3746.01 3686.44 81.02 3.00 364.66 2818.83
   09:22:56.661.18-Jan-2020 3746.01 3686.29 81.02 3.00 364.86 2818.83
   09:22:56.861.18-Jan-2020 3746.01 3686.33 81.02 3.00 365.06 2818.83
   09:22:57.061.18-Jan-2020 3746.01 3686.33 81.02 3.00 365.26 2818.83
   09:22:57.261.18-Jan-2020 3746.01 3686.34 81.02 3.00 365.46 2818.83
   09:22:57.461.18-Jan-2020 3746.01 3686.27 81.02 3.00 365.66 2818.83
   09:22:57.661.18-Jan-2020 3746.01 3686.27 81.02 3.00 365.86 2818.83
   09:22:57.861.18-Jan-2020 3746.01 3686.52 81.02 3.00 366.06 2818.83
   09:22:58.061.18-Jan-2020 3746.01 3686.52 81.02 3.00 366.26 2818.83
   09:22:58.261.18-Jan-2020 3746.01 3686.28 81.02 3.00 366.46 2818.83
   09:22:58.461.18-Jan-2020 3746.01 3686.61 81.02 3.00 366.66 2818.83
   09:22:58.661.18-Jan-2020 3746.01 3686.25 81.01 3.00 366.86 2818.83
   09:22:58.861.18-Jan-2020 3746.01 3686.49 81.01 3.00 367.06 2818.83
   09:22:59.061.18-Jan-2020 3746.01 3686.49 81.01 3.00 367.26 2818.83
   09:22:59.261.18-Jan-2020 3746.01 3686.65 81.01 3.00 367.46 2818.83
   09:22:59.461.18-Jan-2020 3746.01 3686.24 81.01 3.00 367.66 2818.83
   09:22:59.661.18-Jan-2020 3746.01 3686.34 81.01 3.00 367.86 2818.83
