~Version Information
 VERS.                  2.0:   CWLS log ASCII Standard -VERSION 2.0
 WRAP.                   NO:   One line per depth step
~Well Information Block
#MNEM.UNIT     VALUE/NAME     DESCRIPTION
#---------     -----------    ---------------------------
 STRT.S             05:39:19 18-Jan-20: START TIME 05:39:19 18-Jan-20
 STOP.S             05:47:35 18-Jan-20: STOP TIME  05:47:35 18-Jan-20
 STEP.S                   0.00: STEP TIME
 NULL.                 -999.25: NULL VALUE
 DFWT.                        :  DIST FWL TEXT
 DFST.                        :  DIST FSL TEXT
 DMF .             Drill Floor:  DRILL MEAS FROM
 STIM.      09.30.00 26-Dec-19:  START TIME
 DATE.      08.00.00 20-Jan-20:  END TIME
 SPUD.               23-Nov-19:  SPUD DATE
 NREF.                    Grid:  NORTH REFERENCE
 HPTY.       Minimum Curvature:  HOLE POS TYPE
 DMOD.             Drill Model:  DRILL MOD DESC
 SVYD.                  Survey:  SURVEY DESC
 ILTD.               Lithology:  INTERP LTH DESC
 FTOP.          Formation Tops:  FORM TOPS DESC
 SON .        AZ-XX-0906192647:  JOB NUMBER
 WTYP.                Deviated:  WELL TYPE
 COMP.     BP Exploration (Caspian Sea) Ltd:  COMPANY
 BASE.              Azerbaijan:  LOGGING EQUIPMENT BASE LOCATION
 REGN.                 Eurasia:  REGION
 FLD .                     ACG:  FIELD NAME
 SRVC.              KCA Deutag:  CONTRACTOR
 MWDS.                    Baku:  MWD SHOP
 WELL.     A10 (Slot 20) - SCP:  WELL NAME
 JOBN.        AZ-XX-0906192647:  JOB TICKET NUMB
 RIG .                 Chirag1:  RIG NAME
 DCON.     Halliburton Sperry Drilling:  DIRECTNL CONTR
 UNIT.                     N/A:  LOGGING EQUIPMENT ID
 PDAT.          Mean Sea Level:  PERMANENT DATUM
 MDS .        Operator Entered:  MAG DATA SOURCE
 CTRY.              Azerbaijan:  COUNTRY NAME
 UWI .            /AZE00000090:  UNIQUE WELL IDENTIFIER
 API .            /AZE00000090:  API NUMBER
 CNTY.                        :  COUNTY
 PROV.                        :  PROVINCE
 STAT.                        :  STATE
 LOC .                        :  LOCATION
 LMF .             Drill Floor:  LOG MEASURED FROM
 TVDS.m                  36.60:  TVDSS CORRECTN
 LATI.deg                40.08:  LATITUDE
 LONG.deg                51.24:  LONGITUDE
 WHNS.m                  -7.94:  WELL HEAD N/S
 WHEW.m                   1.56:  WELL HEAD E/W
 UTMX.m              520429.26:  UTM X
 UTMY.m             4438973.87:  UTM Y
 DFWL.m                   0.00:  DISTANCE FWL
 DFSL.m                   0.00:  DISTANCE FSL
 SDEP.m                1455.00:  START DEPTH
 TDD .m                3878.01:  TOTAL DEPTH (DRILLER)
 VSDR.deg               112.75:  VERT SEC DIRECT
 GVFD.g                   1.00:  GRAVITY FIELD
 MFLD.nT              50256.00:  MAGNETIC FIELD
 MDIP.deg                59.52:  MAGNETIC DIP
 MDEC.deg                 6.43:  MAGNETIC DECL
 GRDC.deg                 0.16:  GRID CORRECTION
 AZTC.deg                 6.27:  AZM TOTAL CORR
 EPD .m                   0.00:  ELEVATION
 EGL .m                   0.00:  GROUND ELEVATION
 WDMS.m                 121.00:  WD ELEV
 APD .m                  36.60:  DEPTH ABOVE PD
 AGAP.m                  36.60:  AIR GAP
 VSEW.m                   1.56:  VERT SEC E/W
 VSNS.m                  -7.94:  VERT SEC N/S
 DEP .m                1140.01:  DEPTH
 EKB .m                  36.60:  KB ELEVATION
 EDF .m                  36.60:  DF ELEVATION
 TDL .m                1293.00:  TOTAL DEPTH (LOGGER)
 VSC .                       0:  VS TO CLOSURE
 MAGU.                 1849164:  MAGUTM CHECKSUM
~Parameter Information Block
#MNEM.UNIT       Value        Description
#---------     -----------    ---------------------------
 AV  .mps                 2.40:  Ann Velocity 
 AVMX.mps                 2.55:  Max Ann Veloc 
 AZIF.deg               134.35:  Azm, Final 
 BHAT.        Rotary Steerable:  BHA Type 
 BREV.rev               847.00:  Rev Bit Total 
 BROT.∞/30m              -2.51:  Build Rotating 
 BS  .in                  8.50:  Bit Size 
 BSZ .in                  8.50:  Bit Size 
 BTPL.psig              700.00:  Bit Press Loss 
 CABU.                     Yes:  Customer Abuse 
 CGEO.          Ilgar Gurbanov:  Customer Geo 
 COMM.                     ‹êX:  Run Comments 1 
 TCS .hr                140.40:  Time Ciculation Ended 
 CV  .mps                 2.27:  Crit Velocity 
 CVMX.mps                 2.45:  Max Crit Veloc 
 DD1 .         Intigam Rahimov:  Direct Drillr 1 
 DD2 .         Rasim Ibrahimov:  Direct Drillr 2 
 DDSV.                 iCruise:  DD Service 
 DEFF.%                  99.00:  % Det Eff 
 DLRX.∞/30m               3.28:  Dogleg Rot Max 
 DLSO.∞/30m               0.00:  Dogleg Oriented 
 DLSX.∞/30m               0.00:  Dogleg Str Max 
 DRET.      23.30.00 18-Jan-20:  Drill End Time 
 DRST.      01.45.00 11-Jan-20:  Drill Start Tim 
 DTIM.hr                 94.00:  Time Drilling 
 EDEP.m                3878.01:  End Depth 
 ENG1.       Dauren Baktybayev:  Engineer 1 
 ENG2.      Natik Hasanaghayev:  Engineer 2 
 ENG3.          Rustam Safarov:  Engineer 3 
 ETIM.      08.00.00 20-Jan-20:  End Time 
 FLOI.gpm               532.00:  Flow In 
 FLON.gpm               500.00:  Flow In Min 
 FLOS.cptm                0.00:  Fluid Loss 
 FLOX.gpm               540.00:  Flow In Max 
 FTRO.       Formation Presure:  FTWD Run Obj 
 HPRE.                     Yes:  High Pressure 
 HTEM.                      No:  High Temp 
 HYDO.m                   1.80:  Hydro Offset 
 IFIN.deg                39.86:  Inc, Final 
 IMAX.deg                59.73:  Inc Max 
 IMIN.deg                39.25:  Inc Min 
 IMND.m                3816.77:  Inc Min Depth 
 IMXD.m                2596.33:  Inc Max Depth 
 JARR.                      No:  Jarring 
 LETM.      23.30.00 18-Jan-20:  Log End Time 
 LOST.hr                     0:  Lost Rig Time 
 LSTM.      01.45.00 11-Jan-20:  Log Start Time 
 MDCL.ppm             41500.00:  Mud Chlorides 
 MDES.     Inversion Oil/Synthetic:  Mud Desc 
 DFD .sg                  1.48:  Mud Density 
 MDMN.sg                  1.48:  Dens Mud Min 
 MDMX.sg                  1.48:  Dens Mud Max 
 MOIL.                      54:  Run Mud Oil % 
 MOWR.                   72:28:  Run Mud OWR 
 MSND.                       0:  Run Mud Sand % 
 MSOL.                      23:  Run Mud Solids% 
 DFV .spqt               86.00:  Mud Viscosity 
 MWOD.in                  6.75:  MWD Tool OD 
 MWSI.                      No:  Serv Intrp, MWD 
 OTIM.hr                223.40:  Time Operating 
 PCON.           Look Like New:  Pad Condition 
 PMAX.psia            32446.79:  Press Op, Max 
 PV  .cP                 49.00:  Mud PV 
 RUN .                     200:  Run Number 
 ROPA.m/hr               12.48:  ROP Avg 
 ROPN.m/hr                8.00:  ROP Min 
 ROPX.m/hr               27.00:  ROP Max 
 RPMA.rpm               121.00:  RPM Surface Avg 
 RPMN.rpm                60.00:  RPM Surface Min 
 RPMX.rpm               140.00:  RPM Surface Max 
 RRUN.                    L202:  Rig Run Number 
 RTIM.hr                  7.25:  Time Reaming 
 SAZI.deg               123.49:  Azm, Start 
 SDEP.m                2585.01:  Start Depth 
 SIDD.                      No:  Serv Intrp, DD 
 SINC.deg                59.93:  Inc, Start 
 SPPA.psig             3539.00:  SPP Avg 
 SPPN.psig             3050.00:  SPP Min 
 SPPX.psig             3950.00:  SPP Max 
 STIM.      19.00.00 10-Jan-20:  Start Time 
 SVCS.                 DD, MWD:  Services 
 SVER.                    9.20:  Sperry Version 
 TDAT.m                1293.00:  Tot Depth Attmp 
 TDDF.                      No:  Trip for DD 
 TDLG.m                1293.00:  Tot Depth Loggd 
 TFF .                      No:  Trip for Fail 
 TQAA.f-kp               16.00:  Torque Abs Avg 
 TQAN.f-kp               11.00:  Torque Abs Min 
 TQAX.f-kp               18.00:  Torque Abs Max 
 TRRT.∞/30m               1.25:  Turn Rotating 
 MRT .                  EWR-M5:  Maximum Recorded Temperature 
 TTMX.degC               84.00:  Max Tool Temp 
 VS01.          AZ90514619R5C6:  Virtual Str1 SN 
 VS02.        AZ90552592N2L2C6:  Virtual Str2 SN 
 VS03.        AZ90571337Z1W1C6:  Virtual Str3 SN 
 VS04.         AZ90513690K23C6:  Virtual Str4 SN 
 VS05.           AZ90594857F11:  Virtual Str5 SN 
 VS06.                13102166:  Virtual Str6 SN 
 WBMN.klb                 7.00:  WOB Min 
 WITN.            Peter Wilson:  Customer Rep 
 WOBA.klb                 9.95:  WOB Avg 
 WOBX.klb                10.00:  WOB Max 
 YP  .lhf2               36.00:  Yield Point 
~Curve Information Block
#MNEM.UNIT                 API CODE     Curve Description
#---------               -----------    ---------------------------
 TIME.HHMMSS            00 000 000 000:  GT Time & Date
 GTDEPTH.m              00 000 000 000:  GT Depth
 GTPQH.psia             00 000 000 000:  GT HR Quartz Pressure
 GTTQ.degC              00 000 000 000:  GT Quartz Temperature
 GTTN.NONE              00 000 000 000:  GT Test Number
 GTET.sec               00 000 000 000:  GT Elapsed Test Time
 GTTVD.m                00 000 000 000:  GT True Vertical Depth
#Other Information
#
#WARRANTY: Halliburton will use its best efforts to furnish customers with 
#accurate information and interpretations that are part of, and incident to, the services 
#provided.  However, Halliburton cannot and does not warrant the accuracy 
#or correctness of such information and interpretations.  Under no circumstances should any 
#such information or interpretation be relied upon as the sole basis for any drilling, 
#completion, production, or financial decision or any procedure involving any risk to the 
#safety of any drilling venture, drilling rig or its crew or any other third party.  The 
#Customer has full responsibility for all drilling, completion and production operation.  
#Halliburton makes no representations or warranties, either expressed or 
#implied, including, but not limited to, the implied warranties of merchantability or fitness 
#for a particular purpose, with respect to the services rendered.  In no event will 
#Halliburton be liable for failure to obtain any particular results or for 
#any damages, including, but not limited to, indirect, special or consequential damages, 
#resulting from the use of any information or interpretation provided by Halliburton.
#
~A           TIME           GTDEPTH  GTPQH  GTTQ  GTTN  GTET   GTTVD  
# ...
   05:39:42.503.18-Jan-2020 3717.66 6328.06 78.29 2.00  23.01 2797.70
   05:39:42.703.18-Jan-2020 3717.66 6328.06 78.29 2.00  23.21 2797.70
   05:39:42.903.18-Jan-2020 3717.66 6334.90 78.29 2.00  23.41 2797.70
   05:39:43.103.18-Jan-2020 3717.66 6328.95 78.29 2.00  23.61 2797.70
   05:39:43.304.18-Jan-2020 3717.66 6328.86 78.29 2.00  23.81 2797.70
   05:39:43.504.18-Jan-2020 3717.66 6328.66 78.29 2.00  24.01 2797.70
   05:39:43.704.18-Jan-2020 3717.66 6328.66 78.29 2.00  24.21 2797.70
   05:39:43.904.18-Jan-2020 3717.66 6326.34 78.29 2.00  24.41 2797.70
   05:39:44.104.18-Jan-2020 3717.66 6327.65 78.29 2.00  24.61 2797.70
   05:39:44.304.18-Jan-2020 3717.66 6328.18 78.29 2.00  24.81 2797.70
   05:39:44.504.18-Jan-2020 3717.66 6328.81 78.29 2.00  25.01 2797.70
   05:39:44.704.18-Jan-2020 3717.66 6328.81 78.29 2.00  25.21 2797.70
   05:39:44.904.18-Jan-2020 3717.66 6328.27 78.29 2.00  25.41 2797.70
   05:39:45.104.18-Jan-2020 3717.66 6328.89 78.29 2.00  25.61 2797.70
   05:39:45.304.18-Jan-2020 3717.66 6335.90 78.29 2.00  25.81 2797.70
   05:39:45.504.18-Jan-2020 3717.66 6330.13 78.29 2.00  26.01 2797.70
   05:39:45.704.18-Jan-2020 3717.66 6330.13 78.29 2.00  26.21 2797.70
   05:39:45.904.18-Jan-2020 3717.66 6330.40 78.29 2.00  26.41 2797.70
   05:39:46.104.18-Jan-2020 3717.66 6327.75 78.29 2.00  26.61 2797.70
   05:39:46.304.18-Jan-2020 3717.66 6327.00 78.29 2.00  26.81 2797.70
   05:39:46.504.18-Jan-2020 3717.66 6334.41 78.29 2.00  27.01 2797.70
   05:39:46.704.18-Jan-2020 3717.66 6334.41 78.29 2.00  27.21 2797.70
   05:39:46.905.18-Jan-2020 3717.66 6325.59 78.29 2.00  27.41 2797.70
   05:39:47.105.18-Jan-2020 3717.66 6329.99 78.29 2.00  27.61 2797.70
   05:39:47.305.18-Jan-2020 3717.66 6335.55 78.29 2.00  27.81 2797.70
   05:39:47.505.18-Jan-2020 3717.66 6328.90 78.29 2.00  28.01 2797.70
   05:39:47.705.18-Jan-2020 3717.66 6328.90 78.29 2.00  28.21 2797.70
   05:39:47.905.18-Jan-2020 3717.66 6329.66 78.29 2.00  28.41 2797.70
   05:39:48.105.18-Jan-2020 3717.66 6339.38 78.28 2.00  28.61 2797.70
   05:39:48.305.18-Jan-2020 3717.66 6331.87 78.29 2.00  28.81 2797.70
   05:39:48.505.18-Jan-2020 3717.66 6331.60 78.28 2.00  29.01 2797.70
   05:39:48.705.18-Jan-2020 3717.66 6331.60 78.28 2.00  29.21 2797.70
   05:39:48.905.18-Jan-2020 3717.66 6330.13 78.28 2.00  29.41 2797.70
   05:39:49.105.18-Jan-2020 3717.66 6330.09 78.28 2.00  29.61 2797.70
   05:39:49.305.18-Jan-2020 3717.66 6332.53 78.28 2.00  29.81 2797.70
   05:39:49.505.18-Jan-2020 3717.66 6332.83 78.28 2.00  30.01 2797.70
   05:39:49.705.18-Jan-2020 3717.66 6332.83 78.28 2.00  30.21 2797.70
   05:39:49.905.18-Jan-2020 3717.66 6332.36 78.28 2.00  30.41 2797.70
   05:39:50.105.18-Jan-2020 3717.66 6333.91 78.28 2.00  30.61 2797.70
   05:39:50.305.18-Jan-2020 3717.66 6332.72 78.28 2.00  30.81 2797.70
   05:39:50.506.18-Jan-2020 3717.66 6330.13 78.28 2.00  31.01 2797.70
   05:39:50.706.18-Jan-2020 3717.66 6330.13 78.28 2.00  31.21 2797.70
   05:39:50.906.18-Jan-2020 3717.66 6332.90 78.28 2.00  31.41 2797.70
   05:39:51.106.18-Jan-2020 3717.66 6332.06 78.28 2.00  31.61 2797.70
   05:39:51.306.18-Jan-2020 3717.66 6361.90 78.28 2.00  31.81 2797.70
   05:39:51.506.18-Jan-2020 3717.66 6520.49 78.28 2.00  32.01 2797.70
   05:39:51.706.18-Jan-2020 3717.66 6520.49 78.28 2.00  32.21 2797.70
   05:39:51.906.18-Jan-2020 3717.66 6756.62 78.28 2.00  32.41 2797.70
   05:39:52.106.18-Jan-2020 3717.66 6836.33 78.28 2.00  32.61 2797.70
   05:39:52.306.18-Jan-2020 3717.66 6810.86 78.28 2.00  32.81 2797.70
   05:39:52.506.18-Jan-2020 3717.66 6794.41 78.28 2.00  33.01 2797.70
   05:39:52.706.18-Jan-2020 3717.66 6794.41 78.28 2.00  33.21 2797.70
   05:39:52.906.18-Jan-2020 3717.66 6806.03 78.28 2.00  33.41 2797.70
   05:39:53.106.18-Jan-2020 3717.66 6806.98 78.28 2.00  33.61 2797.70
   05:39:53.306.18-Jan-2020 3717.66 6816.83 78.28 2.00  33.81 2797.70
   05:39:53.506.18-Jan-2020 3717.66 6830.05 78.28 2.00  34.01 2797.70
   05:39:53.706.18-Jan-2020 3717.66 6830.05 78.28 2.00  34.21 2797.70
   05:39:53.907.18-Jan-2020 3717.66 6843.32 78.28 2.00  34.41 2797.70
   05:39:54.107.18-Jan-2020 3717.66 6847.43 78.28 2.00  34.61 2797.70
   05:39:54.307.18-Jan-2020 3717.66 6845.47 78.28 2.00  34.81 2797.70
   05:39:54.507.18-Jan-2020 3717.66 6846.54 78.28 2.00  35.01 2797.70
   05:39:54.707.18-Jan-2020 3717.66 6846.54 78.28 2.00  35.21 2797.70
   05:39:54.907.18-Jan-2020 3717.66 6843.22 78.28 2.00  35.41 2797.70
   05:39:55.107.18-Jan-2020 3717.66 6843.80 78.28 2.00  35.61 2797.70
   05:39:55.307.18-Jan-2020 3717.66 6847.36 78.29 2.00  35.81 2797.70
   05:39:55.507.18-Jan-2020 3717.66 6849.68 78.29 2.00  36.01 2797.70
   05:39:55.707.18-Jan-2020 3717.66 6849.68 78.29 2.00  36.21 2797.70
   05:39:55.907.18-Jan-2020 3717.66 6848.93 78.29 2.00  36.41 2797.70
   05:39:56.107.18-Jan-2020 3717.66 6850.60 78.29 2.00  36.61 2797.70
   05:39:56.307.18-Jan-2020 3717.66 6851.91 78.29 2.00  36.81 2797.70
   05:39:56.507.18-Jan-2020 3717.66 6851.13 78.29 2.00  37.01 2797.70
   05:39:56.707.18-Jan-2020 3717.66 6851.13 78.29 2.00  37.21 2797.70
   05:39:56.907.18-Jan-2020 3717.66 6851.91 78.29 2.00  37.41 2797.70
   05:39:57.107.18-Jan-2020 3717.66 6852.02 78.29 2.00  37.61 2797.70
   05:39:57.307.18-Jan-2020 3717.66 6854.42 78.29 2.00  37.81 2797.70
   05:39:57.508.18-Jan-2020 3717.66 6853.40 78.29 2.00  38.01 2797.70
   05:39:57.708.18-Jan-2020 3717.66 6853.40 78.29 2.00  38.21 2797.70
   05:39:57.908.18-Jan-2020 3717.66 6842.72 78.29 2.00  38.41 2797.70
   05:39:58.108.18-Jan-2020 3717.66 6419.92 78.29 2.00  38.61 2797.70
   05:39:58.308.18-Jan-2020 3717.66 5552.42 78.29 2.00  38.81 2797.70
   05:39:58.508.18-Jan-2020 3717.66 4804.45 78.29 2.00  39.01 2797.70
   05:39:58.708.18-Jan-2020 3717.66 4804.45 78.29 2.00  39.21 2797.70
   05:39:58.908.18-Jan-2020 3717.66 3616.44 78.29 2.00  39.41 2797.70
   05:39:59.108.18-Jan-2020 3717.66 4109.82 78.29 2.00  39.61 2797.70
   05:39:59.308.18-Jan-2020 3717.66 4184.83 78.28 2.00  39.81 2797.70
   05:39:59.508.18-Jan-2020 3717.66 4211.82 78.28 2.00  40.01 2797.70
   05:39:59.708.18-Jan-2020 3717.66 4211.82 78.28 2.00  40.21 2797.70
   05:39:59.908.18-Jan-2020 3717.66 4206.12 78.28 2.00  40.41 2797.70
   05:40:00.108.18-Jan-2020 3717.66 4201.07 78.28 2.00  40.61 2797.70
   05:40:00.308.18-Jan-2020 3717.66 4202.36 78.28 2.00  40.81 2797.70
   05:40:00.508.18-Jan-2020 3717.66 4201.76 78.28 2.00  41.01 2797.70
   05:40:00.708.18-Jan-2020 3717.66 4201.76 78.28 2.00  41.21 2797.70
   05:40:00.908.18-Jan-2020 3717.66 4204.86 78.27 2.00  41.41 2797.70
   05:40:01.109.18-Jan-2020 3717.66 4208.29 78.27 2.00  41.61 2797.70
   05:40:01.309.18-Jan-2020 3717.66 4209.93 78.27 2.00  41.81 2797.70
   05:40:01.509.18-Jan-2020 3717.66 4212.29 78.27 2.00  42.01 2797.70
   05:40:01.709.18-Jan-2020 3717.66 4212.29 78.27 2.00  42.21 2797.70
   05:40:01.909.18-Jan-2020 3717.66 4211.06 78.26 2.00  42.41 2797.70
   05:40:02.109.18-Jan-2020 3717.66 4211.26 78.26 2.00  42.61 2797.70
   05:40:02.309.18-Jan-2020 3717.66 4209.87 78.26 2.00  42.81 2797.70
   05:40:02.509.18-Jan-2020 3717.66 4211.75 78.26 2.00  43.01 2797.70
   05:40:02.709.18-Jan-2020 3717.66 4211.75 78.26 2.00  43.21 2797.70
   05:40:02.909.18-Jan-2020 3717.66 4210.78 78.26 2.00  43.41 2797.70
   05:40:03.109.18-Jan-2020 3717.66 4210.47 78.25 2.00  43.61 2797.70
   05:40:03.309.18-Jan-2020 3717.66 4211.80 78.25 2.00  43.81 2797.70
   05:40:03.509.18-Jan-2020 3717.66 4210.09 78.25 2.00  44.01 2797.70
   05:40:03.709.18-Jan-2020 3717.66 4210.09 78.25 2.00  44.21 2797.70
   05:40:03.909.18-Jan-2020 3717.66 4209.04 78.25 2.00  44.41 2797.70
   05:40:04.109.18-Jan-2020 3717.66 4210.27 78.25 2.00  44.61 2797.70
   05:40:04.309.18-Jan-2020 3717.66 4211.07 78.25 2.00  44.81 2797.70
   05:40:04.510.18-Jan-2020 3717.66 4209.33 78.24 2.00  45.01 2797.70
   05:40:04.710.18-Jan-2020 3717.66 4209.33 78.24 2.00  45.21 2797.70
   05:40:04.910.18-Jan-2020 3717.66 4209.21 78.24 2.00  45.41 2797.70
   05:40:05.110.18-Jan-2020 3717.66 4210.69 78.24 2.00  45.61 2797.70
   05:40:05.310.18-Jan-2020 3717.66 4211.19 78.24 2.00  45.81 2797.70
