~Version Information
 VERS.                  2.0:   CWLS log ASCII Standard -VERSION 2.0
 WRAP.                   NO:   One line per depth step
~Well Information Block
#MNEM.UNIT     VALUE/NAME     DESCRIPTION
#---------     -----------    ---------------------------
 STRT.S             09:16:51 18-Jan-20: START TIME 09:16:51 18-Jan-20
 STOP.S             09:25:06 18-Jan-20: STOP TIME  09:25:06 18-Jan-20
 STEP.S                   0.00: STEP TIME
 NULL.                 -999.25: NULL VALUE
 DFWT.                        :  DIST FWL TEXT
 DFST.                        :  DIST FSL TEXT
 DMF .             Drill Floor:  DRILL MEAS FROM
 STIM.      09.30.00 26-Dec-19:  START TIME
 DATE.      08.00.00 20-Jan-20:  END TIME
 SPUD.               23-Nov-19:  SPUD DATE
 NREF.                    Grid:  NORTH REFERENCE
 HPTY.       Minimum Curvature:  HOLE POS TYPE
 DMOD.             Drill Model:  DRILL MOD DESC
 SVYD.                  Survey:  SURVEY DESC
 ILTD.               Lithology:  INTERP LTH DESC
 FTOP.          Formation Tops:  FORM TOPS DESC
 SON .        AZ-XX-0906192647:  JOB NUMBER
 WTYP.                Deviated:  WELL TYPE
 COMP.     BP Exploration (Caspian Sea) Ltd:  COMPANY
 BASE.              Azerbaijan:  LOGGING EQUIPMENT BASE LOCATION
 REGN.                 Eurasia:  REGION
 FLD .                     ACG:  FIELD NAME
 SRVC.              KCA Deutag:  CONTRACTOR
 MWDS.                    Baku:  MWD SHOP
 WELL.     A10 (Slot 20) - SCP:  WELL NAME
 JOBN.        AZ-XX-0906192647:  JOB TICKET NUMB
 RIG .                 Chirag1:  RIG NAME
 DCON.     Halliburton Sperry Drilling:  DIRECTNL CONTR
 UNIT.                     N/A:  LOGGING EQUIPMENT ID
 PDAT.          Mean Sea Level:  PERMANENT DATUM
 MDS .        Operator Entered:  MAG DATA SOURCE
 CTRY.              Azerbaijan:  COUNTRY NAME
 UWI .            /AZE00000090:  UNIQUE WELL IDENTIFIER
 API .            /AZE00000090:  API NUMBER
 CNTY.                        :  COUNTY
 PROV.                        :  PROVINCE
 STAT.                        :  STATE
 LOC .                        :  LOCATION
 LMF .             Drill Floor:  LOG MEASURED FROM
 TVDS.m                  36.60:  TVDSS CORRECTN
 LATI.deg                40.08:  LATITUDE
 LONG.deg                51.24:  LONGITUDE
 WHNS.m                  -7.94:  WELL HEAD N/S
 WHEW.m                   1.56:  WELL HEAD E/W
 UTMX.m              520429.26:  UTM X
 UTMY.m             4438973.87:  UTM Y
 DFWL.m                   0.00:  DISTANCE FWL
 DFSL.m                   0.00:  DISTANCE FSL
 SDEP.m                1455.00:  START DEPTH
 TDD .m                3878.01:  TOTAL DEPTH (DRILLER)
 VSDR.deg               112.75:  VERT SEC DIRECT
 GVFD.g                   1.00:  GRAVITY FIELD
 MFLD.nT              50256.00:  MAGNETIC FIELD
 MDIP.deg                59.52:  MAGNETIC DIP
 MDEC.deg                 6.43:  MAGNETIC DECL
 GRDC.deg                 0.16:  GRID CORRECTION
 AZTC.deg                 6.27:  AZM TOTAL CORR
 EPD .m                   0.00:  ELEVATION
 EGL .m                   0.00:  GROUND ELEVATION
 WDMS.m                 121.00:  WD ELEV
 APD .m                  36.60:  DEPTH ABOVE PD
 AGAP.m                  36.60:  AIR GAP
 VSEW.m                   1.56:  VERT SEC E/W
 VSNS.m                  -7.94:  VERT SEC N/S
 DEP .m                1140.01:  DEPTH
 EKB .m                  36.60:  KB ELEVATION
 EDF .m                  36.60:  DF ELEVATION
 TDL .m                1293.00:  TOTAL DEPTH (LOGGER)
 VSC .                       0:  VS TO CLOSURE
 MAGU.                 1849164:  MAGUTM CHECKSUM
~Parameter Information Block
#MNEM.UNIT       Value        Description
#---------     -----------    ---------------------------
 AV  .mps                 2.40:  Ann Velocity 
 AVMX.mps                 2.55:  Max Ann Veloc 
 AZIF.deg               134.35:  Azm, Final 
 BHAT.        Rotary Steerable:  BHA Type 
 BREV.rev               847.00:  Rev Bit Total 
 BROT.°/30m              -2.51:  Build Rotating 
 BS  .in                  8.50:  Bit Size 
 BSZ .in                  8.50:  Bit Size 
 BTPL.psig              700.00:  Bit Press Loss 
 CABU.                     Yes:  Customer Abuse 
 CGEO.          Ilgar Gurbanov:  Customer Geo 
 COMM.                     Áo:  Run Comments 1 
 TCS .hr                140.40:  Time Ciculation Ended 
 CV  .mps                 2.27:  Crit Velocity 
 CVMX.mps                 2.45:  Max Crit Veloc 
 DD1 .         Intigam Rahimov:  Direct Drillr 1 
 DD2 .         Rasim Ibrahimov:  Direct Drillr 2 
 DDSV.                 iCruise:  DD Service 
 DEFF.%                  99.00:  % Det Eff 
 DLRX.°/30m               3.28:  Dogleg Rot Max 
 DLSO.°/30m               0.00:  Dogleg Oriented 
 DLSX.°/30m               0.00:  Dogleg Str Max 
 DRET.      23.30.00 18-Jan-20:  Drill End Time 
 DRST.      01.45.00 11-Jan-20:  Drill Start Tim 
 DTIM.hr                 94.00:  Time Drilling 
 EDEP.m                3878.01:  End Depth 
 ENG1.       Dauren Baktybayev:  Engineer 1 
 ENG2.      Natik Hasanaghayev:  Engineer 2 
 ENG3.          Rustam Safarov:  Engineer 3 
 ETIM.      08.00.00 20-Jan-20:  End Time 
 FLOI.gpm               532.00:  Flow In 
 FLON.gpm               500.00:  Flow In Min 
 FLOS.cptm                0.00:  Fluid Loss 
 FLOX.gpm               540.00:  Flow In Max 
 FTRO.       Formation Presure:  FTWD Run Obj 
 HPRE.                     Yes:  High Pressure 
 HTEM.                      No:  High Temp 
 HYDO.m                   1.80:  Hydro Offset 
 IFIN.deg                39.86:  Inc, Final 
 IMAX.deg                59.73:  Inc Max 
 IMIN.deg                39.25:  Inc Min 
 IMND.m                3816.77:  Inc Min Depth 
 IMXD.m                2596.33:  Inc Max Depth 
 JARR.                      No:  Jarring 
 LETM.      23.30.00 18-Jan-20:  Log End Time 
 LOST.hr                     0:  Lost Rig Time 
 LSTM.      01.45.00 11-Jan-20:  Log Start Time 
 MDCL.ppm             41500.00:  Mud Chlorides 
 MDES.     Inversion Oil/Synthetic:  Mud Desc 
 DFD .sg                  1.48:  Mud Density 
 MDMN.sg                  1.48:  Dens Mud Min 
 MDMX.sg                  1.48:  Dens Mud Max 
 MOIL.                      54:  Run Mud Oil % 
 MOWR.                   72:28:  Run Mud OWR 
 MSND.                       0:  Run Mud Sand % 
 MSOL.                      23:  Run Mud Solids% 
 DFV .spqt               86.00:  Mud Viscosity 
 MWOD.in                  6.75:  MWD Tool OD 
 MWSI.                      No:  Serv Intrp, MWD 
 OTIM.hr                223.40:  Time Operating 
 PCON.           Look Like New:  Pad Condition 
 PMAX.psia            32446.79:  Press Op, Max 
 PV  .cP                 49.00:  Mud PV 
 RUN .                     200:  Run Number 
 ROPA.m/hr               12.48:  ROP Avg 
 ROPN.m/hr                8.00:  ROP Min 
 ROPX.m/hr               27.00:  ROP Max 
 RPMA.rpm               121.00:  RPM Surface Avg 
 RPMN.rpm                60.00:  RPM Surface Min 
 RPMX.rpm               140.00:  RPM Surface Max 
 RRUN.                    L202:  Rig Run Number 
 RTIM.hr                  7.25:  Time Reaming 
 SAZI.deg               123.49:  Azm, Start 
 SDEP.m                2585.01:  Start Depth 
 SIDD.                      No:  Serv Intrp, DD 
 SINC.deg                59.93:  Inc, Start 
 SPPA.psig             3539.00:  SPP Avg 
 SPPN.psig             3050.00:  SPP Min 
 SPPX.psig             3950.00:  SPP Max 
 STIM.      19.00.00 10-Jan-20:  Start Time 
 SVCS.                 DD, MWD:  Services 
 SVER.                    9.20:  Sperry Version 
 TDAT.m                1293.00:  Tot Depth Attmp 
 TDDF.                      No:  Trip for DD 
 TDLG.m                1293.00:  Tot Depth Loggd 
 TFF .                      No:  Trip for Fail 
 TQAA.f-kp               16.00:  Torque Abs Avg 
 TQAN.f-kp               11.00:  Torque Abs Min 
 TQAX.f-kp               18.00:  Torque Abs Max 
 TRRT.°/30m               1.25:  Turn Rotating 
 MRT .                  EWR-M5:  Maximum Recorded Temperature 
 TTMX.degC               84.00:  Max Tool Temp 
 VS01.          AZ90514619R5C6:  Virtual Str1 SN 
 VS02.        AZ90552592N2L2C6:  Virtual Str2 SN 
 VS03.        AZ90571337Z1W1C6:  Virtual Str3 SN 
 VS04.         AZ90513690K23C6:  Virtual Str4 SN 
 VS05.           AZ90594857F11:  Virtual Str5 SN 
 VS06.                13102166:  Virtual Str6 SN 
 WBMN.klb                 7.00:  WOB Min 
 WITN.            Peter Wilson:  Customer Rep 
 WOBA.klb                 9.95:  WOB Avg 
 WOBX.klb                10.00:  WOB Max 
 YP  .lhf2               36.00:  Yield Point 
~Curve Information Block
#MNEM.UNIT                 API CODE     Curve Description
#---------               -----------    ---------------------------
 TIME.HHMMSS            00 000 000 000:  GT Time & Date
 GTDEPTH.m              00 000 000 000:  GT Depth
 GTPQH.psia             00 000 000 000:  GT HR Quartz Pressure
 GTTQ.degC              00 000 000 000:  GT Quartz Temperature
 GTTN.NONE              00 000 000 000:  GT Test Number
 GTET.sec               00 000 000 000:  GT Elapsed Test Time
 GTTVD.m                00 000 000 000:  GT True Vertical Depth
#Other Information
#
#WARRANTY: Halliburton will use its best efforts to furnish customers with 
#accurate information and interpretations that are part of, and incident to, the services 
#provided.  However, Halliburton cannot and does not warrant the accuracy 
#or correctness of such information and interpretations.  Under no circumstances should any 
#such information or interpretation be relied upon as the sole basis for any drilling, 
#completion, production, or financial decision or any procedure involving any risk to the 
#safety of any drilling venture, drilling rig or its crew or any other third party.  The 
#Customer has full responsibility for all drilling, completion and production operation.  
#Halliburton makes no representations or warranties, either expressed or 
#implied, including, but not limited to, the implied warranties of merchantability or fitness 
#for a particular purpose, with respect to the services rendered.  In no event will 
#Halliburton be liable for failure to obtain any particular results or for 
#any damages, including, but not limited to, indirect, special or consequential damages, 
#resulting from the use of any information or interpretation provided by Halliburton.
#
~A           TIME           GTDEPTH  GTPQH  GTTQ  GTTN  GTET   GTTVD  
# ...
   09:18:23.814.18-Jan-2020 3746.01 3686.42 81.52 3.00  92.02 2818.83
   09:18:24.014.18-Jan-2020 3746.01 3686.42 81.52 3.00  92.22 2818.83
   09:18:24.214.18-Jan-2020 3746.01 3686.30 81.52 3.00  92.42 2818.83
   09:18:24.414.18-Jan-2020 3746.01 3686.39 81.52 3.00  92.62 2818.83
   09:18:24.614.18-Jan-2020 3746.01 3686.56 81.52 3.00  92.82 2818.83
   09:18:24.815.18-Jan-2020 3746.01 3686.22 81.52 3.00  93.02 2818.83
   09:18:25.015.18-Jan-2020 3746.01 3686.22 81.52 3.00  93.22 2818.83
   09:18:25.215.18-Jan-2020 3746.01 3686.31 81.52 3.00  93.42 2818.83
   09:18:25.415.18-Jan-2020 3746.01 3686.04 81.52 3.00  93.62 2818.83
   09:18:25.615.18-Jan-2020 3746.01 3686.44 81.52 3.00  93.82 2818.83
   09:18:25.815.18-Jan-2020 3746.01 3686.26 81.52 3.00  94.02 2818.83
   09:18:26.015.18-Jan-2020 3746.01 3686.26 81.52 3.00  94.22 2818.83
   09:18:26.215.18-Jan-2020 3746.01 3686.14 81.52 3.00  94.42 2818.83
   09:18:26.415.18-Jan-2020 3746.01 3686.32 81.52 3.00  94.62 2818.83
   09:18:26.615.18-Jan-2020 3746.01 3686.17 81.51 3.00  94.82 2818.83
   09:18:26.815.18-Jan-2020 3746.01 3686.29 81.51 3.00  95.02 2818.83
   09:18:27.015.18-Jan-2020 3746.01 3686.29 81.51 3.00  95.22 2818.83
   09:18:27.215.18-Jan-2020 3746.01 3686.30 81.51 3.00  95.42 2818.83
   09:18:27.415.18-Jan-2020 3746.01 3686.29 81.51 3.00  95.62 2818.83
   09:18:27.615.18-Jan-2020 3746.01 3686.34 81.51 3.00  95.82 2818.83
   09:18:27.815.18-Jan-2020 3746.01 3686.73 81.51 3.00  96.02 2818.83
   09:18:28.015.18-Jan-2020 3746.01 3686.73 81.51 3.00  96.22 2818.83
   09:18:28.215.18-Jan-2020 3746.01 3686.12 81.51 3.00  96.42 2818.83
   09:18:28.415.18-Jan-2020 3746.01 3685.99 81.51 3.00  96.62 2818.83
   09:18:28.615.18-Jan-2020 3746.01 3686.35 81.51 3.00  96.82 2818.83
   09:18:28.815.18-Jan-2020 3746.01 3686.25 81.51 3.00  97.02 2818.83
   09:18:29.015.18-Jan-2020 3746.01 3686.25 81.51 3.00  97.22 2818.83
   09:18:29.215.18-Jan-2020 3746.01 3686.24 81.51 3.00  97.42 2818.83
   09:18:29.415.18-Jan-2020 3746.01 3686.29 81.51 3.00  97.62 2818.83
   09:18:29.615.18-Jan-2020 3746.01 3686.29 81.51 3.00  97.82 2818.83
   09:18:29.815.18-Jan-2020 3746.01 3686.26 81.51 3.00  98.02 2818.83
   09:18:30.015.18-Jan-2020 3746.01 3686.26 81.51 3.00  98.22 2818.83
   09:18:30.215.18-Jan-2020 3746.01 3686.45 81.51 3.00  98.42 2818.83
   09:18:30.415.18-Jan-2020 3746.01 3686.34 81.51 3.00  98.62 2818.83
   09:18:30.615.18-Jan-2020 3746.01 3686.17 81.51 3.00  98.82 2818.83
   09:18:30.816.18-Jan-2020 3746.01 3686.48 81.51 3.00  99.02 2818.83
   09:18:31.016.18-Jan-2020 3746.01 3686.48 81.51 3.00  99.22 2818.83
   09:18:31.216.18-Jan-2020 3746.01 3686.35 81.51 3.00  99.42 2818.83
   09:18:31.416.18-Jan-2020 3746.01 3686.32 81.51 3.00  99.62 2818.83
   09:18:31.616.18-Jan-2020 3746.01 3686.33 81.51 3.00  99.82 2818.83
   09:18:31.816.18-Jan-2020 3746.01 3686.22 81.51 3.00 100.02 2818.83
   09:18:32.016.18-Jan-2020 3746.01 3686.22 81.51 3.00 100.22 2818.83
   09:18:32.216.18-Jan-2020 3746.01 3686.32 81.50 3.00 100.42 2818.83
   09:18:32.416.18-Jan-2020 3746.01 3686.50 81.50 3.00 100.62 2818.83
   09:18:32.616.18-Jan-2020 3746.01 3686.23 81.50 3.00 100.82 2818.83
   09:18:32.816.18-Jan-2020 3746.01 3686.37 81.50 3.00 101.02 2818.83
   09:18:33.016.18-Jan-2020 3746.01 3686.37 81.50 3.00 101.22 2818.83
   09:18:33.216.18-Jan-2020 3746.01 3686.51 81.50 3.00 101.42 2818.83
   09:18:33.416.18-Jan-2020 3746.01 3686.24 81.50 3.00 101.62 2818.83
   09:18:33.616.18-Jan-2020 3746.01 3686.44 81.50 3.00 101.82 2818.83
   09:18:33.816.18-Jan-2020 3746.01 3686.22 81.50 3.00 102.02 2818.83
   09:18:34.016.18-Jan-2020 3746.01 3686.22 81.50 3.00 102.22 2818.83
   09:18:34.216.18-Jan-2020 3746.01 3686.35 81.50 3.00 102.42 2818.83
   09:18:34.416.18-Jan-2020 3746.01 3686.19 81.50 3.00 102.62 2818.83
   09:18:34.616.18-Jan-2020 3746.01 3686.33 81.50 3.00 102.82 2818.83
   09:18:34.816.18-Jan-2020 3746.01 3686.44 81.50 3.00 103.02 2818.83
   09:18:35.016.18-Jan-2020 3746.01 3686.44 81.50 3.00 103.22 2818.83
   09:18:35.216.18-Jan-2020 3746.01 3686.34 81.50 3.00 103.42 2818.83
   09:18:35.416.18-Jan-2020 3746.01 3686.19 81.50 3.00 103.62 2818.83
   09:18:35.616.18-Jan-2020 3746.01 3686.29 81.50 3.00 103.82 2818.83
   09:18:35.816.18-Jan-2020 3746.01 3686.32 81.50 3.00 104.02 2818.83
   09:18:36.016.18-Jan-2020 3746.01 3686.32 81.50 3.00 104.22 2818.83
   09:18:36.216.18-Jan-2020 3746.01 3686.40 81.50 3.00 104.42 2818.83
   09:18:36.416.18-Jan-2020 3746.01 3686.35 81.50 3.00 104.62 2818.83
   09:18:36.617.18-Jan-2020 3746.01 3686.35 81.50 3.00 104.82 2818.83
   09:18:36.817.18-Jan-2020 3746.01 3686.44 81.50 3.00 105.02 2818.83
   09:18:37.017.18-Jan-2020 3746.01 3686.44 81.50 3.00 105.22 2818.83
   09:18:37.217.18-Jan-2020 3746.01 3686.52 81.49 3.00 105.42 2818.83
   09:18:37.417.18-Jan-2020 3746.01 3686.40 81.49 3.00 105.62 2818.83
   09:18:37.617.18-Jan-2020 3746.01 3686.07 81.49 3.00 105.82 2818.83
   09:18:37.817.18-Jan-2020 3746.01 3686.47 81.49 3.00 106.02 2818.83
   09:18:38.017.18-Jan-2020 3746.01 3686.47 81.49 3.00 106.22 2818.83
   09:18:38.217.18-Jan-2020 3746.01 3686.36 81.49 3.00 106.42 2818.83
   09:18:38.417.18-Jan-2020 3746.01 3686.23 81.49 3.00 106.62 2818.83
   09:18:38.617.18-Jan-2020 3746.01 3686.35 81.49 3.00 106.82 2818.83
   09:18:38.817.18-Jan-2020 3746.01 3686.20 81.49 3.00 107.02 2818.83
   09:18:39.017.18-Jan-2020 3746.01 3686.20 81.49 3.00 107.22 2818.83
   09:18:39.217.18-Jan-2020 3746.01 3686.40 81.49 3.00 107.42 2818.83
   09:18:39.417.18-Jan-2020 3746.01 3686.61 81.49 3.00 107.62 2818.83
   09:18:39.617.18-Jan-2020 3746.01 3686.36 81.49 3.00 107.82 2818.83
   09:18:39.817.18-Jan-2020 3746.01 3686.23 81.49 3.00 108.02 2818.83
   09:18:40.017.18-Jan-2020 3746.01 3686.23 81.49 3.00 108.22 2818.83
   09:18:40.217.18-Jan-2020 3746.01 3686.36 81.49 3.00 108.42 2818.83
   09:18:40.417.18-Jan-2020 3746.01 3686.29 81.49 3.00 108.62 2818.83
   09:18:40.617.18-Jan-2020 3746.01 3686.27 81.49 3.00 108.82 2818.83
   09:18:40.817.18-Jan-2020 3746.01 3686.45 81.49 3.00 109.02 2818.83
   09:18:41.017.18-Jan-2020 3746.01 3686.45 81.49 3.00 109.22 2818.83
   09:18:41.217.18-Jan-2020 3746.01 3686.17 81.49 3.00 109.42 2818.83
   09:18:41.417.18-Jan-2020 3746.01 3686.36 81.49 3.00 109.62 2818.83
   09:18:41.617.18-Jan-2020 3746.01 3686.25 81.49 3.00 109.82 2818.83
   09:18:41.817.18-Jan-2020 3746.01 3686.46 81.49 3.00 110.02 2818.83
   09:18:42.017.18-Jan-2020 3746.01 3686.46 81.49 3.00 110.22 2818.83
   09:18:42.217.18-Jan-2020 3746.01 3686.32 81.49 3.00 110.42 2818.83
   09:18:42.418.18-Jan-2020 3746.01 3686.41 81.49 3.00 110.62 2818.83
   09:18:42.618.18-Jan-2020 3746.01 3686.74 81.48 3.00 110.82 2818.83
   09:18:42.818.18-Jan-2020 3746.01 3686.16 81.48 3.00 111.02 2818.83
   09:18:43.018.18-Jan-2020 3746.01 3686.16 81.48 3.00 111.22 2818.83
   09:18:43.218.18-Jan-2020 3746.01 3686.18 81.48 3.00 111.42 2818.83
   09:18:43.418.18-Jan-2020 3746.01 3686.25 81.48 3.00 111.62 2818.83
   09:18:43.618.18-Jan-2020 3746.01 3686.37 81.48 3.00 111.82 2818.83
   09:18:43.818.18-Jan-2020 3746.01 3686.52 81.48 3.00 112.02 2818.83
   09:18:44.018.18-Jan-2020 3746.01 3686.52 81.48 3.00 112.22 2818.83
   09:18:44.218.18-Jan-2020 3746.01 3686.26 81.48 3.00 112.42 2818.83
   09:18:44.418.18-Jan-2020 3746.01 3686.32 81.48 3.00 112.62 2818.83
   09:18:44.618.18-Jan-2020 3746.01 3686.28 81.48 3.00 112.82 2818.83
   09:18:44.818.18-Jan-2020 3746.01 3686.36 81.48 3.00 113.02 2818.83
   09:18:45.018.18-Jan-2020 3746.01 3686.36 81.48 3.00 113.22 2818.83
   09:18:45.218.18-Jan-2020 3746.01 3686.46 81.48 3.00 113.42 2818.83
   09:18:45.418.18-Jan-2020 3746.01 3686.22 81.48 3.00 113.62 2818.83
   09:18:45.618.18-Jan-2020 3746.01 3686.48 81.48 3.00 113.82 2818.83
   09:18:45.818.18-Jan-2020 3746.01 3686.58 81.48 3.00 114.02 2818.83
   09:18:46.018.18-Jan-2020 3746.01 3686.58 81.48 3.00 114.22 2818.83
   09:18:46.218.18-Jan-2020 3746.01 3686.41 81.48 3.00 114.42 2818.83
   09:18:46.418.18-Jan-2020 3746.01 3686.13 81.48 3.00 114.62 2818.83
   09:18:46.618.18-Jan-2020 3746.01 3686.34 81.48 3.00 114.82 2818.83
