~Version Information
 VERS.                  2.0:   CWLS log ASCII Standard -VERSION 2.0
 WRAP.                   NO:   One line per depth step
~Well Information Block
#MNEM.UNIT     VALUE/NAME     DESCRIPTION
#---------     -----------    ---------------------------
 STRT.S             17:36:42 18-Jan-20: START TIME 17:36:42 18-Jan-20
 STOP.S             17:44:57 18-Jan-20: STOP TIME  17:44:57 18-Jan-20
 STEP.S                   0.00: STEP TIME
 NULL.                 -999.25: NULL VALUE
 DFWT.                        :  DIST FWL TEXT
 DFST.                        :  DIST FSL TEXT
 DMF .             Drill Floor:  DRILL MEAS FROM
 STIM.      09.30.00 26-Dec-19:  START TIME
 DATE.      08.00.00 20-Jan-20:  END TIME
 SPUD.               23-Nov-19:  SPUD DATE
 NREF.                    Grid:  NORTH REFERENCE
 HPTY.       Minimum Curvature:  HOLE POS TYPE
 DMOD.             Drill Model:  DRILL MOD DESC
 SVYD.                  Survey:  SURVEY DESC
 ILTD.               Lithology:  INTERP LTH DESC
 FTOP.          Formation Tops:  FORM TOPS DESC
 SON .        AZ-XX-0906192647:  JOB NUMBER
 WTYP.                Deviated:  WELL TYPE
 COMP.     BP Exploration (Caspian Sea) Ltd:  COMPANY
 BASE.              Azerbaijan:  LOGGING EQUIPMENT BASE LOCATION
 REGN.                 Eurasia:  REGION
 FLD .                     ACG:  FIELD NAME
 SRVC.              KCA Deutag:  CONTRACTOR
 MWDS.                    Baku:  MWD SHOP
 WELL.     A10 (Slot 20) - SCP:  WELL NAME
 JOBN.        AZ-XX-0906192647:  JOB TICKET NUMB
 RIG .                 Chirag1:  RIG NAME
 DCON.     Halliburton Sperry Drilling:  DIRECTNL CONTR
 UNIT.                     N/A:  LOGGING EQUIPMENT ID
 PDAT.          Mean Sea Level:  PERMANENT DATUM
 MDS .        Operator Entered:  MAG DATA SOURCE
 CTRY.              Azerbaijan:  COUNTRY NAME
 UWI .            /AZE00000090:  UNIQUE WELL IDENTIFIER
 API .            /AZE00000090:  API NUMBER
 CNTY.                        :  COUNTY
 PROV.                        :  PROVINCE
 STAT.                        :  STATE
 LOC .                        :  LOCATION
 LMF .             Drill Floor:  LOG MEASURED FROM
 TVDS.m                  36.60:  TVDSS CORRECTN
 LATI.deg                40.08:  LATITUDE
 LONG.deg                51.24:  LONGITUDE
 WHNS.m                  -7.94:  WELL HEAD N/S
 WHEW.m                   1.56:  WELL HEAD E/W
 UTMX.m              520429.26:  UTM X
 UTMY.m             4438973.87:  UTM Y
 DFWL.m                   0.00:  DISTANCE FWL
 DFSL.m                   0.00:  DISTANCE FSL
 SDEP.m                1455.00:  START DEPTH
 TDD .m                3878.01:  TOTAL DEPTH (DRILLER)
 VSDR.deg               112.75:  VERT SEC DIRECT
 GVFD.g                   1.00:  GRAVITY FIELD
 MFLD.nT              50256.00:  MAGNETIC FIELD
 MDIP.deg                59.52:  MAGNETIC DIP
 MDEC.deg                 6.43:  MAGNETIC DECL
 GRDC.deg                 0.16:  GRID CORRECTION
 AZTC.deg                 6.27:  AZM TOTAL CORR
 EPD .m                   0.00:  ELEVATION
 EGL .m                   0.00:  GROUND ELEVATION
 WDMS.m                 121.00:  WD ELEV
 APD .m                  36.60:  DEPTH ABOVE PD
 AGAP.m                  36.60:  AIR GAP
 VSEW.m                   1.56:  VERT SEC E/W
 VSNS.m                  -7.94:  VERT SEC N/S
 DEP .m                1140.01:  DEPTH
 EKB .m                  36.60:  KB ELEVATION
 EDF .m                  36.60:  DF ELEVATION
 TDL .m                1293.00:  TOTAL DEPTH (LOGGER)
 VSC .                       0:  VS TO CLOSURE
 MAGU.                 1849164:  MAGUTM CHECKSUM
~Parameter Information Block
#MNEM.UNIT       Value        Description
#---------     -----------    ---------------------------
 AV  .mps                 2.40:  Ann Velocity 
 AVMX.mps                 2.55:  Max Ann Veloc 
 AZIF.deg               134.35:  Azm, Final 
 BHAT.        Rotary Steerable:  BHA Type 
 BREV.rev               847.00:  Rev Bit Total 
 BROT.°/30m              -2.51:  Build Rotating 
 BS  .in                  8.50:  Bit Size 
 BSZ .in                  8.50:  Bit Size 
 BTPL.psig              700.00:  Bit Press Loss 
 CABU.                     Yes:  Customer Abuse 
 CGEO.          Ilgar Gurbanov:  Customer Geo 
 COMM.                     Ä_:  Run Comments 1 
 TCS .hr                140.40:  Time Ciculation Ended 
 CV  .mps                 2.27:  Crit Velocity 
 CVMX.mps                 2.45:  Max Crit Veloc 
 DD1 .         Intigam Rahimov:  Direct Drillr 1 
 DD2 .         Rasim Ibrahimov:  Direct Drillr 2 
 DDSV.                 iCruise:  DD Service 
 DEFF.%                  99.00:  % Det Eff 
 DLRX.°/30m               3.28:  Dogleg Rot Max 
 DLSO.°/30m               0.00:  Dogleg Oriented 
 DLSX.°/30m               0.00:  Dogleg Str Max 
 DRET.      23.30.00 18-Jan-20:  Drill End Time 
 DRST.      01.45.00 11-Jan-20:  Drill Start Tim 
 DTIM.hr                 94.00:  Time Drilling 
 EDEP.m                3878.01:  End Depth 
 ENG1.       Dauren Baktybayev:  Engineer 1 
 ENG2.      Natik Hasanaghayev:  Engineer 2 
 ENG3.          Rustam Safarov:  Engineer 3 
 ETIM.      08.00.00 20-Jan-20:  End Time 
 FLOI.gpm               532.00:  Flow In 
 FLON.gpm               500.00:  Flow In Min 
 FLOS.cptm                0.00:  Fluid Loss 
 FLOX.gpm               540.00:  Flow In Max 
 FTRO.       Formation Presure:  FTWD Run Obj 
 HPRE.                     Yes:  High Pressure 
 HTEM.                      No:  High Temp 
 HYDO.m                   1.80:  Hydro Offset 
 IFIN.deg                39.86:  Inc, Final 
 IMAX.deg                59.73:  Inc Max 
 IMIN.deg                39.25:  Inc Min 
 IMND.m                3816.77:  Inc Min Depth 
 IMXD.m                2596.33:  Inc Max Depth 
 JARR.                      No:  Jarring 
 LETM.      23.30.00 18-Jan-20:  Log End Time 
 LOST.hr                     0:  Lost Rig Time 
 LSTM.      01.45.00 11-Jan-20:  Log Start Time 
 MDCL.ppm             41500.00:  Mud Chlorides 
 MDES.     Inversion Oil/Synthetic:  Mud Desc 
 DFD .sg                  1.48:  Mud Density 
 MDMN.sg                  1.48:  Dens Mud Min 
 MDMX.sg                  1.48:  Dens Mud Max 
 MOIL.                      54:  Run Mud Oil % 
 MOWR.                   72:28:  Run Mud OWR 
 MSND.                       0:  Run Mud Sand % 
 MSOL.                      23:  Run Mud Solids% 
 DFV .spqt               86.00:  Mud Viscosity 
 MWOD.in                  6.75:  MWD Tool OD 
 MWSI.                      No:  Serv Intrp, MWD 
 OTIM.hr                223.40:  Time Operating 
 PCON.           Look Like New:  Pad Condition 
 PMAX.psia            32446.79:  Press Op, Max 
 PV  .cP                 49.00:  Mud PV 
 RUN .                     200:  Run Number 
 ROPA.m/hr               12.48:  ROP Avg 
 ROPN.m/hr                8.00:  ROP Min 
 ROPX.m/hr               27.00:  ROP Max 
 RPMA.rpm               121.00:  RPM Surface Avg 
 RPMN.rpm                60.00:  RPM Surface Min 
 RPMX.rpm               140.00:  RPM Surface Max 
 RRUN.                    L202:  Rig Run Number 
 RTIM.hr                  7.25:  Time Reaming 
 SAZI.deg               123.49:  Azm, Start 
 SDEP.m                2585.01:  Start Depth 
 SIDD.                      No:  Serv Intrp, DD 
 SINC.deg                59.93:  Inc, Start 
 SPPA.psig             3539.00:  SPP Avg 
 SPPN.psig             3050.00:  SPP Min 
 SPPX.psig             3950.00:  SPP Max 
 STIM.      19.00.00 10-Jan-20:  Start Time 
 SVCS.                 DD, MWD:  Services 
 SVER.                    9.20:  Sperry Version 
 TDAT.m                1293.00:  Tot Depth Attmp 
 TDDF.                      No:  Trip for DD 
 TDLG.m                1293.00:  Tot Depth Loggd 
 TFF .                      No:  Trip for Fail 
 TQAA.f-kp               16.00:  Torque Abs Avg 
 TQAN.f-kp               11.00:  Torque Abs Min 
 TQAX.f-kp               18.00:  Torque Abs Max 
 TRRT.°/30m               1.25:  Turn Rotating 
 MRT .                  EWR-M5:  Maximum Recorded Temperature 
 TTMX.degC               84.00:  Max Tool Temp 
 VS01.          AZ90514619R5C6:  Virtual Str1 SN 
 VS02.        AZ90552592N2L2C6:  Virtual Str2 SN 
 VS03.        AZ90571337Z1W1C6:  Virtual Str3 SN 
 VS04.         AZ90513690K23C6:  Virtual Str4 SN 
 VS05.           AZ90594857F11:  Virtual Str5 SN 
 VS06.                13102166:  Virtual Str6 SN 
 WBMN.klb                 7.00:  WOB Min 
 WITN.            Peter Wilson:  Customer Rep 
 WOBA.klb                 9.95:  WOB Avg 
 WOBX.klb                10.00:  WOB Max 
 YP  .lhf2               36.00:  Yield Point 
~Curve Information Block
#MNEM.UNIT                 API CODE     Curve Description
#---------               -----------    ---------------------------
 TIME.HHMMSS            00 000 000 000:  GT Time & Date
 GTDEPTH.m              00 000 000 000:  GT Depth
 GTPQH.psia             00 000 000 000:  GT HR Quartz Pressure
 GTTQ.degC              00 000 000 000:  GT Quartz Temperature
 GTTN.NONE              00 000 000 000:  GT Test Number
 GTET.sec               00 000 000 000:  GT Elapsed Test Time
 GTTVD.m                00 000 000 000:  GT True Vertical Depth
#Other Information
#
#WARRANTY: Halliburton will use its best efforts to furnish customers with 
#accurate information and interpretations that are part of, and incident to, the services 
#provided.  However, Halliburton cannot and does not warrant the accuracy 
#or correctness of such information and interpretations.  Under no circumstances should any 
#such information or interpretation be relied upon as the sole basis for any drilling, 
#completion, production, or financial decision or any procedure involving any risk to the 
#safety of any drilling venture, drilling rig or its crew or any other third party.  The 
#Customer has full responsibility for all drilling, completion and production operation.  
#Halliburton makes no representations or warranties, either expressed or 
#implied, including, but not limited to, the implied warranties of merchantability or fitness 
#for a particular purpose, with respect to the services rendered.  In no event will 
#Halliburton be liable for failure to obtain any particular results or for 
#any damages, including, but not limited to, indirect, special or consequential damages, 
#resulting from the use of any information or interpretation provided by Halliburton.
#
~A           TIME           GTDEPTH  GTPQH  GTTQ  GTTN  GTET   GTTVD  
# ...
   17:43:13.922.18-Jan-2020 3785.01 3858.33 81.74 6.00 391.03 2848.88
   17:43:14.122.18-Jan-2020 3785.01 3858.33 81.74 6.00 391.23 2848.88
   17:43:14.322.18-Jan-2020 3785.01 3858.67 81.74 6.00 391.43 2848.88
   17:43:14.522.18-Jan-2020 3785.01 3858.26 81.74 6.00 391.63 2848.88
   17:43:14.722.18-Jan-2020 3785.01 3858.12 81.74 6.00 391.83 2848.88
   17:43:14.922.18-Jan-2020 3785.01 3858.71 81.74 6.00 392.03 2848.88
   17:43:15.122.18-Jan-2020 3785.01 3858.71 81.74 6.00 392.23 2848.88
   17:43:15.322.18-Jan-2020 3785.01 3858.29 81.74 6.00 392.43 2848.88
   17:43:15.522.18-Jan-2020 3785.01 3858.43 81.74 6.00 392.63 2848.88
   17:43:15.722.18-Jan-2020 3785.01 3858.37 81.74 6.00 392.83 2848.88
   17:43:15.922.18-Jan-2020 3785.01 3857.60 81.73 6.00 393.03 2848.88
   17:43:16.122.18-Jan-2020 3785.01 3857.60 81.73 6.00 393.23 2848.88
   17:43:16.322.18-Jan-2020 3785.01 3858.81 81.73 6.00 393.43 2848.88
   17:43:16.522.18-Jan-2020 3785.01 3858.56 81.73 6.00 393.63 2848.88
   17:43:16.722.18-Jan-2020 3785.01 3858.72 81.73 6.00 393.83 2848.88
   17:43:16.922.18-Jan-2020 3785.01 3858.46 81.73 6.00 394.03 2848.88
   17:43:17.122.18-Jan-2020 3785.01 3858.46 81.73 6.00 394.23 2848.88
   17:43:17.322.18-Jan-2020 3785.01 3858.32 81.73 6.00 394.43 2848.88
   17:43:17.522.18-Jan-2020 3785.01 3858.59 81.73 6.00 394.63 2848.88
   17:43:17.722.18-Jan-2020 3785.01 3858.33 81.73 6.00 394.83 2848.88
   17:43:17.922.18-Jan-2020 3785.01 3858.41 81.73 6.00 395.03 2848.88
   17:43:18.122.18-Jan-2020 3785.01 3858.41 81.73 6.00 395.23 2848.88
   17:43:18.322.18-Jan-2020 3785.01 3858.45 81.73 6.00 395.43 2848.88
   17:43:18.522.18-Jan-2020 3785.01 3858.50 81.73 6.00 395.63 2848.88
   17:43:18.722.18-Jan-2020 3785.01 3858.30 81.73 6.00 395.83 2848.88
   17:43:18.922.18-Jan-2020 3785.01 3858.36 81.73 6.00 396.03 2848.88
   17:43:19.122.18-Jan-2020 3785.01 3858.36 81.73 6.00 396.23 2848.88
   17:43:19.322.18-Jan-2020 3785.01 3858.43 81.73 6.00 396.43 2848.88
   17:43:19.522.18-Jan-2020 3785.01 3857.40 81.73 6.00 396.63 2848.88
   17:43:19.722.18-Jan-2020 3785.01 3858.96 81.73 6.00 396.83 2848.88
   17:43:19.922.18-Jan-2020 3785.01 3858.64 81.73 6.00 397.03 2848.88
   17:43:20.122.18-Jan-2020 3785.01 3858.64 81.73 6.00 397.23 2848.88
   17:43:20.322.18-Jan-2020 3785.01 3858.67 81.73 6.00 397.43 2848.88
   17:43:20.522.18-Jan-2020 3785.01 3858.26 81.73 6.00 397.63 2848.88
   17:43:20.722.18-Jan-2020 3785.01 3858.27 81.73 6.00 397.83 2848.88
   17:43:20.922.18-Jan-2020 3785.01 3858.43 81.73 6.00 398.03 2848.88
   17:43:21.122.18-Jan-2020 3785.01 3858.43 81.73 6.00 398.23 2848.88
   17:43:21.322.18-Jan-2020 3785.01 3858.28 81.73 6.00 398.43 2848.88
   17:43:21.522.18-Jan-2020 3785.01 3858.36 81.73 6.00 398.63 2848.88
   17:43:21.722.18-Jan-2020 3785.01 3858.26 81.73 6.00 398.83 2848.88
   17:43:21.922.18-Jan-2020 3785.01 3857.57 81.73 6.00 399.03 2848.88
   17:43:22.122.18-Jan-2020 3785.01 3857.57 81.73 6.00 399.23 2848.88
   17:43:22.322.18-Jan-2020 3785.01 3858.75 81.73 6.00 399.43 2848.88
   17:43:22.522.18-Jan-2020 3785.01 3857.71 81.73 6.00 399.63 2848.88
   17:43:22.723.18-Jan-2020 3785.01 3858.97 81.73 6.00 399.83 2848.88
   17:43:22.923.18-Jan-2020 3785.01 3858.43 81.73 6.00 400.03 2848.88
   17:43:23.123.18-Jan-2020 3785.01 3858.43 81.73 6.00 400.23 2848.88
   17:43:23.323.18-Jan-2020 3785.01 3857.70 81.73 6.00 400.43 2848.88
   17:43:23.523.18-Jan-2020 3785.01 3858.83 81.73 6.00 400.63 2848.88
   17:43:23.723.18-Jan-2020 3785.01 3858.70 81.73 6.00 400.83 2848.88
   17:43:23.923.18-Jan-2020 3785.01 3858.43 81.72 6.00 401.03 2848.88
   17:43:24.123.18-Jan-2020 3785.01 3858.43 81.72 6.00 401.23 2848.88
   17:43:24.323.18-Jan-2020 3785.01 3858.21 81.72 6.00 401.43 2848.88
   17:43:24.523.18-Jan-2020 3785.01 3858.25 81.72 6.00 401.63 2848.88
   17:43:24.723.18-Jan-2020 3785.01 3857.59 81.72 6.00 401.83 2848.88
   17:43:24.923.18-Jan-2020 3785.01 3859.04 81.72 6.00 402.03 2848.88
   17:43:25.123.18-Jan-2020 3785.01 3859.04 81.72 6.00 402.23 2848.88
   17:43:25.323.18-Jan-2020 3785.01 3858.46 81.72 6.00 402.43 2848.88
   17:43:25.523.18-Jan-2020 3785.01 3858.66 81.72 6.00 402.63 2848.88
   17:43:25.723.18-Jan-2020 3785.01 3858.46 81.72 6.00 402.83 2848.88
   17:43:25.923.18-Jan-2020 3785.01 3858.44 81.72 6.00 403.03 2848.88
   17:43:26.123.18-Jan-2020 3785.01 3858.44 81.72 6.00 403.23 2848.88
   17:43:26.323.18-Jan-2020 3785.01 3858.34 81.72 6.00 403.43 2848.88
   17:43:26.523.18-Jan-2020 3785.01 3858.28 81.72 6.00 403.63 2848.88
   17:43:26.723.18-Jan-2020 3785.01 3858.61 81.72 6.00 403.83 2848.88
   17:43:26.923.18-Jan-2020 3785.01 3858.37 81.72 6.00 404.03 2848.88
   17:43:27.123.18-Jan-2020 3785.01 3858.37 81.72 6.00 404.23 2848.88
   17:43:27.323.18-Jan-2020 3785.01 3858.37 81.72 6.00 404.43 2848.88
   17:43:27.523.18-Jan-2020 3785.01 3858.38 81.72 6.00 404.63 2848.88
   17:43:27.723.18-Jan-2020 3785.01 3858.41 81.72 6.00 404.83 2848.88
   17:43:27.923.18-Jan-2020 3785.01 3858.28 81.72 6.00 405.03 2848.88
   17:43:28.123.18-Jan-2020 3785.01 3858.28 81.72 6.00 405.23 2848.88
   17:43:28.323.18-Jan-2020 3785.01 3858.15 81.72 6.00 405.43 2848.88
   17:43:28.523.18-Jan-2020 3785.01 3858.89 81.72 6.00 405.63 2848.88
   17:43:28.723.18-Jan-2020 3785.01 3858.62 81.72 6.00 405.83 2848.88
   17:43:28.923.18-Jan-2020 3785.01 3858.57 81.72 6.00 406.03 2848.88
   17:43:29.123.18-Jan-2020 3785.01 3858.57 81.72 6.00 406.23 2848.88
   17:43:29.323.18-Jan-2020 3785.01 3858.26 81.72 6.00 406.43 2848.88
   17:43:29.523.18-Jan-2020 3785.01 3858.28 81.72 6.00 406.63 2848.88
   17:43:29.723.18-Jan-2020 3785.01 3858.56 81.72 6.00 406.83 2848.88
   17:43:29.923.18-Jan-2020 3785.01 3858.54 81.72 6.00 407.03 2848.88
   17:43:30.123.18-Jan-2020 3785.01 3858.54 81.72 6.00 407.23 2848.88
   17:43:30.323.18-Jan-2020 3785.01 3858.38 81.72 6.00 407.43 2848.88
   17:43:30.523.18-Jan-2020 3785.01 3857.72 81.72 6.00 407.63 2848.88
   17:43:30.723.18-Jan-2020 3785.01 3858.73 81.72 6.00 407.83 2848.88
   17:43:30.923.18-Jan-2020 3785.01 3858.53 81.72 6.00 408.03 2848.88
   17:43:31.123.18-Jan-2020 3785.01 3858.53 81.72 6.00 408.23 2848.88
   17:43:31.323.18-Jan-2020 3785.01 3858.38 81.72 6.00 408.43 2848.88
   17:43:31.523.18-Jan-2020 3785.01 3858.82 81.72 6.00 408.63 2848.88
   17:43:31.723.18-Jan-2020 3785.01 3858.76 81.72 6.00 408.83 2848.88
   17:43:31.923.18-Jan-2020 3785.01 3857.94 81.71 6.00 409.03 2848.88
   17:43:32.123.18-Jan-2020 3785.01 3857.94 81.71 6.00 409.23 2848.88
   17:43:32.323.18-Jan-2020 3785.01 3858.52 81.71 6.00 409.43 2848.88
   17:43:32.523.18-Jan-2020 3785.01 3858.72 81.71 6.00 409.63 2848.88
   17:43:32.723.18-Jan-2020 3785.01 3858.47 81.71 6.00 409.83 2848.88
   17:43:32.923.18-Jan-2020 3785.01 3858.47 81.71 6.00 410.03 2848.88
   17:43:33.123.18-Jan-2020 3785.01 3858.47 81.71 6.00 410.23 2848.88
   17:43:33.323.18-Jan-2020 3785.01 3857.63 81.71 6.00 410.43 2848.88
   17:43:33.523.18-Jan-2020 3785.01 3858.75 81.71 6.00 410.63 2848.88
   17:43:33.723.18-Jan-2020 3785.01 3858.92 81.71 6.00 410.83 2848.88
   17:43:33.923.18-Jan-2020 3785.01 3858.58 81.71 6.00 411.03 2848.88
   17:43:34.123.18-Jan-2020 3785.01 3858.58 81.71 6.00 411.23 2848.88
   17:43:34.323.18-Jan-2020 3785.01 3858.56 81.71 6.00 411.43 2848.88
   17:43:34.523.18-Jan-2020 3785.01 3858.43 81.71 6.00 411.63 2848.88
   17:43:34.723.18-Jan-2020 3785.01 3858.49 81.71 6.00 411.83 2848.88
   17:43:34.923.18-Jan-2020 3785.01 3858.66 81.71 6.00 412.03 2848.88
   17:43:35.123.18-Jan-2020 3785.01 3858.66 81.71 6.00 412.23 2848.88
   17:43:35.323.18-Jan-2020 3785.01 3858.44 81.71 6.00 412.43 2848.88
   17:43:35.523.18-Jan-2020 3785.01 3858.65 81.71 6.00 412.63 2848.88
   17:43:35.723.18-Jan-2020 3785.01 3858.49 81.71 6.00 412.83 2848.88
   17:43:35.923.18-Jan-2020 3785.01 3858.38 81.71 6.00 413.03 2848.88
   17:43:36.123.18-Jan-2020 3785.01 3858.38 81.71 6.00 413.23 2848.88
   17:43:36.324.18-Jan-2020 3785.01 3858.50 81.71 6.00 413.43 2848.88
   17:43:36.524.18-Jan-2020 3785.01 3858.46 81.71 6.00 413.63 2848.88
   17:43:36.724.18-Jan-2020 3785.01 3858.51 81.71 6.00 413.83 2848.88
