~Version Information
 VERS.                  2.0:   CWLS log ASCII Standard -VERSION 2.0
 WRAP.                   NO:   One line per depth step
~Well Information Block
#MNEM.UNIT     VALUE/NAME     DESCRIPTION
#---------     -----------    ---------------------------
 STRT.S             13:31:21 18-Jan-20: START TIME 13:31:21 18-Jan-20
 STOP.S             13:39:29 18-Jan-20: STOP TIME  13:39:29 18-Jan-20
 STEP.S                   0.00: STEP TIME
 NULL.                 -999.25: NULL VALUE
 DFWT.                        :  DIST FWL TEXT
 DFST.                        :  DIST FSL TEXT
 DMF .             Drill Floor:  DRILL MEAS FROM
 STIM.      09.30.00 26-Dec-19:  START TIME
 DATE.      08.00.00 20-Jan-20:  END TIME
 SPUD.               23-Nov-19:  SPUD DATE
 NREF.                    Grid:  NORTH REFERENCE
 HPTY.       Minimum Curvature:  HOLE POS TYPE
 DMOD.             Drill Model:  DRILL MOD DESC
 SVYD.                  Survey:  SURVEY DESC
 ILTD.               Lithology:  INTERP LTH DESC
 FTOP.          Formation Tops:  FORM TOPS DESC
 SON .        AZ-XX-0906192647:  JOB NUMBER
 WTYP.                Deviated:  WELL TYPE
 COMP.     BP Exploration (Caspian Sea) Ltd:  COMPANY
 BASE.              Azerbaijan:  LOGGING EQUIPMENT BASE LOCATION
 REGN.                 Eurasia:  REGION
 FLD .                     ACG:  FIELD NAME
 SRVC.              KCA Deutag:  CONTRACTOR
 MWDS.                    Baku:  MWD SHOP
 WELL.     A10 (Slot 20) - SCP:  WELL NAME
 JOBN.        AZ-XX-0906192647:  JOB TICKET NUMB
 RIG .                 Chirag1:  RIG NAME
 DCON.     Halliburton Sperry Drilling:  DIRECTNL CONTR
 UNIT.                     N/A:  LOGGING EQUIPMENT ID
 PDAT.          Mean Sea Level:  PERMANENT DATUM
 MDS .        Operator Entered:  MAG DATA SOURCE
 CTRY.              Azerbaijan:  COUNTRY NAME
 UWI .            /AZE00000090:  UNIQUE WELL IDENTIFIER
 API .            /AZE00000090:  API NUMBER
 CNTY.                        :  COUNTY
 PROV.                        :  PROVINCE
 STAT.                        :  STATE
 LOC .                        :  LOCATION
 LMF .             Drill Floor:  LOG MEASURED FROM
 TVDS.m                  36.60:  TVDSS CORRECTN
 LATI.deg                40.08:  LATITUDE
 LONG.deg                51.24:  LONGITUDE
 WHNS.m                  -7.94:  WELL HEAD N/S
 WHEW.m                   1.56:  WELL HEAD E/W
 UTMX.m              520429.26:  UTM X
 UTMY.m             4438973.87:  UTM Y
 DFWL.m                   0.00:  DISTANCE FWL
 DFSL.m                   0.00:  DISTANCE FSL
 SDEP.m                1455.00:  START DEPTH
 TDD .m                3878.01:  TOTAL DEPTH (DRILLER)
 VSDR.deg               112.75:  VERT SEC DIRECT
 GVFD.g                   1.00:  GRAVITY FIELD
 MFLD.nT              50256.00:  MAGNETIC FIELD
 MDIP.deg                59.52:  MAGNETIC DIP
 MDEC.deg                 6.43:  MAGNETIC DECL
 GRDC.deg                 0.16:  GRID CORRECTION
 AZTC.deg                 6.27:  AZM TOTAL CORR
 EPD .m                   0.00:  ELEVATION
 EGL .m                   0.00:  GROUND ELEVATION
 WDMS.m                 121.00:  WD ELEV
 APD .m                  36.60:  DEPTH ABOVE PD
 AGAP.m                  36.60:  AIR GAP
 VSEW.m                   1.56:  VERT SEC E/W
 VSNS.m                  -7.94:  VERT SEC N/S
 DEP .m                1140.01:  DEPTH
 EKB .m                  36.60:  KB ELEVATION
 EDF .m                  36.60:  DF ELEVATION
 TDL .m                1293.00:  TOTAL DEPTH (LOGGER)
 VSC .                       0:  VS TO CLOSURE
 MAGU.                 1849164:  MAGUTM CHECKSUM
~Parameter Information Block
#MNEM.UNIT       Value        Description
#---------     -----------    ---------------------------
 AV  .mps                 2.40:  Ann Velocity 
 AVMX.mps                 2.55:  Max Ann Veloc 
 AZIF.deg               134.35:  Azm, Final 
 BHAT.        Rotary Steerable:  BHA Type 
 BREV.rev               847.00:  Rev Bit Total 
 BROT.°/30m              -2.51:  Build Rotating 
 BS  .in                  8.50:  Bit Size 
 BSZ .in                  8.50:  Bit Size 
 BTPL.psig              700.00:  Bit Press Loss 
 CABU.                     Yes:  Customer Abuse 
 CGEO.          Ilgar Gurbanov:  Customer Geo 
 COMM.                     ¸P:  Run Comments 1 
 TCS .hr                140.40:  Time Ciculation Ended 
 CV  .mps                 2.27:  Crit Velocity 
 CVMX.mps                 2.45:  Max Crit Veloc 
 DD1 .         Intigam Rahimov:  Direct Drillr 1 
 DD2 .         Rasim Ibrahimov:  Direct Drillr 2 
 DDSV.                 iCruise:  DD Service 
 DEFF.%                  99.00:  % Det Eff 
 DLRX.°/30m               3.28:  Dogleg Rot Max 
 DLSO.°/30m               0.00:  Dogleg Oriented 
 DLSX.°/30m               0.00:  Dogleg Str Max 
 DRET.      23.30.00 18-Jan-20:  Drill End Time 
 DRST.      01.45.00 11-Jan-20:  Drill Start Tim 
 DTIM.hr                 94.00:  Time Drilling 
 EDEP.m                3878.01:  End Depth 
 ENG1.       Dauren Baktybayev:  Engineer 1 
 ENG2.      Natik Hasanaghayev:  Engineer 2 
 ENG3.          Rustam Safarov:  Engineer 3 
 ETIM.      08.00.00 20-Jan-20:  End Time 
 FLOI.gpm               532.00:  Flow In 
 FLON.gpm               500.00:  Flow In Min 
 FLOS.cptm                0.00:  Fluid Loss 
 FLOX.gpm               540.00:  Flow In Max 
 FTRO.       Formation Presure:  FTWD Run Obj 
 HPRE.                     Yes:  High Pressure 
 HTEM.                      No:  High Temp 
 HYDO.m                   1.80:  Hydro Offset 
 IFIN.deg                39.86:  Inc, Final 
 IMAX.deg                59.73:  Inc Max 
 IMIN.deg                39.25:  Inc Min 
 IMND.m                3816.77:  Inc Min Depth 
 IMXD.m                2596.33:  Inc Max Depth 
 JARR.                      No:  Jarring 
 LETM.      23.30.00 18-Jan-20:  Log End Time 
 LOST.hr                     0:  Lost Rig Time 
 LSTM.      01.45.00 11-Jan-20:  Log Start Time 
 MDCL.ppm             41500.00:  Mud Chlorides 
 MDES.     Inversion Oil/Synthetic:  Mud Desc 
 DFD .sg                  1.48:  Mud Density 
 MDMN.sg                  1.48:  Dens Mud Min 
 MDMX.sg                  1.48:  Dens Mud Max 
 MOIL.                      54:  Run Mud Oil % 
 MOWR.                   72:28:  Run Mud OWR 
 MSND.                       0:  Run Mud Sand % 
 MSOL.                      23:  Run Mud Solids% 
 DFV .spqt               86.00:  Mud Viscosity 
 MWOD.in                  6.75:  MWD Tool OD 
 MWSI.                      No:  Serv Intrp, MWD 
 OTIM.hr                223.40:  Time Operating 
 PCON.           Look Like New:  Pad Condition 
 PMAX.psia            32446.79:  Press Op, Max 
 PV  .cP                 49.00:  Mud PV 
 RUN .                     200:  Run Number 
 ROPA.m/hr               12.48:  ROP Avg 
 ROPN.m/hr                8.00:  ROP Min 
 ROPX.m/hr               27.00:  ROP Max 
 RPMA.rpm               121.00:  RPM Surface Avg 
 RPMN.rpm                60.00:  RPM Surface Min 
 RPMX.rpm               140.00:  RPM Surface Max 
 RRUN.                    L202:  Rig Run Number 
 RTIM.hr                  7.25:  Time Reaming 
 SAZI.deg               123.49:  Azm, Start 
 SDEP.m                2585.01:  Start Depth 
 SIDD.                      No:  Serv Intrp, DD 
 SINC.deg                59.93:  Inc, Start 
 SPPA.psig             3539.00:  SPP Avg 
 SPPN.psig             3050.00:  SPP Min 
 SPPX.psig             3950.00:  SPP Max 
 STIM.      19.00.00 10-Jan-20:  Start Time 
 SVCS.                 DD, MWD:  Services 
 SVER.                    9.20:  Sperry Version 
 TDAT.m                1293.00:  Tot Depth Attmp 
 TDDF.                      No:  Trip for DD 
 TDLG.m                1293.00:  Tot Depth Loggd 
 TFF .                      No:  Trip for Fail 
 TQAA.f-kp               16.00:  Torque Abs Avg 
 TQAN.f-kp               11.00:  Torque Abs Min 
 TQAX.f-kp               18.00:  Torque Abs Max 
 TRRT.°/30m               1.25:  Turn Rotating 
 MRT .                  EWR-M5:  Maximum Recorded Temperature 
 TTMX.degC               84.00:  Max Tool Temp 
 VS01.          AZ90514619R5C6:  Virtual Str1 SN 
 VS02.        AZ90552592N2L2C6:  Virtual Str2 SN 
 VS03.        AZ90571337Z1W1C6:  Virtual Str3 SN 
 VS04.         AZ90513690K23C6:  Virtual Str4 SN 
 VS05.           AZ90594857F11:  Virtual Str5 SN 
 VS06.                13102166:  Virtual Str6 SN 
 WBMN.klb                 7.00:  WOB Min 
 WITN.            Peter Wilson:  Customer Rep 
 WOBA.klb                 9.95:  WOB Avg 
 WOBX.klb                10.00:  WOB Max 
 YP  .lhf2               36.00:  Yield Point 
~Curve Information Block
#MNEM.UNIT                 API CODE     Curve Description
#---------               -----------    ---------------------------
 TIME.HHMMSS            00 000 000 000:  GT Time & Date
 GTDEPTH.m              00 000 000 000:  GT Depth
 GTPQH.psia             00 000 000 000:  GT HR Quartz Pressure
 GTTQ.degC              00 000 000 000:  GT Quartz Temperature
 GTTN.NONE              00 000 000 000:  GT Test Number
 GTET.sec               00 000 000 000:  GT Elapsed Test Time
 GTTVD.m                00 000 000 000:  GT True Vertical Depth
#Other Information
#
#WARRANTY: Halliburton will use its best efforts to furnish customers with 
#accurate information and interpretations that are part of, and incident to, the services 
#provided.  However, Halliburton cannot and does not warrant the accuracy 
#or correctness of such information and interpretations.  Under no circumstances should any 
#such information or interpretation be relied upon as the sole basis for any drilling, 
#completion, production, or financial decision or any procedure involving any risk to the 
#safety of any drilling venture, drilling rig or its crew or any other third party.  The 
#Customer has full responsibility for all drilling, completion and production operation.  
#Halliburton makes no representations or warranties, either expressed or 
#implied, including, but not limited to, the implied warranties of merchantability or fitness 
#for a particular purpose, with respect to the services rendered.  In no event will 
#Halliburton be liable for failure to obtain any particular results or for 
#any damages, including, but not limited to, indirect, special or consequential damages, 
#resulting from the use of any information or interpretation provided by Halliburton.
#
~A           TIME           GTDEPTH  GTPQH  GTTQ  GTTN  GTET   GTTVD  
# ...
   13:39:01.283.18-Jan-2020 3754.51 6420.10 80.70 4.00 460.15 2825.33
   13:39:01.484.18-Jan-2020 3754.51 6420.10 80.70 4.00 460.35 2825.33
   13:39:01.684.18-Jan-2020 3754.51 6420.82 80.70 4.00 460.55 2825.33
   13:39:01.884.18-Jan-2020 3754.51 6420.32 80.71 4.00 460.75 2825.33
   13:39:02.084.18-Jan-2020 3754.51 6420.58 80.71 4.00 460.95 2825.33
   13:39:02.284.18-Jan-2020 3754.51 6419.98 80.71 4.00 461.15 2825.33
   13:39:02.484.18-Jan-2020 3754.51 6419.98 80.71 4.00 461.35 2825.33
   13:39:02.684.18-Jan-2020 3754.51 6418.71 80.71 4.00 461.55 2825.33
   13:39:02.884.18-Jan-2020 3754.51 6429.12 80.71 4.00 461.75 2825.33
   13:39:03.084.18-Jan-2020 3754.51 6421.41 80.71 4.00 461.95 2825.33
   13:39:03.284.18-Jan-2020 3754.51 6418.06 80.72 4.00 462.15 2825.33
   13:39:03.484.18-Jan-2020 3754.51 6418.06 80.72 4.00 462.35 2825.33
   13:39:03.684.18-Jan-2020 3754.51 6421.30 80.72 4.00 462.55 2825.33
   13:39:03.884.18-Jan-2020 3754.51 6421.27 80.72 4.00 462.75 2825.33
   13:39:04.084.18-Jan-2020 3754.51 6424.50 80.72 4.00 462.95 2825.33
   13:39:04.284.18-Jan-2020 3754.51 6423.97 80.72 4.00 463.15 2825.33
   13:39:04.484.18-Jan-2020 3754.51 6423.97 80.72 4.00 463.35 2825.33
   13:39:04.685.18-Jan-2020 3754.51 6426.95 80.72 4.00 463.55 2825.33
   13:39:04.885.18-Jan-2020 3754.51 6422.12 80.72 4.00 463.75 2825.33
   13:39:05.085.18-Jan-2020 3754.51 6421.21 80.72 4.00 463.95 2825.33
   13:39:05.285.18-Jan-2020 3754.51 6419.40 80.72 4.00 464.15 2825.33
   13:39:05.485.18-Jan-2020 3754.51 6419.40 80.72 4.00 464.35 2825.33
   13:39:05.685.18-Jan-2020 3754.51 6430.53 80.72 4.00 464.55 2825.33
   13:39:05.885.18-Jan-2020 3754.51 6419.90 80.73 4.00 464.75 2825.33
   13:39:06.085.18-Jan-2020 3754.51 6419.94 80.73 4.00 464.95 2825.33
   13:39:06.285.18-Jan-2020 3754.51 6420.85 80.73 4.00 465.15 2825.33
   13:39:06.485.18-Jan-2020 3754.51 6420.85 80.73 4.00 465.35 2825.33
   13:39:06.685.18-Jan-2020 3754.51 6418.32 80.73 4.00 465.55 2825.33
   13:39:06.885.18-Jan-2020 3754.51 6421.05 80.73 4.00 465.75 2825.33
   13:39:07.085.18-Jan-2020 3754.51 6421.21 80.73 4.00 465.95 2825.33
   13:39:07.285.18-Jan-2020 3754.51 6421.94 80.73 4.00 466.15 2825.33
   13:39:07.485.18-Jan-2020 3754.51 6421.94 80.73 4.00 466.35 2825.33
   13:39:07.686.18-Jan-2020 3754.51 6422.75 80.73 4.00 466.55 2825.33
   13:39:07.886.18-Jan-2020 3754.51 6422.00 80.73 4.00 466.75 2825.33
   13:39:08.086.18-Jan-2020 3754.51 6420.95 80.73 4.00 466.95 2825.33
   13:39:08.286.18-Jan-2020 3754.51 6419.85 80.73 4.00 467.15 2825.33
   13:39:08.486.18-Jan-2020 3754.51 6419.85 80.73 4.00 467.35 2825.33
   13:39:08.686.18-Jan-2020 3754.51 6422.02 80.73 4.00 467.55 2825.33
   13:39:08.886.18-Jan-2020 3754.51 6419.71 80.73 4.00 467.75 2825.33
   13:39:09.086.18-Jan-2020 3754.51 6426.81 80.73 4.00 467.95 2825.33
   13:39:09.286.18-Jan-2020 3754.51 6421.94 80.73 4.00 468.15 2825.33
   13:39:09.486.18-Jan-2020 3754.51 6423.48 80.73 4.00 468.35 2825.33
   13:39:09.686.18-Jan-2020 3754.51 6423.48 80.73 4.00 468.55 2825.33
   13:39:09.886.18-Jan-2020 3754.51 6420.01 80.72 4.00 468.75 2825.33
   13:39:10.086.18-Jan-2020 3754.51 6421.42 80.72 4.00 468.95 2825.33
   13:39:10.286.18-Jan-2020 3754.51 6421.63 80.72 4.00 469.15 2825.33
   13:39:10.486.18-Jan-2020 3754.51 6421.63 80.72 4.00 469.35 2825.33
   13:39:10.686.18-Jan-2020 3754.51 6420.94 80.72 4.00 469.55 2825.33
   13:39:10.887.18-Jan-2020 3754.51 6421.19 80.72 4.00 469.75 2825.33
   13:39:11.087.18-Jan-2020 3754.51 6418.63 80.72 4.00 469.95 2825.33
   13:39:11.287.18-Jan-2020 3754.51 6420.96 80.72 4.00 470.15 2825.33
   13:39:11.487.18-Jan-2020 3754.51 6420.96 80.72 4.00 470.35 2825.33
   13:39:11.687.18-Jan-2020 3754.51 6427.66 80.72 4.00 470.55 2825.33
   13:39:11.887.18-Jan-2020 3754.51 6421.80 80.72 4.00 470.75 2825.33
   13:39:12.087.18-Jan-2020 3754.51 6423.23 80.72 4.00 470.95 2825.33
   13:39:12.287.18-Jan-2020 3754.51 6432.76 80.72 4.00 471.15 2825.33
   13:39:12.487.18-Jan-2020 3754.51 6432.76 80.72 4.00 471.35 2825.33
   13:39:12.687.18-Jan-2020 3754.51 6418.08 80.72 4.00 471.55 2825.33
   13:39:12.887.18-Jan-2020 3754.51 6420.27 80.72 4.00 471.75 2825.33
   13:39:13.087.18-Jan-2020 3754.51 6430.80 80.72 4.00 471.95 2825.33
   13:39:13.287.18-Jan-2020 3754.51 6417.52 80.72 4.00 472.15 2825.33
   13:39:13.487.18-Jan-2020 3754.51 6417.52 80.72 4.00 472.35 2825.33
   13:39:13.687.18-Jan-2020 3754.51 6419.77 80.72 4.00 472.55 2825.33
   13:39:13.888.18-Jan-2020 3754.51 6418.92 80.71 4.00 472.75 2825.33
   13:39:14.088.18-Jan-2020 3754.51 6416.29 80.71 4.00 472.95 2825.33
   13:39:14.288.18-Jan-2020 3754.51 6427.40 80.71 4.00 473.15 2825.33
   13:39:14.488.18-Jan-2020 3754.51 6427.40 80.71 4.00 473.35 2825.33
   13:39:14.688.18-Jan-2020 3754.51 6420.20 80.71 4.00 473.55 2825.33
   13:39:14.888.18-Jan-2020 3754.51 6421.34 80.71 4.00 473.75 2825.33
   13:39:15.088.18-Jan-2020 3754.51 6420.96 80.71 4.00 473.95 2825.33
   13:39:15.288.18-Jan-2020 3754.51 6422.76 80.71 4.00 474.15 2825.33
   13:39:15.488.18-Jan-2020 3754.51 6422.76 80.71 4.00 474.35 2825.33
   13:39:15.688.18-Jan-2020 3754.51 6420.29 80.71 4.00 474.55 2825.33
   13:39:15.888.18-Jan-2020 3754.51 6421.05 80.71 4.00 474.75 2825.33
   13:39:16.088.18-Jan-2020 3754.51 6420.45 80.71 4.00 474.95 2825.33
   13:39:16.288.18-Jan-2020 3754.51 6420.24 80.71 4.00 475.15 2825.33
   13:39:16.488.18-Jan-2020 3754.51 6420.24 80.71 4.00 475.35 2825.33
   13:39:16.688.18-Jan-2020 3754.51 6419.44 80.71 4.00 475.55 2825.33
   13:39:16.889.18-Jan-2020 3754.51 6418.37 80.71 4.00 475.75 2825.33
   13:39:17.089.18-Jan-2020 3754.51 6418.82 80.70 4.00 475.95 2825.33
   13:39:17.289.18-Jan-2020 3754.51 6420.15 80.70 4.00 476.15 2825.33
   13:39:17.489.18-Jan-2020 3754.51 6420.15 80.70 4.00 476.35 2825.33
   13:39:17.689.18-Jan-2020 3754.51 6418.89 80.70 4.00 476.55 2825.33
   13:39:17.889.18-Jan-2020 3754.51 6427.33 80.70 4.00 476.75 2825.33
   13:39:18.089.18-Jan-2020 3754.51 6421.06 80.70 4.00 476.95 2825.33
   13:39:18.289.18-Jan-2020 3754.51 6420.51 80.70 4.00 477.15 2825.33
   13:39:18.489.18-Jan-2020 3754.51 6420.51 80.70 4.00 477.35 2825.33
   13:39:18.689.18-Jan-2020 3754.51 6420.43 80.70 4.00 477.55 2825.33
   13:39:18.889.18-Jan-2020 3754.51 6420.25 80.70 4.00 477.75 2825.33
   13:39:19.089.18-Jan-2020 3754.51 6419.65 80.70 4.00 477.95 2825.33
   13:39:19.289.18-Jan-2020 3754.51 6419.68 80.70 4.00 478.15 2825.33
   13:39:19.489.18-Jan-2020 3754.51 6419.68 80.70 4.00 478.35 2825.33
   13:39:19.689.18-Jan-2020 3754.51 6419.84 80.70 4.00 478.55 2825.33
   13:39:19.889.18-Jan-2020 3754.51 6418.15 80.70 4.00 478.75 2825.33
   13:39:20.090.18-Jan-2020 3754.51 6418.25 80.69 4.00 478.95 2825.33
   13:39:20.290.18-Jan-2020 3754.51 6429.34 80.69 4.00 479.15 2825.33
   13:39:20.490.18-Jan-2020 3754.51 6429.34 80.69 4.00 479.35 2825.33
   13:39:20.690.18-Jan-2020 3754.51 6418.99 80.69 4.00 479.56 2825.33
   13:39:20.890.18-Jan-2020 3754.51 6430.85 80.69 4.00 479.76 2825.33
   13:39:21.090.18-Jan-2020 3754.51 6421.06 80.69 4.00 479.96 2825.33
   13:39:21.290.18-Jan-2020 3754.51 6417.82 80.69 4.00 480.16 2825.33
   13:39:21.490.18-Jan-2020 3754.51 6417.82 80.69 4.00 480.36 2825.33
   13:39:21.690.18-Jan-2020 3754.51 6425.20 80.69 4.00 480.56 2825.33
   13:39:21.890.18-Jan-2020 3754.51 6423.27 80.69 4.00 480.76 2825.33
   13:39:22.090.18-Jan-2020 3754.51 6419.29 80.69 4.00 480.96 2825.33
   13:39:22.290.18-Jan-2020 3754.51 6420.16 80.69 4.00 481.16 2825.33
   13:39:22.490.18-Jan-2020 3754.51 6420.16 80.69 4.00 481.36 2825.33
   13:39:22.690.18-Jan-2020 3754.51 6417.25 80.69 4.00 481.56 2825.33
   13:39:22.890.18-Jan-2020 3754.51 6417.12 80.68 4.00 481.76 2825.33
   13:39:23.091.18-Jan-2020 3754.51 6427.55 80.68 4.00 481.96 2825.33
   13:39:23.291.18-Jan-2020 3754.51 6421.27 80.68 4.00 482.16 2825.33
   13:39:23.491.18-Jan-2020 3754.51 6421.27 80.68 4.00 482.36 2825.33
   13:39:23.691.18-Jan-2020 3754.51 6421.17 80.68 4.00 482.56 2825.33
   13:39:23.891.18-Jan-2020 3754.51 6420.57 80.68 4.00 482.76 2825.33
   13:39:24.091.18-Jan-2020 3754.51 6419.76 80.68 4.00 482.96 2825.33
