~Version Information
 VERS.                  2.0:   CWLS log ASCII Standard -VERSION 2.0
 WRAP.                   NO:   One line per depth step
~Well Information Block
#MNEM.UNIT     VALUE/NAME     DESCRIPTION
#---------     -----------    ---------------------------
 STRT.S             13:31:21 18-Jan-20: START TIME 13:31:21 18-Jan-20
 STOP.S             13:39:29 18-Jan-20: STOP TIME  13:39:29 18-Jan-20
 STEP.S                   0.00: STEP TIME
 NULL.                 -999.25: NULL VALUE
 DFWT.                        :  DIST FWL TEXT
 DFST.                        :  DIST FSL TEXT
 DMF .             Drill Floor:  DRILL MEAS FROM
 STIM.      09.30.00 26-Dec-19:  START TIME
 DATE.      08.00.00 20-Jan-20:  END TIME
 SPUD.               23-Nov-19:  SPUD DATE
 NREF.                    Grid:  NORTH REFERENCE
 HPTY.       Minimum Curvature:  HOLE POS TYPE
 DMOD.             Drill Model:  DRILL MOD DESC
 SVYD.                  Survey:  SURVEY DESC
 ILTD.               Lithology:  INTERP LTH DESC
 FTOP.          Formation Tops:  FORM TOPS DESC
 SON .        AZ-XX-0906192647:  JOB NUMBER
 WTYP.                Deviated:  WELL TYPE
 COMP.     BP Exploration (Caspian Sea) Ltd:  COMPANY
 BASE.              Azerbaijan:  LOGGING EQUIPMENT BASE LOCATION
 REGN.                 Eurasia:  REGION
 FLD .                     ACG:  FIELD NAME
 SRVC.              KCA Deutag:  CONTRACTOR
 MWDS.                    Baku:  MWD SHOP
 WELL.     A10 (Slot 20) - SCP:  WELL NAME
 JOBN.        AZ-XX-0906192647:  JOB TICKET NUMB
 RIG .                 Chirag1:  RIG NAME
 DCON.     Halliburton Sperry Drilling:  DIRECTNL CONTR
 UNIT.                     N/A:  LOGGING EQUIPMENT ID
 PDAT.          Mean Sea Level:  PERMANENT DATUM
 MDS .        Operator Entered:  MAG DATA SOURCE
 CTRY.              Azerbaijan:  COUNTRY NAME
 UWI .            /AZE00000090:  UNIQUE WELL IDENTIFIER
 API .            /AZE00000090:  API NUMBER
 CNTY.                        :  COUNTY
 PROV.                        :  PROVINCE
 STAT.                        :  STATE
 LOC .                        :  LOCATION
 LMF .             Drill Floor:  LOG MEASURED FROM
 TVDS.m                  36.60:  TVDSS CORRECTN
 LATI.deg                40.08:  LATITUDE
 LONG.deg                51.24:  LONGITUDE
 WHNS.m                  -7.94:  WELL HEAD N/S
 WHEW.m                   1.56:  WELL HEAD E/W
 UTMX.m              520429.26:  UTM X
 UTMY.m             4438973.87:  UTM Y
 DFWL.m                   0.00:  DISTANCE FWL
 DFSL.m                   0.00:  DISTANCE FSL
 SDEP.m                1455.00:  START DEPTH
 TDD .m                3878.01:  TOTAL DEPTH (DRILLER)
 VSDR.deg               112.75:  VERT SEC DIRECT
 GVFD.g                   1.00:  GRAVITY FIELD
 MFLD.nT              50256.00:  MAGNETIC FIELD
 MDIP.deg                59.52:  MAGNETIC DIP
 MDEC.deg                 6.43:  MAGNETIC DECL
 GRDC.deg                 0.16:  GRID CORRECTION
 AZTC.deg                 6.27:  AZM TOTAL CORR
 EPD .m                   0.00:  ELEVATION
 EGL .m                   0.00:  GROUND ELEVATION
 WDMS.m                 121.00:  WD ELEV
 APD .m                  36.60:  DEPTH ABOVE PD
 AGAP.m                  36.60:  AIR GAP
 VSEW.m                   1.56:  VERT SEC E/W
 VSNS.m                  -7.94:  VERT SEC N/S
 DEP .m                1140.01:  DEPTH
 EKB .m                  36.60:  KB ELEVATION
 EDF .m                  36.60:  DF ELEVATION
 TDL .m                1293.00:  TOTAL DEPTH (LOGGER)
 VSC .                       0:  VS TO CLOSURE
 MAGU.                 1849164:  MAGUTM CHECKSUM
~Parameter Information Block
#MNEM.UNIT       Value        Description
#---------     -----------    ---------------------------
 AV  .mps                 2.40:  Ann Velocity 
 AVMX.mps                 2.55:  Max Ann Veloc 
 AZIF.deg               134.35:  Azm, Final 
 BHAT.        Rotary Steerable:  BHA Type 
 BREV.rev               847.00:  Rev Bit Total 
 BROT.°/30m              -2.51:  Build Rotating 
 BS  .in                  8.50:  Bit Size 
 BSZ .in                  8.50:  Bit Size 
 BTPL.psig              700.00:  Bit Press Loss 
 CABU.                     Yes:  Customer Abuse 
 CGEO.          Ilgar Gurbanov:  Customer Geo 
 COMM.                     ¸P:  Run Comments 1 
 TCS .hr                140.40:  Time Ciculation Ended 
 CV  .mps                 2.27:  Crit Velocity 
 CVMX.mps                 2.45:  Max Crit Veloc 
 DD1 .         Intigam Rahimov:  Direct Drillr 1 
 DD2 .         Rasim Ibrahimov:  Direct Drillr 2 
 DDSV.                 iCruise:  DD Service 
 DEFF.%                  99.00:  % Det Eff 
 DLRX.°/30m               3.28:  Dogleg Rot Max 
 DLSO.°/30m               0.00:  Dogleg Oriented 
 DLSX.°/30m               0.00:  Dogleg Str Max 
 DRET.      23.30.00 18-Jan-20:  Drill End Time 
 DRST.      01.45.00 11-Jan-20:  Drill Start Tim 
 DTIM.hr                 94.00:  Time Drilling 
 EDEP.m                3878.01:  End Depth 
 ENG1.       Dauren Baktybayev:  Engineer 1 
 ENG2.      Natik Hasanaghayev:  Engineer 2 
 ENG3.          Rustam Safarov:  Engineer 3 
 ETIM.      08.00.00 20-Jan-20:  End Time 
 FLOI.gpm               532.00:  Flow In 
 FLON.gpm               500.00:  Flow In Min 
 FLOS.cptm                0.00:  Fluid Loss 
 FLOX.gpm               540.00:  Flow In Max 
 FTRO.       Formation Presure:  FTWD Run Obj 
 HPRE.                     Yes:  High Pressure 
 HTEM.                      No:  High Temp 
 HYDO.m                   1.80:  Hydro Offset 
 IFIN.deg                39.86:  Inc, Final 
 IMAX.deg                59.73:  Inc Max 
 IMIN.deg                39.25:  Inc Min 
 IMND.m                3816.77:  Inc Min Depth 
 IMXD.m                2596.33:  Inc Max Depth 
 JARR.                      No:  Jarring 
 LETM.      23.30.00 18-Jan-20:  Log End Time 
 LOST.hr                     0:  Lost Rig Time 
 LSTM.      01.45.00 11-Jan-20:  Log Start Time 
 MDCL.ppm             41500.00:  Mud Chlorides 
 MDES.     Inversion Oil/Synthetic:  Mud Desc 
 DFD .sg                  1.48:  Mud Density 
 MDMN.sg                  1.48:  Dens Mud Min 
 MDMX.sg                  1.48:  Dens Mud Max 
 MOIL.                      54:  Run Mud Oil % 
 MOWR.                   72:28:  Run Mud OWR 
 MSND.                       0:  Run Mud Sand % 
 MSOL.                      23:  Run Mud Solids% 
 DFV .spqt               86.00:  Mud Viscosity 
 MWOD.in                  6.75:  MWD Tool OD 
 MWSI.                      No:  Serv Intrp, MWD 
 OTIM.hr                223.40:  Time Operating 
 PCON.           Look Like New:  Pad Condition 
 PMAX.psia            32446.79:  Press Op, Max 
 PV  .cP                 49.00:  Mud PV 
 RUN .                     200:  Run Number 
 ROPA.m/hr               12.48:  ROP Avg 
 ROPN.m/hr                8.00:  ROP Min 
 ROPX.m/hr               27.00:  ROP Max 
 RPMA.rpm               121.00:  RPM Surface Avg 
 RPMN.rpm                60.00:  RPM Surface Min 
 RPMX.rpm               140.00:  RPM Surface Max 
 RRUN.                    L202:  Rig Run Number 
 RTIM.hr                  7.25:  Time Reaming 
 SAZI.deg               123.49:  Azm, Start 
 SDEP.m                2585.01:  Start Depth 
 SIDD.                      No:  Serv Intrp, DD 
 SINC.deg                59.93:  Inc, Start 
 SPPA.psig             3539.00:  SPP Avg 
 SPPN.psig             3050.00:  SPP Min 
 SPPX.psig             3950.00:  SPP Max 
 STIM.      19.00.00 10-Jan-20:  Start Time 
 SVCS.                 DD, MWD:  Services 
 SVER.                    9.20:  Sperry Version 
 TDAT.m                1293.00:  Tot Depth Attmp 
 TDDF.                      No:  Trip for DD 
 TDLG.m                1293.00:  Tot Depth Loggd 
 TFF .                      No:  Trip for Fail 
 TQAA.f-kp               16.00:  Torque Abs Avg 
 TQAN.f-kp               11.00:  Torque Abs Min 
 TQAX.f-kp               18.00:  Torque Abs Max 
 TRRT.°/30m               1.25:  Turn Rotating 
 MRT .                  EWR-M5:  Maximum Recorded Temperature 
 TTMX.degC               84.00:  Max Tool Temp 
 VS01.          AZ90514619R5C6:  Virtual Str1 SN 
 VS02.        AZ90552592N2L2C6:  Virtual Str2 SN 
 VS03.        AZ90571337Z1W1C6:  Virtual Str3 SN 
 VS04.         AZ90513690K23C6:  Virtual Str4 SN 
 VS05.           AZ90594857F11:  Virtual Str5 SN 
 VS06.                13102166:  Virtual Str6 SN 
 WBMN.klb                 7.00:  WOB Min 
 WITN.            Peter Wilson:  Customer Rep 
 WOBA.klb                 9.95:  WOB Avg 
 WOBX.klb                10.00:  WOB Max 
 YP  .lhf2               36.00:  Yield Point 
~Curve Information Block
#MNEM.UNIT                 API CODE     Curve Description
#---------               -----------    ---------------------------
 TIME.HHMMSS            00 000 000 000:  GT Time & Date
 GTDEPTH.m              00 000 000 000:  GT Depth
 GTPQH.psia             00 000 000 000:  GT HR Quartz Pressure
 GTTQ.degC              00 000 000 000:  GT Quartz Temperature
 GTTN.NONE              00 000 000 000:  GT Test Number
 GTET.sec               00 000 000 000:  GT Elapsed Test Time
 GTTVD.m                00 000 000 000:  GT True Vertical Depth
#Other Information
#
#WARRANTY: Halliburton will use its best efforts to furnish customers with 
#accurate information and interpretations that are part of, and incident to, the services 
#provided.  However, Halliburton cannot and does not warrant the accuracy 
#or correctness of such information and interpretations.  Under no circumstances should any 
#such information or interpretation be relied upon as the sole basis for any drilling, 
#completion, production, or financial decision or any procedure involving any risk to the 
#safety of any drilling venture, drilling rig or its crew or any other third party.  The 
#Customer has full responsibility for all drilling, completion and production operation.  
#Halliburton makes no representations or warranties, either expressed or 
#implied, including, but not limited to, the implied warranties of merchantability or fitness 
#for a particular purpose, with respect to the services rendered.  In no event will 
#Halliburton be liable for failure to obtain any particular results or for 
#any damages, including, but not limited to, indirect, special or consequential damages, 
#resulting from the use of any information or interpretation provided by Halliburton.
#
~A           TIME           GTDEPTH  GTPQH  GTTQ  GTTN  GTET   GTTVD  
# ...
   13:34:02.187.18-Jan-2020 3754.51  638.48 81.11 4.00 161.05 2825.33
   13:34:02.387.18-Jan-2020 3754.51  638.48 81.11 4.00 161.25 2825.33
   13:34:02.587.18-Jan-2020 3754.51  639.00 81.11 4.00 161.45 2825.33
   13:34:02.787.18-Jan-2020 3754.51  638.53 81.11 4.00 161.65 2825.33
   13:34:02.987.18-Jan-2020 3754.51  639.19 81.11 4.00 161.85 2825.33
   13:34:03.187.18-Jan-2020 3754.51  639.07 81.11 4.00 162.05 2825.33
   13:34:03.387.18-Jan-2020 3754.51  639.07 81.11 4.00 162.25 2825.33
   13:34:03.587.18-Jan-2020 3754.51  639.23 81.11 4.00 162.45 2825.33
   13:34:03.787.18-Jan-2020 3754.51  638.92 81.11 4.00 162.65 2825.33
   13:34:03.987.18-Jan-2020 3754.51  639.50 81.11 4.00 162.85 2825.33
   13:34:04.187.18-Jan-2020 3754.51  639.48 81.11 4.00 163.05 2825.33
   13:34:04.387.18-Jan-2020 3754.51  639.48 81.11 4.00 163.25 2825.33
   13:34:04.588.18-Jan-2020 3754.51  639.26 81.11 4.00 163.45 2825.33
   13:34:04.788.18-Jan-2020 3754.51  639.01 81.11 4.00 163.65 2825.33
   13:34:04.988.18-Jan-2020 3754.51  638.98 81.11 4.00 163.85 2825.33
   13:34:05.188.18-Jan-2020 3754.51  639.14 81.11 4.00 164.05 2825.33
   13:34:05.388.18-Jan-2020 3754.51  639.14 81.11 4.00 164.25 2825.33
   13:34:05.588.18-Jan-2020 3754.51  639.03 81.10 4.00 164.45 2825.33
   13:34:05.788.18-Jan-2020 3754.51  638.86 81.10 4.00 164.65 2825.33
   13:34:05.988.18-Jan-2020 3754.51  638.86 81.10 4.00 164.85 2825.33
   13:34:06.188.18-Jan-2020 3754.51  638.81 81.10 4.00 165.05 2825.33
   13:34:06.388.18-Jan-2020 3754.51  638.81 81.10 4.00 165.25 2825.33
   13:34:06.588.18-Jan-2020 3754.51  638.82 81.10 4.00 165.45 2825.33
   13:34:06.788.18-Jan-2020 3754.51  638.15 81.10 4.00 165.65 2825.33
   13:34:06.988.18-Jan-2020 3754.51  637.95 81.10 4.00 165.85 2825.33
   13:34:07.188.18-Jan-2020 3754.51  638.52 81.10 4.00 166.05 2825.33
   13:34:07.388.18-Jan-2020 3754.51  638.52 81.10 4.00 166.25 2825.33
   13:34:07.589.18-Jan-2020 3754.51  639.07 81.10 4.00 166.45 2825.33
   13:34:07.789.18-Jan-2020 3754.51  638.96 81.10 4.00 166.65 2825.33
   13:34:07.989.18-Jan-2020 3754.51  638.57 81.10 4.00 166.85 2825.33
   13:34:08.189.18-Jan-2020 3754.51  638.72 81.10 4.00 167.05 2825.33
   13:34:08.389.18-Jan-2020 3754.51  638.72 81.10 4.00 167.25 2825.33
   13:34:08.589.18-Jan-2020 3754.51  638.69 81.10 4.00 167.45 2825.33
   13:34:08.789.18-Jan-2020 3754.51  638.62 81.10 4.00 167.65 2825.33
   13:34:08.989.18-Jan-2020 3754.51  637.97 81.10 4.00 167.85 2825.33
   13:34:09.189.18-Jan-2020 3754.51  637.78 81.10 4.00 168.05 2825.33
   13:34:09.389.18-Jan-2020 3754.51  637.78 81.10 4.00 168.25 2825.33
   13:34:09.589.18-Jan-2020 3754.51  639.37 81.10 4.00 168.45 2825.33
   13:34:09.789.18-Jan-2020 3754.51  638.95 81.10 4.00 168.65 2825.33
   13:34:09.989.18-Jan-2020 3754.51  637.58 81.10 4.00 168.85 2825.33
   13:34:10.189.18-Jan-2020 3754.51  638.87 81.10 4.00 169.05 2825.33
   13:34:10.389.18-Jan-2020 3754.51  638.87 81.10 4.00 169.25 2825.33
   13:34:10.589.18-Jan-2020 3754.51  639.12 81.10 4.00 169.45 2825.33
   13:34:10.790.18-Jan-2020 3754.51  639.03 81.10 4.00 169.65 2825.33
   13:34:10.990.18-Jan-2020 3754.51  638.89 81.09 4.00 169.85 2825.33
   13:34:11.190.18-Jan-2020 3754.51  638.67 81.09 4.00 170.05 2825.33
   13:34:11.390.18-Jan-2020 3754.51  638.67 81.09 4.00 170.26 2825.33
   13:34:11.590.18-Jan-2020 3754.51  639.51 81.09 4.00 170.46 2825.33
   13:34:11.790.18-Jan-2020 3754.51  639.22 81.09 4.00 170.66 2825.33
   13:34:11.990.18-Jan-2020 3754.51  639.07 81.09 4.00 170.86 2825.33
   13:34:12.190.18-Jan-2020 3754.51  639.02 81.09 4.00 171.06 2825.33
   13:34:12.390.18-Jan-2020 3754.51  639.02 81.09 4.00 171.26 2825.33
   13:34:12.590.18-Jan-2020 3754.51  638.44 81.09 4.00 171.46 2825.33
   13:34:12.790.18-Jan-2020 3754.51  638.86 81.09 4.00 171.66 2825.33
   13:34:12.990.18-Jan-2020 3754.51  639.64 81.09 4.00 171.86 2825.33
   13:34:13.190.18-Jan-2020 3754.51  639.15 81.09 4.00 172.06 2825.33
   13:34:13.390.18-Jan-2020 3754.51  639.15 81.09 4.00 172.26 2825.33
   13:34:13.590.18-Jan-2020 3754.51  638.88 81.09 4.00 172.46 2825.33
   13:34:13.791.18-Jan-2020 3754.51  638.73 81.09 4.00 172.66 2825.33
   13:34:13.991.18-Jan-2020 3754.51  638.85 81.09 4.00 172.86 2825.33
   13:34:14.191.18-Jan-2020 3754.51  638.81 81.09 4.00 173.06 2825.33
   13:34:14.391.18-Jan-2020 3754.51  638.81 81.09 4.00 173.26 2825.33
   13:34:14.591.18-Jan-2020 3754.51  638.62 81.09 4.00 173.46 2825.33
   13:34:14.791.18-Jan-2020 3754.51  638.60 81.09 4.00 173.66 2825.33
   13:34:14.991.18-Jan-2020 3754.51  638.53 81.09 4.00 173.86 2825.33
   13:34:15.191.18-Jan-2020 3754.51  638.51 81.09 4.00 174.06 2825.33
   13:34:15.391.18-Jan-2020 3754.51  638.51 81.09 4.00 174.26 2825.33
   13:34:15.591.18-Jan-2020 3754.51  638.47 81.09 4.00 174.46 2825.33
   13:34:15.791.18-Jan-2020 3754.51  638.26 81.09 4.00 174.66 2825.33
   13:34:15.991.18-Jan-2020 3754.51  636.53 81.09 4.00 174.86 2825.33
   13:34:16.191.18-Jan-2020 3754.51  639.02 81.09 4.00 175.06 2825.33
   13:34:16.391.18-Jan-2020 3754.51  639.02 81.09 4.00 175.26 2825.33
   13:34:16.591.18-Jan-2020 3754.51  638.92 81.09 4.00 175.46 2825.33
   13:34:16.791.18-Jan-2020 3754.51  638.50 81.08 4.00 175.66 2825.33
   13:34:16.992.18-Jan-2020 3754.51  638.49 81.08 4.00 175.86 2825.33
   13:34:17.192.18-Jan-2020 3754.51  636.85 81.08 4.00 176.06 2825.33
   13:34:17.392.18-Jan-2020 3754.51  636.85 81.08 4.00 176.26 2825.33
   13:34:17.592.18-Jan-2020 3754.51  618.69 81.08 4.00 176.46 2825.33
   13:34:17.792.18-Jan-2020 3754.51  608.40 81.08 4.00 176.66 2825.33
   13:34:17.992.18-Jan-2020 3754.51  598.19 81.08 4.00 176.86 2825.33
   13:34:18.192.18-Jan-2020 3754.51  570.02 81.08 4.00 177.06 2825.33
   13:34:18.392.18-Jan-2020 3754.51  570.02 81.08 4.00 177.26 2825.33
   13:34:18.592.18-Jan-2020 3754.51  452.57 81.08 4.00 177.46 2825.33
   13:34:18.792.18-Jan-2020 3754.51  437.28 81.08 4.00 177.66 2825.33
   13:34:18.992.18-Jan-2020 3754.51  428.58 81.08 4.00 177.86 2825.33
   13:34:19.192.18-Jan-2020 3754.51  427.57 81.08 4.00 178.06 2825.33
   13:34:19.392.18-Jan-2020 3754.51  427.57 81.08 4.00 178.26 2825.33
   13:34:19.592.18-Jan-2020 3754.51  403.43 81.08 4.00 178.46 2825.33
   13:34:19.792.18-Jan-2020 3754.51  386.80 81.08 4.00 178.66 2825.33
   13:34:19.993.18-Jan-2020 3754.51  371.81 81.08 4.00 178.86 2825.33
   13:34:20.193.18-Jan-2020 3754.51  365.50 81.08 4.00 179.06 2825.33
   13:34:20.393.18-Jan-2020 3754.51  365.50 81.08 4.00 179.26 2825.33
   13:34:20.593.18-Jan-2020 3754.51  365.13 81.08 4.00 179.46 2825.33
   13:34:20.793.18-Jan-2020 3754.51  366.99 81.08 4.00 179.66 2825.33
   13:34:20.993.18-Jan-2020 3754.51  368.41 81.08 4.00 179.86 2825.33
   13:34:21.193.18-Jan-2020 3754.51  371.78 81.07 4.00 180.06 2825.33
   13:34:21.393.18-Jan-2020 3754.51  371.78 81.07 4.00 180.26 2825.33
   13:34:21.593.18-Jan-2020 3754.51  374.80 81.07 4.00 180.46 2825.33
   13:34:21.793.18-Jan-2020 3754.51  374.58 81.07 4.00 180.66 2825.33
   13:34:21.993.18-Jan-2020 3754.51  373.48 81.07 4.00 180.86 2825.33
   13:34:22.193.18-Jan-2020 3754.51  354.73 81.07 4.00 181.06 2825.33
   13:34:22.393.18-Jan-2020 3754.51  354.73 81.07 4.00 181.26 2825.33
   13:34:22.593.18-Jan-2020 3754.51  354.43 81.07 4.00 181.46 2825.33
   13:34:22.793.18-Jan-2020 3754.51  348.78 81.07 4.00 181.66 2825.33
   13:34:22.993.18-Jan-2020 3754.51  345.98 81.07 4.00 181.86 2825.33
   13:34:23.194.18-Jan-2020 3754.51  342.48 81.07 4.00 182.06 2825.33
   13:34:23.394.18-Jan-2020 3754.51  342.48 81.07 4.00 182.26 2825.33
   13:34:23.594.18-Jan-2020 3754.51  334.99 81.07 4.00 182.46 2825.33
   13:34:23.794.18-Jan-2020 3754.51  338.04 81.07 4.00 182.66 2825.33
   13:34:23.994.18-Jan-2020 3754.51  343.66 81.07 4.00 182.86 2825.33
   13:34:24.194.18-Jan-2020 3754.51  347.12 81.07 4.00 183.06 2825.33
   13:34:24.394.18-Jan-2020 3754.51  347.12 81.07 4.00 183.26 2825.33
   13:34:24.594.18-Jan-2020 3754.51  342.67 81.07 4.00 183.46 2825.33
   13:34:24.794.18-Jan-2020 3754.51  339.69 81.07 4.00 183.66 2825.33
   13:34:24.994.18-Jan-2020 3754.51  348.96 81.06 4.00 183.86 2825.33
