~Version Information
 VERS.                  2.0:   CWLS log ASCII Standard -VERSION 2.0
 WRAP.                   NO:   One line per depth step
~Well Information Block
#MNEM.UNIT     VALUE/NAME     DESCRIPTION
#---------     -----------    ---------------------------
 STRT.S             13:51:43 18-Jan-20: START TIME 13:51:43 18-Jan-20
 STOP.S             13:59:59 18-Jan-20: STOP TIME  13:59:59 18-Jan-20
 STEP.S                   0.00: STEP TIME
 NULL.                 -999.25: NULL VALUE
 DFWT.                        :  DIST FWL TEXT
 DFST.                        :  DIST FSL TEXT
 DMF .             Drill Floor:  DRILL MEAS FROM
 STIM.      09.30.00 26-Dec-19:  START TIME
 DATE.      08.00.00 20-Jan-20:  END TIME
 SPUD.               23-Nov-19:  SPUD DATE
 NREF.                    Grid:  NORTH REFERENCE
 HPTY.       Minimum Curvature:  HOLE POS TYPE
 DMOD.             Drill Model:  DRILL MOD DESC
 SVYD.                  Survey:  SURVEY DESC
 ILTD.               Lithology:  INTERP LTH DESC
 FTOP.          Formation Tops:  FORM TOPS DESC
 SON .        AZ-XX-0906192647:  JOB NUMBER
 WTYP.                Deviated:  WELL TYPE
 COMP.     BP Exploration (Caspian Sea) Ltd:  COMPANY
 BASE.              Azerbaijan:  LOGGING EQUIPMENT BASE LOCATION
 REGN.                 Eurasia:  REGION
 FLD .                     ACG:  FIELD NAME
 SRVC.              KCA Deutag:  CONTRACTOR
 MWDS.                    Baku:  MWD SHOP
 WELL.     A10 (Slot 20) - SCP:  WELL NAME
 JOBN.        AZ-XX-0906192647:  JOB TICKET NUMB
 RIG .                 Chirag1:  RIG NAME
 DCON.     Halliburton Sperry Drilling:  DIRECTNL CONTR
 UNIT.                     N/A:  LOGGING EQUIPMENT ID
 PDAT.          Mean Sea Level:  PERMANENT DATUM
 MDS .        Operator Entered:  MAG DATA SOURCE
 CTRY.              Azerbaijan:  COUNTRY NAME
 UWI .            /AZE00000090:  UNIQUE WELL IDENTIFIER
 API .            /AZE00000090:  API NUMBER
 CNTY.                        :  COUNTY
 PROV.                        :  PROVINCE
 STAT.                        :  STATE
 LOC .                        :  LOCATION
 LMF .             Drill Floor:  LOG MEASURED FROM
 TVDS.m                  36.60:  TVDSS CORRECTN
 LATI.deg                40.08:  LATITUDE
 LONG.deg                51.24:  LONGITUDE
 WHNS.m                  -7.94:  WELL HEAD N/S
 WHEW.m                   1.56:  WELL HEAD E/W
 UTMX.m              520429.26:  UTM X
 UTMY.m             4438973.87:  UTM Y
 DFWL.m                   0.00:  DISTANCE FWL
 DFSL.m                   0.00:  DISTANCE FSL
 SDEP.m                1455.00:  START DEPTH
 TDD .m                3878.01:  TOTAL DEPTH (DRILLER)
 VSDR.deg               112.75:  VERT SEC DIRECT
 GVFD.g                   1.00:  GRAVITY FIELD
 MFLD.nT              50256.00:  MAGNETIC FIELD
 MDIP.deg                59.52:  MAGNETIC DIP
 MDEC.deg                 6.43:  MAGNETIC DECL
 GRDC.deg                 0.16:  GRID CORRECTION
 AZTC.deg                 6.27:  AZM TOTAL CORR
 EPD .m                   0.00:  ELEVATION
 EGL .m                   0.00:  GROUND ELEVATION
 WDMS.m                 121.00:  WD ELEV
 APD .m                  36.60:  DEPTH ABOVE PD
 AGAP.m                  36.60:  AIR GAP
 VSEW.m                   1.56:  VERT SEC E/W
 VSNS.m                  -7.94:  VERT SEC N/S
 DEP .m                1140.01:  DEPTH
 EKB .m                  36.60:  KB ELEVATION
 EDF .m                  36.60:  DF ELEVATION
 TDL .m                1293.00:  TOTAL DEPTH (LOGGER)
 VSC .                       0:  VS TO CLOSURE
 MAGU.                 1849164:  MAGUTM CHECKSUM
~Parameter Information Block
#MNEM.UNIT       Value        Description
#---------     -----------    ---------------------------
 AV  .mps                 2.40:  Ann Velocity 
 AVMX.mps                 2.55:  Max Ann Veloc 
 AZIF.deg               134.35:  Azm, Final 
 BHAT.        Rotary Steerable:  BHA Type 
 BREV.rev               847.00:  Rev Bit Total 
 BROT.°/30m              -2.51:  Build Rotating 
 BS  .in                  8.50:  Bit Size 
 BSZ .in                  8.50:  Bit Size 
 BTPL.psig              700.00:  Bit Press Loss 
 CABU.                     Yes:  Customer Abuse 
 CGEO.          Ilgar Gurbanov:  Customer Geo 
 COMM.                     üÓ~:  Run Comments 1 
 TCS .hr                140.40:  Time Ciculation Ended 
 CV  .mps                 2.27:  Crit Velocity 
 CVMX.mps                 2.45:  Max Crit Veloc 
 DD1 .         Intigam Rahimov:  Direct Drillr 1 
 DD2 .         Rasim Ibrahimov:  Direct Drillr 2 
 DDSV.                 iCruise:  DD Service 
 DEFF.%                  99.00:  % Det Eff 
 DLRX.°/30m               3.28:  Dogleg Rot Max 
 DLSO.°/30m               0.00:  Dogleg Oriented 
 DLSX.°/30m               0.00:  Dogleg Str Max 
 DRET.      23.30.00 18-Jan-20:  Drill End Time 
 DRST.      01.45.00 11-Jan-20:  Drill Start Tim 
 DTIM.hr                 94.00:  Time Drilling 
 EDEP.m                3878.01:  End Depth 
 ENG1.       Dauren Baktybayev:  Engineer 1 
 ENG2.      Natik Hasanaghayev:  Engineer 2 
 ENG3.          Rustam Safarov:  Engineer 3 
 ETIM.      08.00.00 20-Jan-20:  End Time 
 FLOI.gpm               532.00:  Flow In 
 FLON.gpm               500.00:  Flow In Min 
 FLOS.cptm                0.00:  Fluid Loss 
 FLOX.gpm               540.00:  Flow In Max 
 FTRO.       Formation Presure:  FTWD Run Obj 
 HPRE.                     Yes:  High Pressure 
 HTEM.                      No:  High Temp 
 HYDO.m                   1.80:  Hydro Offset 
 IFIN.deg                39.86:  Inc, Final 
 IMAX.deg                59.73:  Inc Max 
 IMIN.deg                39.25:  Inc Min 
 IMND.m                3816.77:  Inc Min Depth 
 IMXD.m                2596.33:  Inc Max Depth 
 JARR.                      No:  Jarring 
 LETM.      23.30.00 18-Jan-20:  Log End Time 
 LOST.hr                     0:  Lost Rig Time 
 LSTM.      01.45.00 11-Jan-20:  Log Start Time 
 MDCL.ppm             41500.00:  Mud Chlorides 
 MDES.     Inversion Oil/Synthetic:  Mud Desc 
 DFD .sg                  1.48:  Mud Density 
 MDMN.sg                  1.48:  Dens Mud Min 
 MDMX.sg                  1.48:  Dens Mud Max 
 MOIL.                      54:  Run Mud Oil % 
 MOWR.                   72:28:  Run Mud OWR 
 MSND.                       0:  Run Mud Sand % 
 MSOL.                      23:  Run Mud Solids% 
 DFV .spqt               86.00:  Mud Viscosity 
 MWOD.in                  6.75:  MWD Tool OD 
 MWSI.                      No:  Serv Intrp, MWD 
 OTIM.hr                223.40:  Time Operating 
 PCON.           Look Like New:  Pad Condition 
 PMAX.psia            32446.79:  Press Op, Max 
 PV  .cP                 49.00:  Mud PV 
 RUN .                     200:  Run Number 
 ROPA.m/hr               12.48:  ROP Avg 
 ROPN.m/hr                8.00:  ROP Min 
 ROPX.m/hr               27.00:  ROP Max 
 RPMA.rpm               121.00:  RPM Surface Avg 
 RPMN.rpm                60.00:  RPM Surface Min 
 RPMX.rpm               140.00:  RPM Surface Max 
 RRUN.                    L202:  Rig Run Number 
 RTIM.hr                  7.25:  Time Reaming 
 SAZI.deg               123.49:  Azm, Start 
 SDEP.m                2585.01:  Start Depth 
 SIDD.                      No:  Serv Intrp, DD 
 SINC.deg                59.93:  Inc, Start 
 SPPA.psig             3539.00:  SPP Avg 
 SPPN.psig             3050.00:  SPP Min 
 SPPX.psig             3950.00:  SPP Max 
 STIM.      19.00.00 10-Jan-20:  Start Time 
 SVCS.                 DD, MWD:  Services 
 SVER.                    9.20:  Sperry Version 
 TDAT.m                1293.00:  Tot Depth Attmp 
 TDDF.                      No:  Trip for DD 
 TDLG.m                1293.00:  Tot Depth Loggd 
 TFF .                      No:  Trip for Fail 
 TQAA.f-kp               16.00:  Torque Abs Avg 
 TQAN.f-kp               11.00:  Torque Abs Min 
 TQAX.f-kp               18.00:  Torque Abs Max 
 TRRT.°/30m               1.25:  Turn Rotating 
 MRT .                  EWR-M5:  Maximum Recorded Temperature 
 TTMX.degC               84.00:  Max Tool Temp 
 VS01.          AZ90514619R5C6:  Virtual Str1 SN 
 VS02.        AZ90552592N2L2C6:  Virtual Str2 SN 
 VS03.        AZ90571337Z1W1C6:  Virtual Str3 SN 
 VS04.         AZ90513690K23C6:  Virtual Str4 SN 
 VS05.           AZ90594857F11:  Virtual Str5 SN 
 VS06.                13102166:  Virtual Str6 SN 
 WBMN.klb                 7.00:  WOB Min 
 WITN.            Peter Wilson:  Customer Rep 
 WOBA.klb                 9.95:  WOB Avg 
 WOBX.klb                10.00:  WOB Max 
 YP  .lhf2               36.00:  Yield Point 
~Curve Information Block
#MNEM.UNIT                 API CODE     Curve Description
#---------               -----------    ---------------------------
 TIME.HHMMSS            00 000 000 000:  GT Time & Date
 GTDEPTH.m              00 000 000 000:  GT Depth
 GTPQH.psia             00 000 000 000:  GT HR Quartz Pressure
 GTTQ.degC              00 000 000 000:  GT Quartz Temperature
 GTTN.NONE              00 000 000 000:  GT Test Number
 GTET.sec               00 000 000 000:  GT Elapsed Test Time
 GTTVD.m                00 000 000 000:  GT True Vertical Depth
#Other Information
#
#WARRANTY: Halliburton will use its best efforts to furnish customers with 
#accurate information and interpretations that are part of, and incident to, the services 
#provided.  However, Halliburton cannot and does not warrant the accuracy 
#or correctness of such information and interpretations.  Under no circumstances should any 
#such information or interpretation be relied upon as the sole basis for any drilling, 
#completion, production, or financial decision or any procedure involving any risk to the 
#safety of any drilling venture, drilling rig or its crew or any other third party.  The 
#Customer has full responsibility for all drilling, completion and production operation.  
#Halliburton makes no representations or warranties, either expressed or 
#implied, including, but not limited to, the implied warranties of merchantability or fitness 
#for a particular purpose, with respect to the services rendered.  In no event will 
#Halliburton be liable for failure to obtain any particular results or for 
#any damages, including, but not limited to, indirect, special or consequential damages, 
#resulting from the use of any information or interpretation provided by Halliburton.
#
~A           TIME           GTDEPTH  GTPQH  GTTQ  GTTN  GTET   GTTVD  
# ...
   13:59:46.686.18-Jan-2020 3754.01 6389.96 79.48 5.00 483.16 2824.94
   13:59:46.886.18-Jan-2020 3754.01 6389.96 79.48 5.00 483.36 2824.94
   13:59:47.086.18-Jan-2020 3754.01 6390.24 79.48 5.00 483.56 2824.94
   13:59:47.286.18-Jan-2020 3754.01 6387.86 79.48 5.00 483.76 2824.94
   13:59:47.486.18-Jan-2020 3754.01 6387.65 79.48 5.00 483.96 2824.94
   13:59:47.686.18-Jan-2020 3754.01 6389.41 79.48 5.00 484.16 2824.94
   13:59:47.886.18-Jan-2020 3754.01 6389.41 79.48 5.00 484.36 2824.94
   13:59:48.087.18-Jan-2020 3754.01 6390.07 79.47 5.00 484.56 2824.94
   13:59:48.287.18-Jan-2020 3754.01 6395.65 79.47 5.00 484.76 2824.94
   13:59:48.487.18-Jan-2020 3754.01 6394.28 79.47 5.00 484.96 2824.94
   13:59:48.687.18-Jan-2020 3754.01 6390.41 79.47 5.00 485.16 2824.94
   13:59:48.887.18-Jan-2020 3754.01 6390.41 79.47 5.00 485.36 2824.94
   13:59:49.087.18-Jan-2020 3754.01 6388.93 79.47 5.00 485.56 2824.94
   13:59:49.287.18-Jan-2020 3754.01 6390.01 79.47 5.00 485.76 2824.94
   13:59:49.487.18-Jan-2020 3754.01 6386.78 79.47 5.00 485.96 2824.94
   13:59:49.687.18-Jan-2020 3754.01 6388.20 79.47 5.00 486.16 2824.94
   13:59:49.887.18-Jan-2020 3754.01 6388.20 79.47 5.00 486.36 2824.94
   13:59:50.087.18-Jan-2020 3754.01 6388.34 79.47 5.00 486.56 2824.94
   13:59:50.287.18-Jan-2020 3754.01 6388.53 79.47 5.00 486.76 2824.94
   13:59:50.487.18-Jan-2020 3754.01 6388.47 79.47 5.00 486.96 2824.94
   13:59:50.687.18-Jan-2020 3754.01 6394.11 79.47 5.00 487.16 2824.94
   13:59:50.887.18-Jan-2020 3754.01 6394.11 79.47 5.00 487.36 2824.94
   13:59:51.088.18-Jan-2020 3754.01 6389.90 79.47 5.00 487.56 2824.94
   13:59:51.288.18-Jan-2020 3754.01 6391.68 79.47 5.00 487.76 2824.94
   13:59:51.488.18-Jan-2020 3754.01 6391.92 79.47 5.00 487.96 2824.94
   13:59:51.688.18-Jan-2020 3754.01 6390.34 79.47 5.00 488.16 2824.94
   13:59:51.888.18-Jan-2020 3754.01 6390.34 79.47 5.00 488.36 2824.94
   13:59:52.088.18-Jan-2020 3754.01 6397.31 79.47 5.00 488.56 2824.94
   13:59:52.288.18-Jan-2020 3754.01 6391.73 79.47 5.00 488.76 2824.94
   13:59:52.488.18-Jan-2020 3754.01 6389.44 79.47 5.00 488.96 2824.94
   13:59:52.688.18-Jan-2020 3754.01 6388.75 79.47 5.00 489.16 2824.94
   13:59:52.888.18-Jan-2020 3754.01 6388.75 79.47 5.00 489.36 2824.94
   13:59:53.088.18-Jan-2020 3754.01 6387.28 79.47 5.00 489.56 2824.94
   13:59:53.288.18-Jan-2020 3754.01 6399.10 79.47 5.00 489.76 2824.94
   13:59:53.488.18-Jan-2020 3754.01 6387.79 79.47 5.00 489.96 2824.94
   13:59:53.688.18-Jan-2020 3754.01 6390.20 79.47 5.00 490.16 2824.94
   13:59:53.888.18-Jan-2020 3754.01 6390.20 79.47 5.00 490.36 2824.94
   13:59:54.089.18-Jan-2020 3754.01 6399.63 79.47 5.00 490.56 2824.94
   13:59:54.289.18-Jan-2020 3754.01 6392.26 79.47 5.00 490.76 2824.94
   13:59:54.489.18-Jan-2020 3754.01 6390.35 79.47 5.00 490.96 2824.94
   13:59:54.689.18-Jan-2020 3754.01 6393.41 79.47 5.00 491.16 2824.94
   13:59:54.889.18-Jan-2020 3754.01 6393.41 79.47 5.00 491.36 2824.94
   13:59:55.089.18-Jan-2020 3754.01 6394.52 79.47 5.00 491.56 2824.94
   13:59:55.289.18-Jan-2020 3754.01 6391.15 79.47 5.00 491.76 2824.94
   13:59:55.489.18-Jan-2020 3754.01 6393.78 79.47 5.00 491.96 2824.94
   13:59:55.689.18-Jan-2020 3754.01 6391.81 79.47 5.00 492.16 2824.94
   13:59:55.889.18-Jan-2020 3754.01 6391.81 79.47 5.00 492.36 2824.94
   13:59:56.089.18-Jan-2020 3754.01 6392.31 79.47 5.00 492.56 2824.94
   13:59:56.289.18-Jan-2020 3754.01 6393.87 79.47 5.00 492.76 2824.94
   13:59:56.489.18-Jan-2020 3754.01 6392.07 79.47 5.00 492.96 2824.94
   13:59:56.689.18-Jan-2020 3754.01 6390.31 79.47 5.00 493.16 2824.94
   13:59:56.889.18-Jan-2020 3754.01 6390.31 79.47 5.00 493.36 2824.94
   13:59:57.089.18-Jan-2020 3754.01 6392.71 79.47 5.00 493.56 2824.94
   13:59:57.290.18-Jan-2020 3754.01 6393.39 79.47 5.00 493.76 2824.94
   13:59:57.490.18-Jan-2020 3754.01 6391.90 79.47 5.00 493.96 2824.94
   13:59:57.690.18-Jan-2020 3754.01 6398.16 79.46 5.00 494.16 2824.94
   13:59:57.890.18-Jan-2020 3754.01 6398.16 79.46 5.00 494.36 2824.94
   13:59:58.090.18-Jan-2020 3754.01 6392.88 79.46 5.00 494.56 2824.94
   13:59:58.290.18-Jan-2020 3754.01 6391.56 79.46 5.00 494.76 2824.94
   13:59:58.490.18-Jan-2020 3754.01 6391.79 79.46 5.00 494.96 2824.94
   13:59:58.690.18-Jan-2020 3754.01 6390.63 79.46 5.00 495.16 2824.94
   13:59:58.890.18-Jan-2020 3754.01 6390.63 79.46 5.00 495.36 2824.94
   13:59:59.090.18-Jan-2020 3754.01 6389.68 79.46 5.00 495.56 2824.94
   13:59:59.290.18-Jan-2020 3754.01 6389.52 79.46 5.00 495.76 2824.94
   13:59:59.490.18-Jan-2020 3754.01 6390.05 79.46 5.00 495.96 2824.94
