~Version Information
 VERS.                  2.0:   CWLS log ASCII Standard -VERSION 2.0
 WRAP.                   NO:   One line per depth step
~Well Information Block
#MNEM.UNIT     VALUE/NAME     DESCRIPTION
#---------     -----------    ---------------------------
 STRT.S             05:39:19 18-Jan-20: START TIME 05:39:19 18-Jan-20
 STOP.S             05:47:35 18-Jan-20: STOP TIME  05:47:35 18-Jan-20
 STEP.S                   0.00: STEP TIME
 NULL.                 -999.25: NULL VALUE
 DFWT.                        :  DIST FWL TEXT
 DFST.                        :  DIST FSL TEXT
 DMF .             Drill Floor:  DRILL MEAS FROM
 STIM.      09.30.00 26-Dec-19:  START TIME
 DATE.      08.00.00 20-Jan-20:  END TIME
 SPUD.               23-Nov-19:  SPUD DATE
 NREF.                    Grid:  NORTH REFERENCE
 HPTY.       Minimum Curvature:  HOLE POS TYPE
 DMOD.             Drill Model:  DRILL MOD DESC
 SVYD.                  Survey:  SURVEY DESC
 ILTD.               Lithology:  INTERP LTH DESC
 FTOP.          Formation Tops:  FORM TOPS DESC
 SON .        AZ-XX-0906192647:  JOB NUMBER
 WTYP.                Deviated:  WELL TYPE
 COMP.     BP Exploration (Caspian Sea) Ltd:  COMPANY
 BASE.              Azerbaijan:  LOGGING EQUIPMENT BASE LOCATION
 REGN.                 Eurasia:  REGION
 FLD .                     ACG:  FIELD NAME
 SRVC.              KCA Deutag:  CONTRACTOR
 MWDS.                    Baku:  MWD SHOP
 WELL.     A10 (Slot 20) - SCP:  WELL NAME
 JOBN.        AZ-XX-0906192647:  JOB TICKET NUMB
 RIG .                 Chirag1:  RIG NAME
 DCON.     Halliburton Sperry Drilling:  DIRECTNL CONTR
 UNIT.                     N/A:  LOGGING EQUIPMENT ID
 PDAT.          Mean Sea Level:  PERMANENT DATUM
 MDS .        Operator Entered:  MAG DATA SOURCE
 CTRY.              Azerbaijan:  COUNTRY NAME
 UWI .            /AZE00000090:  UNIQUE WELL IDENTIFIER
 API .            /AZE00000090:  API NUMBER
 CNTY.                        :  COUNTY
 PROV.                        :  PROVINCE
 STAT.                        :  STATE
 LOC .                        :  LOCATION
 LMF .             Drill Floor:  LOG MEASURED FROM
 TVDS.m                  36.60:  TVDSS CORRECTN
 LATI.deg                40.08:  LATITUDE
 LONG.deg                51.24:  LONGITUDE
 WHNS.m                  -7.94:  WELL HEAD N/S
 WHEW.m                   1.56:  WELL HEAD E/W
 UTMX.m              520429.26:  UTM X
 UTMY.m             4438973.87:  UTM Y
 DFWL.m                   0.00:  DISTANCE FWL
 DFSL.m                   0.00:  DISTANCE FSL
 SDEP.m                1455.00:  START DEPTH
 TDD .m                3878.01:  TOTAL DEPTH (DRILLER)
 VSDR.deg               112.75:  VERT SEC DIRECT
 GVFD.g                   1.00:  GRAVITY FIELD
 MFLD.nT              50256.00:  MAGNETIC FIELD
 MDIP.deg                59.52:  MAGNETIC DIP
 MDEC.deg                 6.43:  MAGNETIC DECL
 GRDC.deg                 0.16:  GRID CORRECTION
 AZTC.deg                 6.27:  AZM TOTAL CORR
 EPD .m                   0.00:  ELEVATION
 EGL .m                   0.00:  GROUND ELEVATION
 WDMS.m                 121.00:  WD ELEV
 APD .m                  36.60:  DEPTH ABOVE PD
 AGAP.m                  36.60:  AIR GAP
 VSEW.m                   1.56:  VERT SEC E/W
 VSNS.m                  -7.94:  VERT SEC N/S
 DEP .m                1140.01:  DEPTH
 EKB .m                  36.60:  KB ELEVATION
 EDF .m                  36.60:  DF ELEVATION
 TDL .m                1293.00:  TOTAL DEPTH (LOGGER)
 VSC .                       0:  VS TO CLOSURE
 MAGU.                 1849164:  MAGUTM CHECKSUM
~Parameter Information Block
#MNEM.UNIT       Value        Description
#---------     -----------    ---------------------------
 AV  .mps                 2.40:  Ann Velocity 
 AVMX.mps                 2.55:  Max Ann Veloc 
 AZIF.deg               134.35:  Azm, Final 
 BHAT.        Rotary Steerable:  BHA Type 
 BREV.rev               847.00:  Rev Bit Total 
 BROT.∞/30m              -2.51:  Build Rotating 
 BS  .in                  8.50:  Bit Size 
 BSZ .in                  8.50:  Bit Size 
 BTPL.psig              700.00:  Bit Press Loss 
 CABU.                     Yes:  Customer Abuse 
 CGEO.          Ilgar Gurbanov:  Customer Geo 
 COMM.                     ‹êX:  Run Comments 1 
 TCS .hr                140.40:  Time Ciculation Ended 
 CV  .mps                 2.27:  Crit Velocity 
 CVMX.mps                 2.45:  Max Crit Veloc 
 DD1 .         Intigam Rahimov:  Direct Drillr 1 
 DD2 .         Rasim Ibrahimov:  Direct Drillr 2 
 DDSV.                 iCruise:  DD Service 
 DEFF.%                  99.00:  % Det Eff 
 DLRX.∞/30m               3.28:  Dogleg Rot Max 
 DLSO.∞/30m               0.00:  Dogleg Oriented 
 DLSX.∞/30m               0.00:  Dogleg Str Max 
 DRET.      23.30.00 18-Jan-20:  Drill End Time 
 DRST.      01.45.00 11-Jan-20:  Drill Start Tim 
 DTIM.hr                 94.00:  Time Drilling 
 EDEP.m                3878.01:  End Depth 
 ENG1.       Dauren Baktybayev:  Engineer 1 
 ENG2.      Natik Hasanaghayev:  Engineer 2 
 ENG3.          Rustam Safarov:  Engineer 3 
 ETIM.      08.00.00 20-Jan-20:  End Time 
 FLOI.gpm               532.00:  Flow In 
 FLON.gpm               500.00:  Flow In Min 
 FLOS.cptm                0.00:  Fluid Loss 
 FLOX.gpm               540.00:  Flow In Max 
 FTRO.       Formation Presure:  FTWD Run Obj 
 HPRE.                     Yes:  High Pressure 
 HTEM.                      No:  High Temp 
 HYDO.m                   1.80:  Hydro Offset 
 IFIN.deg                39.86:  Inc, Final 
 IMAX.deg                59.73:  Inc Max 
 IMIN.deg                39.25:  Inc Min 
 IMND.m                3816.77:  Inc Min Depth 
 IMXD.m                2596.33:  Inc Max Depth 
 JARR.                      No:  Jarring 
 LETM.      23.30.00 18-Jan-20:  Log End Time 
 LOST.hr                     0:  Lost Rig Time 
 LSTM.      01.45.00 11-Jan-20:  Log Start Time 
 MDCL.ppm             41500.00:  Mud Chlorides 
 MDES.     Inversion Oil/Synthetic:  Mud Desc 
 DFD .sg                  1.48:  Mud Density 
 MDMN.sg                  1.48:  Dens Mud Min 
 MDMX.sg                  1.48:  Dens Mud Max 
 MOIL.                      54:  Run Mud Oil % 
 MOWR.                   72:28:  Run Mud OWR 
 MSND.                       0:  Run Mud Sand % 
 MSOL.                      23:  Run Mud Solids% 
 DFV .spqt               86.00:  Mud Viscosity 
 MWOD.in                  6.75:  MWD Tool OD 
 MWSI.                      No:  Serv Intrp, MWD 
 OTIM.hr                223.40:  Time Operating 
 PCON.           Look Like New:  Pad Condition 
 PMAX.psia            32446.79:  Press Op, Max 
 PV  .cP                 49.00:  Mud PV 
 RUN .                     200:  Run Number 
 ROPA.m/hr               12.48:  ROP Avg 
 ROPN.m/hr                8.00:  ROP Min 
 ROPX.m/hr               27.00:  ROP Max 
 RPMA.rpm               121.00:  RPM Surface Avg 
 RPMN.rpm                60.00:  RPM Surface Min 
 RPMX.rpm               140.00:  RPM Surface Max 
 RRUN.                    L202:  Rig Run Number 
 RTIM.hr                  7.25:  Time Reaming 
 SAZI.deg               123.49:  Azm, Start 
 SDEP.m                2585.01:  Start Depth 
 SIDD.                      No:  Serv Intrp, DD 
 SINC.deg                59.93:  Inc, Start 
 SPPA.psig             3539.00:  SPP Avg 
 SPPN.psig             3050.00:  SPP Min 
 SPPX.psig             3950.00:  SPP Max 
 STIM.      19.00.00 10-Jan-20:  Start Time 
 SVCS.                 DD, MWD:  Services 
 SVER.                    9.20:  Sperry Version 
 TDAT.m                1293.00:  Tot Depth Attmp 
 TDDF.                      No:  Trip for DD 
 TDLG.m                1293.00:  Tot Depth Loggd 
 TFF .                      No:  Trip for Fail 
 TQAA.f-kp               16.00:  Torque Abs Avg 
 TQAN.f-kp               11.00:  Torque Abs Min 
 TQAX.f-kp               18.00:  Torque Abs Max 
 TRRT.∞/30m               1.25:  Turn Rotating 
 MRT .                  EWR-M5:  Maximum Recorded Temperature 
 TTMX.degC               84.00:  Max Tool Temp 
 VS01.          AZ90514619R5C6:  Virtual Str1 SN 
 VS02.        AZ90552592N2L2C6:  Virtual Str2 SN 
 VS03.        AZ90571337Z1W1C6:  Virtual Str3 SN 
 VS04.         AZ90513690K23C6:  Virtual Str4 SN 
 VS05.           AZ90594857F11:  Virtual Str5 SN 
 VS06.                13102166:  Virtual Str6 SN 
 WBMN.klb                 7.00:  WOB Min 
 WITN.            Peter Wilson:  Customer Rep 
 WOBA.klb                 9.95:  WOB Avg 
 WOBX.klb                10.00:  WOB Max 
 YP  .lhf2               36.00:  Yield Point 
~Curve Information Block
#MNEM.UNIT                 API CODE     Curve Description
#---------               -----------    ---------------------------
 TIME.HHMMSS            00 000 000 000:  GT Time & Date
 GTDEPTH.m              00 000 000 000:  GT Depth
 GTPQH.psia             00 000 000 000:  GT HR Quartz Pressure
 GTTQ.degC              00 000 000 000:  GT Quartz Temperature
 GTTN.NONE              00 000 000 000:  GT Test Number
 GTET.sec               00 000 000 000:  GT Elapsed Test Time
 GTTVD.m                00 000 000 000:  GT True Vertical Depth
#Other Information
#
#WARRANTY: Halliburton will use its best efforts to furnish customers with 
#accurate information and interpretations that are part of, and incident to, the services 
#provided.  However, Halliburton cannot and does not warrant the accuracy 
#or correctness of such information and interpretations.  Under no circumstances should any 
#such information or interpretation be relied upon as the sole basis for any drilling, 
#completion, production, or financial decision or any procedure involving any risk to the 
#safety of any drilling venture, drilling rig or its crew or any other third party.  The 
#Customer has full responsibility for all drilling, completion and production operation.  
#Halliburton makes no representations or warranties, either expressed or 
#implied, including, but not limited to, the implied warranties of merchantability or fitness 
#for a particular purpose, with respect to the services rendered.  In no event will 
#Halliburton be liable for failure to obtain any particular results or for 
#any damages, including, but not limited to, indirect, special or consequential damages, 
#resulting from the use of any information or interpretation provided by Halliburton.
#
~A           TIME           GTDEPTH  GTPQH  GTTQ  GTTN  GTET   GTTVD  
# ...
   05:41:37.536.18-Jan-2020 3717.66 4263.21 78.21 2.00 138.04 2797.70
   05:41:37.736.18-Jan-2020 3717.66 4263.21 78.21 2.00 138.24 2797.70
   05:41:37.936.18-Jan-2020 3717.66 4263.12 78.21 2.00 138.44 2797.70
   05:41:38.136.18-Jan-2020 3717.66 4263.23 78.21 2.00 138.64 2797.70
   05:41:38.336.18-Jan-2020 3717.66 4263.22 78.21 2.00 138.84 2797.70
   05:41:38.536.18-Jan-2020 3717.66 4263.18 78.21 2.00 139.04 2797.70
   05:41:38.736.18-Jan-2020 3717.66 4263.18 78.21 2.00 139.24 2797.70
   05:41:38.936.18-Jan-2020 3717.66 4263.14 78.21 2.00 139.44 2797.70
   05:41:39.136.18-Jan-2020 3717.66 4263.17 78.21 2.00 139.64 2797.70
   05:41:39.336.18-Jan-2020 3717.66 4263.23 78.21 2.00 139.84 2797.70
   05:41:39.536.18-Jan-2020 3717.66 4263.20 78.21 2.00 140.04 2797.70
   05:41:39.736.18-Jan-2020 3717.66 4263.20 78.21 2.00 140.24 2797.70
   05:41:39.937.18-Jan-2020 3717.66 4263.01 78.21 2.00 140.44 2797.70
   05:41:40.137.18-Jan-2020 3717.66 4263.35 78.21 2.00 140.64 2797.70
   05:41:40.337.18-Jan-2020 3717.66 4263.19 78.21 2.00 140.84 2797.70
   05:41:40.537.18-Jan-2020 3717.66 4263.25 78.21 2.00 141.04 2797.70
   05:41:40.737.18-Jan-2020 3717.66 4263.25 78.21 2.00 141.24 2797.70
   05:41:40.937.18-Jan-2020 3717.66 4263.15 78.21 2.00 141.44 2797.70
   05:41:41.137.18-Jan-2020 3717.66 4263.19 78.21 2.00 141.64 2797.70
   05:41:41.337.18-Jan-2020 3717.66 4263.16 78.21 2.00 141.84 2797.70
   05:41:41.537.18-Jan-2020 3717.66 4263.13 78.21 2.00 142.04 2797.70
   05:41:41.737.18-Jan-2020 3717.66 4263.13 78.21 2.00 142.24 2797.70
   05:41:41.937.18-Jan-2020 3717.66 4263.21 78.21 2.00 142.44 2797.70
   05:41:42.137.18-Jan-2020 3717.66 4263.17 78.21 2.00 142.64 2797.70
   05:41:42.337.18-Jan-2020 3717.66 4263.01 78.21 2.00 142.84 2797.70
   05:41:42.537.18-Jan-2020 3717.66 4263.44 78.21 2.00 143.04 2797.70
   05:41:42.737.18-Jan-2020 3717.66 4263.44 78.21 2.00 143.24 2797.70
   05:41:42.937.18-Jan-2020 3717.66 4263.21 78.21 2.00 143.44 2797.70
   05:41:43.137.18-Jan-2020 3717.66 4263.19 78.21 2.00 143.64 2797.70
   05:41:43.337.18-Jan-2020 3717.66 4263.09 78.21 2.00 143.84 2797.70
   05:41:43.538.18-Jan-2020 3717.66 4263.25 78.21 2.00 144.04 2797.70
   05:41:43.738.18-Jan-2020 3717.66 4263.25 78.21 2.00 144.24 2797.70
   05:41:43.938.18-Jan-2020 3717.66 4263.00 78.21 2.00 144.44 2797.70
   05:41:44.138.18-Jan-2020 3717.66 4263.21 78.21 2.00 144.64 2797.70
   05:41:44.338.18-Jan-2020 3717.66 4262.94 78.21 2.00 144.84 2797.70
   05:41:44.538.18-Jan-2020 3717.66 4263.34 78.21 2.00 145.04 2797.70
   05:41:44.738.18-Jan-2020 3717.66 4263.34 78.21 2.00 145.24 2797.70
   05:41:44.938.18-Jan-2020 3717.66 4263.22 78.21 2.00 145.44 2797.70
   05:41:45.138.18-Jan-2020 3717.66 4263.22 78.21 2.00 145.64 2797.70
   05:41:45.338.18-Jan-2020 3717.66 4263.05 78.21 2.00 145.84 2797.70
   05:41:45.538.18-Jan-2020 3717.66 4263.25 78.21 2.00 146.04 2797.70
   05:41:45.738.18-Jan-2020 3717.66 4263.25 78.21 2.00 146.24 2797.70
   05:41:45.938.18-Jan-2020 3717.66 4263.28 78.21 2.00 146.44 2797.70
   05:41:46.138.18-Jan-2020 3717.66 4263.12 78.21 2.00 146.64 2797.70
   05:41:46.338.18-Jan-2020 3717.66 4263.21 78.21 2.00 146.84 2797.70
   05:41:46.538.18-Jan-2020 3717.66 4263.24 78.21 2.00 147.04 2797.70
   05:41:46.738.18-Jan-2020 3717.66 4263.24 78.21 2.00 147.24 2797.70
   05:41:46.939.18-Jan-2020 3717.66 4263.24 78.21 2.00 147.44 2797.70
   05:41:47.139.18-Jan-2020 3717.66 4263.21 78.21 2.00 147.64 2797.70
   05:41:47.339.18-Jan-2020 3717.66 4263.24 78.21 2.00 147.84 2797.70
   05:41:47.539.18-Jan-2020 3717.66 4263.17 78.21 2.00 148.04 2797.70
   05:41:47.739.18-Jan-2020 3717.66 4263.17 78.21 2.00 148.24 2797.70
   05:41:47.939.18-Jan-2020 3717.66 4263.16 78.21 2.00 148.44 2797.70
   05:41:48.139.18-Jan-2020 3717.66 4263.20 78.21 2.00 148.64 2797.70
   05:41:48.339.18-Jan-2020 3717.66 4263.24 78.21 2.00 148.84 2797.70
   05:41:48.539.18-Jan-2020 3717.66 4263.18 78.21 2.00 149.04 2797.70
   05:41:48.739.18-Jan-2020 3717.66 4263.18 78.21 2.00 149.24 2797.70
   05:41:48.939.18-Jan-2020 3717.66 4263.23 78.21 2.00 149.44 2797.70
   05:41:49.139.18-Jan-2020 3717.66 4263.21 78.21 2.00 149.64 2797.70
   05:41:49.339.18-Jan-2020 3717.66 4263.33 78.21 2.00 149.84 2797.70
   05:41:49.539.18-Jan-2020 3717.66 4263.13 78.21 2.00 150.04 2797.70
   05:41:49.739.18-Jan-2020 3717.66 4263.13 78.21 2.00 150.24 2797.70
   05:41:49.939.18-Jan-2020 3717.66 4263.19 78.21 2.00 150.44 2797.70
   05:41:50.139.18-Jan-2020 3717.66 4263.17 78.21 2.00 150.64 2797.70
   05:41:50.339.18-Jan-2020 3717.66 4263.16 78.21 2.00 150.84 2797.70
   05:41:50.540.18-Jan-2020 3717.66 4263.15 78.21 2.00 151.04 2797.70
   05:41:50.740.18-Jan-2020 3717.66 4263.15 78.21 2.00 151.24 2797.70
   05:41:50.940.18-Jan-2020 3717.66 4263.21 78.21 2.00 151.44 2797.70
   05:41:51.140.18-Jan-2020 3717.66 4262.97 78.21 2.00 151.64 2797.70
   05:41:51.340.18-Jan-2020 3717.66 4263.27 78.21 2.00 151.84 2797.70
   05:41:51.540.18-Jan-2020 3717.66 4263.25 78.21 2.00 152.04 2797.70
   05:41:51.740.18-Jan-2020 3717.66 4263.25 78.21 2.00 152.24 2797.70
   05:41:51.940.18-Jan-2020 3717.66 4263.03 78.21 2.00 152.44 2797.70
   05:41:52.140.18-Jan-2020 3717.66 4263.18 78.21 2.00 152.64 2797.70
   05:41:52.340.18-Jan-2020 3717.66 4263.10 78.21 2.00 152.84 2797.70
   05:41:52.540.18-Jan-2020 3717.66 4263.42 78.21 2.00 153.04 2797.70
   05:41:52.740.18-Jan-2020 3717.66 4263.42 78.21 2.00 153.24 2797.70
   05:41:52.940.18-Jan-2020 3717.66 4263.18 78.21 2.00 153.44 2797.70
   05:41:53.140.18-Jan-2020 3717.66 4262.90 78.21 2.00 153.64 2797.70
   05:41:53.340.18-Jan-2020 3717.66 4263.25 78.21 2.00 153.84 2797.70
   05:41:53.540.18-Jan-2020 3717.66 4263.15 78.21 2.00 154.04 2797.70
   05:41:53.740.18-Jan-2020 3717.66 4263.15 78.21 2.00 154.24 2797.70
   05:41:53.940.18-Jan-2020 3717.66 4263.29 78.21 2.00 154.44 2797.70
   05:41:54.141.18-Jan-2020 3717.66 4263.20 78.21 2.00 154.64 2797.70
   05:41:54.341.18-Jan-2020 3717.66 4263.05 78.21 2.00 154.84 2797.70
   05:41:54.541.18-Jan-2020 3717.66 4263.36 78.21 2.00 155.04 2797.70
   05:41:54.741.18-Jan-2020 3717.66 4263.36 78.21 2.00 155.24 2797.70
   05:41:54.941.18-Jan-2020 3717.66 4263.13 78.21 2.00 155.44 2797.70
   05:41:55.141.18-Jan-2020 3717.66 4263.24 78.21 2.00 155.64 2797.70
   05:41:55.341.18-Jan-2020 3717.66 4263.17 78.21 2.00 155.84 2797.70
   05:41:55.541.18-Jan-2020 3717.66 4263.16 78.21 2.00 156.04 2797.70
   05:41:55.741.18-Jan-2020 3717.66 4263.16 78.21 2.00 156.24 2797.70
   05:41:55.941.18-Jan-2020 3717.66 4263.24 78.21 2.00 156.44 2797.70
   05:41:56.141.18-Jan-2020 3717.66 4263.24 78.21 2.00 156.64 2797.70
   05:41:56.341.18-Jan-2020 3717.66 4263.17 78.21 2.00 156.84 2797.70
   05:41:56.541.18-Jan-2020 3717.66 4263.15 78.21 2.00 157.04 2797.70
   05:41:56.741.18-Jan-2020 3717.66 4263.15 78.21 2.00 157.24 2797.70
   05:41:56.941.18-Jan-2020 3717.66 4263.17 78.21 2.00 157.44 2797.70
   05:41:57.141.18-Jan-2020 3717.66 4263.20 78.21 2.00 157.64 2797.70
   05:41:57.341.18-Jan-2020 3717.66 4263.22 78.21 2.00 157.84 2797.70
   05:41:57.542.18-Jan-2020 3717.66 4263.15 78.21 2.00 158.04 2797.70
   05:41:57.742.18-Jan-2020 3717.66 4263.15 78.21 2.00 158.24 2797.70
   05:41:57.942.18-Jan-2020 3717.66 4263.37 78.21 2.00 158.44 2797.70
   05:41:58.142.18-Jan-2020 3717.66 4263.20 78.21 2.00 158.64 2797.70
   05:41:58.342.18-Jan-2020 3717.66 4263.23 78.21 2.00 158.84 2797.70
   05:41:58.542.18-Jan-2020 3717.66 4263.22 78.21 2.00 159.05 2797.70
   05:41:58.742.18-Jan-2020 3717.66 4263.22 78.21 2.00 159.25 2797.70
   05:41:58.942.18-Jan-2020 3717.66 4263.21 78.21 2.00 159.45 2797.70
   05:41:59.142.18-Jan-2020 3717.66 4263.16 78.21 2.00 159.65 2797.70
   05:41:59.342.18-Jan-2020 3717.66 4263.14 78.21 2.00 159.85 2797.70
   05:41:59.542.18-Jan-2020 3717.66 4263.21 78.21 2.00 160.05 2797.70
   05:41:59.742.18-Jan-2020 3717.66 4263.21 78.21 2.00 160.25 2797.70
   05:41:59.942.18-Jan-2020 3717.66 4263.15 78.21 2.00 160.45 2797.70
   05:42:00.142.18-Jan-2020 3717.66 4262.98 78.21 2.00 160.65 2797.70
   05:42:00.342.18-Jan-2020 3717.66 4263.43 78.21 2.00 160.85 2797.70
