~Version Information
 VERS.                  2.0:   CWLS log ASCII Standard -VERSION 2.0
 WRAP.                   NO:   One line per depth step
~Well Information Block
#MNEM.UNIT     VALUE/NAME     DESCRIPTION
#---------     -----------    ---------------------------
 STRT.S             09:16:51 18-Jan-20: START TIME 09:16:51 18-Jan-20
 STOP.S             09:25:06 18-Jan-20: STOP TIME  09:25:06 18-Jan-20
 STEP.S                   0.00: STEP TIME
 NULL.                 -999.25: NULL VALUE
 DFWT.                        :  DIST FWL TEXT
 DFST.                        :  DIST FSL TEXT
 DMF .             Drill Floor:  DRILL MEAS FROM
 STIM.      09.30.00 26-Dec-19:  START TIME
 DATE.      08.00.00 20-Jan-20:  END TIME
 SPUD.               23-Nov-19:  SPUD DATE
 NREF.                    Grid:  NORTH REFERENCE
 HPTY.       Minimum Curvature:  HOLE POS TYPE
 DMOD.             Drill Model:  DRILL MOD DESC
 SVYD.                  Survey:  SURVEY DESC
 ILTD.               Lithology:  INTERP LTH DESC
 FTOP.          Formation Tops:  FORM TOPS DESC
 SON .        AZ-XX-0906192647:  JOB NUMBER
 WTYP.                Deviated:  WELL TYPE
 COMP.     BP Exploration (Caspian Sea) Ltd:  COMPANY
 BASE.              Azerbaijan:  LOGGING EQUIPMENT BASE LOCATION
 REGN.                 Eurasia:  REGION
 FLD .                     ACG:  FIELD NAME
 SRVC.              KCA Deutag:  CONTRACTOR
 MWDS.                    Baku:  MWD SHOP
 WELL.     A10 (Slot 20) - SCP:  WELL NAME
 JOBN.        AZ-XX-0906192647:  JOB TICKET NUMB
 RIG .                 Chirag1:  RIG NAME
 DCON.     Halliburton Sperry Drilling:  DIRECTNL CONTR
 UNIT.                     N/A:  LOGGING EQUIPMENT ID
 PDAT.          Mean Sea Level:  PERMANENT DATUM
 MDS .        Operator Entered:  MAG DATA SOURCE
 CTRY.              Azerbaijan:  COUNTRY NAME
 UWI .            /AZE00000090:  UNIQUE WELL IDENTIFIER
 API .            /AZE00000090:  API NUMBER
 CNTY.                        :  COUNTY
 PROV.                        :  PROVINCE
 STAT.                        :  STATE
 LOC .                        :  LOCATION
 LMF .             Drill Floor:  LOG MEASURED FROM
 TVDS.m                  36.60:  TVDSS CORRECTN
 LATI.deg                40.08:  LATITUDE
 LONG.deg                51.24:  LONGITUDE
 WHNS.m                  -7.94:  WELL HEAD N/S
 WHEW.m                   1.56:  WELL HEAD E/W
 UTMX.m              520429.26:  UTM X
 UTMY.m             4438973.87:  UTM Y
 DFWL.m                   0.00:  DISTANCE FWL
 DFSL.m                   0.00:  DISTANCE FSL
 SDEP.m                1455.00:  START DEPTH
 TDD .m                3878.01:  TOTAL DEPTH (DRILLER)
 VSDR.deg               112.75:  VERT SEC DIRECT
 GVFD.g                   1.00:  GRAVITY FIELD
 MFLD.nT              50256.00:  MAGNETIC FIELD
 MDIP.deg                59.52:  MAGNETIC DIP
 MDEC.deg                 6.43:  MAGNETIC DECL
 GRDC.deg                 0.16:  GRID CORRECTION
 AZTC.deg                 6.27:  AZM TOTAL CORR
 EPD .m                   0.00:  ELEVATION
 EGL .m                   0.00:  GROUND ELEVATION
 WDMS.m                 121.00:  WD ELEV
 APD .m                  36.60:  DEPTH ABOVE PD
 AGAP.m                  36.60:  AIR GAP
 VSEW.m                   1.56:  VERT SEC E/W
 VSNS.m                  -7.94:  VERT SEC N/S
 DEP .m                1140.01:  DEPTH
 EKB .m                  36.60:  KB ELEVATION
 EDF .m                  36.60:  DF ELEVATION
 TDL .m                1293.00:  TOTAL DEPTH (LOGGER)
 VSC .                       0:  VS TO CLOSURE
 MAGU.                 1849164:  MAGUTM CHECKSUM
~Parameter Information Block
#MNEM.UNIT       Value        Description
#---------     -----------    ---------------------------
 AV  .mps                 2.40:  Ann Velocity 
 AVMX.mps                 2.55:  Max Ann Veloc 
 AZIF.deg               134.35:  Azm, Final 
 BHAT.        Rotary Steerable:  BHA Type 
 BREV.rev               847.00:  Rev Bit Total 
 BROT.°/30m              -2.51:  Build Rotating 
 BS  .in                  8.50:  Bit Size 
 BSZ .in                  8.50:  Bit Size 
 BTPL.psig              700.00:  Bit Press Loss 
 CABU.                     Yes:  Customer Abuse 
 CGEO.          Ilgar Gurbanov:  Customer Geo 
 COMM.                     Áo:  Run Comments 1 
 TCS .hr                140.40:  Time Ciculation Ended 
 CV  .mps                 2.27:  Crit Velocity 
 CVMX.mps                 2.45:  Max Crit Veloc 
 DD1 .         Intigam Rahimov:  Direct Drillr 1 
 DD2 .         Rasim Ibrahimov:  Direct Drillr 2 
 DDSV.                 iCruise:  DD Service 
 DEFF.%                  99.00:  % Det Eff 
 DLRX.°/30m               3.28:  Dogleg Rot Max 
 DLSO.°/30m               0.00:  Dogleg Oriented 
 DLSX.°/30m               0.00:  Dogleg Str Max 
 DRET.      23.30.00 18-Jan-20:  Drill End Time 
 DRST.      01.45.00 11-Jan-20:  Drill Start Tim 
 DTIM.hr                 94.00:  Time Drilling 
 EDEP.m                3878.01:  End Depth 
 ENG1.       Dauren Baktybayev:  Engineer 1 
 ENG2.      Natik Hasanaghayev:  Engineer 2 
 ENG3.          Rustam Safarov:  Engineer 3 
 ETIM.      08.00.00 20-Jan-20:  End Time 
 FLOI.gpm               532.00:  Flow In 
 FLON.gpm               500.00:  Flow In Min 
 FLOS.cptm                0.00:  Fluid Loss 
 FLOX.gpm               540.00:  Flow In Max 
 FTRO.       Formation Presure:  FTWD Run Obj 
 HPRE.                     Yes:  High Pressure 
 HTEM.                      No:  High Temp 
 HYDO.m                   1.80:  Hydro Offset 
 IFIN.deg                39.86:  Inc, Final 
 IMAX.deg                59.73:  Inc Max 
 IMIN.deg                39.25:  Inc Min 
 IMND.m                3816.77:  Inc Min Depth 
 IMXD.m                2596.33:  Inc Max Depth 
 JARR.                      No:  Jarring 
 LETM.      23.30.00 18-Jan-20:  Log End Time 
 LOST.hr                     0:  Lost Rig Time 
 LSTM.      01.45.00 11-Jan-20:  Log Start Time 
 MDCL.ppm             41500.00:  Mud Chlorides 
 MDES.     Inversion Oil/Synthetic:  Mud Desc 
 DFD .sg                  1.48:  Mud Density 
 MDMN.sg                  1.48:  Dens Mud Min 
 MDMX.sg                  1.48:  Dens Mud Max 
 MOIL.                      54:  Run Mud Oil % 
 MOWR.                   72:28:  Run Mud OWR 
 MSND.                       0:  Run Mud Sand % 
 MSOL.                      23:  Run Mud Solids% 
 DFV .spqt               86.00:  Mud Viscosity 
 MWOD.in                  6.75:  MWD Tool OD 
 MWSI.                      No:  Serv Intrp, MWD 
 OTIM.hr                223.40:  Time Operating 
 PCON.           Look Like New:  Pad Condition 
 PMAX.psia            32446.79:  Press Op, Max 
 PV  .cP                 49.00:  Mud PV 
 RUN .                     200:  Run Number 
 ROPA.m/hr               12.48:  ROP Avg 
 ROPN.m/hr                8.00:  ROP Min 
 ROPX.m/hr               27.00:  ROP Max 
 RPMA.rpm               121.00:  RPM Surface Avg 
 RPMN.rpm                60.00:  RPM Surface Min 
 RPMX.rpm               140.00:  RPM Surface Max 
 RRUN.                    L202:  Rig Run Number 
 RTIM.hr                  7.25:  Time Reaming 
 SAZI.deg               123.49:  Azm, Start 
 SDEP.m                2585.01:  Start Depth 
 SIDD.                      No:  Serv Intrp, DD 
 SINC.deg                59.93:  Inc, Start 
 SPPA.psig             3539.00:  SPP Avg 
 SPPN.psig             3050.00:  SPP Min 
 SPPX.psig             3950.00:  SPP Max 
 STIM.      19.00.00 10-Jan-20:  Start Time 
 SVCS.                 DD, MWD:  Services 
 SVER.                    9.20:  Sperry Version 
 TDAT.m                1293.00:  Tot Depth Attmp 
 TDDF.                      No:  Trip for DD 
 TDLG.m                1293.00:  Tot Depth Loggd 
 TFF .                      No:  Trip for Fail 
 TQAA.f-kp               16.00:  Torque Abs Avg 
 TQAN.f-kp               11.00:  Torque Abs Min 
 TQAX.f-kp               18.00:  Torque Abs Max 
 TRRT.°/30m               1.25:  Turn Rotating 
 MRT .                  EWR-M5:  Maximum Recorded Temperature 
 TTMX.degC               84.00:  Max Tool Temp 
 VS01.          AZ90514619R5C6:  Virtual Str1 SN 
 VS02.        AZ90552592N2L2C6:  Virtual Str2 SN 
 VS03.        AZ90571337Z1W1C6:  Virtual Str3 SN 
 VS04.         AZ90513690K23C6:  Virtual Str4 SN 
 VS05.           AZ90594857F11:  Virtual Str5 SN 
 VS06.                13102166:  Virtual Str6 SN 
 WBMN.klb                 7.00:  WOB Min 
 WITN.            Peter Wilson:  Customer Rep 
 WOBA.klb                 9.95:  WOB Avg 
 WOBX.klb                10.00:  WOB Max 
 YP  .lhf2               36.00:  Yield Point 
~Curve Information Block
#MNEM.UNIT                 API CODE     Curve Description
#---------               -----------    ---------------------------
 TIME.HHMMSS            00 000 000 000:  GT Time & Date
 GTDEPTH.m              00 000 000 000:  GT Depth
 GTPQH.psia             00 000 000 000:  GT HR Quartz Pressure
 GTTQ.degC              00 000 000 000:  GT Quartz Temperature
 GTTN.NONE              00 000 000 000:  GT Test Number
 GTET.sec               00 000 000 000:  GT Elapsed Test Time
 GTTVD.m                00 000 000 000:  GT True Vertical Depth
#Other Information
#
#WARRANTY: Halliburton will use its best efforts to furnish customers with 
#accurate information and interpretations that are part of, and incident to, the services 
#provided.  However, Halliburton cannot and does not warrant the accuracy 
#or correctness of such information and interpretations.  Under no circumstances should any 
#such information or interpretation be relied upon as the sole basis for any drilling, 
#completion, production, or financial decision or any procedure involving any risk to the 
#safety of any drilling venture, drilling rig or its crew or any other third party.  The 
#Customer has full responsibility for all drilling, completion and production operation.  
#Halliburton makes no representations or warranties, either expressed or 
#implied, including, but not limited to, the implied warranties of merchantability or fitness 
#for a particular purpose, with respect to the services rendered.  In no event will 
#Halliburton be liable for failure to obtain any particular results or for 
#any damages, including, but not limited to, indirect, special or consequential damages, 
#resulting from the use of any information or interpretation provided by Halliburton.
#
~A           TIME           GTDEPTH  GTPQH  GTTQ  GTTN  GTET   GTTVD  
# ...
   09:23:22.865.18-Jan-2020 3746.01 3686.44 80.97 3.00 391.07 2818.83
   09:23:23.065.18-Jan-2020 3746.01 3686.44 80.97 3.00 391.27 2818.83
   09:23:23.265.18-Jan-2020 3746.01 3686.43 80.97 3.00 391.47 2818.83
   09:23:23.465.18-Jan-2020 3746.01 3686.13 80.97 3.00 391.67 2818.83
   09:23:23.665.18-Jan-2020 3746.01 3686.37 80.97 3.00 391.87 2818.83
   09:23:23.865.18-Jan-2020 3746.01 3686.37 80.97 3.00 392.07 2818.83
   09:23:24.065.18-Jan-2020 3746.01 3686.37 80.97 3.00 392.27 2818.83
   09:23:24.265.18-Jan-2020 3746.01 3686.30 80.97 3.00 392.47 2818.83
   09:23:24.465.18-Jan-2020 3746.01 3686.26 80.97 3.00 392.67 2818.83
   09:23:24.666.18-Jan-2020 3746.01 3686.35 80.97 3.00 392.87 2818.83
   09:23:24.866.18-Jan-2020 3746.01 3686.38 80.97 3.00 393.07 2818.83
   09:23:25.066.18-Jan-2020 3746.01 3686.38 80.97 3.00 393.27 2818.83
   09:23:25.266.18-Jan-2020 3746.01 3686.57 80.97 3.00 393.47 2818.83
   09:23:25.466.18-Jan-2020 3746.01 3686.35 80.97 3.00 393.67 2818.83
   09:23:25.666.18-Jan-2020 3746.01 3686.57 80.97 3.00 393.87 2818.83
   09:23:25.866.18-Jan-2020 3746.01 3686.58 80.97 3.00 394.07 2818.83
   09:23:26.066.18-Jan-2020 3746.01 3686.58 80.97 3.00 394.27 2818.83
   09:23:26.266.18-Jan-2020 3746.01 3686.25 80.97 3.00 394.47 2818.83
   09:23:26.466.18-Jan-2020 3746.01 3686.39 80.97 3.00 394.67 2818.83
   09:23:26.666.18-Jan-2020 3746.01 3686.42 80.97 3.00 394.87 2818.83
   09:23:26.866.18-Jan-2020 3746.01 3686.69 80.97 3.00 395.07 2818.83
   09:23:27.066.18-Jan-2020 3746.01 3686.69 80.97 3.00 395.27 2818.83
   09:23:27.266.18-Jan-2020 3746.01 3686.52 80.97 3.00 395.47 2818.83
   09:23:27.466.18-Jan-2020 3746.01 3686.09 80.96 3.00 395.67 2818.83
   09:23:27.666.18-Jan-2020 3746.01 3686.53 80.96 3.00 395.87 2818.83
   09:23:27.866.18-Jan-2020 3746.01 3686.37 80.96 3.00 396.07 2818.83
   09:23:28.066.18-Jan-2020 3746.01 3686.37 80.96 3.00 396.27 2818.83
   09:23:28.266.18-Jan-2020 3746.01 3686.26 80.96 3.00 396.47 2818.83
   09:23:28.466.18-Jan-2020 3746.01 3686.55 80.96 3.00 396.67 2818.83
   09:23:28.666.18-Jan-2020 3746.01 3686.40 80.96 3.00 396.87 2818.83
   09:23:28.866.18-Jan-2020 3746.01 3686.21 80.96 3.00 397.07 2818.83
   09:23:29.066.18-Jan-2020 3746.01 3686.21 80.96 3.00 397.27 2818.83
   09:23:29.266.18-Jan-2020 3746.01 3686.18 80.96 3.00 397.47 2818.83
   09:23:29.466.18-Jan-2020 3746.01 3686.48 80.96 3.00 397.67 2818.83
   09:23:29.666.18-Jan-2020 3746.01 3686.30 80.96 3.00 397.87 2818.83
   09:23:29.866.18-Jan-2020 3746.01 3686.40 80.96 3.00 398.07 2818.83
   09:23:30.066.18-Jan-2020 3746.01 3686.40 80.96 3.00 398.27 2818.83
   09:23:30.266.18-Jan-2020 3746.01 3686.32 80.96 3.00 398.47 2818.83
   09:23:30.467.18-Jan-2020 3746.01 3686.20 80.96 3.00 398.67 2818.83
   09:23:30.667.18-Jan-2020 3746.01 3686.40 80.96 3.00 398.87 2818.83
   09:23:30.867.18-Jan-2020 3746.01 3686.30 80.96 3.00 399.07 2818.83
   09:23:31.067.18-Jan-2020 3746.01 3686.30 80.96 3.00 399.27 2818.83
   09:23:31.267.18-Jan-2020 3746.01 3686.33 80.96 3.00 399.47 2818.83
   09:23:31.467.18-Jan-2020 3746.01 3686.60 80.96 3.00 399.67 2818.83
   09:23:31.667.18-Jan-2020 3746.01 3686.53 80.96 3.00 399.87 2818.83
   09:23:31.867.18-Jan-2020 3746.01 3686.19 80.96 3.00 400.07 2818.83
   09:23:32.067.18-Jan-2020 3746.01 3686.19 80.96 3.00 400.27 2818.83
   09:23:32.267.18-Jan-2020 3746.01 3686.36 80.96 3.00 400.47 2818.83
   09:23:32.467.18-Jan-2020 3746.01 3686.24 80.96 3.00 400.67 2818.83
   09:23:32.667.18-Jan-2020 3746.01 3686.32 80.96 3.00 400.87 2818.83
   09:23:32.867.18-Jan-2020 3746.01 3686.35 80.96 3.00 401.07 2818.83
   09:23:33.067.18-Jan-2020 3746.01 3686.35 80.96 3.00 401.27 2818.83
   09:23:33.267.18-Jan-2020 3746.01 3686.28 80.95 3.00 401.47 2818.83
   09:23:33.467.18-Jan-2020 3746.01 3686.26 80.95 3.00 401.67 2818.83
   09:23:33.667.18-Jan-2020 3746.01 3686.44 80.95 3.00 401.87 2818.83
   09:23:33.867.18-Jan-2020 3746.01 3686.66 80.95 3.00 402.07 2818.83
   09:23:34.067.18-Jan-2020 3746.01 3686.66 80.95 3.00 402.27 2818.83
   09:23:34.267.18-Jan-2020 3746.01 3686.61 80.95 3.00 402.47 2818.83
   09:23:34.467.18-Jan-2020 3746.01 3686.16 80.95 3.00 402.67 2818.83
   09:23:34.667.18-Jan-2020 3746.01 3686.36 80.95 3.00 402.87 2818.83
   09:23:34.867.18-Jan-2020 3746.01 3686.37 80.95 3.00 403.07 2818.83
   09:23:35.067.18-Jan-2020 3746.01 3686.37 80.95 3.00 403.27 2818.83
   09:23:35.267.18-Jan-2020 3746.01 3686.15 80.95 3.00 403.47 2818.83
   09:23:35.467.18-Jan-2020 3746.01 3686.38 80.95 3.00 403.67 2818.83
   09:23:35.667.18-Jan-2020 3746.01 3686.41 80.95 3.00 403.87 2818.83
   09:23:35.867.18-Jan-2020 3746.01 3686.45 80.95 3.00 404.07 2818.83
   09:23:36.067.18-Jan-2020 3746.01 3686.45 80.95 3.00 404.27 2818.83
   09:23:36.268.18-Jan-2020 3746.01 3686.37 80.95 3.00 404.47 2818.83
   09:23:36.468.18-Jan-2020 3746.01 3686.43 80.95 3.00 404.67 2818.83
   09:23:36.668.18-Jan-2020 3746.01 3686.27 80.95 3.00 404.87 2818.83
   09:23:36.868.18-Jan-2020 3746.01 3686.68 80.95 3.00 405.07 2818.83
   09:23:37.068.18-Jan-2020 3746.01 3686.68 80.95 3.00 405.27 2818.83
   09:23:37.268.18-Jan-2020 3746.01 3686.29 80.95 3.00 405.47 2818.83
   09:23:37.468.18-Jan-2020 3746.01 3686.23 80.95 3.00 405.67 2818.83
   09:23:37.668.18-Jan-2020 3746.01 3686.47 80.95 3.00 405.87 2818.83
   09:23:37.868.18-Jan-2020 3746.01 3686.23 80.95 3.00 406.07 2818.83
   09:23:38.068.18-Jan-2020 3746.01 3686.23 80.95 3.00 406.27 2818.83
   09:23:38.268.18-Jan-2020 3746.01 3686.21 80.95 3.00 406.47 2818.83
   09:23:38.468.18-Jan-2020 3746.01 3686.39 80.95 3.00 406.67 2818.83
   09:23:38.668.18-Jan-2020 3746.01 3686.43 80.95 3.00 406.87 2818.83
   09:23:38.868.18-Jan-2020 3746.01 3686.28 80.94 3.00 407.07 2818.83
   09:23:39.068.18-Jan-2020 3746.01 3686.28 80.94 3.00 407.27 2818.83
   09:23:39.268.18-Jan-2020 3746.01 3686.18 80.94 3.00 407.47 2818.83
   09:23:39.468.18-Jan-2020 3746.01 3686.36 80.94 3.00 407.67 2818.83
   09:23:39.668.18-Jan-2020 3746.01 3686.30 80.94 3.00 407.87 2818.83
   09:23:39.868.18-Jan-2020 3746.01 3686.40 80.94 3.00 408.07 2818.83
   09:23:40.068.18-Jan-2020 3746.01 3686.40 80.94 3.00 408.27 2818.83
   09:23:40.268.18-Jan-2020 3746.01 3686.34 80.94 3.00 408.47 2818.83
   09:23:40.468.18-Jan-2020 3746.01 3686.30 80.94 3.00 408.67 2818.83
   09:23:40.668.18-Jan-2020 3746.01 3686.47 80.94 3.00 408.87 2818.83
   09:23:40.868.18-Jan-2020 3746.01 3686.55 80.94 3.00 409.07 2818.83
   09:23:41.068.18-Jan-2020 3746.01 3686.55 80.94 3.00 409.27 2818.83
   09:23:41.268.18-Jan-2020 3746.01 3686.41 80.94 3.00 409.47 2818.83
   09:23:41.468.18-Jan-2020 3746.01 3686.18 80.94 3.00 409.67 2818.83
   09:23:41.668.18-Jan-2020 3746.01 3686.37 80.94 3.00 409.87 2818.83
   09:23:41.868.18-Jan-2020 3746.01 3686.27 80.94 3.00 410.07 2818.83
   09:23:42.068.18-Jan-2020 3746.01 3686.27 80.94 3.00 410.27 2818.83
   09:23:42.269.18-Jan-2020 3746.01 3686.27 80.94 3.00 410.47 2818.83
   09:23:42.469.18-Jan-2020 3746.01 3686.27 80.94 3.00 410.67 2818.83
   09:23:42.669.18-Jan-2020 3746.01 3686.40 80.94 3.00 410.87 2818.83
   09:23:42.869.18-Jan-2020 3746.01 3686.44 80.94 3.00 411.07 2818.83
   09:23:43.069.18-Jan-2020 3746.01 3686.44 80.94 3.00 411.27 2818.83
   09:23:43.269.18-Jan-2020 3746.01 3686.50 80.94 3.00 411.47 2818.83
   09:23:43.469.18-Jan-2020 3746.01 3686.60 80.94 3.00 411.67 2818.83
   09:23:43.669.18-Jan-2020 3746.01 3686.45 80.94 3.00 411.87 2818.83
   09:23:43.869.18-Jan-2020 3746.01 3686.20 80.94 3.00 412.07 2818.83
   09:23:44.069.18-Jan-2020 3746.01 3686.20 80.94 3.00 412.27 2818.83
   09:23:44.269.18-Jan-2020 3746.01 3686.30 80.94 3.00 412.47 2818.83
   09:23:44.469.18-Jan-2020 3746.01 3686.19 80.94 3.00 412.67 2818.83
   09:23:44.669.18-Jan-2020 3746.01 3686.69 80.94 3.00 412.87 2818.83
   09:23:44.869.18-Jan-2020 3746.01 3686.37 80.93 3.00 413.07 2818.83
   09:23:45.069.18-Jan-2020 3746.01 3686.37 80.93 3.00 413.27 2818.83
   09:23:45.269.18-Jan-2020 3746.01 3686.10 80.93 3.00 413.47 2818.83
   09:23:45.469.18-Jan-2020 3746.01 3686.53 80.93 3.00 413.67 2818.83
   09:23:45.669.18-Jan-2020 3746.01 3686.36 80.93 3.00 413.87 2818.83
