~Version Information
 VERS.                  2.0:   CWLS log ASCII Standard -VERSION 2.0
 WRAP.                   NO:   One line per depth step
~Well Information Block
#MNEM.UNIT     VALUE/NAME     DESCRIPTION
#---------     -----------    ---------------------------
 STRT.S             13:31:21 18-Jan-20: START TIME 13:31:21 18-Jan-20
 STOP.S             13:39:29 18-Jan-20: STOP TIME  13:39:29 18-Jan-20
 STEP.S                   0.00: STEP TIME
 NULL.                 -999.25: NULL VALUE
 DFWT.                        :  DIST FWL TEXT
 DFST.                        :  DIST FSL TEXT
 DMF .             Drill Floor:  DRILL MEAS FROM
 STIM.      09.30.00 26-Dec-19:  START TIME
 DATE.      08.00.00 20-Jan-20:  END TIME
 SPUD.               23-Nov-19:  SPUD DATE
 NREF.                    Grid:  NORTH REFERENCE
 HPTY.       Minimum Curvature:  HOLE POS TYPE
 DMOD.             Drill Model:  DRILL MOD DESC
 SVYD.                  Survey:  SURVEY DESC
 ILTD.               Lithology:  INTERP LTH DESC
 FTOP.          Formation Tops:  FORM TOPS DESC
 SON .        AZ-XX-0906192647:  JOB NUMBER
 WTYP.                Deviated:  WELL TYPE
 COMP.     BP Exploration (Caspian Sea) Ltd:  COMPANY
 BASE.              Azerbaijan:  LOGGING EQUIPMENT BASE LOCATION
 REGN.                 Eurasia:  REGION
 FLD .                     ACG:  FIELD NAME
 SRVC.              KCA Deutag:  CONTRACTOR
 MWDS.                    Baku:  MWD SHOP
 WELL.     A10 (Slot 20) - SCP:  WELL NAME
 JOBN.        AZ-XX-0906192647:  JOB TICKET NUMB
 RIG .                 Chirag1:  RIG NAME
 DCON.     Halliburton Sperry Drilling:  DIRECTNL CONTR
 UNIT.                     N/A:  LOGGING EQUIPMENT ID
 PDAT.          Mean Sea Level:  PERMANENT DATUM
 MDS .        Operator Entered:  MAG DATA SOURCE
 CTRY.              Azerbaijan:  COUNTRY NAME
 UWI .            /AZE00000090:  UNIQUE WELL IDENTIFIER
 API .            /AZE00000090:  API NUMBER
 CNTY.                        :  COUNTY
 PROV.                        :  PROVINCE
 STAT.                        :  STATE
 LOC .                        :  LOCATION
 LMF .             Drill Floor:  LOG MEASURED FROM
 TVDS.m                  36.60:  TVDSS CORRECTN
 LATI.deg                40.08:  LATITUDE
 LONG.deg                51.24:  LONGITUDE
 WHNS.m                  -7.94:  WELL HEAD N/S
 WHEW.m                   1.56:  WELL HEAD E/W
 UTMX.m              520429.26:  UTM X
 UTMY.m             4438973.87:  UTM Y
 DFWL.m                   0.00:  DISTANCE FWL
 DFSL.m                   0.00:  DISTANCE FSL
 SDEP.m                1455.00:  START DEPTH
 TDD .m                3878.01:  TOTAL DEPTH (DRILLER)
 VSDR.deg               112.75:  VERT SEC DIRECT
 GVFD.g                   1.00:  GRAVITY FIELD
 MFLD.nT              50256.00:  MAGNETIC FIELD
 MDIP.deg                59.52:  MAGNETIC DIP
 MDEC.deg                 6.43:  MAGNETIC DECL
 GRDC.deg                 0.16:  GRID CORRECTION
 AZTC.deg                 6.27:  AZM TOTAL CORR
 EPD .m                   0.00:  ELEVATION
 EGL .m                   0.00:  GROUND ELEVATION
 WDMS.m                 121.00:  WD ELEV
 APD .m                  36.60:  DEPTH ABOVE PD
 AGAP.m                  36.60:  AIR GAP
 VSEW.m                   1.56:  VERT SEC E/W
 VSNS.m                  -7.94:  VERT SEC N/S
 DEP .m                1140.01:  DEPTH
 EKB .m                  36.60:  KB ELEVATION
 EDF .m                  36.60:  DF ELEVATION
 TDL .m                1293.00:  TOTAL DEPTH (LOGGER)
 VSC .                       0:  VS TO CLOSURE
 MAGU.                 1849164:  MAGUTM CHECKSUM
~Parameter Information Block
#MNEM.UNIT       Value        Description
#---------     -----------    ---------------------------
 AV  .mps                 2.40:  Ann Velocity 
 AVMX.mps                 2.55:  Max Ann Veloc 
 AZIF.deg               134.35:  Azm, Final 
 BHAT.        Rotary Steerable:  BHA Type 
 BREV.rev               847.00:  Rev Bit Total 
 BROT.°/30m              -2.51:  Build Rotating 
 BS  .in                  8.50:  Bit Size 
 BSZ .in                  8.50:  Bit Size 
 BTPL.psig              700.00:  Bit Press Loss 
 CABU.                     Yes:  Customer Abuse 
 CGEO.          Ilgar Gurbanov:  Customer Geo 
 COMM.                     ¸P:  Run Comments 1 
 TCS .hr                140.40:  Time Ciculation Ended 
 CV  .mps                 2.27:  Crit Velocity 
 CVMX.mps                 2.45:  Max Crit Veloc 
 DD1 .         Intigam Rahimov:  Direct Drillr 1 
 DD2 .         Rasim Ibrahimov:  Direct Drillr 2 
 DDSV.                 iCruise:  DD Service 
 DEFF.%                  99.00:  % Det Eff 
 DLRX.°/30m               3.28:  Dogleg Rot Max 
 DLSO.°/30m               0.00:  Dogleg Oriented 
 DLSX.°/30m               0.00:  Dogleg Str Max 
 DRET.      23.30.00 18-Jan-20:  Drill End Time 
 DRST.      01.45.00 11-Jan-20:  Drill Start Tim 
 DTIM.hr                 94.00:  Time Drilling 
 EDEP.m                3878.01:  End Depth 
 ENG1.       Dauren Baktybayev:  Engineer 1 
 ENG2.      Natik Hasanaghayev:  Engineer 2 
 ENG3.          Rustam Safarov:  Engineer 3 
 ETIM.      08.00.00 20-Jan-20:  End Time 
 FLOI.gpm               532.00:  Flow In 
 FLON.gpm               500.00:  Flow In Min 
 FLOS.cptm                0.00:  Fluid Loss 
 FLOX.gpm               540.00:  Flow In Max 
 FTRO.       Formation Presure:  FTWD Run Obj 
 HPRE.                     Yes:  High Pressure 
 HTEM.                      No:  High Temp 
 HYDO.m                   1.80:  Hydro Offset 
 IFIN.deg                39.86:  Inc, Final 
 IMAX.deg                59.73:  Inc Max 
 IMIN.deg                39.25:  Inc Min 
 IMND.m                3816.77:  Inc Min Depth 
 IMXD.m                2596.33:  Inc Max Depth 
 JARR.                      No:  Jarring 
 LETM.      23.30.00 18-Jan-20:  Log End Time 
 LOST.hr                     0:  Lost Rig Time 
 LSTM.      01.45.00 11-Jan-20:  Log Start Time 
 MDCL.ppm             41500.00:  Mud Chlorides 
 MDES.     Inversion Oil/Synthetic:  Mud Desc 
 DFD .sg                  1.48:  Mud Density 
 MDMN.sg                  1.48:  Dens Mud Min 
 MDMX.sg                  1.48:  Dens Mud Max 
 MOIL.                      54:  Run Mud Oil % 
 MOWR.                   72:28:  Run Mud OWR 
 MSND.                       0:  Run Mud Sand % 
 MSOL.                      23:  Run Mud Solids% 
 DFV .spqt               86.00:  Mud Viscosity 
 MWOD.in                  6.75:  MWD Tool OD 
 MWSI.                      No:  Serv Intrp, MWD 
 OTIM.hr                223.40:  Time Operating 
 PCON.           Look Like New:  Pad Condition 
 PMAX.psia            32446.79:  Press Op, Max 
 PV  .cP                 49.00:  Mud PV 
 RUN .                     200:  Run Number 
 ROPA.m/hr               12.48:  ROP Avg 
 ROPN.m/hr                8.00:  ROP Min 
 ROPX.m/hr               27.00:  ROP Max 
 RPMA.rpm               121.00:  RPM Surface Avg 
 RPMN.rpm                60.00:  RPM Surface Min 
 RPMX.rpm               140.00:  RPM Surface Max 
 RRUN.                    L202:  Rig Run Number 
 RTIM.hr                  7.25:  Time Reaming 
 SAZI.deg               123.49:  Azm, Start 
 SDEP.m                2585.01:  Start Depth 
 SIDD.                      No:  Serv Intrp, DD 
 SINC.deg                59.93:  Inc, Start 
 SPPA.psig             3539.00:  SPP Avg 
 SPPN.psig             3050.00:  SPP Min 
 SPPX.psig             3950.00:  SPP Max 
 STIM.      19.00.00 10-Jan-20:  Start Time 
 SVCS.                 DD, MWD:  Services 
 SVER.                    9.20:  Sperry Version 
 TDAT.m                1293.00:  Tot Depth Attmp 
 TDDF.                      No:  Trip for DD 
 TDLG.m                1293.00:  Tot Depth Loggd 
 TFF .                      No:  Trip for Fail 
 TQAA.f-kp               16.00:  Torque Abs Avg 
 TQAN.f-kp               11.00:  Torque Abs Min 
 TQAX.f-kp               18.00:  Torque Abs Max 
 TRRT.°/30m               1.25:  Turn Rotating 
 MRT .                  EWR-M5:  Maximum Recorded Temperature 
 TTMX.degC               84.00:  Max Tool Temp 
 VS01.          AZ90514619R5C6:  Virtual Str1 SN 
 VS02.        AZ90552592N2L2C6:  Virtual Str2 SN 
 VS03.        AZ90571337Z1W1C6:  Virtual Str3 SN 
 VS04.         AZ90513690K23C6:  Virtual Str4 SN 
 VS05.           AZ90594857F11:  Virtual Str5 SN 
 VS06.                13102166:  Virtual Str6 SN 
 WBMN.klb                 7.00:  WOB Min 
 WITN.            Peter Wilson:  Customer Rep 
 WOBA.klb                 9.95:  WOB Avg 
 WOBX.klb                10.00:  WOB Max 
 YP  .lhf2               36.00:  Yield Point 
~Curve Information Block
#MNEM.UNIT                 API CODE     Curve Description
#---------               -----------    ---------------------------
 TIME.HHMMSS            00 000 000 000:  GT Time & Date
 GTDEPTH.m              00 000 000 000:  GT Depth
 GTPQH.psia             00 000 000 000:  GT HR Quartz Pressure
 GTTQ.degC              00 000 000 000:  GT Quartz Temperature
 GTTN.NONE              00 000 000 000:  GT Test Number
 GTET.sec               00 000 000 000:  GT Elapsed Test Time
 GTTVD.m                00 000 000 000:  GT True Vertical Depth
#Other Information
#
#WARRANTY: Halliburton will use its best efforts to furnish customers with 
#accurate information and interpretations that are part of, and incident to, the services 
#provided.  However, Halliburton cannot and does not warrant the accuracy 
#or correctness of such information and interpretations.  Under no circumstances should any 
#such information or interpretation be relied upon as the sole basis for any drilling, 
#completion, production, or financial decision or any procedure involving any risk to the 
#safety of any drilling venture, drilling rig or its crew or any other third party.  The 
#Customer has full responsibility for all drilling, completion and production operation.  
#Halliburton makes no representations or warranties, either expressed or 
#implied, including, but not limited to, the implied warranties of merchantability or fitness 
#for a particular purpose, with respect to the services rendered.  In no event will 
#Halliburton be liable for failure to obtain any particular results or for 
#any damages, including, but not limited to, indirect, special or consequential damages, 
#resulting from the use of any information or interpretation provided by Halliburton.
#
~A           TIME           GTDEPTH  GTPQH  GTTQ  GTTN  GTET   GTTVD  
# ...
   13:32:30.157.18-Jan-2020 3754.51  592.00 81.24 4.00  69.02 2825.33
   13:32:30.357.18-Jan-2020 3754.51  592.00 81.24 4.00  69.22 2825.33
   13:32:30.557.18-Jan-2020 3754.51  592.57 81.24 4.00  69.42 2825.33
   13:32:30.757.18-Jan-2020 3754.51  592.89 81.24 4.00  69.62 2825.33
   13:32:30.957.18-Jan-2020 3754.51  593.18 81.24 4.00  69.82 2825.33
   13:32:31.157.18-Jan-2020 3754.51  592.24 81.24 4.00  70.02 2825.33
   13:32:31.357.18-Jan-2020 3754.51  592.24 81.24 4.00  70.22 2825.33
   13:32:31.557.18-Jan-2020 3754.51  595.52 81.24 4.00  70.42 2825.33
   13:32:31.758.18-Jan-2020 3754.51  596.26 81.24 4.00  70.62 2825.33
   13:32:31.958.18-Jan-2020 3754.51  596.69 81.24 4.00  70.82 2825.33
   13:32:32.158.18-Jan-2020 3754.51  596.94 81.24 4.00  71.02 2825.33
   13:32:32.358.18-Jan-2020 3754.51  596.94 81.24 4.00  71.22 2825.33
   13:32:32.558.18-Jan-2020 3754.51  597.31 81.24 4.00  71.42 2825.33
   13:32:32.758.18-Jan-2020 3754.51  597.60 81.24 4.00  71.62 2825.33
   13:32:32.958.18-Jan-2020 3754.51  598.00 81.24 4.00  71.82 2825.33
   13:32:33.158.18-Jan-2020 3754.51  598.36 81.24 4.00  72.02 2825.33
   13:32:33.358.18-Jan-2020 3754.51  598.36 81.24 4.00  72.22 2825.33
   13:32:33.558.18-Jan-2020 3754.51  599.55 81.24 4.00  72.42 2825.33
   13:32:33.758.18-Jan-2020 3754.51  600.22 81.24 4.00  72.62 2825.33
   13:32:33.958.18-Jan-2020 3754.51  600.70 81.24 4.00  72.82 2825.33
   13:32:34.158.18-Jan-2020 3754.51  601.30 81.24 4.00  73.02 2825.33
   13:32:34.358.18-Jan-2020 3754.51  601.30 81.24 4.00  73.22 2825.33
   13:32:34.558.18-Jan-2020 3754.51  602.89 81.24 4.00  73.42 2825.33
   13:32:34.758.18-Jan-2020 3754.51  603.45 81.24 4.00  73.62 2825.33
   13:32:34.959.18-Jan-2020 3754.51  603.53 81.24 4.00  73.82 2825.33
   13:32:35.159.18-Jan-2020 3754.51  601.64 81.24 4.00  74.02 2825.33
   13:32:35.359.18-Jan-2020 3754.51  601.64 81.24 4.00  74.22 2825.33
   13:32:35.559.18-Jan-2020 3754.51  605.70 81.24 4.00  74.42 2825.33
   13:32:35.759.18-Jan-2020 3754.51  605.62 81.24 4.00  74.62 2825.33
   13:32:35.959.18-Jan-2020 3754.51  605.61 81.24 4.00  74.82 2825.33
   13:32:36.159.18-Jan-2020 3754.51  603.79 81.24 4.00  75.02 2825.33
   13:32:36.359.18-Jan-2020 3754.51  603.79 81.24 4.00  75.22 2825.33
   13:32:36.559.18-Jan-2020 3754.51  607.58 81.24 4.00  75.42 2825.33
   13:32:36.759.18-Jan-2020 3754.51  607.59 81.24 4.00  75.62 2825.33
   13:32:36.959.18-Jan-2020 3754.51  607.61 81.24 4.00  75.82 2825.33
   13:32:37.159.18-Jan-2020 3754.51  608.04 81.24 4.00  76.02 2825.33
   13:32:37.359.18-Jan-2020 3754.51  608.04 81.24 4.00  76.22 2825.33
   13:32:37.559.18-Jan-2020 3754.51  608.26 81.24 4.00  76.42 2825.33
   13:32:37.759.18-Jan-2020 3754.51  608.36 81.24 4.00  76.62 2825.33
   13:32:37.960.18-Jan-2020 3754.51  608.42 81.24 4.00  76.82 2825.33
   13:32:38.160.18-Jan-2020 3754.51  608.71 81.24 4.00  77.02 2825.33
   13:32:38.360.18-Jan-2020 3754.51  608.71 81.24 4.00  77.22 2825.33
   13:32:38.560.18-Jan-2020 3754.51  609.02 81.24 4.00  77.43 2825.33
   13:32:38.760.18-Jan-2020 3754.51  609.07 81.24 4.00  77.63 2825.33
   13:32:38.960.18-Jan-2020 3754.51  609.28 81.24 4.00  77.83 2825.33
   13:32:39.160.18-Jan-2020 3754.51  609.42 81.24 4.00  78.03 2825.33
   13:32:39.360.18-Jan-2020 3754.51  609.42 81.24 4.00  78.23 2825.33
   13:32:39.560.18-Jan-2020 3754.51  608.38 81.24 4.00  78.43 2825.33
   13:32:39.760.18-Jan-2020 3754.51  610.33 81.24 4.00  78.63 2825.33
   13:32:39.960.18-Jan-2020 3754.51  610.67 81.24 4.00  78.83 2825.33
   13:32:40.160.18-Jan-2020 3754.51  611.11 81.24 4.00  79.03 2825.33
   13:32:40.360.18-Jan-2020 3754.51  611.11 81.24 4.00  79.23 2825.33
   13:32:40.560.18-Jan-2020 3754.51  611.53 81.24 4.00  79.43 2825.33
   13:32:40.760.18-Jan-2020 3754.51  611.63 81.24 4.00  79.63 2825.33
   13:32:40.960.18-Jan-2020 3754.51  611.65 81.24 4.00  79.83 2825.33
   13:32:41.161.18-Jan-2020 3754.51  611.68 81.24 4.00  80.03 2825.33
   13:32:41.361.18-Jan-2020 3754.51  611.68 81.24 4.00  80.23 2825.33
   13:32:41.561.18-Jan-2020 3754.51  612.16 81.24 4.00  80.43 2825.33
   13:32:41.761.18-Jan-2020 3754.51  610.94 81.24 4.00  80.63 2825.33
   13:32:41.961.18-Jan-2020 3754.51  612.61 81.23 4.00  80.83 2825.33
   13:32:42.161.18-Jan-2020 3754.51  612.82 81.23 4.00  81.03 2825.33
   13:32:42.361.18-Jan-2020 3754.51  612.82 81.23 4.00  81.23 2825.33
   13:32:42.561.18-Jan-2020 3754.51  613.85 81.23 4.00  81.43 2825.33
   13:32:42.761.18-Jan-2020 3754.51  613.94 81.23 4.00  81.63 2825.33
   13:32:42.961.18-Jan-2020 3754.51  614.11 81.23 4.00  81.83 2825.33
   13:32:43.161.18-Jan-2020 3754.51  614.19 81.23 4.00  82.03 2825.33
   13:32:43.361.18-Jan-2020 3754.51  614.19 81.23 4.00  82.23 2825.33
   13:32:43.561.18-Jan-2020 3754.51  613.27 81.23 4.00  82.43 2825.33
   13:32:43.761.18-Jan-2020 3754.51  615.01 81.23 4.00  82.63 2825.33
   13:32:43.961.18-Jan-2020 3754.51  615.11 81.23 4.00  82.83 2825.33
   13:32:44.162.18-Jan-2020 3754.51  615.06 81.23 4.00  83.03 2825.33
   13:32:44.362.18-Jan-2020 3754.51  615.06 81.23 4.00  83.23 2825.33
   13:32:44.562.18-Jan-2020 3754.51  615.73 81.23 4.00  83.43 2825.33
   13:32:44.762.18-Jan-2020 3754.51  616.41 81.23 4.00  83.63 2825.33
   13:32:44.962.18-Jan-2020 3754.51  616.19 81.23 4.00  83.83 2825.33
   13:32:45.162.18-Jan-2020 3754.51  616.22 81.23 4.00  84.03 2825.33
   13:32:45.362.18-Jan-2020 3754.51  616.22 81.23 4.00  84.23 2825.33
   13:32:45.562.18-Jan-2020 3754.51  616.39 81.23 4.00  84.43 2825.33
   13:32:45.762.18-Jan-2020 3754.51  616.55 81.23 4.00  84.63 2825.33
   13:32:45.962.18-Jan-2020 3754.51  616.64 81.23 4.00  84.83 2825.33
   13:32:46.162.18-Jan-2020 3754.51  616.79 81.23 4.00  85.03 2825.33
   13:32:46.362.18-Jan-2020 3754.51  616.79 81.23 4.00  85.23 2825.33
   13:32:46.562.18-Jan-2020 3754.51  616.97 81.23 4.00  85.43 2825.33
   13:32:46.762.18-Jan-2020 3754.51  617.14 81.23 4.00  85.63 2825.33
   13:32:46.962.18-Jan-2020 3754.51  617.18 81.23 4.00  85.83 2825.33
   13:32:47.163.18-Jan-2020 3754.51  617.32 81.23 4.00  86.03 2825.33
   13:32:47.363.18-Jan-2020 3754.51  617.32 81.23 4.00  86.23 2825.33
   13:32:47.563.18-Jan-2020 3754.51  617.37 81.23 4.00  86.43 2825.33
   13:32:47.763.18-Jan-2020 3754.51  615.84 81.23 4.00  86.63 2825.33
   13:32:47.963.18-Jan-2020 3754.51  618.51 81.23 4.00  86.83 2825.33
   13:32:48.163.18-Jan-2020 3754.51  618.89 81.23 4.00  87.03 2825.33
   13:32:48.363.18-Jan-2020 3754.51  618.89 81.23 4.00  87.23 2825.33
   13:32:48.563.18-Jan-2020 3754.51  618.63 81.23 4.00  87.43 2825.33
   13:32:48.763.18-Jan-2020 3754.51  618.76 81.23 4.00  87.63 2825.33
   13:32:48.963.18-Jan-2020 3754.51  619.12 81.23 4.00  87.83 2825.33
   13:32:49.163.18-Jan-2020 3754.51  619.07 81.23 4.00  88.03 2825.33
   13:32:49.363.18-Jan-2020 3754.51  619.07 81.23 4.00  88.23 2825.33
   13:32:49.563.18-Jan-2020 3754.51  619.23 81.23 4.00  88.43 2825.33
   13:32:49.763.18-Jan-2020 3754.51  619.36 81.23 4.00  88.63 2825.33
   13:32:49.963.18-Jan-2020 3754.51  617.78 81.23 4.00  88.83 2825.33
   13:32:50.163.18-Jan-2020 3754.51  620.36 81.23 4.00  89.03 2825.33
   13:32:50.364.18-Jan-2020 3754.51  620.36 81.23 4.00  89.23 2825.33
   13:32:50.564.18-Jan-2020 3754.51  620.51 81.23 4.00  89.43 2825.33
   13:32:50.764.18-Jan-2020 3754.51  618.72 81.22 4.00  89.63 2825.33
   13:32:50.964.18-Jan-2020 3754.51  621.60 81.22 4.00  89.83 2825.33
   13:32:51.164.18-Jan-2020 3754.51  622.05 81.22 4.00  90.03 2825.33
   13:32:51.364.18-Jan-2020 3754.51  622.05 81.22 4.00  90.23 2825.33
   13:32:51.564.18-Jan-2020 3754.51  621.87 81.22 4.00  90.43 2825.33
   13:32:51.764.18-Jan-2020 3754.51  619.85 81.22 4.00  90.63 2825.33
   13:32:51.964.18-Jan-2020 3754.51  623.19 81.22 4.00  90.83 2825.33
   13:32:52.164.18-Jan-2020 3754.51  623.00 81.22 4.00  91.03 2825.33
   13:32:52.364.18-Jan-2020 3754.51  623.00 81.22 4.00  91.23 2825.33
   13:32:52.564.18-Jan-2020 3754.51  622.96 81.22 4.00  91.43 2825.33
   13:32:52.764.18-Jan-2020 3754.51  622.68 81.22 4.00  91.63 2825.33
   13:32:52.964.18-Jan-2020 3754.51  622.85 81.22 4.00  91.83 2825.33
