~Version Information
 VERS.                  2.0:   CWLS log ASCII Standard -VERSION 2.0
 WRAP.                   NO:   One line per depth step
~Well Information Block
#MNEM.UNIT     VALUE/NAME     DESCRIPTION
#---------     -----------    ---------------------------
 STRT.S             05:39:19 18-Jan-20: START TIME 05:39:19 18-Jan-20
 STOP.S             05:47:35 18-Jan-20: STOP TIME  05:47:35 18-Jan-20
 STEP.S                   0.00: STEP TIME
 NULL.                 -999.25: NULL VALUE
 DFWT.                        :  DIST FWL TEXT
 DFST.                        :  DIST FSL TEXT
 DMF .             Drill Floor:  DRILL MEAS FROM
 STIM.      09.30.00 26-Dec-19:  START TIME
 DATE.      08.00.00 20-Jan-20:  END TIME
 SPUD.               23-Nov-19:  SPUD DATE
 NREF.                    Grid:  NORTH REFERENCE
 HPTY.       Minimum Curvature:  HOLE POS TYPE
 DMOD.             Drill Model:  DRILL MOD DESC
 SVYD.                  Survey:  SURVEY DESC
 ILTD.               Lithology:  INTERP LTH DESC
 FTOP.          Formation Tops:  FORM TOPS DESC
 SON .        AZ-XX-0906192647:  JOB NUMBER
 WTYP.                Deviated:  WELL TYPE
 COMP.     BP Exploration (Caspian Sea) Ltd:  COMPANY
 BASE.              Azerbaijan:  LOGGING EQUIPMENT BASE LOCATION
 REGN.                 Eurasia:  REGION
 FLD .                     ACG:  FIELD NAME
 SRVC.              KCA Deutag:  CONTRACTOR
 MWDS.                    Baku:  MWD SHOP
 WELL.     A10 (Slot 20) - SCP:  WELL NAME
 JOBN.        AZ-XX-0906192647:  JOB TICKET NUMB
 RIG .                 Chirag1:  RIG NAME
 DCON.     Halliburton Sperry Drilling:  DIRECTNL CONTR
 UNIT.                     N/A:  LOGGING EQUIPMENT ID
 PDAT.          Mean Sea Level:  PERMANENT DATUM
 MDS .        Operator Entered:  MAG DATA SOURCE
 CTRY.              Azerbaijan:  COUNTRY NAME
 UWI .            /AZE00000090:  UNIQUE WELL IDENTIFIER
 API .            /AZE00000090:  API NUMBER
 CNTY.                        :  COUNTY
 PROV.                        :  PROVINCE
 STAT.                        :  STATE
 LOC .                        :  LOCATION
 LMF .             Drill Floor:  LOG MEASURED FROM
 TVDS.m                  36.60:  TVDSS CORRECTN
 LATI.deg                40.08:  LATITUDE
 LONG.deg                51.24:  LONGITUDE
 WHNS.m                  -7.94:  WELL HEAD N/S
 WHEW.m                   1.56:  WELL HEAD E/W
 UTMX.m              520429.26:  UTM X
 UTMY.m             4438973.87:  UTM Y
 DFWL.m                   0.00:  DISTANCE FWL
 DFSL.m                   0.00:  DISTANCE FSL
 SDEP.m                1455.00:  START DEPTH
 TDD .m                3878.01:  TOTAL DEPTH (DRILLER)
 VSDR.deg               112.75:  VERT SEC DIRECT
 GVFD.g                   1.00:  GRAVITY FIELD
 MFLD.nT              50256.00:  MAGNETIC FIELD
 MDIP.deg                59.52:  MAGNETIC DIP
 MDEC.deg                 6.43:  MAGNETIC DECL
 GRDC.deg                 0.16:  GRID CORRECTION
 AZTC.deg                 6.27:  AZM TOTAL CORR
 EPD .m                   0.00:  ELEVATION
 EGL .m                   0.00:  GROUND ELEVATION
 WDMS.m                 121.00:  WD ELEV
 APD .m                  36.60:  DEPTH ABOVE PD
 AGAP.m                  36.60:  AIR GAP
 VSEW.m                   1.56:  VERT SEC E/W
 VSNS.m                  -7.94:  VERT SEC N/S
 DEP .m                1140.01:  DEPTH
 EKB .m                  36.60:  KB ELEVATION
 EDF .m                  36.60:  DF ELEVATION
 TDL .m                1293.00:  TOTAL DEPTH (LOGGER)
 VSC .                       0:  VS TO CLOSURE
 MAGU.                 1849164:  MAGUTM CHECKSUM
~Parameter Information Block
#MNEM.UNIT       Value        Description
#---------     -----------    ---------------------------
 AV  .mps                 2.40:  Ann Velocity 
 AVMX.mps                 2.55:  Max Ann Veloc 
 AZIF.deg               134.35:  Azm, Final 
 BHAT.        Rotary Steerable:  BHA Type 
 BREV.rev               847.00:  Rev Bit Total 
 BROT.∞/30m              -2.51:  Build Rotating 
 BS  .in                  8.50:  Bit Size 
 BSZ .in                  8.50:  Bit Size 
 BTPL.psig              700.00:  Bit Press Loss 
 CABU.                     Yes:  Customer Abuse 
 CGEO.          Ilgar Gurbanov:  Customer Geo 
 COMM.                     ‹êX:  Run Comments 1 
 TCS .hr                140.40:  Time Ciculation Ended 
 CV  .mps                 2.27:  Crit Velocity 
 CVMX.mps                 2.45:  Max Crit Veloc 
 DD1 .         Intigam Rahimov:  Direct Drillr 1 
 DD2 .         Rasim Ibrahimov:  Direct Drillr 2 
 DDSV.                 iCruise:  DD Service 
 DEFF.%                  99.00:  % Det Eff 
 DLRX.∞/30m               3.28:  Dogleg Rot Max 
 DLSO.∞/30m               0.00:  Dogleg Oriented 
 DLSX.∞/30m               0.00:  Dogleg Str Max 
 DRET.      23.30.00 18-Jan-20:  Drill End Time 
 DRST.      01.45.00 11-Jan-20:  Drill Start Tim 
 DTIM.hr                 94.00:  Time Drilling 
 EDEP.m                3878.01:  End Depth 
 ENG1.       Dauren Baktybayev:  Engineer 1 
 ENG2.      Natik Hasanaghayev:  Engineer 2 
 ENG3.          Rustam Safarov:  Engineer 3 
 ETIM.      08.00.00 20-Jan-20:  End Time 
 FLOI.gpm               532.00:  Flow In 
 FLON.gpm               500.00:  Flow In Min 
 FLOS.cptm                0.00:  Fluid Loss 
 FLOX.gpm               540.00:  Flow In Max 
 FTRO.       Formation Presure:  FTWD Run Obj 
 HPRE.                     Yes:  High Pressure 
 HTEM.                      No:  High Temp 
 HYDO.m                   1.80:  Hydro Offset 
 IFIN.deg                39.86:  Inc, Final 
 IMAX.deg                59.73:  Inc Max 
 IMIN.deg                39.25:  Inc Min 
 IMND.m                3816.77:  Inc Min Depth 
 IMXD.m                2596.33:  Inc Max Depth 
 JARR.                      No:  Jarring 
 LETM.      23.30.00 18-Jan-20:  Log End Time 
 LOST.hr                     0:  Lost Rig Time 
 LSTM.      01.45.00 11-Jan-20:  Log Start Time 
 MDCL.ppm             41500.00:  Mud Chlorides 
 MDES.     Inversion Oil/Synthetic:  Mud Desc 
 DFD .sg                  1.48:  Mud Density 
 MDMN.sg                  1.48:  Dens Mud Min 
 MDMX.sg                  1.48:  Dens Mud Max 
 MOIL.                      54:  Run Mud Oil % 
 MOWR.                   72:28:  Run Mud OWR 
 MSND.                       0:  Run Mud Sand % 
 MSOL.                      23:  Run Mud Solids% 
 DFV .spqt               86.00:  Mud Viscosity 
 MWOD.in                  6.75:  MWD Tool OD 
 MWSI.                      No:  Serv Intrp, MWD 
 OTIM.hr                223.40:  Time Operating 
 PCON.           Look Like New:  Pad Condition 
 PMAX.psia            32446.79:  Press Op, Max 
 PV  .cP                 49.00:  Mud PV 
 RUN .                     200:  Run Number 
 ROPA.m/hr               12.48:  ROP Avg 
 ROPN.m/hr                8.00:  ROP Min 
 ROPX.m/hr               27.00:  ROP Max 
 RPMA.rpm               121.00:  RPM Surface Avg 
 RPMN.rpm                60.00:  RPM Surface Min 
 RPMX.rpm               140.00:  RPM Surface Max 
 RRUN.                    L202:  Rig Run Number 
 RTIM.hr                  7.25:  Time Reaming 
 SAZI.deg               123.49:  Azm, Start 
 SDEP.m                2585.01:  Start Depth 
 SIDD.                      No:  Serv Intrp, DD 
 SINC.deg                59.93:  Inc, Start 
 SPPA.psig             3539.00:  SPP Avg 
 SPPN.psig             3050.00:  SPP Min 
 SPPX.psig             3950.00:  SPP Max 
 STIM.      19.00.00 10-Jan-20:  Start Time 
 SVCS.                 DD, MWD:  Services 
 SVER.                    9.20:  Sperry Version 
 TDAT.m                1293.00:  Tot Depth Attmp 
 TDDF.                      No:  Trip for DD 
 TDLG.m                1293.00:  Tot Depth Loggd 
 TFF .                      No:  Trip for Fail 
 TQAA.f-kp               16.00:  Torque Abs Avg 
 TQAN.f-kp               11.00:  Torque Abs Min 
 TQAX.f-kp               18.00:  Torque Abs Max 
 TRRT.∞/30m               1.25:  Turn Rotating 
 MRT .                  EWR-M5:  Maximum Recorded Temperature 
 TTMX.degC               84.00:  Max Tool Temp 
 VS01.          AZ90514619R5C6:  Virtual Str1 SN 
 VS02.        AZ90552592N2L2C6:  Virtual Str2 SN 
 VS03.        AZ90571337Z1W1C6:  Virtual Str3 SN 
 VS04.         AZ90513690K23C6:  Virtual Str4 SN 
 VS05.           AZ90594857F11:  Virtual Str5 SN 
 VS06.                13102166:  Virtual Str6 SN 
 WBMN.klb                 7.00:  WOB Min 
 WITN.            Peter Wilson:  Customer Rep 
 WOBA.klb                 9.95:  WOB Avg 
 WOBX.klb                10.00:  WOB Max 
 YP  .lhf2               36.00:  Yield Point 
~Curve Information Block
#MNEM.UNIT                 API CODE     Curve Description
#---------               -----------    ---------------------------
 TIME.HHMMSS            00 000 000 000:  GT Time & Date
 GTDEPTH.m              00 000 000 000:  GT Depth
 GTPQH.psia             00 000 000 000:  GT HR Quartz Pressure
 GTTQ.degC              00 000 000 000:  GT Quartz Temperature
 GTTN.NONE              00 000 000 000:  GT Test Number
 GTET.sec               00 000 000 000:  GT Elapsed Test Time
 GTTVD.m                00 000 000 000:  GT True Vertical Depth
#Other Information
#
#WARRANTY: Halliburton will use its best efforts to furnish customers with 
#accurate information and interpretations that are part of, and incident to, the services 
#provided.  However, Halliburton cannot and does not warrant the accuracy 
#or correctness of such information and interpretations.  Under no circumstances should any 
#such information or interpretation be relied upon as the sole basis for any drilling, 
#completion, production, or financial decision or any procedure involving any risk to the 
#safety of any drilling venture, drilling rig or its crew or any other third party.  The 
#Customer has full responsibility for all drilling, completion and production operation.  
#Halliburton makes no representations or warranties, either expressed or 
#implied, including, but not limited to, the implied warranties of merchantability or fitness 
#for a particular purpose, with respect to the services rendered.  In no event will 
#Halliburton be liable for failure to obtain any particular results or for 
#any damages, including, but not limited to, indirect, special or consequential damages, 
#resulting from the use of any information or interpretation provided by Halliburton.
#
~A           TIME           GTDEPTH  GTPQH  GTTQ  GTTN  GTET   GTTVD  
# ...
   05:45:04.594.18-Jan-2020 3717.66 4263.18 78.18 2.00 345.10 2797.70
   05:45:04.795.18-Jan-2020 3717.66 4263.18 78.18 2.00 345.30 2797.70
   05:45:04.995.18-Jan-2020 3717.66 4263.23 78.19 2.00 345.50 2797.70
   05:45:05.195.18-Jan-2020 3717.66 4263.11 78.18 2.00 345.70 2797.70
   05:45:05.395.18-Jan-2020 3717.66 4263.23 78.18 2.00 345.90 2797.70
   05:45:05.595.18-Jan-2020 3717.66 4263.10 78.19 2.00 346.10 2797.70
   05:45:05.795.18-Jan-2020 3717.66 4263.10 78.19 2.00 346.30 2797.70
   05:45:05.995.18-Jan-2020 3717.66 4263.16 78.18 2.00 346.50 2797.70
   05:45:06.195.18-Jan-2020 3717.66 4263.25 78.18 2.00 346.70 2797.70
   05:45:06.395.18-Jan-2020 3717.66 4263.11 78.18 2.00 346.90 2797.70
   05:45:06.595.18-Jan-2020 3717.66 4263.41 78.18 2.00 347.10 2797.70
   05:45:06.795.18-Jan-2020 3717.66 4263.41 78.18 2.00 347.30 2797.70
   05:45:06.995.18-Jan-2020 3717.66 4263.20 78.18 2.00 347.50 2797.70
   05:45:07.195.18-Jan-2020 3717.66 4263.07 78.18 2.00 347.70 2797.70
   05:45:07.395.18-Jan-2020 3717.66 4263.16 78.18 2.00 347.90 2797.70
   05:45:07.595.18-Jan-2020 3717.66 4263.13 78.18 2.00 348.10 2797.70
   05:45:07.795.18-Jan-2020 3717.66 4263.13 78.18 2.00 348.30 2797.70
   05:45:07.995.18-Jan-2020 3717.66 4263.46 78.18 2.00 348.50 2797.70
   05:45:08.195.18-Jan-2020 3717.66 4263.11 78.18 2.00 348.70 2797.70
   05:45:08.396.18-Jan-2020 3717.66 4263.29 78.18 2.00 348.90 2797.70
   05:45:08.596.18-Jan-2020 3717.66 4263.31 78.18 2.00 349.10 2797.70
   05:45:08.796.18-Jan-2020 3717.66 4263.31 78.18 2.00 349.30 2797.70
   05:45:08.996.18-Jan-2020 3717.66 4263.11 78.18 2.00 349.50 2797.70
   05:45:09.196.18-Jan-2020 3717.66 4263.12 78.18 2.00 349.70 2797.70
   05:45:09.396.18-Jan-2020 3717.66 4263.22 78.18 2.00 349.90 2797.70
   05:45:09.596.18-Jan-2020 3717.66 4263.25 78.18 2.00 350.10 2797.70
   05:45:09.796.18-Jan-2020 3717.66 4263.25 78.18 2.00 350.30 2797.70
   05:45:09.996.18-Jan-2020 3717.66 4262.94 78.18 2.00 350.50 2797.70
   05:45:10.196.18-Jan-2020 3717.66 4263.20 78.18 2.00 350.70 2797.70
   05:45:10.396.18-Jan-2020 3717.66 4263.09 78.18 2.00 350.90 2797.70
   05:45:10.596.18-Jan-2020 3717.66 4263.26 78.18 2.00 351.10 2797.70
   05:45:10.796.18-Jan-2020 3717.66 4263.26 78.18 2.00 351.30 2797.70
   05:45:10.996.18-Jan-2020 3717.66 4263.17 78.18 2.00 351.50 2797.70
   05:45:11.196.18-Jan-2020 3717.66 4263.18 78.18 2.00 351.70 2797.70
   05:45:11.396.18-Jan-2020 3717.66 4263.29 78.18 2.00 351.90 2797.70
   05:45:11.596.18-Jan-2020 3717.66 4263.16 78.18 2.00 352.10 2797.70
   05:45:11.797.18-Jan-2020 3717.66 4263.16 78.18 2.00 352.30 2797.70
   05:45:11.997.18-Jan-2020 3717.66 4263.12 78.18 2.00 352.50 2797.70
   05:45:12.197.18-Jan-2020 3717.66 4263.17 78.18 2.00 352.70 2797.70
   05:45:12.397.18-Jan-2020 3717.66 4263.21 78.18 2.00 352.90 2797.70
   05:45:12.597.18-Jan-2020 3717.66 4263.22 78.18 2.00 353.10 2797.70
   05:45:12.797.18-Jan-2020 3717.66 4263.22 78.18 2.00 353.30 2797.70
   05:45:12.997.18-Jan-2020 3717.66 4260.97 78.18 2.00 353.50 2797.70
   05:45:13.197.18-Jan-2020 3717.66 4263.47 78.18 2.00 353.70 2797.70
   05:45:13.397.18-Jan-2020 3717.66 4262.92 78.18 2.00 353.90 2797.70
   05:45:13.597.18-Jan-2020 3717.66 4263.29 78.18 2.00 354.10 2797.70
   05:45:13.797.18-Jan-2020 3717.66 4263.29 78.18 2.00 354.30 2797.70
   05:45:13.997.18-Jan-2020 3717.66 4263.21 78.18 2.00 354.50 2797.70
   05:45:14.197.18-Jan-2020 3717.66 4263.15 78.18 2.00 354.70 2797.70
   05:45:14.397.18-Jan-2020 3717.66 4263.23 78.18 2.00 354.90 2797.70
   05:45:14.597.18-Jan-2020 3717.66 4263.10 78.18 2.00 355.10 2797.70
   05:45:14.797.18-Jan-2020 3717.66 4263.10 78.18 2.00 355.30 2797.70
   05:45:14.997.18-Jan-2020 3717.66 4263.21 78.18 2.00 355.50 2797.70
   05:45:15.197.18-Jan-2020 3717.66 4263.19 78.18 2.00 355.70 2797.70
   05:45:15.398.18-Jan-2020 3717.66 4263.18 78.18 2.00 355.90 2797.70
   05:45:15.598.18-Jan-2020 3717.66 4263.51 78.18 2.00 356.10 2797.70
   05:45:15.798.18-Jan-2020 3717.66 4263.51 78.18 2.00 356.30 2797.70
   05:45:15.998.18-Jan-2020 3717.66 4263.28 78.18 2.00 356.50 2797.70
   05:45:16.198.18-Jan-2020 3717.66 4263.11 78.18 2.00 356.70 2797.70
   05:45:16.398.18-Jan-2020 3717.66 4263.05 78.18 2.00 356.90 2797.70
   05:45:16.598.18-Jan-2020 3717.66 4263.05 78.18 2.00 357.10 2797.70
   05:45:16.798.18-Jan-2020 3717.66 4263.05 78.18 2.00 357.30 2797.70
   05:45:16.998.18-Jan-2020 3717.66 4263.27 78.18 2.00 357.50 2797.70
   05:45:17.198.18-Jan-2020 3717.66 4263.30 78.18 2.00 357.70 2797.70
   05:45:17.398.18-Jan-2020 3717.66 4263.15 78.18 2.00 357.90 2797.70
   05:45:17.598.18-Jan-2020 3717.66 4263.46 78.18 2.00 358.10 2797.70
   05:45:17.798.18-Jan-2020 3717.66 4263.46 78.18 2.00 358.30 2797.70
   05:45:17.998.18-Jan-2020 3717.66 4263.23 78.18 2.00 358.50 2797.70
   05:45:18.198.18-Jan-2020 3717.66 4263.16 78.18 2.00 358.70 2797.70
   05:45:18.398.18-Jan-2020 3717.66 4263.17 78.18 2.00 358.90 2797.70
   05:45:18.598.18-Jan-2020 3717.66 4263.40 78.18 2.00 359.10 2797.70
   05:45:18.798.18-Jan-2020 3717.66 4263.40 78.18 2.00 359.30 2797.70
   05:45:18.999.18-Jan-2020 3717.66 4263.14 78.18 2.00 359.50 2797.70
   05:45:19.199.18-Jan-2020 3717.66 4263.05 78.18 2.00 359.70 2797.70
   05:45:19.399.18-Jan-2020 3717.66 4263.24 78.18 2.00 359.90 2797.70
   05:45:19.599.18-Jan-2020 3717.66 4263.21 78.18 2.00 360.10 2797.70
   05:45:19.799.18-Jan-2020 3717.66 4263.21 78.18 2.00 360.30 2797.70
   05:45:19.999.18-Jan-2020 3717.66 4263.18 78.18 2.00 360.50 2797.70
   05:45:20.199.18-Jan-2020 3717.66 4263.23 78.18 2.00 360.70 2797.70
   05:45:20.399.18-Jan-2020 3717.66 4263.24 78.18 2.00 360.90 2797.70
   05:45:20.599.18-Jan-2020 3717.66 4263.18 78.18 2.00 361.10 2797.70
   05:45:20.799.18-Jan-2020 3717.66 4263.18 78.18 2.00 361.30 2797.70
   05:45:20.999.18-Jan-2020 3717.66 4263.17 78.18 2.00 361.50 2797.70
   05:45:21.199.18-Jan-2020 3717.66 4263.18 78.18 2.00 361.70 2797.70
   05:45:21.399.18-Jan-2020 3717.66 4263.24 78.18 2.00 361.90 2797.70
   05:45:21.599.18-Jan-2020 3717.66 4263.22 78.18 2.00 362.10 2797.70
   05:45:21.799.18-Jan-2020 3717.66 4263.22 78.18 2.00 362.30 2797.70
   05:45:21.999.18-Jan-2020 3717.66 4263.42 78.18 2.00 362.50 2797.70
   05:45:22.199.18-Jan-2020 3717.66 4263.11 78.18 2.00 362.70 2797.70
   05:45:22.400.18-Jan-2020 3717.66 4263.22 78.18 2.00 362.90 2797.70
   05:45:22.600.18-Jan-2020 3717.66 4263.10 78.18 2.00 363.10 2797.70
   05:45:22.800.18-Jan-2020 3717.66 4263.10 78.18 2.00 363.30 2797.70
   05:45:23.000.18-Jan-2020 3717.66 4263.14 78.18 2.00 363.50 2797.70
   05:45:23.200.18-Jan-2020 3717.66 4263.22 78.18 2.00 363.70 2797.70
   05:45:23.400.18-Jan-2020 3717.66 4263.12 78.18 2.00 363.90 2797.70
   05:45:23.600.18-Jan-2020 3717.66 4263.21 78.18 2.00 364.10 2797.70
   05:45:23.800.18-Jan-2020 3717.66 4263.21 78.18 2.00 364.30 2797.70
   05:45:24.000.18-Jan-2020 3717.66 4263.24 78.18 2.00 364.50 2797.70
   05:45:24.200.18-Jan-2020 3717.66 4263.12 78.18 2.00 364.70 2797.70
   05:45:24.400.18-Jan-2020 3717.66 4263.41 78.18 2.00 364.90 2797.70
   05:45:24.600.18-Jan-2020 3717.66 4263.23 78.18 2.00 365.10 2797.70
   05:45:24.800.18-Jan-2020 3717.66 4263.23 78.18 2.00 365.30 2797.70
   05:45:25.000.18-Jan-2020 3717.66 4263.11 78.18 2.00 365.50 2797.70
   05:45:25.200.18-Jan-2020 3717.66 4263.15 78.18 2.00 365.70 2797.70
   05:45:25.400.18-Jan-2020 3717.66 4263.17 78.18 2.00 365.90 2797.70
   05:45:25.600.18-Jan-2020 3717.66 4262.99 78.18 2.00 366.10 2797.70
   05:45:25.800.18-Jan-2020 3717.66 4262.99 78.18 2.00 366.30 2797.70
   05:45:26.001.18-Jan-2020 3717.66 4263.13 78.18 2.00 366.50 2797.70
   05:45:26.201.18-Jan-2020 3717.66 4263.24 78.18 2.00 366.70 2797.70
   05:45:26.401.18-Jan-2020 3717.66 4263.38 78.18 2.00 366.90 2797.70
   05:45:26.601.18-Jan-2020 3717.66 4263.10 78.18 2.00 367.10 2797.70
   05:45:26.801.18-Jan-2020 3717.66 4263.10 78.18 2.00 367.30 2797.70
   05:45:27.001.18-Jan-2020 3717.66 4263.10 78.18 2.00 367.50 2797.70
   05:45:27.201.18-Jan-2020 3717.66 4263.30 78.18 2.00 367.70 2797.70
   05:45:27.401.18-Jan-2020 3717.66 4263.23 78.18 2.00 367.90 2797.70
