~Version Information
 VERS.                  2.0:   CWLS log ASCII Standard -VERSION 2.0
 WRAP.                   NO:   One line per depth step
~Well Information Block
#MNEM.UNIT     VALUE/NAME     DESCRIPTION
#---------     -----------    ---------------------------
 STRT.S             00:47:21 09-May-21: START TIME 00:47:21 09-May-21
 STOP.S             00:54:19 09-May-21: STOP TIME  00:54:19 09-May-21
 STEP.S                   0.00: STEP TIME
 NULL.                 -999.25: NULL VALUE
 PROV.                    Baku:  PROVINCE
 STAT.                    Baku:  STATE NAME
 SON .        AZ-XX-0906571588:  JOB NUMBER
 WTYP.                Deviated:  WELL TYPE
 COMP.     BP Exploration (Caspian Sea) ltd:  COMPANY
 BASE.              Azerbaijan:  LOGGING EQUIPMENT BASE LOCATION
 REGN.                   EESSA:  REGION
 CTRY.              Azerbaijan:  COUNTRY NAME
 FLD .                     ACG:  FIELD NAME
 WELL.                     J28:  WELL NAME
 RIG .             West Chirag:  RIG NAME
 DMF .             Drill Floor:  DRILL MEAS FROM
 PDAT.       Caspian Sea Level:  PERMANENT DATUM
 HPTY.       Minimum Curvature:  HOLE POS TYPE
 MDS .        Operator Entered:  MAG DATA SOURCE
 NREF.                    Grid:  NORTH REFERENCE
 SRVC.          TURAN DRILLING:  CONTRACTOR
 JOBN.        AZ-XX-0906571588:  JOB TICKET NUMB
 DCON.     Halliburton Sperry Drilling:  DIRECTNL CONTR
 STIM.      00.44.00 11-Feb-21:  START TIME
 DATE.      00.00.00 05-May-21:  END TIME
 SPUD.               13-Feb-21:  SPUD DATE
 MWDS.                    Baku:  MWD SHOP
 DOE .                     N/A:  DOE NUMBER
 UNIT.                     N/A:  LOGGING EQUIPMENT ID
 UWI .                     N/A:  UNIQUE WELL IDENTIFIER
 API .                     N/A:  API NUMBER
 CNTY.                        :  COUNTY
 LOC .                        :  LOCATION
 LMF .             Drill Floor:  LOG MEASURED FROM
 TVDS.m                  43.00:  TVDSS CORRECTN
 SDEP.m                 341.00:  START DEPTH
 EGL .m                   0.00:  GROUND ELEVATION
 WDMS.m                 169.80:  WD ELEV
 AGAP.m                  43.00:  AIR GAP
 EPD .m                   0.00:  ELEVATION
 APD .m                  43.00:  DEPTH ABOVE PD
 LATI.deg                40.13:  LATITUDE
 LONG.deg                51.22:  LONGITUDE
 UTMY.m             4443793.85:  UTM Y
 UTMX.m              519005.06:  UTM X
 WHEW.m                 -11.57:  WELL HEAD E/W
 WHNS.m                   8.57:  WELL HEAD N/S
 VSEW.m                 -11.57:  VERT SEC E/W
 VSNS.m                   8.57:  VERT SEC N/S
 DFWL.m                   0.00:  DISTANCE FWL
 DFSL.m                   0.00:  DISTANCE FSL
 VSDR.deg               299.34:  VERT SEC DIRECT
 GVFD.g                   1.00:  GRAVITY FIELD
 AZTC.deg                 6.36:  AZM TOTAL CORR
 MFLD.nT              50391.00:  MAGNETIC FIELD
 MDIP.deg                59.65:  MAGNETIC DIP
 MDEC.deg                 6.48:  MAGNETIC DECL
 GRDC.deg                 0.12:  GRID CORRECTION
 DEP .m                 334.96:  DEPTH
 TDD .m                1407.26:  TOTAL DEPTH (DRILLER)
 EKB .m                  43.00:  KB ELEVATION
 EDF .m                  43.00:  DF ELEVATION
 TDL .m                 228.00:  TOTAL DEPTH (LOGGER)
 VSC .                       0:  VS TO CLOSURE
 MAGU.                 1854484:  MAGUTM CHECKSUM
~Parameter Information Block
#MNEM.UNIT       Value        Description
#---------     -----------    ---------------------------
 AV  .mps                 4.00:  Ann Velocity 
 AVMX.mps                 4.73:  Max Ann Veloc 
 AZIF.deg               304.48:  Azm, Final 
 BHAT.        Rotary Steerable:  BHA Type 
 BREV.rev            257300.00:  Rev Bit Total 
 BROT.°/30m               0.00:  Build Rotating 
 BS  .in                  8.50:  Bit Size 
 BSZ .in                  8.50:  Bit Size 
 BTPL.psig              589.00:  Bit Press Loss 
 CABU.                      No:  Customer Abuse 
 CGEO.          Mubariz ghayev:  Customer Geo 
 COMM.                     ­R:  Run Comments 1 
 TCS .hr                 64.25:  Time Ciculation Ended 
 CV  .mps                 3.50:  Crit Velocity 
 CVMX.mps                 4.52:  Max Crit Veloc 
 DD1 .             Aziz Aliyev:  Direct Drillr 1 
 DD2 .         Intigam Rahimov:  Direct Drillr 2 
 DD3 .          Rashad Habibov:  Direct Drillr 3 
 DDSV.               Geo-Pilot:  DD Service 
 DEFF.%                  98.00:  % Det Eff 
 DLRX.°/30m               0.00:  Dogleg Rot Max 
 DLSO.°/30m               0.00:  Dogleg Oriented 
 DLSX.°/30m               0.00:  Dogleg Str Max 
 DRET.      10.45.04 08-May-21:  Drill End Time 
 DRST.      03.30.04 04-May-21:  Drill Start Tim 
 DTIM.hr                 14.97:  Time Drilling 
 EDEP.m                4640.01:  End Depth 
 ENG1.         Dail Mahammadov:  Engineer 1 
 ENG2.           Eldar Hajiyev:  Engineer 2 
 ENG3.       Bakhtiar Jabbarli:  Engineer 3 
 ENG4.       Natik Hasanagayev:  Engineer 4 
 ETIM.      09.30.04 14-May-21:  End Time 
 FLOI.gpm               460.00:  Flow In 
 FLON.gpm               200.00:  Flow In Min 
 FLOS.cptm                0.00:  Fluid Loss 
 FLOX.gpm               505.00:  Flow In Max 
 HFLO.                      No:  High Flow 
 HPRE.                      No:  High Pressure 
 HTEM.                      No:  High Temp 
 HYDO.m                   1.80:  Hydro Offset 
 IFIN.deg                66.71:  Inc, Final 
 IMAX.deg                67.03:  Inc Max 
 IMIN.deg                66.63:  Inc Min 
 IMND.m                4550.58:  Inc Min Depth 
 IMXD.m                4439.01:  Inc Max Depth 
 JARR.                      No:  Jarring 
 LETM.      10.45.04 08-May-21:  Log End Time 
 LOST.hr                     0:  Lost Rig Time 
 LSTM.      03.30.04 04-May-21:  Log Start Time 
 MDCL.ppm             37000.00:  Mud Chlorides 
 MDES.     Inversion Oil/Synthetic:  Mud Desc 
 DFD .sg                  1.38:  Mud Density 
 MDMN.sg                  1.35:  Dens Mud Min 
 MDMX.sg                  1.40:  Dens Mud Max 
 MOIL.                   57.40:  Run Mud Oil % 
 MOWR.                   70:30:  Run Mud OWR 
 MSND.                    0.00:  Run Mud Sand % 
 MSOL.                   18.00:  Run Mud Solids% 
 DFV .spqt               71.00:  Mud Viscosity 
 MWOD.in                  6.75:  MWD Tool OD 
 MWSI.                      No:  Serv Intrp, MWD 
 OTIM.hr                242.76:  Time Operating 
 PCON.           Look Like New:  Pad Condition 
 PMAX.psia            12183.92:  Press Op, Max 
 PV  .cP                 27.00:  Mud PV 
 RUN .                    1300:  Run Number 
 ROPA.m/hr               15.00:  ROP Avg 
 ROPN.m/hr                9.00:  ROP Min 
 ROPX.m/hr               19.00:  ROP Max 
 RPMA.rpm               120.00:  RPM Surface Avg 
 RPMN.rpm               100.00:  RPM Surface Min 
 RPMX.rpm               120.00:  RPM Surface Max 
 RRUN.                    1300:  Rig Run Number 
 RTIM.hr                  5.00:  Time Reaming 
 SAZI.deg               304.73:  Azm, Start 
 SDEP.m                4412.01:  Start Depth 
 SIDD.                      No:  Serv Intrp, DD 
 SINC.deg                66.82:  Inc, Start 
 SPPA.psig             2800.00:  SPP Avg 
 SPPN.psig             2610.00:  SPP Min 
 SPPX.psig             3100.00:  SPP Max 
 STIM.      03.30.00 04-May-21:  Start Time 
 SVCS.                 DD, MWD:  Services 
 SVER.                    9.20:  Sperry Version 
 TDAT.m                 228.00:  Tot Depth Attmp 
 TDDF.                      No:  Trip for DD 
 TDLG.m                 228.00:  Tot Depth Loggd 
 TFF .                      No:  Trip for Fail 
 TQAA.f-kp               15.00:  Torque Abs Avg 
 TQAN.f-kp               12.00:  Torque Abs Min 
 TQAX.f-kp               22.00:  Torque Abs Max 
 TRRT.°/30m               0.00:  Turn Rotating 
 MRT .                    HCIM:  Maximum Recorded Temperature 
 TTMX.degC               90.20:  Max Tool Temp 
 VS01.                90627813:  Virtual Str1 SN 
 VS02.                90634712:  Virtual Str2 SN 
 VS03.                90643410:  Virtual Str3 SN 
 VS04.                90634712:  Virtual Str4 SN 
 WBMN.klb                 9.00:  WOB Min 
 WITN.        Elmaddin Rahimov:  Customer Rep 
 WITN.         Haytham Mostafa:  Customer Rep 2 
 WOBA.klb                15.00:  WOB Avg 
 WOBX.klb                23.00:  WOB Max 
 YP  .lhf2               29.00:  Yield Point 
~Curve Information Block
#MNEM.UNIT                 API CODE     Curve Description
#---------               -----------    ---------------------------
 TIME.HHMMSS            00 000 000 000:  GT Time & Date
 GTDEPTH.m              00 000 000 000:  GT Depth
 GTPQH.psia             00 000 000 000:  GT HR Quartz Pressure
 GTTQ.degC              00 000 000 000:  GT Quartz Temperature
 GTTN.NONE              00 000 000 000:  GT Test Number
 GTET.sec               00 000 000 000:  GT Elapsed Test Time
 GTTVD.m                00 000 000 000:  GT True Vertical Depth
#Other Information
#
#WARRANTY: Halliburton will use its best efforts to furnish customers with 
#accurate information and interpretations that are part of, and incident to, the services 
#provided.  However, Halliburton cannot and does not warrant the accuracy 
#or correctness of such information and interpretations.  Under no circumstances should any 
#such information or interpretation be relied upon as the sole basis for any drilling, 
#completion, production, or financial decision or any procedure involving any risk to the 
#safety of any drilling venture, drilling rig or its crew or any other third party.  The 
#Customer has full responsibility for all drilling, completion and production operation.  
#Halliburton makes no representations or warranties, either expressed or 
#implied, including, but not limited to, the implied warranties of merchantability or fitness 
#for a particular purpose, with respect to the services rendered.  In no event will 
#Halliburton be liable for failure to obtain any particular results or for 
#any damages, including, but not limited to, indirect, special or consequential damages, 
#resulting from the use of any information or interpretation provided by Halliburton.
#
~A           TIME           GTDEPTH  GTPQH  GTTQ  GTTN  GTET   GTTVD  
# ...
   00:52:43.343.09-May-2021 4512.01 3259.64 67.56 8.00 322.12 2976.83
   00:52:43.544.09-May-2021 4512.01 3259.64 67.56 8.00 322.32 2976.83
   00:52:43.744.09-May-2021 4512.01 3259.79 67.56 8.00 322.52 2976.83
   00:52:43.944.09-May-2021 4512.01 3259.76 67.56 8.00 322.72 2976.83
   00:52:44.144.09-May-2021 4512.01 3259.73 67.56 8.00 322.92 2976.83
   00:52:44.344.09-May-2021 4512.01 3259.93 67.56 8.00 323.12 2976.83
   00:52:44.544.09-May-2021 4512.01 3259.93 67.56 8.00 323.32 2976.83
   00:52:44.744.09-May-2021 4512.01 3259.80 67.56 8.00 323.52 2976.83
   00:52:44.944.09-May-2021 4512.01 3259.80 67.56 8.00 323.72 2976.83
   00:52:45.144.09-May-2021 4512.01 3259.76 67.56 8.00 323.92 2976.83
   00:52:45.344.09-May-2021 4512.01 3259.79 67.56 8.00 324.12 2976.83
   00:52:45.544.09-May-2021 4512.01 3259.79 67.56 8.00 324.32 2976.83
   00:52:45.744.09-May-2021 4512.01 3259.78 67.56 8.00 324.52 2976.83
   00:52:45.944.09-May-2021 4512.01 3259.78 67.56 8.00 324.72 2976.83
   00:52:46.144.09-May-2021 4512.01 3259.77 67.56 8.00 324.92 2976.83
   00:52:46.345.09-May-2021 4512.01 3259.79 67.56 8.00 325.12 2976.83
   00:52:46.545.09-May-2021 4512.01 3259.79 67.56 8.00 325.32 2976.83
   00:52:46.745.09-May-2021 4512.01 3259.76 67.56 8.00 325.52 2976.83
   00:52:46.945.09-May-2021 4512.01 3259.93 67.56 8.00 325.72 2976.83
   00:52:47.145.09-May-2021 4512.01 3259.63 67.56 8.00 325.92 2976.83
   00:52:47.345.09-May-2021 4512.01 3259.80 67.56 8.00 326.12 2976.83
   00:52:47.545.09-May-2021 4512.01 3259.80 67.56 8.00 326.32 2976.83
   00:52:47.745.09-May-2021 4512.01 3259.77 67.56 8.00 326.52 2976.83
   00:52:47.945.09-May-2021 4512.01 3259.77 67.56 8.00 326.72 2976.83
   00:52:48.145.09-May-2021 4512.01 3259.76 67.56 8.00 326.92 2976.83
   00:52:48.345.09-May-2021 4512.01 3259.78 67.56 8.00 327.12 2976.83
   00:52:48.545.09-May-2021 4512.01 3259.78 67.56 8.00 327.32 2976.83
   00:52:48.745.09-May-2021 4512.01 3259.79 67.56 8.00 327.52 2976.83
   00:52:48.945.09-May-2021 4512.01 3259.77 67.56 8.00 327.72 2976.83
   00:52:49.146.09-May-2021 4512.01 3259.75 67.56 8.00 327.92 2976.83
   00:52:49.346.09-May-2021 4512.01 3259.75 67.56 8.00 328.12 2976.83
   00:52:49.546.09-May-2021 4512.01 3259.75 67.56 8.00 328.32 2976.83
   00:52:49.746.09-May-2021 4512.01 3259.63 67.56 8.00 328.52 2976.83
   00:52:49.946.09-May-2021 4512.01 3259.80 67.56 8.00 328.72 2976.83
   00:52:50.146.09-May-2021 4512.01 3259.78 67.56 8.00 328.92 2976.83
   00:52:50.346.09-May-2021 4512.01 3259.75 67.56 8.00 329.12 2976.83
   00:52:50.546.09-May-2021 4512.01 3259.75 67.56 8.00 329.32 2976.83
   00:52:50.746.09-May-2021 4512.01 3259.94 67.56 8.00 329.52 2976.83
   00:52:50.946.09-May-2021 4512.01 3259.62 67.56 8.00 329.72 2976.83
   00:52:51.146.09-May-2021 4512.01 3259.76 67.56 8.00 329.92 2976.83
   00:52:51.346.09-May-2021 4512.01 3259.77 67.56 8.00 330.12 2976.83
   00:52:51.546.09-May-2021 4512.01 3259.77 67.56 8.00 330.32 2976.83
   00:52:51.747.09-May-2021 4512.01 3259.64 67.56 8.00 330.52 2976.83
   00:52:51.947.09-May-2021 4512.01 3259.78 67.56 8.00 330.72 2976.83
   00:52:52.147.09-May-2021 4512.01 3259.79 67.56 8.00 330.92 2976.83
   00:52:52.347.09-May-2021 4512.01 3259.76 67.56 8.00 331.12 2976.83
   00:52:52.547.09-May-2021 4512.01 3259.76 67.56 8.00 331.32 2976.83
   00:52:52.747.09-May-2021 4512.01 3259.92 67.56 8.00 331.52 2976.83
   00:52:52.947.09-May-2021 4512.01 3259.63 67.56 8.00 331.72 2976.83
   00:52:53.147.09-May-2021 4512.01 3259.80 67.56 8.00 331.92 2976.83
   00:52:53.347.09-May-2021 4512.01 3259.80 67.56 8.00 332.12 2976.83
   00:52:53.547.09-May-2021 4512.01 3259.80 67.56 8.00 332.32 2976.83
   00:52:53.747.09-May-2021 4512.01 3259.79 67.56 8.00 332.52 2976.83
   00:52:53.947.09-May-2021 4512.01 3259.76 67.56 8.00 332.72 2976.83
   00:52:54.147.09-May-2021 4512.01 3259.78 67.56 8.00 332.92 2976.83
   00:52:54.347.09-May-2021 4512.01 3259.80 67.56 8.00 333.12 2976.83
   00:52:54.548.09-May-2021 4512.01 3259.80 67.56 8.00 333.32 2976.83
   00:52:54.748.09-May-2021 4512.01 3259.77 67.56 8.00 333.52 2976.83
   00:52:54.948.09-May-2021 4512.01 3259.75 67.56 8.00 333.72 2976.83
   00:52:55.148.09-May-2021 4512.01 3259.76 67.56 8.00 333.92 2976.83
   00:52:55.348.09-May-2021 4512.01 3259.93 67.56 8.00 334.12 2976.83
   00:52:55.548.09-May-2021 4512.01 3259.93 67.56 8.00 334.32 2976.83
   00:52:55.748.09-May-2021 4512.01 3259.79 67.56 8.00 334.52 2976.83
   00:52:55.948.09-May-2021 4512.01 3259.79 67.56 8.00 334.72 2976.83
   00:52:56.148.09-May-2021 4512.01 3259.77 67.56 8.00 334.92 2976.83
   00:52:56.348.09-May-2021 4512.01 3259.77 67.56 8.00 335.12 2976.83
   00:52:56.548.09-May-2021 4512.01 3259.77 67.56 8.00 335.32 2976.83
   00:52:56.748.09-May-2021 4512.01 3259.78 67.56 8.00 335.52 2976.83
   00:52:56.948.09-May-2021 4512.01 3259.77 67.56 8.00 335.72 2976.83
   00:52:57.148.09-May-2021 4512.01 3259.78 67.56 8.00 335.92 2976.83
   00:52:57.349.09-May-2021 4512.01 3259.77 67.56 8.00 336.12 2976.83
   00:52:57.549.09-May-2021 4512.01 3259.77 67.56 8.00 336.32 2976.83
   00:52:57.749.09-May-2021 4512.01 3259.75 67.56 8.00 336.52 2976.83
   00:52:57.949.09-May-2021 4512.01 3259.92 67.56 8.00 336.72 2976.83
   00:52:58.149.09-May-2021 4512.01 3259.64 67.56 8.00 336.92 2976.83
   00:52:58.349.09-May-2021 4512.01 3259.80 67.56 8.00 337.12 2976.83
   00:52:58.549.09-May-2021 4512.01 3259.80 67.56 8.00 337.32 2976.83
   00:52:58.749.09-May-2021 4512.01 3259.75 67.56 8.00 337.52 2976.83
   00:52:58.949.09-May-2021 4512.01 3259.74 67.56 8.00 337.72 2976.83
   00:52:59.149.09-May-2021 4512.01 3259.94 67.56 8.00 337.92 2976.83
   00:52:59.349.09-May-2021 4512.01 3259.64 67.56 8.00 338.12 2976.83
   00:52:59.549.09-May-2021 4512.01 3259.64 67.56 8.00 338.32 2976.83
   00:52:59.749.09-May-2021 4512.01 3259.78 67.56 8.00 338.52 2976.83
   00:52:59.949.09-May-2021 4512.01 3259.93 67.56 8.00 338.72 2976.83
   00:53:00.150.09-May-2021 4512.01 3259.64 67.56 8.00 338.92 2976.83
   00:53:00.350.09-May-2021 4512.01 3259.79 67.56 8.00 339.12 2976.83
   00:53:00.550.09-May-2021 4512.01 3259.79 67.56 8.00 339.32 2976.83
   00:53:00.750.09-May-2021 4512.01 3259.76 67.56 8.00 339.52 2976.83
   00:53:00.950.09-May-2021 4512.01 3259.74 67.56 8.00 339.72 2976.83
   00:53:01.150.09-May-2021 4512.01 3259.92 67.56 8.00 339.92 2976.83
   00:53:01.350.09-May-2021 4512.01 3259.63 67.56 8.00 340.12 2976.83
   00:53:01.550.09-May-2021 4512.01 3259.63 67.56 8.00 340.32 2976.83
   00:53:01.750.09-May-2021 4512.01 3259.80 67.56 8.00 340.52 2976.83
   00:53:01.950.09-May-2021 4512.01 3259.78 67.56 8.00 340.72 2976.83
   00:53:02.150.09-May-2021 4512.01 3259.78 67.56 8.00 340.92 2976.83
   00:53:02.350.09-May-2021 4512.01 3259.76 67.56 8.00 341.12 2976.83
   00:53:02.550.09-May-2021 4512.01 3259.76 67.56 8.00 341.32 2976.83
   00:53:02.750.09-May-2021 4512.01 3259.78 67.56 8.00 341.52 2976.83
   00:53:02.951.09-May-2021 4512.01 3259.78 67.56 8.00 341.72 2976.83
   00:53:03.151.09-May-2021 4512.01 3259.78 67.56 8.00 341.92 2976.83
   00:53:03.351.09-May-2021 4512.01 3259.75 67.56 8.00 342.12 2976.83
   00:53:03.551.09-May-2021 4512.01 3259.75 67.56 8.00 342.32 2976.83
   00:53:03.751.09-May-2021 4512.01 3259.94 67.56 8.00 342.52 2976.83
   00:53:03.951.09-May-2021 4512.01 3259.63 67.56 8.00 342.72 2976.83
   00:53:04.151.09-May-2021 4512.01 3259.80 67.56 8.00 342.92 2976.83
   00:53:04.351.09-May-2021 4512.01 3259.80 67.56 8.00 343.12 2976.83
   00:53:04.551.09-May-2021 4512.01 3259.80 67.56 8.00 343.32 2976.83
   00:53:04.751.09-May-2021 4512.01 3259.78 67.56 8.00 343.52 2976.83
   00:53:04.951.09-May-2021 4512.01 3259.77 67.56 8.00 343.72 2976.83
   00:53:05.151.09-May-2021 4512.01 3259.79 67.56 8.00 343.92 2976.83
   00:53:05.351.09-May-2021 4512.01 3259.78 67.56 8.00 344.12 2976.83
   00:53:05.552.09-May-2021 4512.01 3259.78 67.56 8.00 344.32 2976.83
   00:53:05.752.09-May-2021 4512.01 3259.77 67.56 8.00 344.52 2976.83
   00:53:05.952.09-May-2021 4512.01 3259.75 67.56 8.00 344.72 2976.83
   00:53:06.152.09-May-2021 4512.01 3259.75 67.56 8.00 344.92 2976.83
