~Version Information
 VERS.                  2.0:   CWLS log ASCII Standard -VERSION 2.0
 WRAP.                   NO:   One line per depth step
~Well Information Block
#MNEM.UNIT     VALUE/NAME     DESCRIPTION
#---------     -----------    ---------------------------
 STRT.S             20:19:26 08-May-21: START TIME 20:19:26 08-May-21
 STOP.S             20:26:06 08-May-21: STOP TIME  20:26:06 08-May-21
 STEP.S                   0.00: STEP TIME
 NULL.                 -999.25: NULL VALUE
 PROV.                    Baku:  PROVINCE
 STAT.                    Baku:  STATE NAME
 SON .        AZ-XX-0906571588:  JOB NUMBER
 WTYP.                Deviated:  WELL TYPE
 COMP.     BP Exploration (Caspian Sea) ltd:  COMPANY
 BASE.              Azerbaijan:  LOGGING EQUIPMENT BASE LOCATION
 REGN.                   EESSA:  REGION
 CTRY.              Azerbaijan:  COUNTRY NAME
 FLD .                     ACG:  FIELD NAME
 WELL.                     J28:  WELL NAME
 RIG .             West Chirag:  RIG NAME
 DMF .             Drill Floor:  DRILL MEAS FROM
 PDAT.       Caspian Sea Level:  PERMANENT DATUM
 HPTY.       Minimum Curvature:  HOLE POS TYPE
 MDS .        Operator Entered:  MAG DATA SOURCE
 NREF.                    Grid:  NORTH REFERENCE
 SRVC.          TURAN DRILLING:  CONTRACTOR
 JOBN.        AZ-XX-0906571588:  JOB TICKET NUMB
 DCON.     Halliburton Sperry Drilling:  DIRECTNL CONTR
 STIM.      00.44.00 11-Feb-21:  START TIME
 DATE.      00.00.00 05-May-21:  END TIME
 SPUD.               13-Feb-21:  SPUD DATE
 MWDS.                    Baku:  MWD SHOP
 DOE .                     N/A:  DOE NUMBER
 UNIT.                     N/A:  LOGGING EQUIPMENT ID
 UWI .                     N/A:  UNIQUE WELL IDENTIFIER
 API .                     N/A:  API NUMBER
 CNTY.                        :  COUNTY
 LOC .                        :  LOCATION
 LMF .             Drill Floor:  LOG MEASURED FROM
 TVDS.m                  43.00:  TVDSS CORRECTN
 SDEP.m                 341.00:  START DEPTH
 EGL .m                   0.00:  GROUND ELEVATION
 WDMS.m                 169.80:  WD ELEV
 AGAP.m                  43.00:  AIR GAP
 EPD .m                   0.00:  ELEVATION
 APD .m                  43.00:  DEPTH ABOVE PD
 LATI.deg                40.13:  LATITUDE
 LONG.deg                51.22:  LONGITUDE
 UTMY.m             4443793.85:  UTM Y
 UTMX.m              519005.06:  UTM X
 WHEW.m                 -11.57:  WELL HEAD E/W
 WHNS.m                   8.57:  WELL HEAD N/S
 VSEW.m                 -11.57:  VERT SEC E/W
 VSNS.m                   8.57:  VERT SEC N/S
 DFWL.m                   0.00:  DISTANCE FWL
 DFSL.m                   0.00:  DISTANCE FSL
 VSDR.deg               299.34:  VERT SEC DIRECT
 GVFD.g                   1.00:  GRAVITY FIELD
 AZTC.deg                 6.36:  AZM TOTAL CORR
 MFLD.nT              50391.00:  MAGNETIC FIELD
 MDIP.deg                59.65:  MAGNETIC DIP
 MDEC.deg                 6.48:  MAGNETIC DECL
 GRDC.deg                 0.12:  GRID CORRECTION
 DEP .m                 334.96:  DEPTH
 TDD .m                1407.26:  TOTAL DEPTH (DRILLER)
 EKB .m                  43.00:  KB ELEVATION
 EDF .m                  43.00:  DF ELEVATION
 TDL .m                 228.00:  TOTAL DEPTH (LOGGER)
 VSC .                       0:  VS TO CLOSURE
 MAGU.                 1854484:  MAGUTM CHECKSUM
~Parameter Information Block
#MNEM.UNIT       Value        Description
#---------     -----------    ---------------------------
 AV  .mps                 4.00:  Ann Velocity 
 AVMX.mps                 4.73:  Max Ann Veloc 
 AZIF.deg               304.48:  Azm, Final 
 BHAT.        Rotary Steerable:  BHA Type 
 BREV.rev            257300.00:  Rev Bit Total 
 BROT.°/30m               0.00:  Build Rotating 
 BS  .in                  8.50:  Bit Size 
 BSZ .in                  8.50:  Bit Size 
 BTPL.psig              589.00:  Bit Press Loss 
 CABU.                      No:  Customer Abuse 
 CGEO.          Mubariz ghayev:  Customer Geo 
 COMM.                     $w`:  Run Comments 1 
 TCS .hr                 64.25:  Time Ciculation Ended 
 CV  .mps                 3.50:  Crit Velocity 
 CVMX.mps                 4.52:  Max Crit Veloc 
 DD1 .             Aziz Aliyev:  Direct Drillr 1 
 DD2 .         Intigam Rahimov:  Direct Drillr 2 
 DD3 .          Rashad Habibov:  Direct Drillr 3 
 DDSV.               Geo-Pilot:  DD Service 
 DEFF.%                  98.00:  % Det Eff 
 DLRX.°/30m               0.00:  Dogleg Rot Max 
 DLSO.°/30m               0.00:  Dogleg Oriented 
 DLSX.°/30m               0.00:  Dogleg Str Max 
 DRET.      10.45.04 08-May-21:  Drill End Time 
 DRST.      03.30.04 04-May-21:  Drill Start Tim 
 DTIM.hr                 14.97:  Time Drilling 
 EDEP.m                4640.01:  End Depth 
 ENG1.         Dail Mahammadov:  Engineer 1 
 ENG2.           Eldar Hajiyev:  Engineer 2 
 ENG3.       Bakhtiar Jabbarli:  Engineer 3 
 ENG4.       Natik Hasanagayev:  Engineer 4 
 ETIM.      09.30.04 14-May-21:  End Time 
 FLOI.gpm               460.00:  Flow In 
 FLON.gpm               200.00:  Flow In Min 
 FLOS.cptm                0.00:  Fluid Loss 
 FLOX.gpm               505.00:  Flow In Max 
 HFLO.                      No:  High Flow 
 HPRE.                      No:  High Pressure 
 HTEM.                      No:  High Temp 
 HYDO.m                   1.80:  Hydro Offset 
 IFIN.deg                66.71:  Inc, Final 
 IMAX.deg                67.03:  Inc Max 
 IMIN.deg                66.63:  Inc Min 
 IMND.m                4550.58:  Inc Min Depth 
 IMXD.m                4439.01:  Inc Max Depth 
 JARR.                      No:  Jarring 
 LETM.      10.45.04 08-May-21:  Log End Time 
 LOST.hr                     0:  Lost Rig Time 
 LSTM.      03.30.04 04-May-21:  Log Start Time 
 MDCL.ppm             37000.00:  Mud Chlorides 
 MDES.     Inversion Oil/Synthetic:  Mud Desc 
 DFD .sg                  1.38:  Mud Density 
 MDMN.sg                  1.35:  Dens Mud Min 
 MDMX.sg                  1.40:  Dens Mud Max 
 MOIL.                   57.40:  Run Mud Oil % 
 MOWR.                   70:30:  Run Mud OWR 
 MSND.                    0.00:  Run Mud Sand % 
 MSOL.                   18.00:  Run Mud Solids% 
 DFV .spqt               71.00:  Mud Viscosity 
 MWOD.in                  6.75:  MWD Tool OD 
 MWSI.                      No:  Serv Intrp, MWD 
 OTIM.hr                242.76:  Time Operating 
 PCON.           Look Like New:  Pad Condition 
 PMAX.psia            12183.92:  Press Op, Max 
 PV  .cP                 27.00:  Mud PV 
 RUN .                    1300:  Run Number 
 ROPA.m/hr               15.00:  ROP Avg 
 ROPN.m/hr                9.00:  ROP Min 
 ROPX.m/hr               19.00:  ROP Max 
 RPMA.rpm               120.00:  RPM Surface Avg 
 RPMN.rpm               100.00:  RPM Surface Min 
 RPMX.rpm               120.00:  RPM Surface Max 
 RRUN.                    1300:  Rig Run Number 
 RTIM.hr                  5.00:  Time Reaming 
 SAZI.deg               304.73:  Azm, Start 
 SDEP.m                4412.01:  Start Depth 
 SIDD.                      No:  Serv Intrp, DD 
 SINC.deg                66.82:  Inc, Start 
 SPPA.psig             2800.00:  SPP Avg 
 SPPN.psig             2610.00:  SPP Min 
 SPPX.psig             3100.00:  SPP Max 
 STIM.      03.30.00 04-May-21:  Start Time 
 SVCS.                 DD, MWD:  Services 
 SVER.                    9.20:  Sperry Version 
 TDAT.m                 228.00:  Tot Depth Attmp 
 TDDF.                      No:  Trip for DD 
 TDLG.m                 228.00:  Tot Depth Loggd 
 TFF .                      No:  Trip for Fail 
 TQAA.f-kp               15.00:  Torque Abs Avg 
 TQAN.f-kp               12.00:  Torque Abs Min 
 TQAX.f-kp               22.00:  Torque Abs Max 
 TRRT.°/30m               0.00:  Turn Rotating 
 MRT .                    HCIM:  Maximum Recorded Temperature 
 TTMX.degC               90.20:  Max Tool Temp 
 VS01.                90627813:  Virtual Str1 SN 
 VS02.                90634712:  Virtual Str2 SN 
 VS03.                90643410:  Virtual Str3 SN 
 VS04.                90634712:  Virtual Str4 SN 
 WBMN.klb                 9.00:  WOB Min 
 WITN.        Elmaddin Rahimov:  Customer Rep 
 WITN.         Haytham Mostafa:  Customer Rep 2 
 WOBA.klb                15.00:  WOB Avg 
 WOBX.klb                23.00:  WOB Max 
 YP  .lhf2               29.00:  Yield Point 
~Curve Information Block
#MNEM.UNIT                 API CODE     Curve Description
#---------               -----------    ---------------------------
 TIME.HHMMSS            00 000 000 000:  GT Time & Date
 GTDEPTH.m              00 000 000 000:  GT Depth
 GTPQH.psia             00 000 000 000:  GT HR Quartz Pressure
 GTTQ.degC              00 000 000 000:  GT Quartz Temperature
 GTTN.NONE              00 000 000 000:  GT Test Number
 GTET.sec               00 000 000 000:  GT Elapsed Test Time
 GTTVD.m                00 000 000 000:  GT True Vertical Depth
#Other Information
#
#WARRANTY: Halliburton will use its best efforts to furnish customers with 
#accurate information and interpretations that are part of, and incident to, the services 
#provided.  However, Halliburton cannot and does not warrant the accuracy 
#or correctness of such information and interpretations.  Under no circumstances should any 
#such information or interpretation be relied upon as the sole basis for any drilling, 
#completion, production, or financial decision or any procedure involving any risk to the 
#safety of any drilling venture, drilling rig or its crew or any other third party.  The 
#Customer has full responsibility for all drilling, completion and production operation.  
#Halliburton makes no representations or warranties, either expressed or 
#implied, including, but not limited to, the implied warranties of merchantability or fitness 
#for a particular purpose, with respect to the services rendered.  In no event will 
#Halliburton be liable for failure to obtain any particular results or for 
#any damages, including, but not limited to, indirect, special or consequential damages, 
#resulting from the use of any information or interpretation provided by Halliburton.
#
~A           TIME           GTDEPTH  GTPQH  GTTQ  GTTN  GTET   GTTVD  
# ...
   20:20:12.543.08-May-2021 4592.01  716.82 69.08 1.00  46.00 3008.50
   20:20:12.743.08-May-2021 4592.01  716.82 69.08 1.00  46.20 3008.50
   20:20:12.943.08-May-2021 4592.01  728.28 69.08 1.00  46.40 3008.50
   20:20:13.143.08-May-2021 4592.01  740.24 69.07 1.00  46.60 3008.50
   20:20:13.343.08-May-2021 4592.01  748.36 69.07 1.00  46.80 3008.50
   20:20:13.543.08-May-2021 4592.01  755.65 69.07 1.00  47.00 3008.50
   20:20:13.743.08-May-2021 4592.01  755.65 69.07 1.00  47.20 3008.50
   20:20:13.943.08-May-2021 4592.01  774.93 69.07 1.00  47.40 3008.50
   20:20:14.143.08-May-2021 4592.01  782.86 69.07 1.00  47.60 3008.50
   20:20:14.343.08-May-2021 4592.01  790.82 69.06 1.00  47.80 3008.50
   20:20:14.543.08-May-2021 4592.01  797.65 69.06 1.00  48.00 3008.50
   20:20:14.743.08-May-2021 4592.01  797.65 69.06 1.00  48.20 3008.50
   20:20:14.943.08-May-2021 4592.01  811.45 69.06 1.00  48.41 3008.50
   20:20:15.143.08-May-2021 4592.01  817.69 69.06 1.00  48.61 3008.50
   20:20:15.343.08-May-2021 4592.01  823.77 69.06 1.00  48.81 3008.50
   20:20:15.543.08-May-2021 4592.01  829.55 69.06 1.00  49.01 3008.50
   20:20:15.743.08-May-2021 4592.01  829.55 69.06 1.00  49.21 3008.50
   20:20:15.943.08-May-2021 4592.01  840.69 69.06 1.00  49.41 3008.50
   20:20:16.143.08-May-2021 4592.01  846.01 69.05 1.00  49.61 3008.50
   20:20:16.343.08-May-2021 4592.01  851.01 69.05 1.00  49.81 3008.50
   20:20:16.543.08-May-2021 4592.01  857.01 69.05 1.00  50.01 3008.50
   20:20:16.743.08-May-2021 4592.01  857.01 69.05 1.00  50.21 3008.50
   20:20:16.943.08-May-2021 4592.01  868.95 69.05 1.00  50.41 3008.50
   20:20:17.143.08-May-2021 4592.01  873.97 69.05 1.00  50.61 3008.50
   20:20:17.343.08-May-2021 4592.01  888.08 69.05 1.00  50.81 3008.50
   20:20:17.543.08-May-2021 4592.01  897.91 69.05 1.00  51.01 3008.50
   20:20:17.743.08-May-2021 4592.01  897.91 69.05 1.00  51.21 3008.50
   20:20:17.943.08-May-2021 4592.01  911.39 69.05 1.00  51.41 3008.50
   20:20:18.143.08-May-2021 4592.01  917.29 69.05 1.00  51.61 3008.50
   20:20:18.343.08-May-2021 4592.01  923.87 69.05 1.00  51.81 3008.50
   20:20:18.543.08-May-2021 4592.01  931.87 69.05 1.00  52.01 3008.50
   20:20:18.743.08-May-2021 4592.01  931.87 69.05 1.00  52.21 3008.50
   20:20:18.943.08-May-2021 4592.01  944.83 69.05 1.00  52.41 3008.50
   20:20:19.143.08-May-2021 4592.01  950.52 69.05 1.00  52.61 3008.50
   20:20:19.343.08-May-2021 4592.01  955.46 69.05 1.00  52.81 3008.50
   20:20:19.543.08-May-2021 4592.01  962.70 69.05 1.00  53.01 3008.50
   20:20:19.744.08-May-2021 4592.01  962.70 69.05 1.00  53.21 3008.50
   20:20:19.944.08-May-2021 4592.01  980.06 69.05 1.00  53.41 3008.50
   20:20:20.144.08-May-2021 4592.01  985.90 69.05 1.00  53.61 3008.50
   20:20:20.344.08-May-2021 4592.01  991.91 69.05 1.00  53.81 3008.50
   20:20:20.544.08-May-2021 4592.01  997.00 69.05 1.00  54.01 3008.50
   20:20:20.744.08-May-2021 4592.01  997.00 69.05 1.00  54.21 3008.50
   20:20:20.944.08-May-2021 4592.01 1006.78 69.05 1.00  54.41 3008.50
   20:20:21.144.08-May-2021 4592.01 1011.56 69.05 1.00  54.61 3008.50
   20:20:21.344.08-May-2021 4592.01 1016.22 69.05 1.00  54.81 3008.50
   20:20:21.544.08-May-2021 4592.01 1021.54 69.05 1.00  55.01 3008.50
   20:20:21.744.08-May-2021 4592.01 1021.54 69.05 1.00  55.21 3008.50
   20:20:21.944.08-May-2021 4592.01 1030.02 69.05 1.00  55.41 3008.50
   20:20:22.144.08-May-2021 4592.01 1035.08 69.05 1.00  55.61 3008.50
   20:20:22.344.08-May-2021 4592.01 1039.47 69.05 1.00  55.81 3008.50
   20:20:22.544.08-May-2021 4592.01 1051.64 69.05 1.00  56.01 3008.50
   20:20:22.744.08-May-2021 4592.01 1051.64 69.05 1.00  56.21 3008.50
   20:20:22.944.08-May-2021 4592.01 1090.42 69.05 1.00  56.41 3008.50
   20:20:23.144.08-May-2021 4592.01 1107.80 69.05 1.00  56.61 3008.50
   20:20:23.344.08-May-2021 4592.01 1117.30 69.05 1.00  56.81 3008.50
   20:20:23.544.08-May-2021 4592.01 1124.20 69.05 1.00  57.01 3008.50
   20:20:23.744.08-May-2021 4592.01 1124.20 69.05 1.00  57.21 3008.50
   20:20:23.944.08-May-2021 4592.01 1135.44 69.05 1.00  57.41 3008.50
   20:20:24.144.08-May-2021 4592.01 1140.54 69.05 1.00  57.61 3008.50
   20:20:24.344.08-May-2021 4592.01 1145.32 69.05 1.00  57.81 3008.50
   20:20:24.544.08-May-2021 4592.01 1149.01 69.05 1.00  58.01 3008.50
   20:20:24.744.08-May-2021 4592.01 1149.01 69.05 1.00  58.21 3008.50
   20:20:24.944.08-May-2021 4592.01 1158.66 69.05 1.00  58.41 3008.50
   20:20:25.144.08-May-2021 4592.01 1162.68 69.05 1.00  58.61 3008.50
   20:20:25.344.08-May-2021 4592.01 1166.93 69.05 1.00  58.81 3008.50
   20:20:25.544.08-May-2021 4592.01 1172.18 69.05 1.00  59.01 3008.50
   20:20:25.744.08-May-2021 4592.01 1172.18 69.05 1.00  59.21 3008.50
   20:20:25.944.08-May-2021 4592.01 1181.21 69.05 1.00  59.41 3008.50
   20:20:26.144.08-May-2021 4592.01 1186.05 69.05 1.00  59.61 3008.50
   20:20:26.344.08-May-2021 4592.01 1190.02 69.05 1.00  59.81 3008.50
   20:20:26.544.08-May-2021 4592.01 1194.18 69.05 1.00  60.01 3008.50
   20:20:26.744.08-May-2021 4592.01 1194.18 69.05 1.00  60.21 3008.50
   20:20:26.944.08-May-2021 4592.01 1202.41 69.05 1.00  60.41 3008.50
   20:20:27.144.08-May-2021 4592.01 1206.15 69.05 1.00  60.61 3008.50
   20:20:27.344.08-May-2021 4592.01 1210.42 69.05 1.00  60.81 3008.50
   20:20:27.544.08-May-2021 4592.01 1213.92 69.05 1.00  61.01 3008.50
   20:20:27.744.08-May-2021 4592.01 1213.92 69.05 1.00  61.21 3008.50
   20:20:27.944.08-May-2021 4592.01 1221.58 69.06 1.00  61.41 3008.50
   20:20:28.144.08-May-2021 4592.01 1228.57 69.06 1.00  61.61 3008.50
   20:20:28.344.08-May-2021 4592.01 1232.49 69.06 1.00  61.81 3008.50
   20:20:28.544.08-May-2021 4592.01 1236.02 69.06 1.00  62.01 3008.50
   20:20:28.744.08-May-2021 4592.01 1236.02 69.06 1.00  62.21 3008.50
   20:20:28.944.08-May-2021 4592.01 1242.72 69.06 1.00  62.41 3008.50
   20:20:29.144.08-May-2021 4592.01 1245.64 69.06 1.00  62.61 3008.50
   20:20:29.345.08-May-2021 4592.01 1249.22 69.06 1.00  62.81 3008.50
   20:20:29.545.08-May-2021 4592.01 1252.67 69.06 1.00  63.01 3008.50
   20:20:29.745.08-May-2021 4592.01 1252.67 69.06 1.00  63.21 3008.50
   20:20:29.945.08-May-2021 4592.01 1259.49 69.06 1.00  63.41 3008.50
   20:20:30.145.08-May-2021 4592.01 1262.62 69.06 1.00  63.61 3008.50
   20:20:30.345.08-May-2021 4592.01 1265.81 69.06 1.00  63.81 3008.50
   20:20:30.545.08-May-2021 4592.01 1268.92 69.06 1.00  64.01 3008.50
   20:20:30.745.08-May-2021 4592.01 1268.92 69.06 1.00  64.21 3008.50
   20:20:30.945.08-May-2021 4592.01 1274.99 69.06 1.00  64.41 3008.50
   20:20:31.145.08-May-2021 4592.01 1277.85 69.06 1.00  64.61 3008.50
   20:20:31.345.08-May-2021 4592.01 1280.80 69.06 1.00  64.81 3008.50
   20:20:31.545.08-May-2021 4592.01 1283.60 69.06 1.00  65.01 3008.50
   20:20:31.745.08-May-2021 4592.01 1283.60 69.06 1.00  65.21 3008.50
   20:20:31.945.08-May-2021 4592.01 1289.20 69.06 1.00  65.41 3008.50
   20:20:32.145.08-May-2021 4592.01 1292.28 69.06 1.00  65.61 3008.50
   20:20:32.345.08-May-2021 4592.01 1295.59 69.06 1.00  65.81 3008.50
   20:20:32.545.08-May-2021 4592.01 1298.11 69.06 1.00  66.01 3008.50
   20:20:32.745.08-May-2021 4592.01 1298.11 69.06 1.00  66.21 3008.50
   20:20:32.945.08-May-2021 4592.01 1301.87 69.06 1.00  66.41 3008.50
   20:20:33.145.08-May-2021 4592.01 1307.44 69.06 1.00  66.61 3008.50
   20:20:33.345.08-May-2021 4592.01 1311.61 69.06 1.00  66.81 3008.50
   20:20:33.545.08-May-2021 4592.01 1314.28 69.06 1.00  67.01 3008.50
   20:20:33.745.08-May-2021 4592.01 1314.28 69.06 1.00  67.21 3008.50
   20:20:33.945.08-May-2021 4592.01 1320.48 69.07 1.00  67.41 3008.50
   20:20:34.145.08-May-2021 4592.01 1323.12 69.07 1.00  67.61 3008.50
   20:20:34.345.08-May-2021 4592.01 1327.15 69.07 1.00  67.81 3008.50
   20:20:34.545.08-May-2021 4592.01 1330.24 69.07 1.00  68.01 3008.50
   20:20:34.745.08-May-2021 4592.01 1330.24 69.07 1.00  68.21 3008.50
   20:20:34.945.08-May-2021 4592.01 1336.30 69.07 1.00  68.41 3008.50
   20:20:35.145.08-May-2021 4592.01 1339.26 69.07 1.00  68.61 3008.50
   20:20:35.345.08-May-2021 4592.01 1342.16 69.07 1.00  68.81 3008.50
