~Version Information
 VERS.                  2.0:   CWLS log ASCII Standard -VERSION 2.0
 WRAP.                   NO:   One line per depth step
~Well Information Block
#MNEM.UNIT     VALUE/NAME     DESCRIPTION
#---------     -----------    ---------------------------
 STRT.S             20:19:26 08-May-21: START TIME 20:19:26 08-May-21
 STOP.S             20:26:06 08-May-21: STOP TIME  20:26:06 08-May-21
 STEP.S                   0.00: STEP TIME
 NULL.                 -999.25: NULL VALUE
 PROV.                    Baku:  PROVINCE
 STAT.                    Baku:  STATE NAME
 SON .        AZ-XX-0906571588:  JOB NUMBER
 WTYP.                Deviated:  WELL TYPE
 COMP.     BP Exploration (Caspian Sea) ltd:  COMPANY
 BASE.              Azerbaijan:  LOGGING EQUIPMENT BASE LOCATION
 REGN.                   EESSA:  REGION
 CTRY.              Azerbaijan:  COUNTRY NAME
 FLD .                     ACG:  FIELD NAME
 WELL.                     J28:  WELL NAME
 RIG .             West Chirag:  RIG NAME
 DMF .             Drill Floor:  DRILL MEAS FROM
 PDAT.       Caspian Sea Level:  PERMANENT DATUM
 HPTY.       Minimum Curvature:  HOLE POS TYPE
 MDS .        Operator Entered:  MAG DATA SOURCE
 NREF.                    Grid:  NORTH REFERENCE
 SRVC.          TURAN DRILLING:  CONTRACTOR
 JOBN.        AZ-XX-0906571588:  JOB TICKET NUMB
 DCON.     Halliburton Sperry Drilling:  DIRECTNL CONTR
 STIM.      00.44.00 11-Feb-21:  START TIME
 DATE.      00.00.00 05-May-21:  END TIME
 SPUD.               13-Feb-21:  SPUD DATE
 MWDS.                    Baku:  MWD SHOP
 DOE .                     N/A:  DOE NUMBER
 UNIT.                     N/A:  LOGGING EQUIPMENT ID
 UWI .                     N/A:  UNIQUE WELL IDENTIFIER
 API .                     N/A:  API NUMBER
 CNTY.                        :  COUNTY
 LOC .                        :  LOCATION
 LMF .             Drill Floor:  LOG MEASURED FROM
 TVDS.m                  43.00:  TVDSS CORRECTN
 SDEP.m                 341.00:  START DEPTH
 EGL .m                   0.00:  GROUND ELEVATION
 WDMS.m                 169.80:  WD ELEV
 AGAP.m                  43.00:  AIR GAP
 EPD .m                   0.00:  ELEVATION
 APD .m                  43.00:  DEPTH ABOVE PD
 LATI.deg                40.13:  LATITUDE
 LONG.deg                51.22:  LONGITUDE
 UTMY.m             4443793.85:  UTM Y
 UTMX.m              519005.06:  UTM X
 WHEW.m                 -11.57:  WELL HEAD E/W
 WHNS.m                   8.57:  WELL HEAD N/S
 VSEW.m                 -11.57:  VERT SEC E/W
 VSNS.m                   8.57:  VERT SEC N/S
 DFWL.m                   0.00:  DISTANCE FWL
 DFSL.m                   0.00:  DISTANCE FSL
 VSDR.deg               299.34:  VERT SEC DIRECT
 GVFD.g                   1.00:  GRAVITY FIELD
 AZTC.deg                 6.36:  AZM TOTAL CORR
 MFLD.nT              50391.00:  MAGNETIC FIELD
 MDIP.deg                59.65:  MAGNETIC DIP
 MDEC.deg                 6.48:  MAGNETIC DECL
 GRDC.deg                 0.12:  GRID CORRECTION
 DEP .m                 334.96:  DEPTH
 TDD .m                1407.26:  TOTAL DEPTH (DRILLER)
 EKB .m                  43.00:  KB ELEVATION
 EDF .m                  43.00:  DF ELEVATION
 TDL .m                 228.00:  TOTAL DEPTH (LOGGER)
 VSC .                       0:  VS TO CLOSURE
 MAGU.                 1854484:  MAGUTM CHECKSUM
~Parameter Information Block
#MNEM.UNIT       Value        Description
#---------     -----------    ---------------------------
 AV  .mps                 4.00:  Ann Velocity 
 AVMX.mps                 4.73:  Max Ann Veloc 
 AZIF.deg               304.48:  Azm, Final 
 BHAT.        Rotary Steerable:  BHA Type 
 BREV.rev            257300.00:  Rev Bit Total 
 BROT.°/30m               0.00:  Build Rotating 
 BS  .in                  8.50:  Bit Size 
 BSZ .in                  8.50:  Bit Size 
 BTPL.psig              589.00:  Bit Press Loss 
 CABU.                      No:  Customer Abuse 
 CGEO.          Mubariz ghayev:  Customer Geo 
 COMM.                     $w`:  Run Comments 1 
 TCS .hr                 64.25:  Time Ciculation Ended 
 CV  .mps                 3.50:  Crit Velocity 
 CVMX.mps                 4.52:  Max Crit Veloc 
 DD1 .             Aziz Aliyev:  Direct Drillr 1 
 DD2 .         Intigam Rahimov:  Direct Drillr 2 
 DD3 .          Rashad Habibov:  Direct Drillr 3 
 DDSV.               Geo-Pilot:  DD Service 
 DEFF.%                  98.00:  % Det Eff 
 DLRX.°/30m               0.00:  Dogleg Rot Max 
 DLSO.°/30m               0.00:  Dogleg Oriented 
 DLSX.°/30m               0.00:  Dogleg Str Max 
 DRET.      10.45.04 08-May-21:  Drill End Time 
 DRST.      03.30.04 04-May-21:  Drill Start Tim 
 DTIM.hr                 14.97:  Time Drilling 
 EDEP.m                4640.01:  End Depth 
 ENG1.         Dail Mahammadov:  Engineer 1 
 ENG2.           Eldar Hajiyev:  Engineer 2 
 ENG3.       Bakhtiar Jabbarli:  Engineer 3 
 ENG4.       Natik Hasanagayev:  Engineer 4 
 ETIM.      09.30.04 14-May-21:  End Time 
 FLOI.gpm               460.00:  Flow In 
 FLON.gpm               200.00:  Flow In Min 
 FLOS.cptm                0.00:  Fluid Loss 
 FLOX.gpm               505.00:  Flow In Max 
 HFLO.                      No:  High Flow 
 HPRE.                      No:  High Pressure 
 HTEM.                      No:  High Temp 
 HYDO.m                   1.80:  Hydro Offset 
 IFIN.deg                66.71:  Inc, Final 
 IMAX.deg                67.03:  Inc Max 
 IMIN.deg                66.63:  Inc Min 
 IMND.m                4550.58:  Inc Min Depth 
 IMXD.m                4439.01:  Inc Max Depth 
 JARR.                      No:  Jarring 
 LETM.      10.45.04 08-May-21:  Log End Time 
 LOST.hr                     0:  Lost Rig Time 
 LSTM.      03.30.04 04-May-21:  Log Start Time 
 MDCL.ppm             37000.00:  Mud Chlorides 
 MDES.     Inversion Oil/Synthetic:  Mud Desc 
 DFD .sg                  1.38:  Mud Density 
 MDMN.sg                  1.35:  Dens Mud Min 
 MDMX.sg                  1.40:  Dens Mud Max 
 MOIL.                   57.40:  Run Mud Oil % 
 MOWR.                   70:30:  Run Mud OWR 
 MSND.                    0.00:  Run Mud Sand % 
 MSOL.                   18.00:  Run Mud Solids% 
 DFV .spqt               71.00:  Mud Viscosity 
 MWOD.in                  6.75:  MWD Tool OD 
 MWSI.                      No:  Serv Intrp, MWD 
 OTIM.hr                242.76:  Time Operating 
 PCON.           Look Like New:  Pad Condition 
 PMAX.psia            12183.92:  Press Op, Max 
 PV  .cP                 27.00:  Mud PV 
 RUN .                    1300:  Run Number 
 ROPA.m/hr               15.00:  ROP Avg 
 ROPN.m/hr                9.00:  ROP Min 
 ROPX.m/hr               19.00:  ROP Max 
 RPMA.rpm               120.00:  RPM Surface Avg 
 RPMN.rpm               100.00:  RPM Surface Min 
 RPMX.rpm               120.00:  RPM Surface Max 
 RRUN.                    1300:  Rig Run Number 
 RTIM.hr                  5.00:  Time Reaming 
 SAZI.deg               304.73:  Azm, Start 
 SDEP.m                4412.01:  Start Depth 
 SIDD.                      No:  Serv Intrp, DD 
 SINC.deg                66.82:  Inc, Start 
 SPPA.psig             2800.00:  SPP Avg 
 SPPN.psig             2610.00:  SPP Min 
 SPPX.psig             3100.00:  SPP Max 
 STIM.      03.30.00 04-May-21:  Start Time 
 SVCS.                 DD, MWD:  Services 
 SVER.                    9.20:  Sperry Version 
 TDAT.m                 228.00:  Tot Depth Attmp 
 TDDF.                      No:  Trip for DD 
 TDLG.m                 228.00:  Tot Depth Loggd 
 TFF .                      No:  Trip for Fail 
 TQAA.f-kp               15.00:  Torque Abs Avg 
 TQAN.f-kp               12.00:  Torque Abs Min 
 TQAX.f-kp               22.00:  Torque Abs Max 
 TRRT.°/30m               0.00:  Turn Rotating 
 MRT .                    HCIM:  Maximum Recorded Temperature 
 TTMX.degC               90.20:  Max Tool Temp 
 VS01.                90627813:  Virtual Str1 SN 
 VS02.                90634712:  Virtual Str2 SN 
 VS03.                90643410:  Virtual Str3 SN 
 VS04.                90634712:  Virtual Str4 SN 
 WBMN.klb                 9.00:  WOB Min 
 WITN.        Elmaddin Rahimov:  Customer Rep 
 WITN.         Haytham Mostafa:  Customer Rep 2 
 WOBA.klb                15.00:  WOB Avg 
 WOBX.klb                23.00:  WOB Max 
 YP  .lhf2               29.00:  Yield Point 
~Curve Information Block
#MNEM.UNIT                 API CODE     Curve Description
#---------               -----------    ---------------------------
 TIME.HHMMSS            00 000 000 000:  GT Time & Date
 GTDEPTH.m              00 000 000 000:  GT Depth
 GTPQH.psia             00 000 000 000:  GT HR Quartz Pressure
 GTTQ.degC              00 000 000 000:  GT Quartz Temperature
 GTTN.NONE              00 000 000 000:  GT Test Number
 GTET.sec               00 000 000 000:  GT Elapsed Test Time
 GTTVD.m                00 000 000 000:  GT True Vertical Depth
#Other Information
#
#WARRANTY: Halliburton will use its best efforts to furnish customers with 
#accurate information and interpretations that are part of, and incident to, the services 
#provided.  However, Halliburton cannot and does not warrant the accuracy 
#or correctness of such information and interpretations.  Under no circumstances should any 
#such information or interpretation be relied upon as the sole basis for any drilling, 
#completion, production, or financial decision or any procedure involving any risk to the 
#safety of any drilling venture, drilling rig or its crew or any other third party.  The 
#Customer has full responsibility for all drilling, completion and production operation.  
#Halliburton makes no representations or warranties, either expressed or 
#implied, including, but not limited to, the implied warranties of merchantability or fitness 
#for a particular purpose, with respect to the services rendered.  In no event will 
#Halliburton be liable for failure to obtain any particular results or for 
#any damages, including, but not limited to, indirect, special or consequential damages, 
#resulting from the use of any information or interpretation provided by Halliburton.
#
~A           TIME           GTDEPTH  GTPQH  GTTQ  GTTN  GTET   GTTVD  
# ...
   20:25:34.576.08-May-2021 4592.01 6893.15 69.20 1.00 368.04 3008.50
   20:25:34.776.08-May-2021 4592.01 6893.15 69.20 1.00 368.24 3008.50
   20:25:34.976.08-May-2021 4592.01 6890.01 69.20 1.00 368.44 3008.50
   20:25:35.176.08-May-2021 4592.01 6890.59 69.20 1.00 368.64 3008.50
   20:25:35.376.08-May-2021 4592.01 6889.53 69.20 1.00 368.84 3008.50
   20:25:35.576.08-May-2021 4592.01 6889.69 69.20 1.00 369.04 3008.50
   20:25:35.776.08-May-2021 4592.01 6889.69 69.20 1.00 369.24 3008.50
   20:25:35.976.08-May-2021 4592.01 6889.83 69.20 1.00 369.44 3008.50
   20:25:36.176.08-May-2021 4592.01 6890.17 69.20 1.00 369.64 3008.50
   20:25:36.376.08-May-2021 4592.01 6890.52 69.20 1.00 369.84 3008.50
   20:25:36.576.08-May-2021 4592.01 6904.80 69.20 1.00 370.04 3008.50
   20:25:36.776.08-May-2021 4592.01 6904.80 69.20 1.00 370.24 3008.50
   20:25:36.976.08-May-2021 4592.01 6896.85 69.20 1.00 370.44 3008.50
   20:25:37.176.08-May-2021 4592.01 6893.97 69.20 1.00 370.64 3008.50
   20:25:37.376.08-May-2021 4592.01 6891.15 69.20 1.00 370.84 3008.50
   20:25:37.576.08-May-2021 4592.01 6890.71 69.20 1.00 371.04 3008.50
   20:25:37.776.08-May-2021 4592.01 6890.71 69.20 1.00 371.24 3008.50
   20:25:37.976.08-May-2021 4592.01 6889.12 69.20 1.00 371.44 3008.50
   20:25:38.176.08-May-2021 4592.01 6889.20 69.20 1.00 371.64 3008.50
   20:25:38.376.08-May-2021 4592.01 6888.38 69.20 1.00 371.84 3008.50
   20:25:38.576.08-May-2021 4592.01 6887.99 69.20 1.00 372.04 3008.50
   20:25:38.777.08-May-2021 4592.01 6887.99 69.20 1.00 372.24 3008.50
   20:25:38.977.08-May-2021 4592.01 6888.57 69.20 1.00 372.44 3008.50
   20:25:39.177.08-May-2021 4592.01 6894.95 69.20 1.00 372.64 3008.50
   20:25:39.377.08-May-2021 4592.01 6901.21 69.20 1.00 372.84 3008.50
   20:25:39.577.08-May-2021 4592.01 6891.19 69.20 1.00 373.04 3008.50
   20:25:39.777.08-May-2021 4592.01 6891.19 69.20 1.00 373.24 3008.50
   20:25:39.977.08-May-2021 4592.01 6892.20 69.20 1.00 373.44 3008.50
   20:25:40.177.08-May-2021 4592.01 6890.11 69.20 1.00 373.64 3008.50
   20:25:40.377.08-May-2021 4592.01 6902.25 69.20 1.00 373.84 3008.50
   20:25:40.577.08-May-2021 4592.01 6892.29 69.20 1.00 374.04 3008.50
   20:25:40.777.08-May-2021 4592.01 6892.29 69.20 1.00 374.24 3008.50
   20:25:40.977.08-May-2021 4592.01 6889.99 69.20 1.00 374.44 3008.50
   20:25:41.177.08-May-2021 4592.01 6889.54 69.20 1.00 374.64 3008.50
   20:25:41.377.08-May-2021 4592.01 6886.97 69.20 1.00 374.84 3008.50
   20:25:41.577.08-May-2021 4592.01 6900.11 69.20 1.00 375.04 3008.50
   20:25:41.777.08-May-2021 4592.01 6900.11 69.20 1.00 375.24 3008.50
   20:25:41.977.08-May-2021 4592.01 6891.20 69.20 1.00 375.44 3008.50
   20:25:42.177.08-May-2021 4592.01 6906.29 69.20 1.00 375.64 3008.50
   20:25:42.377.08-May-2021 4592.01 6893.94 69.20 1.00 375.84 3008.50
   20:25:42.577.08-May-2021 4592.01 6892.04 69.20 1.00 376.04 3008.50
   20:25:42.777.08-May-2021 4592.01 6892.04 69.20 1.00 376.24 3008.50
   20:25:42.977.08-May-2021 4592.01 6891.31 69.20 1.00 376.44 3008.50
   20:25:43.177.08-May-2021 4592.01 6891.98 69.20 1.00 376.64 3008.50
   20:25:43.377.08-May-2021 4592.01 6891.35 69.20 1.00 376.84 3008.50
   20:25:43.577.08-May-2021 4592.01 6890.53 69.20 1.00 377.04 3008.50
   20:25:43.777.08-May-2021 4592.01 6890.53 69.20 1.00 377.24 3008.50
   20:25:43.977.08-May-2021 4592.01 6890.37 69.20 1.00 377.44 3008.50
   20:25:44.177.08-May-2021 4592.01 6890.90 69.20 1.00 377.64 3008.50
   20:25:44.377.08-May-2021 4592.01 6891.00 69.20 1.00 377.84 3008.50
   20:25:44.577.08-May-2021 4592.01 6891.59 69.20 1.00 378.04 3008.50
   20:25:44.777.08-May-2021 4592.01 6891.59 69.20 1.00 378.24 3008.50
   20:25:44.977.08-May-2021 4592.01 6901.60 69.20 1.00 378.44 3008.50
   20:25:45.177.08-May-2021 4592.01 6893.28 69.20 1.00 378.64 3008.50
   20:25:45.377.08-May-2021 4592.01 6892.69 69.20 1.00 378.84 3008.50
   20:25:45.577.08-May-2021 4592.01 6891.65 69.20 1.00 379.04 3008.50
   20:25:45.777.08-May-2021 4592.01 6891.65 69.20 1.00 379.24 3008.50
   20:25:45.977.08-May-2021 4592.01 6889.39 69.20 1.00 379.44 3008.50
   20:25:46.177.08-May-2021 4592.01 6888.88 69.20 1.00 379.64 3008.50
   20:25:46.377.08-May-2021 4592.01 6888.65 69.20 1.00 379.84 3008.50
   20:25:46.577.08-May-2021 4592.01 6888.32 69.20 1.00 380.04 3008.50
   20:25:46.777.08-May-2021 4592.01 6888.32 69.20 1.00 380.24 3008.50
   20:25:46.977.08-May-2021 4592.01 6888.60 69.20 1.00 380.44 3008.50
   20:25:47.177.08-May-2021 4592.01 6889.90 69.20 1.00 380.64 3008.50
   20:25:47.377.08-May-2021 4592.01 6889.87 69.20 1.00 380.84 3008.50
   20:25:47.577.08-May-2021 4592.01 6901.67 69.20 1.00 381.04 3008.50
   20:25:47.777.08-May-2021 4592.01 6901.67 69.20 1.00 381.24 3008.50
   20:25:47.977.08-May-2021 4592.01 6891.27 69.20 1.00 381.44 3008.50
   20:25:48.177.08-May-2021 4592.01 6892.85 69.20 1.00 381.64 3008.50
   20:25:48.377.08-May-2021 4592.01 6890.25 69.20 1.00 381.84 3008.50
   20:25:48.578.08-May-2021 4592.01 6902.88 69.20 1.00 382.04 3008.50
   20:25:48.778.08-May-2021 4592.01 6902.88 69.20 1.00 382.24 3008.50
   20:25:48.978.08-May-2021 4592.01 6889.25 69.20 1.00 382.44 3008.50
   20:25:49.178.08-May-2021 4592.01 6891.68 69.20 1.00 382.64 3008.50
   20:25:49.378.08-May-2021 4592.01 6888.97 69.20 1.00 382.84 3008.50
   20:25:49.578.08-May-2021 4592.01 6894.92 69.20 1.00 383.04 3008.50
   20:25:49.778.08-May-2021 4592.01 6894.92 69.20 1.00 383.24 3008.50
   20:25:49.978.08-May-2021 4592.01 6890.89 69.19 1.00 383.44 3008.50
   20:25:50.178.08-May-2021 4592.01 6891.94 69.19 1.00 383.64 3008.50
   20:25:50.378.08-May-2021 4592.01 6905.57 69.19 1.00 383.84 3008.50
   20:25:50.578.08-May-2021 4592.01 6892.99 69.19 1.00 384.04 3008.50
   20:25:50.778.08-May-2021 4592.01 6892.99 69.19 1.00 384.24 3008.50
   20:25:50.978.08-May-2021 4592.01 6893.47 69.19 1.00 384.44 3008.50
   20:25:51.178.08-May-2021 4592.01 6889.47 69.19 1.00 384.64 3008.50
   20:25:51.378.08-May-2021 4592.01 6890.01 69.19 1.00 384.84 3008.50
   20:25:51.578.08-May-2021 4592.01 6889.21 69.19 1.00 385.04 3008.50
   20:25:51.778.08-May-2021 4592.01 6889.21 69.19 1.00 385.24 3008.50
   20:25:51.978.08-May-2021 4592.01 6889.00 69.19 1.00 385.44 3008.50
   20:25:52.178.08-May-2021 4592.01 6889.42 69.19 1.00 385.64 3008.50
   20:25:52.378.08-May-2021 4592.01 6889.78 69.19 1.00 385.84 3008.50
   20:25:52.578.08-May-2021 4592.01 6890.25 69.19 1.00 386.04 3008.50
   20:25:52.778.08-May-2021 4592.01 6890.25 69.19 1.00 386.24 3008.50
   20:25:52.978.08-May-2021 4592.01 6904.56 69.19 1.00 386.44 3008.50
   20:25:53.178.08-May-2021 4592.01 6895.25 69.19 1.00 386.64 3008.50
   20:25:53.378.08-May-2021 4592.01 6892.46 69.19 1.00 386.84 3008.50
   20:25:53.578.08-May-2021 4592.01 6894.53 69.19 1.00 387.04 3008.50
   20:25:53.778.08-May-2021 4592.01 6894.53 69.19 1.00 387.24 3008.50
   20:25:53.978.08-May-2021 4592.01 6891.45 69.19 1.00 387.44 3008.50
   20:25:54.178.08-May-2021 4592.01 6890.77 69.19 1.00 387.64 3008.50
   20:25:54.378.08-May-2021 4592.01 6890.17 69.19 1.00 387.84 3008.50
   20:25:54.578.08-May-2021 4592.01 6889.31 69.19 1.00 388.04 3008.50
   20:25:54.778.08-May-2021 4592.01 6889.31 69.19 1.00 388.24 3008.50
   20:25:54.978.08-May-2021 4592.01 6889.18 69.19 1.00 388.44 3008.50
   20:25:55.178.08-May-2021 4592.01 6890.41 69.19 1.00 388.64 3008.50
   20:25:55.378.08-May-2021 4592.01 6890.81 69.19 1.00 388.84 3008.50
   20:25:55.578.08-May-2021 4592.01 6895.98 69.19 1.00 389.04 3008.50
   20:25:55.778.08-May-2021 4592.01 6895.98 69.19 1.00 389.24 3008.50
   20:25:55.978.08-May-2021 4592.01 6891.88 69.19 1.00 389.44 3008.50
   20:25:56.178.08-May-2021 4592.01 6891.39 69.19 1.00 389.64 3008.50
   20:25:56.378.08-May-2021 4592.01 6891.98 69.19 1.00 389.84 3008.50
   20:25:56.578.08-May-2021 4592.01 6889.50 69.19 1.00 390.04 3008.50
   20:25:56.778.08-May-2021 4592.01 6889.50 69.19 1.00 390.24 3008.50
   20:25:56.978.08-May-2021 4592.01 6897.25 69.19 1.00 390.44 3008.50
   20:25:57.178.08-May-2021 4592.01 6890.04 69.19 1.00 390.64 3008.50
   20:25:57.378.08-May-2021 4592.01 6889.05 69.19 1.00 390.84 3008.50
