~Version Information
 VERS.                  2.0:   CWLS log ASCII Standard -VERSION 2.0
 WRAP.                   NO:   One line per depth step
~Well Information Block
#MNEM.UNIT     VALUE/NAME     DESCRIPTION
#---------     -----------    ---------------------------
 STRT.S             00:12:22 09-May-21: START TIME 00:12:22 09-May-21
 STOP.S             00:19:08 09-May-21: STOP TIME  00:19:08 09-May-21
 STEP.S                   0.00: STEP TIME
 NULL.                 -999.25: NULL VALUE
 PROV.                    Baku:  PROVINCE
 STAT.                    Baku:  STATE NAME
 SON .        AZ-XX-0906571588:  JOB NUMBER
 WTYP.                Deviated:  WELL TYPE
 COMP.     BP Exploration (Caspian Sea) ltd:  COMPANY
 BASE.              Azerbaijan:  LOGGING EQUIPMENT BASE LOCATION
 REGN.                   EESSA:  REGION
 CTRY.              Azerbaijan:  COUNTRY NAME
 FLD .                     ACG:  FIELD NAME
 WELL.                     J28:  WELL NAME
 RIG .             West Chirag:  RIG NAME
 DMF .             Drill Floor:  DRILL MEAS FROM
 PDAT.       Caspian Sea Level:  PERMANENT DATUM
 HPTY.       Minimum Curvature:  HOLE POS TYPE
 MDS .        Operator Entered:  MAG DATA SOURCE
 NREF.                    Grid:  NORTH REFERENCE
 SRVC.          TURAN DRILLING:  CONTRACTOR
 JOBN.        AZ-XX-0906571588:  JOB TICKET NUMB
 DCON.     Halliburton Sperry Drilling:  DIRECTNL CONTR
 STIM.      00.44.00 11-Feb-21:  START TIME
 DATE.      00.00.00 05-May-21:  END TIME
 SPUD.               13-Feb-21:  SPUD DATE
 MWDS.                    Baku:  MWD SHOP
 DOE .                     N/A:  DOE NUMBER
 UNIT.                     N/A:  LOGGING EQUIPMENT ID
 UWI .                     N/A:  UNIQUE WELL IDENTIFIER
 API .                     N/A:  API NUMBER
 CNTY.                        :  COUNTY
 LOC .                        :  LOCATION
 LMF .             Drill Floor:  LOG MEASURED FROM
 TVDS.m                  43.00:  TVDSS CORRECTN
 SDEP.m                 341.00:  START DEPTH
 EGL .m                   0.00:  GROUND ELEVATION
 WDMS.m                 169.80:  WD ELEV
 AGAP.m                  43.00:  AIR GAP
 EPD .m                   0.00:  ELEVATION
 APD .m                  43.00:  DEPTH ABOVE PD
 LATI.deg                40.13:  LATITUDE
 LONG.deg                51.22:  LONGITUDE
 UTMY.m             4443793.85:  UTM Y
 UTMX.m              519005.06:  UTM X
 WHEW.m                 -11.57:  WELL HEAD E/W
 WHNS.m                   8.57:  WELL HEAD N/S
 VSEW.m                 -11.57:  VERT SEC E/W
 VSNS.m                   8.57:  VERT SEC N/S
 DFWL.m                   0.00:  DISTANCE FWL
 DFSL.m                   0.00:  DISTANCE FSL
 VSDR.deg               299.34:  VERT SEC DIRECT
 GVFD.g                   1.00:  GRAVITY FIELD
 AZTC.deg                 6.36:  AZM TOTAL CORR
 MFLD.nT              50391.00:  MAGNETIC FIELD
 MDIP.deg                59.65:  MAGNETIC DIP
 MDEC.deg                 6.48:  MAGNETIC DECL
 GRDC.deg                 0.12:  GRID CORRECTION
 DEP .m                 334.96:  DEPTH
 TDD .m                1407.26:  TOTAL DEPTH (DRILLER)
 EKB .m                  43.00:  KB ELEVATION
 EDF .m                  43.00:  DF ELEVATION
 TDL .m                 228.00:  TOTAL DEPTH (LOGGER)
 VSC .                       0:  VS TO CLOSURE
 MAGU.                 1854484:  MAGUTM CHECKSUM
~Parameter Information Block
#MNEM.UNIT       Value        Description
#---------     -----------    ---------------------------
 AV  .mps                 4.00:  Ann Velocity 
 AVMX.mps                 4.73:  Max Ann Veloc 
 AZIF.deg               304.48:  Azm, Final 
 BHAT.        Rotary Steerable:  BHA Type 
 BREV.rev            257300.00:  Rev Bit Total 
 BROT.°/30m               0.00:  Build Rotating 
 BS  .in                  8.50:  Bit Size 
 BSZ .in                  8.50:  Bit Size 
 BTPL.psig              589.00:  Bit Press Loss 
 CABU.                      No:  Customer Abuse 
 CGEO.          Mubariz ghayev:  Customer Geo 
 COMM.                     <Š|:  Run Comments 1 
 TCS .hr                 64.25:  Time Ciculation Ended 
 CV  .mps                 3.50:  Crit Velocity 
 CVMX.mps                 4.52:  Max Crit Veloc 
 DD1 .             Aziz Aliyev:  Direct Drillr 1 
 DD2 .         Intigam Rahimov:  Direct Drillr 2 
 DD3 .          Rashad Habibov:  Direct Drillr 3 
 DDSV.               Geo-Pilot:  DD Service 
 DEFF.%                  98.00:  % Det Eff 
 DLRX.°/30m               0.00:  Dogleg Rot Max 
 DLSO.°/30m               0.00:  Dogleg Oriented 
 DLSX.°/30m               0.00:  Dogleg Str Max 
 DRET.      10.45.04 08-May-21:  Drill End Time 
 DRST.      03.30.04 04-May-21:  Drill Start Tim 
 DTIM.hr                 14.97:  Time Drilling 
 EDEP.m                4640.01:  End Depth 
 ENG1.         Dail Mahammadov:  Engineer 1 
 ENG2.           Eldar Hajiyev:  Engineer 2 
 ENG3.       Bakhtiar Jabbarli:  Engineer 3 
 ENG4.       Natik Hasanagayev:  Engineer 4 
 ETIM.      09.30.04 14-May-21:  End Time 
 FLOI.gpm               460.00:  Flow In 
 FLON.gpm               200.00:  Flow In Min 
 FLOS.cptm                0.00:  Fluid Loss 
 FLOX.gpm               505.00:  Flow In Max 
 HFLO.                      No:  High Flow 
 HPRE.                      No:  High Pressure 
 HTEM.                      No:  High Temp 
 HYDO.m                   1.80:  Hydro Offset 
 IFIN.deg                66.71:  Inc, Final 
 IMAX.deg                67.03:  Inc Max 
 IMIN.deg                66.63:  Inc Min 
 IMND.m                4550.58:  Inc Min Depth 
 IMXD.m                4439.01:  Inc Max Depth 
 JARR.                      No:  Jarring 
 LETM.      10.45.04 08-May-21:  Log End Time 
 LOST.hr                     0:  Lost Rig Time 
 LSTM.      03.30.04 04-May-21:  Log Start Time 
 MDCL.ppm             37000.00:  Mud Chlorides 
 MDES.     Inversion Oil/Synthetic:  Mud Desc 
 DFD .sg                  1.38:  Mud Density 
 MDMN.sg                  1.35:  Dens Mud Min 
 MDMX.sg                  1.40:  Dens Mud Max 
 MOIL.                   57.40:  Run Mud Oil % 
 MOWR.                   70:30:  Run Mud OWR 
 MSND.                    0.00:  Run Mud Sand % 
 MSOL.                   18.00:  Run Mud Solids% 
 DFV .spqt               71.00:  Mud Viscosity 
 MWOD.in                  6.75:  MWD Tool OD 
 MWSI.                      No:  Serv Intrp, MWD 
 OTIM.hr                242.76:  Time Operating 
 PCON.           Look Like New:  Pad Condition 
 PMAX.psia            12183.92:  Press Op, Max 
 PV  .cP                 27.00:  Mud PV 
 RUN .                    1300:  Run Number 
 ROPA.m/hr               15.00:  ROP Avg 
 ROPN.m/hr                9.00:  ROP Min 
 ROPX.m/hr               19.00:  ROP Max 
 RPMA.rpm               120.00:  RPM Surface Avg 
 RPMN.rpm               100.00:  RPM Surface Min 
 RPMX.rpm               120.00:  RPM Surface Max 
 RRUN.                    1300:  Rig Run Number 
 RTIM.hr                  5.00:  Time Reaming 
 SAZI.deg               304.73:  Azm, Start 
 SDEP.m                4412.01:  Start Depth 
 SIDD.                      No:  Serv Intrp, DD 
 SINC.deg                66.82:  Inc, Start 
 SPPA.psig             2800.00:  SPP Avg 
 SPPN.psig             2610.00:  SPP Min 
 SPPX.psig             3100.00:  SPP Max 
 STIM.      03.30.00 04-May-21:  Start Time 
 SVCS.                 DD, MWD:  Services 
 SVER.                    9.20:  Sperry Version 
 TDAT.m                 228.00:  Tot Depth Attmp 
 TDDF.                      No:  Trip for DD 
 TDLG.m                 228.00:  Tot Depth Loggd 
 TFF .                      No:  Trip for Fail 
 TQAA.f-kp               15.00:  Torque Abs Avg 
 TQAN.f-kp               12.00:  Torque Abs Min 
 TQAX.f-kp               22.00:  Torque Abs Max 
 TRRT.°/30m               0.00:  Turn Rotating 
 MRT .                    HCIM:  Maximum Recorded Temperature 
 TTMX.degC               90.20:  Max Tool Temp 
 VS01.                90627813:  Virtual Str1 SN 
 VS02.                90634712:  Virtual Str2 SN 
 VS03.                90643410:  Virtual Str3 SN 
 VS04.                90634712:  Virtual Str4 SN 
 WBMN.klb                 9.00:  WOB Min 
 WITN.        Elmaddin Rahimov:  Customer Rep 
 WITN.         Haytham Mostafa:  Customer Rep 2 
 WOBA.klb                15.00:  WOB Avg 
 WOBX.klb                23.00:  WOB Max 
 YP  .lhf2               29.00:  Yield Point 
~Curve Information Block
#MNEM.UNIT                 API CODE     Curve Description
#---------               -----------    ---------------------------
 TIME.HHMMSS            00 000 000 000:  GT Time & Date
 GTDEPTH.m              00 000 000 000:  GT Depth
 GTPQH.psia             00 000 000 000:  GT HR Quartz Pressure
 GTTQ.degC              00 000 000 000:  GT Quartz Temperature
 GTTN.NONE              00 000 000 000:  GT Test Number
 GTET.sec               00 000 000 000:  GT Elapsed Test Time
 GTTVD.m                00 000 000 000:  GT True Vertical Depth
#Other Information
#
#WARRANTY: Halliburton will use its best efforts to furnish customers with 
#accurate information and interpretations that are part of, and incident to, the services 
#provided.  However, Halliburton cannot and does not warrant the accuracy 
#or correctness of such information and interpretations.  Under no circumstances should any 
#such information or interpretation be relied upon as the sole basis for any drilling, 
#completion, production, or financial decision or any procedure involving any risk to the 
#safety of any drilling venture, drilling rig or its crew or any other third party.  The 
#Customer has full responsibility for all drilling, completion and production operation.  
#Halliburton makes no representations or warranties, either expressed or 
#implied, including, but not limited to, the implied warranties of merchantability or fitness 
#for a particular purpose, with respect to the services rendered.  In no event will 
#Halliburton be liable for failure to obtain any particular results or for 
#any damages, including, but not limited to, indirect, special or consequential damages, 
#resulting from the use of any information or interpretation provided by Halliburton.
#
~A           TIME           GTDEPTH  GTPQH  GTTQ  GTTN  GTET   GTTVD  
# ...
   00:13:31.491.09-May-2021 4527.01 3260.43 68.18 6.00  69.03 2982.74
   00:13:31.691.09-May-2021 4527.01 3260.43 68.18 6.00  69.23 2982.74
   00:13:31.891.09-May-2021 4527.01 3260.44 68.18 6.00  69.43 2982.74
   00:13:32.092.09-May-2021 4527.01 3260.46 68.18 6.00  69.63 2982.74
   00:13:32.292.09-May-2021 4527.01 3260.46 68.18 6.00  69.83 2982.74
   00:13:32.492.09-May-2021 4527.01 3260.47 68.18 6.00  70.03 2982.74
   00:13:32.692.09-May-2021 4527.01 3260.47 68.18 6.00  70.23 2982.74
   00:13:32.892.09-May-2021 4527.01 3260.47 68.18 6.00  70.43 2982.74
   00:13:33.092.09-May-2021 4527.01 3260.22 68.18 6.00  70.63 2982.74
   00:13:33.292.09-May-2021 4527.01 3260.74 68.18 6.00  70.83 2982.74
   00:13:33.492.09-May-2021 4527.01 3260.36 68.18 6.00  71.03 2982.74
   00:13:33.692.09-May-2021 4527.01 3260.36 68.18 6.00  71.23 2982.74
   00:13:33.892.09-May-2021 4527.01 3260.51 68.18 6.00  71.43 2982.74
   00:13:34.092.09-May-2021 4527.01 3260.48 68.18 6.00  71.63 2982.74
   00:13:34.292.09-May-2021 4527.01 3260.49 68.18 6.00  71.83 2982.74
   00:13:34.492.09-May-2021 4527.01 3260.50 68.18 6.00  72.03 2982.74
   00:13:34.693.09-May-2021 4527.01 3260.50 68.18 6.00  72.23 2982.74
   00:13:34.893.09-May-2021 4527.01 3260.50 68.18 6.00  72.43 2982.74
   00:13:35.093.09-May-2021 4527.01 3260.51 68.18 6.00  72.63 2982.74
   00:13:35.293.09-May-2021 4527.01 3260.50 68.18 6.00  72.83 2982.74
   00:13:35.493.09-May-2021 4527.01 3260.53 68.18 6.00  73.03 2982.74
   00:13:35.693.09-May-2021 4527.01 3260.53 68.18 6.00  73.23 2982.74
   00:13:35.893.09-May-2021 4527.01 3260.77 68.18 6.00  73.43 2982.74
   00:13:36.093.09-May-2021 4527.01 3260.41 68.18 6.00  73.63 2982.74
   00:13:36.293.09-May-2021 4527.01 3260.48 68.18 6.00  73.83 2982.74
   00:13:36.493.09-May-2021 4527.01 3260.56 68.18 6.00  74.03 2982.74
   00:13:36.693.09-May-2021 4527.01 3260.56 68.18 6.00  74.23 2982.74
   00:13:36.893.09-May-2021 4527.01 3260.28 68.18 6.00  74.43 2982.74
   00:13:37.093.09-May-2021 4527.01 3260.80 68.18 6.00  74.63 2982.74
   00:13:37.293.09-May-2021 4527.01 3260.42 68.18 6.00  74.83 2982.74
   00:13:37.494.09-May-2021 4527.01 3260.51 68.18 6.00  75.03 2982.74
   00:13:37.694.09-May-2021 4527.01 3260.51 68.18 6.00  75.23 2982.74
   00:13:37.894.09-May-2021 4527.01 3260.78 68.18 6.00  75.43 2982.74
   00:13:38.094.09-May-2021 4527.01 3260.44 68.18 6.00  75.63 2982.74
   00:13:38.294.09-May-2021 4527.01 3260.51 68.18 6.00  75.83 2982.74
   00:13:38.494.09-May-2021 4527.01 3260.55 68.18 6.00  76.03 2982.74
   00:13:38.694.09-May-2021 4527.01 3260.55 68.18 6.00  76.23 2982.74
   00:13:38.894.09-May-2021 4527.01 3260.33 68.18 6.00  76.43 2982.74
   00:13:39.094.09-May-2021 4527.01 3260.81 68.18 6.00  76.63 2982.74
   00:13:39.294.09-May-2021 4527.01 3260.43 68.19 6.00  76.83 2982.74
   00:13:39.494.09-May-2021 4527.01 3260.51 68.19 6.00  77.03 2982.74
   00:13:39.694.09-May-2021 4527.01 3260.51 68.19 6.00  77.23 2982.74
   00:13:39.894.09-May-2021 4527.01 3260.53 68.19 6.00  77.43 2982.74
   00:13:40.094.09-May-2021 4527.01 3260.56 68.19 6.00  77.63 2982.74
   00:13:40.295.09-May-2021 4527.01 3260.54 68.19 6.00  77.83 2982.74
   00:13:40.495.09-May-2021 4527.01 3260.55 68.19 6.00  78.03 2982.74
   00:13:40.695.09-May-2021 4527.01 3260.55 68.19 6.00  78.23 2982.74
   00:13:40.895.09-May-2021 4527.01 3260.55 68.19 6.00  78.43 2982.74
   00:13:41.095.09-May-2021 4527.01 3260.56 68.19 6.00  78.63 2982.74
   00:13:41.295.09-May-2021 4527.01 3260.53 68.19 6.00  78.83 2982.74
   00:13:41.495.09-May-2021 4527.01 3260.33 68.19 6.00  79.03 2982.74
   00:13:41.695.09-May-2021 4527.01 3260.33 68.19 6.00  79.23 2982.74
   00:13:41.895.09-May-2021 4527.01 3260.45 68.19 6.00  79.43 2982.74
   00:13:42.095.09-May-2021 4527.01 3260.51 68.19 6.00  79.63 2982.74
   00:13:42.295.09-May-2021 4527.01 3260.56 68.19 6.00  79.83 2982.74
   00:13:42.495.09-May-2021 4527.01 3260.54 68.19 6.00  80.03 2982.74
   00:13:42.695.09-May-2021 4527.01 3260.54 68.19 6.00  80.23 2982.74
   00:13:42.895.09-May-2021 4527.01 3260.54 68.19 6.00  80.43 2982.74
   00:13:43.096.09-May-2021 4527.01 3260.55 68.19 6.00  80.63 2982.74
   00:13:43.296.09-May-2021 4527.01 3260.55 68.19 6.00  80.83 2982.74
   00:13:43.496.09-May-2021 4527.01 3260.55 68.19 6.00  81.03 2982.74
   00:13:43.696.09-May-2021 4527.01 3260.55 68.19 6.00  81.23 2982.74
   00:13:43.896.09-May-2021 4527.01 3260.54 68.19 6.00  81.43 2982.74
   00:13:44.096.09-May-2021 4527.01 3260.34 68.19 6.00  81.63 2982.74
   00:13:44.296.09-May-2021 4527.01 3260.82 68.19 6.00  81.83 2982.74
   00:13:44.496.09-May-2021 4527.01 3260.46 68.19 6.00  82.03 2982.74
   00:13:44.696.09-May-2021 4527.01 3260.46 68.19 6.00  82.23 2982.74
   00:13:44.896.09-May-2021 4527.01 3260.56 68.19 6.00  82.43 2982.74
   00:13:45.096.09-May-2021 4527.01 3260.52 68.19 6.00  82.63 2982.74
   00:13:45.296.09-May-2021 4527.01 3260.54 68.19 6.00  82.83 2982.74
   00:13:45.496.09-May-2021 4527.01 3260.62 68.19 6.00  83.03 2982.74
   00:13:45.696.09-May-2021 4527.01 3260.62 68.19 6.00  83.23 2982.74
   00:13:45.897.09-May-2021 4527.01 3260.43 68.19 6.00  83.43 2982.74
   00:13:46.097.09-May-2021 4527.01 3260.36 68.19 6.00  83.63 2982.74
   00:13:46.297.09-May-2021 4527.01 3260.82 68.19 6.00  83.83 2982.74
   00:13:46.497.09-May-2021 4527.01 3260.46 68.19 6.00  84.03 2982.74
   00:13:46.697.09-May-2021 4527.01 3260.46 68.19 6.00  84.23 2982.74
   00:13:46.897.09-May-2021 4527.01 3260.56 68.19 6.00  84.43 2982.74
   00:13:47.097.09-May-2021 4527.01 3260.52 68.19 6.00  84.63 2982.74
   00:13:47.297.09-May-2021 4527.01 3260.47 68.19 6.00  84.83 2982.74
   00:13:47.497.09-May-2021 4527.01 3260.60 68.19 6.00  85.03 2982.74
   00:13:47.697.09-May-2021 4527.01 3260.60 68.19 6.00  85.23 2982.74
   00:13:47.897.09-May-2021 4527.01 3260.48 68.19 6.00  85.43 2982.74
   00:13:48.097.09-May-2021 4527.01 3260.56 68.19 6.00  85.63 2982.74
   00:13:48.297.09-May-2021 4527.01 3260.54 68.19 6.00  85.83 2982.74
   00:13:48.498.09-May-2021 4527.01 3260.55 68.19 6.00  86.03 2982.74
   00:13:48.698.09-May-2021 4527.01 3260.55 68.19 6.00  86.23 2982.74
   00:13:48.898.09-May-2021 4527.01 3260.56 68.19 6.00  86.43 2982.74
   00:13:49.098.09-May-2021 4527.01 3260.55 68.19 6.00  86.63 2982.74
   00:13:49.298.09-May-2021 4527.01 3260.55 68.19 6.00  86.83 2982.74
   00:13:49.498.09-May-2021 4527.01 3260.55 68.19 6.00  87.03 2982.74
   00:13:49.698.09-May-2021 4527.01 3260.55 68.19 6.00  87.23 2982.74
   00:13:49.898.09-May-2021 4527.01 3260.47 68.19 6.00  87.43 2982.74
   00:13:50.098.09-May-2021 4527.01 3260.60 68.19 6.00  87.63 2982.74
   00:13:50.298.09-May-2021 4527.01 3260.62 68.19 6.00  87.83 2982.74
   00:13:50.498.09-May-2021 4527.01 3260.48 68.19 6.00  88.03 2982.74
   00:13:50.698.09-May-2021 4527.01 3260.48 68.19 6.00  88.23 2982.74
   00:13:50.898.09-May-2021 4527.01 3260.54 68.19 6.00  88.43 2982.74
   00:13:51.098.09-May-2021 4527.01 3260.54 68.19 6.00  88.63 2982.74
   00:13:51.299.09-May-2021 4527.01 3260.55 68.19 6.00  88.83 2982.74
   00:13:51.499.09-May-2021 4527.01 3260.55 68.19 6.00  89.03 2982.74
   00:13:51.699.09-May-2021 4527.01 3260.55 68.19 6.00  89.23 2982.74
   00:13:51.899.09-May-2021 4527.01 3260.55 68.19 6.00  89.43 2982.74
   00:13:52.099.09-May-2021 4527.01 3260.54 68.19 6.00  89.63 2982.74
   00:13:52.299.09-May-2021 4527.01 3260.53 68.19 6.00  89.83 2982.74
   00:13:52.499.09-May-2021 4527.01 3260.46 68.19 6.00  90.03 2982.74
   00:13:52.699.09-May-2021 4527.01 3260.46 68.19 6.00  90.23 2982.74
   00:13:52.899.09-May-2021 4527.01 3260.62 68.19 6.00  90.43 2982.74
   00:13:53.099.09-May-2021 4527.01 3260.48 68.19 6.00  90.63 2982.74
   00:13:53.299.09-May-2021 4527.01 3260.54 68.19 6.00  90.83 2982.74
   00:13:53.499.09-May-2021 4527.01 3260.34 68.19 6.00  91.03 2982.74
   00:13:53.699.09-May-2021 4527.01 3260.34 68.19 6.00  91.23 2982.74
   00:13:53.899.09-May-2021 4527.01 3260.47 68.19 6.00  91.43 2982.74
   00:13:54.100.09-May-2021 4527.01 3260.61 68.19 6.00  91.63 2982.74
   00:13:54.300.09-May-2021 4527.01 3260.53 68.19 6.00  91.83 2982.74
