~Version Information
 VERS.                  2.0:   CWLS log ASCII Standard -VERSION 2.0
 WRAP.                   NO:   One line per depth step
~Well Information Block
#MNEM.UNIT     VALUE/NAME     DESCRIPTION
#---------     -----------    ---------------------------
 STRT.S             02:35:25 09-May-21: START TIME 02:35:25 09-May-21
 STOP.S             02:42:01 09-May-21: STOP TIME  02:42:01 09-May-21
 STEP.S                   0.00: STEP TIME
 NULL.                 -999.25: NULL VALUE
 PROV.                    Baku:  PROVINCE
 STAT.                    Baku:  STATE NAME
 SON .        AZ-XX-0906571588:  JOB NUMBER
 WTYP.                Deviated:  WELL TYPE
 COMP.     BP Exploration (Caspian Sea) ltd:  COMPANY
 BASE.              Azerbaijan:  LOGGING EQUIPMENT BASE LOCATION
 REGN.                   EESSA:  REGION
 CTRY.              Azerbaijan:  COUNTRY NAME
 FLD .                     ACG:  FIELD NAME
 WELL.                     J28:  WELL NAME
 RIG .             West Chirag:  RIG NAME
 DMF .             Drill Floor:  DRILL MEAS FROM
 PDAT.       Caspian Sea Level:  PERMANENT DATUM
 HPTY.       Minimum Curvature:  HOLE POS TYPE
 MDS .        Operator Entered:  MAG DATA SOURCE
 NREF.                    Grid:  NORTH REFERENCE
 SRVC.          TURAN DRILLING:  CONTRACTOR
 JOBN.        AZ-XX-0906571588:  JOB TICKET NUMB
 DCON.     Halliburton Sperry Drilling:  DIRECTNL CONTR
 STIM.      00.44.00 11-Feb-21:  START TIME
 DATE.      00.00.00 05-May-21:  END TIME
 SPUD.               13-Feb-21:  SPUD DATE
 MWDS.                    Baku:  MWD SHOP
 DOE .                     N/A:  DOE NUMBER
 UNIT.                     N/A:  LOGGING EQUIPMENT ID
 UWI .                     N/A:  UNIQUE WELL IDENTIFIER
 API .                     N/A:  API NUMBER
 CNTY.                        :  COUNTY
 LOC .                        :  LOCATION
 LMF .             Drill Floor:  LOG MEASURED FROM
 TVDS.m                  43.00:  TVDSS CORRECTN
 SDEP.m                 341.00:  START DEPTH
 EGL .m                   0.00:  GROUND ELEVATION
 WDMS.m                 169.80:  WD ELEV
 AGAP.m                  43.00:  AIR GAP
 EPD .m                   0.00:  ELEVATION
 APD .m                  43.00:  DEPTH ABOVE PD
 LATI.deg                40.13:  LATITUDE
 LONG.deg                51.22:  LONGITUDE
 UTMY.m             4443793.85:  UTM Y
 UTMX.m              519005.06:  UTM X
 WHEW.m                 -11.57:  WELL HEAD E/W
 WHNS.m                   8.57:  WELL HEAD N/S
 VSEW.m                 -11.57:  VERT SEC E/W
 VSNS.m                   8.57:  VERT SEC N/S
 DFWL.m                   0.00:  DISTANCE FWL
 DFSL.m                   0.00:  DISTANCE FSL
 VSDR.deg               299.34:  VERT SEC DIRECT
 GVFD.g                   1.00:  GRAVITY FIELD
 AZTC.deg                 6.36:  AZM TOTAL CORR
 MFLD.nT              50391.00:  MAGNETIC FIELD
 MDIP.deg                59.65:  MAGNETIC DIP
 MDEC.deg                 6.48:  MAGNETIC DECL
 GRDC.deg                 0.12:  GRID CORRECTION
 DEP .m                 334.96:  DEPTH
 TDD .m                1407.26:  TOTAL DEPTH (DRILLER)
 EKB .m                  43.00:  KB ELEVATION
 EDF .m                  43.00:  DF ELEVATION
 TDL .m                 228.00:  TOTAL DEPTH (LOGGER)
 VSC .                       0:  VS TO CLOSURE
 MAGU.                 1854484:  MAGUTM CHECKSUM
~Parameter Information Block
#MNEM.UNIT       Value        Description
#---------     -----------    ---------------------------
 AV  .mps                 4.00:  Ann Velocity 
 AVMX.mps                 4.73:  Max Ann Veloc 
 AZIF.deg               304.48:  Azm, Final 
 BHAT.        Rotary Steerable:  BHA Type 
 BREV.rev            257300.00:  Rev Bit Total 
 BROT.°/30m               0.00:  Build Rotating 
 BS  .in                  8.50:  Bit Size 
 BSZ .in                  8.50:  Bit Size 
 BTPL.psig              589.00:  Bit Press Loss 
 CABU.                      No:  Customer Abuse 
 CGEO.          Mubariz ghayev:  Customer Geo 
 COMM.                     LÑz:  Run Comments 1 
 TCS .hr                 64.25:  Time Ciculation Ended 
 CV  .mps                 3.50:  Crit Velocity 
 CVMX.mps                 4.52:  Max Crit Veloc 
 DD1 .             Aziz Aliyev:  Direct Drillr 1 
 DD2 .         Intigam Rahimov:  Direct Drillr 2 
 DD3 .          Rashad Habibov:  Direct Drillr 3 
 DDSV.               Geo-Pilot:  DD Service 
 DEFF.%                  98.00:  % Det Eff 
 DLRX.°/30m               0.00:  Dogleg Rot Max 
 DLSO.°/30m               0.00:  Dogleg Oriented 
 DLSX.°/30m               0.00:  Dogleg Str Max 
 DRET.      10.45.04 08-May-21:  Drill End Time 
 DRST.      03.30.04 04-May-21:  Drill Start Tim 
 DTIM.hr                 14.97:  Time Drilling 
 EDEP.m                4640.01:  End Depth 
 ENG1.         Dail Mahammadov:  Engineer 1 
 ENG2.           Eldar Hajiyev:  Engineer 2 
 ENG3.       Bakhtiar Jabbarli:  Engineer 3 
 ENG4.       Natik Hasanagayev:  Engineer 4 
 ETIM.      09.30.04 14-May-21:  End Time 
 FLOI.gpm               460.00:  Flow In 
 FLON.gpm               200.00:  Flow In Min 
 FLOS.cptm                0.00:  Fluid Loss 
 FLOX.gpm               505.00:  Flow In Max 
 HFLO.                      No:  High Flow 
 HPRE.                      No:  High Pressure 
 HTEM.                      No:  High Temp 
 HYDO.m                   1.80:  Hydro Offset 
 IFIN.deg                66.71:  Inc, Final 
 IMAX.deg                67.03:  Inc Max 
 IMIN.deg                66.63:  Inc Min 
 IMND.m                4550.58:  Inc Min Depth 
 IMXD.m                4439.01:  Inc Max Depth 
 JARR.                      No:  Jarring 
 LETM.      10.45.04 08-May-21:  Log End Time 
 LOST.hr                     0:  Lost Rig Time 
 LSTM.      03.30.04 04-May-21:  Log Start Time 
 MDCL.ppm             37000.00:  Mud Chlorides 
 MDES.     Inversion Oil/Synthetic:  Mud Desc 
 DFD .sg                  1.38:  Mud Density 
 MDMN.sg                  1.35:  Dens Mud Min 
 MDMX.sg                  1.40:  Dens Mud Max 
 MOIL.                   57.40:  Run Mud Oil % 
 MOWR.                   70:30:  Run Mud OWR 
 MSND.                    0.00:  Run Mud Sand % 
 MSOL.                   18.00:  Run Mud Solids% 
 DFV .spqt               71.00:  Mud Viscosity 
 MWOD.in                  6.75:  MWD Tool OD 
 MWSI.                      No:  Serv Intrp, MWD 
 OTIM.hr                242.76:  Time Operating 
 PCON.           Look Like New:  Pad Condition 
 PMAX.psia            12183.92:  Press Op, Max 
 PV  .cP                 27.00:  Mud PV 
 RUN .                    1300:  Run Number 
 ROPA.m/hr               15.00:  ROP Avg 
 ROPN.m/hr                9.00:  ROP Min 
 ROPX.m/hr               19.00:  ROP Max 
 RPMA.rpm               120.00:  RPM Surface Avg 
 RPMN.rpm               100.00:  RPM Surface Min 
 RPMX.rpm               120.00:  RPM Surface Max 
 RRUN.                    1300:  Rig Run Number 
 RTIM.hr                  5.00:  Time Reaming 
 SAZI.deg               304.73:  Azm, Start 
 SDEP.m                4412.01:  Start Depth 
 SIDD.                      No:  Serv Intrp, DD 
 SINC.deg                66.82:  Inc, Start 
 SPPA.psig             2800.00:  SPP Avg 
 SPPN.psig             2610.00:  SPP Min 
 SPPX.psig             3100.00:  SPP Max 
 STIM.      03.30.00 04-May-21:  Start Time 
 SVCS.                 DD, MWD:  Services 
 SVER.                    9.20:  Sperry Version 
 TDAT.m                 228.00:  Tot Depth Attmp 
 TDDF.                      No:  Trip for DD 
 TDLG.m                 228.00:  Tot Depth Loggd 
 TFF .                      No:  Trip for Fail 
 TQAA.f-kp               15.00:  Torque Abs Avg 
 TQAN.f-kp               12.00:  Torque Abs Min 
 TQAX.f-kp               22.00:  Torque Abs Max 
 TRRT.°/30m               0.00:  Turn Rotating 
 MRT .                    HCIM:  Maximum Recorded Temperature 
 TTMX.degC               90.20:  Max Tool Temp 
 VS01.                90627813:  Virtual Str1 SN 
 VS02.                90634712:  Virtual Str2 SN 
 VS03.                90643410:  Virtual Str3 SN 
 VS04.                90634712:  Virtual Str4 SN 
 WBMN.klb                 9.00:  WOB Min 
 WITN.        Elmaddin Rahimov:  Customer Rep 
 WITN.         Haytham Mostafa:  Customer Rep 2 
 WOBA.klb                15.00:  WOB Avg 
 WOBX.klb                23.00:  WOB Max 
 YP  .lhf2               29.00:  Yield Point 
~Curve Information Block
#MNEM.UNIT                 API CODE     Curve Description
#---------               -----------    ---------------------------
 TIME.HHMMSS            00 000 000 000:  GT Time & Date
 GTDEPTH.m              00 000 000 000:  GT Depth
 GTPQH.psia             00 000 000 000:  GT HR Quartz Pressure
 GTTQ.degC              00 000 000 000:  GT Quartz Temperature
 GTTN.NONE              00 000 000 000:  GT Test Number
 GTET.sec               00 000 000 000:  GT Elapsed Test Time
 GTTVD.m                00 000 000 000:  GT True Vertical Depth
#Other Information
#
#WARRANTY: Halliburton will use its best efforts to furnish customers with 
#accurate information and interpretations that are part of, and incident to, the services 
#provided.  However, Halliburton cannot and does not warrant the accuracy 
#or correctness of such information and interpretations.  Under no circumstances should any 
#such information or interpretation be relied upon as the sole basis for any drilling, 
#completion, production, or financial decision or any procedure involving any risk to the 
#safety of any drilling venture, drilling rig or its crew or any other third party.  The 
#Customer has full responsibility for all drilling, completion and production operation.  
#Halliburton makes no representations or warranties, either expressed or 
#implied, including, but not limited to, the implied warranties of merchantability or fitness 
#for a particular purpose, with respect to the services rendered.  In no event will 
#Halliburton be liable for failure to obtain any particular results or for 
#any damages, including, but not limited to, indirect, special or consequential damages, 
#resulting from the use of any information or interpretation provided by Halliburton.
#
~A           TIME           GTDEPTH  GTPQH  GTTQ  GTTN   GTET   GTTVD  
# ...
   02:41:49.530.09-May-2021 4482.51 6793.63 67.77 11.00 384.26 2965.25
   02:41:49.730.09-May-2021 4482.51 6794.47 67.76 11.00 384.46 2965.25
   02:41:49.930.09-May-2021 4482.51 6795.40 67.76 11.00 384.66 2965.25
   02:41:50.130.09-May-2021 4482.51 6807.34 67.76 11.00 384.86 2965.25
   02:41:50.330.09-May-2021 4482.51 6796.11 67.76 11.00 385.06 2965.25
   02:41:50.530.09-May-2021 4482.51 6796.11 67.76 11.00 385.26 2965.25
   02:41:50.730.09-May-2021 4482.51 6798.56 67.76 11.00 385.46 2965.25
   02:41:50.930.09-May-2021 4482.51 6798.21 67.76 11.00 385.66 2965.25
   02:41:51.130.09-May-2021 4482.51 6796.34 67.76 11.00 385.86 2965.25
   02:41:51.330.09-May-2021 4482.51 6795.77 67.76 11.00 386.06 2965.25
   02:41:51.530.09-May-2021 4482.51 6795.77 67.76 11.00 386.26 2965.25
   02:41:51.730.09-May-2021 4482.51 6794.20 67.76 11.00 386.46 2965.25
   02:41:51.930.09-May-2021 4482.51 6794.01 67.76 11.00 386.66 2965.25
   02:41:52.130.09-May-2021 4482.51 6792.99 67.76 11.00 386.86 2965.25
   02:41:52.330.09-May-2021 4482.51 6792.91 67.76 11.00 387.06 2965.25
   02:41:52.530.09-May-2021 4482.51 6792.91 67.76 11.00 387.26 2965.25
   02:41:52.730.09-May-2021 4482.51 6799.32 67.76 11.00 387.46 2965.25
   02:41:52.930.09-May-2021 4482.51 6800.27 67.76 11.00 387.66 2965.25
   02:41:53.131.09-May-2021 4482.51 6797.84 67.76 11.00 387.86 2965.25
   02:41:53.331.09-May-2021 4482.51 6799.12 67.76 11.00 388.06 2965.25
   02:41:53.531.09-May-2021 4482.51 6799.12 67.76 11.00 388.26 2965.25
   02:41:53.731.09-May-2021 4482.51 6804.70 67.76 11.00 388.46 2965.25
   02:41:53.931.09-May-2021 4482.51 6797.41 67.76 11.00 388.67 2965.25
   02:41:54.131.09-May-2021 4482.51 6799.01 67.76 11.00 388.87 2965.25
   02:41:54.331.09-May-2021 4482.51 6798.94 67.76 11.00 389.07 2965.25
   02:41:54.531.09-May-2021 4482.51 6798.94 67.76 11.00 389.27 2965.25
   02:41:54.731.09-May-2021 4482.51 6796.25 67.76 11.00 389.47 2965.25
   02:41:54.931.09-May-2021 4482.51 6798.79 67.76 11.00 389.67 2965.25
   02:41:55.131.09-May-2021 4482.51 6798.07 67.75 11.00 389.87 2965.25
   02:41:55.331.09-May-2021 4482.51 6806.72 67.75 11.00 390.07 2965.25
   02:41:55.531.09-May-2021 4482.51 6806.72 67.75 11.00 390.27 2965.25
   02:41:55.731.09-May-2021 4482.51 6801.31 67.75 11.00 390.47 2965.25
   02:41:55.931.09-May-2021 4482.51 6797.33 67.75 11.00 390.67 2965.25
   02:41:56.131.09-May-2021 4482.51 6796.55 67.75 11.00 390.87 2965.25
   02:41:56.331.09-May-2021 4482.51 6794.71 67.75 11.00 391.07 2965.25
   02:41:56.531.09-May-2021 4482.51 6794.71 67.75 11.00 391.27 2965.25
   02:41:56.731.09-May-2021 4482.51 6794.45 67.75 11.00 391.47 2965.25
   02:41:56.931.09-May-2021 4482.51 6794.88 67.75 11.00 391.67 2965.25
   02:41:57.131.09-May-2021 4482.51 6794.21 67.75 11.00 391.87 2965.25
   02:41:57.331.09-May-2021 4482.51 6794.93 67.75 11.00 392.07 2965.25
   02:41:57.531.09-May-2021 4482.51 6794.93 67.75 11.00 392.27 2965.25
   02:41:57.731.09-May-2021 4482.51 6795.51 67.75 11.00 392.47 2965.25
   02:41:57.931.09-May-2021 4482.51 6805.22 67.75 11.00 392.67 2965.25
   02:41:58.131.09-May-2021 4482.51 6798.26 67.75 11.00 392.87 2965.25
   02:41:58.331.09-May-2021 4482.51 6800.53 67.75 11.00 393.07 2965.25
   02:41:58.531.09-May-2021 4482.51 6800.53 67.75 11.00 393.27 2965.25
   02:41:58.731.09-May-2021 4482.51 6796.74 67.75 11.00 393.47 2965.25
   02:41:58.931.09-May-2021 4482.51 6795.67 67.75 11.00 393.67 2965.25
   02:41:59.132.09-May-2021 4482.51 6794.91 67.75 11.00 393.87 2965.25
   02:41:59.332.09-May-2021 4482.51 6794.89 67.75 11.00 394.07 2965.25
   02:41:59.532.09-May-2021 4482.51 6794.89 67.75 11.00 394.27 2965.25
   02:41:59.732.09-May-2021 4482.51 6793.97 67.75 11.00 394.47 2965.25
   02:41:59.932.09-May-2021 4482.51 6793.87 67.75 11.00 394.67 2965.25
   02:42:00.132.09-May-2021 4482.51 6793.49 67.75 11.00 394.87 2965.25
   02:42:00.332.09-May-2021 4482.51 6793.34 67.75 11.00 395.07 2965.25
   02:42:00.532.09-May-2021 4482.51 6793.34 67.75 11.00 395.27 2965.25
   02:42:00.732.09-May-2021 4482.51 6804.24 67.75 11.00 395.47 2965.25
   02:42:00.932.09-May-2021 4482.51 6796.85 67.75 11.00 395.67 2965.25
   02:42:01.132.09-May-2021 4482.51 6801.40 67.75 11.00 395.87 2965.25
