~Version Information
 VERS.                  2.0:   CWLS log ASCII Standard -VERSION 2.0
 WRAP.                   NO:   One line per depth step
~Well Information Block
#MNEM.UNIT     VALUE/NAME     DESCRIPTION
#---------     -----------    ---------------------------
 STRT.S             00:24:13 10-May-21: START TIME 00:24:13 10-May-21
 STOP.S             00:32:26 10-May-21: STOP TIME  00:32:26 10-May-21
 STEP.S                   0.00: STEP TIME
 NULL.                 -999.25: NULL VALUE
 PROV.                    Baku:  PROVINCE
 STAT.                    Baku:  STATE NAME
 SON .        AZ-XX-0906571588:  JOB NUMBER
 WTYP.                Deviated:  WELL TYPE
 COMP.     BP Exploration (Caspian Sea) ltd:  COMPANY
 BASE.              Azerbaijan:  LOGGING EQUIPMENT BASE LOCATION
 REGN.                   EESSA:  REGION
 CTRY.              Azerbaijan:  COUNTRY NAME
 FLD .                     ACG:  FIELD NAME
 WELL.                     J28:  WELL NAME
 RIG .             West Chirag:  RIG NAME
 DMF .             Drill Floor:  DRILL MEAS FROM
 PDAT.       Caspian Sea Level:  PERMANENT DATUM
 HPTY.       Minimum Curvature:  HOLE POS TYPE
 MDS .        Operator Entered:  MAG DATA SOURCE
 NREF.                    Grid:  NORTH REFERENCE
 SRVC.          TURAN DRILLING:  CONTRACTOR
 JOBN.        AZ-XX-0906571588:  JOB TICKET NUMB
 DCON.     Halliburton Sperry Drilling:  DIRECTNL CONTR
 STIM.      00.44.00 11-Feb-21:  START TIME
 DATE.      00.00.00 05-May-21:  END TIME
 SPUD.               13-Feb-21:  SPUD DATE
 MWDS.                    Baku:  MWD SHOP
 DOE .                     N/A:  DOE NUMBER
 UNIT.                     N/A:  LOGGING EQUIPMENT ID
 UWI .                     N/A:  UNIQUE WELL IDENTIFIER
 API .                     N/A:  API NUMBER
 CNTY.                        :  COUNTY
 LOC .                        :  LOCATION
 LMF .             Drill Floor:  LOG MEASURED FROM
 TVDS.m                  43.00:  TVDSS CORRECTN
 SDEP.m                 341.00:  START DEPTH
 EGL .m                   0.00:  GROUND ELEVATION
 WDMS.m                 169.80:  WD ELEV
 AGAP.m                  43.00:  AIR GAP
 EPD .m                   0.00:  ELEVATION
 APD .m                  43.00:  DEPTH ABOVE PD
 LATI.deg                40.13:  LATITUDE
 LONG.deg                51.22:  LONGITUDE
 UTMY.m             4443793.85:  UTM Y
 UTMX.m              519005.06:  UTM X
 WHEW.m                 -11.57:  WELL HEAD E/W
 WHNS.m                   8.57:  WELL HEAD N/S
 VSEW.m                 -11.57:  VERT SEC E/W
 VSNS.m                   8.57:  VERT SEC N/S
 DFWL.m                   0.00:  DISTANCE FWL
 DFSL.m                   0.00:  DISTANCE FSL
 VSDR.deg               299.34:  VERT SEC DIRECT
 GVFD.g                   1.00:  GRAVITY FIELD
 AZTC.deg                 6.36:  AZM TOTAL CORR
 MFLD.nT              50391.00:  MAGNETIC FIELD
 MDIP.deg                59.65:  MAGNETIC DIP
 MDEC.deg                 6.48:  MAGNETIC DECL
 GRDC.deg                 0.12:  GRID CORRECTION
 DEP .m                 334.96:  DEPTH
 TDD .m                1407.26:  TOTAL DEPTH (DRILLER)
 EKB .m                  43.00:  KB ELEVATION
 EDF .m                  43.00:  DF ELEVATION
 TDL .m                 228.00:  TOTAL DEPTH (LOGGER)
 VSC .                       0:  VS TO CLOSURE
 MAGU.                 1854484:  MAGUTM CHECKSUM
~Parameter Information Block
#MNEM.UNIT       Value        Description
#---------     -----------    ---------------------------
 AV  .mps                 4.00:  Ann Velocity 
 AVMX.mps                 4.73:  Max Ann Veloc 
 AZIF.deg               304.48:  Azm, Final 
 BHAT.        Rotary Steerable:  BHA Type 
 BREV.rev            257300.00:  Rev Bit Total 
 BROT.°/30m               0.00:  Build Rotating 
 BS  .in                  8.50:  Bit Size 
 BSZ .in                  8.50:  Bit Size 
 BTPL.psig              589.00:  Bit Press Loss 
 CABU.                      No:  Customer Abuse 
 CGEO.          Mubariz ghayev:  Customer Geo 
 TCS .hr                 64.25:  Time Ciculation Ended 
 CV  .mps                 3.50:  Crit Velocity 
 CVMX.mps                 4.52:  Max Crit Veloc 
 DD1 .             Aziz Aliyev:  Direct Drillr 1 
 DD2 .         Intigam Rahimov:  Direct Drillr 2 
 DD3 .          Rashad Habibov:  Direct Drillr 3 
 DDSV.               Geo-Pilot:  DD Service 
 DEFF.%                  98.00:  % Det Eff 
 DLRX.°/30m               0.00:  Dogleg Rot Max 
 DLSO.°/30m               0.00:  Dogleg Oriented 
 DLSX.°/30m               0.00:  Dogleg Str Max 
 DRET.      10.45.04 08-May-21:  Drill End Time 
 DRST.      03.30.04 04-May-21:  Drill Start Tim 
 DTIM.hr                 14.97:  Time Drilling 
 EDEP.m                4640.01:  End Depth 
 ENG1.         Dail Mahammadov:  Engineer 1 
 ENG2.           Eldar Hajiyev:  Engineer 2 
 ENG3.       Bakhtiar Jabbarli:  Engineer 3 
 ENG4.       Natik Hasanagayev:  Engineer 4 
 ETIM.      09.30.04 14-May-21:  End Time 
 FLOI.gpm               460.00:  Flow In 
 FLON.gpm               200.00:  Flow In Min 
 FLOS.cptm                0.00:  Fluid Loss 
 FLOX.gpm               505.00:  Flow In Max 
 HFLO.                      No:  High Flow 
 HPRE.                      No:  High Pressure 
 HTEM.                      No:  High Temp 
 HYDO.m                   1.80:  Hydro Offset 
 IFIN.deg                66.71:  Inc, Final 
 IMAX.deg                67.03:  Inc Max 
 IMIN.deg                66.63:  Inc Min 
 IMND.m                4550.58:  Inc Min Depth 
 IMXD.m                4439.01:  Inc Max Depth 
 JARR.                      No:  Jarring 
 LETM.      10.45.04 08-May-21:  Log End Time 
 LOST.hr                     0:  Lost Rig Time 
 LSTM.      03.30.04 04-May-21:  Log Start Time 
 MDCL.ppm             37000.00:  Mud Chlorides 
 MDES.     Inversion Oil/Synthetic:  Mud Desc 
 DFD .sg                  1.38:  Mud Density 
 MDMN.sg                  1.35:  Dens Mud Min 
 MDMX.sg                  1.40:  Dens Mud Max 
 MOIL.                   57.40:  Run Mud Oil % 
 MOWR.                   70:30:  Run Mud OWR 
 MSND.                    0.00:  Run Mud Sand % 
 MSOL.                   18.00:  Run Mud Solids% 
 DFV .spqt               71.00:  Mud Viscosity 
 MWOD.in                  6.75:  MWD Tool OD 
 MWSI.                      No:  Serv Intrp, MWD 
 OTIM.hr                242.76:  Time Operating 
 PCON.           Look Like New:  Pad Condition 
 PMAX.psia            12183.92:  Press Op, Max 
 PV  .cP                 27.00:  Mud PV 
 RUN .                    1300:  Run Number 
 ROPA.m/hr               15.00:  ROP Avg 
 ROPN.m/hr                9.00:  ROP Min 
 ROPX.m/hr               19.00:  ROP Max 
 RPMA.rpm               120.00:  RPM Surface Avg 
 RPMN.rpm               100.00:  RPM Surface Min 
 RPMX.rpm               120.00:  RPM Surface Max 
 RRUN.                    1300:  Rig Run Number 
 RTIM.hr                  5.00:  Time Reaming 
 SAZI.deg               304.73:  Azm, Start 
 SDEP.m                4412.01:  Start Depth 
 SIDD.                      No:  Serv Intrp, DD 
 SINC.deg                66.82:  Inc, Start 
 SPPA.psig             2800.00:  SPP Avg 
 SPPN.psig             2610.00:  SPP Min 
 SPPX.psig             3100.00:  SPP Max 
 STIM.      03.30.00 04-May-21:  Start Time 
 SVCS.                 DD, MWD:  Services 
 SVER.                    9.20:  Sperry Version 
 TDAT.m                 228.00:  Tot Depth Attmp 
 TDDF.                      No:  Trip for DD 
 TDLG.m                 228.00:  Tot Depth Loggd 
 TFF .                      No:  Trip for Fail 
 TQAA.f-kp               15.00:  Torque Abs Avg 
 TQAN.f-kp               12.00:  Torque Abs Min 
 TQAX.f-kp               22.00:  Torque Abs Max 
 TRRT.°/30m               0.00:  Turn Rotating 
 MRT .                    HCIM:  Maximum Recorded Temperature 
 TTMX.degC               90.20:  Max Tool Temp 
 VS01.                90627813:  Virtual Str1 SN 
 VS02.                90634712:  Virtual Str2 SN 
 VS03.                90643410:  Virtual Str3 SN 
 VS04.                90634712:  Virtual Str4 SN 
 WBMN.klb                 9.00:  WOB Min 
 WITN.        Elmaddin Rahimov:  Customer Rep 
 WITN.         Haytham Mostafa:  Customer Rep 2 
 WOBA.klb                15.00:  WOB Avg 
 WOBX.klb                23.00:  WOB Max 
 YP  .lhf2               29.00:  Yield Point 
~Curve Information Block
#MNEM.UNIT                 API CODE     Curve Description
#---------               -----------    ---------------------------
 TIME.HHMMSS            00 000 000 000:  GT Time & Date
 GTDEPTH.m              00 000 000 000:  GT Depth
 GTPQH.psia             00 000 000 000:  GT HR Quartz Pressure
 GTTQ.degC              00 000 000 000:  GT Quartz Temperature
 GTTN.NONE              00 000 000 000:  GT Test Number
 GTET.sec               00 000 000 000:  GT Elapsed Test Time
 GTTVD.m                00 000 000 000:  GT True Vertical Depth
#Other Information
#
#WARRANTY: Halliburton will use its best efforts to furnish customers with 
#accurate information and interpretations that are part of, and incident to, the services 
#provided.  However, Halliburton cannot and does not warrant the accuracy 
#or correctness of such information and interpretations.  Under no circumstances should any 
#such information or interpretation be relied upon as the sole basis for any drilling, 
#completion, production, or financial decision or any procedure involving any risk to the 
#safety of any drilling venture, drilling rig or its crew or any other third party.  The 
#Customer has full responsibility for all drilling, completion and production operation.  
#Halliburton makes no representations or warranties, either expressed or 
#implied, including, but not limited to, the implied warranties of merchantability or fitness 
#for a particular purpose, with respect to the services rendered.  In no event will 
#Halliburton be liable for failure to obtain any particular results or for 
#any damages, including, but not limited to, indirect, special or consequential damages, 
#resulting from the use of any information or interpretation provided by Halliburton.
#
~A           TIME           GTDEPTH  GTPQH  GTTQ  GTTN   GTET   GTTVD  
# ...
   00:30:37.972.10-May-2021 4497.51  502.38 60.44 18.00 384.36 2971.13
   00:30:38.172.10-May-2021 4497.51  502.78 60.44 18.00 384.56 2971.13
   00:30:38.372.10-May-2021 4497.51  502.95 60.44 18.00 384.76 2971.13
   00:30:38.572.10-May-2021 4497.51  503.16 60.44 18.00 384.96 2971.13
   00:30:38.772.10-May-2021 4497.51  503.33 60.44 18.00 385.16 2971.13
   00:30:38.973.10-May-2021 4497.51  503.33 60.44 18.00 385.36 2971.13
   00:30:39.173.10-May-2021 4497.51  503.73 60.44 18.00 385.56 2971.13
   00:30:39.373.10-May-2021 4497.51  503.97 60.44 18.00 385.77 2971.13
   00:30:39.573.10-May-2021 4497.51  503.55 60.44 18.00 385.97 2971.13
   00:30:39.773.10-May-2021 4497.51  504.57 60.44 18.00 386.17 2971.13
   00:30:39.973.10-May-2021 4497.51  504.57 60.44 18.00 386.37 2971.13
   00:30:40.173.10-May-2021 4497.51  504.82 60.44 18.00 386.57 2971.13
   00:30:40.373.10-May-2021 4497.51  504.88 60.44 18.00 386.77 2971.13
   00:30:40.573.10-May-2021 4497.51  505.08 60.44 18.00 386.97 2971.13
   00:30:40.773.10-May-2021 4497.51  505.25 60.44 18.00 387.17 2971.13
   00:30:40.973.10-May-2021 4497.51  505.25 60.44 18.00 387.37 2971.13
   00:30:41.173.10-May-2021 4497.51  505.61 60.44 18.00 387.57 2971.13
   00:30:41.374.10-May-2021 4497.51  505.81 60.44 18.00 387.77 2971.13
   00:30:41.574.10-May-2021 4497.51  505.99 60.44 18.00 387.97 2971.13
   00:30:41.774.10-May-2021 4497.51  506.20 60.44 18.00 388.17 2971.13
   00:30:41.974.10-May-2021 4497.51  506.20 60.44 18.00 388.37 2971.13
   00:30:42.174.10-May-2021 4497.51  506.07 60.44 18.00 388.57 2971.13
   00:30:42.374.10-May-2021 4497.51  506.91 60.44 18.00 388.77 2971.13
   00:30:42.574.10-May-2021 4497.51  506.90 60.44 18.00 388.97 2971.13
   00:30:42.774.10-May-2021 4497.51  507.13 60.44 18.00 389.17 2971.13
   00:30:42.974.10-May-2021 4497.51  507.13 60.44 18.00 389.37 2971.13
   00:30:43.174.10-May-2021 4497.51  507.09 60.44 18.00 389.57 2971.13
   00:30:43.374.10-May-2021 4497.51  507.73 60.44 18.00 389.77 2971.13
   00:30:43.575.10-May-2021 4497.51  507.80 60.44 18.00 389.97 2971.13
   00:30:43.775.10-May-2021 4497.51  508.23 60.44 18.00 390.17 2971.13
   00:30:43.975.10-May-2021 4497.51  508.23 60.44 18.00 390.37 2971.13
   00:30:44.175.10-May-2021 4497.51  508.43 60.43 18.00 390.57 2971.13
   00:30:44.375.10-May-2021 4497.51  508.14 60.44 18.00 390.77 2971.13
   00:30:44.575.10-May-2021 4497.51  508.95 60.44 18.00 390.97 2971.13
   00:30:44.775.10-May-2021 4497.51  509.08 60.43 18.00 391.17 2971.13
   00:30:44.975.10-May-2021 4497.51  509.08 60.43 18.00 391.37 2971.13
   00:30:45.175.10-May-2021 4497.51  509.42 60.43 18.00 391.57 2971.13
   00:30:45.375.10-May-2021 4497.51  509.07 60.43 18.00 391.77 2971.13
   00:30:45.575.10-May-2021 4497.51  509.93 60.43 18.00 391.97 2971.13
   00:30:45.775.10-May-2021 4497.51  509.89 60.43 18.00 392.17 2971.13
   00:30:45.976.10-May-2021 4497.51  509.89 60.43 18.00 392.37 2971.13
   00:30:46.176.10-May-2021 4497.51  510.34 60.43 18.00 392.57 2971.13
   00:30:46.376.10-May-2021 4497.51  510.48 60.43 18.00 392.77 2971.13
   00:30:46.576.10-May-2021 4497.51  510.70 60.43 18.00 392.97 2971.13
   00:30:46.776.10-May-2021 4497.51  510.88 60.43 18.00 393.17 2971.13
   00:30:46.976.10-May-2021 4497.51  510.88 60.43 18.00 393.37 2971.13
   00:30:47.176.10-May-2021 4497.51  511.28 60.43 18.00 393.57 2971.13
   00:30:47.376.10-May-2021 4497.51  511.48 60.43 18.00 393.77 2971.13
   00:30:47.576.10-May-2021 4497.51  511.69 60.43 18.00 393.97 2971.13
   00:30:47.776.10-May-2021 4497.51  511.59 60.43 18.00 394.17 2971.13
   00:30:47.976.10-May-2021 4497.51  511.59 60.43 18.00 394.37 2971.13
   00:30:48.176.10-May-2021 4497.51  512.30 60.43 18.00 394.57 2971.13
   00:30:48.377.10-May-2021 4497.51  512.52 60.43 18.00 394.77 2971.13
   00:30:48.577.10-May-2021 4497.51  512.58 60.43 18.00 394.97 2971.13
   00:30:48.777.10-May-2021 4497.51  512.82 60.43 18.00 395.17 2971.13
   00:30:48.977.10-May-2021 4497.51  512.82 60.43 18.00 395.37 2971.13
   00:30:49.177.10-May-2021 4497.51  512.82 60.43 18.00 395.57 2971.13
   00:30:49.377.10-May-2021 4497.51  513.35 60.43 18.00 395.77 2971.13
   00:30:49.577.10-May-2021 4497.51  513.53 60.43 18.00 395.97 2971.13
   00:30:49.777.10-May-2021 4497.51  513.73 60.43 18.00 396.17 2971.13
   00:30:49.977.10-May-2021 4497.51  513.73 60.43 18.00 396.37 2971.13
   00:30:50.177.10-May-2021 4497.51  514.11 60.43 18.00 396.57 2971.13
   00:30:50.377.10-May-2021 4497.51  513.85 60.43 18.00 396.77 2971.13
   00:30:50.578.10-May-2021 4497.51  514.48 60.43 18.00 396.97 2971.13
   00:30:50.778.10-May-2021 4497.51  514.58 60.43 18.00 397.17 2971.13
   00:30:50.978.10-May-2021 4497.51  514.58 60.43 18.00 397.37 2971.13
   00:30:51.178.10-May-2021 4497.51  515.01 60.43 18.00 397.57 2971.13
   00:30:51.378.10-May-2021 4497.51  515.18 60.43 18.00 397.77 2971.13
   00:30:51.578.10-May-2021 4497.51  514.79 60.43 18.00 397.97 2971.13
   00:30:51.778.10-May-2021 4497.51  515.77 60.43 18.00 398.17 2971.13
   00:30:51.978.10-May-2021 4497.51  515.77 60.43 18.00 398.37 2971.13
   00:30:52.178.10-May-2021 4497.51  516.07 60.43 18.00 398.57 2971.13
   00:30:52.378.10-May-2021 4497.51  516.09 60.43 18.00 398.77 2971.13
   00:30:52.578.10-May-2021 4497.51  516.24 60.43 18.00 398.97 2971.13
   00:30:52.778.10-May-2021 4497.51  515.96 60.43 18.00 399.17 2971.13
   00:30:52.979.10-May-2021 4497.51  515.96 60.43 18.00 399.37 2971.13
   00:30:53.179.10-May-2021 4497.51  516.92 60.43 18.00 399.57 2971.13
   00:30:53.379.10-May-2021 4497.51  516.54 60.43 18.00 399.77 2971.13
   00:30:53.579.10-May-2021 4497.51  517.44 60.43 18.00 399.97 2971.13
   00:30:53.779.10-May-2021 4497.51  517.37 60.43 18.00 400.17 2971.13
   00:30:53.979.10-May-2021 4497.51  517.37 60.43 18.00 400.37 2971.13
   00:30:54.179.10-May-2021 4497.51  517.79 60.43 18.00 400.57 2971.13
   00:30:54.379.10-May-2021 4497.51  517.92 60.43 18.00 400.77 2971.13
   00:30:54.579.10-May-2021 4497.51  518.14 60.43 18.00 400.97 2971.13
   00:30:54.779.10-May-2021 4497.51  518.29 60.43 18.00 401.17 2971.13
   00:30:54.979.10-May-2021 4497.51  518.29 60.43 18.00 401.37 2971.13
   00:30:55.179.10-May-2021 4497.51  518.66 60.43 18.00 401.57 2971.13
   00:30:55.380.10-May-2021 4497.51  518.85 60.43 18.00 401.77 2971.13
   00:30:55.580.10-May-2021 4497.51  519.04 60.43 18.00 401.97 2971.13
   00:30:55.780.10-May-2021 4497.51  519.24 60.43 18.00 402.17 2971.13
   00:30:55.980.10-May-2021 4497.51  519.24 60.43 18.00 402.37 2971.13
   00:30:56.180.10-May-2021 4497.51  519.73 60.43 18.00 402.57 2971.13
   00:30:56.380.10-May-2021 4497.51  519.78 60.43 18.00 402.77 2971.13
   00:30:56.580.10-May-2021 4497.51  519.87 60.43 18.00 402.97 2971.13
   00:30:56.780.10-May-2021 4497.51  520.15 60.43 18.00 403.17 2971.13
   00:30:56.980.10-May-2021 4497.51  520.15 60.43 18.00 403.37 2971.13
   00:30:57.180.10-May-2021 4497.51  520.48 60.43 18.00 403.57 2971.13
   00:30:57.380.10-May-2021 4497.51  520.66 60.43 18.00 403.77 2971.13
   00:30:57.580.10-May-2021 4497.51  520.85 60.43 18.00 403.97 2971.13
   00:30:57.781.10-May-2021 4497.51  521.03 60.43 18.00 404.17 2971.13
   00:30:57.981.10-May-2021 4497.51  521.03 60.43 18.00 404.37 2971.13
   00:30:58.181.10-May-2021 4497.51  521.43 60.43 18.00 404.57 2971.13
   00:30:58.381.10-May-2021 4497.51  521.25 60.43 18.00 404.77 2971.13
   00:30:58.581.10-May-2021 4497.51  521.86 60.43 18.00 404.97 2971.13
   00:30:58.781.10-May-2021 4497.51  521.94 60.43 18.00 405.17 2971.13
   00:30:58.981.10-May-2021 4497.51  521.94 60.43 18.00 405.37 2971.13
   00:30:59.181.10-May-2021 4497.51  522.43 60.43 18.00 405.57 2971.13
   00:30:59.381.10-May-2021 4497.51  522.59 60.43 18.00 405.77 2971.13
   00:30:59.581.10-May-2021 4497.51  522.60 60.43 18.00 405.97 2971.13
   00:30:59.781.10-May-2021 4497.51  523.01 60.43 18.00 406.17 2971.13
   00:30:59.982.10-May-2021 4497.51  523.01 60.43 18.00 406.37 2971.13
   00:31:00.182.10-May-2021 4497.51  523.52 60.43 18.00 406.57 2971.13
   00:31:00.382.10-May-2021 4497.51  523.54 60.43 18.00 406.77 2971.13
