~Version Information
 VERS.                  2.0:   CWLS log ASCII Standard -VERSION 2.0
 WRAP.                   NO:   One line per depth step
~Well Information Block
#MNEM.UNIT     VALUE/NAME     DESCRIPTION
#---------     -----------    ---------------------------
 STRT.S             21:53:52 08-May-21: START TIME 21:53:52 08-May-21
 STOP.S             22:00:27 08-May-21: STOP TIME  22:00:27 08-May-21
 STEP.S                   0.00: STEP TIME
 NULL.                 -999.25: NULL VALUE
 PROV.                    Baku:  PROVINCE
 STAT.                    Baku:  STATE NAME
 SON .        AZ-XX-0906571588:  JOB NUMBER
 WTYP.                Deviated:  WELL TYPE
 COMP.     BP Exploration (Caspian Sea) ltd:  COMPANY
 BASE.              Azerbaijan:  LOGGING EQUIPMENT BASE LOCATION
 REGN.                   EESSA:  REGION
 CTRY.              Azerbaijan:  COUNTRY NAME
 FLD .                     ACG:  FIELD NAME
 WELL.                     J28:  WELL NAME
 RIG .             West Chirag:  RIG NAME
 DMF .             Drill Floor:  DRILL MEAS FROM
 PDAT.       Caspian Sea Level:  PERMANENT DATUM
 HPTY.       Minimum Curvature:  HOLE POS TYPE
 MDS .        Operator Entered:  MAG DATA SOURCE
 NREF.                    Grid:  NORTH REFERENCE
 SRVC.          TURAN DRILLING:  CONTRACTOR
 JOBN.        AZ-XX-0906571588:  JOB TICKET NUMB
 DCON.     Halliburton Sperry Drilling:  DIRECTNL CONTR
 STIM.      00.44.00 11-Feb-21:  START TIME
 DATE.      00.00.00 05-May-21:  END TIME
 SPUD.               13-Feb-21:  SPUD DATE
 MWDS.                    Baku:  MWD SHOP
 DOE .                     N/A:  DOE NUMBER
 UNIT.                     N/A:  LOGGING EQUIPMENT ID
 UWI .                     N/A:  UNIQUE WELL IDENTIFIER
 API .                     N/A:  API NUMBER
 CNTY.                        :  COUNTY
 LOC .                        :  LOCATION
 LMF .             Drill Floor:  LOG MEASURED FROM
 TVDS.m                  43.00:  TVDSS CORRECTN
 SDEP.m                 341.00:  START DEPTH
 EGL .m                   0.00:  GROUND ELEVATION
 WDMS.m                 169.80:  WD ELEV
 AGAP.m                  43.00:  AIR GAP
 EPD .m                   0.00:  ELEVATION
 APD .m                  43.00:  DEPTH ABOVE PD
 LATI.deg                40.13:  LATITUDE
 LONG.deg                51.22:  LONGITUDE
 UTMY.m             4443793.85:  UTM Y
 UTMX.m              519005.06:  UTM X
 WHEW.m                 -11.57:  WELL HEAD E/W
 WHNS.m                   8.57:  WELL HEAD N/S
 VSEW.m                 -11.57:  VERT SEC E/W
 VSNS.m                   8.57:  VERT SEC N/S
 DFWL.m                   0.00:  DISTANCE FWL
 DFSL.m                   0.00:  DISTANCE FSL
 VSDR.deg               299.34:  VERT SEC DIRECT
 GVFD.g                   1.00:  GRAVITY FIELD
 AZTC.deg                 6.36:  AZM TOTAL CORR
 MFLD.nT              50391.00:  MAGNETIC FIELD
 MDIP.deg                59.65:  MAGNETIC DIP
 MDEC.deg                 6.48:  MAGNETIC DECL
 GRDC.deg                 0.12:  GRID CORRECTION
 DEP .m                 334.96:  DEPTH
 TDD .m                1407.26:  TOTAL DEPTH (DRILLER)
 EKB .m                  43.00:  KB ELEVATION
 EDF .m                  43.00:  DF ELEVATION
 TDL .m                 228.00:  TOTAL DEPTH (LOGGER)
 VSC .                       0:  VS TO CLOSURE
 MAGU.                 1854484:  MAGUTM CHECKSUM
~Parameter Information Block
#MNEM.UNIT       Value        Description
#---------     -----------    ---------------------------
 AV  .mps                 4.00:  Ann Velocity 
 AVMX.mps                 4.73:  Max Ann Veloc 
 AZIF.deg               304.48:  Azm, Final 
 BHAT.        Rotary Steerable:  BHA Type 
 BREV.rev            257300.00:  Rev Bit Total 
 BROT.°/30m               0.00:  Build Rotating 
 BS  .in                  8.50:  Bit Size 
 BSZ .in                  8.50:  Bit Size 
 BTPL.psig              589.00:  Bit Press Loss 
 CABU.                      No:  Customer Abuse 
 CGEO.          Mubariz ghayev:  Customer Geo 
 COMM.                     ¤=s:  Run Comments 1 
 TCS .hr                 64.25:  Time Ciculation Ended 
 CV  .mps                 3.50:  Crit Velocity 
 CVMX.mps                 4.52:  Max Crit Veloc 
 DD1 .             Aziz Aliyev:  Direct Drillr 1 
 DD2 .         Intigam Rahimov:  Direct Drillr 2 
 DD3 .          Rashad Habibov:  Direct Drillr 3 
 DDSV.               Geo-Pilot:  DD Service 
 DEFF.%                  98.00:  % Det Eff 
 DLRX.°/30m               0.00:  Dogleg Rot Max 
 DLSO.°/30m               0.00:  Dogleg Oriented 
 DLSX.°/30m               0.00:  Dogleg Str Max 
 DRET.      10.45.04 08-May-21:  Drill End Time 
 DRST.      03.30.04 04-May-21:  Drill Start Tim 
 DTIM.hr                 14.97:  Time Drilling 
 EDEP.m                4640.01:  End Depth 
 ENG1.         Dail Mahammadov:  Engineer 1 
 ENG2.           Eldar Hajiyev:  Engineer 2 
 ENG3.       Bakhtiar Jabbarli:  Engineer 3 
 ENG4.       Natik Hasanagayev:  Engineer 4 
 ETIM.      09.30.04 14-May-21:  End Time 
 FLOI.gpm               460.00:  Flow In 
 FLON.gpm               200.00:  Flow In Min 
 FLOS.cptm                0.00:  Fluid Loss 
 FLOX.gpm               505.00:  Flow In Max 
 HFLO.                      No:  High Flow 
 HPRE.                      No:  High Pressure 
 HTEM.                      No:  High Temp 
 HYDO.m                   1.80:  Hydro Offset 
 IFIN.deg                66.71:  Inc, Final 
 IMAX.deg                67.03:  Inc Max 
 IMIN.deg                66.63:  Inc Min 
 IMND.m                4550.58:  Inc Min Depth 
 IMXD.m                4439.01:  Inc Max Depth 
 JARR.                      No:  Jarring 
 LETM.      10.45.04 08-May-21:  Log End Time 
 LOST.hr                     0:  Lost Rig Time 
 LSTM.      03.30.04 04-May-21:  Log Start Time 
 MDCL.ppm             37000.00:  Mud Chlorides 
 MDES.     Inversion Oil/Synthetic:  Mud Desc 
 DFD .sg                  1.38:  Mud Density 
 MDMN.sg                  1.35:  Dens Mud Min 
 MDMX.sg                  1.40:  Dens Mud Max 
 MOIL.                   57.40:  Run Mud Oil % 
 MOWR.                   70:30:  Run Mud OWR 
 MSND.                    0.00:  Run Mud Sand % 
 MSOL.                   18.00:  Run Mud Solids% 
 DFV .spqt               71.00:  Mud Viscosity 
 MWOD.in                  6.75:  MWD Tool OD 
 MWSI.                      No:  Serv Intrp, MWD 
 OTIM.hr                242.76:  Time Operating 
 PCON.           Look Like New:  Pad Condition 
 PMAX.psia            12183.92:  Press Op, Max 
 PV  .cP                 27.00:  Mud PV 
 RUN .                    1300:  Run Number 
 ROPA.m/hr               15.00:  ROP Avg 
 ROPN.m/hr                9.00:  ROP Min 
 ROPX.m/hr               19.00:  ROP Max 
 RPMA.rpm               120.00:  RPM Surface Avg 
 RPMN.rpm               100.00:  RPM Surface Min 
 RPMX.rpm               120.00:  RPM Surface Max 
 RRUN.                    1300:  Rig Run Number 
 RTIM.hr                  5.00:  Time Reaming 
 SAZI.deg               304.73:  Azm, Start 
 SDEP.m                4412.01:  Start Depth 
 SIDD.                      No:  Serv Intrp, DD 
 SINC.deg                66.82:  Inc, Start 
 SPPA.psig             2800.00:  SPP Avg 
 SPPN.psig             2610.00:  SPP Min 
 SPPX.psig             3100.00:  SPP Max 
 STIM.      03.30.00 04-May-21:  Start Time 
 SVCS.                 DD, MWD:  Services 
 SVER.                    9.20:  Sperry Version 
 TDAT.m                 228.00:  Tot Depth Attmp 
 TDDF.                      No:  Trip for DD 
 TDLG.m                 228.00:  Tot Depth Loggd 
 TFF .                      No:  Trip for Fail 
 TQAA.f-kp               15.00:  Torque Abs Avg 
 TQAN.f-kp               12.00:  Torque Abs Min 
 TQAX.f-kp               22.00:  Torque Abs Max 
 TRRT.°/30m               0.00:  Turn Rotating 
 MRT .                    HCIM:  Maximum Recorded Temperature 
 TTMX.degC               90.20:  Max Tool Temp 
 VS01.                90627813:  Virtual Str1 SN 
 VS02.                90634712:  Virtual Str2 SN 
 VS03.                90643410:  Virtual Str3 SN 
 VS04.                90634712:  Virtual Str4 SN 
 WBMN.klb                 9.00:  WOB Min 
 WITN.        Elmaddin Rahimov:  Customer Rep 
 WITN.         Haytham Mostafa:  Customer Rep 2 
 WOBA.klb                15.00:  WOB Avg 
 WOBX.klb                23.00:  WOB Max 
 YP  .lhf2               29.00:  Yield Point 
~Curve Information Block
#MNEM.UNIT                 API CODE     Curve Description
#---------               -----------    ---------------------------
 TIME.HHMMSS            00 000 000 000:  GT Time & Date
 GTDEPTH.m              00 000 000 000:  GT Depth
 GTPQH.psia             00 000 000 000:  GT HR Quartz Pressure
 GTTQ.degC              00 000 000 000:  GT Quartz Temperature
 GTTN.NONE              00 000 000 000:  GT Test Number
 GTET.sec               00 000 000 000:  GT Elapsed Test Time
 GTTVD.m                00 000 000 000:  GT True Vertical Depth
#Other Information
#
#WARRANTY: Halliburton will use its best efforts to furnish customers with 
#accurate information and interpretations that are part of, and incident to, the services 
#provided.  However, Halliburton cannot and does not warrant the accuracy 
#or correctness of such information and interpretations.  Under no circumstances should any 
#such information or interpretation be relied upon as the sole basis for any drilling, 
#completion, production, or financial decision or any procedure involving any risk to the 
#safety of any drilling venture, drilling rig or its crew or any other third party.  The 
#Customer has full responsibility for all drilling, completion and production operation.  
#Halliburton makes no representations or warranties, either expressed or 
#implied, including, but not limited to, the implied warranties of merchantability or fitness 
#for a particular purpose, with respect to the services rendered.  In no event will 
#Halliburton be liable for failure to obtain any particular results or for 
#any damages, including, but not limited to, indirect, special or consequential damages, 
#resulting from the use of any information or interpretation provided by Halliburton.
#
~A           TIME           GTDEPTH  GTPQH  GTTQ  GTTN  GTET   GTTVD  
# ...
   21:56:33.000.08-May-2021 4568.51  709.29 68.97 3.00 161.00 2999.18
   21:56:33.200.08-May-2021 4568.51  709.29 68.97 3.00 161.20 2999.18
   21:56:33.400.08-May-2021 4568.51  709.06 68.97 3.00 161.40 2999.18
   21:56:33.600.08-May-2021 4568.51  709.61 68.97 3.00 161.60 2999.18
   21:56:33.800.08-May-2021 4568.51  709.62 68.97 3.00 161.80 2999.18
   21:56:34.000.08-May-2021 4568.51  709.69 68.97 3.00 162.00 2999.18
   21:56:34.200.08-May-2021 4568.51  709.69 68.97 3.00 162.20 2999.18
   21:56:34.400.08-May-2021 4568.51  709.36 68.97 3.00 162.40 2999.18
   21:56:34.600.08-May-2021 4568.51  710.02 68.97 3.00 162.60 2999.18
   21:56:34.800.08-May-2021 4568.51  709.95 68.97 3.00 162.80 2999.18
   21:56:35.000.08-May-2021 4568.51  710.20 68.97 3.00 163.00 2999.18
   21:56:35.200.08-May-2021 4568.51  710.20 68.97 3.00 163.20 2999.18
   21:56:35.400.08-May-2021 4568.51  710.47 68.97 3.00 163.40 2999.18
   21:56:35.600.08-May-2021 4568.51  710.24 68.97 3.00 163.60 2999.18
   21:56:35.800.08-May-2021 4568.51  710.35 68.97 3.00 163.80 2999.18
   21:56:36.000.08-May-2021 4568.51  710.00 68.97 3.00 164.00 2999.18
   21:56:36.200.08-May-2021 4568.51  710.00 68.97 3.00 164.20 2999.18
   21:56:36.400.08-May-2021 4568.51  710.64 68.97 3.00 164.40 2999.18
   21:56:36.600.08-May-2021 4568.51  710.90 68.97 3.00 164.60 2999.18
   21:56:36.800.08-May-2021 4568.51  710.89 68.97 3.00 164.80 2999.18
   21:56:37.000.08-May-2021 4568.51  710.96 68.97 3.00 165.00 2999.18
   21:56:37.200.08-May-2021 4568.51  710.96 68.97 3.00 165.20 2999.18
   21:56:37.400.08-May-2021 4568.51  711.09 68.97 3.00 165.40 2999.18
   21:56:37.600.08-May-2021 4568.51  711.30 68.97 3.00 165.60 2999.18
   21:56:37.800.08-May-2021 4568.51  711.40 68.97 3.00 165.80 2999.18
   21:56:38.000.08-May-2021 4568.51  711.46 68.97 3.00 166.00 2999.18
   21:56:38.200.08-May-2021 4568.51  711.46 68.97 3.00 166.20 2999.18
   21:56:38.400.08-May-2021 4568.51  711.69 68.97 3.00 166.40 2999.18
   21:56:38.600.08-May-2021 4568.51  711.49 68.97 3.00 166.60 2999.18
   21:56:38.800.08-May-2021 4568.51  712.29 68.97 3.00 166.80 2999.18
   21:56:39.000.08-May-2021 4568.51  711.97 68.97 3.00 167.00 2999.18
   21:56:39.200.08-May-2021 4568.51  711.97 68.97 3.00 167.20 2999.18
   21:56:39.400.08-May-2021 4568.51  712.20 68.97 3.00 167.40 2999.18
   21:56:39.600.08-May-2021 4568.51  712.25 68.97 3.00 167.60 2999.18
   21:56:39.800.08-May-2021 4568.51  712.33 68.97 3.00 167.80 2999.18
   21:56:40.000.08-May-2021 4568.51  712.40 68.97 3.00 168.00 2999.18
   21:56:40.200.08-May-2021 4568.51  712.40 68.97 3.00 168.20 2999.18
   21:56:40.400.08-May-2021 4568.51  712.56 68.97 3.00 168.40 2999.18
   21:56:40.600.08-May-2021 4568.51  712.64 68.97 3.00 168.60 2999.18
   21:56:40.800.08-May-2021 4568.51  712.72 68.97 3.00 168.80 2999.18
   21:56:41.000.08-May-2021 4568.51  712.49 68.97 3.00 169.00 2999.18
   21:56:41.200.08-May-2021 4568.51  712.49 68.97 3.00 169.20 2999.18
   21:56:41.400.08-May-2021 4568.51  712.99 68.97 3.00 169.40 2999.18
   21:56:41.600.08-May-2021 4568.51  713.16 68.97 3.00 169.60 2999.18
   21:56:41.800.08-May-2021 4568.51  713.19 68.97 3.00 169.80 2999.18
   21:56:42.000.08-May-2021 4568.51  712.73 68.97 3.00 170.00 2999.18
   21:56:42.200.08-May-2021 4568.51  712.73 68.97 3.00 170.20 2999.18
   21:56:42.400.08-May-2021 4568.51  713.44 68.97 3.00 170.40 2999.18
   21:56:42.600.08-May-2021 4568.51  713.73 68.97 3.00 170.60 2999.18
   21:56:42.800.08-May-2021 4568.51  713.57 68.97 3.00 170.80 2999.18
   21:56:43.000.08-May-2021 4568.51  713.05 68.97 3.00 171.00 2999.18
   21:56:43.200.08-May-2021 4568.51  713.05 68.97 3.00 171.20 2999.18
   21:56:43.400.08-May-2021 4568.51  713.59 68.97 3.00 171.40 2999.18
   21:56:43.600.08-May-2021 4568.51  713.88 68.97 3.00 171.60 2999.18
   21:56:43.800.08-May-2021 4568.51  713.87 68.97 3.00 171.80 2999.18
   21:56:44.000.08-May-2021 4568.51  713.93 68.97 3.00 172.00 2999.18
   21:56:44.200.08-May-2021 4568.51  713.93 68.97 3.00 172.20 2999.18
   21:56:44.400.08-May-2021 4568.51  714.46 68.97 3.00 172.40 2999.18
   21:56:44.600.08-May-2021 4568.51  714.10 68.97 3.00 172.60 2999.18
   21:56:44.800.08-May-2021 4568.51  714.41 68.97 3.00 172.80 2999.18
   21:56:45.000.08-May-2021 4568.51  714.32 68.96 3.00 173.00 2999.18
   21:56:45.200.08-May-2021 4568.51  714.32 68.96 3.00 173.20 2999.18
   21:56:45.400.08-May-2021 4568.51  714.45 68.97 3.00 173.40 2999.18
   21:56:45.600.08-May-2021 4568.51  714.56 68.96 3.00 173.60 2999.18
   21:56:45.800.08-May-2021 4568.51  714.62 68.96 3.00 173.80 2999.18
   21:56:46.000.08-May-2021 4568.51  714.69 68.96 3.00 174.00 2999.18
   21:56:46.200.08-May-2021 4568.51  714.69 68.96 3.00 174.20 2999.18
   21:56:46.400.08-May-2021 4568.51  714.90 68.96 3.00 174.40 2999.18
   21:56:46.600.08-May-2021 4568.51  714.98 68.96 3.00 174.60 2999.18
   21:56:46.800.08-May-2021 4568.51  714.62 68.96 3.00 174.80 2999.18
   21:56:47.000.08-May-2021 4568.51  715.35 68.96 3.00 175.00 2999.18
   21:56:47.200.08-May-2021 4568.51  715.35 68.96 3.00 175.20 2999.18
   21:56:47.400.08-May-2021 4568.51  715.28 68.96 3.00 175.40 2999.18
   21:56:47.600.08-May-2021 4568.51  715.37 68.96 3.00 175.60 2999.18
   21:56:47.800.08-May-2021 4568.51  715.39 68.96 3.00 175.80 2999.18
   21:56:48.000.08-May-2021 4568.51  715.48 68.96 3.00 176.00 2999.18
   21:56:48.200.08-May-2021 4568.51  715.48 68.96 3.00 176.20 2999.18
   21:56:48.400.08-May-2021 4568.51  715.61 68.96 3.00 176.40 2999.18
   21:56:48.600.08-May-2021 4568.51  715.69 68.96 3.00 176.60 2999.18
   21:56:48.800.08-May-2021 4568.51  715.76 68.96 3.00 176.80 2999.18
   21:56:49.000.08-May-2021 4568.51  715.86 68.96 3.00 177.00 2999.18
   21:56:49.200.08-May-2021 4568.51  715.86 68.96 3.00 177.20 2999.18
   21:56:49.400.08-May-2021 4568.51  715.56 68.96 3.00 177.40 2999.18
   21:56:49.600.08-May-2021 4568.51  716.25 68.96 3.00 177.60 2999.18
   21:56:49.800.08-May-2021 4568.51  716.25 68.96 3.00 177.80 2999.18
   21:56:50.000.08-May-2021 4568.51  716.27 68.96 3.00 178.00 2999.18
   21:56:50.200.08-May-2021 4568.51  716.27 68.96 3.00 178.20 2999.18
   21:56:50.400.08-May-2021 4568.51  716.54 68.96 3.00 178.40 2999.18
   21:56:50.600.08-May-2021 4568.51  716.43 68.96 3.00 178.60 2999.18
   21:56:50.800.08-May-2021 4568.51  716.72 68.96 3.00 178.80 2999.18
   21:56:51.000.08-May-2021 4568.51  716.65 68.96 3.00 179.00 2999.18
   21:56:51.200.08-May-2021 4568.51  716.65 68.96 3.00 179.20 2999.18
   21:56:51.400.08-May-2021 4568.51  716.59 68.96 3.00 179.40 2999.18
   21:56:51.600.08-May-2021 4568.51  716.90 68.96 3.00 179.60 2999.18
   21:56:51.800.08-May-2021 4568.51  716.88 68.96 3.00 179.80 2999.18
   21:56:52.000.08-May-2021 4568.51  716.91 68.96 3.00 180.00 2999.18
   21:56:52.200.08-May-2021 4568.51  716.91 68.96 3.00 180.20 2999.18
   21:56:52.400.08-May-2021 4568.51  717.24 68.96 3.00 180.40 2999.18
   21:56:52.600.08-May-2021 4568.51  717.03 68.96 3.00 180.60 2999.18
   21:56:52.800.08-May-2021 4568.51  717.28 68.96 3.00 180.80 2999.18
   21:56:53.000.08-May-2021 4568.51  717.21 68.96 3.00 181.00 2999.18
   21:56:53.200.08-May-2021 4568.51  717.21 68.96 3.00 181.20 2999.18
   21:56:53.400.08-May-2021 4568.51  717.29 68.96 3.00 181.40 2999.18
   21:56:53.600.08-May-2021 4568.51  717.42 68.96 3.00 181.60 2999.18
   21:56:53.800.08-May-2021 4568.51  717.47 68.96 3.00 181.80 2999.18
   21:56:54.000.08-May-2021 4568.51  717.54 68.96 3.00 182.00 2999.18
   21:56:54.200.08-May-2021 4568.51  717.54 68.96 3.00 182.20 2999.18
   21:56:54.400.08-May-2021 4568.51  717.70 68.96 3.00 182.40 2999.18
   21:56:54.600.08-May-2021 4568.51  717.81 68.96 3.00 182.60 2999.18
   21:56:54.800.08-May-2021 4568.51  717.32 68.96 3.00 182.80 2999.18
   21:56:55.000.08-May-2021 4568.51  718.32 68.96 3.00 183.00 2999.18
   21:56:55.200.08-May-2021 4568.51  718.32 68.96 3.00 183.20 2999.18
   21:56:55.400.08-May-2021 4568.51  718.20 68.96 3.00 183.40 2999.18
   21:56:55.600.08-May-2021 4568.51  718.14 68.96 3.00 183.60 2999.18
   21:56:55.800.08-May-2021 4568.51  718.15 68.96 3.00 183.80 2999.18
