~Version Information
 VERS.                  2.0:   CWLS log ASCII Standard -VERSION 2.0
 WRAP.                   NO:   One line per depth step
~Well Information Block
#MNEM.UNIT     VALUE/NAME     DESCRIPTION
#---------     -----------    ---------------------------
 STRT.S             22:20:35 08-May-21: START TIME 22:20:35 08-May-21
 STOP.S             22:27:08 08-May-21: STOP TIME  22:27:08 08-May-21
 STEP.S                   0.00: STEP TIME
 NULL.                 -999.25: NULL VALUE
 PROV.                    Baku:  PROVINCE
 STAT.                    Baku:  STATE NAME
 SON .        AZ-XX-0906571588:  JOB NUMBER
 WTYP.                Deviated:  WELL TYPE
 COMP.     BP Exploration (Caspian Sea) ltd:  COMPANY
 BASE.              Azerbaijan:  LOGGING EQUIPMENT BASE LOCATION
 REGN.                   EESSA:  REGION
 CTRY.              Azerbaijan:  COUNTRY NAME
 FLD .                     ACG:  FIELD NAME
 WELL.                     J28:  WELL NAME
 RIG .             West Chirag:  RIG NAME
 DMF .             Drill Floor:  DRILL MEAS FROM
 PDAT.       Caspian Sea Level:  PERMANENT DATUM
 HPTY.       Minimum Curvature:  HOLE POS TYPE
 MDS .        Operator Entered:  MAG DATA SOURCE
 NREF.                    Grid:  NORTH REFERENCE
 SRVC.          TURAN DRILLING:  CONTRACTOR
 JOBN.        AZ-XX-0906571588:  JOB TICKET NUMB
 DCON.     Halliburton Sperry Drilling:  DIRECTNL CONTR
 STIM.      00.44.00 11-Feb-21:  START TIME
 DATE.      00.00.00 05-May-21:  END TIME
 SPUD.               13-Feb-21:  SPUD DATE
 MWDS.                    Baku:  MWD SHOP
 DOE .                     N/A:  DOE NUMBER
 UNIT.                     N/A:  LOGGING EQUIPMENT ID
 UWI .                     N/A:  UNIQUE WELL IDENTIFIER
 API .                     N/A:  API NUMBER
 CNTY.                        :  COUNTY
 LOC .                        :  LOCATION
 LMF .             Drill Floor:  LOG MEASURED FROM
 TVDS.m                  43.00:  TVDSS CORRECTN
 SDEP.m                 341.00:  START DEPTH
 EGL .m                   0.00:  GROUND ELEVATION
 WDMS.m                 169.80:  WD ELEV
 AGAP.m                  43.00:  AIR GAP
 EPD .m                   0.00:  ELEVATION
 APD .m                  43.00:  DEPTH ABOVE PD
 LATI.deg                40.13:  LATITUDE
 LONG.deg                51.22:  LONGITUDE
 UTMY.m             4443793.85:  UTM Y
 UTMX.m              519005.06:  UTM X
 WHEW.m                 -11.57:  WELL HEAD E/W
 WHNS.m                   8.57:  WELL HEAD N/S
 VSEW.m                 -11.57:  VERT SEC E/W
 VSNS.m                   8.57:  VERT SEC N/S
 DFWL.m                   0.00:  DISTANCE FWL
 DFSL.m                   0.00:  DISTANCE FSL
 VSDR.deg               299.34:  VERT SEC DIRECT
 GVFD.g                   1.00:  GRAVITY FIELD
 AZTC.deg                 6.36:  AZM TOTAL CORR
 MFLD.nT              50391.00:  MAGNETIC FIELD
 MDIP.deg                59.65:  MAGNETIC DIP
 MDEC.deg                 6.48:  MAGNETIC DECL
 GRDC.deg                 0.12:  GRID CORRECTION
 DEP .m                 334.96:  DEPTH
 TDD .m                1407.26:  TOTAL DEPTH (DRILLER)
 EKB .m                  43.00:  KB ELEVATION
 EDF .m                  43.00:  DF ELEVATION
 TDL .m                 228.00:  TOTAL DEPTH (LOGGER)
 VSC .                       0:  VS TO CLOSURE
 MAGU.                 1854484:  MAGUTM CHECKSUM
~Parameter Information Block
#MNEM.UNIT       Value        Description
#---------     -----------    ---------------------------
 AV  .mps                 4.00:  Ann Velocity 
 AVMX.mps                 4.73:  Max Ann Veloc 
 AZIF.deg               304.48:  Azm, Final 
 BHAT.        Rotary Steerable:  BHA Type 
 BREV.rev            257300.00:  Rev Bit Total 
 BROT.°/30m               0.00:  Build Rotating 
 BS  .in                  8.50:  Bit Size 
 BSZ .in                  8.50:  Bit Size 
 BTPL.psig              589.00:  Bit Press Loss 
 CABU.                      No:  Customer Abuse 
 CGEO.          Mubariz ghayev:  Customer Geo 
 COMM.                     lÿM:  Run Comments 1 
 TCS .hr                 64.25:  Time Ciculation Ended 
 CV  .mps                 3.50:  Crit Velocity 
 CVMX.mps                 4.52:  Max Crit Veloc 
 DD1 .             Aziz Aliyev:  Direct Drillr 1 
 DD2 .         Intigam Rahimov:  Direct Drillr 2 
 DD3 .          Rashad Habibov:  Direct Drillr 3 
 DDSV.               Geo-Pilot:  DD Service 
 DEFF.%                  98.00:  % Det Eff 
 DLRX.°/30m               0.00:  Dogleg Rot Max 
 DLSO.°/30m               0.00:  Dogleg Oriented 
 DLSX.°/30m               0.00:  Dogleg Str Max 
 DRET.      10.45.04 08-May-21:  Drill End Time 
 DRST.      03.30.04 04-May-21:  Drill Start Tim 
 DTIM.hr                 14.97:  Time Drilling 
 EDEP.m                4640.01:  End Depth 
 ENG1.         Dail Mahammadov:  Engineer 1 
 ENG2.           Eldar Hajiyev:  Engineer 2 
 ENG3.       Bakhtiar Jabbarli:  Engineer 3 
 ENG4.       Natik Hasanagayev:  Engineer 4 
 ETIM.      09.30.04 14-May-21:  End Time 
 FLOI.gpm               460.00:  Flow In 
 FLON.gpm               200.00:  Flow In Min 
 FLOS.cptm                0.00:  Fluid Loss 
 FLOX.gpm               505.00:  Flow In Max 
 HFLO.                      No:  High Flow 
 HPRE.                      No:  High Pressure 
 HTEM.                      No:  High Temp 
 HYDO.m                   1.80:  Hydro Offset 
 IFIN.deg                66.71:  Inc, Final 
 IMAX.deg                67.03:  Inc Max 
 IMIN.deg                66.63:  Inc Min 
 IMND.m                4550.58:  Inc Min Depth 
 IMXD.m                4439.01:  Inc Max Depth 
 JARR.                      No:  Jarring 
 LETM.      10.45.04 08-May-21:  Log End Time 
 LOST.hr                     0:  Lost Rig Time 
 LSTM.      03.30.04 04-May-21:  Log Start Time 
 MDCL.ppm             37000.00:  Mud Chlorides 
 MDES.     Inversion Oil/Synthetic:  Mud Desc 
 DFD .sg                  1.38:  Mud Density 
 MDMN.sg                  1.35:  Dens Mud Min 
 MDMX.sg                  1.40:  Dens Mud Max 
 MOIL.                   57.40:  Run Mud Oil % 
 MOWR.                   70:30:  Run Mud OWR 
 MSND.                    0.00:  Run Mud Sand % 
 MSOL.                   18.00:  Run Mud Solids% 
 DFV .spqt               71.00:  Mud Viscosity 
 MWOD.in                  6.75:  MWD Tool OD 
 MWSI.                      No:  Serv Intrp, MWD 
 OTIM.hr                242.76:  Time Operating 
 PCON.           Look Like New:  Pad Condition 
 PMAX.psia            12183.92:  Press Op, Max 
 PV  .cP                 27.00:  Mud PV 
 RUN .                    1300:  Run Number 
 ROPA.m/hr               15.00:  ROP Avg 
 ROPN.m/hr                9.00:  ROP Min 
 ROPX.m/hr               19.00:  ROP Max 
 RPMA.rpm               120.00:  RPM Surface Avg 
 RPMN.rpm               100.00:  RPM Surface Min 
 RPMX.rpm               120.00:  RPM Surface Max 
 RRUN.                    1300:  Rig Run Number 
 RTIM.hr                  5.00:  Time Reaming 
 SAZI.deg               304.73:  Azm, Start 
 SDEP.m                4412.01:  Start Depth 
 SIDD.                      No:  Serv Intrp, DD 
 SINC.deg                66.82:  Inc, Start 
 SPPA.psig             2800.00:  SPP Avg 
 SPPN.psig             2610.00:  SPP Min 
 SPPX.psig             3100.00:  SPP Max 
 STIM.      03.30.00 04-May-21:  Start Time 
 SVCS.                 DD, MWD:  Services 
 SVER.                    9.20:  Sperry Version 
 TDAT.m                 228.00:  Tot Depth Attmp 
 TDDF.                      No:  Trip for DD 
 TDLG.m                 228.00:  Tot Depth Loggd 
 TFF .                      No:  Trip for Fail 
 TQAA.f-kp               15.00:  Torque Abs Avg 
 TQAN.f-kp               12.00:  Torque Abs Min 
 TQAX.f-kp               22.00:  Torque Abs Max 
 TRRT.°/30m               0.00:  Turn Rotating 
 MRT .                    HCIM:  Maximum Recorded Temperature 
 TTMX.degC               90.20:  Max Tool Temp 
 VS01.                90627813:  Virtual Str1 SN 
 VS02.                90634712:  Virtual Str2 SN 
 VS03.                90643410:  Virtual Str3 SN 
 VS04.                90634712:  Virtual Str4 SN 
 WBMN.klb                 9.00:  WOB Min 
 WITN.        Elmaddin Rahimov:  Customer Rep 
 WITN.         Haytham Mostafa:  Customer Rep 2 
 WOBA.klb                15.00:  WOB Avg 
 WOBX.klb                23.00:  WOB Max 
 YP  .lhf2               29.00:  Yield Point 
~Curve Information Block
#MNEM.UNIT                 API CODE     Curve Description
#---------               -----------    ---------------------------
 TIME.HHMMSS            00 000 000 000:  GT Time & Date
 GTDEPTH.m              00 000 000 000:  GT Depth
 GTPQH.psia             00 000 000 000:  GT HR Quartz Pressure
 GTTQ.degC              00 000 000 000:  GT Quartz Temperature
 GTTN.NONE              00 000 000 000:  GT Test Number
 GTET.sec               00 000 000 000:  GT Elapsed Test Time
 GTTVD.m                00 000 000 000:  GT True Vertical Depth
#Other Information
#
#WARRANTY: Halliburton will use its best efforts to furnish customers with 
#accurate information and interpretations that are part of, and incident to, the services 
#provided.  However, Halliburton cannot and does not warrant the accuracy 
#or correctness of such information and interpretations.  Under no circumstances should any 
#such information or interpretation be relied upon as the sole basis for any drilling, 
#completion, production, or financial decision or any procedure involving any risk to the 
#safety of any drilling venture, drilling rig or its crew or any other third party.  The 
#Customer has full responsibility for all drilling, completion and production operation.  
#Halliburton makes no representations or warranties, either expressed or 
#implied, including, but not limited to, the implied warranties of merchantability or fitness 
#for a particular purpose, with respect to the services rendered.  In no event will 
#Halliburton be liable for failure to obtain any particular results or for 
#any damages, including, but not limited to, indirect, special or consequential damages, 
#resulting from the use of any information or interpretation provided by Halliburton.
#
~A           TIME           GTDEPTH  GTPQH  GTTQ  GTTN  GTET   GTTVD  
# ...
   22:25:11.000.08-May-2021 4569.01  739.83 68.49 4.00 276.00 2999.38
   22:25:11.200.08-May-2021 4569.01  739.83 68.49 4.00 276.20 2999.38
   22:25:11.400.08-May-2021 4569.01  739.83 68.49 4.00 276.40 2999.38
   22:25:11.600.08-May-2021 4569.01  739.89 68.48 4.00 276.60 2999.38
   22:25:11.800.08-May-2021 4569.01  739.92 68.49 4.00 276.80 2999.38
   22:25:12.000.08-May-2021 4569.01  739.97 68.48 4.00 277.00 2999.38
   22:25:12.200.08-May-2021 4569.01  739.97 68.48 4.00 277.20 2999.38
   22:25:12.400.08-May-2021 4569.01  739.97 68.49 4.00 277.40 2999.38
   22:25:12.600.08-May-2021 4569.01  740.08 68.49 4.00 277.60 2999.38
   22:25:12.800.08-May-2021 4569.01  740.00 68.49 4.00 277.80 2999.38
   22:25:13.000.08-May-2021 4569.01  739.88 68.48 4.00 278.00 2999.38
   22:25:13.200.08-May-2021 4569.01  739.88 68.48 4.00 278.20 2999.38
   22:25:13.400.08-May-2021 4569.01  740.18 68.49 4.00 278.40 2999.38
   22:25:13.600.08-May-2021 4569.01  740.27 68.49 4.00 278.60 2999.38
   22:25:13.800.08-May-2021 4569.01  740.31 68.49 4.00 278.80 2999.38
   22:25:14.000.08-May-2021 4569.01  740.25 68.48 4.00 279.00 2999.38
   22:25:14.200.08-May-2021 4569.01  740.25 68.48 4.00 279.20 2999.38
   22:25:14.400.08-May-2021 4569.01  740.31 68.49 4.00 279.40 2999.38
   22:25:14.600.08-May-2021 4569.01  740.37 68.49 4.00 279.60 2999.38
   22:25:14.800.08-May-2021 4569.01  740.36 68.48 4.00 279.80 2999.38
   22:25:15.000.08-May-2021 4569.01  740.40 68.49 4.00 280.00 2999.38
   22:25:15.200.08-May-2021 4569.01  740.40 68.49 4.00 280.20 2999.38
   22:25:15.400.08-May-2021 4569.01  740.06 68.49 4.00 280.40 2999.38
   22:25:15.600.08-May-2021 4569.01  740.84 68.49 4.00 280.60 2999.38
   22:25:15.800.08-May-2021 4569.01  740.47 68.48 4.00 280.80 2999.38
   22:25:16.000.08-May-2021 4569.01  740.78 68.49 4.00 281.00 2999.38
   22:25:16.200.08-May-2021 4569.01  740.78 68.49 4.00 281.20 2999.38
   22:25:16.400.08-May-2021 4569.01  740.68 68.49 4.00 281.40 2999.38
   22:25:16.600.08-May-2021 4569.01  740.37 68.49 4.00 281.60 2999.38
   22:25:16.800.08-May-2021 4569.01  740.98 68.48 4.00 281.80 2999.38
   22:25:17.000.08-May-2021 4569.01  740.71 68.49 4.00 282.00 2999.38
   22:25:17.200.08-May-2021 4569.01  740.71 68.49 4.00 282.20 2999.38
   22:25:17.400.08-May-2021 4569.01  740.57 68.48 4.00 282.40 2999.38
   22:25:17.600.08-May-2021 4569.01  740.96 68.49 4.00 282.60 2999.38
   22:25:17.800.08-May-2021 4569.01  741.00 68.49 4.00 282.80 2999.38
   22:25:18.000.08-May-2021 4569.01  740.96 68.49 4.00 283.00 2999.38
   22:25:18.200.08-May-2021 4569.01  740.96 68.49 4.00 283.20 2999.38
   22:25:18.400.08-May-2021 4569.01  741.02 68.49 4.00 283.40 2999.38
   22:25:18.600.08-May-2021 4569.01  740.50 68.49 4.00 283.60 2999.38
   22:25:18.800.08-May-2021 4569.01  741.31 68.48 4.00 283.80 2999.38
   22:25:19.000.08-May-2021 4569.01  741.04 68.49 4.00 284.00 2999.38
   22:25:19.200.08-May-2021 4569.01  741.04 68.49 4.00 284.20 2999.38
   22:25:19.400.08-May-2021 4569.01  741.12 68.48 4.00 284.40 2999.38
   22:25:19.600.08-May-2021 4569.01  741.19 68.48 4.00 284.60 2999.38
   22:25:19.800.08-May-2021 4569.01  741.25 68.49 4.00 284.80 2999.38
   22:25:20.000.08-May-2021 4569.01  741.27 68.49 4.00 285.00 2999.38
   22:25:20.200.08-May-2021 4569.01  741.27 68.49 4.00 285.20 2999.38
   22:25:20.400.08-May-2021 4569.01  741.28 68.48 4.00 285.40 2999.38
   22:25:20.600.08-May-2021 4569.01  741.39 68.48 4.00 285.60 2999.38
   22:25:20.800.08-May-2021 4569.01  741.45 68.49 4.00 285.80 2999.38
   22:25:21.000.08-May-2021 4569.01  741.50 68.48 4.00 286.00 2999.38
   22:25:21.200.08-May-2021 4569.01  741.50 68.48 4.00 286.20 2999.38
   22:25:21.400.08-May-2021 4569.01  741.88 68.48 4.00 286.40 2999.38
   22:25:21.600.08-May-2021 4569.01  741.52 68.49 4.00 286.60 2999.38
   22:25:21.800.08-May-2021 4569.01  741.72 68.48 4.00 286.80 2999.38
   22:25:22.000.08-May-2021 4569.01  741.65 68.49 4.00 287.00 2999.38
   22:25:22.200.08-May-2021 4569.01  741.65 68.49 4.00 287.20 2999.38
   22:25:22.400.08-May-2021 4569.01  741.64 68.49 4.00 287.40 2999.38
   22:25:22.600.08-May-2021 4569.01  741.66 68.48 4.00 287.60 2999.38
   22:25:22.800.08-May-2021 4569.01  741.68 68.48 4.00 287.80 2999.38
   22:25:23.000.08-May-2021 4569.01  741.71 68.49 4.00 288.00 2999.38
   22:25:23.200.08-May-2021 4569.01  741.71 68.49 4.00 288.20 2999.38
   22:25:23.400.08-May-2021 4569.01  741.85 68.48 4.00 288.40 2999.38
   22:25:23.600.08-May-2021 4569.01  741.73 68.49 4.00 288.60 2999.38
   22:25:23.800.08-May-2021 4569.01  741.52 68.48 4.00 288.80 2999.38
   22:25:24.000.08-May-2021 4569.01  742.19 68.49 4.00 289.00 2999.38
   22:25:24.200.08-May-2021 4569.01  742.19 68.49 4.00 289.20 2999.38
   22:25:24.400.08-May-2021 4569.01  741.97 68.48 4.00 289.40 2999.38
   22:25:24.600.08-May-2021 4569.01  742.11 68.48 4.00 289.60 2999.38
   22:25:24.800.08-May-2021 4569.01  741.51 68.48 4.00 289.80 2999.38
   22:25:25.000.08-May-2021 4569.01  742.38 68.49 4.00 290.00 2999.38
   22:25:25.200.08-May-2021 4569.01  742.38 68.49 4.00 290.20 2999.38
   22:25:25.400.08-May-2021 4569.01  742.33 68.48 4.00 290.40 2999.38
   22:25:25.600.08-May-2021 4569.01  742.16 68.49 4.00 290.60 2999.38
   22:25:25.800.08-May-2021 4569.01  741.53 68.48 4.00 290.80 2999.38
   22:25:26.000.08-May-2021 4569.01  742.64 68.48 4.00 291.00 2999.38
   22:25:26.200.08-May-2021 4569.01  742.64 68.48 4.00 291.20 2999.38
   22:25:26.400.08-May-2021 4569.01  742.52 68.49 4.00 291.40 2999.38
   22:25:26.600.08-May-2021 4569.01  742.43 68.48 4.00 291.60 2999.38
   22:25:26.800.08-May-2021 4569.01  742.40 68.48 4.00 291.80 2999.38
   22:25:27.000.08-May-2021 4569.01  741.99 68.49 4.00 292.00 2999.38
   22:25:27.200.08-May-2021 4569.01  741.99 68.49 4.00 292.20 2999.38
   22:25:27.400.08-May-2021 4569.01  742.52 68.48 4.00 292.40 2999.38
   22:25:27.600.08-May-2021 4569.01  742.59 68.49 4.00 292.60 2999.38
   22:25:27.800.08-May-2021 4569.01  742.68 68.48 4.00 292.80 2999.38
   22:25:28.000.08-May-2021 4569.01  742.63 68.48 4.00 293.00 2999.38
   22:25:28.200.08-May-2021 4569.01  742.63 68.48 4.00 293.20 2999.38
   22:25:28.400.08-May-2021 4569.01  742.69 68.48 4.00 293.40 2999.38
   22:25:28.600.08-May-2021 4569.01  742.71 68.48 4.00 293.60 2999.38
   22:25:28.800.08-May-2021 4569.01  742.75 68.48 4.00 293.80 2999.38
   22:25:29.000.08-May-2021 4569.01  742.83 68.48 4.00 294.00 2999.38
   22:25:29.200.08-May-2021 4569.01  742.83 68.48 4.00 294.20 2999.38
   22:25:29.400.08-May-2021 4569.01  742.72 68.48 4.00 294.40 2999.38
   22:25:29.600.08-May-2021 4569.01  742.52 68.48 4.00 294.60 2999.38
   22:25:29.800.08-May-2021 4569.01  743.22 68.49 4.00 294.80 2999.38
   22:25:30.000.08-May-2021 4569.01  742.99 68.48 4.00 295.00 2999.38
   22:25:30.200.08-May-2021 4569.01  742.99 68.48 4.00 295.20 2999.38
   22:25:30.400.08-May-2021 4569.01  743.08 68.48 4.00 295.40 2999.38
   22:25:30.600.08-May-2021 4569.01  743.04 68.48 4.00 295.60 2999.38
   22:25:30.800.08-May-2021 4569.01  743.04 68.49 4.00 295.80 2999.38
   22:25:31.000.08-May-2021 4569.01  743.06 68.48 4.00 296.00 2999.38
   22:25:31.200.08-May-2021 4569.01  743.06 68.48 4.00 296.20 2999.38
   22:25:31.400.08-May-2021 4569.01  743.14 68.48 4.00 296.40 2999.38
   22:25:31.600.08-May-2021 4569.01  743.20 68.48 4.00 296.60 2999.38
   22:25:31.800.08-May-2021 4569.01  743.20 68.48 4.00 296.80 2999.38
   22:25:32.000.08-May-2021 4569.01  742.68 68.48 4.00 297.00 2999.38
   22:25:32.200.08-May-2021 4569.01  742.68 68.48 4.00 297.20 2999.38
   22:25:32.400.08-May-2021 4569.01  743.28 68.48 4.00 297.40 2999.38
   22:25:32.600.08-May-2021 4569.01  743.51 68.48 4.00 297.60 2999.38
   22:25:32.800.08-May-2021 4569.01  743.38 68.48 4.00 297.80 2999.38
   22:25:33.000.08-May-2021 4569.01  743.23 68.48 4.00 298.00 2999.38
   22:25:33.200.08-May-2021 4569.01  743.23 68.48 4.00 298.20 2999.38
   22:25:33.400.08-May-2021 4569.01  743.71 68.49 4.00 298.40 2999.38
   22:25:33.600.08-May-2021 4569.01  743.48 68.48 4.00 298.60 2999.38
   22:25:33.800.08-May-2021 4569.01  743.53 68.48 4.00 298.80 2999.38
