~Version Information
 VERS.                  2.0:   CWLS log ASCII Standard -VERSION 2.0
 WRAP.                   NO:   One line per depth step
~Well Information Block
#MNEM.UNIT     VALUE/NAME     DESCRIPTION
#---------     -----------    ---------------------------
 STRT.S             01:38:21 09-May-21: START TIME 01:38:21 09-May-21
 STOP.S             01:44:59 09-May-21: STOP TIME  01:44:59 09-May-21
 STEP.S                   0.00: STEP TIME
 NULL.                 -999.25: NULL VALUE
 PROV.                    Baku:  PROVINCE
 STAT.                    Baku:  STATE NAME
 SON .        AZ-XX-0906571588:  JOB NUMBER
 WTYP.                Deviated:  WELL TYPE
 COMP.     BP Exploration (Caspian Sea) ltd:  COMPANY
 BASE.              Azerbaijan:  LOGGING EQUIPMENT BASE LOCATION
 REGN.                   EESSA:  REGION
 CTRY.              Azerbaijan:  COUNTRY NAME
 FLD .                     ACG:  FIELD NAME
 WELL.                     J28:  WELL NAME
 RIG .             West Chirag:  RIG NAME
 DMF .             Drill Floor:  DRILL MEAS FROM
 PDAT.       Caspian Sea Level:  PERMANENT DATUM
 HPTY.       Minimum Curvature:  HOLE POS TYPE
 MDS .        Operator Entered:  MAG DATA SOURCE
 NREF.                    Grid:  NORTH REFERENCE
 SRVC.          TURAN DRILLING:  CONTRACTOR
 JOBN.        AZ-XX-0906571588:  JOB TICKET NUMB
 DCON.     Halliburton Sperry Drilling:  DIRECTNL CONTR
 STIM.      00.44.00 11-Feb-21:  START TIME
 DATE.      00.00.00 05-May-21:  END TIME
 SPUD.               13-Feb-21:  SPUD DATE
 MWDS.                    Baku:  MWD SHOP
 DOE .                     N/A:  DOE NUMBER
 UNIT.                     N/A:  LOGGING EQUIPMENT ID
 UWI .                     N/A:  UNIQUE WELL IDENTIFIER
 API .                     N/A:  API NUMBER
 CNTY.                        :  COUNTY
 LOC .                        :  LOCATION
 LMF .             Drill Floor:  LOG MEASURED FROM
 TVDS.m                  43.00:  TVDSS CORRECTN
 SDEP.m                 341.00:  START DEPTH
 EGL .m                   0.00:  GROUND ELEVATION
 WDMS.m                 169.80:  WD ELEV
 AGAP.m                  43.00:  AIR GAP
 EPD .m                   0.00:  ELEVATION
 APD .m                  43.00:  DEPTH ABOVE PD
 LATI.deg                40.13:  LATITUDE
 LONG.deg                51.22:  LONGITUDE
 UTMY.m             4443793.85:  UTM Y
 UTMX.m              519005.06:  UTM X
 WHEW.m                 -11.57:  WELL HEAD E/W
 WHNS.m                   8.57:  WELL HEAD N/S
 VSEW.m                 -11.57:  VERT SEC E/W
 VSNS.m                   8.57:  VERT SEC N/S
 DFWL.m                   0.00:  DISTANCE FWL
 DFSL.m                   0.00:  DISTANCE FSL
 VSDR.deg               299.34:  VERT SEC DIRECT
 GVFD.g                   1.00:  GRAVITY FIELD
 AZTC.deg                 6.36:  AZM TOTAL CORR
 MFLD.nT              50391.00:  MAGNETIC FIELD
 MDIP.deg                59.65:  MAGNETIC DIP
 MDEC.deg                 6.48:  MAGNETIC DECL
 GRDC.deg                 0.12:  GRID CORRECTION
 DEP .m                 334.96:  DEPTH
 TDD .m                1407.26:  TOTAL DEPTH (DRILLER)
 EKB .m                  43.00:  KB ELEVATION
 EDF .m                  43.00:  DF ELEVATION
 TDL .m                 228.00:  TOTAL DEPTH (LOGGER)
 VSC .                       0:  VS TO CLOSURE
 MAGU.                 1854484:  MAGUTM CHECKSUM
~Parameter Information Block
#MNEM.UNIT       Value        Description
#---------     -----------    ---------------------------
 AV  .mps                 4.00:  Ann Velocity 
 AVMX.mps                 4.73:  Max Ann Veloc 
 AZIF.deg               304.48:  Azm, Final 
 BHAT.        Rotary Steerable:  BHA Type 
 BREV.rev            257300.00:  Rev Bit Total 
 BROT.°/30m               0.00:  Build Rotating 
 BS  .in                  8.50:  Bit Size 
 BSZ .in                  8.50:  Bit Size 
 BTPL.psig              589.00:  Bit Press Loss 
 CABU.                      No:  Customer Abuse 
 CGEO.          Mubariz ghayev:  Customer Geo 
 TCS .hr                 64.25:  Time Ciculation Ended 
 CV  .mps                 3.50:  Crit Velocity 
 CVMX.mps                 4.52:  Max Crit Veloc 
 DD1 .             Aziz Aliyev:  Direct Drillr 1 
 DD2 .         Intigam Rahimov:  Direct Drillr 2 
 DD3 .          Rashad Habibov:  Direct Drillr 3 
 DDSV.               Geo-Pilot:  DD Service 
 DEFF.%                  98.00:  % Det Eff 
 DLRX.°/30m               0.00:  Dogleg Rot Max 
 DLSO.°/30m               0.00:  Dogleg Oriented 
 DLSX.°/30m               0.00:  Dogleg Str Max 
 DRET.      10.45.04 08-May-21:  Drill End Time 
 DRST.      03.30.04 04-May-21:  Drill Start Tim 
 DTIM.hr                 14.97:  Time Drilling 
 EDEP.m                4640.01:  End Depth 
 ENG1.         Dail Mahammadov:  Engineer 1 
 ENG2.           Eldar Hajiyev:  Engineer 2 
 ENG3.       Bakhtiar Jabbarli:  Engineer 3 
 ENG4.       Natik Hasanagayev:  Engineer 4 
 ETIM.      09.30.04 14-May-21:  End Time 
 FLOI.gpm               460.00:  Flow In 
 FLON.gpm               200.00:  Flow In Min 
 FLOS.cptm                0.00:  Fluid Loss 
 FLOX.gpm               505.00:  Flow In Max 
 HFLO.                      No:  High Flow 
 HPRE.                      No:  High Pressure 
 HTEM.                      No:  High Temp 
 HYDO.m                   1.80:  Hydro Offset 
 IFIN.deg                66.71:  Inc, Final 
 IMAX.deg                67.03:  Inc Max 
 IMIN.deg                66.63:  Inc Min 
 IMND.m                4550.58:  Inc Min Depth 
 IMXD.m                4439.01:  Inc Max Depth 
 JARR.                      No:  Jarring 
 LETM.      10.45.04 08-May-21:  Log End Time 
 LOST.hr                     0:  Lost Rig Time 
 LSTM.      03.30.04 04-May-21:  Log Start Time 
 MDCL.ppm             37000.00:  Mud Chlorides 
 MDES.     Inversion Oil/Synthetic:  Mud Desc 
 DFD .sg                  1.38:  Mud Density 
 MDMN.sg                  1.35:  Dens Mud Min 
 MDMX.sg                  1.40:  Dens Mud Max 
 MOIL.                   57.40:  Run Mud Oil % 
 MOWR.                   70:30:  Run Mud OWR 
 MSND.                    0.00:  Run Mud Sand % 
 MSOL.                   18.00:  Run Mud Solids% 
 DFV .spqt               71.00:  Mud Viscosity 
 MWOD.in                  6.75:  MWD Tool OD 
 MWSI.                      No:  Serv Intrp, MWD 
 OTIM.hr                242.76:  Time Operating 
 PCON.           Look Like New:  Pad Condition 
 PMAX.psia            12183.92:  Press Op, Max 
 PV  .cP                 27.00:  Mud PV 
 RUN .                    1300:  Run Number 
 ROPA.m/hr               15.00:  ROP Avg 
 ROPN.m/hr                9.00:  ROP Min 
 ROPX.m/hr               19.00:  ROP Max 
 RPMA.rpm               120.00:  RPM Surface Avg 
 RPMN.rpm               100.00:  RPM Surface Min 
 RPMX.rpm               120.00:  RPM Surface Max 
 RRUN.                    1300:  Rig Run Number 
 RTIM.hr                  5.00:  Time Reaming 
 SAZI.deg               304.73:  Azm, Start 
 SDEP.m                4412.01:  Start Depth 
 SIDD.                      No:  Serv Intrp, DD 
 SINC.deg                66.82:  Inc, Start 
 SPPA.psig             2800.00:  SPP Avg 
 SPPN.psig             2610.00:  SPP Min 
 SPPX.psig             3100.00:  SPP Max 
 STIM.      03.30.00 04-May-21:  Start Time 
 SVCS.                 DD, MWD:  Services 
 SVER.                    9.20:  Sperry Version 
 TDAT.m                 228.00:  Tot Depth Attmp 
 TDDF.                      No:  Trip for DD 
 TDLG.m                 228.00:  Tot Depth Loggd 
 TFF .                      No:  Trip for Fail 
 TQAA.f-kp               15.00:  Torque Abs Avg 
 TQAN.f-kp               12.00:  Torque Abs Min 
 TQAX.f-kp               22.00:  Torque Abs Max 
 TRRT.°/30m               0.00:  Turn Rotating 
 MRT .                    HCIM:  Maximum Recorded Temperature 
 TTMX.degC               90.20:  Max Tool Temp 
 VS01.                90627813:  Virtual Str1 SN 
 VS02.                90634712:  Virtual Str2 SN 
 VS03.                90643410:  Virtual Str3 SN 
 VS04.                90634712:  Virtual Str4 SN 
 WBMN.klb                 9.00:  WOB Min 
 WITN.        Elmaddin Rahimov:  Customer Rep 
 WITN.         Haytham Mostafa:  Customer Rep 2 
 WOBA.klb                15.00:  WOB Avg 
 WOBX.klb                23.00:  WOB Max 
 YP  .lhf2               29.00:  Yield Point 
~Curve Information Block
#MNEM.UNIT                 API CODE     Curve Description
#---------               -----------    ---------------------------
 TIME.HHMMSS            00 000 000 000:  GT Time & Date
 GTDEPTH.m              00 000 000 000:  GT Depth
 GTPQH.psia             00 000 000 000:  GT HR Quartz Pressure
 GTTQ.degC              00 000 000 000:  GT Quartz Temperature
 GTTN.NONE              00 000 000 000:  GT Test Number
 GTET.sec               00 000 000 000:  GT Elapsed Test Time
 GTTVD.m                00 000 000 000:  GT True Vertical Depth
#Other Information
#
#WARRANTY: Halliburton will use its best efforts to furnish customers with 
#accurate information and interpretations that are part of, and incident to, the services 
#provided.  However, Halliburton cannot and does not warrant the accuracy 
#or correctness of such information and interpretations.  Under no circumstances should any 
#such information or interpretation be relied upon as the sole basis for any drilling, 
#completion, production, or financial decision or any procedure involving any risk to the 
#safety of any drilling venture, drilling rig or its crew or any other third party.  The 
#Customer has full responsibility for all drilling, completion and production operation.  
#Halliburton makes no representations or warranties, either expressed or 
#implied, including, but not limited to, the implied warranties of merchantability or fitness 
#for a particular purpose, with respect to the services rendered.  In no event will 
#Halliburton be liable for failure to obtain any particular results or for 
#any damages, including, but not limited to, indirect, special or consequential damages, 
#resulting from the use of any information or interpretation provided by Halliburton.
#
~A           TIME           GTDEPTH  GTPQH  GTTQ  GTTN   GTET   GTTVD  
# ...
   01:42:30.026.09-May-2021 4502.51  824.95 67.50 10.00 248.69 2973.10
   01:42:30.226.09-May-2021 4502.51  825.49 67.50 10.00 248.89 2973.10
   01:42:30.426.09-May-2021 4502.51  826.09 67.50 10.00 249.09 2973.10
   01:42:30.626.09-May-2021 4502.51  826.09 67.50 10.00 249.29 2973.10
   01:42:30.826.09-May-2021 4502.51  826.56 67.50 10.00 249.49 2973.10
   01:42:31.026.09-May-2021 4502.51  826.38 67.50 10.00 249.69 2973.10
   01:42:31.226.09-May-2021 4502.51  827.22 67.50 10.00 249.89 2973.10
   01:42:31.426.09-May-2021 4502.51  827.30 67.50 10.00 250.09 2973.10
   01:42:31.626.09-May-2021 4502.51  827.30 67.50 10.00 250.29 2973.10
   01:42:31.826.09-May-2021 4502.51  827.80 67.50 10.00 250.49 2973.10
   01:42:32.026.09-May-2021 4502.51  828.03 67.50 10.00 250.69 2973.10
   01:42:32.226.09-May-2021 4502.51  828.35 67.50 10.00 250.89 2973.10
   01:42:32.426.09-May-2021 4502.51  828.61 67.50 10.00 251.09 2973.10
   01:42:32.627.09-May-2021 4502.51  828.61 67.50 10.00 251.29 2973.10
   01:42:32.827.09-May-2021 4502.51  829.19 67.50 10.00 251.49 2973.10
   01:42:33.027.09-May-2021 4502.51  829.46 67.50 10.00 251.69 2973.10
   01:42:33.227.09-May-2021 4502.51  829.76 67.50 10.00 251.89 2973.10
   01:42:33.427.09-May-2021 4502.51  829.87 67.50 10.00 252.09 2973.10
   01:42:33.627.09-May-2021 4502.51  829.87 67.50 10.00 252.29 2973.10
   01:42:33.827.09-May-2021 4502.51  830.54 67.50 10.00 252.49 2973.10
   01:42:34.027.09-May-2021 4502.51  830.70 67.50 10.00 252.69 2973.10
   01:42:34.227.09-May-2021 4502.51  830.79 67.50 10.00 252.89 2973.10
   01:42:34.427.09-May-2021 4502.51  831.12 67.50 10.00 253.09 2973.10
   01:42:34.627.09-May-2021 4502.51  831.12 67.50 10.00 253.29 2973.10
   01:42:34.827.09-May-2021 4502.51  831.65 67.50 10.00 253.49 2973.10
   01:42:35.027.09-May-2021 4502.51  831.89 67.50 10.00 253.69 2973.10
   01:42:35.227.09-May-2021 4502.51  832.19 67.50 10.00 253.89 2973.10
   01:42:35.428.09-May-2021 4502.51  832.44 67.50 10.00 254.09 2973.10
   01:42:35.628.09-May-2021 4502.51  832.44 67.50 10.00 254.29 2973.10
   01:42:35.828.09-May-2021 4502.51  815.67 67.50 10.00 254.49 2973.10
   01:42:36.028.09-May-2021 4502.51  783.97 67.50 10.00 254.69 2973.10
   01:42:36.228.09-May-2021 4502.51  760.55 67.50 10.00 254.89 2973.10
   01:42:36.428.09-May-2021 4502.51  743.03 67.50 10.00 255.09 2973.10
   01:42:36.628.09-May-2021 4502.51  743.03 67.50 10.00 255.29 2973.10
   01:42:36.828.09-May-2021 4502.51  703.49 67.50 10.00 255.49 2973.10
   01:42:37.028.09-May-2021 4502.51  694.74 67.50 10.00 255.69 2973.10
   01:42:37.228.09-May-2021 4502.51  686.94 67.50 10.00 255.89 2973.10
   01:42:37.428.09-May-2021 4502.51  677.31 67.50 10.00 256.09 2973.10
   01:42:37.628.09-May-2021 4502.51  677.31 67.50 10.00 256.29 2973.10
   01:42:37.828.09-May-2021 4502.51  659.85 67.50 10.00 256.49 2973.10
   01:42:38.028.09-May-2021 4502.51  658.10 67.50 10.00 256.69 2973.10
   01:42:38.229.09-May-2021 4502.51  656.51 67.50 10.00 256.89 2973.10
   01:42:38.429.09-May-2021 4502.51  653.54 67.50 10.00 257.09 2973.10
   01:42:38.629.09-May-2021 4502.51  653.54 67.50 10.00 257.29 2973.10
   01:42:38.829.09-May-2021 4502.51  650.34 67.50 10.00 257.49 2973.10
   01:42:39.029.09-May-2021 4502.51  646.84 67.50 10.00 257.69 2973.10
   01:42:39.229.09-May-2021 4502.51  645.72 67.50 10.00 257.89 2973.10
   01:42:39.429.09-May-2021 4502.51  644.79 67.50 10.00 258.09 2973.10
   01:42:39.629.09-May-2021 4502.51  644.79 67.50 10.00 258.29 2973.10
   01:42:39.829.09-May-2021 4502.51  644.02 67.50 10.00 258.49 2973.10
   01:42:40.029.09-May-2021 4502.51  643.65 67.50 10.00 258.69 2973.10
   01:42:40.229.09-May-2021 4502.51  643.25 67.50 10.00 258.89 2973.10
   01:42:40.429.09-May-2021 4502.51  642.86 67.50 10.00 259.09 2973.10
   01:42:40.629.09-May-2021 4502.51  642.86 67.50 10.00 259.29 2973.10
   01:42:40.830.09-May-2021 4502.51  642.25 67.50 10.00 259.49 2973.10
   01:42:41.030.09-May-2021 4502.51  642.20 67.50 10.00 259.69 2973.10
   01:42:41.230.09-May-2021 4502.51  642.18 67.50 10.00 259.89 2973.10
   01:42:41.430.09-May-2021 4502.51  641.50 67.50 10.00 260.09 2973.10
   01:42:41.630.09-May-2021 4502.51  641.50 67.50 10.00 260.29 2973.10
   01:42:41.830.09-May-2021 4502.51  640.61 67.50 10.00 260.49 2973.10
   01:42:42.030.09-May-2021 4502.51  639.52 67.50 10.00 260.69 2973.10
   01:42:42.230.09-May-2021 4502.51  639.55 67.50 10.00 260.89 2973.10
   01:42:42.430.09-May-2021 4502.51  639.24 67.50 10.00 261.09 2973.10
   01:42:42.630.09-May-2021 4502.51  639.24 67.50 10.00 261.29 2973.10
   01:42:42.830.09-May-2021 4502.51  639.01 67.50 10.00 261.49 2973.10
   01:42:43.030.09-May-2021 4502.51  638.48 67.50 10.00 261.69 2973.10
   01:42:43.230.09-May-2021 4502.51  638.14 67.50 10.00 261.89 2973.10
   01:42:43.430.09-May-2021 4502.51  637.99 67.50 10.00 262.09 2973.10
   01:42:43.631.09-May-2021 4502.51  637.99 67.50 10.00 262.30 2973.10
   01:42:43.831.09-May-2021 4502.51  637.02 67.50 10.00 262.50 2973.10
   01:42:44.031.09-May-2021 4502.51  635.68 67.50 10.00 262.70 2973.10
   01:42:44.231.09-May-2021 4502.51  633.75 67.50 10.00 262.90 2973.10
   01:42:44.431.09-May-2021 4502.51  634.04 67.50 10.00 263.10 2973.10
   01:42:44.631.09-May-2021 4502.51  634.04 67.50 10.00 263.30 2973.10
   01:42:44.831.09-May-2021 4502.51  633.88 67.50 10.00 263.50 2973.10
   01:42:45.031.09-May-2021 4502.51  634.27 67.50 10.00 263.70 2973.10
   01:42:45.231.09-May-2021 4502.51  634.12 67.50 10.00 263.90 2973.10
   01:42:45.431.09-May-2021 4502.51  633.80 67.50 10.00 264.10 2973.10
   01:42:45.631.09-May-2021 4502.51  633.80 67.50 10.00 264.30 2973.10
   01:42:45.831.09-May-2021 4502.51  633.39 67.50 10.00 264.50 2973.10
   01:42:46.031.09-May-2021 4502.51  632.83 67.50 10.00 264.70 2973.10
   01:42:46.231.09-May-2021 4502.51  632.99 67.50 10.00 264.90 2973.10
   01:42:46.432.09-May-2021 4502.51  638.66 67.50 10.00 265.10 2973.10
   01:42:46.632.09-May-2021 4502.51  638.66 67.50 10.00 265.30 2973.10
   01:42:46.832.09-May-2021 4502.51  639.59 67.50 10.00 265.50 2973.10
   01:42:47.032.09-May-2021 4502.51  639.51 67.50 10.00 265.70 2973.10
   01:42:47.232.09-May-2021 4502.51  639.76 67.50 10.00 265.90 2973.10
   01:42:47.432.09-May-2021 4502.51  640.01 67.50 10.00 266.10 2973.10
   01:42:47.632.09-May-2021 4502.51  640.01 67.50 10.00 266.30 2973.10
   01:42:47.832.09-May-2021 4502.51  640.47 67.50 10.00 266.50 2973.10
   01:42:48.032.09-May-2021 4502.51  640.73 67.50 10.00 266.70 2973.10
   01:42:48.232.09-May-2021 4502.51  640.97 67.50 10.00 266.90 2973.10
   01:42:48.432.09-May-2021 4502.51  641.23 67.50 10.00 267.10 2973.10
   01:42:48.632.09-May-2021 4502.51  641.23 67.50 10.00 267.30 2973.10
   01:42:48.832.09-May-2021 4502.51  641.27 67.50 10.00 267.50 2973.10
   01:42:49.032.09-May-2021 4502.51  642.38 67.50 10.00 267.70 2973.10
   01:42:49.233.09-May-2021 4502.51  642.24 67.50 10.00 267.90 2973.10
   01:42:49.433.09-May-2021 4502.51  642.73 67.50 10.00 268.10 2973.10
   01:42:49.633.09-May-2021 4502.51  642.73 67.50 10.00 268.30 2973.10
   01:42:49.833.09-May-2021 4502.51  643.03 67.50 10.00 268.50 2973.10
   01:42:50.033.09-May-2021 4502.51  643.31 67.50 10.00 268.70 2973.10
   01:42:50.233.09-May-2021 4502.51  643.55 67.50 10.00 268.90 2973.10
   01:42:50.433.09-May-2021 4502.51  643.82 67.50 10.00 269.10 2973.10
   01:42:50.633.09-May-2021 4502.51  643.82 67.50 10.00 269.30 2973.10
   01:42:50.833.09-May-2021 4502.51  644.31 67.50 10.00 269.50 2973.10
   01:42:51.033.09-May-2021 4502.51  644.57 67.50 10.00 269.70 2973.10
   01:42:51.233.09-May-2021 4502.51  644.79 67.50 10.00 269.90 2973.10
   01:42:51.433.09-May-2021 4502.51  644.43 67.50 10.00 270.10 2973.10
   01:42:51.633.09-May-2021 4502.51  644.43 67.50 10.00 270.30 2973.10
   01:42:51.833.09-May-2021 4502.51  645.21 67.50 10.00 270.50 2973.10
   01:42:52.034.09-May-2021 4502.51  645.26 67.50 10.00 270.70 2973.10
   01:42:52.234.09-May-2021 4502.51  645.37 67.50 10.00 270.90 2973.10
   01:42:52.434.09-May-2021 4502.51  645.40 67.50 10.00 271.10 2973.10
