~Version Information
 VERS.                  2.0:   CWLS log ASCII Standard -VERSION 2.0
 WRAP.                   NO:   One line per depth step
~Well Information Block
#MNEM.UNIT     VALUE/NAME     DESCRIPTION
#---------     -----------    ---------------------------
 STRT.S             06:41:26 09-May-21: START TIME 06:41:26 09-May-21
 STOP.S             06:48:05 09-May-21: STOP TIME  06:48:05 09-May-21
 STEP.S                   0.00: STEP TIME
 NULL.                 -999.25: NULL VALUE
 PROV.                    Baku:  PROVINCE
 STAT.                    Baku:  STATE NAME
 SON .        AZ-XX-0906571588:  JOB NUMBER
 WTYP.                Deviated:  WELL TYPE
 COMP.     BP Exploration (Caspian Sea) ltd:  COMPANY
 BASE.              Azerbaijan:  LOGGING EQUIPMENT BASE LOCATION
 REGN.                   EESSA:  REGION
 CTRY.              Azerbaijan:  COUNTRY NAME
 FLD .                     ACG:  FIELD NAME
 WELL.                     J28:  WELL NAME
 RIG .             West Chirag:  RIG NAME
 DMF .             Drill Floor:  DRILL MEAS FROM
 PDAT.       Caspian Sea Level:  PERMANENT DATUM
 HPTY.       Minimum Curvature:  HOLE POS TYPE
 MDS .        Operator Entered:  MAG DATA SOURCE
 NREF.                    Grid:  NORTH REFERENCE
 SRVC.          TURAN DRILLING:  CONTRACTOR
 JOBN.        AZ-XX-0906571588:  JOB TICKET NUMB
 DCON.     Halliburton Sperry Drilling:  DIRECTNL CONTR
 STIM.      00.44.00 11-Feb-21:  START TIME
 DATE.      00.00.00 05-May-21:  END TIME
 SPUD.               13-Feb-21:  SPUD DATE
 MWDS.                    Baku:  MWD SHOP
 DOE .                     N/A:  DOE NUMBER
 UNIT.                     N/A:  LOGGING EQUIPMENT ID
 UWI .                     N/A:  UNIQUE WELL IDENTIFIER
 API .                     N/A:  API NUMBER
 CNTY.                        :  COUNTY
 LOC .                        :  LOCATION
 LMF .             Drill Floor:  LOG MEASURED FROM
 TVDS.m                  43.00:  TVDSS CORRECTN
 SDEP.m                 341.00:  START DEPTH
 EGL .m                   0.00:  GROUND ELEVATION
 WDMS.m                 169.80:  WD ELEV
 AGAP.m                  43.00:  AIR GAP
 EPD .m                   0.00:  ELEVATION
 APD .m                  43.00:  DEPTH ABOVE PD
 LATI.deg                40.13:  LATITUDE
 LONG.deg                51.22:  LONGITUDE
 UTMY.m             4443793.85:  UTM Y
 UTMX.m              519005.06:  UTM X
 WHEW.m                 -11.57:  WELL HEAD E/W
 WHNS.m                   8.57:  WELL HEAD N/S
 VSEW.m                 -11.57:  VERT SEC E/W
 VSNS.m                   8.57:  VERT SEC N/S
 DFWL.m                   0.00:  DISTANCE FWL
 DFSL.m                   0.00:  DISTANCE FSL
 VSDR.deg               299.34:  VERT SEC DIRECT
 GVFD.g                   1.00:  GRAVITY FIELD
 AZTC.deg                 6.36:  AZM TOTAL CORR
 MFLD.nT              50391.00:  MAGNETIC FIELD
 MDIP.deg                59.65:  MAGNETIC DIP
 MDEC.deg                 6.48:  MAGNETIC DECL
 GRDC.deg                 0.12:  GRID CORRECTION
 DEP .m                 334.96:  DEPTH
 TDD .m                1407.26:  TOTAL DEPTH (DRILLER)
 EKB .m                  43.00:  KB ELEVATION
 EDF .m                  43.00:  DF ELEVATION
 TDL .m                 228.00:  TOTAL DEPTH (LOGGER)
 VSC .                       0:  VS TO CLOSURE
 MAGU.                 1854484:  MAGUTM CHECKSUM
~Parameter Information Block
#MNEM.UNIT       Value        Description
#---------     -----------    ---------------------------
 AV  .mps                 4.00:  Ann Velocity 
 AVMX.mps                 4.73:  Max Ann Veloc 
 AZIF.deg               304.48:  Azm, Final 
 BHAT.        Rotary Steerable:  BHA Type 
 BREV.rev            257300.00:  Rev Bit Total 
 BROT.°/30m               0.00:  Build Rotating 
 BS  .in                  8.50:  Bit Size 
 BSZ .in                  8.50:  Bit Size 
 BTPL.psig              589.00:  Bit Press Loss 
 CABU.                      No:  Customer Abuse 
 CGEO.          Mubariz ghayev:  Customer Geo 
 COMM.                     ì
‚:  Run Comments 1 
 TCS .hr                 64.25:  Time Ciculation Ended 
 CV  .mps                 3.50:  Crit Velocity 
 CVMX.mps                 4.52:  Max Crit Veloc 
 DD1 .             Aziz Aliyev:  Direct Drillr 1 
 DD2 .         Intigam Rahimov:  Direct Drillr 2 
 DD3 .          Rashad Habibov:  Direct Drillr 3 
 DDSV.               Geo-Pilot:  DD Service 
 DEFF.%                  98.00:  % Det Eff 
 DLRX.°/30m               0.00:  Dogleg Rot Max 
 DLSO.°/30m               0.00:  Dogleg Oriented 
 DLSX.°/30m               0.00:  Dogleg Str Max 
 DRET.      10.45.04 08-May-21:  Drill End Time 
 DRST.      03.30.04 04-May-21:  Drill Start Tim 
 DTIM.hr                 14.97:  Time Drilling 
 EDEP.m                4640.01:  End Depth 
 ENG1.         Dail Mahammadov:  Engineer 1 
 ENG2.           Eldar Hajiyev:  Engineer 2 
 ENG3.       Bakhtiar Jabbarli:  Engineer 3 
 ENG4.       Natik Hasanagayev:  Engineer 4 
 ETIM.      09.30.04 14-May-21:  End Time 
 FLOI.gpm               460.00:  Flow In 
 FLON.gpm               200.00:  Flow In Min 
 FLOS.cptm                0.00:  Fluid Loss 
 FLOX.gpm               505.00:  Flow In Max 
 HFLO.                      No:  High Flow 
 HPRE.                      No:  High Pressure 
 HTEM.                      No:  High Temp 
 HYDO.m                   1.80:  Hydro Offset 
 IFIN.deg                66.71:  Inc, Final 
 IMAX.deg                67.03:  Inc Max 
 IMIN.deg                66.63:  Inc Min 
 IMND.m                4550.58:  Inc Min Depth 
 IMXD.m                4439.01:  Inc Max Depth 
 JARR.                      No:  Jarring 
 LETM.      10.45.04 08-May-21:  Log End Time 
 LOST.hr                     0:  Lost Rig Time 
 LSTM.      03.30.04 04-May-21:  Log Start Time 
 MDCL.ppm             37000.00:  Mud Chlorides 
 MDES.     Inversion Oil/Synthetic:  Mud Desc 
 DFD .sg                  1.38:  Mud Density 
 MDMN.sg                  1.35:  Dens Mud Min 
 MDMX.sg                  1.40:  Dens Mud Max 
 MOIL.                   57.40:  Run Mud Oil % 
 MOWR.                   70:30:  Run Mud OWR 
 MSND.                    0.00:  Run Mud Sand % 
 MSOL.                   18.00:  Run Mud Solids% 
 DFV .spqt               71.00:  Mud Viscosity 
 MWOD.in                  6.75:  MWD Tool OD 
 MWSI.                      No:  Serv Intrp, MWD 
 OTIM.hr                242.76:  Time Operating 
 PCON.           Look Like New:  Pad Condition 
 PMAX.psia            12183.92:  Press Op, Max 
 PV  .cP                 27.00:  Mud PV 
 RUN .                    1300:  Run Number 
 ROPA.m/hr               15.00:  ROP Avg 
 ROPN.m/hr                9.00:  ROP Min 
 ROPX.m/hr               19.00:  ROP Max 
 RPMA.rpm               120.00:  RPM Surface Avg 
 RPMN.rpm               100.00:  RPM Surface Min 
 RPMX.rpm               120.00:  RPM Surface Max 
 RRUN.                    1300:  Rig Run Number 
 RTIM.hr                  5.00:  Time Reaming 
 SAZI.deg               304.73:  Azm, Start 
 SDEP.m                4412.01:  Start Depth 
 SIDD.                      No:  Serv Intrp, DD 
 SINC.deg                66.82:  Inc, Start 
 SPPA.psig             2800.00:  SPP Avg 
 SPPN.psig             2610.00:  SPP Min 
 SPPX.psig             3100.00:  SPP Max 
 STIM.      03.30.00 04-May-21:  Start Time 
 SVCS.                 DD, MWD:  Services 
 SVER.                    9.20:  Sperry Version 
 TDAT.m                 228.00:  Tot Depth Attmp 
 TDDF.                      No:  Trip for DD 
 TDLG.m                 228.00:  Tot Depth Loggd 
 TFF .                      No:  Trip for Fail 
 TQAA.f-kp               15.00:  Torque Abs Avg 
 TQAN.f-kp               12.00:  Torque Abs Min 
 TQAX.f-kp               22.00:  Torque Abs Max 
 TRRT.°/30m               0.00:  Turn Rotating 
 MRT .                    HCIM:  Maximum Recorded Temperature 
 TTMX.degC               90.20:  Max Tool Temp 
 VS01.                90627813:  Virtual Str1 SN 
 VS02.                90634712:  Virtual Str2 SN 
 VS03.                90643410:  Virtual Str3 SN 
 VS04.                90634712:  Virtual Str4 SN 
 WBMN.klb                 9.00:  WOB Min 
 WITN.        Elmaddin Rahimov:  Customer Rep 
 WITN.         Haytham Mostafa:  Customer Rep 2 
 WOBA.klb                15.00:  WOB Avg 
 WOBX.klb                23.00:  WOB Max 
 YP  .lhf2               29.00:  Yield Point 
~Curve Information Block
#MNEM.UNIT                 API CODE     Curve Description
#---------               -----------    ---------------------------
 TIME.HHMMSS            00 000 000 000:  GT Time & Date
 GTDEPTH.m              00 000 000 000:  GT Depth
 GTPQH.psia             00 000 000 000:  GT HR Quartz Pressure
 GTTQ.degC              00 000 000 000:  GT Quartz Temperature
 GTTN.NONE              00 000 000 000:  GT Test Number
 GTET.sec               00 000 000 000:  GT Elapsed Test Time
 GTTVD.m                00 000 000 000:  GT True Vertical Depth
#Other Information
#
#WARRANTY: Halliburton will use its best efforts to furnish customers with 
#accurate information and interpretations that are part of, and incident to, the services 
#provided.  However, Halliburton cannot and does not warrant the accuracy 
#or correctness of such information and interpretations.  Under no circumstances should any 
#such information or interpretation be relied upon as the sole basis for any drilling, 
#completion, production, or financial decision or any procedure involving any risk to the 
#safety of any drilling venture, drilling rig or its crew or any other third party.  The 
#Customer has full responsibility for all drilling, completion and production operation.  
#Halliburton makes no representations or warranties, either expressed or 
#implied, including, but not limited to, the implied warranties of merchantability or fitness 
#for a particular purpose, with respect to the services rendered.  In no event will 
#Halliburton be liable for failure to obtain any particular results or for 
#any damages, including, but not limited to, indirect, special or consequential damages, 
#resulting from the use of any information or interpretation provided by Halliburton.
#
~A           TIME           GTDEPTH  GTPQH  GTTQ  GTTN   GTET   GTTVD  
# ...
   06:47:50.200.09-May-2021 4440.01 6504.05 65.78 15.00 384.20 2948.57
   06:47:50.400.09-May-2021 4440.01 6501.81 65.78 15.00 384.40 2948.57
   06:47:50.600.09-May-2021 4440.01 6499.39 65.78 15.00 384.60 2948.57
   06:47:50.800.09-May-2021 4440.01 6504.43 65.78 15.00 384.80 2948.57
   06:47:51.000.09-May-2021 4440.01 6497.82 65.78 15.00 385.00 2948.57
   06:47:51.200.09-May-2021 4440.01 6497.82 65.78 15.00 385.20 2948.57
   06:47:51.400.09-May-2021 4440.01 6495.75 65.78 15.00 385.40 2948.57
   06:47:51.600.09-May-2021 4440.01 6505.81 65.78 15.00 385.60 2948.57
   06:47:51.800.09-May-2021 4440.01 6499.42 65.78 15.00 385.80 2948.57
   06:47:52.000.09-May-2021 4440.01 6509.85 65.78 15.00 386.00 2948.57
   06:47:52.200.09-May-2021 4440.01 6509.85 65.78 15.00 386.20 2948.57
   06:47:52.400.09-May-2021 4440.01 6505.22 65.78 15.00 386.40 2948.57
   06:47:52.600.09-May-2021 4440.01 6499.14 65.78 15.00 386.60 2948.57
   06:47:52.800.09-May-2021 4440.01 6498.83 65.78 15.00 386.80 2948.57
   06:47:53.000.09-May-2021 4440.01 6498.07 65.78 15.00 387.00 2948.57
   06:47:53.200.09-May-2021 4440.01 6498.07 65.78 15.00 387.20 2948.57
   06:47:53.400.09-May-2021 4440.01 6497.26 65.78 15.00 387.40 2948.57
   06:47:53.600.09-May-2021 4440.01 6497.35 65.78 15.00 387.60 2948.57
   06:47:53.800.09-May-2021 4440.01 6496.69 65.78 15.00 387.80 2948.57
   06:47:54.000.09-May-2021 4440.01 6496.88 65.78 15.00 388.00 2948.57
   06:47:54.200.09-May-2021 4440.01 6496.88 65.78 15.00 388.20 2948.57
   06:47:54.400.09-May-2021 4440.01 6496.77 65.77 15.00 388.40 2948.57
   06:47:54.600.09-May-2021 4440.01 6507.23 65.77 15.00 388.60 2948.57
   06:47:54.800.09-May-2021 4440.01 6495.43 65.77 15.00 388.80 2948.57
   06:47:55.000.09-May-2021 4440.01 6503.94 65.77 15.00 389.00 2948.57
   06:47:55.200.09-May-2021 4440.01 6503.94 65.77 15.00 389.20 2948.57
   06:47:55.400.09-May-2021 4440.01 6498.15 65.77 15.00 389.40 2948.57
   06:47:55.600.09-May-2021 4440.01 6497.67 65.77 15.00 389.60 2948.57
   06:47:55.800.09-May-2021 4440.01 6497.66 65.77 15.00 389.80 2948.57
   06:47:56.000.09-May-2021 4440.01 6497.06 65.77 15.00 390.00 2948.57
   06:47:56.200.09-May-2021 4440.01 6497.06 65.77 15.00 390.20 2948.57
   06:47:56.400.09-May-2021 4440.01 6496.81 65.77 15.00 390.40 2948.57
   06:47:56.600.09-May-2021 4440.01 6497.00 65.77 15.00 390.60 2948.57
   06:47:56.800.09-May-2021 4440.01 6496.43 65.77 15.00 390.80 2948.57
   06:47:57.000.09-May-2021 4440.01 6496.69 65.77 15.00 391.00 2948.57
   06:47:57.200.09-May-2021 4440.01 6496.69 65.77 15.00 391.20 2948.57
   06:47:57.400.09-May-2021 4440.01 6503.31 65.77 15.00 391.40 2948.57
   06:47:57.600.09-May-2021 4440.01 6497.92 65.77 15.00 391.60 2948.57
   06:47:57.800.09-May-2021 4440.01 6504.39 65.77 15.00 391.80 2948.57
   06:47:58.000.09-May-2021 4440.01 6503.60 65.77 15.00 392.00 2948.57
   06:47:58.200.09-May-2021 4440.01 6503.60 65.77 15.00 392.20 2948.57
   06:47:58.400.09-May-2021 4440.01 6499.14 65.77 15.00 392.40 2948.57
   06:47:58.600.09-May-2021 4440.01 6504.11 65.77 15.00 392.60 2948.57
   06:47:58.800.09-May-2021 4440.01 6498.05 65.77 15.00 392.80 2948.57
   06:47:59.000.09-May-2021 4440.01 6508.90 65.77 15.00 393.00 2948.57
   06:47:59.200.09-May-2021 4440.01 6508.90 65.77 15.00 393.20 2948.57
   06:47:59.400.09-May-2021 4440.01 6502.08 65.77 15.00 393.40 2948.57
   06:47:59.600.09-May-2021 4440.01 6501.61 65.77 15.00 393.60 2948.57
   06:47:59.800.09-May-2021 4440.01 6505.81 65.77 15.00 393.80 2948.57
   06:48:00.000.09-May-2021 4440.01 6499.83 65.76 15.00 394.00 2948.57
   06:48:00.200.09-May-2021 4440.01 6499.83 65.76 15.00 394.20 2948.57
   06:48:00.400.09-May-2021 4440.01 6498.24 65.76 15.00 394.40 2948.57
   06:48:00.600.09-May-2021 4440.01 6498.50 65.76 15.00 394.60 2948.57
   06:48:00.800.09-May-2021 4440.01 6497.05 65.76 15.00 394.80 2948.57
   06:48:01.000.09-May-2021 4440.01 6497.09 65.76 15.00 395.00 2948.57
   06:48:01.200.09-May-2021 4440.01 6497.09 65.76 15.00 395.20 2948.57
   06:48:01.400.09-May-2021 4440.01 6497.13 65.76 15.00 395.40 2948.57
   06:48:01.600.09-May-2021 4440.01 6496.79 65.76 15.00 395.60 2948.57
   06:48:01.800.09-May-2021 4440.01 6496.75 65.76 15.00 395.80 2948.57
   06:48:02.000.09-May-2021 4440.01 6496.41 65.76 15.00 396.00 2948.57
   06:48:02.200.09-May-2021 4440.01 6496.41 65.76 15.00 396.20 2948.57
   06:48:02.400.09-May-2021 4440.01 6505.04 65.76 15.00 396.40 2948.57
   06:48:02.600.09-May-2021 4440.01 6497.57 65.76 15.00 396.60 2948.57
   06:48:02.800.09-May-2021 4440.01 6505.18 65.76 15.00 396.80 2948.57
   06:48:03.000.09-May-2021 4440.01 6497.43 65.76 15.00 397.00 2948.57
   06:48:03.200.09-May-2021 4440.01 6497.43 65.76 15.00 397.20 2948.57
   06:48:03.400.09-May-2021 4440.01 6496.76 65.76 15.00 397.40 2948.57
   06:48:03.600.09-May-2021 4440.01 6496.89 65.76 15.00 397.60 2948.57
   06:48:03.800.09-May-2021 4440.01 6496.71 65.76 15.00 397.80 2948.57
   06:48:04.000.09-May-2021 4440.01 6496.62 65.76 15.00 398.00 2948.57
   06:48:04.200.09-May-2021 4440.01 6496.62 65.76 15.00 398.20 2948.57
   06:48:04.400.09-May-2021 4440.01 6496.43 65.76 15.00 398.40 2948.57
   06:48:04.600.09-May-2021 4440.01 6496.30 65.76 15.00 398.60 2948.57
   06:48:04.800.09-May-2021 4440.01 6496.31 65.76 15.00 398.80 2948.57
   06:48:05.000.09-May-2021 4440.01 6502.38 65.76 15.00 399.00 2948.57
   06:48:05.200.09-May-2021 4440.01 6502.38 65.76 15.00 399.20 2948.57
   06:48:05.400.09-May-2021 4440.01 6498.52 65.76 15.00 399.40 2948.57
   06:48:05.600.09-May-2021 4440.01 6502.95 65.76 15.00 399.60 2948.57
   06:48:05.800.09-May-2021 4440.01 6497.36 65.76 15.00 399.80 2948.57
