~Version Information
 VERS.                  2.0:   CWLS log ASCII Standard -VERSION 2.0
 WRAP.                   NO:   One line per depth step
~Well Information Block
#MNEM.UNIT     VALUE/NAME     DESCRIPTION
#---------     -----------    ---------------------------
 STRT.S             01:38:21 09-May-21: START TIME 01:38:21 09-May-21
 STOP.S             01:44:59 09-May-21: STOP TIME  01:44:59 09-May-21
 STEP.S                   0.00: STEP TIME
 NULL.                 -999.25: NULL VALUE
 PROV.                    Baku:  PROVINCE
 STAT.                    Baku:  STATE NAME
 SON .        AZ-XX-0906571588:  JOB NUMBER
 WTYP.                Deviated:  WELL TYPE
 COMP.     BP Exploration (Caspian Sea) ltd:  COMPANY
 BASE.              Azerbaijan:  LOGGING EQUIPMENT BASE LOCATION
 REGN.                   EESSA:  REGION
 CTRY.              Azerbaijan:  COUNTRY NAME
 FLD .                     ACG:  FIELD NAME
 WELL.                     J28:  WELL NAME
 RIG .             West Chirag:  RIG NAME
 DMF .             Drill Floor:  DRILL MEAS FROM
 PDAT.       Caspian Sea Level:  PERMANENT DATUM
 HPTY.       Minimum Curvature:  HOLE POS TYPE
 MDS .        Operator Entered:  MAG DATA SOURCE
 NREF.                    Grid:  NORTH REFERENCE
 SRVC.          TURAN DRILLING:  CONTRACTOR
 JOBN.        AZ-XX-0906571588:  JOB TICKET NUMB
 DCON.     Halliburton Sperry Drilling:  DIRECTNL CONTR
 STIM.      00.44.00 11-Feb-21:  START TIME
 DATE.      00.00.00 05-May-21:  END TIME
 SPUD.               13-Feb-21:  SPUD DATE
 MWDS.                    Baku:  MWD SHOP
 DOE .                     N/A:  DOE NUMBER
 UNIT.                     N/A:  LOGGING EQUIPMENT ID
 UWI .                     N/A:  UNIQUE WELL IDENTIFIER
 API .                     N/A:  API NUMBER
 CNTY.                        :  COUNTY
 LOC .                        :  LOCATION
 LMF .             Drill Floor:  LOG MEASURED FROM
 TVDS.m                  43.00:  TVDSS CORRECTN
 SDEP.m                 341.00:  START DEPTH
 EGL .m                   0.00:  GROUND ELEVATION
 WDMS.m                 169.80:  WD ELEV
 AGAP.m                  43.00:  AIR GAP
 EPD .m                   0.00:  ELEVATION
 APD .m                  43.00:  DEPTH ABOVE PD
 LATI.deg                40.13:  LATITUDE
 LONG.deg                51.22:  LONGITUDE
 UTMY.m             4443793.85:  UTM Y
 UTMX.m              519005.06:  UTM X
 WHEW.m                 -11.57:  WELL HEAD E/W
 WHNS.m                   8.57:  WELL HEAD N/S
 VSEW.m                 -11.57:  VERT SEC E/W
 VSNS.m                   8.57:  VERT SEC N/S
 DFWL.m                   0.00:  DISTANCE FWL
 DFSL.m                   0.00:  DISTANCE FSL
 VSDR.deg               299.34:  VERT SEC DIRECT
 GVFD.g                   1.00:  GRAVITY FIELD
 AZTC.deg                 6.36:  AZM TOTAL CORR
 MFLD.nT              50391.00:  MAGNETIC FIELD
 MDIP.deg                59.65:  MAGNETIC DIP
 MDEC.deg                 6.48:  MAGNETIC DECL
 GRDC.deg                 0.12:  GRID CORRECTION
 DEP .m                 334.96:  DEPTH
 TDD .m                1407.26:  TOTAL DEPTH (DRILLER)
 EKB .m                  43.00:  KB ELEVATION
 EDF .m                  43.00:  DF ELEVATION
 TDL .m                 228.00:  TOTAL DEPTH (LOGGER)
 VSC .                       0:  VS TO CLOSURE
 MAGU.                 1854484:  MAGUTM CHECKSUM
~Parameter Information Block
#MNEM.UNIT       Value        Description
#---------     -----------    ---------------------------
 AV  .mps                 4.00:  Ann Velocity 
 AVMX.mps                 4.73:  Max Ann Veloc 
 AZIF.deg               304.48:  Azm, Final 
 BHAT.        Rotary Steerable:  BHA Type 
 BREV.rev            257300.00:  Rev Bit Total 
 BROT.°/30m               0.00:  Build Rotating 
 BS  .in                  8.50:  Bit Size 
 BSZ .in                  8.50:  Bit Size 
 BTPL.psig              589.00:  Bit Press Loss 
 CABU.                      No:  Customer Abuse 
 CGEO.          Mubariz ghayev:  Customer Geo 
 TCS .hr                 64.25:  Time Ciculation Ended 
 CV  .mps                 3.50:  Crit Velocity 
 CVMX.mps                 4.52:  Max Crit Veloc 
 DD1 .             Aziz Aliyev:  Direct Drillr 1 
 DD2 .         Intigam Rahimov:  Direct Drillr 2 
 DD3 .          Rashad Habibov:  Direct Drillr 3 
 DDSV.               Geo-Pilot:  DD Service 
 DEFF.%                  98.00:  % Det Eff 
 DLRX.°/30m               0.00:  Dogleg Rot Max 
 DLSO.°/30m               0.00:  Dogleg Oriented 
 DLSX.°/30m               0.00:  Dogleg Str Max 
 DRET.      10.45.04 08-May-21:  Drill End Time 
 DRST.      03.30.04 04-May-21:  Drill Start Tim 
 DTIM.hr                 14.97:  Time Drilling 
 EDEP.m                4640.01:  End Depth 
 ENG1.         Dail Mahammadov:  Engineer 1 
 ENG2.           Eldar Hajiyev:  Engineer 2 
 ENG3.       Bakhtiar Jabbarli:  Engineer 3 
 ENG4.       Natik Hasanagayev:  Engineer 4 
 ETIM.      09.30.04 14-May-21:  End Time 
 FLOI.gpm               460.00:  Flow In 
 FLON.gpm               200.00:  Flow In Min 
 FLOS.cptm                0.00:  Fluid Loss 
 FLOX.gpm               505.00:  Flow In Max 
 HFLO.                      No:  High Flow 
 HPRE.                      No:  High Pressure 
 HTEM.                      No:  High Temp 
 HYDO.m                   1.80:  Hydro Offset 
 IFIN.deg                66.71:  Inc, Final 
 IMAX.deg                67.03:  Inc Max 
 IMIN.deg                66.63:  Inc Min 
 IMND.m                4550.58:  Inc Min Depth 
 IMXD.m                4439.01:  Inc Max Depth 
 JARR.                      No:  Jarring 
 LETM.      10.45.04 08-May-21:  Log End Time 
 LOST.hr                     0:  Lost Rig Time 
 LSTM.      03.30.04 04-May-21:  Log Start Time 
 MDCL.ppm             37000.00:  Mud Chlorides 
 MDES.     Inversion Oil/Synthetic:  Mud Desc 
 DFD .sg                  1.38:  Mud Density 
 MDMN.sg                  1.35:  Dens Mud Min 
 MDMX.sg                  1.40:  Dens Mud Max 
 MOIL.                   57.40:  Run Mud Oil % 
 MOWR.                   70:30:  Run Mud OWR 
 MSND.                    0.00:  Run Mud Sand % 
 MSOL.                   18.00:  Run Mud Solids% 
 DFV .spqt               71.00:  Mud Viscosity 
 MWOD.in                  6.75:  MWD Tool OD 
 MWSI.                      No:  Serv Intrp, MWD 
 OTIM.hr                242.76:  Time Operating 
 PCON.           Look Like New:  Pad Condition 
 PMAX.psia            12183.92:  Press Op, Max 
 PV  .cP                 27.00:  Mud PV 
 RUN .                    1300:  Run Number 
 ROPA.m/hr               15.00:  ROP Avg 
 ROPN.m/hr                9.00:  ROP Min 
 ROPX.m/hr               19.00:  ROP Max 
 RPMA.rpm               120.00:  RPM Surface Avg 
 RPMN.rpm               100.00:  RPM Surface Min 
 RPMX.rpm               120.00:  RPM Surface Max 
 RRUN.                    1300:  Rig Run Number 
 RTIM.hr                  5.00:  Time Reaming 
 SAZI.deg               304.73:  Azm, Start 
 SDEP.m                4412.01:  Start Depth 
 SIDD.                      No:  Serv Intrp, DD 
 SINC.deg                66.82:  Inc, Start 
 SPPA.psig             2800.00:  SPP Avg 
 SPPN.psig             2610.00:  SPP Min 
 SPPX.psig             3100.00:  SPP Max 
 STIM.      03.30.00 04-May-21:  Start Time 
 SVCS.                 DD, MWD:  Services 
 SVER.                    9.20:  Sperry Version 
 TDAT.m                 228.00:  Tot Depth Attmp 
 TDDF.                      No:  Trip for DD 
 TDLG.m                 228.00:  Tot Depth Loggd 
 TFF .                      No:  Trip for Fail 
 TQAA.f-kp               15.00:  Torque Abs Avg 
 TQAN.f-kp               12.00:  Torque Abs Min 
 TQAX.f-kp               22.00:  Torque Abs Max 
 TRRT.°/30m               0.00:  Turn Rotating 
 MRT .                    HCIM:  Maximum Recorded Temperature 
 TTMX.degC               90.20:  Max Tool Temp 
 VS01.                90627813:  Virtual Str1 SN 
 VS02.                90634712:  Virtual Str2 SN 
 VS03.                90643410:  Virtual Str3 SN 
 VS04.                90634712:  Virtual Str4 SN 
 WBMN.klb                 9.00:  WOB Min 
 WITN.        Elmaddin Rahimov:  Customer Rep 
 WITN.         Haytham Mostafa:  Customer Rep 2 
 WOBA.klb                15.00:  WOB Avg 
 WOBX.klb                23.00:  WOB Max 
 YP  .lhf2               29.00:  Yield Point 
~Curve Information Block
#MNEM.UNIT                 API CODE     Curve Description
#---------               -----------    ---------------------------
 TIME.HHMMSS            00 000 000 000:  GT Time & Date
 GTDEPTH.m              00 000 000 000:  GT Depth
 GTPQH.psia             00 000 000 000:  GT HR Quartz Pressure
 GTTQ.degC              00 000 000 000:  GT Quartz Temperature
 GTTN.NONE              00 000 000 000:  GT Test Number
 GTET.sec               00 000 000 000:  GT Elapsed Test Time
 GTTVD.m                00 000 000 000:  GT True Vertical Depth
#Other Information
#
#WARRANTY: Halliburton will use its best efforts to furnish customers with 
#accurate information and interpretations that are part of, and incident to, the services 
#provided.  However, Halliburton cannot and does not warrant the accuracy 
#or correctness of such information and interpretations.  Under no circumstances should any 
#such information or interpretation be relied upon as the sole basis for any drilling, 
#completion, production, or financial decision or any procedure involving any risk to the 
#safety of any drilling venture, drilling rig or its crew or any other third party.  The 
#Customer has full responsibility for all drilling, completion and production operation.  
#Halliburton makes no representations or warranties, either expressed or 
#implied, including, but not limited to, the implied warranties of merchantability or fitness 
#for a particular purpose, with respect to the services rendered.  In no event will 
#Halliburton be liable for failure to obtain any particular results or for 
#any damages, including, but not limited to, indirect, special or consequential damages, 
#resulting from the use of any information or interpretation provided by Halliburton.
#
~A           TIME           GTDEPTH  GTPQH  GTTQ  GTTN   GTET   GTTVD  
# ...
   01:41:44.809.09-May-2021 4502.51  719.63 67.49 10.00 203.47 2973.10
   01:41:45.009.09-May-2021 4502.51  720.11 67.49 10.00 203.67 2973.10
   01:41:45.209.09-May-2021 4502.51  720.29 67.49 10.00 203.87 2973.10
   01:41:45.409.09-May-2021 4502.51  720.31 67.49 10.00 204.07 2973.10
   01:41:45.610.09-May-2021 4502.51  720.31 67.49 10.00 204.27 2973.10
   01:41:45.810.09-May-2021 4502.51  720.15 67.49 10.00 204.47 2973.10
   01:41:46.010.09-May-2021 4502.51  720.82 67.49 10.00 204.67 2973.10
   01:41:46.210.09-May-2021 4502.51  720.68 67.49 10.00 204.87 2973.10
   01:41:46.410.09-May-2021 4502.51  721.08 67.49 10.00 205.07 2973.10
   01:41:46.610.09-May-2021 4502.51  721.08 67.49 10.00 205.27 2973.10
   01:41:46.810.09-May-2021 4502.51  721.28 67.49 10.00 205.47 2973.10
   01:41:47.010.09-May-2021 4502.51  721.42 67.49 10.00 205.67 2973.10
   01:41:47.210.09-May-2021 4502.51  721.62 67.49 10.00 205.87 2973.10
   01:41:47.410.09-May-2021 4502.51  752.11 67.49 10.00 206.07 2973.10
   01:41:47.610.09-May-2021 4502.51  752.11 67.49 10.00 206.27 2973.10
   01:41:47.810.09-May-2021 4502.51  766.46 67.49 10.00 206.47 2973.10
   01:41:48.010.09-May-2021 4502.51  766.89 67.49 10.00 206.67 2973.10
   01:41:48.210.09-May-2021 4502.51  767.33 67.49 10.00 206.87 2973.10
   01:41:48.411.09-May-2021 4502.51  767.20 67.49 10.00 207.08 2973.10
   01:41:48.611.09-May-2021 4502.51  767.20 67.49 10.00 207.28 2973.10
   01:41:48.811.09-May-2021 4502.51  768.34 67.49 10.00 207.48 2973.10
   01:41:49.011.09-May-2021 4502.51  769.10 67.49 10.00 207.68 2973.10
   01:41:49.211.09-May-2021 4502.51  769.60 67.49 10.00 207.88 2973.10
   01:41:49.411.09-May-2021 4502.51  770.11 67.49 10.00 208.08 2973.10
   01:41:49.611.09-May-2021 4502.51  770.11 67.49 10.00 208.28 2973.10
   01:41:49.811.09-May-2021 4502.51  771.09 67.49 10.00 208.48 2973.10
   01:41:50.011.09-May-2021 4502.51  771.57 67.49 10.00 208.68 2973.10
   01:41:50.211.09-May-2021 4502.51  772.01 67.49 10.00 208.88 2973.10
   01:41:50.411.09-May-2021 4502.51  772.45 67.49 10.00 209.08 2973.10
   01:41:50.611.09-May-2021 4502.51  772.45 67.49 10.00 209.28 2973.10
   01:41:50.811.09-May-2021 4502.51  773.19 67.49 10.00 209.48 2973.10
   01:41:51.011.09-May-2021 4502.51  773.23 67.49 10.00 209.68 2973.10
   01:41:51.212.09-May-2021 4502.51  773.92 67.49 10.00 209.88 2973.10
   01:41:51.412.09-May-2021 4502.51  774.29 67.49 10.00 210.08 2973.10
   01:41:51.612.09-May-2021 4502.51  774.29 67.49 10.00 210.28 2973.10
   01:41:51.812.09-May-2021 4502.51  774.60 67.49 10.00 210.48 2973.10
   01:41:52.012.09-May-2021 4502.51  774.73 67.49 10.00 210.68 2973.10
   01:41:52.212.09-May-2021 4502.51  775.45 67.49 10.00 210.88 2973.10
   01:41:52.412.09-May-2021 4502.51  775.79 67.49 10.00 211.08 2973.10
   01:41:52.612.09-May-2021 4502.51  775.79 67.49 10.00 211.28 2973.10
   01:41:52.812.09-May-2021 4502.51  776.31 67.49 10.00 211.48 2973.10
   01:41:53.012.09-May-2021 4502.51  776.04 67.49 10.00 211.68 2973.10
   01:41:53.212.09-May-2021 4502.51  776.91 67.49 10.00 211.88 2973.10
   01:41:53.412.09-May-2021 4502.51  777.13 67.49 10.00 212.08 2973.10
   01:41:53.612.09-May-2021 4502.51  777.13 67.49 10.00 212.28 2973.10
   01:41:53.812.09-May-2021 4502.51  777.32 67.49 10.00 212.48 2973.10
   01:41:54.013.09-May-2021 4502.51  777.98 67.49 10.00 212.68 2973.10
   01:41:54.213.09-May-2021 4502.51  778.22 67.49 10.00 212.88 2973.10
   01:41:54.413.09-May-2021 4502.51  778.33 67.49 10.00 213.08 2973.10
   01:41:54.613.09-May-2021 4502.51  778.33 67.49 10.00 213.28 2973.10
   01:41:54.813.09-May-2021 4502.51  779.07 67.49 10.00 213.48 2973.10
   01:41:55.013.09-May-2021 4502.51  779.39 67.49 10.00 213.68 2973.10
   01:41:55.213.09-May-2021 4502.51  779.71 67.49 10.00 213.88 2973.10
   01:41:55.413.09-May-2021 4502.51  780.04 67.49 10.00 214.08 2973.10
   01:41:55.613.09-May-2021 4502.51  780.04 67.49 10.00 214.28 2973.10
   01:41:55.813.09-May-2021 4502.51  780.83 67.49 10.00 214.48 2973.10
   01:41:56.013.09-May-2021 4502.51  781.18 67.49 10.00 214.68 2973.10
   01:41:56.213.09-May-2021 4502.51  781.39 67.49 10.00 214.88 2973.10
   01:41:56.413.09-May-2021 4502.51  781.52 67.49 10.00 215.08 2973.10
   01:41:56.613.09-May-2021 4502.51  781.52 67.49 10.00 215.28 2973.10
   01:41:56.814.09-May-2021 4502.51  782.39 67.49 10.00 215.48 2973.10
   01:41:57.014.09-May-2021 4502.51  782.49 67.49 10.00 215.68 2973.10
   01:41:57.214.09-May-2021 4502.51  782.90 67.49 10.00 215.88 2973.10
   01:41:57.414.09-May-2021 4502.51  783.17 67.49 10.00 216.08 2973.10
   01:41:57.614.09-May-2021 4502.51  783.17 67.49 10.00 216.28 2973.10
   01:41:57.814.09-May-2021 4502.51  783.80 67.49 10.00 216.48 2973.10
   01:41:58.014.09-May-2021 4502.51  784.09 67.49 10.00 216.68 2973.10
   01:41:58.214.09-May-2021 4502.51  784.42 67.49 10.00 216.88 2973.10
   01:41:58.414.09-May-2021 4502.51  784.74 67.49 10.00 217.08 2973.10
   01:41:58.614.09-May-2021 4502.51  784.74 67.49 10.00 217.28 2973.10
   01:41:58.814.09-May-2021 4502.51  785.05 67.49 10.00 217.48 2973.10
   01:41:59.014.09-May-2021 4502.51  785.49 67.49 10.00 217.68 2973.10
   01:41:59.214.09-May-2021 4502.51  785.67 67.49 10.00 217.88 2973.10
   01:41:59.415.09-May-2021 4502.51  785.78 67.49 10.00 218.08 2973.10
   01:41:59.615.09-May-2021 4502.51  785.78 67.49 10.00 218.28 2973.10
   01:41:59.815.09-May-2021 4502.51  786.49 67.49 10.00 218.48 2973.10
   01:42:00.015.09-May-2021 4502.51  786.72 67.49 10.00 218.68 2973.10
   01:42:00.215.09-May-2021 4502.51  786.61 67.49 10.00 218.88 2973.10
   01:42:00.415.09-May-2021 4502.51  787.32 67.49 10.00 219.08 2973.10
   01:42:00.615.09-May-2021 4502.51  787.32 67.49 10.00 219.28 2973.10
   01:42:00.815.09-May-2021 4502.51  787.25 67.50 10.00 219.48 2973.10
   01:42:01.015.09-May-2021 4502.51  788.10 67.50 10.00 219.68 2973.10
   01:42:01.215.09-May-2021 4502.51  788.07 67.50 10.00 219.88 2973.10
   01:42:01.415.09-May-2021 4502.51  788.38 67.50 10.00 220.08 2973.10
   01:42:01.615.09-May-2021 4502.51  788.38 67.50 10.00 220.28 2973.10
   01:42:01.815.09-May-2021 4502.51  788.97 67.50 10.00 220.48 2973.10
   01:42:02.015.09-May-2021 4502.51  789.23 67.50 10.00 220.68 2973.10
   01:42:02.216.09-May-2021 4502.51  789.54 67.50 10.00 220.88 2973.10
   01:42:02.416.09-May-2021 4502.51  789.85 67.50 10.00 221.08 2973.10
   01:42:02.616.09-May-2021 4502.51  789.85 67.50 10.00 221.28 2973.10
   01:42:02.816.09-May-2021 4502.51  790.49 67.50 10.00 221.48 2973.10
   01:42:03.016.09-May-2021 4502.51  790.80 67.50 10.00 221.68 2973.10
   01:42:03.216.09-May-2021 4502.51  791.11 67.50 10.00 221.88 2973.10
   01:42:03.416.09-May-2021 4502.51  790.85 67.50 10.00 222.08 2973.10
   01:42:03.616.09-May-2021 4502.51  790.85 67.50 10.00 222.28 2973.10
   01:42:03.816.09-May-2021 4502.51  791.80 67.50 10.00 222.48 2973.10
   01:42:04.016.09-May-2021 4502.51  791.96 67.50 10.00 222.68 2973.10
   01:42:04.216.09-May-2021 4502.51  792.40 67.50 10.00 222.88 2973.10
   01:42:04.416.09-May-2021 4502.51  792.62 67.50 10.00 223.08 2973.10
   01:42:04.616.09-May-2021 4502.51  792.62 67.50 10.00 223.28 2973.10
   01:42:04.816.09-May-2021 4502.51  793.22 67.50 10.00 223.48 2973.10
   01:42:05.017.09-May-2021 4502.51  793.56 67.50 10.00 223.68 2973.10
   01:42:05.217.09-May-2021 4502.51  793.87 67.50 10.00 223.88 2973.10
   01:42:05.417.09-May-2021 4502.51  794.18 67.50 10.00 224.08 2973.10
   01:42:05.617.09-May-2021 4502.51  794.18 67.50 10.00 224.28 2973.10
   01:42:05.817.09-May-2021 4502.51  794.62 67.50 10.00 224.48 2973.10
   01:42:06.017.09-May-2021 4502.51  794.71 67.50 10.00 224.68 2973.10
   01:42:06.217.09-May-2021 4502.51  795.31 67.50 10.00 224.88 2973.10
   01:42:06.417.09-May-2021 4502.51  795.58 67.50 10.00 225.08 2973.10
   01:42:06.617.09-May-2021 4502.51  795.58 67.50 10.00 225.28 2973.10
   01:42:06.817.09-May-2021 4502.51  796.16 67.50 10.00 225.48 2973.10
   01:42:07.017.09-May-2021 4502.51  796.12 67.50 10.00 225.68 2973.10
   01:42:07.217.09-May-2021 4502.51  796.05 67.50 10.00 225.88 2973.10
