~Version Information
 VERS.                  2.0:   CWLS log ASCII Standard -VERSION 2.0
 WRAP.                   NO:   One line per depth step
~Well Information Block
#MNEM.UNIT     VALUE/NAME     DESCRIPTION
#---------     -----------    ---------------------------
 STRT.S             06:41:26 09-May-21: START TIME 06:41:26 09-May-21
 STOP.S             06:48:05 09-May-21: STOP TIME  06:48:05 09-May-21
 STEP.S                   0.00: STEP TIME
 NULL.                 -999.25: NULL VALUE
 PROV.                    Baku:  PROVINCE
 STAT.                    Baku:  STATE NAME
 SON .        AZ-XX-0906571588:  JOB NUMBER
 WTYP.                Deviated:  WELL TYPE
 COMP.     BP Exploration (Caspian Sea) ltd:  COMPANY
 BASE.              Azerbaijan:  LOGGING EQUIPMENT BASE LOCATION
 REGN.                   EESSA:  REGION
 CTRY.              Azerbaijan:  COUNTRY NAME
 FLD .                     ACG:  FIELD NAME
 WELL.                     J28:  WELL NAME
 RIG .             West Chirag:  RIG NAME
 DMF .             Drill Floor:  DRILL MEAS FROM
 PDAT.       Caspian Sea Level:  PERMANENT DATUM
 HPTY.       Minimum Curvature:  HOLE POS TYPE
 MDS .        Operator Entered:  MAG DATA SOURCE
 NREF.                    Grid:  NORTH REFERENCE
 SRVC.          TURAN DRILLING:  CONTRACTOR
 JOBN.        AZ-XX-0906571588:  JOB TICKET NUMB
 DCON.     Halliburton Sperry Drilling:  DIRECTNL CONTR
 STIM.      00.44.00 11-Feb-21:  START TIME
 DATE.      00.00.00 05-May-21:  END TIME
 SPUD.               13-Feb-21:  SPUD DATE
 MWDS.                    Baku:  MWD SHOP
 DOE .                     N/A:  DOE NUMBER
 UNIT.                     N/A:  LOGGING EQUIPMENT ID
 UWI .                     N/A:  UNIQUE WELL IDENTIFIER
 API .                     N/A:  API NUMBER
 CNTY.                        :  COUNTY
 LOC .                        :  LOCATION
 LMF .             Drill Floor:  LOG MEASURED FROM
 TVDS.m                  43.00:  TVDSS CORRECTN
 SDEP.m                 341.00:  START DEPTH
 EGL .m                   0.00:  GROUND ELEVATION
 WDMS.m                 169.80:  WD ELEV
 AGAP.m                  43.00:  AIR GAP
 EPD .m                   0.00:  ELEVATION
 APD .m                  43.00:  DEPTH ABOVE PD
 LATI.deg                40.13:  LATITUDE
 LONG.deg                51.22:  LONGITUDE
 UTMY.m             4443793.85:  UTM Y
 UTMX.m              519005.06:  UTM X
 WHEW.m                 -11.57:  WELL HEAD E/W
 WHNS.m                   8.57:  WELL HEAD N/S
 VSEW.m                 -11.57:  VERT SEC E/W
 VSNS.m                   8.57:  VERT SEC N/S
 DFWL.m                   0.00:  DISTANCE FWL
 DFSL.m                   0.00:  DISTANCE FSL
 VSDR.deg               299.34:  VERT SEC DIRECT
 GVFD.g                   1.00:  GRAVITY FIELD
 AZTC.deg                 6.36:  AZM TOTAL CORR
 MFLD.nT              50391.00:  MAGNETIC FIELD
 MDIP.deg                59.65:  MAGNETIC DIP
 MDEC.deg                 6.48:  MAGNETIC DECL
 GRDC.deg                 0.12:  GRID CORRECTION
 DEP .m                 334.96:  DEPTH
 TDD .m                1407.26:  TOTAL DEPTH (DRILLER)
 EKB .m                  43.00:  KB ELEVATION
 EDF .m                  43.00:  DF ELEVATION
 TDL .m                 228.00:  TOTAL DEPTH (LOGGER)
 VSC .                       0:  VS TO CLOSURE
 MAGU.                 1854484:  MAGUTM CHECKSUM
~Parameter Information Block
#MNEM.UNIT       Value        Description
#---------     -----------    ---------------------------
 AV  .mps                 4.00:  Ann Velocity 
 AVMX.mps                 4.73:  Max Ann Veloc 
 AZIF.deg               304.48:  Azm, Final 
 BHAT.        Rotary Steerable:  BHA Type 
 BREV.rev            257300.00:  Rev Bit Total 
 BROT.°/30m               0.00:  Build Rotating 
 BS  .in                  8.50:  Bit Size 
 BSZ .in                  8.50:  Bit Size 
 BTPL.psig              589.00:  Bit Press Loss 
 CABU.                      No:  Customer Abuse 
 CGEO.          Mubariz ghayev:  Customer Geo 
 COMM.                     ì
‚:  Run Comments 1 
 TCS .hr                 64.25:  Time Ciculation Ended 
 CV  .mps                 3.50:  Crit Velocity 
 CVMX.mps                 4.52:  Max Crit Veloc 
 DD1 .             Aziz Aliyev:  Direct Drillr 1 
 DD2 .         Intigam Rahimov:  Direct Drillr 2 
 DD3 .          Rashad Habibov:  Direct Drillr 3 
 DDSV.               Geo-Pilot:  DD Service 
 DEFF.%                  98.00:  % Det Eff 
 DLRX.°/30m               0.00:  Dogleg Rot Max 
 DLSO.°/30m               0.00:  Dogleg Oriented 
 DLSX.°/30m               0.00:  Dogleg Str Max 
 DRET.      10.45.04 08-May-21:  Drill End Time 
 DRST.      03.30.04 04-May-21:  Drill Start Tim 
 DTIM.hr                 14.97:  Time Drilling 
 EDEP.m                4640.01:  End Depth 
 ENG1.         Dail Mahammadov:  Engineer 1 
 ENG2.           Eldar Hajiyev:  Engineer 2 
 ENG3.       Bakhtiar Jabbarli:  Engineer 3 
 ENG4.       Natik Hasanagayev:  Engineer 4 
 ETIM.      09.30.04 14-May-21:  End Time 
 FLOI.gpm               460.00:  Flow In 
 FLON.gpm               200.00:  Flow In Min 
 FLOS.cptm                0.00:  Fluid Loss 
 FLOX.gpm               505.00:  Flow In Max 
 HFLO.                      No:  High Flow 
 HPRE.                      No:  High Pressure 
 HTEM.                      No:  High Temp 
 HYDO.m                   1.80:  Hydro Offset 
 IFIN.deg                66.71:  Inc, Final 
 IMAX.deg                67.03:  Inc Max 
 IMIN.deg                66.63:  Inc Min 
 IMND.m                4550.58:  Inc Min Depth 
 IMXD.m                4439.01:  Inc Max Depth 
 JARR.                      No:  Jarring 
 LETM.      10.45.04 08-May-21:  Log End Time 
 LOST.hr                     0:  Lost Rig Time 
 LSTM.      03.30.04 04-May-21:  Log Start Time 
 MDCL.ppm             37000.00:  Mud Chlorides 
 MDES.     Inversion Oil/Synthetic:  Mud Desc 
 DFD .sg                  1.38:  Mud Density 
 MDMN.sg                  1.35:  Dens Mud Min 
 MDMX.sg                  1.40:  Dens Mud Max 
 MOIL.                   57.40:  Run Mud Oil % 
 MOWR.                   70:30:  Run Mud OWR 
 MSND.                    0.00:  Run Mud Sand % 
 MSOL.                   18.00:  Run Mud Solids% 
 DFV .spqt               71.00:  Mud Viscosity 
 MWOD.in                  6.75:  MWD Tool OD 
 MWSI.                      No:  Serv Intrp, MWD 
 OTIM.hr                242.76:  Time Operating 
 PCON.           Look Like New:  Pad Condition 
 PMAX.psia            12183.92:  Press Op, Max 
 PV  .cP                 27.00:  Mud PV 
 RUN .                    1300:  Run Number 
 ROPA.m/hr               15.00:  ROP Avg 
 ROPN.m/hr                9.00:  ROP Min 
 ROPX.m/hr               19.00:  ROP Max 
 RPMA.rpm               120.00:  RPM Surface Avg 
 RPMN.rpm               100.00:  RPM Surface Min 
 RPMX.rpm               120.00:  RPM Surface Max 
 RRUN.                    1300:  Rig Run Number 
 RTIM.hr                  5.00:  Time Reaming 
 SAZI.deg               304.73:  Azm, Start 
 SDEP.m                4412.01:  Start Depth 
 SIDD.                      No:  Serv Intrp, DD 
 SINC.deg                66.82:  Inc, Start 
 SPPA.psig             2800.00:  SPP Avg 
 SPPN.psig             2610.00:  SPP Min 
 SPPX.psig             3100.00:  SPP Max 
 STIM.      03.30.00 04-May-21:  Start Time 
 SVCS.                 DD, MWD:  Services 
 SVER.                    9.20:  Sperry Version 
 TDAT.m                 228.00:  Tot Depth Attmp 
 TDDF.                      No:  Trip for DD 
 TDLG.m                 228.00:  Tot Depth Loggd 
 TFF .                      No:  Trip for Fail 
 TQAA.f-kp               15.00:  Torque Abs Avg 
 TQAN.f-kp               12.00:  Torque Abs Min 
 TQAX.f-kp               22.00:  Torque Abs Max 
 TRRT.°/30m               0.00:  Turn Rotating 
 MRT .                    HCIM:  Maximum Recorded Temperature 
 TTMX.degC               90.20:  Max Tool Temp 
 VS01.                90627813:  Virtual Str1 SN 
 VS02.                90634712:  Virtual Str2 SN 
 VS03.                90643410:  Virtual Str3 SN 
 VS04.                90634712:  Virtual Str4 SN 
 WBMN.klb                 9.00:  WOB Min 
 WITN.        Elmaddin Rahimov:  Customer Rep 
 WITN.         Haytham Mostafa:  Customer Rep 2 
 WOBA.klb                15.00:  WOB Avg 
 WOBX.klb                23.00:  WOB Max 
 YP  .lhf2               29.00:  Yield Point 
~Curve Information Block
#MNEM.UNIT                 API CODE     Curve Description
#---------               -----------    ---------------------------
 TIME.HHMMSS            00 000 000 000:  GT Time & Date
 GTDEPTH.m              00 000 000 000:  GT Depth
 GTPQH.psia             00 000 000 000:  GT HR Quartz Pressure
 GTTQ.degC              00 000 000 000:  GT Quartz Temperature
 GTTN.NONE              00 000 000 000:  GT Test Number
 GTET.sec               00 000 000 000:  GT Elapsed Test Time
 GTTVD.m                00 000 000 000:  GT True Vertical Depth
#Other Information
#
#WARRANTY: Halliburton will use its best efforts to furnish customers with 
#accurate information and interpretations that are part of, and incident to, the services 
#provided.  However, Halliburton cannot and does not warrant the accuracy 
#or correctness of such information and interpretations.  Under no circumstances should any 
#such information or interpretation be relied upon as the sole basis for any drilling, 
#completion, production, or financial decision or any procedure involving any risk to the 
#safety of any drilling venture, drilling rig or its crew or any other third party.  The 
#Customer has full responsibility for all drilling, completion and production operation.  
#Halliburton makes no representations or warranties, either expressed or 
#implied, including, but not limited to, the implied warranties of merchantability or fitness 
#for a particular purpose, with respect to the services rendered.  In no event will 
#Halliburton be liable for failure to obtain any particular results or for 
#any damages, including, but not limited to, indirect, special or consequential damages, 
#resulting from the use of any information or interpretation provided by Halliburton.
#
~A           TIME           GTDEPTH  GTPQH  GTTQ  GTTN   GTET   GTTVD  
# ...
   06:41:48.600.09-May-2021 4440.01 6496.86 65.77 15.00  22.60 2948.57
   06:41:48.800.09-May-2021 4440.01 6486.76 65.77 15.00  22.80 2948.57
   06:41:49.000.09-May-2021 4440.01 6492.24 65.77 15.00  23.00 2948.57
   06:41:49.200.09-May-2021 4440.01 6492.24 65.77 15.00  23.20 2948.57
   06:41:49.400.09-May-2021 4440.01 6488.23 65.77 15.00  23.40 2948.57
   06:41:49.600.09-May-2021 4440.01 6495.06 65.77 15.00  23.60 2948.57
   06:41:49.800.09-May-2021 4440.01 6492.91 65.77 15.00  23.80 2948.57
   06:41:50.000.09-May-2021 4440.01 6490.50 65.77 15.00  24.00 2948.57
   06:41:50.200.09-May-2021 4440.01 6490.50 65.77 15.00  24.20 2948.57
   06:41:50.400.09-May-2021 4440.01 6494.83 65.77 15.00  24.40 2948.57
   06:41:50.600.09-May-2021 4440.01 6490.89 65.77 15.00  24.60 2948.57
   06:41:50.800.09-May-2021 4440.01 6495.32 65.77 15.00  24.80 2948.57
   06:41:51.000.09-May-2021 4440.01 6489.87 65.77 15.00  25.00 2948.57
   06:41:51.200.09-May-2021 4440.01 6489.87 65.77 15.00  25.20 2948.57
   06:41:51.400.09-May-2021 4440.01 6489.05 65.77 15.00  25.40 2948.57
   06:41:51.600.09-May-2021 4440.01 6494.78 65.77 15.00  25.60 2948.57
   06:41:51.800.09-May-2021 4440.01 6493.92 65.77 15.00  25.80 2948.57
   06:41:52.000.09-May-2021 4440.01 6490.48 65.77 15.00  26.00 2948.57
   06:41:52.200.09-May-2021 4440.01 6490.48 65.77 15.00  26.20 2948.57
   06:41:52.400.09-May-2021 4440.01 6491.94 65.77 15.00  26.40 2948.57
   06:41:52.600.09-May-2021 4440.01 6490.48 65.77 15.00  26.60 2948.57
   06:41:52.800.09-May-2021 4440.01 6490.42 65.77 15.00  26.80 2948.57
   06:41:53.000.09-May-2021 4440.01 6490.29 65.77 15.00  27.00 2948.57
   06:41:53.200.09-May-2021 4440.01 6490.29 65.77 15.00  27.20 2948.57
   06:41:53.400.09-May-2021 4440.01 6490.35 65.77 15.00  27.40 2948.57
   06:41:53.600.09-May-2021 4440.01 6491.00 65.77 15.00  27.60 2948.57
   06:41:53.800.09-May-2021 4440.01 6499.80 65.77 15.00  27.80 2948.57
   06:41:54.000.09-May-2021 4440.01 6490.50 65.77 15.00  28.00 2948.57
   06:41:54.200.09-May-2021 4440.01 6490.50 65.77 15.00  28.20 2948.57
   06:41:54.400.09-May-2021 4440.01 6495.36 65.77 15.00  28.40 2948.57
   06:41:54.600.09-May-2021 4440.01 6491.44 65.77 15.00  28.60 2948.57
   06:41:54.800.09-May-2021 4440.01 6493.66 65.77 15.00  28.80 2948.57
   06:41:55.000.09-May-2021 4440.01 6491.57 65.77 15.00  29.00 2948.57
   06:41:55.200.09-May-2021 4440.01 6491.57 65.77 15.00  29.20 2948.57
   06:41:55.400.09-May-2021 4440.01 6492.05 65.77 15.00  29.40 2948.57
   06:41:55.600.09-May-2021 4440.01 6492.00 65.77 15.00  29.60 2948.57
   06:41:55.800.09-May-2021 4440.01 6492.12 65.77 15.00  29.80 2948.57
   06:41:56.000.09-May-2021 4440.01 6491.91 65.77 15.00  30.00 2948.57
   06:41:56.200.09-May-2021 4440.01 6491.91 65.77 15.00  30.20 2948.57
   06:41:56.400.09-May-2021 4440.01 6492.19 65.77 15.00  30.40 2948.57
   06:41:56.600.09-May-2021 4440.01 6501.04 65.77 15.00  30.60 2948.57
   06:41:56.800.09-May-2021 4440.01 6492.50 65.77 15.00  30.80 2948.57
   06:41:57.000.09-May-2021 4440.01 6501.07 65.77 15.00  31.00 2948.57
   06:41:57.200.09-May-2021 4440.01 6501.07 65.77 15.00  31.20 2948.57
   06:41:57.400.09-May-2021 4440.01 6496.55 65.77 15.00  31.40 2948.57
   06:41:57.600.09-May-2021 4440.01 6494.71 65.77 15.00  31.60 2948.57
   06:41:57.800.09-May-2021 4440.01 6499.54 65.77 15.00  31.80 2948.57
   06:41:58.000.09-May-2021 4440.01 6493.80 65.77 15.00  32.00 2948.57
   06:41:58.200.09-May-2021 4440.01 6493.80 65.77 15.00  32.20 2948.57
   06:41:58.400.09-May-2021 4440.01 6502.17 65.77 15.00  32.40 2948.57
   06:41:58.600.09-May-2021 4440.01 6494.41 65.77 15.00  32.60 2948.57
   06:41:58.800.09-May-2021 4440.01 6501.86 65.77 15.00  32.80 2948.57
   06:41:59.000.09-May-2021 4440.01 6495.18 65.77 15.00  33.00 2948.57
   06:41:59.200.09-May-2021 4440.01 6495.18 65.77 15.00  33.20 2948.57
   06:41:59.400.09-May-2021 4440.01 6494.97 65.77 15.00  33.40 2948.57
   06:41:59.600.09-May-2021 4440.01 6502.26 65.77 15.00  33.60 2948.57
   06:41:59.800.09-May-2021 4440.01 6494.50 65.77 15.00  33.80 2948.57
   06:42:00.000.09-May-2021 4440.01 6496.59 65.77 15.00  34.00 2948.57
   06:42:00.200.09-May-2021 4440.01 6496.59 65.77 15.00  34.20 2948.57
   06:42:00.400.09-May-2021 4440.01 6490.74 65.77 15.00  34.40 2948.57
   06:42:00.600.09-May-2021 4440.01 6492.82 65.77 15.00  34.60 2948.57
   06:42:00.800.09-May-2021 4440.01 6494.87 65.77 15.00  34.80 2948.57
   06:42:01.000.09-May-2021 4440.01 6494.97 65.77 15.00  35.00 2948.57
   06:42:01.200.09-May-2021 4440.01 6494.97 65.77 15.00  35.20 2948.57
   06:42:01.400.09-May-2021 4440.01 6494.59 65.77 15.00  35.40 2948.57
   06:42:01.600.09-May-2021 4440.01 6495.24 65.77 15.00  35.60 2948.57
   06:42:01.800.09-May-2021 4440.01 6495.57 65.77 15.00  35.80 2948.57
   06:42:02.000.09-May-2021 4440.01 6503.44 65.77 15.00  36.00 2948.57
   06:42:02.200.09-May-2021 4440.01 6503.44 65.77 15.00  36.20 2948.57
   06:42:02.400.09-May-2021 4440.01 6502.81 65.77 15.00  36.40 2948.57
   06:42:02.600.09-May-2021 4440.01 6494.94 65.77 15.00  36.60 2948.57
   06:42:02.800.09-May-2021 4440.01 6497.25 65.77 15.00  36.80 2948.57
   06:42:03.000.09-May-2021 4440.01 6495.86 65.77 15.00  37.00 2948.57
   06:42:03.200.09-May-2021 4440.01 6495.86 65.77 15.00  37.20 2948.57
   06:42:03.400.09-May-2021 4440.01 6496.00 65.77 15.00  37.40 2948.57
   06:42:03.600.09-May-2021 4440.01 6496.04 65.76 15.00  37.60 2948.57
   06:42:03.800.09-May-2021 4440.01 6496.02 65.77 15.00  37.80 2948.57
   06:42:04.000.09-May-2021 4440.01 6495.93 65.76 15.00  38.00 2948.57
   06:42:04.200.09-May-2021 4440.01 6495.93 65.76 15.00  38.20 2948.57
   06:42:04.400.09-May-2021 4440.01 6496.14 65.76 15.00  38.40 2948.57
   06:42:04.600.09-May-2021 4440.01 6498.11 65.76 15.00  38.60 2948.57
   06:42:04.800.09-May-2021 4440.01 6503.06 65.76 15.00  38.80 2948.57
   06:42:05.000.09-May-2021 4440.01 6498.27 65.76 15.00  39.00 2948.57
   06:42:05.200.09-May-2021 4440.01 6498.27 65.76 15.00  39.20 2948.57
   06:42:05.400.09-May-2021 4440.01 6498.06 65.76 15.00  39.40 2948.57
   06:42:05.600.09-May-2021 4440.01 6501.48 65.76 15.00  39.60 2948.57
   06:42:05.800.09-May-2021 4440.01 6504.37 65.76 15.00  39.80 2948.57
   06:42:06.000.09-May-2021 4440.01 6499.70 65.76 15.00  40.00 2948.57
   06:42:06.200.09-May-2021 4440.01 6499.70 65.76 15.00  40.20 2948.57
   06:42:06.400.09-May-2021 4440.01 6517.62 65.76 15.00  40.40 2948.57
   06:42:06.600.09-May-2021 4440.01 6528.94 65.76 15.00  40.60 2948.57
   06:42:06.800.09-May-2021 4440.01 6531.78 65.76 15.00  40.80 2948.57
   06:42:07.000.09-May-2021 4440.01 6538.95 65.76 15.00  41.00 2948.57
   06:42:07.200.09-May-2021 4440.01 6538.95 65.76 15.00  41.20 2948.57
   06:42:07.400.09-May-2021 4440.01 6540.26 65.76 15.00  41.40 2948.57
   06:42:07.600.09-May-2021 4440.01 6544.58 65.76 15.00  41.60 2948.57
   06:42:07.800.09-May-2021 4440.01 6536.63 65.76 15.00  41.80 2948.57
   06:42:08.000.09-May-2021 4440.01 6539.82 65.76 15.00  42.00 2948.57
   06:42:08.200.09-May-2021 4440.01 6539.82 65.76 15.00  42.20 2948.57
   06:42:08.400.09-May-2021 4440.01 6536.90 65.76 15.00  42.40 2948.57
   06:42:08.600.09-May-2021 4440.01 6527.80 65.76 15.00  42.60 2948.57
   06:42:08.800.09-May-2021 4440.01 6489.20 65.76 15.00  42.80 2948.57
   06:42:09.000.09-May-2021 4440.01 6281.06 65.76 15.00  43.00 2948.57
   06:42:09.200.09-May-2021 4440.01 6281.06 65.76 15.00  43.20 2948.57
   06:42:09.400.09-May-2021 4440.01 5590.36 65.76 15.00  43.40 2948.57
   06:42:09.600.09-May-2021 4440.01 5159.57 65.76 15.00  43.60 2948.57
   06:42:09.800.09-May-2021 4440.01 4789.05 65.76 15.00  43.80 2948.57
   06:42:10.000.09-May-2021 4440.01 4282.91 65.76 15.00  44.00 2948.57
   06:42:10.200.09-May-2021 4440.01 4282.91 65.76 15.00  44.20 2948.57
   06:42:10.400.09-May-2021 4440.01 2941.23 65.76 15.00  44.40 2948.57
   06:42:10.600.09-May-2021 4440.01 2245.24 65.76 15.00  44.60 2948.57
   06:42:10.800.09-May-2021 4440.01 1638.94 65.76 15.00  44.80 2948.57
   06:42:11.000.09-May-2021 4440.01 1216.47 65.76 15.00  45.00 2948.57
