~Version Information
 VERS.                  2.0:   CWLS log ASCII Standard -VERSION 2.0
 WRAP.                   NO:   One line per depth step
~Well Information Block
#MNEM.UNIT     VALUE/NAME     DESCRIPTION
#---------     -----------    ---------------------------
 STRT.S             23:07:02 09-May-21: START TIME 23:07:02 09-May-21
 STOP.S             23:13:42 09-May-21: STOP TIME  23:13:42 09-May-21
 STEP.S                   0.00: STEP TIME
 NULL.                 -999.25: NULL VALUE
 PROV.                    Baku:  PROVINCE
 STAT.                    Baku:  STATE NAME
 SON .        AZ-XX-0906571588:  JOB NUMBER
 WTYP.                Deviated:  WELL TYPE
 COMP.     BP Exploration (Caspian Sea) ltd:  COMPANY
 BASE.              Azerbaijan:  LOGGING EQUIPMENT BASE LOCATION
 REGN.                   EESSA:  REGION
 CTRY.              Azerbaijan:  COUNTRY NAME
 FLD .                     ACG:  FIELD NAME
 WELL.                     J28:  WELL NAME
 RIG .             West Chirag:  RIG NAME
 DMF .             Drill Floor:  DRILL MEAS FROM
 PDAT.       Caspian Sea Level:  PERMANENT DATUM
 HPTY.       Minimum Curvature:  HOLE POS TYPE
 MDS .        Operator Entered:  MAG DATA SOURCE
 NREF.                    Grid:  NORTH REFERENCE
 SRVC.          TURAN DRILLING:  CONTRACTOR
 JOBN.        AZ-XX-0906571588:  JOB TICKET NUMB
 DCON.     Halliburton Sperry Drilling:  DIRECTNL CONTR
 STIM.      00.44.00 11-Feb-21:  START TIME
 DATE.      00.00.00 05-May-21:  END TIME
 SPUD.               13-Feb-21:  SPUD DATE
 MWDS.                    Baku:  MWD SHOP
 DOE .                     N/A:  DOE NUMBER
 UNIT.                     N/A:  LOGGING EQUIPMENT ID
 UWI .                     N/A:  UNIQUE WELL IDENTIFIER
 API .                     N/A:  API NUMBER
 CNTY.                        :  COUNTY
 LOC .                        :  LOCATION
 LMF .             Drill Floor:  LOG MEASURED FROM
 TVDS.m                  43.00:  TVDSS CORRECTN
 SDEP.m                 341.00:  START DEPTH
 EGL .m                   0.00:  GROUND ELEVATION
 WDMS.m                 169.80:  WD ELEV
 AGAP.m                  43.00:  AIR GAP
 EPD .m                   0.00:  ELEVATION
 APD .m                  43.00:  DEPTH ABOVE PD
 LATI.deg                40.13:  LATITUDE
 LONG.deg                51.22:  LONGITUDE
 UTMY.m             4443793.85:  UTM Y
 UTMX.m              519005.06:  UTM X
 WHEW.m                 -11.57:  WELL HEAD E/W
 WHNS.m                   8.57:  WELL HEAD N/S
 VSEW.m                 -11.57:  VERT SEC E/W
 VSNS.m                   8.57:  VERT SEC N/S
 DFWL.m                   0.00:  DISTANCE FWL
 DFSL.m                   0.00:  DISTANCE FSL
 VSDR.deg               299.34:  VERT SEC DIRECT
 GVFD.g                   1.00:  GRAVITY FIELD
 AZTC.deg                 6.36:  AZM TOTAL CORR
 MFLD.nT              50391.00:  MAGNETIC FIELD
 MDIP.deg                59.65:  MAGNETIC DIP
 MDEC.deg                 6.48:  MAGNETIC DECL
 GRDC.deg                 0.12:  GRID CORRECTION
 DEP .m                 334.96:  DEPTH
 TDD .m                1407.26:  TOTAL DEPTH (DRILLER)
 EKB .m                  43.00:  KB ELEVATION
 EDF .m                  43.00:  DF ELEVATION
 TDL .m                 228.00:  TOTAL DEPTH (LOGGER)
 VSC .                       0:  VS TO CLOSURE
 MAGU.                 1854484:  MAGUTM CHECKSUM
~Parameter Information Block
#MNEM.UNIT       Value        Description
#---------     -----------    ---------------------------
 AV  .mps                 4.00:  Ann Velocity 
 AVMX.mps                 4.73:  Max Ann Veloc 
 AZIF.deg               304.48:  Azm, Final 
 BHAT.        Rotary Steerable:  BHA Type 
 BREV.rev            257300.00:  Rev Bit Total 
 BROT.°/30m               0.00:  Build Rotating 
 BS  .in                  8.50:  Bit Size 
 BSZ .in                  8.50:  Bit Size 
 BTPL.psig              589.00:  Bit Press Loss 
 CABU.                      No:  Customer Abuse 
 CGEO.          Mubariz ghayev:  Customer Geo 
 COMM.                     d:  Run Comments 1 
 TCS .hr                 64.25:  Time Ciculation Ended 
 CV  .mps                 3.50:  Crit Velocity 
 CVMX.mps                 4.52:  Max Crit Veloc 
 DD1 .             Aziz Aliyev:  Direct Drillr 1 
 DD2 .         Intigam Rahimov:  Direct Drillr 2 
 DD3 .          Rashad Habibov:  Direct Drillr 3 
 DDSV.               Geo-Pilot:  DD Service 
 DEFF.%                  98.00:  % Det Eff 
 DLRX.°/30m               0.00:  Dogleg Rot Max 
 DLSO.°/30m               0.00:  Dogleg Oriented 
 DLSX.°/30m               0.00:  Dogleg Str Max 
 DRET.      10.45.04 08-May-21:  Drill End Time 
 DRST.      03.30.04 04-May-21:  Drill Start Tim 
 DTIM.hr                 14.97:  Time Drilling 
 EDEP.m                4640.01:  End Depth 
 ENG1.         Dail Mahammadov:  Engineer 1 
 ENG2.           Eldar Hajiyev:  Engineer 2 
 ENG3.       Bakhtiar Jabbarli:  Engineer 3 
 ENG4.       Natik Hasanagayev:  Engineer 4 
 ETIM.      09.30.04 14-May-21:  End Time 
 FLOI.gpm               460.00:  Flow In 
 FLON.gpm               200.00:  Flow In Min 
 FLOS.cptm                0.00:  Fluid Loss 
 FLOX.gpm               505.00:  Flow In Max 
 HFLO.                      No:  High Flow 
 HPRE.                      No:  High Pressure 
 HTEM.                      No:  High Temp 
 HYDO.m                   1.80:  Hydro Offset 
 IFIN.deg                66.71:  Inc, Final 
 IMAX.deg                67.03:  Inc Max 
 IMIN.deg                66.63:  Inc Min 
 IMND.m                4550.58:  Inc Min Depth 
 IMXD.m                4439.01:  Inc Max Depth 
 JARR.                      No:  Jarring 
 LETM.      10.45.04 08-May-21:  Log End Time 
 LOST.hr                     0:  Lost Rig Time 
 LSTM.      03.30.04 04-May-21:  Log Start Time 
 MDCL.ppm             37000.00:  Mud Chlorides 
 MDES.     Inversion Oil/Synthetic:  Mud Desc 
 DFD .sg                  1.38:  Mud Density 
 MDMN.sg                  1.35:  Dens Mud Min 
 MDMX.sg                  1.40:  Dens Mud Max 
 MOIL.                   57.40:  Run Mud Oil % 
 MOWR.                   70:30:  Run Mud OWR 
 MSND.                    0.00:  Run Mud Sand % 
 MSOL.                   18.00:  Run Mud Solids% 
 DFV .spqt               71.00:  Mud Viscosity 
 MWOD.in                  6.75:  MWD Tool OD 
 MWSI.                      No:  Serv Intrp, MWD 
 OTIM.hr                242.76:  Time Operating 
 PCON.           Look Like New:  Pad Condition 
 PMAX.psia            12183.92:  Press Op, Max 
 PV  .cP                 27.00:  Mud PV 
 RUN .                    1300:  Run Number 
 ROPA.m/hr               15.00:  ROP Avg 
 ROPN.m/hr                9.00:  ROP Min 
 ROPX.m/hr               19.00:  ROP Max 
 RPMA.rpm               120.00:  RPM Surface Avg 
 RPMN.rpm               100.00:  RPM Surface Min 
 RPMX.rpm               120.00:  RPM Surface Max 
 RRUN.                    1300:  Rig Run Number 
 RTIM.hr                  5.00:  Time Reaming 
 SAZI.deg               304.73:  Azm, Start 
 SDEP.m                4412.01:  Start Depth 
 SIDD.                      No:  Serv Intrp, DD 
 SINC.deg                66.82:  Inc, Start 
 SPPA.psig             2800.00:  SPP Avg 
 SPPN.psig             2610.00:  SPP Min 
 SPPX.psig             3100.00:  SPP Max 
 STIM.      03.30.00 04-May-21:  Start Time 
 SVCS.                 DD, MWD:  Services 
 SVER.                    9.20:  Sperry Version 
 TDAT.m                 228.00:  Tot Depth Attmp 
 TDDF.                      No:  Trip for DD 
 TDLG.m                 228.00:  Tot Depth Loggd 
 TFF .                      No:  Trip for Fail 
 TQAA.f-kp               15.00:  Torque Abs Avg 
 TQAN.f-kp               12.00:  Torque Abs Min 
 TQAX.f-kp               22.00:  Torque Abs Max 
 TRRT.°/30m               0.00:  Turn Rotating 
 MRT .                    HCIM:  Maximum Recorded Temperature 
 TTMX.degC               90.20:  Max Tool Temp 
 VS01.                90627813:  Virtual Str1 SN 
 VS02.                90634712:  Virtual Str2 SN 
 VS03.                90643410:  Virtual Str3 SN 
 VS04.                90634712:  Virtual Str4 SN 
 WBMN.klb                 9.00:  WOB Min 
 WITN.        Elmaddin Rahimov:  Customer Rep 
 WITN.         Haytham Mostafa:  Customer Rep 2 
 WOBA.klb                15.00:  WOB Avg 
 WOBX.klb                23.00:  WOB Max 
 YP  .lhf2               29.00:  Yield Point 
~Curve Information Block
#MNEM.UNIT                 API CODE     Curve Description
#---------               -----------    ---------------------------
 TIME.HHMMSS            00 000 000 000:  GT Time & Date
 GTDEPTH.m              00 000 000 000:  GT Depth
 GTPQH.psia             00 000 000 000:  GT HR Quartz Pressure
 GTTQ.degC              00 000 000 000:  GT Quartz Temperature
 GTTN.NONE              00 000 000 000:  GT Test Number
 GTET.sec               00 000 000 000:  GT Elapsed Test Time
 GTTVD.m                00 000 000 000:  GT True Vertical Depth
#Other Information
#
#WARRANTY: Halliburton will use its best efforts to furnish customers with 
#accurate information and interpretations that are part of, and incident to, the services 
#provided.  However, Halliburton cannot and does not warrant the accuracy 
#or correctness of such information and interpretations.  Under no circumstances should any 
#such information or interpretation be relied upon as the sole basis for any drilling, 
#completion, production, or financial decision or any procedure involving any risk to the 
#safety of any drilling venture, drilling rig or its crew or any other third party.  The 
#Customer has full responsibility for all drilling, completion and production operation.  
#Halliburton makes no representations or warranties, either expressed or 
#implied, including, but not limited to, the implied warranties of merchantability or fitness 
#for a particular purpose, with respect to the services rendered.  In no event will 
#Halliburton be liable for failure to obtain any particular results or for 
#any damages, including, but not limited to, indirect, special or consequential damages, 
#resulting from the use of any information or interpretation provided by Halliburton.
#
~A           TIME           GTDEPTH  GTPQH  GTTQ  GTTN   GTET   GTTVD  
# ...
   23:10:26.184.09-May-2021 4503.01 1503.04 60.42 17.00 203.35 2973.29
   23:10:26.384.09-May-2021 4503.01 1506.81 60.42 17.00 203.55 2973.29
   23:10:26.583.09-May-2021 4503.01 1510.01 60.42 17.00 203.75 2973.29
   23:10:26.783.09-May-2021 4503.01 1513.63 60.42 17.00 203.95 2973.29
   23:10:26.983.09-May-2021 4503.01 1513.63 60.42 17.00 204.15 2973.29
   23:10:27.183.09-May-2021 4503.01 1520.41 60.42 17.00 204.35 2973.29
   23:10:27.383.09-May-2021 4503.01 1523.39 60.42 17.00 204.55 2973.29
   23:10:27.583.09-May-2021 4503.01 1526.81 60.42 17.00 204.75 2973.29
   23:10:27.783.09-May-2021 4503.01 1529.93 60.42 17.00 204.95 2973.29
   23:10:27.983.09-May-2021 4503.01 1529.93 60.42 17.00 205.15 2973.29
   23:10:28.183.09-May-2021 4503.01 1536.07 60.42 17.00 205.35 2973.29
   23:10:28.383.09-May-2021 4503.01 1539.20 60.42 17.00 205.55 2973.29
   23:10:28.583.09-May-2021 4503.01 1542.32 60.42 17.00 205.75 2973.29
   23:10:28.783.09-May-2021 4503.01 1545.48 60.42 17.00 205.95 2973.29
   23:10:28.983.09-May-2021 4503.01 1545.48 60.42 17.00 206.15 2973.29
   23:10:29.183.09-May-2021 4503.01 1551.70 60.42 17.00 206.35 2973.29
   23:10:29.383.09-May-2021 4503.01 1554.72 60.42 17.00 206.55 2973.29
   23:10:29.583.09-May-2021 4503.01 1557.39 60.42 17.00 206.75 2973.29
   23:10:29.783.09-May-2021 4503.01 1561.17 60.42 17.00 206.95 2973.29
   23:10:29.983.09-May-2021 4503.01 1561.17 60.42 17.00 207.15 2973.29
   23:10:30.183.09-May-2021 4503.01 1567.20 60.42 17.00 207.35 2973.29
   23:10:30.382.09-May-2021 4503.01 1570.31 60.42 17.00 207.55 2973.29
   23:10:30.582.09-May-2021 4503.01 1573.26 60.42 17.00 207.75 2973.29
   23:10:30.782.09-May-2021 4503.01 1576.21 60.42 17.00 207.95 2973.29
   23:10:30.982.09-May-2021 4503.01 1576.21 60.42 17.00 208.15 2973.29
   23:10:31.182.09-May-2021 4503.01 1582.02 60.42 17.00 208.35 2973.29
   23:10:31.382.09-May-2021 4503.01 1584.98 60.42 17.00 208.55 2973.29
   23:10:31.582.09-May-2021 4503.01 1587.95 60.42 17.00 208.75 2973.29
   23:10:31.782.09-May-2021 4503.01 1590.89 60.42 17.00 208.95 2973.29
   23:10:31.982.09-May-2021 4503.01 1590.89 60.42 17.00 209.15 2973.29
   23:10:32.182.09-May-2021 4503.01 1596.40 60.42 17.00 209.35 2973.29
   23:10:32.382.09-May-2021 4503.01 1599.86 60.42 17.00 209.55 2973.29
   23:10:32.582.09-May-2021 4503.01 1602.79 60.42 17.00 209.75 2973.29
   23:10:32.782.09-May-2021 4503.01 1605.67 60.42 17.00 209.95 2973.29
   23:10:32.982.09-May-2021 4503.01 1605.67 60.42 17.00 210.15 2973.29
   23:10:33.182.09-May-2021 4503.01 1611.10 60.42 17.00 210.35 2973.29
   23:10:33.382.09-May-2021 4503.01 1614.74 60.42 17.00 210.55 2973.29
   23:10:33.582.09-May-2021 4503.01 1617.57 60.42 17.00 210.75 2973.29
   23:10:33.782.09-May-2021 4503.01 1620.21 60.42 17.00 210.94 2973.29
   23:10:33.982.09-May-2021 4503.01 1620.21 60.42 17.00 211.14 2973.29
   23:10:34.182.09-May-2021 4503.01 1626.18 60.42 17.00 211.34 2973.29
   23:10:34.381.09-May-2021 4503.01 1628.99 60.42 17.00 211.54 2973.29
   23:10:34.581.09-May-2021 4503.01 1631.87 60.42 17.00 211.74 2973.29
   23:10:34.781.09-May-2021 4503.01 1634.93 60.42 17.00 211.94 2973.29
   23:10:34.981.09-May-2021 4503.01 1634.93 60.42 17.00 212.14 2973.29
   23:10:35.181.09-May-2021 4503.01 1640.99 60.42 17.00 212.34 2973.29
   23:10:35.381.09-May-2021 4503.01 1643.85 60.42 17.00 212.54 2973.29
   23:10:35.581.09-May-2021 4503.01 1646.65 60.42 17.00 212.74 2973.29
   23:10:35.781.09-May-2021 4503.01 1649.64 60.42 17.00 212.94 2973.29
   23:10:35.981.09-May-2021 4503.01 1649.64 60.42 17.00 213.14 2973.29
   23:10:36.181.09-May-2021 4503.01 1655.26 60.42 17.00 213.34 2973.29
   23:10:36.381.09-May-2021 4503.01 1658.05 60.42 17.00 213.54 2973.29
   23:10:36.581.09-May-2021 4503.01 1660.81 60.42 17.00 213.74 2973.29
   23:10:36.781.09-May-2021 4503.01 1663.47 60.42 17.00 213.94 2973.29
   23:10:36.981.09-May-2021 4503.01 1663.47 60.42 17.00 214.14 2973.29
   23:10:37.181.09-May-2021 4503.01 1668.86 60.42 17.00 214.34 2973.29
   23:10:37.381.09-May-2021 4503.01 1671.56 60.42 17.00 214.54 2973.29
   23:10:37.581.09-May-2021 4503.01 1673.88 60.42 17.00 214.74 2973.29
   23:10:37.781.09-May-2021 4503.01 1677.27 60.42 17.00 214.94 2973.29
   23:10:37.981.09-May-2021 4503.01 1677.27 60.42 17.00 215.14 2973.29
   23:10:38.180.09-May-2021 4503.01 1682.73 60.42 17.00 215.34 2973.29
   23:10:38.380.09-May-2021 4503.01 1685.68 60.42 17.00 215.54 2973.29
   23:10:38.580.09-May-2021 4503.01 1688.43 60.42 17.00 215.74 2973.29
   23:10:38.780.09-May-2021 4503.01 1691.22 60.42 17.00 215.94 2973.29
   23:10:38.980.09-May-2021 4503.01 1691.22 60.42 17.00 216.14 2973.29
   23:10:39.180.09-May-2021 4503.01 1696.70 60.42 17.00 216.34 2973.29
   23:10:39.380.09-May-2021 4503.01 1699.41 60.42 17.00 216.54 2973.29
   23:10:39.580.09-May-2021 4503.01 1702.06 60.42 17.00 216.74 2973.29
   23:10:39.780.09-May-2021 4503.01 1704.64 60.42 17.00 216.94 2973.29
   23:10:39.980.09-May-2021 4503.01 1704.64 60.42 17.00 217.14 2973.29
   23:10:40.180.09-May-2021 4503.01 1709.59 60.42 17.00 217.34 2973.29
   23:10:40.380.09-May-2021 4503.01 1712.93 60.42 17.00 217.54 2973.29
   23:10:40.580.09-May-2021 4503.01 1715.51 60.42 17.00 217.74 2973.29
   23:10:40.780.09-May-2021 4503.01 1717.60 60.42 17.00 217.94 2973.29
   23:10:40.980.09-May-2021 4503.01 1717.60 60.42 17.00 218.14 2973.29
   23:10:41.180.09-May-2021 4503.01 1721.12 60.42 17.00 218.34 2973.29
   23:10:41.380.09-May-2021 4503.01 1726.21 60.42 17.00 218.54 2973.29
   23:10:41.580.09-May-2021 4503.01 1728.49 60.42 17.00 218.74 2973.29
   23:10:41.780.09-May-2021 4503.01 1731.96 60.42 17.00 218.94 2973.29
   23:10:41.979.09-May-2021 4503.01 1731.96 60.42 17.00 219.14 2973.29
   23:10:42.179.09-May-2021 4503.01 1737.07 60.42 17.00 219.34 2973.29
   23:10:42.379.09-May-2021 4503.01 1739.27 60.42 17.00 219.54 2973.29
   23:10:42.579.09-May-2021 4503.01 1742.18 60.42 17.00 219.74 2973.29
   23:10:42.779.09-May-2021 4503.01 1744.84 60.42 17.00 219.94 2973.29
   23:10:42.979.09-May-2021 4503.01 1744.84 60.42 17.00 220.14 2973.29
   23:10:43.179.09-May-2021 4503.01 1749.80 60.42 17.00 220.34 2973.29
   23:10:43.379.09-May-2021 4503.01 1752.39 60.42 17.00 220.54 2973.29
   23:10:43.579.09-May-2021 4503.01 1754.96 60.42 17.00 220.74 2973.29
   23:10:43.779.09-May-2021 4503.01 1757.54 60.42 17.00 220.94 2973.29
   23:10:43.979.09-May-2021 4503.01 1757.54 60.42 17.00 221.14 2973.29
   23:10:44.179.09-May-2021 4503.01 1762.65 60.42 17.00 221.34 2973.29
   23:10:44.379.09-May-2021 4503.01 1765.19 60.42 17.00 221.54 2973.29
   23:10:44.579.09-May-2021 4503.01 1767.72 60.42 17.00 221.74 2973.29
   23:10:44.779.09-May-2021 4503.01 1770.25 60.42 17.00 221.94 2973.29
   23:10:44.979.09-May-2021 4503.01 1770.25 60.42 17.00 222.14 2973.29
   23:10:45.179.09-May-2021 4503.01 1775.40 60.42 17.00 222.34 2973.29
   23:10:45.379.09-May-2021 4503.01 1777.86 60.42 17.00 222.54 2973.29
   23:10:45.579.09-May-2021 4503.01 1780.71 60.42 17.00 222.74 2973.29
   23:10:45.778.09-May-2021 4503.01 1783.01 60.42 17.00 222.94 2973.29
   23:10:45.978.09-May-2021 4503.01 1783.01 60.42 17.00 223.14 2973.29
   23:10:46.178.09-May-2021 4503.01 1787.91 60.42 17.00 223.34 2973.29
   23:10:46.378.09-May-2021 4503.01 1790.39 60.42 17.00 223.54 2973.29
   23:10:46.578.09-May-2021 4503.01 1792.94 60.42 17.00 223.74 2973.29
   23:10:46.778.09-May-2021 4503.01 1795.48 60.42 17.00 223.94 2973.29
   23:10:46.978.09-May-2021 4503.01 1795.48 60.42 17.00 224.14 2973.29
   23:10:47.178.09-May-2021 4503.01 1800.55 60.42 17.00 224.34 2973.29
   23:10:47.378.09-May-2021 4503.01 1803.08 60.42 17.00 224.54 2973.29
   23:10:47.578.09-May-2021 4503.01 1805.23 60.42 17.00 224.74 2973.29
   23:10:47.778.09-May-2021 4503.01 1808.23 60.42 17.00 224.94 2973.29
   23:10:47.978.09-May-2021 4503.01 1808.23 60.42 17.00 225.14 2973.29
   23:10:48.178.09-May-2021 4503.01 1813.55 60.42 17.00 225.34 2973.29
   23:10:48.378.09-May-2021 4503.01 1815.88 60.42 17.00 225.54 2973.29
   23:10:48.578.09-May-2021 4503.01 1818.05 60.42 17.00 225.74 2973.29
