~Version Information
 VERS.                  2.0:   CWLS log ASCII Standard -VERSION 2.0
 WRAP.                   NO:   One line per depth step
~Well Information Block
#MNEM.UNIT     VALUE/NAME     DESCRIPTION
#---------     -----------    ---------------------------
 STRT.S             23:07:02 09-May-21: START TIME 23:07:02 09-May-21
 STOP.S             23:13:42 09-May-21: STOP TIME  23:13:42 09-May-21
 STEP.S                   0.00: STEP TIME
 NULL.                 -999.25: NULL VALUE
 PROV.                    Baku:  PROVINCE
 STAT.                    Baku:  STATE NAME
 SON .        AZ-XX-0906571588:  JOB NUMBER
 WTYP.                Deviated:  WELL TYPE
 COMP.     BP Exploration (Caspian Sea) ltd:  COMPANY
 BASE.              Azerbaijan:  LOGGING EQUIPMENT BASE LOCATION
 REGN.                   EESSA:  REGION
 CTRY.              Azerbaijan:  COUNTRY NAME
 FLD .                     ACG:  FIELD NAME
 WELL.                     J28:  WELL NAME
 RIG .             West Chirag:  RIG NAME
 DMF .             Drill Floor:  DRILL MEAS FROM
 PDAT.       Caspian Sea Level:  PERMANENT DATUM
 HPTY.       Minimum Curvature:  HOLE POS TYPE
 MDS .        Operator Entered:  MAG DATA SOURCE
 NREF.                    Grid:  NORTH REFERENCE
 SRVC.          TURAN DRILLING:  CONTRACTOR
 JOBN.        AZ-XX-0906571588:  JOB TICKET NUMB
 DCON.     Halliburton Sperry Drilling:  DIRECTNL CONTR
 STIM.      00.44.00 11-Feb-21:  START TIME
 DATE.      00.00.00 05-May-21:  END TIME
 SPUD.               13-Feb-21:  SPUD DATE
 MWDS.                    Baku:  MWD SHOP
 DOE .                     N/A:  DOE NUMBER
 UNIT.                     N/A:  LOGGING EQUIPMENT ID
 UWI .                     N/A:  UNIQUE WELL IDENTIFIER
 API .                     N/A:  API NUMBER
 CNTY.                        :  COUNTY
 LOC .                        :  LOCATION
 LMF .             Drill Floor:  LOG MEASURED FROM
 TVDS.m                  43.00:  TVDSS CORRECTN
 SDEP.m                 341.00:  START DEPTH
 EGL .m                   0.00:  GROUND ELEVATION
 WDMS.m                 169.80:  WD ELEV
 AGAP.m                  43.00:  AIR GAP
 EPD .m                   0.00:  ELEVATION
 APD .m                  43.00:  DEPTH ABOVE PD
 LATI.deg                40.13:  LATITUDE
 LONG.deg                51.22:  LONGITUDE
 UTMY.m             4443793.85:  UTM Y
 UTMX.m              519005.06:  UTM X
 WHEW.m                 -11.57:  WELL HEAD E/W
 WHNS.m                   8.57:  WELL HEAD N/S
 VSEW.m                 -11.57:  VERT SEC E/W
 VSNS.m                   8.57:  VERT SEC N/S
 DFWL.m                   0.00:  DISTANCE FWL
 DFSL.m                   0.00:  DISTANCE FSL
 VSDR.deg               299.34:  VERT SEC DIRECT
 GVFD.g                   1.00:  GRAVITY FIELD
 AZTC.deg                 6.36:  AZM TOTAL CORR
 MFLD.nT              50391.00:  MAGNETIC FIELD
 MDIP.deg                59.65:  MAGNETIC DIP
 MDEC.deg                 6.48:  MAGNETIC DECL
 GRDC.deg                 0.12:  GRID CORRECTION
 DEP .m                 334.96:  DEPTH
 TDD .m                1407.26:  TOTAL DEPTH (DRILLER)
 EKB .m                  43.00:  KB ELEVATION
 EDF .m                  43.00:  DF ELEVATION
 TDL .m                 228.00:  TOTAL DEPTH (LOGGER)
 VSC .                       0:  VS TO CLOSURE
 MAGU.                 1854484:  MAGUTM CHECKSUM
~Parameter Information Block
#MNEM.UNIT       Value        Description
#---------     -----------    ---------------------------
 AV  .mps                 4.00:  Ann Velocity 
 AVMX.mps                 4.73:  Max Ann Veloc 
 AZIF.deg               304.48:  Azm, Final 
 BHAT.        Rotary Steerable:  BHA Type 
 BREV.rev            257300.00:  Rev Bit Total 
 BROT.°/30m               0.00:  Build Rotating 
 BS  .in                  8.50:  Bit Size 
 BSZ .in                  8.50:  Bit Size 
 BTPL.psig              589.00:  Bit Press Loss 
 CABU.                      No:  Customer Abuse 
 CGEO.          Mubariz ghayev:  Customer Geo 
 COMM.                     d:  Run Comments 1 
 TCS .hr                 64.25:  Time Ciculation Ended 
 CV  .mps                 3.50:  Crit Velocity 
 CVMX.mps                 4.52:  Max Crit Veloc 
 DD1 .             Aziz Aliyev:  Direct Drillr 1 
 DD2 .         Intigam Rahimov:  Direct Drillr 2 
 DD3 .          Rashad Habibov:  Direct Drillr 3 
 DDSV.               Geo-Pilot:  DD Service 
 DEFF.%                  98.00:  % Det Eff 
 DLRX.°/30m               0.00:  Dogleg Rot Max 
 DLSO.°/30m               0.00:  Dogleg Oriented 
 DLSX.°/30m               0.00:  Dogleg Str Max 
 DRET.      10.45.04 08-May-21:  Drill End Time 
 DRST.      03.30.04 04-May-21:  Drill Start Tim 
 DTIM.hr                 14.97:  Time Drilling 
 EDEP.m                4640.01:  End Depth 
 ENG1.         Dail Mahammadov:  Engineer 1 
 ENG2.           Eldar Hajiyev:  Engineer 2 
 ENG3.       Bakhtiar Jabbarli:  Engineer 3 
 ENG4.       Natik Hasanagayev:  Engineer 4 
 ETIM.      09.30.04 14-May-21:  End Time 
 FLOI.gpm               460.00:  Flow In 
 FLON.gpm               200.00:  Flow In Min 
 FLOS.cptm                0.00:  Fluid Loss 
 FLOX.gpm               505.00:  Flow In Max 
 HFLO.                      No:  High Flow 
 HPRE.                      No:  High Pressure 
 HTEM.                      No:  High Temp 
 HYDO.m                   1.80:  Hydro Offset 
 IFIN.deg                66.71:  Inc, Final 
 IMAX.deg                67.03:  Inc Max 
 IMIN.deg                66.63:  Inc Min 
 IMND.m                4550.58:  Inc Min Depth 
 IMXD.m                4439.01:  Inc Max Depth 
 JARR.                      No:  Jarring 
 LETM.      10.45.04 08-May-21:  Log End Time 
 LOST.hr                     0:  Lost Rig Time 
 LSTM.      03.30.04 04-May-21:  Log Start Time 
 MDCL.ppm             37000.00:  Mud Chlorides 
 MDES.     Inversion Oil/Synthetic:  Mud Desc 
 DFD .sg                  1.38:  Mud Density 
 MDMN.sg                  1.35:  Dens Mud Min 
 MDMX.sg                  1.40:  Dens Mud Max 
 MOIL.                   57.40:  Run Mud Oil % 
 MOWR.                   70:30:  Run Mud OWR 
 MSND.                    0.00:  Run Mud Sand % 
 MSOL.                   18.00:  Run Mud Solids% 
 DFV .spqt               71.00:  Mud Viscosity 
 MWOD.in                  6.75:  MWD Tool OD 
 MWSI.                      No:  Serv Intrp, MWD 
 OTIM.hr                242.76:  Time Operating 
 PCON.           Look Like New:  Pad Condition 
 PMAX.psia            12183.92:  Press Op, Max 
 PV  .cP                 27.00:  Mud PV 
 RUN .                    1300:  Run Number 
 ROPA.m/hr               15.00:  ROP Avg 
 ROPN.m/hr                9.00:  ROP Min 
 ROPX.m/hr               19.00:  ROP Max 
 RPMA.rpm               120.00:  RPM Surface Avg 
 RPMN.rpm               100.00:  RPM Surface Min 
 RPMX.rpm               120.00:  RPM Surface Max 
 RRUN.                    1300:  Rig Run Number 
 RTIM.hr                  5.00:  Time Reaming 
 SAZI.deg               304.73:  Azm, Start 
 SDEP.m                4412.01:  Start Depth 
 SIDD.                      No:  Serv Intrp, DD 
 SINC.deg                66.82:  Inc, Start 
 SPPA.psig             2800.00:  SPP Avg 
 SPPN.psig             2610.00:  SPP Min 
 SPPX.psig             3100.00:  SPP Max 
 STIM.      03.30.00 04-May-21:  Start Time 
 SVCS.                 DD, MWD:  Services 
 SVER.                    9.20:  Sperry Version 
 TDAT.m                 228.00:  Tot Depth Attmp 
 TDDF.                      No:  Trip for DD 
 TDLG.m                 228.00:  Tot Depth Loggd 
 TFF .                      No:  Trip for Fail 
 TQAA.f-kp               15.00:  Torque Abs Avg 
 TQAN.f-kp               12.00:  Torque Abs Min 
 TQAX.f-kp               22.00:  Torque Abs Max 
 TRRT.°/30m               0.00:  Turn Rotating 
 MRT .                    HCIM:  Maximum Recorded Temperature 
 TTMX.degC               90.20:  Max Tool Temp 
 VS01.                90627813:  Virtual Str1 SN 
 VS02.                90634712:  Virtual Str2 SN 
 VS03.                90643410:  Virtual Str3 SN 
 VS04.                90634712:  Virtual Str4 SN 
 WBMN.klb                 9.00:  WOB Min 
 WITN.        Elmaddin Rahimov:  Customer Rep 
 WITN.         Haytham Mostafa:  Customer Rep 2 
 WOBA.klb                15.00:  WOB Avg 
 WOBX.klb                23.00:  WOB Max 
 YP  .lhf2               29.00:  Yield Point 
~Curve Information Block
#MNEM.UNIT                 API CODE     Curve Description
#---------               -----------    ---------------------------
 TIME.HHMMSS            00 000 000 000:  GT Time & Date
 GTDEPTH.m              00 000 000 000:  GT Depth
 GTPQH.psia             00 000 000 000:  GT HR Quartz Pressure
 GTTQ.degC              00 000 000 000:  GT Quartz Temperature
 GTTN.NONE              00 000 000 000:  GT Test Number
 GTET.sec               00 000 000 000:  GT Elapsed Test Time
 GTTVD.m                00 000 000 000:  GT True Vertical Depth
#Other Information
#
#WARRANTY: Halliburton will use its best efforts to furnish customers with 
#accurate information and interpretations that are part of, and incident to, the services 
#provided.  However, Halliburton cannot and does not warrant the accuracy 
#or correctness of such information and interpretations.  Under no circumstances should any 
#such information or interpretation be relied upon as the sole basis for any drilling, 
#completion, production, or financial decision or any procedure involving any risk to the 
#safety of any drilling venture, drilling rig or its crew or any other third party.  The 
#Customer has full responsibility for all drilling, completion and production operation.  
#Halliburton makes no representations or warranties, either expressed or 
#implied, including, but not limited to, the implied warranties of merchantability or fitness 
#for a particular purpose, with respect to the services rendered.  In no event will 
#Halliburton be liable for failure to obtain any particular results or for 
#any damages, including, but not limited to, indirect, special or consequential damages, 
#resulting from the use of any information or interpretation provided by Halliburton.
#
~A           TIME           GTDEPTH  GTPQH  GTTQ  GTTN   GTET   GTTVD  
# ...
   23:07:48.025.09-May-2021 4503.01 5323.77 60.56 17.00  45.19 2973.29
   23:07:48.225.09-May-2021 4503.01 4283.93 60.56 17.00  45.39 2973.29
   23:07:48.425.09-May-2021 4503.01 3969.02 60.56 17.00  45.59 2973.29
   23:07:48.625.09-May-2021 4503.01 3695.81 60.56 17.00  45.79 2973.29
   23:07:48.825.09-May-2021 4503.01 3463.66 60.56 17.00  45.99 2973.29
   23:07:49.025.09-May-2021 4503.01 3463.66 60.56 17.00  46.19 2973.29
   23:07:49.225.09-May-2021 4503.01 2959.29 60.55 17.00  46.39 2973.29
   23:07:49.424.09-May-2021 4503.01 2874.08 60.55 17.00  46.59 2973.29
   23:07:49.624.09-May-2021 4503.01 2831.53 60.55 17.00  46.79 2973.29
   23:07:49.824.09-May-2021 4503.01 2757.47 60.55 17.00  46.99 2973.29
   23:07:50.024.09-May-2021 4503.01 2757.47 60.55 17.00  47.19 2973.29
   23:07:50.224.09-May-2021 4503.01 2357.38 60.54 17.00  47.39 2973.29
   23:07:50.424.09-May-2021 4503.01 1987.30 60.54 17.00  47.59 2973.29
   23:07:50.624.09-May-2021 4503.01 1552.97 60.54 17.00  47.79 2973.29
   23:07:50.824.09-May-2021 4503.01 1115.37 60.54 17.00  47.99 2973.29
   23:07:51.024.09-May-2021 4503.01 1115.37 60.54 17.00  48.19 2973.29
   23:07:51.224.09-May-2021 4503.01  657.11 60.53 17.00  48.39 2973.29
   23:07:51.424.09-May-2021 4503.01  543.53 60.53 17.00  48.59 2973.29
   23:07:51.624.09-May-2021 4503.01  487.95 60.52 17.00  48.79 2973.29
   23:07:51.824.09-May-2021 4503.01  466.20 60.52 17.00  48.99 2973.29
   23:07:52.024.09-May-2021 4503.01  466.20 60.52 17.00  49.19 2973.29
   23:07:52.224.09-May-2021 4503.01  450.99 60.51 17.00  49.39 2973.29
   23:07:52.424.09-May-2021 4503.01  461.67 60.51 17.00  49.59 2973.29
   23:07:52.624.09-May-2021 4503.01  464.47 60.50 17.00  49.79 2973.29
   23:07:52.824.09-May-2021 4503.01  463.67 60.50 17.00  49.99 2973.29
   23:07:53.024.09-May-2021 4503.01  463.67 60.50 17.00  50.19 2973.29
   23:07:53.223.09-May-2021 4503.01  445.80 60.49 17.00  50.39 2973.29
   23:07:53.423.09-May-2021 4503.01  436.42 60.49 17.00  50.59 2973.29
   23:07:53.623.09-May-2021 4503.01  432.00 60.48 17.00  50.79 2973.29
   23:07:53.823.09-May-2021 4503.01  429.01 60.48 17.00  50.99 2973.29
   23:07:54.023.09-May-2021 4503.01  429.01 60.48 17.00  51.19 2973.29
   23:07:54.223.09-May-2021 4503.01  425.12 60.47 17.00  51.39 2973.29
   23:07:54.423.09-May-2021 4503.01  425.86 60.47 17.00  51.59 2973.29
   23:07:54.623.09-May-2021 4503.01  433.08 60.47 17.00  51.79 2973.29
   23:07:54.823.09-May-2021 4503.01  439.40 60.46 17.00  51.99 2973.29
   23:07:55.023.09-May-2021 4503.01  439.40 60.46 17.00  52.19 2973.29
   23:07:55.223.09-May-2021 4503.01  449.93 60.46 17.00  52.39 2973.29
   23:07:55.423.09-May-2021 4503.01  451.75 60.45 17.00  52.59 2973.29
   23:07:55.623.09-May-2021 4503.01  447.94 60.45 17.00  52.79 2973.29
   23:07:55.823.09-May-2021 4503.01  444.63 60.45 17.00  52.99 2973.29
   23:07:56.023.09-May-2021 4503.01  444.63 60.45 17.00  53.19 2973.29
   23:07:56.223.09-May-2021 4503.01  438.65 60.44 17.00  53.39 2973.29
   23:07:56.423.09-May-2021 4503.01  434.82 60.44 17.00  53.59 2973.29
   23:07:56.623.09-May-2021 4503.01  432.52 60.44 17.00  53.79 2973.29
   23:07:56.823.09-May-2021 4503.01  446.20 60.43 17.00  53.99 2973.29
   23:07:57.023.09-May-2021 4503.01  446.20 60.43 17.00  54.19 2973.29
   23:07:57.222.09-May-2021 4503.01  512.07 60.43 17.00  54.39 2973.29
   23:07:57.422.09-May-2021 4503.01  541.58 60.43 17.00  54.59 2973.29
   23:07:57.622.09-May-2021 4503.01  570.12 60.43 17.00  54.79 2973.29
   23:07:57.822.09-May-2021 4503.01  599.04 60.42 17.00  54.99 2973.29
   23:07:58.022.09-May-2021 4503.01  599.04 60.42 17.00  55.19 2973.29
   23:07:58.222.09-May-2021 4503.01  652.19 60.42 17.00  55.39 2973.29
   23:07:58.422.09-May-2021 4503.01  677.79 60.42 17.00  55.59 2973.29
   23:07:58.622.09-May-2021 4503.01  702.24 60.42 17.00  55.79 2973.29
   23:07:58.822.09-May-2021 4503.01  726.97 60.42 17.00  55.99 2973.29
   23:07:59.022.09-May-2021 4503.01  726.97 60.42 17.00  56.19 2973.29
   23:07:59.222.09-May-2021 4503.01  774.82 60.41 17.00  56.39 2973.29
   23:07:59.422.09-May-2021 4503.01  797.65 60.41 17.00  56.59 2973.29
   23:07:59.622.09-May-2021 4503.01  819.54 60.41 17.00  56.79 2973.29
   23:07:59.822.09-May-2021 4503.01  842.36 60.41 17.00  56.99 2973.29
   23:08:00.022.09-May-2021 4503.01  842.36 60.41 17.00  57.19 2973.29
   23:08:00.222.09-May-2021 4503.01  885.89 60.41 17.00  57.39 2973.29
   23:08:00.422.09-May-2021 4503.01  907.46 60.41 17.00  57.58 2973.29
   23:08:00.622.09-May-2021 4503.01  928.61 60.41 17.00  57.78 2973.29
   23:08:00.822.09-May-2021 4503.01  949.67 60.41 17.00  57.98 2973.29
   23:08:01.021.09-May-2021 4503.01  949.67 60.41 17.00  58.18 2973.29
   23:08:01.221.09-May-2021 4503.01  990.25 60.41 17.00  58.38 2973.29
   23:08:01.421.09-May-2021 4503.01 1010.02 60.40 17.00  58.58 2973.29
   23:08:01.621.09-May-2021 4503.01 1029.35 60.40 17.00  58.78 2973.29
   23:08:01.821.09-May-2021 4503.01 1048.21 60.40 17.00  58.98 2973.29
   23:08:02.021.09-May-2021 4503.01 1048.21 60.40 17.00  59.18 2973.29
   23:08:02.221.09-May-2021 4503.01 1084.70 60.40 17.00  59.38 2973.29
   23:08:02.421.09-May-2021 4503.01 1102.47 60.40 17.00  59.58 2973.29
   23:08:02.621.09-May-2021 4503.01 1120.18 60.40 17.00  59.78 2973.29
   23:08:02.821.09-May-2021 4503.01 1137.15 60.40 17.00  59.98 2973.29
   23:08:03.021.09-May-2021 4503.01 1137.15 60.40 17.00  60.18 2973.29
   23:08:03.221.09-May-2021 4503.01 1172.78 60.40 17.00  60.38 2973.29
   23:08:03.421.09-May-2021 4503.01 1189.81 60.40 17.00  60.58 2973.29
   23:08:03.621.09-May-2021 4503.01 1206.67 60.40 17.00  60.78 2973.29
   23:08:03.821.09-May-2021 4503.01 1223.13 60.40 17.00  60.98 2973.29
   23:08:04.021.09-May-2021 4503.01 1223.13 60.40 17.00  61.18 2973.29
   23:08:04.221.09-May-2021 4503.01 1255.50 60.40 17.00  61.38 2973.29
   23:08:04.421.09-May-2021 4503.01 1271.44 60.40 17.00  61.58 2973.29
   23:08:04.621.09-May-2021 4503.01 1287.12 60.40 17.00  61.78 2973.29
   23:08:04.820.09-May-2021 4503.01 1302.60 60.40 17.00  61.98 2973.29
   23:08:05.020.09-May-2021 4503.01 1302.60 60.40 17.00  62.18 2973.29
   23:08:05.220.09-May-2021 4503.01 1332.76 60.40 17.00  62.38 2973.29
   23:08:05.420.09-May-2021 4503.01 1346.94 60.40 17.00  62.58 2973.29
   23:08:05.620.09-May-2021 4503.01 1362.82 60.41 17.00  62.78 2973.29
   23:08:05.820.09-May-2021 4503.01 1377.82 60.41 17.00  62.98 2973.29
   23:08:06.020.09-May-2021 4503.01 1377.82 60.41 17.00  63.18 2973.29
   23:08:06.220.09-May-2021 4503.01 1406.74 60.41 17.00  63.38 2973.29
   23:08:06.420.09-May-2021 4503.01 1420.94 60.41 17.00  63.58 2973.29
   23:08:06.620.09-May-2021 4503.01 1434.56 60.41 17.00  63.78 2973.29
   23:08:06.820.09-May-2021 4503.01 1449.31 60.41 17.00  63.98 2973.29
   23:08:07.020.09-May-2021 4503.01 1449.31 60.41 17.00  64.18 2973.29
   23:08:07.220.09-May-2021 4503.01 1476.96 60.41 17.00  64.38 2973.29
   23:08:07.420.09-May-2021 4503.01 1490.24 60.41 17.00  64.58 2973.29
   23:08:07.620.09-May-2021 4503.01 1504.71 60.41 17.00  64.78 2973.29
   23:08:07.820.09-May-2021 4503.01 1518.13 60.41 17.00  64.98 2973.29
   23:08:08.020.09-May-2021 4503.01 1518.13 60.41 17.00  65.18 2973.29
   23:08:08.220.09-May-2021 4503.01 1545.46 60.41 17.00  65.38 2973.29
   23:08:08.420.09-May-2021 4503.01 1558.57 60.41 17.00  65.58 2973.29
   23:08:08.619.09-May-2021 4503.01 1571.88 60.41 17.00  65.78 2973.29
   23:08:08.819.09-May-2021 4503.01 1584.62 60.41 17.00  65.98 2973.29
   23:08:09.019.09-May-2021 4503.01 1584.62 60.41 17.00  66.18 2973.29
   23:08:09.219.09-May-2021 4503.01 1609.73 60.41 17.00  66.38 2973.29
   23:08:09.419.09-May-2021 4503.01 1621.99 60.41 17.00  66.58 2973.29
   23:08:09.619.09-May-2021 4503.01 1634.06 60.41 17.00  66.78 2973.29
   23:08:09.819.09-May-2021 4503.01 1646.00 60.42 17.00  66.98 2973.29
   23:08:10.019.09-May-2021 4503.01 1646.00 60.42 17.00  67.18 2973.29
   23:08:10.219.09-May-2021 4503.01 1669.63 60.42 17.00  67.38 2973.29
   23:08:10.419.09-May-2021 4503.01 1681.19 60.42 17.00  67.58 2973.29
