~Version Information
 VERS.                  2.0:   CWLS log ASCII Standard -VERSION 2.0
 WRAP.                   NO:   One line per depth step
~Well Information Block
#MNEM.UNIT     VALUE/NAME     DESCRIPTION
#---------     -----------    ---------------------------
 STRT.S             20:19:26 08-May-21: START TIME 20:19:26 08-May-21
 STOP.S             20:26:06 08-May-21: STOP TIME  20:26:06 08-May-21
 STEP.S                   0.00: STEP TIME
 NULL.                 -999.25: NULL VALUE
 PROV.                    Baku:  PROVINCE
 STAT.                    Baku:  STATE NAME
 SON .        AZ-XX-0906571588:  JOB NUMBER
 WTYP.                Deviated:  WELL TYPE
 COMP.     BP Exploration (Caspian Sea) ltd:  COMPANY
 BASE.              Azerbaijan:  LOGGING EQUIPMENT BASE LOCATION
 REGN.                   EESSA:  REGION
 CTRY.              Azerbaijan:  COUNTRY NAME
 FLD .                     ACG:  FIELD NAME
 WELL.                     J28:  WELL NAME
 RIG .             West Chirag:  RIG NAME
 DMF .             Drill Floor:  DRILL MEAS FROM
 PDAT.       Caspian Sea Level:  PERMANENT DATUM
 HPTY.       Minimum Curvature:  HOLE POS TYPE
 MDS .        Operator Entered:  MAG DATA SOURCE
 NREF.                    Grid:  NORTH REFERENCE
 SRVC.          TURAN DRILLING:  CONTRACTOR
 JOBN.        AZ-XX-0906571588:  JOB TICKET NUMB
 DCON.     Halliburton Sperry Drilling:  DIRECTNL CONTR
 STIM.      00.44.00 11-Feb-21:  START TIME
 DATE.      00.00.00 05-May-21:  END TIME
 SPUD.               13-Feb-21:  SPUD DATE
 MWDS.                    Baku:  MWD SHOP
 DOE .                     N/A:  DOE NUMBER
 UNIT.                     N/A:  LOGGING EQUIPMENT ID
 UWI .                     N/A:  UNIQUE WELL IDENTIFIER
 API .                     N/A:  API NUMBER
 CNTY.                        :  COUNTY
 LOC .                        :  LOCATION
 LMF .             Drill Floor:  LOG MEASURED FROM
 TVDS.m                  43.00:  TVDSS CORRECTN
 SDEP.m                 341.00:  START DEPTH
 EGL .m                   0.00:  GROUND ELEVATION
 WDMS.m                 169.80:  WD ELEV
 AGAP.m                  43.00:  AIR GAP
 EPD .m                   0.00:  ELEVATION
 APD .m                  43.00:  DEPTH ABOVE PD
 LATI.deg                40.13:  LATITUDE
 LONG.deg                51.22:  LONGITUDE
 UTMY.m             4443793.85:  UTM Y
 UTMX.m              519005.06:  UTM X
 WHEW.m                 -11.57:  WELL HEAD E/W
 WHNS.m                   8.57:  WELL HEAD N/S
 VSEW.m                 -11.57:  VERT SEC E/W
 VSNS.m                   8.57:  VERT SEC N/S
 DFWL.m                   0.00:  DISTANCE FWL
 DFSL.m                   0.00:  DISTANCE FSL
 VSDR.deg               299.34:  VERT SEC DIRECT
 GVFD.g                   1.00:  GRAVITY FIELD
 AZTC.deg                 6.36:  AZM TOTAL CORR
 MFLD.nT              50391.00:  MAGNETIC FIELD
 MDIP.deg                59.65:  MAGNETIC DIP
 MDEC.deg                 6.48:  MAGNETIC DECL
 GRDC.deg                 0.12:  GRID CORRECTION
 DEP .m                 334.96:  DEPTH
 TDD .m                1407.26:  TOTAL DEPTH (DRILLER)
 EKB .m                  43.00:  KB ELEVATION
 EDF .m                  43.00:  DF ELEVATION
 TDL .m                 228.00:  TOTAL DEPTH (LOGGER)
 VSC .                       0:  VS TO CLOSURE
 MAGU.                 1854484:  MAGUTM CHECKSUM
~Parameter Information Block
#MNEM.UNIT       Value        Description
#---------     -----------    ---------------------------
 AV  .mps                 4.00:  Ann Velocity 
 AVMX.mps                 4.73:  Max Ann Veloc 
 AZIF.deg               304.48:  Azm, Final 
 BHAT.        Rotary Steerable:  BHA Type 
 BREV.rev            257300.00:  Rev Bit Total 
 BROT.°/30m               0.00:  Build Rotating 
 BS  .in                  8.50:  Bit Size 
 BSZ .in                  8.50:  Bit Size 
 BTPL.psig              589.00:  Bit Press Loss 
 CABU.                      No:  Customer Abuse 
 CGEO.          Mubariz ghayev:  Customer Geo 
 COMM.                     $w`:  Run Comments 1 
 TCS .hr                 64.25:  Time Ciculation Ended 
 CV  .mps                 3.50:  Crit Velocity 
 CVMX.mps                 4.52:  Max Crit Veloc 
 DD1 .             Aziz Aliyev:  Direct Drillr 1 
 DD2 .         Intigam Rahimov:  Direct Drillr 2 
 DD3 .          Rashad Habibov:  Direct Drillr 3 
 DDSV.               Geo-Pilot:  DD Service 
 DEFF.%                  98.00:  % Det Eff 
 DLRX.°/30m               0.00:  Dogleg Rot Max 
 DLSO.°/30m               0.00:  Dogleg Oriented 
 DLSX.°/30m               0.00:  Dogleg Str Max 
 DRET.      10.45.04 08-May-21:  Drill End Time 
 DRST.      03.30.04 04-May-21:  Drill Start Tim 
 DTIM.hr                 14.97:  Time Drilling 
 EDEP.m                4640.01:  End Depth 
 ENG1.         Dail Mahammadov:  Engineer 1 
 ENG2.           Eldar Hajiyev:  Engineer 2 
 ENG3.       Bakhtiar Jabbarli:  Engineer 3 
 ENG4.       Natik Hasanagayev:  Engineer 4 
 ETIM.      09.30.04 14-May-21:  End Time 
 FLOI.gpm               460.00:  Flow In 
 FLON.gpm               200.00:  Flow In Min 
 FLOS.cptm                0.00:  Fluid Loss 
 FLOX.gpm               505.00:  Flow In Max 
 HFLO.                      No:  High Flow 
 HPRE.                      No:  High Pressure 
 HTEM.                      No:  High Temp 
 HYDO.m                   1.80:  Hydro Offset 
 IFIN.deg                66.71:  Inc, Final 
 IMAX.deg                67.03:  Inc Max 
 IMIN.deg                66.63:  Inc Min 
 IMND.m                4550.58:  Inc Min Depth 
 IMXD.m                4439.01:  Inc Max Depth 
 JARR.                      No:  Jarring 
 LETM.      10.45.04 08-May-21:  Log End Time 
 LOST.hr                     0:  Lost Rig Time 
 LSTM.      03.30.04 04-May-21:  Log Start Time 
 MDCL.ppm             37000.00:  Mud Chlorides 
 MDES.     Inversion Oil/Synthetic:  Mud Desc 
 DFD .sg                  1.38:  Mud Density 
 MDMN.sg                  1.35:  Dens Mud Min 
 MDMX.sg                  1.40:  Dens Mud Max 
 MOIL.                   57.40:  Run Mud Oil % 
 MOWR.                   70:30:  Run Mud OWR 
 MSND.                    0.00:  Run Mud Sand % 
 MSOL.                   18.00:  Run Mud Solids% 
 DFV .spqt               71.00:  Mud Viscosity 
 MWOD.in                  6.75:  MWD Tool OD 
 MWSI.                      No:  Serv Intrp, MWD 
 OTIM.hr                242.76:  Time Operating 
 PCON.           Look Like New:  Pad Condition 
 PMAX.psia            12183.92:  Press Op, Max 
 PV  .cP                 27.00:  Mud PV 
 RUN .                    1300:  Run Number 
 ROPA.m/hr               15.00:  ROP Avg 
 ROPN.m/hr                9.00:  ROP Min 
 ROPX.m/hr               19.00:  ROP Max 
 RPMA.rpm               120.00:  RPM Surface Avg 
 RPMN.rpm               100.00:  RPM Surface Min 
 RPMX.rpm               120.00:  RPM Surface Max 
 RRUN.                    1300:  Rig Run Number 
 RTIM.hr                  5.00:  Time Reaming 
 SAZI.deg               304.73:  Azm, Start 
 SDEP.m                4412.01:  Start Depth 
 SIDD.                      No:  Serv Intrp, DD 
 SINC.deg                66.82:  Inc, Start 
 SPPA.psig             2800.00:  SPP Avg 
 SPPN.psig             2610.00:  SPP Min 
 SPPX.psig             3100.00:  SPP Max 
 STIM.      03.30.00 04-May-21:  Start Time 
 SVCS.                 DD, MWD:  Services 
 SVER.                    9.20:  Sperry Version 
 TDAT.m                 228.00:  Tot Depth Attmp 
 TDDF.                      No:  Trip for DD 
 TDLG.m                 228.00:  Tot Depth Loggd 
 TFF .                      No:  Trip for Fail 
 TQAA.f-kp               15.00:  Torque Abs Avg 
 TQAN.f-kp               12.00:  Torque Abs Min 
 TQAX.f-kp               22.00:  Torque Abs Max 
 TRRT.°/30m               0.00:  Turn Rotating 
 MRT .                    HCIM:  Maximum Recorded Temperature 
 TTMX.degC               90.20:  Max Tool Temp 
 VS01.                90627813:  Virtual Str1 SN 
 VS02.                90634712:  Virtual Str2 SN 
 VS03.                90643410:  Virtual Str3 SN 
 VS04.                90634712:  Virtual Str4 SN 
 WBMN.klb                 9.00:  WOB Min 
 WITN.        Elmaddin Rahimov:  Customer Rep 
 WITN.         Haytham Mostafa:  Customer Rep 2 
 WOBA.klb                15.00:  WOB Avg 
 WOBX.klb                23.00:  WOB Max 
 YP  .lhf2               29.00:  Yield Point 
~Curve Information Block
#MNEM.UNIT                 API CODE     Curve Description
#---------               -----------    ---------------------------
 TIME.HHMMSS            00 000 000 000:  GT Time & Date
 GTDEPTH.m              00 000 000 000:  GT Depth
 GTPQH.psia             00 000 000 000:  GT HR Quartz Pressure
 GTTQ.degC              00 000 000 000:  GT Quartz Temperature
 GTTN.NONE              00 000 000 000:  GT Test Number
 GTET.sec               00 000 000 000:  GT Elapsed Test Time
 GTTVD.m                00 000 000 000:  GT True Vertical Depth
#Other Information
#
#WARRANTY: Halliburton will use its best efforts to furnish customers with 
#accurate information and interpretations that are part of, and incident to, the services 
#provided.  However, Halliburton cannot and does not warrant the accuracy 
#or correctness of such information and interpretations.  Under no circumstances should any 
#such information or interpretation be relied upon as the sole basis for any drilling, 
#completion, production, or financial decision or any procedure involving any risk to the 
#safety of any drilling venture, drilling rig or its crew or any other third party.  The 
#Customer has full responsibility for all drilling, completion and production operation.  
#Halliburton makes no representations or warranties, either expressed or 
#implied, including, but not limited to, the implied warranties of merchantability or fitness 
#for a particular purpose, with respect to the services rendered.  In no event will 
#Halliburton be liable for failure to obtain any particular results or for 
#any damages, including, but not limited to, indirect, special or consequential damages, 
#resulting from the use of any information or interpretation provided by Halliburton.
#
~A           TIME           GTDEPTH  GTPQH  GTTQ  GTTN  GTET   GTTVD  
# ...
   20:24:48.571.08-May-2021 4592.01 3776.31 69.13 1.00 322.03 3008.50
   20:24:48.771.08-May-2021 4592.01 3776.31 69.13 1.00 322.23 3008.50
   20:24:48.971.08-May-2021 4592.01 3776.33 69.13 1.00 322.43 3008.50
   20:24:49.171.08-May-2021 4592.01 3776.38 69.13 1.00 322.63 3008.50
   20:24:49.371.08-May-2021 4592.01 3776.27 69.13 1.00 322.83 3008.50
   20:24:49.571.08-May-2021 4592.01 3776.34 69.13 1.00 323.03 3008.50
   20:24:49.771.08-May-2021 4592.01 3776.34 69.13 1.00 323.23 3008.50
   20:24:49.971.08-May-2021 4592.01 3776.30 69.13 1.00 323.43 3008.50
   20:24:50.171.08-May-2021 4592.01 3776.37 69.13 1.00 323.63 3008.50
   20:24:50.371.08-May-2021 4592.01 3776.30 69.13 1.00 323.83 3008.50
   20:24:50.572.08-May-2021 4592.01 3776.35 69.13 1.00 324.03 3008.50
   20:24:50.772.08-May-2021 4592.01 3776.35 69.13 1.00 324.23 3008.50
   20:24:50.972.08-May-2021 4592.01 3776.37 69.13 1.00 324.43 3008.50
   20:24:51.172.08-May-2021 4592.01 3776.22 69.13 1.00 324.63 3008.50
   20:24:51.372.08-May-2021 4592.01 3776.57 69.13 1.00 324.83 3008.50
   20:24:51.572.08-May-2021 4592.01 3776.24 69.13 1.00 325.03 3008.50
   20:24:51.772.08-May-2021 4592.01 3776.24 69.13 1.00 325.23 3008.50
   20:24:51.972.08-May-2021 4592.01 3776.08 69.13 1.00 325.43 3008.50
   20:24:52.172.08-May-2021 4592.01 3776.59 69.13 1.00 325.63 3008.50
   20:24:52.372.08-May-2021 4592.01 3776.09 69.13 1.00 325.83 3008.50
   20:24:52.572.08-May-2021 4592.01 3776.58 69.13 1.00 326.03 3008.50
   20:24:52.772.08-May-2021 4592.01 3776.58 69.13 1.00 326.23 3008.50
   20:24:52.972.08-May-2021 4592.01 3776.22 69.13 1.00 326.43 3008.50
   20:24:53.172.08-May-2021 4592.01 3776.68 69.13 1.00 326.63 3008.50
   20:24:53.372.08-May-2021 4592.01 3775.98 69.13 1.00 326.83 3008.50
   20:24:53.572.08-May-2021 4592.01 3776.52 69.13 1.00 327.03 3008.50
   20:24:53.772.08-May-2021 4592.01 3776.52 69.13 1.00 327.23 3008.50
   20:24:53.972.08-May-2021 4592.01 3776.61 69.13 1.00 327.43 3008.50
   20:24:54.172.08-May-2021 4592.01 3776.22 69.13 1.00 327.63 3008.50
   20:24:54.372.08-May-2021 4592.01 3776.32 69.13 1.00 327.83 3008.50
   20:24:54.572.08-May-2021 4592.01 3776.31 69.13 1.00 328.03 3008.50
   20:24:54.772.08-May-2021 4592.01 3776.31 69.13 1.00 328.23 3008.50
   20:24:54.972.08-May-2021 4592.01 3776.29 69.13 1.00 328.43 3008.50
   20:24:55.172.08-May-2021 4592.01 3776.30 69.13 1.00 328.63 3008.50
   20:24:55.372.08-May-2021 4592.01 3776.35 69.13 1.00 328.83 3008.50
   20:24:55.572.08-May-2021 4592.01 3776.37 69.13 1.00 329.03 3008.50
   20:24:55.772.08-May-2021 4592.01 3776.37 69.13 1.00 329.23 3008.50
   20:24:55.972.08-May-2021 4592.01 3776.49 69.13 1.00 329.43 3008.50
   20:24:56.172.08-May-2021 4592.01 3776.22 69.13 1.00 329.63 3008.50
   20:24:56.372.08-May-2021 4592.01 3776.38 69.13 1.00 329.83 3008.50
   20:24:56.572.08-May-2021 4592.01 3776.30 69.13 1.00 330.03 3008.50
   20:24:56.772.08-May-2021 4592.01 3776.30 69.13 1.00 330.23 3008.50
   20:24:56.972.08-May-2021 4592.01 3776.55 69.13 1.00 330.43 3008.50
   20:24:57.172.08-May-2021 4592.01 3776.49 69.13 1.00 330.63 3008.50
   20:24:57.372.08-May-2021 4592.01 3776.17 69.13 1.00 330.83 3008.50
   20:24:57.572.08-May-2021 4592.01 3776.39 69.13 1.00 331.03 3008.50
   20:24:57.772.08-May-2021 4592.01 3776.39 69.13 1.00 331.23 3008.50
   20:24:57.972.08-May-2021 4592.01 3776.34 69.13 1.00 331.43 3008.50
   20:24:58.172.08-May-2021 4592.01 3776.28 69.13 1.00 331.63 3008.50
   20:24:58.372.08-May-2021 4592.01 3776.38 69.13 1.00 331.83 3008.50
   20:24:58.572.08-May-2021 4592.01 3776.34 69.13 1.00 332.03 3008.50
   20:24:58.772.08-May-2021 4592.01 3776.34 69.13 1.00 332.23 3008.50
   20:24:58.972.08-May-2021 4592.01 3776.35 69.13 1.00 332.43 3008.50
   20:24:59.172.08-May-2021 4592.01 3776.22 69.13 1.00 332.63 3008.50
   20:24:59.372.08-May-2021 4592.01 3776.60 69.13 1.00 332.83 3008.50
   20:24:59.572.08-May-2021 4592.01 3776.19 69.13 1.00 333.03 3008.50
   20:24:59.772.08-May-2021 4592.01 3776.19 69.13 1.00 333.23 3008.50
   20:24:59.972.08-May-2021 4592.01 3776.24 69.13 1.00 333.43 3008.50
   20:25:00.173.08-May-2021 4592.01 3776.48 69.13 1.00 333.63 3008.50
   20:25:00.373.08-May-2021 4592.01 3776.13 69.13 1.00 333.83 3008.50
   20:25:00.573.08-May-2021 4592.01 3776.48 69.13 1.00 334.03 3008.50
   20:25:00.773.08-May-2021 4592.01 3776.48 69.13 1.00 334.23 3008.50
   20:25:00.973.08-May-2021 4592.01 3776.32 69.13 1.00 334.43 3008.50
   20:25:01.173.08-May-2021 4592.01 3776.65 69.13 1.00 334.63 3008.50
   20:25:01.373.08-May-2021 4592.01 3776.00 69.13 1.00 334.83 3008.50
   20:25:01.573.08-May-2021 4592.01 3776.55 69.13 1.00 335.03 3008.50
   20:25:01.773.08-May-2021 4592.01 3776.55 69.13 1.00 335.23 3008.50
   20:25:01.973.08-May-2021 4592.01 3776.58 69.13 1.00 335.43 3008.50
   20:25:02.173.08-May-2021 4592.01 3776.17 69.13 1.00 335.63 3008.50
   20:25:02.373.08-May-2021 4592.01 3776.38 69.13 1.00 335.83 3008.50
   20:25:02.573.08-May-2021 4592.01 3776.24 69.13 1.00 336.03 3008.50
   20:25:02.773.08-May-2021 4592.01 3776.24 69.13 1.00 336.23 3008.50
   20:25:02.973.08-May-2021 4592.01 3776.31 69.13 1.00 336.43 3008.50
   20:25:03.173.08-May-2021 4592.01 3776.35 69.13 1.00 336.63 3008.50
   20:25:03.373.08-May-2021 4592.01 3776.32 69.13 1.00 336.83 3008.50
   20:25:03.573.08-May-2021 4592.01 3776.30 69.13 1.00 337.03 3008.50
   20:25:03.773.08-May-2021 4592.01 3776.30 69.13 1.00 337.23 3008.50
   20:25:03.973.08-May-2021 4592.01 3776.29 69.13 1.00 337.43 3008.50
   20:25:04.173.08-May-2021 4592.01 3776.33 69.13 1.00 337.63 3008.50
   20:25:04.373.08-May-2021 4592.01 3776.37 69.13 1.00 337.83 3008.50
   20:25:04.573.08-May-2021 4592.01 3776.23 69.13 1.00 338.03 3008.50
   20:25:04.773.08-May-2021 4592.01 3776.23 69.13 1.00 338.23 3008.50
   20:25:04.973.08-May-2021 4592.01 3776.61 69.13 1.00 338.43 3008.50
   20:25:05.173.08-May-2021 4592.01 3776.35 69.13 1.00 338.64 3008.50
   20:25:05.373.08-May-2021 4592.01 3776.27 69.13 1.00 338.84 3008.50
   20:25:05.573.08-May-2021 4592.01 3776.31 69.13 1.00 339.04 3008.50
   20:25:05.773.08-May-2021 4592.01 3776.31 69.13 1.00 339.24 3008.50
   20:25:05.973.08-May-2021 4592.01 3776.40 69.13 1.00 339.44 3008.50
   20:25:06.173.08-May-2021 4592.01 3776.21 69.13 1.00 339.64 3008.50
   20:25:06.373.08-May-2021 4592.01 3776.39 69.13 1.00 339.84 3008.50
   20:25:06.573.08-May-2021 4592.01 3776.30 69.13 1.00 340.04 3008.50
   20:25:06.773.08-May-2021 4592.01 3776.30 69.13 1.00 340.24 3008.50
   20:25:06.973.08-May-2021 4592.01 3776.43 69.13 1.00 340.44 3008.50
   20:25:07.173.08-May-2021 4592.01 3776.16 69.13 1.00 340.64 3008.50
   20:25:07.373.08-May-2021 4592.01 3776.58 69.13 1.00 340.84 3008.50
   20:25:07.573.08-May-2021 4592.01 3776.28 69.13 1.00 341.04 3008.50
   20:25:07.773.08-May-2021 4592.01 3776.28 69.13 1.00 341.24 3008.50
   20:25:07.973.08-May-2021 4592.01 3776.07 69.13 1.00 341.44 3008.50
   20:25:08.173.08-May-2021 4592.01 3776.50 69.13 1.00 341.64 3008.50
   20:25:08.373.08-May-2021 4592.01 3776.25 69.13 1.00 341.84 3008.50
   20:25:08.573.08-May-2021 4592.01 3776.43 69.13 1.00 342.04 3008.50
   20:25:08.773.08-May-2021 4592.01 3776.43 69.13 1.00 342.24 3008.50
   20:25:08.973.08-May-2021 4592.01 3776.24 69.13 1.00 342.44 3008.50
   20:25:09.173.08-May-2021 4592.01 3776.61 69.13 1.00 342.64 3008.50
   20:25:09.373.08-May-2021 4592.01 3775.96 69.13 1.00 342.84 3008.50
   20:25:09.573.08-May-2021 4592.01 3776.52 69.13 1.00 343.04 3008.50
   20:25:09.774.08-May-2021 4592.01 3776.52 69.13 1.00 343.24 3008.50
   20:25:09.974.08-May-2021 4592.01 3776.65 69.13 1.00 343.44 3008.50
   20:25:10.174.08-May-2021 4592.01 3776.09 69.13 1.00 343.64 3008.50
   20:25:10.374.08-May-2021 4592.01 3776.40 69.13 1.00 343.84 3008.50
   20:25:10.574.08-May-2021 4592.01 3776.29 69.13 1.00 344.04 3008.50
   20:25:10.774.08-May-2021 4592.01 3776.29 69.13 1.00 344.24 3008.50
   20:25:10.974.08-May-2021 4592.01 3776.34 69.13 1.00 344.44 3008.50
   20:25:11.174.08-May-2021 4592.01 3776.33 69.13 1.00 344.64 3008.50
   20:25:11.374.08-May-2021 4592.01 3776.32 69.13 1.00 344.84 3008.50
