~Version Information
 VERS.                  2.0:   CWLS log ASCII Standard -VERSION 2.0
 WRAP.                   NO:   One line per depth step
~Well Information Block
#MNEM.UNIT     VALUE/NAME     DESCRIPTION
#---------     -----------    ---------------------------
 STRT.S             02:17:40 10-May-21: START TIME 02:17:40 10-May-21
 STOP.S             02:25:48 10-May-21: STOP TIME  02:25:48 10-May-21
 STEP.S                   0.00: STEP TIME
 NULL.                 -999.25: NULL VALUE
 PROV.                    Baku:  PROVINCE
 STAT.                    Baku:  STATE NAME
 SON .        AZ-XX-0906571588:  JOB NUMBER
 WTYP.                Deviated:  WELL TYPE
 COMP.     BP Exploration (Caspian Sea) ltd:  COMPANY
 BASE.              Azerbaijan:  LOGGING EQUIPMENT BASE LOCATION
 REGN.                   EESSA:  REGION
 CTRY.              Azerbaijan:  COUNTRY NAME
 FLD .                     ACG:  FIELD NAME
 WELL.                     J28:  WELL NAME
 RIG .             West Chirag:  RIG NAME
 DMF .             Drill Floor:  DRILL MEAS FROM
 PDAT.       Caspian Sea Level:  PERMANENT DATUM
 HPTY.       Minimum Curvature:  HOLE POS TYPE
 MDS .        Operator Entered:  MAG DATA SOURCE
 NREF.                    Grid:  NORTH REFERENCE
 SRVC.          TURAN DRILLING:  CONTRACTOR
 JOBN.        AZ-XX-0906571588:  JOB TICKET NUMB
 DCON.     Halliburton Sperry Drilling:  DIRECTNL CONTR
 STIM.      00.44.00 11-Feb-21:  START TIME
 DATE.      00.00.00 05-May-21:  END TIME
 SPUD.               13-Feb-21:  SPUD DATE
 MWDS.                    Baku:  MWD SHOP
 DOE .                     N/A:  DOE NUMBER
 UNIT.                     N/A:  LOGGING EQUIPMENT ID
 UWI .                     N/A:  UNIQUE WELL IDENTIFIER
 API .                     N/A:  API NUMBER
 CNTY.                        :  COUNTY
 LOC .                        :  LOCATION
 LMF .             Drill Floor:  LOG MEASURED FROM
 TVDS.m                  43.00:  TVDSS CORRECTN
 SDEP.m                 341.00:  START DEPTH
 EGL .m                   0.00:  GROUND ELEVATION
 WDMS.m                 169.80:  WD ELEV
 AGAP.m                  43.00:  AIR GAP
 EPD .m                   0.00:  ELEVATION
 APD .m                  43.00:  DEPTH ABOVE PD
 LATI.deg                40.13:  LATITUDE
 LONG.deg                51.22:  LONGITUDE
 UTMY.m             4443793.85:  UTM Y
 UTMX.m              519005.06:  UTM X
 WHEW.m                 -11.57:  WELL HEAD E/W
 WHNS.m                   8.57:  WELL HEAD N/S
 VSEW.m                 -11.57:  VERT SEC E/W
 VSNS.m                   8.57:  VERT SEC N/S
 DFWL.m                   0.00:  DISTANCE FWL
 DFSL.m                   0.00:  DISTANCE FSL
 VSDR.deg               299.34:  VERT SEC DIRECT
 GVFD.g                   1.00:  GRAVITY FIELD
 AZTC.deg                 6.36:  AZM TOTAL CORR
 MFLD.nT              50391.00:  MAGNETIC FIELD
 MDIP.deg                59.65:  MAGNETIC DIP
 MDEC.deg                 6.48:  MAGNETIC DECL
 GRDC.deg                 0.12:  GRID CORRECTION
 DEP .m                 334.96:  DEPTH
 TDD .m                1407.26:  TOTAL DEPTH (DRILLER)
 EKB .m                  43.00:  KB ELEVATION
 EDF .m                  43.00:  DF ELEVATION
 TDL .m                 228.00:  TOTAL DEPTH (LOGGER)
 VSC .                       0:  VS TO CLOSURE
 MAGU.                 1854484:  MAGUTM CHECKSUM
~Parameter Information Block
#MNEM.UNIT       Value        Description
#---------     -----------    ---------------------------
 AV  .mps                 4.00:  Ann Velocity 
 AVMX.mps                 4.73:  Max Ann Veloc 
 AZIF.deg               304.48:  Azm, Final 
 BHAT.        Rotary Steerable:  BHA Type 
 BREV.rev            257300.00:  Rev Bit Total 
 BROT.°/30m               0.00:  Build Rotating 
 BS  .in                  8.50:  Bit Size 
 BSZ .in                  8.50:  Bit Size 
 BTPL.psig              589.00:  Bit Press Loss 
 CABU.                      No:  Customer Abuse 
 CGEO.          Mubariz ghayev:  Customer Geo 
 COMM.                     …:  Run Comments 1 
 TCS .hr                 64.25:  Time Ciculation Ended 
 CV  .mps                 3.50:  Crit Velocity 
 CVMX.mps                 4.52:  Max Crit Veloc 
 DD1 .             Aziz Aliyev:  Direct Drillr 1 
 DD2 .         Intigam Rahimov:  Direct Drillr 2 
 DD3 .          Rashad Habibov:  Direct Drillr 3 
 DDSV.               Geo-Pilot:  DD Service 
 DEFF.%                  98.00:  % Det Eff 
 DLRX.°/30m               0.00:  Dogleg Rot Max 
 DLSO.°/30m               0.00:  Dogleg Oriented 
 DLSX.°/30m               0.00:  Dogleg Str Max 
 DRET.      10.45.04 08-May-21:  Drill End Time 
 DRST.      03.30.04 04-May-21:  Drill Start Tim 
 DTIM.hr                 14.97:  Time Drilling 
 EDEP.m                4640.01:  End Depth 
 ENG1.         Dail Mahammadov:  Engineer 1 
 ENG2.           Eldar Hajiyev:  Engineer 2 
 ENG3.       Bakhtiar Jabbarli:  Engineer 3 
 ENG4.       Natik Hasanagayev:  Engineer 4 
 ETIM.      09.30.04 14-May-21:  End Time 
 FLOI.gpm               460.00:  Flow In 
 FLON.gpm               200.00:  Flow In Min 
 FLOS.cptm                0.00:  Fluid Loss 
 FLOX.gpm               505.00:  Flow In Max 
 HFLO.                      No:  High Flow 
 HPRE.                      No:  High Pressure 
 HTEM.                      No:  High Temp 
 HYDO.m                   1.80:  Hydro Offset 
 IFIN.deg                66.71:  Inc, Final 
 IMAX.deg                67.03:  Inc Max 
 IMIN.deg                66.63:  Inc Min 
 IMND.m                4550.58:  Inc Min Depth 
 IMXD.m                4439.01:  Inc Max Depth 
 JARR.                      No:  Jarring 
 LETM.      10.45.04 08-May-21:  Log End Time 
 LOST.hr                     0:  Lost Rig Time 
 LSTM.      03.30.04 04-May-21:  Log Start Time 
 MDCL.ppm             37000.00:  Mud Chlorides 
 MDES.     Inversion Oil/Synthetic:  Mud Desc 
 DFD .sg                  1.38:  Mud Density 
 MDMN.sg                  1.35:  Dens Mud Min 
 MDMX.sg                  1.40:  Dens Mud Max 
 MOIL.                   57.40:  Run Mud Oil % 
 MOWR.                   70:30:  Run Mud OWR 
 MSND.                    0.00:  Run Mud Sand % 
 MSOL.                   18.00:  Run Mud Solids% 
 DFV .spqt               71.00:  Mud Viscosity 
 MWOD.in                  6.75:  MWD Tool OD 
 MWSI.                      No:  Serv Intrp, MWD 
 OTIM.hr                242.76:  Time Operating 
 PCON.           Look Like New:  Pad Condition 
 PMAX.psia            12183.92:  Press Op, Max 
 PV  .cP                 27.00:  Mud PV 
 RUN .                    1300:  Run Number 
 ROPA.m/hr               15.00:  ROP Avg 
 ROPN.m/hr                9.00:  ROP Min 
 ROPX.m/hr               19.00:  ROP Max 
 RPMA.rpm               120.00:  RPM Surface Avg 
 RPMN.rpm               100.00:  RPM Surface Min 
 RPMX.rpm               120.00:  RPM Surface Max 
 RRUN.                    1300:  Rig Run Number 
 RTIM.hr                  5.00:  Time Reaming 
 SAZI.deg               304.73:  Azm, Start 
 SDEP.m                4412.01:  Start Depth 
 SIDD.                      No:  Serv Intrp, DD 
 SINC.deg                66.82:  Inc, Start 
 SPPA.psig             2800.00:  SPP Avg 
 SPPN.psig             2610.00:  SPP Min 
 SPPX.psig             3100.00:  SPP Max 
 STIM.      03.30.00 04-May-21:  Start Time 
 SVCS.                 DD, MWD:  Services 
 SVER.                    9.20:  Sperry Version 
 TDAT.m                 228.00:  Tot Depth Attmp 
 TDDF.                      No:  Trip for DD 
 TDLG.m                 228.00:  Tot Depth Loggd 
 TFF .                      No:  Trip for Fail 
 TQAA.f-kp               15.00:  Torque Abs Avg 
 TQAN.f-kp               12.00:  Torque Abs Min 
 TQAX.f-kp               22.00:  Torque Abs Max 
 TRRT.°/30m               0.00:  Turn Rotating 
 MRT .                    HCIM:  Maximum Recorded Temperature 
 TTMX.degC               90.20:  Max Tool Temp 
 VS01.                90627813:  Virtual Str1 SN 
 VS02.                90634712:  Virtual Str2 SN 
 VS03.                90643410:  Virtual Str3 SN 
 VS04.                90634712:  Virtual Str4 SN 
 WBMN.klb                 9.00:  WOB Min 
 WITN.        Elmaddin Rahimov:  Customer Rep 
 WITN.         Haytham Mostafa:  Customer Rep 2 
 WOBA.klb                15.00:  WOB Avg 
 WOBX.klb                23.00:  WOB Max 
 YP  .lhf2               29.00:  Yield Point 
~Curve Information Block
#MNEM.UNIT                 API CODE     Curve Description
#---------               -----------    ---------------------------
 TIME.HHMMSS            00 000 000 000:  GT Time & Date
 GTDEPTH.m              00 000 000 000:  GT Depth
 GTPQH.psia             00 000 000 000:  GT HR Quartz Pressure
 GTTQ.degC              00 000 000 000:  GT Quartz Temperature
 GTTN.NONE              00 000 000 000:  GT Test Number
 GTET.sec               00 000 000 000:  GT Elapsed Test Time
 GTTVD.m                00 000 000 000:  GT True Vertical Depth
#Other Information
#
#WARRANTY: Halliburton will use its best efforts to furnish customers with 
#accurate information and interpretations that are part of, and incident to, the services 
#provided.  However, Halliburton cannot and does not warrant the accuracy 
#or correctness of such information and interpretations.  Under no circumstances should any 
#such information or interpretation be relied upon as the sole basis for any drilling, 
#completion, production, or financial decision or any procedure involving any risk to the 
#safety of any drilling venture, drilling rig or its crew or any other third party.  The 
#Customer has full responsibility for all drilling, completion and production operation.  
#Halliburton makes no representations or warranties, either expressed or 
#implied, including, but not limited to, the implied warranties of merchantability or fitness 
#for a particular purpose, with respect to the services rendered.  In no event will 
#Halliburton be liable for failure to obtain any particular results or for 
#any damages, including, but not limited to, indirect, special or consequential damages, 
#resulting from the use of any information or interpretation provided by Halliburton.
#
~A           TIME           GTDEPTH  GTPQH  GTTQ  GTTN   GTET   GTTVD  
# ...
   02:23:19.693.10-May-2021 4568.01  496.26 60.31 20.00 339.06 2998.98
   02:23:19.893.10-May-2021 4568.01  496.26 60.31 20.00 339.26 2998.98
   02:23:20.093.10-May-2021 4568.01  496.53 60.31 20.00 339.46 2998.98
   02:23:20.293.10-May-2021 4568.01  496.70 60.31 20.00 339.66 2998.98
   02:23:20.493.10-May-2021 4568.01  496.62 60.31 20.00 339.86 2998.98
   02:23:20.693.10-May-2021 4568.01  496.44 60.31 20.00 340.06 2998.98
   02:23:20.893.10-May-2021 4568.01  496.44 60.31 20.00 340.26 2998.98
   02:23:21.093.10-May-2021 4568.01  496.83 60.31 20.00 340.46 2998.98
   02:23:21.293.10-May-2021 4568.01  496.76 60.31 20.00 340.66 2998.98
   02:23:21.493.10-May-2021 4568.01  496.38 60.31 20.00 340.86 2998.98
   02:23:21.693.10-May-2021 4568.01  497.10 60.31 20.00 341.06 2998.98
   02:23:21.893.10-May-2021 4568.01  497.10 60.31 20.00 341.26 2998.98
   02:23:22.093.10-May-2021 4568.01  496.75 60.31 20.00 341.46 2998.98
   02:23:22.293.10-May-2021 4568.01  496.81 60.31 20.00 341.66 2998.98
   02:23:22.493.10-May-2021 4568.01  496.80 60.31 20.00 341.86 2998.98
   02:23:22.693.10-May-2021 4568.01  496.83 60.31 20.00 342.06 2998.98
   02:23:22.893.10-May-2021 4568.01  496.83 60.31 20.00 342.26 2998.98
   02:23:23.093.10-May-2021 4568.01  496.87 60.31 20.00 342.46 2998.98
   02:23:23.293.10-May-2021 4568.01  496.89 60.31 20.00 342.66 2998.98
   02:23:23.493.10-May-2021 4568.01  496.90 60.31 20.00 342.86 2998.98
   02:23:23.693.10-May-2021 4568.01  496.94 60.31 20.00 343.06 2998.98
   02:23:23.893.10-May-2021 4568.01  496.94 60.31 20.00 343.26 2998.98
   02:23:24.093.10-May-2021 4568.01  497.16 60.31 20.00 343.46 2998.98
   02:23:24.293.10-May-2021 4568.01  497.02 60.31 20.00 343.66 2998.98
   02:23:24.493.10-May-2021 4568.01  497.12 60.31 20.00 343.86 2998.98
   02:23:24.693.10-May-2021 4568.01  497.00 60.31 20.00 344.06 2998.98
   02:23:24.893.10-May-2021 4568.01  497.00 60.31 20.00 344.26 2998.98
   02:23:25.094.10-May-2021 4568.01  497.05 60.31 20.00 344.46 2998.98
   02:23:25.294.10-May-2021 4568.01  497.09 60.30 20.00 344.66 2998.98
   02:23:25.494.10-May-2021 4568.01  497.10 60.31 20.00 344.86 2998.98
   02:23:25.694.10-May-2021 4568.01  497.12 60.30 20.00 345.06 2998.98
   02:23:25.894.10-May-2021 4568.01  497.12 60.30 20.00 345.26 2998.98
   02:23:26.094.10-May-2021 4568.01  497.15 60.30 20.00 345.46 2998.98
   02:23:26.294.10-May-2021 4568.01  497.17 60.31 20.00 345.66 2998.98
   02:23:26.494.10-May-2021 4568.01  496.78 60.30 20.00 345.86 2998.98
   02:23:26.694.10-May-2021 4568.01  497.62 60.30 20.00 346.06 2998.98
   02:23:26.894.10-May-2021 4568.01  497.62 60.30 20.00 346.26 2998.98
   02:23:27.094.10-May-2021 4568.01  497.34 60.30 20.00 346.46 2998.98
   02:23:27.294.10-May-2021 4568.01  497.23 60.31 20.00 346.66 2998.98
   02:23:27.494.10-May-2021 4568.01  497.06 60.30 20.00 346.86 2998.98
   02:23:27.694.10-May-2021 4568.01  497.25 60.30 20.00 347.06 2998.98
   02:23:27.894.10-May-2021 4568.01  497.25 60.30 20.00 347.26 2998.98
   02:23:28.094.10-May-2021 4568.01  497.40 60.30 20.00 347.46 2998.98
   02:23:28.294.10-May-2021 4568.01  497.34 60.30 20.00 347.66 2998.98
   02:23:28.494.10-May-2021 4568.01  497.35 60.30 20.00 347.86 2998.98
   02:23:28.694.10-May-2021 4568.01  497.08 60.30 20.00 348.06 2998.98
   02:23:28.894.10-May-2021 4568.01  497.08 60.30 20.00 348.26 2998.98
   02:23:29.094.10-May-2021 4568.01  497.40 60.30 20.00 348.46 2998.98
   02:23:29.294.10-May-2021 4568.01  497.45 60.30 20.00 348.66 2998.98
   02:23:29.494.10-May-2021 4568.01  497.50 60.30 20.00 348.86 2998.98
   02:23:29.694.10-May-2021 4568.01  496.97 60.30 20.00 349.06 2998.98
   02:23:29.894.10-May-2021 4568.01  496.97 60.30 20.00 349.26 2998.98
   02:23:30.094.10-May-2021 4568.01  497.37 60.30 20.00 349.46 2998.98
   02:23:30.294.10-May-2021 4568.01  497.60 60.30 20.00 349.66 2998.98
   02:23:30.494.10-May-2021 4568.01  497.50 60.30 20.00 349.86 2998.98
   02:23:30.695.10-May-2021 4568.01  497.52 60.30 20.00 350.06 2998.98
   02:23:30.895.10-May-2021 4568.01  497.52 60.30 20.00 350.26 2998.98
   02:23:31.095.10-May-2021 4568.01  497.53 60.30 20.00 350.46 2998.98
   02:23:31.295.10-May-2021 4568.01  497.55 60.30 20.00 350.66 2998.98
   02:23:31.495.10-May-2021 4568.01  497.56 60.30 20.00 350.86 2998.98
   02:23:31.695.10-May-2021 4568.01  497.59 60.30 20.00 351.06 2998.98
   02:23:31.895.10-May-2021 4568.01  497.59 60.30 20.00 351.26 2998.98
   02:23:32.095.10-May-2021 4568.01  497.65 60.30 20.00 351.46 2998.98
   02:23:32.295.10-May-2021 4568.01  497.23 60.30 20.00 351.66 2998.98
   02:23:32.495.10-May-2021 4568.01  497.91 60.30 20.00 351.86 2998.98
   02:23:32.695.10-May-2021 4568.01  497.70 60.30 20.00 352.06 2998.98
   02:23:32.895.10-May-2021 4568.01  497.70 60.30 20.00 352.26 2998.98
   02:23:33.095.10-May-2021 4568.01  497.75 60.30 20.00 352.46 2998.98
   02:23:33.295.10-May-2021 4568.01  497.73 60.30 20.00 352.66 2998.98
   02:23:33.495.10-May-2021 4568.01  497.75 60.30 20.00 352.86 2998.98
   02:23:33.695.10-May-2021 4568.01  497.77 60.30 20.00 353.06 2998.98
   02:23:33.895.10-May-2021 4568.01  497.77 60.30 20.00 353.26 2998.98
   02:23:34.095.10-May-2021 4568.01  497.80 60.30 20.00 353.46 2998.98
   02:23:34.295.10-May-2021 4568.01  497.82 60.30 20.00 353.66 2998.98
   02:23:34.495.10-May-2021 4568.01  497.86 60.30 20.00 353.86 2998.98
   02:23:34.695.10-May-2021 4568.01  497.64 60.30 20.00 354.06 2998.98
   02:23:34.895.10-May-2021 4568.01  497.64 60.30 20.00 354.26 2998.98
   02:23:35.095.10-May-2021 4568.01  498.01 60.30 20.00 354.46 2998.98
   02:23:35.295.10-May-2021 4568.01  497.97 60.30 20.00 354.66 2998.98
   02:23:35.495.10-May-2021 4568.01  497.97 60.30 20.00 354.86 2998.98
   02:23:35.695.10-May-2021 4568.01  497.99 60.30 20.00 355.06 2998.98
   02:23:35.895.10-May-2021 4568.01  497.99 60.30 20.00 355.26 2998.98
   02:23:36.095.10-May-2021 4568.01  498.16 60.30 20.00 355.46 2998.98
   02:23:36.296.10-May-2021 4568.01  497.94 60.30 20.00 355.66 2998.98
   02:23:36.496.10-May-2021 4568.01  498.02 60.30 20.00 355.86 2998.98
   02:23:36.696.10-May-2021 4568.01  498.07 60.30 20.00 356.06 2998.98
   02:23:36.896.10-May-2021 4568.01  498.07 60.30 20.00 356.26 2998.98
   02:23:37.096.10-May-2021 4568.01  498.14 60.30 20.00 356.46 2998.98
   02:23:37.296.10-May-2021 4568.01  497.98 60.30 20.00 356.66 2998.98
   02:23:37.496.10-May-2021 4568.01  498.16 60.30 20.00 356.86 2998.98
   02:23:37.696.10-May-2021 4568.01  498.09 60.30 20.00 357.06 2998.98
   02:23:37.896.10-May-2021 4568.01  498.09 60.30 20.00 357.26 2998.98
   02:23:38.096.10-May-2021 4568.01  497.98 60.30 20.00 357.46 2998.98
   02:23:38.296.10-May-2021 4568.01  498.20 60.30 20.00 357.66 2998.98
   02:23:38.496.10-May-2021 4568.01  498.15 60.30 20.00 357.86 2998.98
   02:23:38.696.10-May-2021 4568.01  498.13 60.30 20.00 358.06 2998.98
   02:23:38.896.10-May-2021 4568.01  498.13 60.30 20.00 358.26 2998.98
   02:23:39.096.10-May-2021 4568.01  498.15 60.30 20.00 358.46 2998.98
   02:23:39.296.10-May-2021 4568.01  498.16 60.30 20.00 358.66 2998.98
   02:23:39.496.10-May-2021 4568.01  498.17 60.30 20.00 358.86 2998.98
   02:23:39.696.10-May-2021 4568.01  498.19 60.30 20.00 359.06 2998.98
   02:23:39.896.10-May-2021 4568.01  498.19 60.30 20.00 359.26 2998.98
   02:23:40.096.10-May-2021 4568.01  498.26 60.30 20.00 359.46 2998.98
   02:23:40.296.10-May-2021 4568.01  498.30 60.30 20.00 359.66 2998.98
   02:23:40.496.10-May-2021 4568.01  497.84 60.30 20.00 359.86 2998.98
   02:23:40.696.10-May-2021 4568.01  498.60 60.30 20.00 360.06 2998.98
   02:23:40.896.10-May-2021 4568.01  498.60 60.30 20.00 360.26 2998.98
   02:23:41.096.10-May-2021 4568.01  498.43 60.30 20.00 360.46 2998.98
   02:23:41.296.10-May-2021 4568.01  498.35 60.30 20.00 360.66 2998.98
   02:23:41.496.10-May-2021 4568.01  498.36 60.30 20.00 360.86 2998.98
   02:23:41.696.10-May-2021 4568.01  498.38 60.30 20.00 361.06 2998.98
   02:23:41.897.10-May-2021 4568.01  498.38 60.30 20.00 361.26 2998.98
   02:23:42.097.10-May-2021 4568.01  498.38 60.30 20.00 361.46 2998.98
