~Version Information
 VERS.                  2.0:   CWLS log ASCII Standard -VERSION 2.0
 WRAP.                   NO:   One line per depth step
~Well Information Block
#MNEM.UNIT     VALUE/NAME     DESCRIPTION
#---------     -----------    ---------------------------
 STRT.S             00:12:22 09-May-21: START TIME 00:12:22 09-May-21
 STOP.S             00:19:08 09-May-21: STOP TIME  00:19:08 09-May-21
 STEP.S                   0.00: STEP TIME
 NULL.                 -999.25: NULL VALUE
 PROV.                    Baku:  PROVINCE
 STAT.                    Baku:  STATE NAME
 SON .        AZ-XX-0906571588:  JOB NUMBER
 WTYP.                Deviated:  WELL TYPE
 COMP.     BP Exploration (Caspian Sea) ltd:  COMPANY
 BASE.              Azerbaijan:  LOGGING EQUIPMENT BASE LOCATION
 REGN.                   EESSA:  REGION
 CTRY.              Azerbaijan:  COUNTRY NAME
 FLD .                     ACG:  FIELD NAME
 WELL.                     J28:  WELL NAME
 RIG .             West Chirag:  RIG NAME
 DMF .             Drill Floor:  DRILL MEAS FROM
 PDAT.       Caspian Sea Level:  PERMANENT DATUM
 HPTY.       Minimum Curvature:  HOLE POS TYPE
 MDS .        Operator Entered:  MAG DATA SOURCE
 NREF.                    Grid:  NORTH REFERENCE
 SRVC.          TURAN DRILLING:  CONTRACTOR
 JOBN.        AZ-XX-0906571588:  JOB TICKET NUMB
 DCON.     Halliburton Sperry Drilling:  DIRECTNL CONTR
 STIM.      00.44.00 11-Feb-21:  START TIME
 DATE.      00.00.00 05-May-21:  END TIME
 SPUD.               13-Feb-21:  SPUD DATE
 MWDS.                    Baku:  MWD SHOP
 DOE .                     N/A:  DOE NUMBER
 UNIT.                     N/A:  LOGGING EQUIPMENT ID
 UWI .                     N/A:  UNIQUE WELL IDENTIFIER
 API .                     N/A:  API NUMBER
 CNTY.                        :  COUNTY
 LOC .                        :  LOCATION
 LMF .             Drill Floor:  LOG MEASURED FROM
 TVDS.m                  43.00:  TVDSS CORRECTN
 SDEP.m                 341.00:  START DEPTH
 EGL .m                   0.00:  GROUND ELEVATION
 WDMS.m                 169.80:  WD ELEV
 AGAP.m                  43.00:  AIR GAP
 EPD .m                   0.00:  ELEVATION
 APD .m                  43.00:  DEPTH ABOVE PD
 LATI.deg                40.13:  LATITUDE
 LONG.deg                51.22:  LONGITUDE
 UTMY.m             4443793.85:  UTM Y
 UTMX.m              519005.06:  UTM X
 WHEW.m                 -11.57:  WELL HEAD E/W
 WHNS.m                   8.57:  WELL HEAD N/S
 VSEW.m                 -11.57:  VERT SEC E/W
 VSNS.m                   8.57:  VERT SEC N/S
 DFWL.m                   0.00:  DISTANCE FWL
 DFSL.m                   0.00:  DISTANCE FSL
 VSDR.deg               299.34:  VERT SEC DIRECT
 GVFD.g                   1.00:  GRAVITY FIELD
 AZTC.deg                 6.36:  AZM TOTAL CORR
 MFLD.nT              50391.00:  MAGNETIC FIELD
 MDIP.deg                59.65:  MAGNETIC DIP
 MDEC.deg                 6.48:  MAGNETIC DECL
 GRDC.deg                 0.12:  GRID CORRECTION
 DEP .m                 334.96:  DEPTH
 TDD .m                1407.26:  TOTAL DEPTH (DRILLER)
 EKB .m                  43.00:  KB ELEVATION
 EDF .m                  43.00:  DF ELEVATION
 TDL .m                 228.00:  TOTAL DEPTH (LOGGER)
 VSC .                       0:  VS TO CLOSURE
 MAGU.                 1854484:  MAGUTM CHECKSUM
~Parameter Information Block
#MNEM.UNIT       Value        Description
#---------     -----------    ---------------------------
 AV  .mps                 4.00:  Ann Velocity 
 AVMX.mps                 4.73:  Max Ann Veloc 
 AZIF.deg               304.48:  Azm, Final 
 BHAT.        Rotary Steerable:  BHA Type 
 BREV.rev            257300.00:  Rev Bit Total 
 BROT.°/30m               0.00:  Build Rotating 
 BS  .in                  8.50:  Bit Size 
 BSZ .in                  8.50:  Bit Size 
 BTPL.psig              589.00:  Bit Press Loss 
 CABU.                      No:  Customer Abuse 
 CGEO.          Mubariz ghayev:  Customer Geo 
 COMM.                     <Š|:  Run Comments 1 
 TCS .hr                 64.25:  Time Ciculation Ended 
 CV  .mps                 3.50:  Crit Velocity 
 CVMX.mps                 4.52:  Max Crit Veloc 
 DD1 .             Aziz Aliyev:  Direct Drillr 1 
 DD2 .         Intigam Rahimov:  Direct Drillr 2 
 DD3 .          Rashad Habibov:  Direct Drillr 3 
 DDSV.               Geo-Pilot:  DD Service 
 DEFF.%                  98.00:  % Det Eff 
 DLRX.°/30m               0.00:  Dogleg Rot Max 
 DLSO.°/30m               0.00:  Dogleg Oriented 
 DLSX.°/30m               0.00:  Dogleg Str Max 
 DRET.      10.45.04 08-May-21:  Drill End Time 
 DRST.      03.30.04 04-May-21:  Drill Start Tim 
 DTIM.hr                 14.97:  Time Drilling 
 EDEP.m                4640.01:  End Depth 
 ENG1.         Dail Mahammadov:  Engineer 1 
 ENG2.           Eldar Hajiyev:  Engineer 2 
 ENG3.       Bakhtiar Jabbarli:  Engineer 3 
 ENG4.       Natik Hasanagayev:  Engineer 4 
 ETIM.      09.30.04 14-May-21:  End Time 
 FLOI.gpm               460.00:  Flow In 
 FLON.gpm               200.00:  Flow In Min 
 FLOS.cptm                0.00:  Fluid Loss 
 FLOX.gpm               505.00:  Flow In Max 
 HFLO.                      No:  High Flow 
 HPRE.                      No:  High Pressure 
 HTEM.                      No:  High Temp 
 HYDO.m                   1.80:  Hydro Offset 
 IFIN.deg                66.71:  Inc, Final 
 IMAX.deg                67.03:  Inc Max 
 IMIN.deg                66.63:  Inc Min 
 IMND.m                4550.58:  Inc Min Depth 
 IMXD.m                4439.01:  Inc Max Depth 
 JARR.                      No:  Jarring 
 LETM.      10.45.04 08-May-21:  Log End Time 
 LOST.hr                     0:  Lost Rig Time 
 LSTM.      03.30.04 04-May-21:  Log Start Time 
 MDCL.ppm             37000.00:  Mud Chlorides 
 MDES.     Inversion Oil/Synthetic:  Mud Desc 
 DFD .sg                  1.38:  Mud Density 
 MDMN.sg                  1.35:  Dens Mud Min 
 MDMX.sg                  1.40:  Dens Mud Max 
 MOIL.                   57.40:  Run Mud Oil % 
 MOWR.                   70:30:  Run Mud OWR 
 MSND.                    0.00:  Run Mud Sand % 
 MSOL.                   18.00:  Run Mud Solids% 
 DFV .spqt               71.00:  Mud Viscosity 
 MWOD.in                  6.75:  MWD Tool OD 
 MWSI.                      No:  Serv Intrp, MWD 
 OTIM.hr                242.76:  Time Operating 
 PCON.           Look Like New:  Pad Condition 
 PMAX.psia            12183.92:  Press Op, Max 
 PV  .cP                 27.00:  Mud PV 
 RUN .                    1300:  Run Number 
 ROPA.m/hr               15.00:  ROP Avg 
 ROPN.m/hr                9.00:  ROP Min 
 ROPX.m/hr               19.00:  ROP Max 
 RPMA.rpm               120.00:  RPM Surface Avg 
 RPMN.rpm               100.00:  RPM Surface Min 
 RPMX.rpm               120.00:  RPM Surface Max 
 RRUN.                    1300:  Rig Run Number 
 RTIM.hr                  5.00:  Time Reaming 
 SAZI.deg               304.73:  Azm, Start 
 SDEP.m                4412.01:  Start Depth 
 SIDD.                      No:  Serv Intrp, DD 
 SINC.deg                66.82:  Inc, Start 
 SPPA.psig             2800.00:  SPP Avg 
 SPPN.psig             2610.00:  SPP Min 
 SPPX.psig             3100.00:  SPP Max 
 STIM.      03.30.00 04-May-21:  Start Time 
 SVCS.                 DD, MWD:  Services 
 SVER.                    9.20:  Sperry Version 
 TDAT.m                 228.00:  Tot Depth Attmp 
 TDDF.                      No:  Trip for DD 
 TDLG.m                 228.00:  Tot Depth Loggd 
 TFF .                      No:  Trip for Fail 
 TQAA.f-kp               15.00:  Torque Abs Avg 
 TQAN.f-kp               12.00:  Torque Abs Min 
 TQAX.f-kp               22.00:  Torque Abs Max 
 TRRT.°/30m               0.00:  Turn Rotating 
 MRT .                    HCIM:  Maximum Recorded Temperature 
 TTMX.degC               90.20:  Max Tool Temp 
 VS01.                90627813:  Virtual Str1 SN 
 VS02.                90634712:  Virtual Str2 SN 
 VS03.                90643410:  Virtual Str3 SN 
 VS04.                90634712:  Virtual Str4 SN 
 WBMN.klb                 9.00:  WOB Min 
 WITN.        Elmaddin Rahimov:  Customer Rep 
 WITN.         Haytham Mostafa:  Customer Rep 2 
 WOBA.klb                15.00:  WOB Avg 
 WOBX.klb                23.00:  WOB Max 
 YP  .lhf2               29.00:  Yield Point 
~Curve Information Block
#MNEM.UNIT                 API CODE     Curve Description
#---------               -----------    ---------------------------
 TIME.HHMMSS            00 000 000 000:  GT Time & Date
 GTDEPTH.m              00 000 000 000:  GT Depth
 GTPQH.psia             00 000 000 000:  GT HR Quartz Pressure
 GTTQ.degC              00 000 000 000:  GT Quartz Temperature
 GTTN.NONE              00 000 000 000:  GT Test Number
 GTET.sec               00 000 000 000:  GT Elapsed Test Time
 GTTVD.m                00 000 000 000:  GT True Vertical Depth
#Other Information
#
#WARRANTY: Halliburton will use its best efforts to furnish customers with 
#accurate information and interpretations that are part of, and incident to, the services 
#provided.  However, Halliburton cannot and does not warrant the accuracy 
#or correctness of such information and interpretations.  Under no circumstances should any 
#such information or interpretation be relied upon as the sole basis for any drilling, 
#completion, production, or financial decision or any procedure involving any risk to the 
#safety of any drilling venture, drilling rig or its crew or any other third party.  The 
#Customer has full responsibility for all drilling, completion and production operation.  
#Halliburton makes no representations or warranties, either expressed or 
#implied, including, but not limited to, the implied warranties of merchantability or fitness 
#for a particular purpose, with respect to the services rendered.  In no event will 
#Halliburton be liable for failure to obtain any particular results or for 
#any damages, including, but not limited to, indirect, special or consequential damages, 
#resulting from the use of any information or interpretation provided by Halliburton.
#
~A           TIME           GTDEPTH  GTPQH  GTTQ  GTTN  GTET   GTTVD  
# ...
   00:16:35.558.09-May-2021 4527.01 3260.11 68.15 6.00 253.09 2982.74
   00:16:35.758.09-May-2021 4527.01 3260.11 68.15 6.00 253.29 2982.74
   00:16:35.958.09-May-2021 4527.01 3260.12 68.15 6.00 253.49 2982.74
   00:16:36.158.09-May-2021 4527.01 3260.11 68.15 6.00 253.69 2982.74
   00:16:36.358.09-May-2021 4527.01 3260.15 68.15 6.00 253.89 2982.74
   00:16:36.558.09-May-2021 4527.01 3260.12 68.15 6.00 254.09 2982.74
   00:16:36.758.09-May-2021 4527.01 3260.12 68.15 6.00 254.29 2982.74
   00:16:36.959.09-May-2021 4527.01 3260.09 68.15 6.00 254.49 2982.74
   00:16:37.159.09-May-2021 4527.01 3259.86 68.15 6.00 254.69 2982.74
   00:16:37.359.09-May-2021 4527.01 3260.43 68.15 6.00 254.89 2982.74
   00:16:37.559.09-May-2021 4527.01 3259.96 68.15 6.00 255.09 2982.74
   00:16:37.759.09-May-2021 4527.01 3259.96 68.15 6.00 255.29 2982.74
   00:16:37.959.09-May-2021 4527.01 3260.12 68.15 6.00 255.49 2982.74
   00:16:38.159.09-May-2021 4527.01 3259.18 68.15 6.00 255.69 2982.74
   00:16:38.359.09-May-2021 4527.01 2975.38 68.15 6.00 255.89 2982.74
   00:16:38.559.09-May-2021 4527.01 2286.20 68.15 6.00 256.09 2982.74
   00:16:38.759.09-May-2021 4527.01 2286.20 68.15 6.00 256.29 2982.74
   00:16:38.959.09-May-2021 4527.01 1230.21 68.15 6.00 256.49 2982.74
   00:16:39.159.09-May-2021 4527.01  952.78 68.15 6.00 256.69 2982.74
   00:16:39.359.09-May-2021 4527.01  888.10 68.15 6.00 256.89 2982.74
   00:16:39.559.09-May-2021 4527.01  889.32 68.15 6.00 257.09 2982.74
   00:16:39.760.09-May-2021 4527.01  889.32 68.15 6.00 257.29 2982.74
   00:16:39.960.09-May-2021 4527.01  837.44 68.15 6.00 257.49 2982.74
   00:16:40.160.09-May-2021 4527.01  823.96 68.15 6.00 257.69 2982.74
   00:16:40.360.09-May-2021 4527.01  829.88 68.15 6.00 257.89 2982.74
   00:16:40.560.09-May-2021 4527.01  829.88 68.15 6.00 258.09 2982.74
   00:16:40.760.09-May-2021 4527.01  839.04 68.15 6.00 258.29 2982.74
   00:16:40.960.09-May-2021 4527.01  839.04 68.15 6.00 258.49 2982.74
   00:16:41.160.09-May-2021 4527.01  831.44 68.14 6.00 258.69 2982.74
   00:16:41.360.09-May-2021 4527.01  826.18 68.14 6.00 258.89 2982.74
   00:16:41.560.09-May-2021 4527.01  817.02 68.14 6.00 259.09 2982.74
   00:16:41.760.09-May-2021 4527.01  817.02 68.14 6.00 259.29 2982.74
   00:16:41.960.09-May-2021 4527.01  807.27 68.13 6.00 259.49 2982.74
   00:16:42.160.09-May-2021 4527.01  817.59 68.13 6.00 259.69 2982.74
   00:16:42.361.09-May-2021 4527.01  822.63 68.13 6.00 259.89 2982.74
   00:16:42.561.09-May-2021 4527.01  821.99 68.13 6.00 260.09 2982.74
   00:16:42.761.09-May-2021 4527.01  821.99 68.13 6.00 260.29 2982.74
   00:16:42.961.09-May-2021 4527.01  824.56 68.13 6.00 260.49 2982.74
   00:16:43.161.09-May-2021 4527.01  846.15 68.12 6.00 260.69 2982.74
   00:16:43.361.09-May-2021 4527.01  861.36 68.12 6.00 260.89 2982.74
   00:16:43.561.09-May-2021 4527.01  867.05 68.12 6.00 261.09 2982.74
   00:16:43.761.09-May-2021 4527.01  867.05 68.12 6.00 261.29 2982.74
   00:16:43.961.09-May-2021 4527.01  859.61 68.12 6.00 261.49 2982.74
   00:16:44.161.09-May-2021 4527.01  846.83 68.12 6.00 261.69 2982.74
   00:16:44.361.09-May-2021 4527.01  834.33 68.11 6.00 261.89 2982.74
   00:16:44.561.09-May-2021 4527.01  823.71 68.11 6.00 262.09 2982.74
   00:16:44.761.09-May-2021 4527.01  823.71 68.11 6.00 262.30 2982.74
   00:16:44.961.09-May-2021 4527.01  807.96 68.11 6.00 262.50 2982.74
   00:16:45.162.09-May-2021 4527.01  797.31 68.11 6.00 262.70 2982.74
   00:16:45.362.09-May-2021 4527.01  786.71 68.11 6.00 262.90 2982.74
   00:16:45.562.09-May-2021 4527.01  791.96 68.11 6.00 263.10 2982.74
   00:16:45.762.09-May-2021 4527.01  791.96 68.11 6.00 263.30 2982.74
   00:16:45.962.09-May-2021 4527.01  820.77 68.11 6.00 263.50 2982.74
   00:16:46.162.09-May-2021 4527.01  824.93 68.10 6.00 263.70 2982.74
   00:16:46.362.09-May-2021 4527.01  824.60 68.10 6.00 263.90 2982.74
   00:16:46.562.09-May-2021 4527.01  818.17 68.10 6.00 264.10 2982.74
   00:16:46.762.09-May-2021 4527.01  818.17 68.10 6.00 264.30 2982.74
   00:16:46.962.09-May-2021 4527.01  808.50 68.10 6.00 264.50 2982.74
   00:16:47.162.09-May-2021 4527.01  800.78 68.10 6.00 264.70 2982.74
   00:16:47.362.09-May-2021 4527.01  787.54 68.10 6.00 264.90 2982.74
   00:16:47.562.09-May-2021 4527.01  787.36 68.10 6.00 265.10 2982.74
   00:16:47.762.09-May-2021 4527.01  787.36 68.10 6.00 265.30 2982.74
   00:16:47.963.09-May-2021 4527.01  788.00 68.10 6.00 265.50 2982.74
   00:16:48.163.09-May-2021 4527.01  783.40 68.10 6.00 265.70 2982.74
   00:16:48.363.09-May-2021 4527.01  780.81 68.10 6.00 265.90 2982.74
   00:16:48.563.09-May-2021 4527.01  871.41 68.09 6.00 266.10 2982.74
   00:16:48.763.09-May-2021 4527.01  871.41 68.09 6.00 266.30 2982.74
   00:16:48.963.09-May-2021 4527.01 1127.03 68.09 6.00 266.50 2982.74
   00:16:49.163.09-May-2021 4527.01 1241.97 68.09 6.00 266.70 2982.74
   00:16:49.363.09-May-2021 4527.01 1347.57 68.09 6.00 266.90 2982.74
   00:16:49.563.09-May-2021 4527.01 1446.35 68.09 6.00 267.10 2982.74
   00:16:49.763.09-May-2021 4527.01 1446.35 68.09 6.00 267.30 2982.74
   00:16:49.963.09-May-2021 4527.01 1628.33 68.09 6.00 267.50 2982.74
   00:16:50.163.09-May-2021 4527.01 1711.23 68.09 6.00 267.70 2982.74
   00:16:50.363.09-May-2021 4527.01 1789.20 68.09 6.00 267.90 2982.74
   00:16:50.563.09-May-2021 4527.01 1862.53 68.09 6.00 268.10 2982.74
   00:16:50.764.09-May-2021 4527.01 1862.53 68.09 6.00 268.30 2982.74
   00:16:50.964.09-May-2021 4527.01 1996.78 68.09 6.00 268.50 2982.74
   00:16:51.164.09-May-2021 4527.01 2058.00 68.09 6.00 268.70 2982.74
   00:16:51.364.09-May-2021 4527.01 2117.36 68.09 6.00 268.90 2982.74
   00:16:51.564.09-May-2021 4527.01 2174.53 68.09 6.00 269.10 2982.74
   00:16:51.764.09-May-2021 4527.01 2174.53 68.09 6.00 269.30 2982.74
   00:16:51.964.09-May-2021 4527.01 2280.70 68.09 6.00 269.50 2982.74
   00:16:52.164.09-May-2021 4527.01 2331.29 68.09 6.00 269.70 2982.74
   00:16:52.364.09-May-2021 4527.01 2380.29 68.09 6.00 269.90 2982.74
   00:16:52.564.09-May-2021 4527.01 2425.52 68.10 6.00 270.10 2982.74
   00:16:52.764.09-May-2021 4527.01 2425.52 68.10 6.00 270.30 2982.74
   00:16:52.964.09-May-2021 4527.01 2501.14 68.10 6.00 270.50 2982.74
   00:16:53.164.09-May-2021 4527.01 2535.92 68.10 6.00 270.70 2982.74
   00:16:53.364.09-May-2021 4527.01 2569.65 68.10 6.00 270.90 2982.74
   00:16:53.565.09-May-2021 4527.01 2602.10 68.10 6.00 271.10 2982.74
   00:16:53.765.09-May-2021 4527.01 2602.10 68.10 6.00 271.30 2982.74
   00:16:53.965.09-May-2021 4527.01 2662.66 68.10 6.00 271.50 2982.74
   00:16:54.165.09-May-2021 4527.01 2691.50 68.10 6.00 271.70 2982.74
   00:16:54.365.09-May-2021 4527.01 2719.23 68.10 6.00 271.90 2982.74
   00:16:54.565.09-May-2021 4527.01 2744.84 68.10 6.00 272.10 2982.74
   00:16:54.765.09-May-2021 4527.01 2744.84 68.10 6.00 272.30 2982.74
   00:16:54.965.09-May-2021 4527.01 2795.61 68.11 6.00 272.50 2982.74
   00:16:55.165.09-May-2021 4527.01 2819.27 68.11 6.00 272.70 2982.74
   00:16:55.365.09-May-2021 4527.01 2841.52 68.11 6.00 272.90 2982.74
   00:16:55.565.09-May-2021 4527.01 2862.16 68.11 6.00 273.10 2982.74
   00:16:55.765.09-May-2021 4527.01 2862.16 68.11 6.00 273.30 2982.74
   00:16:55.965.09-May-2021 4527.01 2902.66 68.11 6.00 273.50 2982.74
   00:16:56.166.09-May-2021 4527.01 2921.29 68.11 6.00 273.70 2982.74
   00:16:56.366.09-May-2021 4527.01 2938.48 68.11 6.00 273.90 2982.74
   00:16:56.566.09-May-2021 4527.01 2956.33 68.12 6.00 274.10 2982.74
   00:16:56.766.09-May-2021 4527.01 2956.33 68.12 6.00 274.30 2982.74
   00:16:56.966.09-May-2021 4527.01 2988.41 68.12 6.00 274.50 2982.74
   00:16:57.166.09-May-2021 4527.01 3003.14 68.12 6.00 274.70 2982.74
   00:16:57.366.09-May-2021 4527.01 3017.51 68.12 6.00 274.90 2982.74
   00:16:57.566.09-May-2021 4527.01 3030.82 68.12 6.00 275.10 2982.74
   00:16:57.766.09-May-2021 4527.01 3030.82 68.12 6.00 275.30 2982.74
   00:16:57.966.09-May-2021 4527.01 3056.05 68.12 6.00 275.50 2982.74
   00:16:58.166.09-May-2021 4527.01 3067.55 68.12 6.00 275.70 2982.74
   00:16:58.366.09-May-2021 4527.01 3078.80 68.13 6.00 275.90 2982.74
