~Version Information
 VERS.                  2.0:   CWLS log ASCII Standard -VERSION 2.0
 WRAP.                   NO:   One line per depth step
~Well Information Block
#MNEM.UNIT     VALUE/NAME     DESCRIPTION
#---------     -----------    ---------------------------
 STRT.S             23:15:39 08-May-21: START TIME 23:15:39 08-May-21
 STOP.S             23:22:30 08-May-21: STOP TIME  23:22:30 08-May-21
 STEP.S                   0.00: STEP TIME
 NULL.                 -999.25: NULL VALUE
 PROV.                    Baku:  PROVINCE
 STAT.                    Baku:  STATE NAME
 SON .        AZ-XX-0906571588:  JOB NUMBER
 WTYP.                Deviated:  WELL TYPE
 COMP.     BP Exploration (Caspian Sea) ltd:  COMPANY
 BASE.              Azerbaijan:  LOGGING EQUIPMENT BASE LOCATION
 REGN.                   EESSA:  REGION
 CTRY.              Azerbaijan:  COUNTRY NAME
 FLD .                     ACG:  FIELD NAME
 WELL.                     J28:  WELL NAME
 RIG .             West Chirag:  RIG NAME
 DMF .             Drill Floor:  DRILL MEAS FROM
 PDAT.       Caspian Sea Level:  PERMANENT DATUM
 HPTY.       Minimum Curvature:  HOLE POS TYPE
 MDS .        Operator Entered:  MAG DATA SOURCE
 NREF.                    Grid:  NORTH REFERENCE
 SRVC.          TURAN DRILLING:  CONTRACTOR
 JOBN.        AZ-XX-0906571588:  JOB TICKET NUMB
 DCON.     Halliburton Sperry Drilling:  DIRECTNL CONTR
 STIM.      00.44.00 11-Feb-21:  START TIME
 DATE.      00.00.00 05-May-21:  END TIME
 SPUD.               13-Feb-21:  SPUD DATE
 MWDS.                    Baku:  MWD SHOP
 DOE .                     N/A:  DOE NUMBER
 UNIT.                     N/A:  LOGGING EQUIPMENT ID
 UWI .                     N/A:  UNIQUE WELL IDENTIFIER
 API .                     N/A:  API NUMBER
 CNTY.                        :  COUNTY
 LOC .                        :  LOCATION
 LMF .             Drill Floor:  LOG MEASURED FROM
 TVDS.m                  43.00:  TVDSS CORRECTN
 SDEP.m                 341.00:  START DEPTH
 EGL .m                   0.00:  GROUND ELEVATION
 WDMS.m                 169.80:  WD ELEV
 AGAP.m                  43.00:  AIR GAP
 EPD .m                   0.00:  ELEVATION
 APD .m                  43.00:  DEPTH ABOVE PD
 LATI.deg                40.13:  LATITUDE
 LONG.deg                51.22:  LONGITUDE
 UTMY.m             4443793.85:  UTM Y
 UTMX.m              519005.06:  UTM X
 WHEW.m                 -11.57:  WELL HEAD E/W
 WHNS.m                   8.57:  WELL HEAD N/S
 VSEW.m                 -11.57:  VERT SEC E/W
 VSNS.m                   8.57:  VERT SEC N/S
 DFWL.m                   0.00:  DISTANCE FWL
 DFSL.m                   0.00:  DISTANCE FSL
 VSDR.deg               299.34:  VERT SEC DIRECT
 GVFD.g                   1.00:  GRAVITY FIELD
 AZTC.deg                 6.36:  AZM TOTAL CORR
 MFLD.nT              50391.00:  MAGNETIC FIELD
 MDIP.deg                59.65:  MAGNETIC DIP
 MDEC.deg                 6.48:  MAGNETIC DECL
 GRDC.deg                 0.12:  GRID CORRECTION
 DEP .m                 334.96:  DEPTH
 TDD .m                1407.26:  TOTAL DEPTH (DRILLER)
 EKB .m                  43.00:  KB ELEVATION
 EDF .m                  43.00:  DF ELEVATION
 TDL .m                 228.00:  TOTAL DEPTH (LOGGER)
 VSC .                       0:  VS TO CLOSURE
 MAGU.                 1854484:  MAGUTM CHECKSUM
~Parameter Information Block
#MNEM.UNIT       Value        Description
#---------     -----------    ---------------------------
 AV  .mps                 4.00:  Ann Velocity 
 AVMX.mps                 4.73:  Max Ann Veloc 
 AZIF.deg               304.48:  Azm, Final 
 BHAT.        Rotary Steerable:  BHA Type 
 BREV.rev            257300.00:  Rev Bit Total 
 BROT.°/30m               0.00:  Build Rotating 
 BS  .in                  8.50:  Bit Size 
 BSZ .in                  8.50:  Bit Size 
 BTPL.psig              589.00:  Bit Press Loss 
 CABU.                      No:  Customer Abuse 
 CGEO.          Mubariz ghayev:  Customer Geo 
 COMM.                     dˆ[:  Run Comments 1 
 TCS .hr                 64.25:  Time Ciculation Ended 
 CV  .mps                 3.50:  Crit Velocity 
 CVMX.mps                 4.52:  Max Crit Veloc 
 DD1 .             Aziz Aliyev:  Direct Drillr 1 
 DD2 .         Intigam Rahimov:  Direct Drillr 2 
 DD3 .          Rashad Habibov:  Direct Drillr 3 
 DDSV.               Geo-Pilot:  DD Service 
 DEFF.%                  98.00:  % Det Eff 
 DLRX.°/30m               0.00:  Dogleg Rot Max 
 DLSO.°/30m               0.00:  Dogleg Oriented 
 DLSX.°/30m               0.00:  Dogleg Str Max 
 DRET.      10.45.04 08-May-21:  Drill End Time 
 DRST.      03.30.04 04-May-21:  Drill Start Tim 
 DTIM.hr                 14.97:  Time Drilling 
 EDEP.m                4640.01:  End Depth 
 ENG1.         Dail Mahammadov:  Engineer 1 
 ENG2.           Eldar Hajiyev:  Engineer 2 
 ENG3.       Bakhtiar Jabbarli:  Engineer 3 
 ENG4.       Natik Hasanagayev:  Engineer 4 
 ETIM.      09.30.04 14-May-21:  End Time 
 FLOI.gpm               460.00:  Flow In 
 FLON.gpm               200.00:  Flow In Min 
 FLOS.cptm                0.00:  Fluid Loss 
 FLOX.gpm               505.00:  Flow In Max 
 HFLO.                      No:  High Flow 
 HPRE.                      No:  High Pressure 
 HTEM.                      No:  High Temp 
 HYDO.m                   1.80:  Hydro Offset 
 IFIN.deg                66.71:  Inc, Final 
 IMAX.deg                67.03:  Inc Max 
 IMIN.deg                66.63:  Inc Min 
 IMND.m                4550.58:  Inc Min Depth 
 IMXD.m                4439.01:  Inc Max Depth 
 JARR.                      No:  Jarring 
 LETM.      10.45.04 08-May-21:  Log End Time 
 LOST.hr                     0:  Lost Rig Time 
 LSTM.      03.30.04 04-May-21:  Log Start Time 
 MDCL.ppm             37000.00:  Mud Chlorides 
 MDES.     Inversion Oil/Synthetic:  Mud Desc 
 DFD .sg                  1.38:  Mud Density 
 MDMN.sg                  1.35:  Dens Mud Min 
 MDMX.sg                  1.40:  Dens Mud Max 
 MOIL.                   57.40:  Run Mud Oil % 
 MOWR.                   70:30:  Run Mud OWR 
 MSND.                    0.00:  Run Mud Sand % 
 MSOL.                   18.00:  Run Mud Solids% 
 DFV .spqt               71.00:  Mud Viscosity 
 MWOD.in                  6.75:  MWD Tool OD 
 MWSI.                      No:  Serv Intrp, MWD 
 OTIM.hr                242.76:  Time Operating 
 PCON.           Look Like New:  Pad Condition 
 PMAX.psia            12183.92:  Press Op, Max 
 PV  .cP                 27.00:  Mud PV 
 RUN .                    1300:  Run Number 
 ROPA.m/hr               15.00:  ROP Avg 
 ROPN.m/hr                9.00:  ROP Min 
 ROPX.m/hr               19.00:  ROP Max 
 RPMA.rpm               120.00:  RPM Surface Avg 
 RPMN.rpm               100.00:  RPM Surface Min 
 RPMX.rpm               120.00:  RPM Surface Max 
 RRUN.                    1300:  Rig Run Number 
 RTIM.hr                  5.00:  Time Reaming 
 SAZI.deg               304.73:  Azm, Start 
 SDEP.m                4412.01:  Start Depth 
 SIDD.                      No:  Serv Intrp, DD 
 SINC.deg                66.82:  Inc, Start 
 SPPA.psig             2800.00:  SPP Avg 
 SPPN.psig             2610.00:  SPP Min 
 SPPX.psig             3100.00:  SPP Max 
 STIM.      03.30.00 04-May-21:  Start Time 
 SVCS.                 DD, MWD:  Services 
 SVER.                    9.20:  Sperry Version 
 TDAT.m                 228.00:  Tot Depth Attmp 
 TDDF.                      No:  Trip for DD 
 TDLG.m                 228.00:  Tot Depth Loggd 
 TFF .                      No:  Trip for Fail 
 TQAA.f-kp               15.00:  Torque Abs Avg 
 TQAN.f-kp               12.00:  Torque Abs Min 
 TQAX.f-kp               22.00:  Torque Abs Max 
 TRRT.°/30m               0.00:  Turn Rotating 
 MRT .                    HCIM:  Maximum Recorded Temperature 
 TTMX.degC               90.20:  Max Tool Temp 
 VS01.                90627813:  Virtual Str1 SN 
 VS02.                90634712:  Virtual Str2 SN 
 VS03.                90643410:  Virtual Str3 SN 
 VS04.                90634712:  Virtual Str4 SN 
 WBMN.klb                 9.00:  WOB Min 
 WITN.        Elmaddin Rahimov:  Customer Rep 
 WITN.         Haytham Mostafa:  Customer Rep 2 
 WOBA.klb                15.00:  WOB Avg 
 WOBX.klb                23.00:  WOB Max 
 YP  .lhf2               29.00:  Yield Point 
~Curve Information Block
#MNEM.UNIT                 API CODE     Curve Description
#---------               -----------    ---------------------------
 TIME.HHMMSS            00 000 000 000:  GT Time & Date
 GTDEPTH.m              00 000 000 000:  GT Depth
 GTPQH.psia             00 000 000 000:  GT HR Quartz Pressure
 GTTQ.degC              00 000 000 000:  GT Quartz Temperature
 GTTN.NONE              00 000 000 000:  GT Test Number
 GTET.sec               00 000 000 000:  GT Elapsed Test Time
 GTTVD.m                00 000 000 000:  GT True Vertical Depth
#Other Information
#
#WARRANTY: Halliburton will use its best efforts to furnish customers with 
#accurate information and interpretations that are part of, and incident to, the services 
#provided.  However, Halliburton cannot and does not warrant the accuracy 
#or correctness of such information and interpretations.  Under no circumstances should any 
#such information or interpretation be relied upon as the sole basis for any drilling, 
#completion, production, or financial decision or any procedure involving any risk to the 
#safety of any drilling venture, drilling rig or its crew or any other third party.  The 
#Customer has full responsibility for all drilling, completion and production operation.  
#Halliburton makes no representations or warranties, either expressed or 
#implied, including, but not limited to, the implied warranties of merchantability or fitness 
#for a particular purpose, with respect to the services rendered.  In no event will 
#Halliburton be liable for failure to obtain any particular results or for 
#any damages, including, but not limited to, indirect, special or consequential damages, 
#resulting from the use of any information or interpretation provided by Halliburton.
#
~A           TIME           GTDEPTH  GTPQH  GTTQ  GTTN  GTET   GTTVD  
# ...
   23:21:24.551.08-May-2021 4549.51 3248.49 68.53 5.00 344.89 2991.64
   23:21:24.751.08-May-2021 4549.51 3248.49 68.53 5.00 345.09 2991.64
   23:21:24.951.08-May-2021 4549.51 3248.48 68.53 5.00 345.29 2991.64
   23:21:25.151.08-May-2021 4549.51 3248.49 68.53 5.00 345.49 2991.64
   23:21:25.351.08-May-2021 4549.51 3248.49 68.53 5.00 345.69 2991.64
   23:21:25.551.08-May-2021 4549.51 3248.49 68.53 5.00 345.89 2991.64
   23:21:25.751.08-May-2021 4549.51 3248.49 68.53 5.00 346.09 2991.64
   23:21:25.950.08-May-2021 4549.51 3248.55 68.53 5.00 346.29 2991.64
   23:21:26.150.08-May-2021 4549.51 3248.46 68.53 5.00 346.49 2991.64
   23:21:26.350.08-May-2021 4549.51 3248.47 68.53 5.00 346.69 2991.64
   23:21:26.550.08-May-2021 4549.51 3248.46 68.53 5.00 346.89 2991.64
   23:21:26.750.08-May-2021 4549.51 3248.46 68.53 5.00 347.09 2991.64
   23:21:26.950.08-May-2021 4549.51 3248.46 68.53 5.00 347.29 2991.64
   23:21:27.150.08-May-2021 4549.51 3248.54 68.53 5.00 347.49 2991.64
   23:21:27.350.08-May-2021 4549.51 3248.44 68.53 5.00 347.69 2991.64
   23:21:27.550.08-May-2021 4549.51 3248.48 68.53 5.00 347.89 2991.64
   23:21:27.750.08-May-2021 4549.51 3248.48 68.53 5.00 348.09 2991.64
   23:21:27.950.08-May-2021 4549.51 3248.55 68.53 5.00 348.29 2991.64
   23:21:28.150.08-May-2021 4549.51 3248.44 68.53 5.00 348.49 2991.64
   23:21:28.350.08-May-2021 4549.51 3248.44 68.53 5.00 348.69 2991.64
   23:21:28.550.08-May-2021 4549.51 3248.56 68.53 5.00 348.89 2991.64
   23:21:28.750.08-May-2021 4549.51 3248.56 68.53 5.00 349.09 2991.64
   23:21:28.950.08-May-2021 4549.51 3248.47 68.53 5.00 349.29 2991.64
   23:21:29.149.08-May-2021 4549.51 3248.50 68.53 5.00 349.49 2991.64
   23:21:29.349.08-May-2021 4549.51 3248.48 68.53 5.00 349.69 2991.64
   23:21:29.549.08-May-2021 4549.51 3248.49 68.53 5.00 349.89 2991.64
   23:21:29.749.08-May-2021 4549.51 3248.49 68.53 5.00 350.09 2991.64
   23:21:29.949.08-May-2021 4549.51 3248.49 68.53 5.00 350.29 2991.64
   23:21:30.149.08-May-2021 4549.51 3248.49 68.53 5.00 350.49 2991.64
   23:21:30.349.08-May-2021 4549.51 3248.49 68.53 5.00 350.69 2991.64
   23:21:30.549.08-May-2021 4549.51 3248.49 68.53 5.00 350.89 2991.64
   23:21:30.749.08-May-2021 4549.51 3248.49 68.53 5.00 351.09 2991.64
   23:21:30.949.08-May-2021 4549.51 3248.47 68.53 5.00 351.29 2991.64
   23:21:31.149.08-May-2021 4549.51 3248.53 68.53 5.00 351.49 2991.64
   23:21:31.349.08-May-2021 4549.51 3248.45 68.53 5.00 351.69 2991.64
   23:21:31.549.08-May-2021 4549.51 3248.48 68.53 5.00 351.89 2991.64
   23:21:31.749.08-May-2021 4549.51 3248.48 68.53 5.00 352.09 2991.64
   23:21:31.949.08-May-2021 4549.51 3248.49 68.53 5.00 352.29 2991.64
   23:21:32.149.08-May-2021 4549.51 3248.48 68.53 5.00 352.49 2991.64
   23:21:32.348.08-May-2021 4549.51 3248.48 68.53 5.00 352.69 2991.64
   23:21:32.548.08-May-2021 4549.51 3248.48 68.53 5.00 352.89 2991.64
   23:21:32.748.08-May-2021 4549.51 3248.48 68.53 5.00 353.09 2991.64
   23:21:32.948.08-May-2021 4549.51 3248.49 68.53 5.00 353.29 2991.64
   23:21:33.148.08-May-2021 4549.51 3248.48 68.53 5.00 353.49 2991.64
   23:21:33.348.08-May-2021 4549.51 3248.48 68.53 5.00 353.69 2991.64
   23:21:33.548.08-May-2021 4549.51 3248.46 68.53 5.00 353.89 2991.64
   23:21:33.748.08-May-2021 4549.51 3248.46 68.53 5.00 354.09 2991.64
   23:21:33.948.08-May-2021 4549.51 3248.49 68.53 5.00 354.29 2991.64
   23:21:34.148.08-May-2021 4549.51 3248.47 68.53 5.00 354.49 2991.64
   23:21:34.348.08-May-2021 4549.51 3248.49 68.53 5.00 354.69 2991.64
   23:21:34.548.08-May-2021 4549.51 3248.48 68.53 5.00 354.89 2991.64
   23:21:34.748.08-May-2021 4549.51 3248.48 68.53 5.00 355.09 2991.64
   23:21:34.948.08-May-2021 4549.51 3248.47 68.53 5.00 355.29 2991.64
   23:21:35.148.08-May-2021 4549.51 3248.48 68.53 5.00 355.49 2991.64
   23:21:35.348.08-May-2021 4549.51 3248.40 68.53 5.00 355.69 2991.64
   23:21:35.547.08-May-2021 4549.51 3248.53 68.53 5.00 355.89 2991.64
   23:21:35.747.08-May-2021 4549.51 3248.53 68.53 5.00 356.09 2991.64
   23:21:35.947.08-May-2021 4549.51 3248.48 68.53 5.00 356.29 2991.64
   23:21:36.147.08-May-2021 4549.51 3248.45 68.53 5.00 356.49 2991.64
   23:21:36.347.08-May-2021 4549.51 3248.51 68.53 5.00 356.69 2991.64
   23:21:36.547.08-May-2021 4549.51 3248.49 68.53 5.00 356.89 2991.64
   23:21:36.747.08-May-2021 4549.51 3248.49 68.53 5.00 357.09 2991.64
   23:21:36.947.08-May-2021 4549.51 3248.48 68.53 5.00 357.29 2991.64
   23:21:37.147.08-May-2021 4549.51 3248.47 68.53 5.00 357.49 2991.64
   23:21:37.347.08-May-2021 4549.51 3248.48 68.53 5.00 357.69 2991.64
   23:21:37.547.08-May-2021 4549.51 3248.48 68.53 5.00 357.89 2991.64
   23:21:37.747.08-May-2021 4549.51 3248.48 68.53 5.00 358.09 2991.64
   23:21:37.947.08-May-2021 4549.51 3248.48 68.53 5.00 358.29 2991.64
   23:21:38.147.08-May-2021 4549.51 3248.47 68.53 5.00 358.49 2991.64
   23:21:38.347.08-May-2021 4549.51 3248.48 68.53 5.00 358.69 2991.64
   23:21:38.547.08-May-2021 4549.51 3248.48 68.53 5.00 358.89 2991.64
   23:21:38.746.08-May-2021 4549.51 3248.48 68.53 5.00 359.09 2991.64
   23:21:38.946.08-May-2021 4549.51 3248.50 68.53 5.00 359.29 2991.64
   23:21:39.146.08-May-2021 4549.51 3248.48 68.53 5.00 359.49 2991.64
   23:21:39.346.08-May-2021 4549.51 3248.46 68.53 5.00 359.69 2991.64
   23:21:39.546.08-May-2021 4549.51 3248.47 68.53 5.00 359.89 2991.64
   23:21:39.746.08-May-2021 4549.51 3248.47 68.53 5.00 360.09 2991.64
   23:21:39.946.08-May-2021 4549.51 3248.48 68.53 5.00 360.29 2991.64
   23:21:40.146.08-May-2021 4549.51 3248.47 68.53 5.00 360.49 2991.64
   23:21:40.346.08-May-2021 4549.51 3248.48 68.53 5.00 360.69 2991.64
   23:21:40.546.08-May-2021 4549.51 3248.47 68.53 5.00 360.89 2991.64
   23:21:40.746.08-May-2021 4549.51 3248.47 68.53 5.00 361.09 2991.64
   23:21:40.946.08-May-2021 4549.51 3248.48 68.53 5.00 361.29 2991.64
   23:21:41.146.08-May-2021 4549.51 3248.47 68.53 5.00 361.49 2991.64
   23:21:41.346.08-May-2021 4549.51 3248.46 68.53 5.00 361.69 2991.64
   23:21:41.546.08-May-2021 4549.51 3248.48 68.53 5.00 361.89 2991.64
   23:21:41.746.08-May-2021 4549.51 3248.48 68.53 5.00 362.09 2991.64
   23:21:41.945.08-May-2021 4549.51 3248.45 68.53 5.00 362.29 2991.64
   23:21:42.145.08-May-2021 4549.51 3248.46 68.53 5.00 362.49 2991.64
   23:21:42.345.08-May-2021 4549.51 3248.45 68.53 5.00 362.69 2991.64
   23:21:42.545.08-May-2021 4549.51 3248.51 68.53 5.00 362.89 2991.64
   23:21:42.745.08-May-2021 4549.51 3248.51 68.53 5.00 363.09 2991.64
   23:21:42.945.08-May-2021 4549.51 3248.47 68.53 5.00 363.29 2991.64
   23:21:43.145.08-May-2021 4549.51 3248.53 68.53 5.00 363.49 2991.64
   23:21:43.345.08-May-2021 4549.51 3248.40 68.53 5.00 363.69 2991.64
   23:21:43.545.08-May-2021 4549.51 3248.45 68.53 5.00 363.89 2991.64
   23:21:43.745.08-May-2021 4549.51 3248.45 68.53 5.00 364.09 2991.64
   23:21:43.945.08-May-2021 4549.51 3236.56 68.53 5.00 364.29 2991.64
   23:21:44.145.08-May-2021 4549.51 3233.45 68.53 5.00 364.49 2991.64
   23:21:44.345.08-May-2021 4549.51 3259.68 68.53 5.00 364.69 2991.64
   23:21:44.545.08-May-2021 4549.51 6692.22 68.53 5.00 364.89 2991.64
   23:21:44.745.08-May-2021 4549.51 6692.22 68.53 5.00 365.09 2991.64
   23:21:44.945.08-May-2021 4549.51 6827.23 68.53 5.00 365.29 2991.64
   23:21:45.144.08-May-2021 4549.51 6827.47 68.53 5.00 365.49 2991.64
   23:21:45.344.08-May-2021 4549.51 6828.66 68.53 5.00 365.69 2991.64
   23:21:45.544.08-May-2021 4549.51 6829.55 68.53 5.00 365.89 2991.64
   23:21:45.744.08-May-2021 4549.51 6829.55 68.53 5.00 366.09 2991.64
   23:21:45.944.08-May-2021 4549.51 6831.55 68.54 5.00 366.29 2991.64
   23:21:46.144.08-May-2021 4549.51 6832.08 68.54 5.00 366.49 2991.64
   23:21:46.344.08-May-2021 4549.51 6842.58 68.54 5.00 366.69 2991.64
   23:21:46.544.08-May-2021 4549.51 6840.97 68.54 5.00 366.89 2991.64
   23:21:46.744.08-May-2021 4549.51 6840.97 68.54 5.00 367.09 2991.64
   23:21:46.944.08-May-2021 4549.51 6837.29 68.55 5.00 367.29 2991.64
   23:21:47.144.08-May-2021 4549.51 6838.19 68.55 5.00 367.49 2991.64
   23:21:47.344.08-May-2021 4549.51 6836.69 68.55 5.00 367.69 2991.64
