~Version Information
 VERS.                  2.0:   CWLS log ASCII Standard -VERSION 2.0
 WRAP.                   NO:   One line per depth step
~Well Information Block
#MNEM.UNIT     VALUE/NAME     DESCRIPTION
#---------     -----------    ---------------------------
 STRT.S             22:20:35 08-May-21: START TIME 22:20:35 08-May-21
 STOP.S             22:27:08 08-May-21: STOP TIME  22:27:08 08-May-21
 STEP.S                   0.00: STEP TIME
 NULL.                 -999.25: NULL VALUE
 PROV.                    Baku:  PROVINCE
 STAT.                    Baku:  STATE NAME
 SON .        AZ-XX-0906571588:  JOB NUMBER
 WTYP.                Deviated:  WELL TYPE
 COMP.     BP Exploration (Caspian Sea) ltd:  COMPANY
 BASE.              Azerbaijan:  LOGGING EQUIPMENT BASE LOCATION
 REGN.                   EESSA:  REGION
 CTRY.              Azerbaijan:  COUNTRY NAME
 FLD .                     ACG:  FIELD NAME
 WELL.                     J28:  WELL NAME
 RIG .             West Chirag:  RIG NAME
 DMF .             Drill Floor:  DRILL MEAS FROM
 PDAT.       Caspian Sea Level:  PERMANENT DATUM
 HPTY.       Minimum Curvature:  HOLE POS TYPE
 MDS .        Operator Entered:  MAG DATA SOURCE
 NREF.                    Grid:  NORTH REFERENCE
 SRVC.          TURAN DRILLING:  CONTRACTOR
 JOBN.        AZ-XX-0906571588:  JOB TICKET NUMB
 DCON.     Halliburton Sperry Drilling:  DIRECTNL CONTR
 STIM.      00.44.00 11-Feb-21:  START TIME
 DATE.      00.00.00 05-May-21:  END TIME
 SPUD.               13-Feb-21:  SPUD DATE
 MWDS.                    Baku:  MWD SHOP
 DOE .                     N/A:  DOE NUMBER
 UNIT.                     N/A:  LOGGING EQUIPMENT ID
 UWI .                     N/A:  UNIQUE WELL IDENTIFIER
 API .                     N/A:  API NUMBER
 CNTY.                        :  COUNTY
 LOC .                        :  LOCATION
 LMF .             Drill Floor:  LOG MEASURED FROM
 TVDS.m                  43.00:  TVDSS CORRECTN
 SDEP.m                 341.00:  START DEPTH
 EGL .m                   0.00:  GROUND ELEVATION
 WDMS.m                 169.80:  WD ELEV
 AGAP.m                  43.00:  AIR GAP
 EPD .m                   0.00:  ELEVATION
 APD .m                  43.00:  DEPTH ABOVE PD
 LATI.deg                40.13:  LATITUDE
 LONG.deg                51.22:  LONGITUDE
 UTMY.m             4443793.85:  UTM Y
 UTMX.m              519005.06:  UTM X
 WHEW.m                 -11.57:  WELL HEAD E/W
 WHNS.m                   8.57:  WELL HEAD N/S
 VSEW.m                 -11.57:  VERT SEC E/W
 VSNS.m                   8.57:  VERT SEC N/S
 DFWL.m                   0.00:  DISTANCE FWL
 DFSL.m                   0.00:  DISTANCE FSL
 VSDR.deg               299.34:  VERT SEC DIRECT
 GVFD.g                   1.00:  GRAVITY FIELD
 AZTC.deg                 6.36:  AZM TOTAL CORR
 MFLD.nT              50391.00:  MAGNETIC FIELD
 MDIP.deg                59.65:  MAGNETIC DIP
 MDEC.deg                 6.48:  MAGNETIC DECL
 GRDC.deg                 0.12:  GRID CORRECTION
 DEP .m                 334.96:  DEPTH
 TDD .m                1407.26:  TOTAL DEPTH (DRILLER)
 EKB .m                  43.00:  KB ELEVATION
 EDF .m                  43.00:  DF ELEVATION
 TDL .m                 228.00:  TOTAL DEPTH (LOGGER)
 VSC .                       0:  VS TO CLOSURE
 MAGU.                 1854484:  MAGUTM CHECKSUM
~Parameter Information Block
#MNEM.UNIT       Value        Description
#---------     -----------    ---------------------------
 AV  .mps                 4.00:  Ann Velocity 
 AVMX.mps                 4.73:  Max Ann Veloc 
 AZIF.deg               304.48:  Azm, Final 
 BHAT.        Rotary Steerable:  BHA Type 
 BREV.rev            257300.00:  Rev Bit Total 
 BROT.°/30m               0.00:  Build Rotating 
 BS  .in                  8.50:  Bit Size 
 BSZ .in                  8.50:  Bit Size 
 BTPL.psig              589.00:  Bit Press Loss 
 CABU.                      No:  Customer Abuse 
 CGEO.          Mubariz ghayev:  Customer Geo 
 COMM.                     lÿM:  Run Comments 1 
 TCS .hr                 64.25:  Time Ciculation Ended 
 CV  .mps                 3.50:  Crit Velocity 
 CVMX.mps                 4.52:  Max Crit Veloc 
 DD1 .             Aziz Aliyev:  Direct Drillr 1 
 DD2 .         Intigam Rahimov:  Direct Drillr 2 
 DD3 .          Rashad Habibov:  Direct Drillr 3 
 DDSV.               Geo-Pilot:  DD Service 
 DEFF.%                  98.00:  % Det Eff 
 DLRX.°/30m               0.00:  Dogleg Rot Max 
 DLSO.°/30m               0.00:  Dogleg Oriented 
 DLSX.°/30m               0.00:  Dogleg Str Max 
 DRET.      10.45.04 08-May-21:  Drill End Time 
 DRST.      03.30.04 04-May-21:  Drill Start Tim 
 DTIM.hr                 14.97:  Time Drilling 
 EDEP.m                4640.01:  End Depth 
 ENG1.         Dail Mahammadov:  Engineer 1 
 ENG2.           Eldar Hajiyev:  Engineer 2 
 ENG3.       Bakhtiar Jabbarli:  Engineer 3 
 ENG4.       Natik Hasanagayev:  Engineer 4 
 ETIM.      09.30.04 14-May-21:  End Time 
 FLOI.gpm               460.00:  Flow In 
 FLON.gpm               200.00:  Flow In Min 
 FLOS.cptm                0.00:  Fluid Loss 
 FLOX.gpm               505.00:  Flow In Max 
 HFLO.                      No:  High Flow 
 HPRE.                      No:  High Pressure 
 HTEM.                      No:  High Temp 
 HYDO.m                   1.80:  Hydro Offset 
 IFIN.deg                66.71:  Inc, Final 
 IMAX.deg                67.03:  Inc Max 
 IMIN.deg                66.63:  Inc Min 
 IMND.m                4550.58:  Inc Min Depth 
 IMXD.m                4439.01:  Inc Max Depth 
 JARR.                      No:  Jarring 
 LETM.      10.45.04 08-May-21:  Log End Time 
 LOST.hr                     0:  Lost Rig Time 
 LSTM.      03.30.04 04-May-21:  Log Start Time 
 MDCL.ppm             37000.00:  Mud Chlorides 
 MDES.     Inversion Oil/Synthetic:  Mud Desc 
 DFD .sg                  1.38:  Mud Density 
 MDMN.sg                  1.35:  Dens Mud Min 
 MDMX.sg                  1.40:  Dens Mud Max 
 MOIL.                   57.40:  Run Mud Oil % 
 MOWR.                   70:30:  Run Mud OWR 
 MSND.                    0.00:  Run Mud Sand % 
 MSOL.                   18.00:  Run Mud Solids% 
 DFV .spqt               71.00:  Mud Viscosity 
 MWOD.in                  6.75:  MWD Tool OD 
 MWSI.                      No:  Serv Intrp, MWD 
 OTIM.hr                242.76:  Time Operating 
 PCON.           Look Like New:  Pad Condition 
 PMAX.psia            12183.92:  Press Op, Max 
 PV  .cP                 27.00:  Mud PV 
 RUN .                    1300:  Run Number 
 ROPA.m/hr               15.00:  ROP Avg 
 ROPN.m/hr                9.00:  ROP Min 
 ROPX.m/hr               19.00:  ROP Max 
 RPMA.rpm               120.00:  RPM Surface Avg 
 RPMN.rpm               100.00:  RPM Surface Min 
 RPMX.rpm               120.00:  RPM Surface Max 
 RRUN.                    1300:  Rig Run Number 
 RTIM.hr                  5.00:  Time Reaming 
 SAZI.deg               304.73:  Azm, Start 
 SDEP.m                4412.01:  Start Depth 
 SIDD.                      No:  Serv Intrp, DD 
 SINC.deg                66.82:  Inc, Start 
 SPPA.psig             2800.00:  SPP Avg 
 SPPN.psig             2610.00:  SPP Min 
 SPPX.psig             3100.00:  SPP Max 
 STIM.      03.30.00 04-May-21:  Start Time 
 SVCS.                 DD, MWD:  Services 
 SVER.                    9.20:  Sperry Version 
 TDAT.m                 228.00:  Tot Depth Attmp 
 TDDF.                      No:  Trip for DD 
 TDLG.m                 228.00:  Tot Depth Loggd 
 TFF .                      No:  Trip for Fail 
 TQAA.f-kp               15.00:  Torque Abs Avg 
 TQAN.f-kp               12.00:  Torque Abs Min 
 TQAX.f-kp               22.00:  Torque Abs Max 
 TRRT.°/30m               0.00:  Turn Rotating 
 MRT .                    HCIM:  Maximum Recorded Temperature 
 TTMX.degC               90.20:  Max Tool Temp 
 VS01.                90627813:  Virtual Str1 SN 
 VS02.                90634712:  Virtual Str2 SN 
 VS03.                90643410:  Virtual Str3 SN 
 VS04.                90634712:  Virtual Str4 SN 
 WBMN.klb                 9.00:  WOB Min 
 WITN.        Elmaddin Rahimov:  Customer Rep 
 WITN.         Haytham Mostafa:  Customer Rep 2 
 WOBA.klb                15.00:  WOB Avg 
 WOBX.klb                23.00:  WOB Max 
 YP  .lhf2               29.00:  Yield Point 
~Curve Information Block
#MNEM.UNIT                 API CODE     Curve Description
#---------               -----------    ---------------------------
 TIME.HHMMSS            00 000 000 000:  GT Time & Date
 GTDEPTH.m              00 000 000 000:  GT Depth
 GTPQH.psia             00 000 000 000:  GT HR Quartz Pressure
 GTTQ.degC              00 000 000 000:  GT Quartz Temperature
 GTTN.NONE              00 000 000 000:  GT Test Number
 GTET.sec               00 000 000 000:  GT Elapsed Test Time
 GTTVD.m                00 000 000 000:  GT True Vertical Depth
#Other Information
#
#WARRANTY: Halliburton will use its best efforts to furnish customers with 
#accurate information and interpretations that are part of, and incident to, the services 
#provided.  However, Halliburton cannot and does not warrant the accuracy 
#or correctness of such information and interpretations.  Under no circumstances should any 
#such information or interpretation be relied upon as the sole basis for any drilling, 
#completion, production, or financial decision or any procedure involving any risk to the 
#safety of any drilling venture, drilling rig or its crew or any other third party.  The 
#Customer has full responsibility for all drilling, completion and production operation.  
#Halliburton makes no representations or warranties, either expressed or 
#implied, including, but not limited to, the implied warranties of merchantability or fitness 
#for a particular purpose, with respect to the services rendered.  In no event will 
#Halliburton be liable for failure to obtain any particular results or for 
#any damages, including, but not limited to, indirect, special or consequential damages, 
#resulting from the use of any information or interpretation provided by Halliburton.
#
~A           TIME           GTDEPTH  GTPQH  GTTQ  GTTN  GTET   GTTVD  
# ...
   22:22:53.000.08-May-2021 4569.01  836.90 68.48 4.00 138.00 2999.38
   22:22:53.200.08-May-2021 4569.01  836.90 68.48 4.00 138.20 2999.38
   22:22:53.400.08-May-2021 4569.01  837.03 68.48 4.00 138.40 2999.38
   22:22:53.600.08-May-2021 4569.01  836.65 68.48 4.00 138.60 2999.38
   22:22:53.800.08-May-2021 4569.01  837.60 68.48 4.00 138.80 2999.38
   22:22:54.000.08-May-2021 4569.01  837.40 68.48 4.00 139.00 2999.38
   22:22:54.200.08-May-2021 4569.01  837.40 68.48 4.00 139.20 2999.38
   22:22:54.400.08-May-2021 4569.01  837.85 68.48 4.00 139.40 2999.38
   22:22:54.600.08-May-2021 4569.01  837.74 68.48 4.00 139.60 2999.38
   22:22:54.800.08-May-2021 4569.01  838.10 68.48 4.00 139.80 2999.38
   22:22:55.000.08-May-2021 4569.01  837.91 68.48 4.00 140.00 2999.38
   22:22:55.200.08-May-2021 4569.01  837.91 68.48 4.00 140.20 2999.38
   22:22:55.400.08-May-2021 4569.01  837.56 68.48 4.00 140.40 2999.38
   22:22:55.600.08-May-2021 4569.01  838.46 68.48 4.00 140.60 2999.38
   22:22:55.800.08-May-2021 4569.01  838.37 68.48 4.00 140.80 2999.38
   22:22:56.000.08-May-2021 4569.01  839.36 68.48 4.00 141.00 2999.38
   22:22:56.200.08-May-2021 4569.01  839.36 68.48 4.00 141.20 2999.38
   22:22:56.400.08-May-2021 4569.01  839.35 68.48 4.00 141.40 2999.38
   22:22:56.600.08-May-2021 4569.01  839.26 68.48 4.00 141.60 2999.38
   22:22:56.800.08-May-2021 4569.01  839.24 68.48 4.00 141.80 2999.38
   22:22:57.000.08-May-2021 4569.01  839.33 68.48 4.00 142.00 2999.38
   22:22:57.200.08-May-2021 4569.01  839.33 68.48 4.00 142.20 2999.38
   22:22:57.400.08-May-2021 4569.01  839.52 68.48 4.00 142.40 2999.38
   22:22:57.600.08-May-2021 4569.01  839.58 68.49 4.00 142.60 2999.38
   22:22:57.800.08-May-2021 4569.01  839.70 68.48 4.00 142.80 2999.38
   22:22:58.000.08-May-2021 4569.01  839.79 68.49 4.00 143.00 2999.38
   22:22:58.200.08-May-2021 4569.01  839.79 68.49 4.00 143.20 2999.38
   22:22:58.400.08-May-2021 4569.01  839.57 68.49 4.00 143.40 2999.38
   22:22:58.600.08-May-2021 4569.01  840.38 68.49 4.00 143.60 2999.38
   22:22:58.800.08-May-2021 4569.01  840.19 68.49 4.00 143.80 2999.38
   22:22:59.000.08-May-2021 4569.01  840.36 68.49 4.00 144.00 2999.38
   22:22:59.200.08-May-2021 4569.01  840.36 68.49 4.00 144.20 2999.38
   22:22:59.400.08-May-2021 4569.01  840.42 68.49 4.00 144.40 2999.38
   22:22:59.600.08-May-2021 4569.01  840.45 68.49 4.00 144.60 2999.38
   22:22:59.800.08-May-2021 4569.01  840.55 68.49 4.00 144.80 2999.38
   22:23:00.000.08-May-2021 4569.01  840.60 68.49 4.00 145.00 2999.38
   22:23:00.200.08-May-2021 4569.01  840.60 68.49 4.00 145.20 2999.38
   22:23:00.400.08-May-2021 4569.01  840.77 68.49 4.00 145.40 2999.38
   22:23:00.600.08-May-2021 4569.01  840.81 68.49 4.00 145.60 2999.38
   22:23:00.800.08-May-2021 4569.01  840.77 68.49 4.00 145.80 2999.38
   22:23:01.000.08-May-2021 4569.01  840.64 68.49 4.00 146.00 2999.38
   22:23:01.200.08-May-2021 4569.01  840.64 68.49 4.00 146.20 2999.38
   22:23:01.400.08-May-2021 4569.01  841.23 68.49 4.00 146.40 2999.38
   22:23:01.600.08-May-2021 4569.01  838.74 68.49 4.00 146.60 2999.38
   22:23:01.800.08-May-2021 4569.01  821.36 68.49 4.00 146.80 2999.38
   22:23:02.000.08-May-2021 4569.01  786.58 68.49 4.00 147.00 2999.38
   22:23:02.200.08-May-2021 4569.01  786.58 68.49 4.00 147.20 2999.38
   22:23:02.400.08-May-2021 4569.01  760.41 68.49 4.00 147.40 2999.38
   22:23:02.600.08-May-2021 4569.01  754.41 68.49 4.00 147.60 2999.38
   22:23:02.800.08-May-2021 4569.01  750.25 68.49 4.00 147.80 2999.38
   22:23:03.000.08-May-2021 4569.01  746.89 68.49 4.00 148.00 2999.38
   22:23:03.200.08-May-2021 4569.01  746.89 68.49 4.00 148.20 2999.38
   22:23:03.400.08-May-2021 4569.01  743.65 68.49 4.00 148.40 2999.38
   22:23:03.600.08-May-2021 4569.01  736.39 68.49 4.00 148.60 2999.38
   22:23:03.800.08-May-2021 4569.01  740.21 68.49 4.00 148.80 2999.38
   22:23:04.000.08-May-2021 4569.01  746.03 68.49 4.00 149.00 2999.38
   22:23:04.200.08-May-2021 4569.01  746.03 68.49 4.00 149.20 2999.38
   22:23:04.400.08-May-2021 4569.01  731.45 68.49 4.00 149.40 2999.38
   22:23:04.600.08-May-2021 4569.01  727.38 68.49 4.00 149.60 2999.38
   22:23:04.800.08-May-2021 4569.01  718.78 68.49 4.00 149.80 2999.38
   22:23:05.000.08-May-2021 4569.01  714.86 68.49 4.00 150.00 2999.38
   22:23:05.200.08-May-2021 4569.01  714.86 68.49 4.00 150.20 2999.38
   22:23:05.400.08-May-2021 4569.01  708.12 68.49 4.00 150.40 2999.38
   22:23:05.600.08-May-2021 4569.01  706.45 68.49 4.00 150.60 2999.38
   22:23:05.800.08-May-2021 4569.01  705.59 68.49 4.00 150.80 2999.38
   22:23:06.000.08-May-2021 4569.01  704.75 68.49 4.00 151.00 2999.38
   22:23:06.200.08-May-2021 4569.01  704.75 68.49 4.00 151.20 2999.38
   22:23:06.400.08-May-2021 4569.01  704.56 68.48 4.00 151.40 2999.38
   22:23:06.600.08-May-2021 4569.01  704.41 68.48 4.00 151.60 2999.38
   22:23:06.800.08-May-2021 4569.01  704.51 68.48 4.00 151.80 2999.38
   22:23:07.000.08-May-2021 4569.01  704.57 68.48 4.00 152.00 2999.38
   22:23:07.200.08-May-2021 4569.01  704.57 68.48 4.00 152.20 2999.38
   22:23:07.400.08-May-2021 4569.01  704.76 68.48 4.00 152.40 2999.38
   22:23:07.600.08-May-2021 4569.01  704.96 68.48 4.00 152.60 2999.38
   22:23:07.800.08-May-2021 4569.01  705.06 68.48 4.00 152.80 2999.38
   22:23:08.000.08-May-2021 4569.01  705.15 68.48 4.00 153.00 2999.38
   22:23:08.200.08-May-2021 4569.01  705.15 68.48 4.00 153.20 2999.38
   22:23:08.400.08-May-2021 4569.01  705.26 68.48 4.00 153.40 2999.38
   22:23:08.600.08-May-2021 4569.01  705.03 68.48 4.00 153.60 2999.38
   22:23:08.800.08-May-2021 4569.01  710.05 68.48 4.00 153.80 2999.38
   22:23:09.000.08-May-2021 4569.01  711.79 68.48 4.00 154.00 2999.38
   22:23:09.200.08-May-2021 4569.01  711.79 68.48 4.00 154.20 2999.38
   22:23:09.400.08-May-2021 4569.01  711.93 68.48 4.00 154.40 2999.38
   22:23:09.600.08-May-2021 4569.01  711.44 68.48 4.00 154.60 2999.38
   22:23:09.800.08-May-2021 4569.01  711.39 68.48 4.00 154.80 2999.38
   22:23:10.000.08-May-2021 4569.01  711.39 68.48 4.00 155.00 2999.38
   22:23:10.200.08-May-2021 4569.01  711.39 68.48 4.00 155.20 2999.38
   22:23:10.400.08-May-2021 4569.01  711.65 68.48 4.00 155.40 2999.38
   22:23:10.600.08-May-2021 4569.01  710.90 68.48 4.00 155.60 2999.38
   22:23:10.800.08-May-2021 4569.01  710.55 68.48 4.00 155.80 2999.38
   22:23:11.000.08-May-2021 4569.01  710.46 68.48 4.00 156.00 2999.38
   22:23:11.200.08-May-2021 4569.01  710.46 68.48 4.00 156.20 2999.38
   22:23:11.400.08-May-2021 4569.01  710.74 68.48 4.00 156.40 2999.38
   22:23:11.600.08-May-2021 4569.01  709.84 68.48 4.00 156.60 2999.38
   22:23:11.800.08-May-2021 4569.01  709.86 68.48 4.00 156.80 2999.38
   22:23:12.000.08-May-2021 4569.01  710.10 68.48 4.00 157.00 2999.38
   22:23:12.200.08-May-2021 4569.01  710.10 68.48 4.00 157.20 2999.38
   22:23:12.400.08-May-2021 4569.01  716.92 68.48 4.00 157.40 2999.38
   22:23:12.600.08-May-2021 4569.01  717.08 68.48 4.00 157.60 2999.38
   22:23:12.800.08-May-2021 4569.01  717.21 68.48 4.00 157.80 2999.38
   22:23:13.000.08-May-2021 4569.01  717.30 68.48 4.00 158.00 2999.38
   22:23:13.200.08-May-2021 4569.01  717.30 68.48 4.00 158.20 2999.38
   22:23:13.400.08-May-2021 4569.01  717.21 68.48 4.00 158.40 2999.38
   22:23:13.600.08-May-2021 4569.01  718.91 68.48 4.00 158.60 2999.38
   22:23:13.800.08-May-2021 4569.01  719.14 68.48 4.00 158.80 2999.38
   22:23:14.000.08-May-2021 4569.01  719.11 68.48 4.00 159.00 2999.38
   22:23:14.200.08-May-2021 4569.01  719.11 68.48 4.00 159.20 2999.38
   22:23:14.400.08-May-2021 4569.01  719.14 68.48 4.00 159.40 2999.38
   22:23:14.600.08-May-2021 4569.01  719.29 68.48 4.00 159.60 2999.38
   22:23:14.800.08-May-2021 4569.01  719.39 68.48 4.00 159.80 2999.38
   22:23:15.000.08-May-2021 4569.01  719.47 68.48 4.00 160.00 2999.38
   22:23:15.200.08-May-2021 4569.01  719.47 68.48 4.00 160.20 2999.38
   22:23:15.400.08-May-2021 4569.01  719.67 68.48 4.00 160.40 2999.38
   22:23:15.600.08-May-2021 4569.01  719.77 68.48 4.00 160.60 2999.38
   22:23:15.800.08-May-2021 4569.01  719.83 68.48 4.00 160.80 2999.38
