~Version Information
 VERS.                  2.0:   CWLS log ASCII Standard -VERSION 2.0
 WRAP.                   NO:   One line per depth step
~Well Information Block
#MNEM.UNIT     VALUE/NAME     DESCRIPTION
#---------     -----------    ---------------------------
 STRT.S             00:24:13 10-May-21: START TIME 00:24:13 10-May-21
 STOP.S             00:32:26 10-May-21: STOP TIME  00:32:26 10-May-21
 STEP.S                   0.00: STEP TIME
 NULL.                 -999.25: NULL VALUE
 PROV.                    Baku:  PROVINCE
 STAT.                    Baku:  STATE NAME
 SON .        AZ-XX-0906571588:  JOB NUMBER
 WTYP.                Deviated:  WELL TYPE
 COMP.     BP Exploration (Caspian Sea) ltd:  COMPANY
 BASE.              Azerbaijan:  LOGGING EQUIPMENT BASE LOCATION
 REGN.                   EESSA:  REGION
 CTRY.              Azerbaijan:  COUNTRY NAME
 FLD .                     ACG:  FIELD NAME
 WELL.                     J28:  WELL NAME
 RIG .             West Chirag:  RIG NAME
 DMF .             Drill Floor:  DRILL MEAS FROM
 PDAT.       Caspian Sea Level:  PERMANENT DATUM
 HPTY.       Minimum Curvature:  HOLE POS TYPE
 MDS .        Operator Entered:  MAG DATA SOURCE
 NREF.                    Grid:  NORTH REFERENCE
 SRVC.          TURAN DRILLING:  CONTRACTOR
 JOBN.        AZ-XX-0906571588:  JOB TICKET NUMB
 DCON.     Halliburton Sperry Drilling:  DIRECTNL CONTR
 STIM.      00.44.00 11-Feb-21:  START TIME
 DATE.      00.00.00 05-May-21:  END TIME
 SPUD.               13-Feb-21:  SPUD DATE
 MWDS.                    Baku:  MWD SHOP
 DOE .                     N/A:  DOE NUMBER
 UNIT.                     N/A:  LOGGING EQUIPMENT ID
 UWI .                     N/A:  UNIQUE WELL IDENTIFIER
 API .                     N/A:  API NUMBER
 CNTY.                        :  COUNTY
 LOC .                        :  LOCATION
 LMF .             Drill Floor:  LOG MEASURED FROM
 TVDS.m                  43.00:  TVDSS CORRECTN
 SDEP.m                 341.00:  START DEPTH
 EGL .m                   0.00:  GROUND ELEVATION
 WDMS.m                 169.80:  WD ELEV
 AGAP.m                  43.00:  AIR GAP
 EPD .m                   0.00:  ELEVATION
 APD .m                  43.00:  DEPTH ABOVE PD
 LATI.deg                40.13:  LATITUDE
 LONG.deg                51.22:  LONGITUDE
 UTMY.m             4443793.85:  UTM Y
 UTMX.m              519005.06:  UTM X
 WHEW.m                 -11.57:  WELL HEAD E/W
 WHNS.m                   8.57:  WELL HEAD N/S
 VSEW.m                 -11.57:  VERT SEC E/W
 VSNS.m                   8.57:  VERT SEC N/S
 DFWL.m                   0.00:  DISTANCE FWL
 DFSL.m                   0.00:  DISTANCE FSL
 VSDR.deg               299.34:  VERT SEC DIRECT
 GVFD.g                   1.00:  GRAVITY FIELD
 AZTC.deg                 6.36:  AZM TOTAL CORR
 MFLD.nT              50391.00:  MAGNETIC FIELD
 MDIP.deg                59.65:  MAGNETIC DIP
 MDEC.deg                 6.48:  MAGNETIC DECL
 GRDC.deg                 0.12:  GRID CORRECTION
 DEP .m                 334.96:  DEPTH
 TDD .m                1407.26:  TOTAL DEPTH (DRILLER)
 EKB .m                  43.00:  KB ELEVATION
 EDF .m                  43.00:  DF ELEVATION
 TDL .m                 228.00:  TOTAL DEPTH (LOGGER)
 VSC .                       0:  VS TO CLOSURE
 MAGU.                 1854484:  MAGUTM CHECKSUM
~Parameter Information Block
#MNEM.UNIT       Value        Description
#---------     -----------    ---------------------------
 AV  .mps                 4.00:  Ann Velocity 
 AVMX.mps                 4.73:  Max Ann Veloc 
 AZIF.deg               304.48:  Azm, Final 
 BHAT.        Rotary Steerable:  BHA Type 
 BREV.rev            257300.00:  Rev Bit Total 
 BROT.°/30m               0.00:  Build Rotating 
 BS  .in                  8.50:  Bit Size 
 BSZ .in                  8.50:  Bit Size 
 BTPL.psig              589.00:  Bit Press Loss 
 CABU.                      No:  Customer Abuse 
 CGEO.          Mubariz ghayev:  Customer Geo 
 TCS .hr                 64.25:  Time Ciculation Ended 
 CV  .mps                 3.50:  Crit Velocity 
 CVMX.mps                 4.52:  Max Crit Veloc 
 DD1 .             Aziz Aliyev:  Direct Drillr 1 
 DD2 .         Intigam Rahimov:  Direct Drillr 2 
 DD3 .          Rashad Habibov:  Direct Drillr 3 
 DDSV.               Geo-Pilot:  DD Service 
 DEFF.%                  98.00:  % Det Eff 
 DLRX.°/30m               0.00:  Dogleg Rot Max 
 DLSO.°/30m               0.00:  Dogleg Oriented 
 DLSX.°/30m               0.00:  Dogleg Str Max 
 DRET.      10.45.04 08-May-21:  Drill End Time 
 DRST.      03.30.04 04-May-21:  Drill Start Tim 
 DTIM.hr                 14.97:  Time Drilling 
 EDEP.m                4640.01:  End Depth 
 ENG1.         Dail Mahammadov:  Engineer 1 
 ENG2.           Eldar Hajiyev:  Engineer 2 
 ENG3.       Bakhtiar Jabbarli:  Engineer 3 
 ENG4.       Natik Hasanagayev:  Engineer 4 
 ETIM.      09.30.04 14-May-21:  End Time 
 FLOI.gpm               460.00:  Flow In 
 FLON.gpm               200.00:  Flow In Min 
 FLOS.cptm                0.00:  Fluid Loss 
 FLOX.gpm               505.00:  Flow In Max 
 HFLO.                      No:  High Flow 
 HPRE.                      No:  High Pressure 
 HTEM.                      No:  High Temp 
 HYDO.m                   1.80:  Hydro Offset 
 IFIN.deg                66.71:  Inc, Final 
 IMAX.deg                67.03:  Inc Max 
 IMIN.deg                66.63:  Inc Min 
 IMND.m                4550.58:  Inc Min Depth 
 IMXD.m                4439.01:  Inc Max Depth 
 JARR.                      No:  Jarring 
 LETM.      10.45.04 08-May-21:  Log End Time 
 LOST.hr                     0:  Lost Rig Time 
 LSTM.      03.30.04 04-May-21:  Log Start Time 
 MDCL.ppm             37000.00:  Mud Chlorides 
 MDES.     Inversion Oil/Synthetic:  Mud Desc 
 DFD .sg                  1.38:  Mud Density 
 MDMN.sg                  1.35:  Dens Mud Min 
 MDMX.sg                  1.40:  Dens Mud Max 
 MOIL.                   57.40:  Run Mud Oil % 
 MOWR.                   70:30:  Run Mud OWR 
 MSND.                    0.00:  Run Mud Sand % 
 MSOL.                   18.00:  Run Mud Solids% 
 DFV .spqt               71.00:  Mud Viscosity 
 MWOD.in                  6.75:  MWD Tool OD 
 MWSI.                      No:  Serv Intrp, MWD 
 OTIM.hr                242.76:  Time Operating 
 PCON.           Look Like New:  Pad Condition 
 PMAX.psia            12183.92:  Press Op, Max 
 PV  .cP                 27.00:  Mud PV 
 RUN .                    1300:  Run Number 
 ROPA.m/hr               15.00:  ROP Avg 
 ROPN.m/hr                9.00:  ROP Min 
 ROPX.m/hr               19.00:  ROP Max 
 RPMA.rpm               120.00:  RPM Surface Avg 
 RPMN.rpm               100.00:  RPM Surface Min 
 RPMX.rpm               120.00:  RPM Surface Max 
 RRUN.                    1300:  Rig Run Number 
 RTIM.hr                  5.00:  Time Reaming 
 SAZI.deg               304.73:  Azm, Start 
 SDEP.m                4412.01:  Start Depth 
 SIDD.                      No:  Serv Intrp, DD 
 SINC.deg                66.82:  Inc, Start 
 SPPA.psig             2800.00:  SPP Avg 
 SPPN.psig             2610.00:  SPP Min 
 SPPX.psig             3100.00:  SPP Max 
 STIM.      03.30.00 04-May-21:  Start Time 
 SVCS.                 DD, MWD:  Services 
 SVER.                    9.20:  Sperry Version 
 TDAT.m                 228.00:  Tot Depth Attmp 
 TDDF.                      No:  Trip for DD 
 TDLG.m                 228.00:  Tot Depth Loggd 
 TFF .                      No:  Trip for Fail 
 TQAA.f-kp               15.00:  Torque Abs Avg 
 TQAN.f-kp               12.00:  Torque Abs Min 
 TQAX.f-kp               22.00:  Torque Abs Max 
 TRRT.°/30m               0.00:  Turn Rotating 
 MRT .                    HCIM:  Maximum Recorded Temperature 
 TTMX.degC               90.20:  Max Tool Temp 
 VS01.                90627813:  Virtual Str1 SN 
 VS02.                90634712:  Virtual Str2 SN 
 VS03.                90643410:  Virtual Str3 SN 
 VS04.                90634712:  Virtual Str4 SN 
 WBMN.klb                 9.00:  WOB Min 
 WITN.        Elmaddin Rahimov:  Customer Rep 
 WITN.         Haytham Mostafa:  Customer Rep 2 
 WOBA.klb                15.00:  WOB Avg 
 WOBX.klb                23.00:  WOB Max 
 YP  .lhf2               29.00:  Yield Point 
~Curve Information Block
#MNEM.UNIT                 API CODE     Curve Description
#---------               -----------    ---------------------------
 TIME.HHMMSS            00 000 000 000:  GT Time & Date
 GTDEPTH.m              00 000 000 000:  GT Depth
 GTPQH.psia             00 000 000 000:  GT HR Quartz Pressure
 GTTQ.degC              00 000 000 000:  GT Quartz Temperature
 GTTN.NONE              00 000 000 000:  GT Test Number
 GTET.sec               00 000 000 000:  GT Elapsed Test Time
 GTTVD.m                00 000 000 000:  GT True Vertical Depth
#Other Information
#
#WARRANTY: Halliburton will use its best efforts to furnish customers with 
#accurate information and interpretations that are part of, and incident to, the services 
#provided.  However, Halliburton cannot and does not warrant the accuracy 
#or correctness of such information and interpretations.  Under no circumstances should any 
#such information or interpretation be relied upon as the sole basis for any drilling, 
#completion, production, or financial decision or any procedure involving any risk to the 
#safety of any drilling venture, drilling rig or its crew or any other third party.  The 
#Customer has full responsibility for all drilling, completion and production operation.  
#Halliburton makes no representations or warranties, either expressed or 
#implied, including, but not limited to, the implied warranties of merchantability or fitness 
#for a particular purpose, with respect to the services rendered.  In no event will 
#Halliburton be liable for failure to obtain any particular results or for 
#any damages, including, but not limited to, indirect, special or consequential damages, 
#resulting from the use of any information or interpretation provided by Halliburton.
#
~A           TIME           GTDEPTH  GTPQH  GTTQ  GTTN   GTET   GTTVD  
# ...
   00:26:29.266.10-May-2021 4497.51  656.78 60.49 18.00 135.66 2971.13
   00:26:29.466.10-May-2021 4497.51  656.83 60.49 18.00 135.86 2971.13
   00:26:29.666.10-May-2021 4497.51  657.15 60.49 18.00 136.06 2971.13
   00:26:29.866.10-May-2021 4497.51  657.15 60.49 18.00 136.26 2971.13
   00:26:30.066.10-May-2021 4497.51  657.35 60.49 18.00 136.46 2971.13
   00:26:30.266.10-May-2021 4497.51  657.51 60.49 18.00 136.66 2971.13
   00:26:30.466.10-May-2021 4497.51  657.66 60.49 18.00 136.86 2971.13
   00:26:30.666.10-May-2021 4497.51  657.85 60.49 18.00 137.06 2971.13
   00:26:30.866.10-May-2021 4497.51  657.85 60.49 18.00 137.26 2971.13
   00:26:31.066.10-May-2021 4497.51  658.15 60.49 18.00 137.46 2971.13
   00:26:31.267.10-May-2021 4497.51  658.32 60.49 18.00 137.66 2971.13
   00:26:31.467.10-May-2021 4497.51  658.49 60.49 18.00 137.86 2971.13
   00:26:31.667.10-May-2021 4497.51  658.19 60.49 18.00 138.06 2971.13
   00:26:31.867.10-May-2021 4497.51  658.19 60.49 18.00 138.26 2971.13
   00:26:32.067.10-May-2021 4497.51  658.92 60.49 18.00 138.46 2971.13
   00:26:32.267.10-May-2021 4497.51  659.12 60.49 18.00 138.66 2971.13
   00:26:32.467.10-May-2021 4497.51  659.32 60.49 18.00 138.86 2971.13
   00:26:32.667.10-May-2021 4497.51  658.98 60.49 18.00 139.06 2971.13
   00:26:32.867.10-May-2021 4497.51  658.98 60.49 18.00 139.26 2971.13
   00:26:33.067.10-May-2021 4497.51  659.74 60.49 18.00 139.46 2971.13
   00:26:33.267.10-May-2021 4497.51  659.38 60.49 18.00 139.66 2971.13
   00:26:33.468.10-May-2021 4497.51  660.40 60.49 18.00 139.86 2971.13
   00:26:33.668.10-May-2021 4497.51  660.15 60.49 18.00 140.06 2971.13
   00:26:33.868.10-May-2021 4497.51  660.15 60.49 18.00 140.26 2971.13
   00:26:34.068.10-May-2021 4497.51  660.79 60.49 18.00 140.46 2971.13
   00:26:34.268.10-May-2021 4497.51  660.67 60.49 18.00 140.66 2971.13
   00:26:34.468.10-May-2021 4497.51  661.04 60.49 18.00 140.86 2971.13
   00:26:34.668.10-May-2021 4497.51  661.04 60.49 18.00 141.06 2971.13
   00:26:34.868.10-May-2021 4497.51  661.04 60.49 18.00 141.26 2971.13
   00:26:35.068.10-May-2021 4497.51  661.34 60.49 18.00 141.46 2971.13
   00:26:35.268.10-May-2021 4497.51  661.50 60.49 18.00 141.66 2971.13
   00:26:35.468.10-May-2021 4497.51  661.69 60.49 18.00 141.86 2971.13
   00:26:35.668.10-May-2021 4497.51  661.84 60.49 18.00 142.06 2971.13
   00:26:35.869.10-May-2021 4497.51  661.84 60.49 18.00 142.26 2971.13
   00:26:36.069.10-May-2021 4497.51  662.16 60.49 18.00 142.46 2971.13
   00:26:36.269.10-May-2021 4497.51  662.32 60.49 18.00 142.66 2971.13
   00:26:36.469.10-May-2021 4497.51  662.00 60.49 18.00 142.86 2971.13
   00:26:36.669.10-May-2021 4497.51  662.89 60.49 18.00 143.06 2971.13
   00:26:36.869.10-May-2021 4497.51  662.89 60.49 18.00 143.26 2971.13
   00:26:37.069.10-May-2021 4497.51  663.03 60.49 18.00 143.46 2971.13
   00:26:37.269.10-May-2021 4497.51  663.16 60.49 18.00 143.66 2971.13
   00:26:37.469.10-May-2021 4497.51  663.26 60.49 18.00 143.86 2971.13
   00:26:37.669.10-May-2021 4497.51  663.43 60.49 18.00 144.06 2971.13
   00:26:37.869.10-May-2021 4497.51  663.43 60.49 18.00 144.26 2971.13
   00:26:38.069.10-May-2021 4497.51  663.75 60.49 18.00 144.46 2971.13
   00:26:38.270.10-May-2021 4497.51  663.93 60.49 18.00 144.66 2971.13
   00:26:38.470.10-May-2021 4497.51  664.06 60.49 18.00 144.86 2971.13
   00:26:38.670.10-May-2021 4497.51  664.23 60.49 18.00 145.06 2971.13
   00:26:38.870.10-May-2021 4497.51  664.23 60.49 18.00 145.26 2971.13
   00:26:39.070.10-May-2021 4497.51  664.31 60.49 18.00 145.46 2971.13
   00:26:39.270.10-May-2021 4497.51  664.80 60.49 18.00 145.66 2971.13
   00:26:39.470.10-May-2021 4497.51  664.99 60.49 18.00 145.86 2971.13
   00:26:39.670.10-May-2021 4497.51  665.01 60.49 18.00 146.06 2971.13
   00:26:39.870.10-May-2021 4497.51  665.01 60.49 18.00 146.26 2971.13
   00:26:40.070.10-May-2021 4497.51  665.56 60.49 18.00 146.46 2971.13
   00:26:40.270.10-May-2021 4497.51  665.40 60.49 18.00 146.66 2971.13
   00:26:40.471.10-May-2021 4497.51  665.78 60.49 18.00 146.86 2971.13
   00:26:40.671.10-May-2021 4497.51  665.36 60.49 18.00 147.06 2971.13
   00:26:40.871.10-May-2021 4497.51  665.36 60.49 18.00 147.26 2971.13
   00:26:41.071.10-May-2021 4497.51  666.09 60.49 18.00 147.46 2971.13
   00:26:41.271.10-May-2021 4497.51  665.86 60.49 18.00 147.66 2971.13
   00:26:41.471.10-May-2021 4497.51  666.49 60.49 18.00 147.86 2971.13
   00:26:41.671.10-May-2021 4497.51  666.53 60.49 18.00 148.06 2971.13
   00:26:41.871.10-May-2021 4497.51  666.53 60.49 18.00 148.26 2971.13
   00:26:42.071.10-May-2021 4497.51  666.81 60.49 18.00 148.46 2971.13
   00:26:42.271.10-May-2021 4497.51  666.99 60.49 18.00 148.66 2971.13
   00:26:42.471.10-May-2021 4497.51  667.15 60.49 18.00 148.86 2971.13
   00:26:42.671.10-May-2021 4497.51  667.30 60.49 18.00 149.06 2971.13
   00:26:42.872.10-May-2021 4497.51  667.30 60.49 18.00 149.26 2971.13
   00:26:43.072.10-May-2021 4497.51  667.62 60.49 18.00 149.46 2971.13
   00:26:43.272.10-May-2021 4497.51  667.78 60.49 18.00 149.66 2971.13
   00:26:43.472.10-May-2021 4497.51  667.93 60.49 18.00 149.86 2971.13
   00:26:43.672.10-May-2021 4497.51  668.08 60.49 18.00 150.06 2971.13
   00:26:43.872.10-May-2021 4497.51  668.08 60.49 18.00 150.26 2971.13
   00:26:44.072.10-May-2021 4497.51  668.67 60.49 18.00 150.46 2971.13
   00:26:44.272.10-May-2021 4497.51  668.49 60.49 18.00 150.66 2971.13
   00:26:44.472.10-May-2021 4497.51  668.86 60.49 18.00 150.86 2971.13
   00:26:44.672.10-May-2021 4497.51  668.83 60.49 18.00 151.06 2971.13
   00:26:44.872.10-May-2021 4497.51  668.83 60.49 18.00 151.26 2971.13
   00:26:45.072.10-May-2021 4497.51  669.15 60.49 18.00 151.46 2971.13
   00:26:45.273.10-May-2021 4497.51  669.33 60.49 18.00 151.66 2971.13
   00:26:45.473.10-May-2021 4497.51  669.47 60.49 18.00 151.86 2971.13
   00:26:45.673.10-May-2021 4497.51  669.64 60.49 18.00 152.07 2971.13
   00:26:45.873.10-May-2021 4497.51  669.64 60.49 18.00 152.27 2971.13
   00:26:46.073.10-May-2021 4497.51  669.93 60.49 18.00 152.47 2971.13
   00:26:46.273.10-May-2021 4497.51  670.06 60.49 18.00 152.67 2971.13
   00:26:46.473.10-May-2021 4497.51  669.79 60.49 18.00 152.87 2971.13
   00:26:46.673.10-May-2021 4497.51  670.57 60.49 18.00 153.07 2971.13
   00:26:46.873.10-May-2021 4497.51  670.57 60.49 18.00 153.27 2971.13
   00:26:47.073.10-May-2021 4497.51  670.62 60.49 18.00 153.47 2971.13
   00:26:47.273.10-May-2021 4497.51  670.64 60.49 18.00 153.67 2971.13
   00:26:47.474.10-May-2021 4497.51  670.71 60.49 18.00 153.87 2971.13
   00:26:47.674.10-May-2021 4497.51  671.28 60.49 18.00 154.07 2971.13
   00:26:47.874.10-May-2021 4497.51  671.28 60.49 18.00 154.27 2971.13
   00:26:48.074.10-May-2021 4497.51  671.41 60.49 18.00 154.47 2971.13
   00:26:48.274.10-May-2021 4497.51  671.14 60.49 18.00 154.67 2971.13
   00:26:48.474.10-May-2021 4497.51  671.93 60.49 18.00 154.87 2971.13
   00:26:48.674.10-May-2021 4497.51  671.95 60.49 18.00 155.07 2971.13
   00:26:48.874.10-May-2021 4497.51  671.95 60.49 18.00 155.27 2971.13
   00:26:49.074.10-May-2021 4497.51  671.95 60.49 18.00 155.47 2971.13
   00:26:49.274.10-May-2021 4497.51  672.30 60.49 18.00 155.67 2971.13
   00:26:49.474.10-May-2021 4497.51  672.60 60.49 18.00 155.87 2971.13
   00:26:49.674.10-May-2021 4497.51  672.63 60.49 18.00 156.07 2971.13
   00:26:49.875.10-May-2021 4497.51  672.63 60.49 18.00 156.27 2971.13
   00:26:50.075.10-May-2021 4497.51  672.94 60.49 18.00 156.47 2971.13
   00:26:50.275.10-May-2021 4497.51  673.07 60.49 18.00 156.67 2971.13
   00:26:50.475.10-May-2021 4497.51  673.23 60.49 18.00 156.87 2971.13
   00:26:50.675.10-May-2021 4497.51  673.36 60.49 18.00 157.07 2971.13
   00:26:50.875.10-May-2021 4497.51  673.36 60.49 18.00 157.27 2971.13
   00:26:51.075.10-May-2021 4497.51  673.67 60.49 18.00 157.47 2971.13
   00:26:51.275.10-May-2021 4497.51  673.82 60.49 18.00 157.67 2971.13
   00:26:51.475.10-May-2021 4497.51  673.49 60.49 18.00 157.87 2971.13
   00:26:51.675.10-May-2021 4497.51  674.36 60.49 18.00 158.07 2971.13
