~Version Information
 VERS.                  2.0:   CWLS log ASCII Standard -VERSION 2.0
 WRAP.                   NO:   One line per depth step
~Well Information Block
#MNEM.UNIT     VALUE/NAME     DESCRIPTION
#---------     -----------    ---------------------------
 STRT.S             01:50:25 10-May-21: START TIME 01:50:25 10-May-21
 STOP.S             01:58:33 10-May-21: STOP TIME  01:58:33 10-May-21
 STEP.S                   0.00: STEP TIME
 NULL.                 -999.25: NULL VALUE
 PROV.                    Baku:  PROVINCE
 STAT.                    Baku:  STATE NAME
 SON .        AZ-XX-0906571588:  JOB NUMBER
 WTYP.                Deviated:  WELL TYPE
 COMP.     BP Exploration (Caspian Sea) ltd:  COMPANY
 BASE.              Azerbaijan:  LOGGING EQUIPMENT BASE LOCATION
 REGN.                   EESSA:  REGION
 CTRY.              Azerbaijan:  COUNTRY NAME
 FLD .                     ACG:  FIELD NAME
 WELL.                     J28:  WELL NAME
 RIG .             West Chirag:  RIG NAME
 DMF .             Drill Floor:  DRILL MEAS FROM
 PDAT.       Caspian Sea Level:  PERMANENT DATUM
 HPTY.       Minimum Curvature:  HOLE POS TYPE
 MDS .        Operator Entered:  MAG DATA SOURCE
 NREF.                    Grid:  NORTH REFERENCE
 SRVC.          TURAN DRILLING:  CONTRACTOR
 JOBN.        AZ-XX-0906571588:  JOB TICKET NUMB
 DCON.     Halliburton Sperry Drilling:  DIRECTNL CONTR
 STIM.      00.44.00 11-Feb-21:  START TIME
 DATE.      00.00.00 05-May-21:  END TIME
 SPUD.               13-Feb-21:  SPUD DATE
 MWDS.                    Baku:  MWD SHOP
 DOE .                     N/A:  DOE NUMBER
 UNIT.                     N/A:  LOGGING EQUIPMENT ID
 UWI .                     N/A:  UNIQUE WELL IDENTIFIER
 API .                     N/A:  API NUMBER
 CNTY.                        :  COUNTY
 LOC .                        :  LOCATION
 LMF .             Drill Floor:  LOG MEASURED FROM
 TVDS.m                  43.00:  TVDSS CORRECTN
 SDEP.m                 341.00:  START DEPTH
 EGL .m                   0.00:  GROUND ELEVATION
 WDMS.m                 169.80:  WD ELEV
 AGAP.m                  43.00:  AIR GAP
 EPD .m                   0.00:  ELEVATION
 APD .m                  43.00:  DEPTH ABOVE PD
 LATI.deg                40.13:  LATITUDE
 LONG.deg                51.22:  LONGITUDE
 UTMY.m             4443793.85:  UTM Y
 UTMX.m              519005.06:  UTM X
 WHEW.m                 -11.57:  WELL HEAD E/W
 WHNS.m                   8.57:  WELL HEAD N/S
 VSEW.m                 -11.57:  VERT SEC E/W
 VSNS.m                   8.57:  VERT SEC N/S
 DFWL.m                   0.00:  DISTANCE FWL
 DFSL.m                   0.00:  DISTANCE FSL
 VSDR.deg               299.34:  VERT SEC DIRECT
 GVFD.g                   1.00:  GRAVITY FIELD
 AZTC.deg                 6.36:  AZM TOTAL CORR
 MFLD.nT              50391.00:  MAGNETIC FIELD
 MDIP.deg                59.65:  MAGNETIC DIP
 MDEC.deg                 6.48:  MAGNETIC DECL
 GRDC.deg                 0.12:  GRID CORRECTION
 DEP .m                 334.96:  DEPTH
 TDD .m                1407.26:  TOTAL DEPTH (DRILLER)
 EKB .m                  43.00:  KB ELEVATION
 EDF .m                  43.00:  DF ELEVATION
 TDL .m                 228.00:  TOTAL DEPTH (LOGGER)
 VSC .                       0:  VS TO CLOSURE
 MAGU.                 1854484:  MAGUTM CHECKSUM
~Parameter Information Block
#MNEM.UNIT       Value        Description
#---------     -----------    ---------------------------
 AV  .mps                 4.00:  Ann Velocity 
 AVMX.mps                 4.73:  Max Ann Veloc 
 AZIF.deg               304.48:  Azm, Final 
 BHAT.        Rotary Steerable:  BHA Type 
 BREV.rev            257300.00:  Rev Bit Total 
 BROT.°/30m               0.00:  Build Rotating 
 BS  .in                  8.50:  Bit Size 
 BSZ .in                  8.50:  Bit Size 
 BTPL.psig              589.00:  Bit Press Loss 
 CABU.                      No:  Customer Abuse 
 CGEO.          Mubariz ghayev:  Customer Geo 
 COMM.                     Í‚:  Run Comments 1 
 TCS .hr                 64.25:  Time Ciculation Ended 
 CV  .mps                 3.50:  Crit Velocity 
 CVMX.mps                 4.52:  Max Crit Veloc 
 DD1 .             Aziz Aliyev:  Direct Drillr 1 
 DD2 .         Intigam Rahimov:  Direct Drillr 2 
 DD3 .          Rashad Habibov:  Direct Drillr 3 
 DDSV.               Geo-Pilot:  DD Service 
 DEFF.%                  98.00:  % Det Eff 
 DLRX.°/30m               0.00:  Dogleg Rot Max 
 DLSO.°/30m               0.00:  Dogleg Oriented 
 DLSX.°/30m               0.00:  Dogleg Str Max 
 DRET.      10.45.04 08-May-21:  Drill End Time 
 DRST.      03.30.04 04-May-21:  Drill Start Tim 
 DTIM.hr                 14.97:  Time Drilling 
 EDEP.m                4640.01:  End Depth 
 ENG1.         Dail Mahammadov:  Engineer 1 
 ENG2.           Eldar Hajiyev:  Engineer 2 
 ENG3.       Bakhtiar Jabbarli:  Engineer 3 
 ENG4.       Natik Hasanagayev:  Engineer 4 
 ETIM.      09.30.04 14-May-21:  End Time 
 FLOI.gpm               460.00:  Flow In 
 FLON.gpm               200.00:  Flow In Min 
 FLOS.cptm                0.00:  Fluid Loss 
 FLOX.gpm               505.00:  Flow In Max 
 HFLO.                      No:  High Flow 
 HPRE.                      No:  High Pressure 
 HTEM.                      No:  High Temp 
 HYDO.m                   1.80:  Hydro Offset 
 IFIN.deg                66.71:  Inc, Final 
 IMAX.deg                67.03:  Inc Max 
 IMIN.deg                66.63:  Inc Min 
 IMND.m                4550.58:  Inc Min Depth 
 IMXD.m                4439.01:  Inc Max Depth 
 JARR.                      No:  Jarring 
 LETM.      10.45.04 08-May-21:  Log End Time 
 LOST.hr                     0:  Lost Rig Time 
 LSTM.      03.30.04 04-May-21:  Log Start Time 
 MDCL.ppm             37000.00:  Mud Chlorides 
 MDES.     Inversion Oil/Synthetic:  Mud Desc 
 DFD .sg                  1.38:  Mud Density 
 MDMN.sg                  1.35:  Dens Mud Min 
 MDMX.sg                  1.40:  Dens Mud Max 
 MOIL.                   57.40:  Run Mud Oil % 
 MOWR.                   70:30:  Run Mud OWR 
 MSND.                    0.00:  Run Mud Sand % 
 MSOL.                   18.00:  Run Mud Solids% 
 DFV .spqt               71.00:  Mud Viscosity 
 MWOD.in                  6.75:  MWD Tool OD 
 MWSI.                      No:  Serv Intrp, MWD 
 OTIM.hr                242.76:  Time Operating 
 PCON.           Look Like New:  Pad Condition 
 PMAX.psia            12183.92:  Press Op, Max 
 PV  .cP                 27.00:  Mud PV 
 RUN .                    1300:  Run Number 
 ROPA.m/hr               15.00:  ROP Avg 
 ROPN.m/hr                9.00:  ROP Min 
 ROPX.m/hr               19.00:  ROP Max 
 RPMA.rpm               120.00:  RPM Surface Avg 
 RPMN.rpm               100.00:  RPM Surface Min 
 RPMX.rpm               120.00:  RPM Surface Max 
 RRUN.                    1300:  Rig Run Number 
 RTIM.hr                  5.00:  Time Reaming 
 SAZI.deg               304.73:  Azm, Start 
 SDEP.m                4412.01:  Start Depth 
 SIDD.                      No:  Serv Intrp, DD 
 SINC.deg                66.82:  Inc, Start 
 SPPA.psig             2800.00:  SPP Avg 
 SPPN.psig             2610.00:  SPP Min 
 SPPX.psig             3100.00:  SPP Max 
 STIM.      03.30.00 04-May-21:  Start Time 
 SVCS.                 DD, MWD:  Services 
 SVER.                    9.20:  Sperry Version 
 TDAT.m                 228.00:  Tot Depth Attmp 
 TDDF.                      No:  Trip for DD 
 TDLG.m                 228.00:  Tot Depth Loggd 
 TFF .                      No:  Trip for Fail 
 TQAA.f-kp               15.00:  Torque Abs Avg 
 TQAN.f-kp               12.00:  Torque Abs Min 
 TQAX.f-kp               22.00:  Torque Abs Max 
 TRRT.°/30m               0.00:  Turn Rotating 
 MRT .                    HCIM:  Maximum Recorded Temperature 
 TTMX.degC               90.20:  Max Tool Temp 
 VS01.                90627813:  Virtual Str1 SN 
 VS02.                90634712:  Virtual Str2 SN 
 VS03.                90643410:  Virtual Str3 SN 
 VS04.                90634712:  Virtual Str4 SN 
 WBMN.klb                 9.00:  WOB Min 
 WITN.        Elmaddin Rahimov:  Customer Rep 
 WITN.         Haytham Mostafa:  Customer Rep 2 
 WOBA.klb                15.00:  WOB Avg 
 WOBX.klb                23.00:  WOB Max 
 YP  .lhf2               29.00:  Yield Point 
~Curve Information Block
#MNEM.UNIT                 API CODE     Curve Description
#---------               -----------    ---------------------------
 TIME.HHMMSS            00 000 000 000:  GT Time & Date
 GTDEPTH.m              00 000 000 000:  GT Depth
 GTPQH.psia             00 000 000 000:  GT HR Quartz Pressure
 GTTQ.degC              00 000 000 000:  GT Quartz Temperature
 GTTN.NONE              00 000 000 000:  GT Test Number
 GTET.sec               00 000 000 000:  GT Elapsed Test Time
 GTTVD.m                00 000 000 000:  GT True Vertical Depth
#Other Information
#
#WARRANTY: Halliburton will use its best efforts to furnish customers with 
#accurate information and interpretations that are part of, and incident to, the services 
#provided.  However, Halliburton cannot and does not warrant the accuracy 
#or correctness of such information and interpretations.  Under no circumstances should any 
#such information or interpretation be relied upon as the sole basis for any drilling, 
#completion, production, or financial decision or any procedure involving any risk to the 
#safety of any drilling venture, drilling rig or its crew or any other third party.  The 
#Customer has full responsibility for all drilling, completion and production operation.  
#Halliburton makes no representations or warranties, either expressed or 
#implied, including, but not limited to, the implied warranties of merchantability or fitness 
#for a particular purpose, with respect to the services rendered.  In no event will 
#Halliburton be liable for failure to obtain any particular results or for 
#any damages, including, but not limited to, indirect, special or consequential damages, 
#resulting from the use of any information or interpretation provided by Halliburton.
#
~A           TIME           GTDEPTH  GTPQH  GTTQ  GTTN   GTET   GTTVD  
# ...
   01:53:03.569.10-May-2021 4567.51  659.22 61.02 19.00 158.23 2998.78
   01:53:03.769.10-May-2021 4567.51  659.31 61.02 19.00 158.43 2998.78
   01:53:03.969.10-May-2021 4567.51  659.37 61.02 19.00 158.63 2998.78
   01:53:04.169.10-May-2021 4567.51  659.41 61.02 19.00 158.83 2998.78
   01:53:04.369.10-May-2021 4567.51  659.12 61.02 19.00 159.03 2998.78
   01:53:04.569.10-May-2021 4567.51  659.12 61.02 19.00 159.23 2998.78
   01:53:04.769.10-May-2021 4567.51  659.64 61.02 19.00 159.43 2998.78
   01:53:04.969.10-May-2021 4567.51  659.67 61.02 19.00 159.63 2998.78
   01:53:05.169.10-May-2021 4567.51  659.70 61.02 19.00 159.83 2998.78
   01:53:05.370.10-May-2021 4567.51  659.67 61.02 19.00 160.03 2998.78
   01:53:05.570.10-May-2021 4567.51  659.67 61.02 19.00 160.23 2998.78
   01:53:05.770.10-May-2021 4567.51  659.79 61.02 19.00 160.43 2998.78
   01:53:05.970.10-May-2021 4567.51  659.84 61.02 19.00 160.63 2998.78
   01:53:06.170.10-May-2021 4567.51  659.89 61.02 19.00 160.83 2998.78
   01:53:06.370.10-May-2021 4567.51  659.94 61.02 19.00 161.03 2998.78
   01:53:06.570.10-May-2021 4567.51  659.94 61.02 19.00 161.23 2998.78
   01:53:06.770.10-May-2021 4567.51  659.72 61.02 19.00 161.43 2998.78
   01:53:06.970.10-May-2021 4567.51  660.14 61.02 19.00 161.63 2998.78
   01:53:07.170.10-May-2021 4567.51  660.23 61.02 19.00 161.83 2998.78
   01:53:07.370.10-May-2021 4567.51  660.32 61.02 19.00 162.03 2998.78
   01:53:07.570.10-May-2021 4567.51  660.32 61.02 19.00 162.23 2998.78
   01:53:07.770.10-May-2021 4567.51  659.90 61.02 19.00 162.43 2998.78
   01:53:07.970.10-May-2021 4567.51  660.55 61.02 19.00 162.63 2998.78
   01:53:08.170.10-May-2021 4567.51  660.34 61.02 19.00 162.83 2998.78
   01:53:08.370.10-May-2021 4567.51  660.50 61.02 19.00 163.03 2998.78
   01:53:08.570.10-May-2021 4567.51  660.50 61.02 19.00 163.23 2998.78
   01:53:08.770.10-May-2021 4567.51  660.78 61.01 19.00 163.43 2998.78
   01:53:08.970.10-May-2021 4567.51  660.54 61.02 19.00 163.63 2998.78
   01:53:09.170.10-May-2021 4567.51  660.35 61.01 19.00 163.83 2998.78
   01:53:09.370.10-May-2021 4567.51  660.97 61.01 19.00 164.03 2998.78
   01:53:09.570.10-May-2021 4567.51  660.97 61.01 19.00 164.23 2998.78
   01:53:09.770.10-May-2021 4567.51  660.82 61.01 19.00 164.43 2998.78
   01:53:09.970.10-May-2021 4567.51  660.80 61.01 19.00 164.63 2998.78
   01:53:10.170.10-May-2021 4567.51  660.77 61.01 19.00 164.83 2998.78
   01:53:10.370.10-May-2021 4567.51  660.81 61.01 19.00 165.03 2998.78
   01:53:10.570.10-May-2021 4567.51  660.81 61.01 19.00 165.23 2998.78
   01:53:10.770.10-May-2021 4567.51  660.91 61.01 19.00 165.43 2998.78
   01:53:10.971.10-May-2021 4567.51  660.95 61.01 19.00 165.63 2998.78
   01:53:11.171.10-May-2021 4567.51  660.97 61.01 19.00 165.83 2998.78
   01:53:11.371.10-May-2021 4567.51  661.02 61.01 19.00 166.03 2998.78
   01:53:11.571.10-May-2021 4567.51  661.02 61.01 19.00 166.23 2998.78
   01:53:11.771.10-May-2021 4567.51  660.76 61.01 19.00 166.43 2998.78
   01:53:11.971.10-May-2021 4567.51  661.41 61.01 19.00 166.63 2998.78
   01:53:12.171.10-May-2021 4567.51  661.26 61.01 19.00 166.83 2998.78
   01:53:12.371.10-May-2021 4567.51  661.29 61.01 19.00 167.03 2998.78
   01:53:12.571.10-May-2021 4567.51  661.29 61.01 19.00 167.23 2998.78
   01:53:12.771.10-May-2021 4567.51  661.29 61.01 19.00 167.43 2998.78
   01:53:12.971.10-May-2021 4567.51  661.33 61.01 19.00 167.63 2998.78
   01:53:13.171.10-May-2021 4567.51  661.39 61.01 19.00 167.83 2998.78
   01:53:13.371.10-May-2021 4567.51  661.43 61.01 19.00 168.03 2998.78
   01:53:13.571.10-May-2021 4567.51  661.43 61.01 19.00 168.23 2998.78
   01:53:13.771.10-May-2021 4567.51  661.51 61.01 19.00 168.43 2998.78
   01:53:13.971.10-May-2021 4567.51  661.56 61.01 19.00 168.63 2998.78
   01:53:14.171.10-May-2021 4567.51  661.29 61.01 19.00 168.83 2998.78
   01:53:14.371.10-May-2021 4567.51  661.71 61.01 19.00 169.03 2998.78
   01:53:14.571.10-May-2021 4567.51  661.71 61.01 19.00 169.23 2998.78
   01:53:14.771.10-May-2021 4567.51  661.87 61.01 19.00 169.43 2998.78
   01:53:14.971.10-May-2021 4567.51  661.83 61.01 19.00 169.63 2998.78
   01:53:15.171.10-May-2021 4567.51  661.42 61.01 19.00 169.83 2998.78
   01:53:15.371.10-May-2021 4567.51  662.10 61.01 19.00 170.03 2998.78
   01:53:15.571.10-May-2021 4567.51  662.10 61.01 19.00 170.23 2998.78
   01:53:15.771.10-May-2021 4567.51  662.11 61.01 19.00 170.43 2998.78
   01:53:15.971.10-May-2021 4567.51  661.64 61.01 19.00 170.63 2998.78
   01:53:16.171.10-May-2021 4567.51  662.30 61.01 19.00 170.83 2998.78
   01:53:16.371.10-May-2021 4567.51  662.00 61.01 19.00 171.03 2998.78
   01:53:16.572.10-May-2021 4567.51  662.00 61.01 19.00 171.23 2998.78
   01:53:16.772.10-May-2021 4567.51  661.82 61.01 19.00 171.43 2998.78
   01:53:16.972.10-May-2021 4567.51  662.47 61.01 19.00 171.63 2998.78
   01:53:17.172.10-May-2021 4567.51  662.21 61.01 19.00 171.83 2998.78
   01:53:17.372.10-May-2021 4567.51  662.33 61.01 19.00 172.03 2998.78
   01:53:17.572.10-May-2021 4567.51  662.33 61.01 19.00 172.23 2998.78
   01:53:17.772.10-May-2021 4567.51  662.28 61.01 19.00 172.43 2998.78
   01:53:17.972.10-May-2021 4567.51  662.32 61.01 19.00 172.63 2998.78
   01:53:18.172.10-May-2021 4567.51  662.37 61.01 19.00 172.83 2998.78
   01:53:18.372.10-May-2021 4567.51  662.40 61.01 19.00 173.03 2998.78
   01:53:18.572.10-May-2021 4567.51  662.40 61.01 19.00 173.23 2998.78
   01:53:18.772.10-May-2021 4567.51  662.45 61.01 19.00 173.43 2998.78
   01:53:18.972.10-May-2021 4567.51  662.49 61.01 19.00 173.63 2998.78
   01:53:19.172.10-May-2021 4567.51  662.52 61.01 19.00 173.83 2998.78
   01:53:19.372.10-May-2021 4567.51  662.23 61.01 19.00 174.03 2998.78
   01:53:19.572.10-May-2021 4567.51  662.23 61.01 19.00 174.23 2998.78
   01:53:19.772.10-May-2021 4567.51  662.74 61.01 19.00 174.43 2998.78
   01:53:19.972.10-May-2021 4567.51  662.69 61.01 19.00 174.63 2998.78
   01:53:20.172.10-May-2021 4567.51  662.74 61.01 19.00 174.83 2998.78
   01:53:20.372.10-May-2021 4567.51  662.72 61.01 19.00 175.03 2998.78
   01:53:20.572.10-May-2021 4567.51  662.72 61.01 19.00 175.23 2998.78
   01:53:20.772.10-May-2021 4567.51  662.83 61.01 19.00 175.43 2998.78
   01:53:20.972.10-May-2021 4567.51  662.87 61.01 19.00 175.63 2998.78
   01:53:21.172.10-May-2021 4567.51  662.91 61.01 19.00 175.83 2998.78
   01:53:21.372.10-May-2021 4567.51  662.94 61.01 19.00 176.03 2998.78
   01:53:21.572.10-May-2021 4567.51  662.94 61.01 19.00 176.23 2998.78
   01:53:21.772.10-May-2021 4567.51  662.70 61.01 19.00 176.43 2998.78
   01:53:21.972.10-May-2021 4567.51  663.13 61.01 19.00 176.63 2998.78
   01:53:22.173.10-May-2021 4567.51  663.22 61.01 19.00 176.83 2998.78
   01:53:22.373.10-May-2021 4567.51  663.29 61.01 19.00 177.03 2998.78
   01:53:22.573.10-May-2021 4567.51  663.29 61.01 19.00 177.23 2998.78
   01:53:22.773.10-May-2021 4567.51  662.82 61.01 19.00 177.43 2998.78
   01:53:22.973.10-May-2021 4567.51  663.51 61.01 19.00 177.63 2998.78
   01:53:23.173.10-May-2021 4567.51  663.31 61.01 19.00 177.83 2998.78
   01:53:23.373.10-May-2021 4567.51  663.42 61.01 19.00 178.03 2998.78
   01:53:23.573.10-May-2021 4567.51  663.42 61.01 19.00 178.23 2998.78
   01:53:23.773.10-May-2021 4567.51  663.44 61.01 19.00 178.43 2998.78
   01:53:23.973.10-May-2021 4567.51  663.50 61.01 19.00 178.63 2998.78
   01:53:24.173.10-May-2021 4567.51  655.99 61.01 19.00 178.83 2998.78
   01:53:24.373.10-May-2021 4567.51  603.55 61.01 19.00 179.03 2998.78
   01:53:24.573.10-May-2021 4567.51  603.55 61.01 19.00 179.23 2998.78
   01:53:24.773.10-May-2021 4567.51  554.65 61.01 19.00 179.43 2998.78
   01:53:24.973.10-May-2021 4567.51  534.85 61.01 19.00 179.63 2998.78
   01:53:25.173.10-May-2021 4567.51  518.95 61.01 19.00 179.83 2998.78
   01:53:25.373.10-May-2021 4567.51  512.08 61.01 19.00 180.03 2998.78
   01:53:25.573.10-May-2021 4567.51  512.08 61.01 19.00 180.23 2998.78
   01:53:25.773.10-May-2021 4567.51  507.00 61.01 19.00 180.43 2998.78
   01:53:25.973.10-May-2021 4567.51  505.08 61.01 19.00 180.63 2998.78
