~Version Information
 VERS.                  2.0:   CWLS log ASCII Standard -VERSION 2.0
 WRAP.                   NO:   One line per depth step
~Well Information Block
#MNEM.UNIT     VALUE/NAME     DESCRIPTION
#---------     -----------    ---------------------------
 STRT.S             00:24:13 10-May-21: START TIME 00:24:13 10-May-21
 STOP.S             00:32:26 10-May-21: STOP TIME  00:32:26 10-May-21
 STEP.S                   0.00: STEP TIME
 NULL.                 -999.25: NULL VALUE
 PROV.                    Baku:  PROVINCE
 STAT.                    Baku:  STATE NAME
 SON .        AZ-XX-0906571588:  JOB NUMBER
 WTYP.                Deviated:  WELL TYPE
 COMP.     BP Exploration (Caspian Sea) ltd:  COMPANY
 BASE.              Azerbaijan:  LOGGING EQUIPMENT BASE LOCATION
 REGN.                   EESSA:  REGION
 CTRY.              Azerbaijan:  COUNTRY NAME
 FLD .                     ACG:  FIELD NAME
 WELL.                     J28:  WELL NAME
 RIG .             West Chirag:  RIG NAME
 DMF .             Drill Floor:  DRILL MEAS FROM
 PDAT.       Caspian Sea Level:  PERMANENT DATUM
 HPTY.       Minimum Curvature:  HOLE POS TYPE
 MDS .        Operator Entered:  MAG DATA SOURCE
 NREF.                    Grid:  NORTH REFERENCE
 SRVC.          TURAN DRILLING:  CONTRACTOR
 JOBN.        AZ-XX-0906571588:  JOB TICKET NUMB
 DCON.     Halliburton Sperry Drilling:  DIRECTNL CONTR
 STIM.      00.44.00 11-Feb-21:  START TIME
 DATE.      00.00.00 05-May-21:  END TIME
 SPUD.               13-Feb-21:  SPUD DATE
 MWDS.                    Baku:  MWD SHOP
 DOE .                     N/A:  DOE NUMBER
 UNIT.                     N/A:  LOGGING EQUIPMENT ID
 UWI .                     N/A:  UNIQUE WELL IDENTIFIER
 API .                     N/A:  API NUMBER
 CNTY.                        :  COUNTY
 LOC .                        :  LOCATION
 LMF .             Drill Floor:  LOG MEASURED FROM
 TVDS.m                  43.00:  TVDSS CORRECTN
 SDEP.m                 341.00:  START DEPTH
 EGL .m                   0.00:  GROUND ELEVATION
 WDMS.m                 169.80:  WD ELEV
 AGAP.m                  43.00:  AIR GAP
 EPD .m                   0.00:  ELEVATION
 APD .m                  43.00:  DEPTH ABOVE PD
 LATI.deg                40.13:  LATITUDE
 LONG.deg                51.22:  LONGITUDE
 UTMY.m             4443793.85:  UTM Y
 UTMX.m              519005.06:  UTM X
 WHEW.m                 -11.57:  WELL HEAD E/W
 WHNS.m                   8.57:  WELL HEAD N/S
 VSEW.m                 -11.57:  VERT SEC E/W
 VSNS.m                   8.57:  VERT SEC N/S
 DFWL.m                   0.00:  DISTANCE FWL
 DFSL.m                   0.00:  DISTANCE FSL
 VSDR.deg               299.34:  VERT SEC DIRECT
 GVFD.g                   1.00:  GRAVITY FIELD
 AZTC.deg                 6.36:  AZM TOTAL CORR
 MFLD.nT              50391.00:  MAGNETIC FIELD
 MDIP.deg                59.65:  MAGNETIC DIP
 MDEC.deg                 6.48:  MAGNETIC DECL
 GRDC.deg                 0.12:  GRID CORRECTION
 DEP .m                 334.96:  DEPTH
 TDD .m                1407.26:  TOTAL DEPTH (DRILLER)
 EKB .m                  43.00:  KB ELEVATION
 EDF .m                  43.00:  DF ELEVATION
 TDL .m                 228.00:  TOTAL DEPTH (LOGGER)
 VSC .                       0:  VS TO CLOSURE
 MAGU.                 1854484:  MAGUTM CHECKSUM
~Parameter Information Block
#MNEM.UNIT       Value        Description
#---------     -----------    ---------------------------
 AV  .mps                 4.00:  Ann Velocity 
 AVMX.mps                 4.73:  Max Ann Veloc 
 AZIF.deg               304.48:  Azm, Final 
 BHAT.        Rotary Steerable:  BHA Type 
 BREV.rev            257300.00:  Rev Bit Total 
 BROT.°/30m               0.00:  Build Rotating 
 BS  .in                  8.50:  Bit Size 
 BSZ .in                  8.50:  Bit Size 
 BTPL.psig              589.00:  Bit Press Loss 
 CABU.                      No:  Customer Abuse 
 CGEO.          Mubariz ghayev:  Customer Geo 
 TCS .hr                 64.25:  Time Ciculation Ended 
 CV  .mps                 3.50:  Crit Velocity 
 CVMX.mps                 4.52:  Max Crit Veloc 
 DD1 .             Aziz Aliyev:  Direct Drillr 1 
 DD2 .         Intigam Rahimov:  Direct Drillr 2 
 DD3 .          Rashad Habibov:  Direct Drillr 3 
 DDSV.               Geo-Pilot:  DD Service 
 DEFF.%                  98.00:  % Det Eff 
 DLRX.°/30m               0.00:  Dogleg Rot Max 
 DLSO.°/30m               0.00:  Dogleg Oriented 
 DLSX.°/30m               0.00:  Dogleg Str Max 
 DRET.      10.45.04 08-May-21:  Drill End Time 
 DRST.      03.30.04 04-May-21:  Drill Start Tim 
 DTIM.hr                 14.97:  Time Drilling 
 EDEP.m                4640.01:  End Depth 
 ENG1.         Dail Mahammadov:  Engineer 1 
 ENG2.           Eldar Hajiyev:  Engineer 2 
 ENG3.       Bakhtiar Jabbarli:  Engineer 3 
 ENG4.       Natik Hasanagayev:  Engineer 4 
 ETIM.      09.30.04 14-May-21:  End Time 
 FLOI.gpm               460.00:  Flow In 
 FLON.gpm               200.00:  Flow In Min 
 FLOS.cptm                0.00:  Fluid Loss 
 FLOX.gpm               505.00:  Flow In Max 
 HFLO.                      No:  High Flow 
 HPRE.                      No:  High Pressure 
 HTEM.                      No:  High Temp 
 HYDO.m                   1.80:  Hydro Offset 
 IFIN.deg                66.71:  Inc, Final 
 IMAX.deg                67.03:  Inc Max 
 IMIN.deg                66.63:  Inc Min 
 IMND.m                4550.58:  Inc Min Depth 
 IMXD.m                4439.01:  Inc Max Depth 
 JARR.                      No:  Jarring 
 LETM.      10.45.04 08-May-21:  Log End Time 
 LOST.hr                     0:  Lost Rig Time 
 LSTM.      03.30.04 04-May-21:  Log Start Time 
 MDCL.ppm             37000.00:  Mud Chlorides 
 MDES.     Inversion Oil/Synthetic:  Mud Desc 
 DFD .sg                  1.38:  Mud Density 
 MDMN.sg                  1.35:  Dens Mud Min 
 MDMX.sg                  1.40:  Dens Mud Max 
 MOIL.                   57.40:  Run Mud Oil % 
 MOWR.                   70:30:  Run Mud OWR 
 MSND.                    0.00:  Run Mud Sand % 
 MSOL.                   18.00:  Run Mud Solids% 
 DFV .spqt               71.00:  Mud Viscosity 
 MWOD.in                  6.75:  MWD Tool OD 
 MWSI.                      No:  Serv Intrp, MWD 
 OTIM.hr                242.76:  Time Operating 
 PCON.           Look Like New:  Pad Condition 
 PMAX.psia            12183.92:  Press Op, Max 
 PV  .cP                 27.00:  Mud PV 
 RUN .                    1300:  Run Number 
 ROPA.m/hr               15.00:  ROP Avg 
 ROPN.m/hr                9.00:  ROP Min 
 ROPX.m/hr               19.00:  ROP Max 
 RPMA.rpm               120.00:  RPM Surface Avg 
 RPMN.rpm               100.00:  RPM Surface Min 
 RPMX.rpm               120.00:  RPM Surface Max 
 RRUN.                    1300:  Rig Run Number 
 RTIM.hr                  5.00:  Time Reaming 
 SAZI.deg               304.73:  Azm, Start 
 SDEP.m                4412.01:  Start Depth 
 SIDD.                      No:  Serv Intrp, DD 
 SINC.deg                66.82:  Inc, Start 
 SPPA.psig             2800.00:  SPP Avg 
 SPPN.psig             2610.00:  SPP Min 
 SPPX.psig             3100.00:  SPP Max 
 STIM.      03.30.00 04-May-21:  Start Time 
 SVCS.                 DD, MWD:  Services 
 SVER.                    9.20:  Sperry Version 
 TDAT.m                 228.00:  Tot Depth Attmp 
 TDDF.                      No:  Trip for DD 
 TDLG.m                 228.00:  Tot Depth Loggd 
 TFF .                      No:  Trip for Fail 
 TQAA.f-kp               15.00:  Torque Abs Avg 
 TQAN.f-kp               12.00:  Torque Abs Min 
 TQAX.f-kp               22.00:  Torque Abs Max 
 TRRT.°/30m               0.00:  Turn Rotating 
 MRT .                    HCIM:  Maximum Recorded Temperature 
 TTMX.degC               90.20:  Max Tool Temp 
 VS01.                90627813:  Virtual Str1 SN 
 VS02.                90634712:  Virtual Str2 SN 
 VS03.                90643410:  Virtual Str3 SN 
 VS04.                90634712:  Virtual Str4 SN 
 WBMN.klb                 9.00:  WOB Min 
 WITN.        Elmaddin Rahimov:  Customer Rep 
 WITN.         Haytham Mostafa:  Customer Rep 2 
 WOBA.klb                15.00:  WOB Avg 
 WOBX.klb                23.00:  WOB Max 
 YP  .lhf2               29.00:  Yield Point 
~Curve Information Block
#MNEM.UNIT                 API CODE     Curve Description
#---------               -----------    ---------------------------
 TIME.HHMMSS            00 000 000 000:  GT Time & Date
 GTDEPTH.m              00 000 000 000:  GT Depth
 GTPQH.psia             00 000 000 000:  GT HR Quartz Pressure
 GTTQ.degC              00 000 000 000:  GT Quartz Temperature
 GTTN.NONE              00 000 000 000:  GT Test Number
 GTET.sec               00 000 000 000:  GT Elapsed Test Time
 GTTVD.m                00 000 000 000:  GT True Vertical Depth
#Other Information
#
#WARRANTY: Halliburton will use its best efforts to furnish customers with 
#accurate information and interpretations that are part of, and incident to, the services 
#provided.  However, Halliburton cannot and does not warrant the accuracy 
#or correctness of such information and interpretations.  Under no circumstances should any 
#such information or interpretation be relied upon as the sole basis for any drilling, 
#completion, production, or financial decision or any procedure involving any risk to the 
#safety of any drilling venture, drilling rig or its crew or any other third party.  The 
#Customer has full responsibility for all drilling, completion and production operation.  
#Halliburton makes no representations or warranties, either expressed or 
#implied, including, but not limited to, the implied warranties of merchantability or fitness 
#for a particular purpose, with respect to the services rendered.  In no event will 
#Halliburton be liable for failure to obtain any particular results or for 
#any damages, including, but not limited to, indirect, special or consequential damages, 
#resulting from the use of any information or interpretation provided by Halliburton.
#
~A           TIME           GTDEPTH  GTPQH  GTTQ  GTTN   GTET   GTTVD  
# ...
   00:28:22.314.10-May-2021 4497.51  488.68 60.47 18.00 248.71 2971.13
   00:28:22.514.10-May-2021 4497.51  488.91 60.47 18.00 248.91 2971.13
   00:28:22.714.10-May-2021 4497.51  488.98 60.47 18.00 249.11 2971.13
   00:28:22.914.10-May-2021 4497.51  488.98 60.47 18.00 249.31 2971.13
   00:28:23.114.10-May-2021 4497.51  488.93 60.47 18.00 249.51 2971.13
   00:28:23.315.10-May-2021 4497.51  489.54 60.47 18.00 249.71 2971.13
   00:28:23.515.10-May-2021 4497.51  489.66 60.47 18.00 249.91 2971.13
   00:28:23.715.10-May-2021 4497.51  490.05 60.47 18.00 250.11 2971.13
   00:28:23.915.10-May-2021 4497.51  490.05 60.47 18.00 250.31 2971.13
   00:28:24.115.10-May-2021 4497.51  490.42 60.47 18.00 250.51 2971.13
   00:28:24.315.10-May-2021 4497.51  490.49 60.47 18.00 250.71 2971.13
   00:28:24.515.10-May-2021 4497.51  490.57 60.47 18.00 250.91 2971.13
   00:28:24.715.10-May-2021 4497.51  490.85 60.47 18.00 251.11 2971.13
   00:28:24.915.10-May-2021 4497.51  490.85 60.47 18.00 251.31 2971.13
   00:28:25.115.10-May-2021 4497.51  491.19 60.47 18.00 251.51 2971.13
   00:28:25.315.10-May-2021 4497.51  491.36 60.47 18.00 251.71 2971.13
   00:28:25.515.10-May-2021 4497.51  491.53 60.47 18.00 251.91 2971.13
   00:28:25.716.10-May-2021 4497.51  491.72 60.47 18.00 252.11 2971.13
   00:28:25.916.10-May-2021 4497.51  491.72 60.47 18.00 252.31 2971.13
   00:28:26.116.10-May-2021 4497.51  492.11 60.47 18.00 252.51 2971.13
   00:28:26.316.10-May-2021 4497.51  491.89 60.47 18.00 252.71 2971.13
   00:28:26.516.10-May-2021 4497.51  492.49 60.47 18.00 252.91 2971.13
   00:28:26.716.10-May-2021 4497.51  492.57 60.47 18.00 253.11 2971.13
   00:28:26.916.10-May-2021 4497.51  492.57 60.47 18.00 253.31 2971.13
   00:28:27.116.10-May-2021 4497.51  492.96 60.47 18.00 253.51 2971.13
   00:28:27.316.10-May-2021 4497.51  493.18 60.47 18.00 253.71 2971.13
   00:28:27.516.10-May-2021 4497.51  493.36 60.47 18.00 253.91 2971.13
   00:28:27.716.10-May-2021 4497.51  493.54 60.47 18.00 254.11 2971.13
   00:28:27.916.10-May-2021 4497.51  493.54 60.47 18.00 254.31 2971.13
   00:28:28.117.10-May-2021 4497.51  493.92 60.47 18.00 254.51 2971.13
   00:28:28.317.10-May-2021 4497.51  494.09 60.47 18.00 254.71 2971.13
   00:28:28.517.10-May-2021 4497.51  494.29 60.47 18.00 254.91 2971.13
   00:28:28.717.10-May-2021 4497.51  494.49 60.47 18.00 255.11 2971.13
   00:28:28.917.10-May-2021 4497.51  494.49 60.47 18.00 255.31 2971.13
   00:28:29.117.10-May-2021 4497.51  495.08 60.47 18.00 255.51 2971.13
   00:28:29.317.10-May-2021 4497.51  494.93 60.47 18.00 255.71 2971.13
   00:28:29.517.10-May-2021 4497.51  495.33 60.47 18.00 255.91 2971.13
   00:28:29.717.10-May-2021 4497.51  495.42 60.47 18.00 256.11 2971.13
   00:28:29.917.10-May-2021 4497.51  495.42 60.47 18.00 256.31 2971.13
   00:28:30.117.10-May-2021 4497.51  495.57 60.47 18.00 256.51 2971.13
   00:28:30.317.10-May-2021 4497.51  496.06 60.47 18.00 256.71 2971.13
   00:28:30.518.10-May-2021 4497.51  496.25 60.47 18.00 256.91 2971.13
   00:28:30.718.10-May-2021 4497.51  496.32 60.47 18.00 257.11 2971.13
   00:28:30.918.10-May-2021 4497.51  496.32 60.47 18.00 257.31 2971.13
   00:28:31.118.10-May-2021 4497.51  496.35 60.47 18.00 257.51 2971.13
   00:28:31.318.10-May-2021 4497.51  497.10 60.47 18.00 257.71 2971.13
   00:28:31.518.10-May-2021 4497.51  497.21 60.47 18.00 257.91 2971.13
   00:28:31.718.10-May-2021 4497.51  497.27 60.47 18.00 258.11 2971.13
   00:28:31.918.10-May-2021 4497.51  497.27 60.47 18.00 258.31 2971.13
   00:28:32.118.10-May-2021 4497.51  497.86 60.47 18.00 258.51 2971.13
   00:28:32.318.10-May-2021 4497.51  497.96 60.47 18.00 258.71 2971.13
   00:28:32.518.10-May-2021 4497.51  498.03 60.47 18.00 258.91 2971.13
   00:28:32.719.10-May-2021 4497.51  498.35 60.47 18.00 259.11 2971.13
   00:28:32.919.10-May-2021 4497.51  498.35 60.47 18.00 259.31 2971.13
   00:28:33.119.10-May-2021 4497.51  498.69 60.47 18.00 259.51 2971.13
   00:28:33.319.10-May-2021 4497.51  498.84 60.47 18.00 259.71 2971.13
   00:28:33.519.10-May-2021 4497.51  499.06 60.47 18.00 259.91 2971.13
   00:28:33.719.10-May-2021 4497.51  499.22 60.47 18.00 260.11 2971.13
   00:28:33.919.10-May-2021 4497.51  499.22 60.47 18.00 260.31 2971.13
   00:28:34.119.10-May-2021 4497.51  499.62 60.47 18.00 260.51 2971.13
   00:28:34.319.10-May-2021 4497.51  499.45 60.47 18.00 260.71 2971.13
   00:28:34.519.10-May-2021 4497.51  500.03 60.47 18.00 260.91 2971.13
   00:28:34.719.10-May-2021 4497.51  500.15 60.47 18.00 261.11 2971.13
   00:28:34.919.10-May-2021 4497.51  500.15 60.47 18.00 261.31 2971.13
   00:28:35.120.10-May-2021 4497.51  500.56 60.47 18.00 261.51 2971.13
   00:28:35.320.10-May-2021 4497.51  500.75 60.47 18.00 261.71 2971.13
   00:28:35.520.10-May-2021 4497.51  500.98 60.47 18.00 261.91 2971.13
   00:28:35.720.10-May-2021 4497.51  501.14 60.47 18.00 262.11 2971.13
   00:28:35.920.10-May-2021 4497.51  501.14 60.47 18.00 262.31 2971.13
   00:28:36.120.10-May-2021 4497.51  501.53 60.47 18.00 262.51 2971.13
   00:28:36.320.10-May-2021 4497.51  501.73 60.47 18.00 262.71 2971.13
   00:28:36.520.10-May-2021 4497.51  501.92 60.47 18.00 262.91 2971.13
   00:28:36.720.10-May-2021 4497.51  502.14 60.47 18.00 263.11 2971.13
   00:28:36.920.10-May-2021 4497.51  502.14 60.47 18.00 263.31 2971.13
   00:28:37.120.10-May-2021 4497.51  502.76 60.47 18.00 263.51 2971.13
   00:28:37.320.10-May-2021 4497.51  502.61 60.46 18.00 263.71 2971.13
   00:28:37.521.10-May-2021 4497.51  503.01 60.47 18.00 263.91 2971.13
   00:28:37.721.10-May-2021 4497.51  503.10 60.47 18.00 264.11 2971.13
   00:28:37.921.10-May-2021 4497.51  503.10 60.47 18.00 264.31 2971.13
   00:28:38.121.10-May-2021 4497.51  503.02 60.46 18.00 264.51 2971.13
   00:28:38.321.10-May-2021 4497.51  503.88 60.46 18.00 264.71 2971.13
   00:28:38.521.10-May-2021 4497.51  503.84 60.46 18.00 264.91 2971.13
   00:28:38.721.10-May-2021 4497.51  504.10 60.46 18.00 265.11 2971.13
   00:28:38.921.10-May-2021 4497.51  504.10 60.46 18.00 265.31 2971.13
   00:28:39.121.10-May-2021 4497.51  504.03 60.46 18.00 265.51 2971.13
   00:28:39.321.10-May-2021 4497.51  504.88 60.46 18.00 265.71 2971.13
   00:28:39.521.10-May-2021 4497.51  504.86 60.46 18.00 265.91 2971.13
   00:28:39.722.10-May-2021 4497.51  505.10 60.46 18.00 266.11 2971.13
   00:28:39.922.10-May-2021 4497.51  505.10 60.46 18.00 266.31 2971.13
   00:28:40.122.10-May-2021 4497.51  505.43 60.46 18.00 266.51 2971.13
   00:28:40.322.10-May-2021 4497.51  505.18 60.46 18.00 266.71 2971.13
   00:28:40.522.10-May-2021 4497.51  506.05 60.46 18.00 266.91 2971.13
   00:28:40.722.10-May-2021 4497.51  506.04 60.46 18.00 267.11 2971.13
   00:28:40.922.10-May-2021 4497.51  506.04 60.46 18.00 267.31 2971.13
   00:28:41.122.10-May-2021 4497.51  506.50 60.46 18.00 267.51 2971.13
   00:28:41.322.10-May-2021 4497.51  506.65 60.46 18.00 267.71 2971.13
   00:28:41.522.10-May-2021 4497.51  506.86 60.46 18.00 267.91 2971.13
   00:28:41.722.10-May-2021 4497.51  507.05 60.46 18.00 268.11 2971.13
   00:28:41.922.10-May-2021 4497.51  507.05 60.46 18.00 268.31 2971.13
   00:28:42.123.10-May-2021 4497.51  507.48 60.46 18.00 268.51 2971.13
   00:28:42.323.10-May-2021 4497.51  507.66 60.46 18.00 268.71 2971.13
   00:28:42.523.10-May-2021 4497.51  507.83 60.46 18.00 268.92 2971.13
   00:28:42.723.10-May-2021 4497.51  507.76 60.46 18.00 269.12 2971.13
   00:28:42.923.10-May-2021 4497.51  507.76 60.46 18.00 269.32 2971.13
   00:28:43.123.10-May-2021 4497.51  508.50 60.46 18.00 269.52 2971.13
   00:28:43.323.10-May-2021 4497.51  508.72 60.46 18.00 269.72 2971.13
   00:28:43.523.10-May-2021 4497.51  508.78 60.46 18.00 269.92 2971.13
   00:28:43.723.10-May-2021 4497.51  509.04 60.46 18.00 270.12 2971.13
   00:28:43.923.10-May-2021 4497.51  509.04 60.46 18.00 270.32 2971.13
   00:28:44.123.10-May-2021 4497.51  509.38 60.46 18.00 270.52 2971.13
   00:28:44.323.10-May-2021 4497.51  509.55 60.46 18.00 270.72 2971.13
   00:28:44.524.10-May-2021 4497.51  509.77 60.46 18.00 270.92 2971.13
   00:28:44.724.10-May-2021 4497.51  509.96 60.46 18.00 271.12 2971.13
