~Version Information
 VERS.                  2.0:   CWLS log ASCII Standard -VERSION 2.0
 WRAP.                   NO:   One line per depth step
~Well Information Block
#MNEM.UNIT     VALUE/NAME     DESCRIPTION
#---------     -----------    ---------------------------
 STRT.S             00:30:13 09-May-21: START TIME 00:30:13 09-May-21
 STOP.S             00:37:03 09-May-21: STOP TIME  00:37:03 09-May-21
 STEP.S                   0.00: STEP TIME
 NULL.                 -999.25: NULL VALUE
 PROV.                    Baku:  PROVINCE
 STAT.                    Baku:  STATE NAME
 SON .        AZ-XX-0906571588:  JOB NUMBER
 WTYP.                Deviated:  WELL TYPE
 COMP.     BP Exploration (Caspian Sea) ltd:  COMPANY
 BASE.              Azerbaijan:  LOGGING EQUIPMENT BASE LOCATION
 REGN.                   EESSA:  REGION
 CTRY.              Azerbaijan:  COUNTRY NAME
 FLD .                     ACG:  FIELD NAME
 WELL.                     J28:  WELL NAME
 RIG .             West Chirag:  RIG NAME
 DMF .             Drill Floor:  DRILL MEAS FROM
 PDAT.       Caspian Sea Level:  PERMANENT DATUM
 HPTY.       Minimum Curvature:  HOLE POS TYPE
 MDS .        Operator Entered:  MAG DATA SOURCE
 NREF.                    Grid:  NORTH REFERENCE
 SRVC.          TURAN DRILLING:  CONTRACTOR
 JOBN.        AZ-XX-0906571588:  JOB TICKET NUMB
 DCON.     Halliburton Sperry Drilling:  DIRECTNL CONTR
 STIM.      00.44.00 11-Feb-21:  START TIME
 DATE.      00.00.00 05-May-21:  END TIME
 SPUD.               13-Feb-21:  SPUD DATE
 MWDS.                    Baku:  MWD SHOP
 DOE .                     N/A:  DOE NUMBER
 UNIT.                     N/A:  LOGGING EQUIPMENT ID
 UWI .                     N/A:  UNIQUE WELL IDENTIFIER
 API .                     N/A:  API NUMBER
 CNTY.                        :  COUNTY
 LOC .                        :  LOCATION
 LMF .             Drill Floor:  LOG MEASURED FROM
 TVDS.m                  43.00:  TVDSS CORRECTN
 SDEP.m                 341.00:  START DEPTH
 EGL .m                   0.00:  GROUND ELEVATION
 WDMS.m                 169.80:  WD ELEV
 AGAP.m                  43.00:  AIR GAP
 EPD .m                   0.00:  ELEVATION
 APD .m                  43.00:  DEPTH ABOVE PD
 LATI.deg                40.13:  LATITUDE
 LONG.deg                51.22:  LONGITUDE
 UTMY.m             4443793.85:  UTM Y
 UTMX.m              519005.06:  UTM X
 WHEW.m                 -11.57:  WELL HEAD E/W
 WHNS.m                   8.57:  WELL HEAD N/S
 VSEW.m                 -11.57:  VERT SEC E/W
 VSNS.m                   8.57:  VERT SEC N/S
 DFWL.m                   0.00:  DISTANCE FWL
 DFSL.m                   0.00:  DISTANCE FSL
 VSDR.deg               299.34:  VERT SEC DIRECT
 GVFD.g                   1.00:  GRAVITY FIELD
 AZTC.deg                 6.36:  AZM TOTAL CORR
 MFLD.nT              50391.00:  MAGNETIC FIELD
 MDIP.deg                59.65:  MAGNETIC DIP
 MDEC.deg                 6.48:  MAGNETIC DECL
 GRDC.deg                 0.12:  GRID CORRECTION
 DEP .m                 334.96:  DEPTH
 TDD .m                1407.26:  TOTAL DEPTH (DRILLER)
 EKB .m                  43.00:  KB ELEVATION
 EDF .m                  43.00:  DF ELEVATION
 TDL .m                 228.00:  TOTAL DEPTH (LOGGER)
 VSC .                       0:  VS TO CLOSURE
 MAGU.                 1854484:  MAGUTM CHECKSUM
~Parameter Information Block
#MNEM.UNIT       Value        Description
#---------     -----------    ---------------------------
 AV  .mps                 4.00:  Ann Velocity 
 AVMX.mps                 4.73:  Max Ann Veloc 
 AZIF.deg               304.48:  Azm, Final 
 BHAT.        Rotary Steerable:  BHA Type 
 BREV.rev            257300.00:  Rev Bit Total 
 BROT.°/30m               0.00:  Build Rotating 
 BS  .in                  8.50:  Bit Size 
 BSZ .in                  8.50:  Bit Size 
 BTPL.psig              589.00:  Bit Press Loss 
 CABU.                      No:  Customer Abuse 
 CGEO.          Mubariz ghayev:  Customer Geo 
 TCS .hr                 64.25:  Time Ciculation Ended 
 CV  .mps                 3.50:  Crit Velocity 
 CVMX.mps                 4.52:  Max Crit Veloc 
 DD1 .             Aziz Aliyev:  Direct Drillr 1 
 DD2 .         Intigam Rahimov:  Direct Drillr 2 
 DD3 .          Rashad Habibov:  Direct Drillr 3 
 DDSV.               Geo-Pilot:  DD Service 
 DEFF.%                  98.00:  % Det Eff 
 DLRX.°/30m               0.00:  Dogleg Rot Max 
 DLSO.°/30m               0.00:  Dogleg Oriented 
 DLSX.°/30m               0.00:  Dogleg Str Max 
 DRET.      10.45.04 08-May-21:  Drill End Time 
 DRST.      03.30.04 04-May-21:  Drill Start Tim 
 DTIM.hr                 14.97:  Time Drilling 
 EDEP.m                4640.01:  End Depth 
 ENG1.         Dail Mahammadov:  Engineer 1 
 ENG2.           Eldar Hajiyev:  Engineer 2 
 ENG3.       Bakhtiar Jabbarli:  Engineer 3 
 ENG4.       Natik Hasanagayev:  Engineer 4 
 ETIM.      09.30.04 14-May-21:  End Time 
 FLOI.gpm               460.00:  Flow In 
 FLON.gpm               200.00:  Flow In Min 
 FLOS.cptm                0.00:  Fluid Loss 
 FLOX.gpm               505.00:  Flow In Max 
 HFLO.                      No:  High Flow 
 HPRE.                      No:  High Pressure 
 HTEM.                      No:  High Temp 
 HYDO.m                   1.80:  Hydro Offset 
 IFIN.deg                66.71:  Inc, Final 
 IMAX.deg                67.03:  Inc Max 
 IMIN.deg                66.63:  Inc Min 
 IMND.m                4550.58:  Inc Min Depth 
 IMXD.m                4439.01:  Inc Max Depth 
 JARR.                      No:  Jarring 
 LETM.      10.45.04 08-May-21:  Log End Time 
 LOST.hr                     0:  Lost Rig Time 
 LSTM.      03.30.04 04-May-21:  Log Start Time 
 MDCL.ppm             37000.00:  Mud Chlorides 
 MDES.     Inversion Oil/Synthetic:  Mud Desc 
 DFD .sg                  1.38:  Mud Density 
 MDMN.sg                  1.35:  Dens Mud Min 
 MDMX.sg                  1.40:  Dens Mud Max 
 MOIL.                   57.40:  Run Mud Oil % 
 MOWR.                   70:30:  Run Mud OWR 
 MSND.                    0.00:  Run Mud Sand % 
 MSOL.                   18.00:  Run Mud Solids% 
 DFV .spqt               71.00:  Mud Viscosity 
 MWOD.in                  6.75:  MWD Tool OD 
 MWSI.                      No:  Serv Intrp, MWD 
 OTIM.hr                242.76:  Time Operating 
 PCON.           Look Like New:  Pad Condition 
 PMAX.psia            12183.92:  Press Op, Max 
 PV  .cP                 27.00:  Mud PV 
 RUN .                    1300:  Run Number 
 ROPA.m/hr               15.00:  ROP Avg 
 ROPN.m/hr                9.00:  ROP Min 
 ROPX.m/hr               19.00:  ROP Max 
 RPMA.rpm               120.00:  RPM Surface Avg 
 RPMN.rpm               100.00:  RPM Surface Min 
 RPMX.rpm               120.00:  RPM Surface Max 
 RRUN.                    1300:  Rig Run Number 
 RTIM.hr                  5.00:  Time Reaming 
 SAZI.deg               304.73:  Azm, Start 
 SDEP.m                4412.01:  Start Depth 
 SIDD.                      No:  Serv Intrp, DD 
 SINC.deg                66.82:  Inc, Start 
 SPPA.psig             2800.00:  SPP Avg 
 SPPN.psig             2610.00:  SPP Min 
 SPPX.psig             3100.00:  SPP Max 
 STIM.      03.30.00 04-May-21:  Start Time 
 SVCS.                 DD, MWD:  Services 
 SVER.                    9.20:  Sperry Version 
 TDAT.m                 228.00:  Tot Depth Attmp 
 TDDF.                      No:  Trip for DD 
 TDLG.m                 228.00:  Tot Depth Loggd 
 TFF .                      No:  Trip for Fail 
 TQAA.f-kp               15.00:  Torque Abs Avg 
 TQAN.f-kp               12.00:  Torque Abs Min 
 TQAX.f-kp               22.00:  Torque Abs Max 
 TRRT.°/30m               0.00:  Turn Rotating 
 MRT .                    HCIM:  Maximum Recorded Temperature 
 TTMX.degC               90.20:  Max Tool Temp 
 VS01.                90627813:  Virtual Str1 SN 
 VS02.                90634712:  Virtual Str2 SN 
 VS03.                90643410:  Virtual Str3 SN 
 VS04.                90634712:  Virtual Str4 SN 
 WBMN.klb                 9.00:  WOB Min 
 WITN.        Elmaddin Rahimov:  Customer Rep 
 WITN.         Haytham Mostafa:  Customer Rep 2 
 WOBA.klb                15.00:  WOB Avg 
 WOBX.klb                23.00:  WOB Max 
 YP  .lhf2               29.00:  Yield Point 
~Curve Information Block
#MNEM.UNIT                 API CODE     Curve Description
#---------               -----------    ---------------------------
 TIME.HHMMSS            00 000 000 000:  GT Time & Date
 GTDEPTH.m              00 000 000 000:  GT Depth
 GTPQH.psia             00 000 000 000:  GT HR Quartz Pressure
 GTTQ.degC              00 000 000 000:  GT Quartz Temperature
 GTTN.NONE              00 000 000 000:  GT Test Number
 GTET.sec               00 000 000 000:  GT Elapsed Test Time
 GTTVD.m                00 000 000 000:  GT True Vertical Depth
#Other Information
#
#WARRANTY: Halliburton will use its best efforts to furnish customers with 
#accurate information and interpretations that are part of, and incident to, the services 
#provided.  However, Halliburton cannot and does not warrant the accuracy 
#or correctness of such information and interpretations.  Under no circumstances should any 
#such information or interpretation be relied upon as the sole basis for any drilling, 
#completion, production, or financial decision or any procedure involving any risk to the 
#safety of any drilling venture, drilling rig or its crew or any other third party.  The 
#Customer has full responsibility for all drilling, completion and production operation.  
#Halliburton makes no representations or warranties, either expressed or 
#implied, including, but not limited to, the implied warranties of merchantability or fitness 
#for a particular purpose, with respect to the services rendered.  In no event will 
#Halliburton be liable for failure to obtain any particular results or for 
#any damages, including, but not limited to, indirect, special or consequential damages, 
#resulting from the use of any information or interpretation provided by Halliburton.
#
~A           TIME           GTDEPTH  GTPQH  GTTQ  GTTN  GTET   GTTVD  
# ...
   00:30:36.863.09-May-2021 4516.51 6737.54 67.87 7.00  23.01 2978.60
   00:30:37.063.09-May-2021 4516.51 6737.54 67.87 7.00  23.21 2978.60
   00:30:37.263.09-May-2021 4516.51 6736.43 67.87 7.00  23.41 2978.60
   00:30:37.463.09-May-2021 4516.51 6736.70 67.87 7.00  23.61 2978.60
   00:30:37.663.09-May-2021 4516.51 6736.64 67.87 7.00  23.81 2978.60
   00:30:37.863.09-May-2021 4516.51 6737.08 67.87 7.00  24.01 2978.60
   00:30:38.063.09-May-2021 4516.51 6737.08 67.87 7.00  24.21 2978.60
   00:30:38.263.09-May-2021 4516.51 6737.98 67.87 7.00  24.41 2978.60
   00:30:38.463.09-May-2021 4516.51 6739.06 67.87 7.00  24.61 2978.60
   00:30:38.664.09-May-2021 4516.51 6745.98 67.87 7.00  24.81 2978.60
   00:30:38.864.09-May-2021 4516.51 6741.54 67.87 7.00  25.01 2978.60
   00:30:39.064.09-May-2021 4516.51 6741.54 67.87 7.00  25.21 2978.60
   00:30:39.264.09-May-2021 4516.51 6743.85 67.87 7.00  25.41 2978.60
   00:30:39.464.09-May-2021 4516.51 6742.99 67.87 7.00  25.61 2978.60
   00:30:39.664.09-May-2021 4516.51 6741.30 67.87 7.00  25.81 2978.60
   00:30:39.864.09-May-2021 4516.51 6740.58 67.87 7.00  26.01 2978.60
   00:30:40.064.09-May-2021 4516.51 6740.58 67.87 7.00  26.21 2978.60
   00:30:40.264.09-May-2021 4516.51 6740.81 67.86 7.00  26.41 2978.60
   00:30:40.464.09-May-2021 4516.51 6741.37 67.87 7.00  26.61 2978.60
   00:30:40.664.09-May-2021 4516.51 6741.10 67.86 7.00  26.81 2978.60
   00:30:40.864.09-May-2021 4516.51 6741.85 67.86 7.00  27.01 2978.60
   00:30:41.064.09-May-2021 4516.51 6741.85 67.86 7.00  27.21 2978.60
   00:30:41.264.09-May-2021 4516.51 6742.43 67.86 7.00  27.41 2978.60
   00:30:41.465.09-May-2021 4516.51 6749.99 67.86 7.00  27.61 2978.60
   00:30:41.665.09-May-2021 4516.51 6749.68 67.86 7.00  27.81 2978.60
   00:30:41.865.09-May-2021 4516.51 6749.08 67.86 7.00  28.01 2978.60
   00:30:42.065.09-May-2021 4516.51 6749.08 67.86 7.00  28.21 2978.60
   00:30:42.265.09-May-2021 4516.51 6746.86 67.86 7.00  28.41 2978.60
   00:30:42.465.09-May-2021 4516.51 6748.30 67.86 7.00  28.61 2978.60
   00:30:42.665.09-May-2021 4516.51 6745.16 67.86 7.00  28.81 2978.60
   00:30:42.865.09-May-2021 4516.51 6746.74 67.86 7.00  29.01 2978.60
   00:30:43.065.09-May-2021 4516.51 6746.74 67.86 7.00  29.21 2978.60
   00:30:43.265.09-May-2021 4516.51 6750.46 67.86 7.00  29.41 2978.60
   00:30:43.465.09-May-2021 4516.51 6749.17 67.86 7.00  29.61 2978.60
   00:30:43.665.09-May-2021 4516.51 6747.72 67.86 7.00  29.81 2978.60
   00:30:43.865.09-May-2021 4516.51 6751.81 67.86 7.00  30.01 2978.60
   00:30:44.065.09-May-2021 4516.51 6751.81 67.86 7.00  30.21 2978.60
   00:30:44.266.09-May-2021 4516.51 6751.87 67.86 7.00  30.41 2978.60
   00:30:44.466.09-May-2021 4516.51 6747.65 67.86 7.00  30.61 2978.60
   00:30:44.666.09-May-2021 4516.51 6745.92 67.86 7.00  30.81 2978.60
   00:30:44.866.09-May-2021 4516.51 6746.97 67.86 7.00  31.01 2978.60
   00:30:45.066.09-May-2021 4516.51 6746.97 67.86 7.00  31.21 2978.60
   00:30:45.266.09-May-2021 4516.51 6747.59 67.86 7.00  31.41 2978.60
   00:30:45.466.09-May-2021 4516.51 6747.86 67.86 7.00  31.61 2978.60
   00:30:45.666.09-May-2021 4516.51 6747.61 67.86 7.00  31.81 2978.60
   00:30:45.866.09-May-2021 4516.51 6748.33 67.86 7.00  32.01 2978.60
   00:30:46.066.09-May-2021 4516.51 6748.33 67.86 7.00  32.21 2978.60
   00:30:46.266.09-May-2021 4516.51 6748.67 67.86 7.00  32.41 2978.60
   00:30:46.466.09-May-2021 4516.51 6758.10 67.86 7.00  32.61 2978.60
   00:30:46.666.09-May-2021 4516.51 6758.98 67.86 7.00  32.81 2978.60
   00:30:46.866.09-May-2021 4516.51 6757.12 67.86 7.00  33.01 2978.60
   00:30:47.067.09-May-2021 4516.51 6757.12 67.86 7.00  33.21 2978.60
   00:30:47.267.09-May-2021 4516.51 6750.87 67.86 7.00  33.41 2978.60
   00:30:47.467.09-May-2021 4516.51 6751.13 67.86 7.00  33.61 2978.60
   00:30:47.667.09-May-2021 4516.51 6751.09 67.86 7.00  33.81 2978.60
   00:30:47.867.09-May-2021 4516.51 6751.39 67.86 7.00  34.01 2978.60
   00:30:48.067.09-May-2021 4516.51 6751.39 67.86 7.00  34.21 2978.60
   00:30:48.267.09-May-2021 4516.51 6750.78 67.86 7.00  34.41 2978.60
   00:30:48.467.09-May-2021 4516.51 6750.69 67.86 7.00  34.61 2978.60
   00:30:48.667.09-May-2021 4516.51 6750.63 67.86 7.00  34.81 2978.60
   00:30:48.867.09-May-2021 4516.51 6750.95 67.86 7.00  35.01 2978.60
   00:30:49.067.09-May-2021 4516.51 6750.95 67.86 7.00  35.21 2978.60
   00:30:49.267.09-May-2021 4516.51 6913.41 67.86 7.00  35.41 2978.60
   00:30:49.467.09-May-2021 4516.51 7016.05 67.86 7.00  35.61 2978.60
   00:30:49.667.09-May-2021 4516.51 7026.62 67.86 7.00  35.81 2978.60
   00:30:49.868.09-May-2021 4516.51 7024.81 67.86 7.00  36.01 2978.60
   00:30:50.068.09-May-2021 4516.51 7024.81 67.86 7.00  36.21 2978.60
   00:30:50.268.09-May-2021 4516.51 7030.81 67.86 7.00  36.41 2978.60
   00:30:50.468.09-May-2021 4516.51 7027.10 67.86 7.00  36.61 2978.60
   00:30:50.668.09-May-2021 4516.51 7034.23 67.86 7.00  36.81 2978.60
   00:30:50.868.09-May-2021 4516.51 7061.98 67.86 7.00  37.01 2978.60
   00:30:51.068.09-May-2021 4516.51 7061.98 67.86 7.00  37.21 2978.60
   00:30:51.268.09-May-2021 4516.51 7062.73 67.86 7.00  37.41 2978.60
   00:30:51.468.09-May-2021 4516.51 7047.26 67.86 7.00  37.61 2978.60
   00:30:51.668.09-May-2021 4516.51 7039.70 67.86 7.00  37.81 2978.60
   00:30:51.868.09-May-2021 4516.51 7032.31 67.86 7.00  38.01 2978.60
   00:30:52.068.09-May-2021 4516.51 7032.31 67.86 7.00  38.21 2978.60
   00:30:52.268.09-May-2021 4516.51 6996.17 67.86 7.00  38.41 2978.60
   00:30:52.469.09-May-2021 4516.51 6980.86 67.86 7.00  38.61 2978.60
   00:30:52.669.09-May-2021 4516.51 6964.91 67.86 7.00  38.81 2978.60
   00:30:52.869.09-May-2021 4516.51 6952.12 67.86 7.00  39.01 2978.60
   00:30:53.069.09-May-2021 4516.51 6952.12 67.86 7.00  39.21 2978.60
   00:30:53.269.09-May-2021 4516.51 6936.50 67.86 7.00  39.41 2978.60
   00:30:53.469.09-May-2021 4516.51 6930.30 67.86 7.00  39.61 2978.60
   00:30:53.669.09-May-2021 4516.51 6924.85 67.86 7.00  39.81 2978.60
   00:30:53.869.09-May-2021 4516.51 6920.24 67.86 7.00  40.01 2978.60
   00:30:54.069.09-May-2021 4516.51 6920.24 67.86 7.00  40.21 2978.60
   00:30:54.269.09-May-2021 4516.51 6912.25 67.86 7.00  40.41 2978.60
   00:30:54.469.09-May-2021 4516.51 6915.49 67.86 7.00  40.61 2978.60
   00:30:54.669.09-May-2021 4516.51 6910.66 67.86 7.00  40.81 2978.60
   00:30:54.869.09-May-2021 4516.51 6910.85 67.86 7.00  41.01 2978.60
   00:30:55.069.09-May-2021 4516.51 6910.85 67.86 7.00  41.21 2978.60
   00:30:55.270.09-May-2021 4516.51 6903.81 67.86 7.00  41.42 2978.60
   00:30:55.470.09-May-2021 4516.51 6898.16 67.86 7.00  41.62 2978.60
   00:30:55.670.09-May-2021 4516.51 6876.20 67.86 7.00  41.82 2978.60
   00:30:55.870.09-May-2021 4516.51 6730.44 67.86 7.00  42.02 2978.60
   00:30:56.070.09-May-2021 4516.51 6730.44 67.86 7.00  42.22 2978.60
   00:30:56.270.09-May-2021 4516.51 6471.25 67.86 7.00  42.42 2978.60
   00:30:56.470.09-May-2021 4516.51 6203.03 67.86 7.00  42.62 2978.60
   00:30:56.670.09-May-2021 4516.51 5722.18 67.86 7.00  42.82 2978.60
   00:30:56.870.09-May-2021 4516.51 5142.91 67.86 7.00  43.02 2978.60
   00:30:57.070.09-May-2021 4516.51 5142.91 67.86 7.00  43.22 2978.60
   00:30:57.270.09-May-2021 4516.51 4532.40 67.86 7.00  43.42 2978.60
   00:30:57.470.09-May-2021 4516.51 4029.17 67.86 7.00  43.62 2978.60
   00:30:57.670.09-May-2021 4516.51 3258.53 67.85 7.00  43.82 2978.60
   00:30:57.870.09-May-2021 4516.51 2725.91 67.85 7.00  44.02 2978.60
   00:30:58.071.09-May-2021 4516.51 2725.91 67.85 7.00  44.22 2978.60
   00:30:58.271.09-May-2021 4516.51 2056.70 67.85 7.00  44.42 2978.60
   00:30:58.471.09-May-2021 4516.51 1859.29 67.85 7.00  44.62 2978.60
   00:30:58.671.09-May-2021 4516.51 1759.93 67.85 7.00  44.82 2978.60
   00:30:58.871.09-May-2021 4516.51 1690.82 67.84 7.00  45.02 2978.60
   00:30:59.071.09-May-2021 4516.51 1690.82 67.84 7.00  45.22 2978.60
   00:30:59.271.09-May-2021 4516.51 1614.24 67.84 7.00  45.42 2978.60
   00:30:59.471.09-May-2021 4516.51 1599.12 67.83 7.00  45.62 2978.60
   00:30:59.671.09-May-2021 4516.51 1571.20 67.83 7.00  45.82 2978.60
