~Version Information
 VERS.                  2.0:   CWLS log ASCII Standard -VERSION 2.0
 WRAP.                   NO:   One line per depth step
~Well Information Block
#MNEM.UNIT     VALUE/NAME     DESCRIPTION
#---------     -----------    ---------------------------
 STRT.S             06:07:29 09-May-21: START TIME 06:07:29 09-May-21
 STOP.S             06:14:06 09-May-21: STOP TIME  06:14:06 09-May-21
 STEP.S                   0.00: STEP TIME
 NULL.                 -999.25: NULL VALUE
 PROV.                    Baku:  PROVINCE
 STAT.                    Baku:  STATE NAME
 SON .        AZ-XX-0906571588:  JOB NUMBER
 WTYP.                Deviated:  WELL TYPE
 COMP.     BP Exploration (Caspian Sea) ltd:  COMPANY
 BASE.              Azerbaijan:  LOGGING EQUIPMENT BASE LOCATION
 REGN.                   EESSA:  REGION
 CTRY.              Azerbaijan:  COUNTRY NAME
 FLD .                     ACG:  FIELD NAME
 WELL.                     J28:  WELL NAME
 RIG .             West Chirag:  RIG NAME
 DMF .             Drill Floor:  DRILL MEAS FROM
 PDAT.       Caspian Sea Level:  PERMANENT DATUM
 HPTY.       Minimum Curvature:  HOLE POS TYPE
 MDS .        Operator Entered:  MAG DATA SOURCE
 NREF.                    Grid:  NORTH REFERENCE
 SRVC.          TURAN DRILLING:  CONTRACTOR
 JOBN.        AZ-XX-0906571588:  JOB TICKET NUMB
 DCON.     Halliburton Sperry Drilling:  DIRECTNL CONTR
 STIM.      00.44.00 11-Feb-21:  START TIME
 DATE.      00.00.00 05-May-21:  END TIME
 SPUD.               13-Feb-21:  SPUD DATE
 MWDS.                    Baku:  MWD SHOP
 DOE .                     N/A:  DOE NUMBER
 UNIT.                     N/A:  LOGGING EQUIPMENT ID
 UWI .                     N/A:  UNIQUE WELL IDENTIFIER
 API .                     N/A:  API NUMBER
 CNTY.                        :  COUNTY
 LOC .                        :  LOCATION
 LMF .             Drill Floor:  LOG MEASURED FROM
 TVDS.m                  43.00:  TVDSS CORRECTN
 SDEP.m                 341.00:  START DEPTH
 EGL .m                   0.00:  GROUND ELEVATION
 WDMS.m                 169.80:  WD ELEV
 AGAP.m                  43.00:  AIR GAP
 EPD .m                   0.00:  ELEVATION
 APD .m                  43.00:  DEPTH ABOVE PD
 LATI.deg                40.13:  LATITUDE
 LONG.deg                51.22:  LONGITUDE
 UTMY.m             4443793.85:  UTM Y
 UTMX.m              519005.06:  UTM X
 WHEW.m                 -11.57:  WELL HEAD E/W
 WHNS.m                   8.57:  WELL HEAD N/S
 VSEW.m                 -11.57:  VERT SEC E/W
 VSNS.m                   8.57:  VERT SEC N/S
 DFWL.m                   0.00:  DISTANCE FWL
 DFSL.m                   0.00:  DISTANCE FSL
 VSDR.deg               299.34:  VERT SEC DIRECT
 GVFD.g                   1.00:  GRAVITY FIELD
 AZTC.deg                 6.36:  AZM TOTAL CORR
 MFLD.nT              50391.00:  MAGNETIC FIELD
 MDIP.deg                59.65:  MAGNETIC DIP
 MDEC.deg                 6.48:  MAGNETIC DECL
 GRDC.deg                 0.12:  GRID CORRECTION
 DEP .m                 334.96:  DEPTH
 TDD .m                1407.26:  TOTAL DEPTH (DRILLER)
 EKB .m                  43.00:  KB ELEVATION
 EDF .m                  43.00:  DF ELEVATION
 TDL .m                 228.00:  TOTAL DEPTH (LOGGER)
 VSC .                       0:  VS TO CLOSURE
 MAGU.                 1854484:  MAGUTM CHECKSUM
~Parameter Information Block
#MNEM.UNIT       Value        Description
#---------     -----------    ---------------------------
 AV  .mps                 4.00:  Ann Velocity 
 AVMX.mps                 4.73:  Max Ann Veloc 
 AZIF.deg               304.48:  Azm, Final 
 BHAT.        Rotary Steerable:  BHA Type 
 BREV.rev            257300.00:  Rev Bit Total 
 BROT.°/30m               0.00:  Build Rotating 
 BS  .in                  8.50:  Bit Size 
 BSZ .in                  8.50:  Bit Size 
 BTPL.psig              589.00:  Bit Press Loss 
 CABU.                      No:  Customer Abuse 
 CGEO.          Mubariz ghayev:  Customer Geo 
 TCS .hr                 64.25:  Time Ciculation Ended 
 CV  .mps                 3.50:  Crit Velocity 
 CVMX.mps                 4.52:  Max Crit Veloc 
 DD1 .             Aziz Aliyev:  Direct Drillr 1 
 DD2 .         Intigam Rahimov:  Direct Drillr 2 
 DD3 .          Rashad Habibov:  Direct Drillr 3 
 DDSV.               Geo-Pilot:  DD Service 
 DEFF.%                  98.00:  % Det Eff 
 DLRX.°/30m               0.00:  Dogleg Rot Max 
 DLSO.°/30m               0.00:  Dogleg Oriented 
 DLSX.°/30m               0.00:  Dogleg Str Max 
 DRET.      10.45.04 08-May-21:  Drill End Time 
 DRST.      03.30.04 04-May-21:  Drill Start Tim 
 DTIM.hr                 14.97:  Time Drilling 
 EDEP.m                4640.01:  End Depth 
 ENG1.         Dail Mahammadov:  Engineer 1 
 ENG2.           Eldar Hajiyev:  Engineer 2 
 ENG3.       Bakhtiar Jabbarli:  Engineer 3 
 ENG4.       Natik Hasanagayev:  Engineer 4 
 ETIM.      09.30.04 14-May-21:  End Time 
 FLOI.gpm               460.00:  Flow In 
 FLON.gpm               200.00:  Flow In Min 
 FLOS.cptm                0.00:  Fluid Loss 
 FLOX.gpm               505.00:  Flow In Max 
 HFLO.                      No:  High Flow 
 HPRE.                      No:  High Pressure 
 HTEM.                      No:  High Temp 
 HYDO.m                   1.80:  Hydro Offset 
 IFIN.deg                66.71:  Inc, Final 
 IMAX.deg                67.03:  Inc Max 
 IMIN.deg                66.63:  Inc Min 
 IMND.m                4550.58:  Inc Min Depth 
 IMXD.m                4439.01:  Inc Max Depth 
 JARR.                      No:  Jarring 
 LETM.      10.45.04 08-May-21:  Log End Time 
 LOST.hr                     0:  Lost Rig Time 
 LSTM.      03.30.04 04-May-21:  Log Start Time 
 MDCL.ppm             37000.00:  Mud Chlorides 
 MDES.     Inversion Oil/Synthetic:  Mud Desc 
 DFD .sg                  1.38:  Mud Density 
 MDMN.sg                  1.35:  Dens Mud Min 
 MDMX.sg                  1.40:  Dens Mud Max 
 MOIL.                   57.40:  Run Mud Oil % 
 MOWR.                   70:30:  Run Mud OWR 
 MSND.                    0.00:  Run Mud Sand % 
 MSOL.                   18.00:  Run Mud Solids% 
 DFV .spqt               71.00:  Mud Viscosity 
 MWOD.in                  6.75:  MWD Tool OD 
 MWSI.                      No:  Serv Intrp, MWD 
 OTIM.hr                242.76:  Time Operating 
 PCON.           Look Like New:  Pad Condition 
 PMAX.psia            12183.92:  Press Op, Max 
 PV  .cP                 27.00:  Mud PV 
 RUN .                    1300:  Run Number 
 ROPA.m/hr               15.00:  ROP Avg 
 ROPN.m/hr                9.00:  ROP Min 
 ROPX.m/hr               19.00:  ROP Max 
 RPMA.rpm               120.00:  RPM Surface Avg 
 RPMN.rpm               100.00:  RPM Surface Min 
 RPMX.rpm               120.00:  RPM Surface Max 
 RRUN.                    1300:  Rig Run Number 
 RTIM.hr                  5.00:  Time Reaming 
 SAZI.deg               304.73:  Azm, Start 
 SDEP.m                4412.01:  Start Depth 
 SIDD.                      No:  Serv Intrp, DD 
 SINC.deg                66.82:  Inc, Start 
 SPPA.psig             2800.00:  SPP Avg 
 SPPN.psig             2610.00:  SPP Min 
 SPPX.psig             3100.00:  SPP Max 
 STIM.      03.30.00 04-May-21:  Start Time 
 SVCS.                 DD, MWD:  Services 
 SVER.                    9.20:  Sperry Version 
 TDAT.m                 228.00:  Tot Depth Attmp 
 TDDF.                      No:  Trip for DD 
 TDLG.m                 228.00:  Tot Depth Loggd 
 TFF .                      No:  Trip for Fail 
 TQAA.f-kp               15.00:  Torque Abs Avg 
 TQAN.f-kp               12.00:  Torque Abs Min 
 TQAX.f-kp               22.00:  Torque Abs Max 
 TRRT.°/30m               0.00:  Turn Rotating 
 MRT .                    HCIM:  Maximum Recorded Temperature 
 TTMX.degC               90.20:  Max Tool Temp 
 VS01.                90627813:  Virtual Str1 SN 
 VS02.                90634712:  Virtual Str2 SN 
 VS03.                90643410:  Virtual Str3 SN 
 VS04.                90634712:  Virtual Str4 SN 
 WBMN.klb                 9.00:  WOB Min 
 WITN.        Elmaddin Rahimov:  Customer Rep 
 WITN.         Haytham Mostafa:  Customer Rep 2 
 WOBA.klb                15.00:  WOB Avg 
 WOBX.klb                23.00:  WOB Max 
 YP  .lhf2               29.00:  Yield Point 
~Curve Information Block
#MNEM.UNIT                 API CODE     Curve Description
#---------               -----------    ---------------------------
 TIME.HHMMSS            00 000 000 000:  GT Time & Date
 GTDEPTH.m              00 000 000 000:  GT Depth
 GTPQH.psia             00 000 000 000:  GT HR Quartz Pressure
 GTTQ.degC              00 000 000 000:  GT Quartz Temperature
 GTTN.NONE              00 000 000 000:  GT Test Number
 GTET.sec               00 000 000 000:  GT Elapsed Test Time
 GTTVD.m                00 000 000 000:  GT True Vertical Depth
#Other Information
#
#WARRANTY: Halliburton will use its best efforts to furnish customers with 
#accurate information and interpretations that are part of, and incident to, the services 
#provided.  However, Halliburton cannot and does not warrant the accuracy 
#or correctness of such information and interpretations.  Under no circumstances should any 
#such information or interpretation be relied upon as the sole basis for any drilling, 
#completion, production, or financial decision or any procedure involving any risk to the 
#safety of any drilling venture, drilling rig or its crew or any other third party.  The 
#Customer has full responsibility for all drilling, completion and production operation.  
#Halliburton makes no representations or warranties, either expressed or 
#implied, including, but not limited to, the implied warranties of merchantability or fitness 
#for a particular purpose, with respect to the services rendered.  In no event will 
#Halliburton be liable for failure to obtain any particular results or for 
#any damages, including, but not limited to, indirect, special or consequential damages, 
#resulting from the use of any information or interpretation provided by Halliburton.
#
~A           TIME           GTDEPTH  GTPQH  GTTQ  GTTN   GTET   GTTVD  
# ...
   06:11:15.000.09-May-2021 4439.51 4362.12 66.34 14.00 226.00 2948.38
   06:11:15.200.09-May-2021 4439.51 4362.12 66.34 14.00 226.20 2948.38
   06:11:15.400.09-May-2021 4439.51 4366.06 66.34 14.00 226.40 2948.38
   06:11:15.600.09-May-2021 4439.51 4367.49 66.34 14.00 226.60 2948.38
   06:11:15.800.09-May-2021 4439.51 4369.71 66.34 14.00 226.80 2948.38
   06:11:16.000.09-May-2021 4439.51 4371.91 66.34 14.00 227.00 2948.38
   06:11:16.200.09-May-2021 4439.51 4371.91 66.34 14.00 227.20 2948.38
   06:11:16.400.09-May-2021 4439.51 4375.38 66.34 14.00 227.40 2948.38
   06:11:16.600.09-May-2021 4439.51 4377.07 66.34 14.00 227.60 2948.38
   06:11:16.800.09-May-2021 4439.51 4379.25 66.34 14.00 227.80 2948.38
   06:11:17.000.09-May-2021 4439.51 4380.50 66.34 14.00 228.00 2948.38
   06:11:17.200.09-May-2021 4439.51 4380.50 66.34 14.00 228.20 2948.38
   06:11:17.400.09-May-2021 4439.51 4383.21 66.34 14.00 228.40 2948.38
   06:11:17.600.09-May-2021 4439.51 4384.89 66.34 14.00 228.60 2948.38
   06:11:17.800.09-May-2021 4439.51 4386.58 66.34 14.00 228.80 2948.38
   06:11:18.000.09-May-2021 4439.51 4387.75 66.34 14.00 229.00 2948.38
   06:11:18.200.09-May-2021 4439.51 4387.75 66.34 14.00 229.20 2948.38
   06:11:18.400.09-May-2021 4439.51 4389.27 66.34 14.00 229.40 2948.38
   06:11:18.600.09-May-2021 4439.51 4391.16 66.34 14.00 229.60 2948.38
   06:11:18.800.09-May-2021 4439.51 4392.65 66.34 14.00 229.80 2948.38
   06:11:19.000.09-May-2021 4439.51 4394.08 66.34 14.00 230.00 2948.38
   06:11:19.200.09-May-2021 4439.51 4394.08 66.34 14.00 230.20 2948.38
   06:11:19.400.09-May-2021 4439.51 4396.02 66.34 14.00 230.40 2948.38
   06:11:19.600.09-May-2021 4439.51 4396.89 66.34 14.00 230.60 2948.38
   06:11:19.800.09-May-2021 4439.51 4397.78 66.34 14.00 230.80 2948.38
   06:11:20.000.09-May-2021 4439.51 4398.66 66.34 14.00 231.00 2948.38
   06:11:20.200.09-May-2021 4439.51 4398.66 66.34 14.00 231.20 2948.38
   06:11:20.400.09-May-2021 4439.51 4400.26 66.34 14.00 231.40 2948.38
   06:11:20.600.09-May-2021 4439.51 4401.00 66.34 14.00 231.60 2948.38
   06:11:20.800.09-May-2021 4439.51 4401.76 66.34 14.00 231.80 2948.38
   06:11:21.000.09-May-2021 4439.51 4401.86 66.34 14.00 232.00 2948.38
   06:11:21.200.09-May-2021 4439.51 4401.86 66.34 14.00 232.20 2948.38
   06:11:21.400.09-May-2021 4439.51 4403.46 66.34 14.00 232.40 2948.38
   06:11:21.600.09-May-2021 4439.51 4404.59 66.34 14.00 232.60 2948.38
   06:11:21.800.09-May-2021 4439.51 4404.94 66.34 14.00 232.80 2948.38
   06:11:22.000.09-May-2021 4439.51 4405.64 66.34 14.00 233.00 2948.38
   06:11:22.200.09-May-2021 4439.51 4405.64 66.34 14.00 233.20 2948.38
   06:11:22.400.09-May-2021 4439.51 4406.15 66.34 14.00 233.40 2948.38
   06:11:22.600.09-May-2021 4439.51 4407.17 66.34 14.00 233.60 2948.38
   06:11:22.800.09-May-2021 4439.51 4407.61 66.34 14.00 233.80 2948.38
   06:11:23.000.09-May-2021 4439.51 4408.06 66.34 14.00 234.00 2948.38
   06:11:23.200.09-May-2021 4439.51 4408.06 66.34 14.00 234.20 2948.38
   06:11:23.400.09-May-2021 4439.51 4408.88 66.34 14.00 234.40 2948.38
   06:11:23.600.09-May-2021 4439.51 4409.08 66.34 14.00 234.60 2948.38
   06:11:23.800.09-May-2021 4439.51 4409.12 66.34 14.00 234.80 2948.38
   06:11:24.000.09-May-2021 4439.51 4409.80 66.34 14.00 235.00 2948.38
   06:11:24.200.09-May-2021 4439.51 4409.80 66.34 14.00 235.20 2948.38
   06:11:24.400.09-May-2021 4439.51 4410.50 66.34 14.00 235.40 2948.38
   06:11:24.600.09-May-2021 4439.51 4411.03 66.34 14.00 235.60 2948.38
   06:11:24.800.09-May-2021 4439.51 4411.07 66.34 14.00 235.80 2948.38
   06:11:25.000.09-May-2021 4439.51 4411.24 66.34 14.00 236.00 2948.38
   06:11:25.200.09-May-2021 4439.51 4411.24 66.34 14.00 236.20 2948.38
   06:11:25.400.09-May-2021 4439.51 4412.49 66.34 14.00 236.40 2948.38
   06:11:25.600.09-May-2021 4439.51 4412.38 66.34 14.00 236.60 2948.38
   06:11:25.800.09-May-2021 4439.51 4412.81 66.34 14.00 236.80 2948.38
   06:11:26.000.09-May-2021 4439.51 4412.79 66.34 14.00 237.00 2948.38
   06:11:26.200.09-May-2021 4439.51 4412.79 66.34 14.00 237.20 2948.38
   06:11:26.400.09-May-2021 4439.51 4412.89 66.34 14.00 237.40 2948.38
   06:11:26.600.09-May-2021 4439.51 4413.92 66.33 14.00 237.60 2948.38
   06:11:26.800.09-May-2021 4439.51 4413.74 66.33 14.00 237.80 2948.38
   06:11:27.000.09-May-2021 4439.51 4414.11 66.33 14.00 238.00 2948.38
   06:11:27.200.09-May-2021 4439.51 4414.11 66.33 14.00 238.20 2948.38
   06:11:27.400.09-May-2021 4439.51 4414.43 66.33 14.00 238.40 2948.38
   06:11:27.600.09-May-2021 4439.51 4414.81 66.33 14.00 238.60 2948.38
   06:11:27.800.09-May-2021 4439.51 4414.72 66.33 14.00 238.80 2948.38
   06:11:28.000.09-May-2021 4439.51 4415.04 66.33 14.00 239.00 2948.38
   06:11:28.200.09-May-2021 4439.51 4415.04 66.33 14.00 239.20 2948.38
   06:11:28.400.09-May-2021 4439.51 4415.17 66.33 14.00 239.40 2948.38
   06:11:28.600.09-May-2021 4439.51 4415.27 66.33 14.00 239.60 2948.38
   06:11:28.800.09-May-2021 4439.51 4415.38 66.33 14.00 239.80 2948.38
   06:11:29.000.09-May-2021 4439.51 4415.46 66.33 14.00 240.00 2948.38
   06:11:29.200.09-May-2021 4439.51 4415.46 66.33 14.00 240.20 2948.38
   06:11:29.400.09-May-2021 4439.51 4415.50 66.33 14.00 240.40 2948.38
   06:11:29.600.09-May-2021 4439.51 4415.13 66.33 14.00 240.60 2948.38
   06:11:29.800.09-May-2021 4439.51 4415.53 66.33 14.00 240.80 2948.38
   06:11:30.000.09-May-2021 4439.51 4415.59 66.33 14.00 241.00 2948.38
   06:11:30.200.09-May-2021 4439.51 4415.59 66.33 14.00 241.20 2948.38
   06:11:30.400.09-May-2021 4439.51 4416.11 66.33 14.00 241.40 2948.38
   06:11:30.600.09-May-2021 4439.51 4416.01 66.33 14.00 241.60 2948.38
   06:11:30.800.09-May-2021 4439.51 4415.97 66.33 14.00 241.80 2948.38
   06:11:31.000.09-May-2021 4439.51 4416.00 66.33 14.00 242.00 2948.38
   06:11:31.200.09-May-2021 4439.51 4416.00 66.33 14.00 242.20 2948.38
   06:11:31.400.09-May-2021 4439.51 4416.09 66.33 14.00 242.40 2948.38
   06:11:31.600.09-May-2021 4439.51 4416.14 66.33 14.00 242.60 2948.38
   06:11:31.800.09-May-2021 4439.51 4416.12 66.33 14.00 242.80 2948.38
   06:11:32.000.09-May-2021 4439.51 4416.10 66.33 14.00 243.00 2948.38
   06:11:32.200.09-May-2021 4439.51 4416.10 66.33 14.00 243.20 2948.38
   06:11:32.400.09-May-2021 4439.51 4415.75 66.33 14.00 243.40 2948.38
   06:11:32.600.09-May-2021 4439.51 4416.23 66.33 14.00 243.60 2948.38
   06:11:32.800.09-May-2021 4439.51 4416.60 66.33 14.00 243.80 2948.38
   06:11:33.000.09-May-2021 4439.51 4416.78 66.33 14.00 244.00 2948.38
   06:11:33.200.09-May-2021 4439.51 4416.78 66.33 14.00 244.20 2948.38
   06:11:33.400.09-May-2021 4439.51 4416.59 66.33 14.00 244.40 2948.38
   06:11:33.600.09-May-2021 4439.51 4416.82 66.33 14.00 244.60 2948.38
   06:11:33.800.09-May-2021 4439.51 4416.93 66.33 14.00 244.80 2948.38
   06:11:34.000.09-May-2021 4439.51 4416.59 66.33 14.00 245.00 2948.38
   06:11:34.200.09-May-2021 4439.51 4416.59 66.33 14.00 245.20 2948.38
   06:11:34.400.09-May-2021 4439.51 4416.68 66.33 14.00 245.40 2948.38
   06:11:34.600.09-May-2021 4439.51 4417.24 66.33 14.00 245.60 2948.38
   06:11:34.800.09-May-2021 4439.51 4417.09 66.33 14.00 245.80 2948.38
   06:11:35.000.09-May-2021 4439.51 4417.07 66.33 14.00 246.00 2948.38
   06:11:35.200.09-May-2021 4439.51 4417.07 66.33 14.00 246.20 2948.38
   06:11:35.400.09-May-2021 4439.51 4417.23 66.33 14.00 246.40 2948.38
   06:11:35.600.09-May-2021 4439.51 4417.22 66.33 14.00 246.60 2948.38
   06:11:35.800.09-May-2021 4439.51 4417.18 66.33 14.00 246.80 2948.38
   06:11:36.000.09-May-2021 4439.51 4417.26 66.33 14.00 247.00 2948.38
   06:11:36.200.09-May-2021 4439.51 4417.26 66.33 14.00 247.20 2948.38
   06:11:36.400.09-May-2021 4439.51 4417.24 66.33 14.00 247.40 2948.38
   06:11:36.600.09-May-2021 4439.51 4417.21 66.33 14.00 247.60 2948.38
   06:11:36.800.09-May-2021 4439.51 4417.24 66.33 14.00 247.80 2948.38
   06:11:37.000.09-May-2021 4439.51 4417.22 66.33 14.00 248.00 2948.38
   06:11:37.200.09-May-2021 4439.51 4417.22 66.33 14.00 248.20 2948.38
   06:11:37.400.09-May-2021 4439.51 4417.24 66.33 14.00 248.40 2948.38
