~Version Information
 VERS.                  2.0:   CWLS log ASCII Standard -VERSION 2.0
 WRAP.                   NO:   One line per depth step
~Well Information Block
#MNEM.UNIT     VALUE/NAME     DESCRIPTION
#---------     -----------    ---------------------------
 STRT.S             00:24:13 10-May-21: START TIME 00:24:13 10-May-21
 STOP.S             00:32:26 10-May-21: STOP TIME  00:32:26 10-May-21
 STEP.S                   0.00: STEP TIME
 NULL.                 -999.25: NULL VALUE
 PROV.                    Baku:  PROVINCE
 STAT.                    Baku:  STATE NAME
 SON .        AZ-XX-0906571588:  JOB NUMBER
 WTYP.                Deviated:  WELL TYPE
 COMP.     BP Exploration (Caspian Sea) ltd:  COMPANY
 BASE.              Azerbaijan:  LOGGING EQUIPMENT BASE LOCATION
 REGN.                   EESSA:  REGION
 CTRY.              Azerbaijan:  COUNTRY NAME
 FLD .                     ACG:  FIELD NAME
 WELL.                     J28:  WELL NAME
 RIG .             West Chirag:  RIG NAME
 DMF .             Drill Floor:  DRILL MEAS FROM
 PDAT.       Caspian Sea Level:  PERMANENT DATUM
 HPTY.       Minimum Curvature:  HOLE POS TYPE
 MDS .        Operator Entered:  MAG DATA SOURCE
 NREF.                    Grid:  NORTH REFERENCE
 SRVC.          TURAN DRILLING:  CONTRACTOR
 JOBN.        AZ-XX-0906571588:  JOB TICKET NUMB
 DCON.     Halliburton Sperry Drilling:  DIRECTNL CONTR
 STIM.      00.44.00 11-Feb-21:  START TIME
 DATE.      00.00.00 05-May-21:  END TIME
 SPUD.               13-Feb-21:  SPUD DATE
 MWDS.                    Baku:  MWD SHOP
 DOE .                     N/A:  DOE NUMBER
 UNIT.                     N/A:  LOGGING EQUIPMENT ID
 UWI .                     N/A:  UNIQUE WELL IDENTIFIER
 API .                     N/A:  API NUMBER
 CNTY.                        :  COUNTY
 LOC .                        :  LOCATION
 LMF .             Drill Floor:  LOG MEASURED FROM
 TVDS.m                  43.00:  TVDSS CORRECTN
 SDEP.m                 341.00:  START DEPTH
 EGL .m                   0.00:  GROUND ELEVATION
 WDMS.m                 169.80:  WD ELEV
 AGAP.m                  43.00:  AIR GAP
 EPD .m                   0.00:  ELEVATION
 APD .m                  43.00:  DEPTH ABOVE PD
 LATI.deg                40.13:  LATITUDE
 LONG.deg                51.22:  LONGITUDE
 UTMY.m             4443793.85:  UTM Y
 UTMX.m              519005.06:  UTM X
 WHEW.m                 -11.57:  WELL HEAD E/W
 WHNS.m                   8.57:  WELL HEAD N/S
 VSEW.m                 -11.57:  VERT SEC E/W
 VSNS.m                   8.57:  VERT SEC N/S
 DFWL.m                   0.00:  DISTANCE FWL
 DFSL.m                   0.00:  DISTANCE FSL
 VSDR.deg               299.34:  VERT SEC DIRECT
 GVFD.g                   1.00:  GRAVITY FIELD
 AZTC.deg                 6.36:  AZM TOTAL CORR
 MFLD.nT              50391.00:  MAGNETIC FIELD
 MDIP.deg                59.65:  MAGNETIC DIP
 MDEC.deg                 6.48:  MAGNETIC DECL
 GRDC.deg                 0.12:  GRID CORRECTION
 DEP .m                 334.96:  DEPTH
 TDD .m                1407.26:  TOTAL DEPTH (DRILLER)
 EKB .m                  43.00:  KB ELEVATION
 EDF .m                  43.00:  DF ELEVATION
 TDL .m                 228.00:  TOTAL DEPTH (LOGGER)
 VSC .                       0:  VS TO CLOSURE
 MAGU.                 1854484:  MAGUTM CHECKSUM
~Parameter Information Block
#MNEM.UNIT       Value        Description
#---------     -----------    ---------------------------
 AV  .mps                 4.00:  Ann Velocity 
 AVMX.mps                 4.73:  Max Ann Veloc 
 AZIF.deg               304.48:  Azm, Final 
 BHAT.        Rotary Steerable:  BHA Type 
 BREV.rev            257300.00:  Rev Bit Total 
 BROT.°/30m               0.00:  Build Rotating 
 BS  .in                  8.50:  Bit Size 
 BSZ .in                  8.50:  Bit Size 
 BTPL.psig              589.00:  Bit Press Loss 
 CABU.                      No:  Customer Abuse 
 CGEO.          Mubariz ghayev:  Customer Geo 
 TCS .hr                 64.25:  Time Ciculation Ended 
 CV  .mps                 3.50:  Crit Velocity 
 CVMX.mps                 4.52:  Max Crit Veloc 
 DD1 .             Aziz Aliyev:  Direct Drillr 1 
 DD2 .         Intigam Rahimov:  Direct Drillr 2 
 DD3 .          Rashad Habibov:  Direct Drillr 3 
 DDSV.               Geo-Pilot:  DD Service 
 DEFF.%                  98.00:  % Det Eff 
 DLRX.°/30m               0.00:  Dogleg Rot Max 
 DLSO.°/30m               0.00:  Dogleg Oriented 
 DLSX.°/30m               0.00:  Dogleg Str Max 
 DRET.      10.45.04 08-May-21:  Drill End Time 
 DRST.      03.30.04 04-May-21:  Drill Start Tim 
 DTIM.hr                 14.97:  Time Drilling 
 EDEP.m                4640.01:  End Depth 
 ENG1.         Dail Mahammadov:  Engineer 1 
 ENG2.           Eldar Hajiyev:  Engineer 2 
 ENG3.       Bakhtiar Jabbarli:  Engineer 3 
 ENG4.       Natik Hasanagayev:  Engineer 4 
 ETIM.      09.30.04 14-May-21:  End Time 
 FLOI.gpm               460.00:  Flow In 
 FLON.gpm               200.00:  Flow In Min 
 FLOS.cptm                0.00:  Fluid Loss 
 FLOX.gpm               505.00:  Flow In Max 
 HFLO.                      No:  High Flow 
 HPRE.                      No:  High Pressure 
 HTEM.                      No:  High Temp 
 HYDO.m                   1.80:  Hydro Offset 
 IFIN.deg                66.71:  Inc, Final 
 IMAX.deg                67.03:  Inc Max 
 IMIN.deg                66.63:  Inc Min 
 IMND.m                4550.58:  Inc Min Depth 
 IMXD.m                4439.01:  Inc Max Depth 
 JARR.                      No:  Jarring 
 LETM.      10.45.04 08-May-21:  Log End Time 
 LOST.hr                     0:  Lost Rig Time 
 LSTM.      03.30.04 04-May-21:  Log Start Time 
 MDCL.ppm             37000.00:  Mud Chlorides 
 MDES.     Inversion Oil/Synthetic:  Mud Desc 
 DFD .sg                  1.38:  Mud Density 
 MDMN.sg                  1.35:  Dens Mud Min 
 MDMX.sg                  1.40:  Dens Mud Max 
 MOIL.                   57.40:  Run Mud Oil % 
 MOWR.                   70:30:  Run Mud OWR 
 MSND.                    0.00:  Run Mud Sand % 
 MSOL.                   18.00:  Run Mud Solids% 
 DFV .spqt               71.00:  Mud Viscosity 
 MWOD.in                  6.75:  MWD Tool OD 
 MWSI.                      No:  Serv Intrp, MWD 
 OTIM.hr                242.76:  Time Operating 
 PCON.           Look Like New:  Pad Condition 
 PMAX.psia            12183.92:  Press Op, Max 
 PV  .cP                 27.00:  Mud PV 
 RUN .                    1300:  Run Number 
 ROPA.m/hr               15.00:  ROP Avg 
 ROPN.m/hr                9.00:  ROP Min 
 ROPX.m/hr               19.00:  ROP Max 
 RPMA.rpm               120.00:  RPM Surface Avg 
 RPMN.rpm               100.00:  RPM Surface Min 
 RPMX.rpm               120.00:  RPM Surface Max 
 RRUN.                    1300:  Rig Run Number 
 RTIM.hr                  5.00:  Time Reaming 
 SAZI.deg               304.73:  Azm, Start 
 SDEP.m                4412.01:  Start Depth 
 SIDD.                      No:  Serv Intrp, DD 
 SINC.deg                66.82:  Inc, Start 
 SPPA.psig             2800.00:  SPP Avg 
 SPPN.psig             2610.00:  SPP Min 
 SPPX.psig             3100.00:  SPP Max 
 STIM.      03.30.00 04-May-21:  Start Time 
 SVCS.                 DD, MWD:  Services 
 SVER.                    9.20:  Sperry Version 
 TDAT.m                 228.00:  Tot Depth Attmp 
 TDDF.                      No:  Trip for DD 
 TDLG.m                 228.00:  Tot Depth Loggd 
 TFF .                      No:  Trip for Fail 
 TQAA.f-kp               15.00:  Torque Abs Avg 
 TQAN.f-kp               12.00:  Torque Abs Min 
 TQAX.f-kp               22.00:  Torque Abs Max 
 TRRT.°/30m               0.00:  Turn Rotating 
 MRT .                    HCIM:  Maximum Recorded Temperature 
 TTMX.degC               90.20:  Max Tool Temp 
 VS01.                90627813:  Virtual Str1 SN 
 VS02.                90634712:  Virtual Str2 SN 
 VS03.                90643410:  Virtual Str3 SN 
 VS04.                90634712:  Virtual Str4 SN 
 WBMN.klb                 9.00:  WOB Min 
 WITN.        Elmaddin Rahimov:  Customer Rep 
 WITN.         Haytham Mostafa:  Customer Rep 2 
 WOBA.klb                15.00:  WOB Avg 
 WOBX.klb                23.00:  WOB Max 
 YP  .lhf2               29.00:  Yield Point 
~Curve Information Block
#MNEM.UNIT                 API CODE     Curve Description
#---------               -----------    ---------------------------
 TIME.HHMMSS            00 000 000 000:  GT Time & Date
 GTDEPTH.m              00 000 000 000:  GT Depth
 GTPQH.psia             00 000 000 000:  GT HR Quartz Pressure
 GTTQ.degC              00 000 000 000:  GT Quartz Temperature
 GTTN.NONE              00 000 000 000:  GT Test Number
 GTET.sec               00 000 000 000:  GT Elapsed Test Time
 GTTVD.m                00 000 000 000:  GT True Vertical Depth
#Other Information
#
#WARRANTY: Halliburton will use its best efforts to furnish customers with 
#accurate information and interpretations that are part of, and incident to, the services 
#provided.  However, Halliburton cannot and does not warrant the accuracy 
#or correctness of such information and interpretations.  Under no circumstances should any 
#such information or interpretation be relied upon as the sole basis for any drilling, 
#completion, production, or financial decision or any procedure involving any risk to the 
#safety of any drilling venture, drilling rig or its crew or any other third party.  The 
#Customer has full responsibility for all drilling, completion and production operation.  
#Halliburton makes no representations or warranties, either expressed or 
#implied, including, but not limited to, the implied warranties of merchantability or fitness 
#for a particular purpose, with respect to the services rendered.  In no event will 
#Halliburton be liable for failure to obtain any particular results or for 
#any damages, including, but not limited to, indirect, special or consequential damages, 
#resulting from the use of any information or interpretation provided by Halliburton.
#
~A           TIME           GTDEPTH  GTPQH  GTTQ  GTTN   GTET   GTTVD  
# ...
   00:31:00.582.10-May-2021 4497.51  523.33 60.43 18.00 406.97 2971.13
   00:31:00.782.10-May-2021 4497.51  524.20 60.43 18.00 407.17 2971.13
   00:31:00.982.10-May-2021 4497.51  524.20 60.43 18.00 407.37 2971.13
   00:31:01.182.10-May-2021 4497.51  524.37 60.43 18.00 407.57 2971.13
   00:31:01.382.10-May-2021 4497.51  524.58 60.43 18.00 407.77 2971.13
   00:31:01.582.10-May-2021 4497.51  524.69 60.43 18.00 407.97 2971.13
   00:31:01.782.10-May-2021 4497.51  524.89 60.43 18.00 408.17 2971.13
   00:31:01.982.10-May-2021 4497.51  524.89 60.43 18.00 408.37 2971.13
   00:31:02.182.10-May-2021 4497.51  525.30 60.43 18.00 408.57 2971.13
   00:31:02.383.10-May-2021 4497.51  525.52 60.43 18.00 408.77 2971.13
   00:31:02.583.10-May-2021 4497.51  525.69 60.43 18.00 408.97 2971.13
   00:31:02.783.10-May-2021 4497.51  525.91 60.43 18.00 409.18 2971.13
   00:31:02.983.10-May-2021 4497.51  525.91 60.43 18.00 409.38 2971.13
   00:31:03.183.10-May-2021 4497.51  525.83 60.43 18.00 409.58 2971.13
   00:31:03.383.10-May-2021 4497.51  526.66 60.43 18.00 409.78 2971.13
   00:31:03.583.10-May-2021 4497.51  526.80 60.43 18.00 409.98 2971.13
   00:31:03.783.10-May-2021 4497.51  526.88 60.43 18.00 410.18 2971.13
   00:31:03.983.10-May-2021 4497.51  526.88 60.43 18.00 410.38 2971.13
   00:31:04.183.10-May-2021 4497.51  527.26 60.43 18.00 410.58 2971.13
   00:31:04.383.10-May-2021 4497.51  527.49 60.43 18.00 410.78 2971.13
   00:31:04.583.10-May-2021 4497.51  527.68 60.43 18.00 410.98 2971.13
   00:31:04.784.10-May-2021 4497.51  527.89 60.43 18.00 411.18 2971.13
   00:31:04.984.10-May-2021 4497.51  527.89 60.43 18.00 411.38 2971.13
   00:31:05.184.10-May-2021 4497.51  528.29 60.43 18.00 411.58 2971.13
   00:31:05.384.10-May-2021 4497.51  528.46 60.43 18.00 411.78 2971.13
   00:31:05.584.10-May-2021 4497.51  528.28 60.43 18.00 411.98 2971.13
   00:31:05.784.10-May-2021 4497.51  528.92 60.43 18.00 412.18 2971.13
   00:31:05.984.10-May-2021 4497.51  528.92 60.43 18.00 412.38 2971.13
   00:31:06.184.10-May-2021 4497.51  529.24 60.43 18.00 412.58 2971.13
   00:31:06.384.10-May-2021 4497.51  529.31 60.43 18.00 412.78 2971.13
   00:31:06.584.10-May-2021 4497.51  529.81 60.43 18.00 412.98 2971.13
   00:31:06.784.10-May-2021 4497.51  530.05 60.43 18.00 413.18 2971.13
   00:31:06.985.10-May-2021 4497.51  530.05 60.43 18.00 413.38 2971.13
   00:31:07.185.10-May-2021 4497.51  530.54 60.43 18.00 413.58 2971.13
   00:31:07.385.10-May-2021 4497.51  530.42 60.43 18.00 413.78 2971.13
   00:31:07.585.10-May-2021 4497.51  530.81 60.43 18.00 413.98 2971.13
   00:31:07.785.10-May-2021 4497.51  530.84 60.43 18.00 414.18 2971.13
   00:31:07.985.10-May-2021 4497.51  530.84 60.43 18.00 414.38 2971.13
   00:31:08.185.10-May-2021 4497.51  531.53 60.43 18.00 414.58 2971.13
   00:31:08.385.10-May-2021 4497.51  531.42 60.43 18.00 414.78 2971.13
   00:31:08.585.10-May-2021 4497.51  531.83 60.43 18.00 414.98 2971.13
   00:31:08.785.10-May-2021 4497.51  531.84 60.43 18.00 415.18 2971.13
   00:31:08.985.10-May-2021 4497.51  531.84 60.43 18.00 415.38 2971.13
   00:31:09.185.10-May-2021 4497.51  532.24 60.43 18.00 415.58 2971.13
   00:31:09.386.10-May-2021 4497.51  532.45 60.43 18.00 415.78 2971.13
   00:31:09.586.10-May-2021 4497.51  532.65 60.43 18.00 415.98 2971.13
   00:31:09.786.10-May-2021 4497.51  532.86 60.43 18.00 416.18 2971.13
   00:31:09.986.10-May-2021 4497.51  532.86 60.43 18.00 416.38 2971.13
   00:31:10.186.10-May-2021 4497.51  533.26 60.43 18.00 416.58 2971.13
   00:31:10.386.10-May-2021 4497.51  533.46 60.43 18.00 416.78 2971.13
   00:31:10.586.10-May-2021 4497.51  533.22 60.43 18.00 416.98 2971.13
   00:31:10.786.10-May-2021 4497.51  534.11 60.43 18.00 417.18 2971.13
   00:31:10.986.10-May-2021 4497.51  534.11 60.43 18.00 417.38 2971.13
   00:31:11.186.10-May-2021 4497.51  534.32 60.43 18.00 417.58 2971.13
   00:31:11.386.10-May-2021 4497.51  534.53 60.43 18.00 417.78 2971.13
   00:31:11.586.10-May-2021 4497.51  534.66 60.43 18.00 417.98 2971.13
   00:31:11.787.10-May-2021 4497.51  534.93 60.43 18.00 418.18 2971.13
   00:31:11.987.10-May-2021 4497.51  534.93 60.43 18.00 418.38 2971.13
   00:31:12.187.10-May-2021 4497.51  535.33 60.43 18.00 418.58 2971.13
   00:31:12.387.10-May-2021 4497.51  535.51 60.43 18.00 418.78 2971.13
   00:31:12.587.10-May-2021 4497.51  535.72 60.43 18.00 418.98 2971.13
   00:31:12.787.10-May-2021 4497.51  535.90 60.43 18.00 419.18 2971.13
   00:31:12.987.10-May-2021 4497.51  535.90 60.43 18.00 419.38 2971.13
   00:31:13.187.10-May-2021 4497.51  536.13 60.43 18.00 419.58 2971.13
   00:31:13.387.10-May-2021 4497.51  536.69 60.43 18.00 419.78 2971.13
   00:31:13.587.10-May-2021 4497.51  536.90 60.43 18.00 419.98 2971.13
   00:31:13.787.10-May-2021 4497.51  536.48 60.43 18.00 420.18 2971.13
   00:31:13.988.10-May-2021 4497.51  536.48 60.43 18.00 420.38 2971.13
   00:31:14.188.10-May-2021 4497.51  537.41 60.43 18.00 420.58 2971.13
   00:31:14.388.10-May-2021 4497.51  537.37 60.43 18.00 420.78 2971.13
   00:31:14.588.10-May-2021 4497.51  537.64 60.43 18.00 420.98 2971.13
   00:31:14.788.10-May-2021 4497.51  538.11 60.43 18.00 421.18 2971.13
   00:31:14.988.10-May-2021 4497.51  538.11 60.43 18.00 421.38 2971.13
   00:31:15.188.10-May-2021 4497.51  538.37 60.43 18.00 421.58 2971.13
   00:31:15.388.10-May-2021 4497.51  538.16 60.43 18.00 421.78 2971.13
   00:31:15.588.10-May-2021 4497.51  539.01 60.43 18.00 421.98 2971.13
   00:31:15.788.10-May-2021 4497.51  539.11 60.43 18.00 422.18 2971.13
   00:31:15.988.10-May-2021 4497.51  539.11 60.43 18.00 422.38 2971.13
   00:31:16.188.10-May-2021 4497.51  539.45 60.43 18.00 422.58 2971.13
   00:31:16.389.10-May-2021 4497.51  539.59 60.43 18.00 422.78 2971.13
   00:31:16.589.10-May-2021 4497.51  539.82 60.43 18.00 422.98 2971.13
   00:31:16.789.10-May-2021 4497.51  540.02 60.43 18.00 423.18 2971.13
   00:31:16.989.10-May-2021 4497.51  540.02 60.43 18.00 423.38 2971.13
   00:31:17.189.10-May-2021 4497.51  540.44 60.43 18.00 423.58 2971.13
   00:31:17.389.10-May-2021 4497.51  540.65 60.43 18.00 423.78 2971.13
   00:31:17.589.10-May-2021 4497.51  540.86 60.43 18.00 423.98 2971.13
   00:31:17.789.10-May-2021 4497.51  540.83 60.43 18.00 424.18 2971.13
   00:31:17.989.10-May-2021 4497.51  540.83 60.43 18.00 424.38 2971.13
   00:31:18.189.10-May-2021 4497.51  541.62 60.43 18.00 424.58 2971.13
   00:31:18.389.10-May-2021 4497.51  541.86 60.43 18.00 424.78 2971.13
   00:31:18.589.10-May-2021 4497.51  541.91 60.43 18.00 424.98 2971.13
   00:31:18.790.10-May-2021 4497.51  542.12 60.43 18.00 425.18 2971.13
   00:31:18.990.10-May-2021 4497.51  542.12 60.43 18.00 425.38 2971.13
   00:31:19.190.10-May-2021 4497.51  542.51 60.43 18.00 425.58 2971.13
   00:31:19.390.10-May-2021 4497.51  542.73 60.43 18.00 425.78 2971.13
   00:31:19.590.10-May-2021 4497.51  542.94 60.43 18.00 425.98 2971.13
   00:31:19.790.10-May-2021 4497.51  543.13 60.43 18.00 426.18 2971.13
   00:31:19.990.10-May-2021 4497.51  543.13 60.43 18.00 426.38 2971.13
   00:31:20.190.10-May-2021 4497.51  543.55 60.43 18.00 426.58 2971.13
   00:31:20.390.10-May-2021 4497.51  543.21 60.43 18.00 426.78 2971.13
   00:31:20.590.10-May-2021 4497.51  544.25 60.43 18.00 426.98 2971.13
   00:31:20.790.10-May-2021 4497.51  544.16 60.43 18.00 427.18 2971.13
   00:31:20.991.10-May-2021 4497.51  544.16 60.43 18.00 427.38 2971.13
   00:31:21.191.10-May-2021 4497.51  544.90 60.43 18.00 427.58 2971.13
   00:31:21.391.10-May-2021 4497.51  544.76 60.43 18.00 427.78 2971.13
   00:31:21.591.10-May-2021 4497.51  545.17 60.43 18.00 427.98 2971.13
   00:31:21.791.10-May-2021 4497.51  545.03 60.43 18.00 428.18 2971.13
   00:31:21.991.10-May-2021 4497.51  545.03 60.43 18.00 428.38 2971.13
   00:31:22.191.10-May-2021 4497.51  545.79 60.43 18.00 428.58 2971.13
   00:31:22.391.10-May-2021 4497.51  546.02 60.43 18.00 428.78 2971.13
   00:31:22.591.10-May-2021 4497.51  546.05 60.43 18.00 428.98 2971.13
   00:31:22.791.10-May-2021 4497.51  545.84 60.43 18.00 429.18 2971.13
   00:31:22.991.10-May-2021 4497.51  545.84 60.43 18.00 429.38 2971.13
