~Version Information
 VERS.                  2.0:   CWLS log ASCII Standard -VERSION 2.0
 WRAP.                   NO:   One line per depth step
~Well Information Block
#MNEM.UNIT     VALUE/NAME     DESCRIPTION
#---------     -----------    ---------------------------
 STRT.S             00:30:13 09-May-21: START TIME 00:30:13 09-May-21
 STOP.S             00:37:03 09-May-21: STOP TIME  00:37:03 09-May-21
 STEP.S                   0.00: STEP TIME
 NULL.                 -999.25: NULL VALUE
 PROV.                    Baku:  PROVINCE
 STAT.                    Baku:  STATE NAME
 SON .        AZ-XX-0906571588:  JOB NUMBER
 WTYP.                Deviated:  WELL TYPE
 COMP.     BP Exploration (Caspian Sea) ltd:  COMPANY
 BASE.              Azerbaijan:  LOGGING EQUIPMENT BASE LOCATION
 REGN.                   EESSA:  REGION
 CTRY.              Azerbaijan:  COUNTRY NAME
 FLD .                     ACG:  FIELD NAME
 WELL.                     J28:  WELL NAME
 RIG .             West Chirag:  RIG NAME
 DMF .             Drill Floor:  DRILL MEAS FROM
 PDAT.       Caspian Sea Level:  PERMANENT DATUM
 HPTY.       Minimum Curvature:  HOLE POS TYPE
 MDS .        Operator Entered:  MAG DATA SOURCE
 NREF.                    Grid:  NORTH REFERENCE
 SRVC.          TURAN DRILLING:  CONTRACTOR
 JOBN.        AZ-XX-0906571588:  JOB TICKET NUMB
 DCON.     Halliburton Sperry Drilling:  DIRECTNL CONTR
 STIM.      00.44.00 11-Feb-21:  START TIME
 DATE.      00.00.00 05-May-21:  END TIME
 SPUD.               13-Feb-21:  SPUD DATE
 MWDS.                    Baku:  MWD SHOP
 DOE .                     N/A:  DOE NUMBER
 UNIT.                     N/A:  LOGGING EQUIPMENT ID
 UWI .                     N/A:  UNIQUE WELL IDENTIFIER
 API .                     N/A:  API NUMBER
 CNTY.                        :  COUNTY
 LOC .                        :  LOCATION
 LMF .             Drill Floor:  LOG MEASURED FROM
 TVDS.m                  43.00:  TVDSS CORRECTN
 SDEP.m                 341.00:  START DEPTH
 EGL .m                   0.00:  GROUND ELEVATION
 WDMS.m                 169.80:  WD ELEV
 AGAP.m                  43.00:  AIR GAP
 EPD .m                   0.00:  ELEVATION
 APD .m                  43.00:  DEPTH ABOVE PD
 LATI.deg                40.13:  LATITUDE
 LONG.deg                51.22:  LONGITUDE
 UTMY.m             4443793.85:  UTM Y
 UTMX.m              519005.06:  UTM X
 WHEW.m                 -11.57:  WELL HEAD E/W
 WHNS.m                   8.57:  WELL HEAD N/S
 VSEW.m                 -11.57:  VERT SEC E/W
 VSNS.m                   8.57:  VERT SEC N/S
 DFWL.m                   0.00:  DISTANCE FWL
 DFSL.m                   0.00:  DISTANCE FSL
 VSDR.deg               299.34:  VERT SEC DIRECT
 GVFD.g                   1.00:  GRAVITY FIELD
 AZTC.deg                 6.36:  AZM TOTAL CORR
 MFLD.nT              50391.00:  MAGNETIC FIELD
 MDIP.deg                59.65:  MAGNETIC DIP
 MDEC.deg                 6.48:  MAGNETIC DECL
 GRDC.deg                 0.12:  GRID CORRECTION
 DEP .m                 334.96:  DEPTH
 TDD .m                1407.26:  TOTAL DEPTH (DRILLER)
 EKB .m                  43.00:  KB ELEVATION
 EDF .m                  43.00:  DF ELEVATION
 TDL .m                 228.00:  TOTAL DEPTH (LOGGER)
 VSC .                       0:  VS TO CLOSURE
 MAGU.                 1854484:  MAGUTM CHECKSUM
~Parameter Information Block
#MNEM.UNIT       Value        Description
#---------     -----------    ---------------------------
 AV  .mps                 4.00:  Ann Velocity 
 AVMX.mps                 4.73:  Max Ann Veloc 
 AZIF.deg               304.48:  Azm, Final 
 BHAT.        Rotary Steerable:  BHA Type 
 BREV.rev            257300.00:  Rev Bit Total 
 BROT.°/30m               0.00:  Build Rotating 
 BS  .in                  8.50:  Bit Size 
 BSZ .in                  8.50:  Bit Size 
 BTPL.psig              589.00:  Bit Press Loss 
 CABU.                      No:  Customer Abuse 
 CGEO.          Mubariz ghayev:  Customer Geo 
 TCS .hr                 64.25:  Time Ciculation Ended 
 CV  .mps                 3.50:  Crit Velocity 
 CVMX.mps                 4.52:  Max Crit Veloc 
 DD1 .             Aziz Aliyev:  Direct Drillr 1 
 DD2 .         Intigam Rahimov:  Direct Drillr 2 
 DD3 .          Rashad Habibov:  Direct Drillr 3 
 DDSV.               Geo-Pilot:  DD Service 
 DEFF.%                  98.00:  % Det Eff 
 DLRX.°/30m               0.00:  Dogleg Rot Max 
 DLSO.°/30m               0.00:  Dogleg Oriented 
 DLSX.°/30m               0.00:  Dogleg Str Max 
 DRET.      10.45.04 08-May-21:  Drill End Time 
 DRST.      03.30.04 04-May-21:  Drill Start Tim 
 DTIM.hr                 14.97:  Time Drilling 
 EDEP.m                4640.01:  End Depth 
 ENG1.         Dail Mahammadov:  Engineer 1 
 ENG2.           Eldar Hajiyev:  Engineer 2 
 ENG3.       Bakhtiar Jabbarli:  Engineer 3 
 ENG4.       Natik Hasanagayev:  Engineer 4 
 ETIM.      09.30.04 14-May-21:  End Time 
 FLOI.gpm               460.00:  Flow In 
 FLON.gpm               200.00:  Flow In Min 
 FLOS.cptm                0.00:  Fluid Loss 
 FLOX.gpm               505.00:  Flow In Max 
 HFLO.                      No:  High Flow 
 HPRE.                      No:  High Pressure 
 HTEM.                      No:  High Temp 
 HYDO.m                   1.80:  Hydro Offset 
 IFIN.deg                66.71:  Inc, Final 
 IMAX.deg                67.03:  Inc Max 
 IMIN.deg                66.63:  Inc Min 
 IMND.m                4550.58:  Inc Min Depth 
 IMXD.m                4439.01:  Inc Max Depth 
 JARR.                      No:  Jarring 
 LETM.      10.45.04 08-May-21:  Log End Time 
 LOST.hr                     0:  Lost Rig Time 
 LSTM.      03.30.04 04-May-21:  Log Start Time 
 MDCL.ppm             37000.00:  Mud Chlorides 
 MDES.     Inversion Oil/Synthetic:  Mud Desc 
 DFD .sg                  1.38:  Mud Density 
 MDMN.sg                  1.35:  Dens Mud Min 
 MDMX.sg                  1.40:  Dens Mud Max 
 MOIL.                   57.40:  Run Mud Oil % 
 MOWR.                   70:30:  Run Mud OWR 
 MSND.                    0.00:  Run Mud Sand % 
 MSOL.                   18.00:  Run Mud Solids% 
 DFV .spqt               71.00:  Mud Viscosity 
 MWOD.in                  6.75:  MWD Tool OD 
 MWSI.                      No:  Serv Intrp, MWD 
 OTIM.hr                242.76:  Time Operating 
 PCON.           Look Like New:  Pad Condition 
 PMAX.psia            12183.92:  Press Op, Max 
 PV  .cP                 27.00:  Mud PV 
 RUN .                    1300:  Run Number 
 ROPA.m/hr               15.00:  ROP Avg 
 ROPN.m/hr                9.00:  ROP Min 
 ROPX.m/hr               19.00:  ROP Max 
 RPMA.rpm               120.00:  RPM Surface Avg 
 RPMN.rpm               100.00:  RPM Surface Min 
 RPMX.rpm               120.00:  RPM Surface Max 
 RRUN.                    1300:  Rig Run Number 
 RTIM.hr                  5.00:  Time Reaming 
 SAZI.deg               304.73:  Azm, Start 
 SDEP.m                4412.01:  Start Depth 
 SIDD.                      No:  Serv Intrp, DD 
 SINC.deg                66.82:  Inc, Start 
 SPPA.psig             2800.00:  SPP Avg 
 SPPN.psig             2610.00:  SPP Min 
 SPPX.psig             3100.00:  SPP Max 
 STIM.      03.30.00 04-May-21:  Start Time 
 SVCS.                 DD, MWD:  Services 
 SVER.                    9.20:  Sperry Version 
 TDAT.m                 228.00:  Tot Depth Attmp 
 TDDF.                      No:  Trip for DD 
 TDLG.m                 228.00:  Tot Depth Loggd 
 TFF .                      No:  Trip for Fail 
 TQAA.f-kp               15.00:  Torque Abs Avg 
 TQAN.f-kp               12.00:  Torque Abs Min 
 TQAX.f-kp               22.00:  Torque Abs Max 
 TRRT.°/30m               0.00:  Turn Rotating 
 MRT .                    HCIM:  Maximum Recorded Temperature 
 TTMX.degC               90.20:  Max Tool Temp 
 VS01.                90627813:  Virtual Str1 SN 
 VS02.                90634712:  Virtual Str2 SN 
 VS03.                90643410:  Virtual Str3 SN 
 VS04.                90634712:  Virtual Str4 SN 
 WBMN.klb                 9.00:  WOB Min 
 WITN.        Elmaddin Rahimov:  Customer Rep 
 WITN.         Haytham Mostafa:  Customer Rep 2 
 WOBA.klb                15.00:  WOB Avg 
 WOBX.klb                23.00:  WOB Max 
 YP  .lhf2               29.00:  Yield Point 
~Curve Information Block
#MNEM.UNIT                 API CODE     Curve Description
#---------               -----------    ---------------------------
 TIME.HHMMSS            00 000 000 000:  GT Time & Date
 GTDEPTH.m              00 000 000 000:  GT Depth
 GTPQH.psia             00 000 000 000:  GT HR Quartz Pressure
 GTTQ.degC              00 000 000 000:  GT Quartz Temperature
 GTTN.NONE              00 000 000 000:  GT Test Number
 GTET.sec               00 000 000 000:  GT Elapsed Test Time
 GTTVD.m                00 000 000 000:  GT True Vertical Depth
#Other Information
#
#WARRANTY: Halliburton will use its best efforts to furnish customers with 
#accurate information and interpretations that are part of, and incident to, the services 
#provided.  However, Halliburton cannot and does not warrant the accuracy 
#or correctness of such information and interpretations.  Under no circumstances should any 
#such information or interpretation be relied upon as the sole basis for any drilling, 
#completion, production, or financial decision or any procedure involving any risk to the 
#safety of any drilling venture, drilling rig or its crew or any other third party.  The 
#Customer has full responsibility for all drilling, completion and production operation.  
#Halliburton makes no representations or warranties, either expressed or 
#implied, including, but not limited to, the implied warranties of merchantability or fitness 
#for a particular purpose, with respect to the services rendered.  In no event will 
#Halliburton be liable for failure to obtain any particular results or for 
#any damages, including, but not limited to, indirect, special or consequential damages, 
#resulting from the use of any information or interpretation provided by Halliburton.
#
~A           TIME           GTDEPTH  GTPQH  GTTQ  GTTN  GTET   GTTVD  
# ...
   00:34:03.938.09-May-2021 4516.51 3298.87 67.76 7.00 230.08 2978.60
   00:34:04.138.09-May-2021 4516.51 3298.87 67.76 7.00 230.28 2978.60
   00:34:04.338.09-May-2021 4516.51 3298.51 67.76 7.00 230.48 2978.60
   00:34:04.538.09-May-2021 4516.51 3298.96 67.76 7.00 230.68 2978.60
   00:34:04.738.09-May-2021 4516.51 3299.08 67.76 7.00 230.88 2978.60
   00:34:04.938.09-May-2021 4516.51 3299.08 67.76 7.00 231.08 2978.60
   00:34:05.138.09-May-2021 4516.51 3299.08 67.76 7.00 231.28 2978.60
   00:34:05.338.09-May-2021 4516.51 3298.88 67.76 7.00 231.48 2978.60
   00:34:05.538.09-May-2021 4516.51 3298.86 67.76 7.00 231.68 2978.60
   00:34:05.739.09-May-2021 4516.51 3298.86 67.76 7.00 231.88 2978.60
   00:34:05.939.09-May-2021 4516.51 3298.86 67.76 7.00 232.08 2978.60
   00:34:06.139.09-May-2021 4516.51 3298.86 67.76 7.00 232.28 2978.60
   00:34:06.339.09-May-2021 4516.51 3298.90 67.76 7.00 232.48 2978.60
   00:34:06.539.09-May-2021 4516.51 3298.92 67.76 7.00 232.68 2978.60
   00:34:06.739.09-May-2021 4516.51 3298.90 67.76 7.00 232.88 2978.60
   00:34:06.939.09-May-2021 4516.51 3298.56 67.76 7.00 233.08 2978.60
   00:34:07.139.09-May-2021 4516.51 3298.56 67.76 7.00 233.28 2978.60
   00:34:07.339.09-May-2021 4516.51 3299.13 67.76 7.00 233.48 2978.60
   00:34:07.539.09-May-2021 4516.51 3299.17 67.76 7.00 233.68 2978.60
   00:34:07.739.09-May-2021 4516.51 3298.93 67.76 7.00 233.88 2978.60
   00:34:07.939.09-May-2021 4516.51 3298.90 67.76 7.00 234.08 2978.60
   00:34:08.139.09-May-2021 4516.51 3298.90 67.76 7.00 234.28 2978.60
   00:34:08.339.09-May-2021 4516.51 3299.45 67.76 7.00 234.48 2978.60
   00:34:08.540.09-May-2021 4516.51 3298.95 67.76 7.00 234.69 2978.60
   00:34:08.740.09-May-2021 4516.51 3298.95 67.76 7.00 234.89 2978.60
   00:34:08.940.09-May-2021 4516.51 3298.80 67.76 7.00 235.09 2978.60
   00:34:09.140.09-May-2021 4516.51 3298.80 67.76 7.00 235.29 2978.60
   00:34:09.340.09-May-2021 4516.51 3299.33 67.76 7.00 235.49 2978.60
   00:34:09.540.09-May-2021 4516.51 3299.12 67.76 7.00 235.69 2978.60
   00:34:09.740.09-May-2021 4516.51 3298.92 67.76 7.00 235.89 2978.60
   00:34:09.940.09-May-2021 4516.51 3298.96 67.76 7.00 236.09 2978.60
   00:34:10.140.09-May-2021 4516.51 3298.96 67.76 7.00 236.29 2978.60
   00:34:10.340.09-May-2021 4516.51 3299.52 67.76 7.00 236.49 2978.60
   00:34:10.540.09-May-2021 4516.51 3298.99 67.76 7.00 236.69 2978.60
   00:34:10.740.09-May-2021 4516.51 3299.14 67.76 7.00 236.89 2978.60
   00:34:10.940.09-May-2021 4516.51 3299.02 67.76 7.00 237.09 2978.60
   00:34:11.140.09-May-2021 4516.51 3299.02 67.76 7.00 237.29 2978.60
   00:34:11.341.09-May-2021 4516.51 3299.01 67.76 7.00 237.49 2978.60
   00:34:11.541.09-May-2021 4516.51 3299.00 67.76 7.00 237.69 2978.60
   00:34:11.741.09-May-2021 4516.51 3299.03 67.76 7.00 237.89 2978.60
   00:34:11.941.09-May-2021 4516.51 3299.05 67.76 7.00 238.09 2978.60
   00:34:12.141.09-May-2021 4516.51 3299.05 67.76 7.00 238.29 2978.60
   00:34:12.341.09-May-2021 4516.51 3299.10 67.76 7.00 238.49 2978.60
   00:34:12.541.09-May-2021 4516.51 3299.03 67.76 7.00 238.69 2978.60
   00:34:12.741.09-May-2021 4516.51 3298.57 67.76 7.00 238.89 2978.60
   00:34:12.941.09-May-2021 4516.51 3299.62 67.76 7.00 239.09 2978.60
   00:34:13.141.09-May-2021 4516.51 3299.62 67.76 7.00 239.29 2978.60
   00:34:13.341.09-May-2021 4516.51 3299.22 67.76 7.00 239.49 2978.60
   00:34:13.541.09-May-2021 4516.51 3299.08 67.76 7.00 239.69 2978.60
   00:34:13.741.09-May-2021 4516.51 3299.07 67.76 7.00 239.89 2978.60
   00:34:13.942.09-May-2021 4516.51 3299.08 67.76 7.00 240.09 2978.60
   00:34:14.142.09-May-2021 4516.51 3299.08 67.76 7.00 240.29 2978.60
   00:34:14.342.09-May-2021 4516.51 3299.08 67.76 7.00 240.49 2978.60
   00:34:14.542.09-May-2021 4516.51 3299.08 67.76 7.00 240.69 2978.60
   00:34:14.742.09-May-2021 4516.51 3299.12 67.76 7.00 240.89 2978.60
   00:34:14.942.09-May-2021 4516.51 3299.13 67.76 7.00 241.09 2978.60
   00:34:15.142.09-May-2021 4516.51 3299.13 67.76 7.00 241.29 2978.60
   00:34:15.342.09-May-2021 4516.51 3298.61 67.76 7.00 241.49 2978.60
   00:34:15.542.09-May-2021 4516.51 3299.63 67.76 7.00 241.69 2978.60
   00:34:15.742.09-May-2021 4516.51 3299.20 67.76 7.00 241.89 2978.60
   00:34:15.942.09-May-2021 4516.51 3299.35 67.76 7.00 242.09 2978.60
   00:34:16.142.09-May-2021 4516.51 3299.35 67.76 7.00 242.29 2978.60
   00:34:16.342.09-May-2021 4516.51 3299.10 67.76 7.00 242.49 2978.60
   00:34:16.542.09-May-2021 4516.51 3298.81 67.76 7.00 242.69 2978.60
   00:34:16.743.09-May-2021 4516.51 3299.55 67.76 7.00 242.89 2978.60
   00:34:16.943.09-May-2021 4516.51 3299.29 67.76 7.00 243.09 2978.60
   00:34:17.143.09-May-2021 4516.51 3299.29 67.76 7.00 243.29 2978.60
   00:34:17.343.09-May-2021 4516.51 3298.83 67.76 7.00 243.49 2978.60
   00:34:17.543.09-May-2021 4516.51 3299.21 67.76 7.00 243.69 2978.60
   00:34:17.743.09-May-2021 4516.51 3299.38 67.76 7.00 243.89 2978.60
   00:34:17.943.09-May-2021 4516.51 3299.38 67.76 7.00 244.09 2978.60
   00:34:18.143.09-May-2021 4516.51 3299.38 67.76 7.00 244.29 2978.60
   00:34:18.343.09-May-2021 4516.51 3299.10 67.76 7.00 244.49 2978.60
   00:34:18.543.09-May-2021 4516.51 3298.77 67.76 7.00 244.69 2978.60
   00:34:18.743.09-May-2021 4516.51 3299.45 67.76 7.00 244.89 2978.60
   00:34:18.943.09-May-2021 4516.51 3299.21 67.76 7.00 245.09 2978.60
   00:34:19.143.09-May-2021 4516.51 3299.21 67.76 7.00 245.29 2978.60
   00:34:19.343.09-May-2021 4516.51 3299.18 67.76 7.00 245.49 2978.60
   00:34:19.544.09-May-2021 4516.51 3299.16 67.76 7.00 245.69 2978.60
   00:34:19.744.09-May-2021 4516.51 3299.20 67.76 7.00 245.89 2978.60
   00:34:19.944.09-May-2021 4516.51 3299.18 67.76 7.00 246.09 2978.60
   00:34:20.144.09-May-2021 4516.51 3299.18 67.76 7.00 246.29 2978.60
   00:34:20.344.09-May-2021 4516.51 3299.23 67.76 7.00 246.49 2978.60
   00:34:20.544.09-May-2021 4516.51 3299.24 67.76 7.00 246.69 2978.60
   00:34:20.744.09-May-2021 4516.51 3299.26 67.76 7.00 246.89 2978.60
   00:34:20.944.09-May-2021 4516.51 3299.19 67.76 7.00 247.09 2978.60
   00:34:21.144.09-May-2021 4516.51 3299.19 67.76 7.00 247.29 2978.60
   00:34:21.344.09-May-2021 4516.51 3299.55 67.76 7.00 247.49 2978.60
   00:34:21.544.09-May-2021 4516.51 3299.29 67.76 7.00 247.69 2978.60
   00:34:21.744.09-May-2021 4516.51 3299.51 67.76 7.00 247.89 2978.60
   00:34:21.944.09-May-2021 4516.51 3299.21 67.76 7.00 248.09 2978.60
   00:34:22.144.09-May-2021 4516.51 3299.21 67.76 7.00 248.29 2978.60
   00:34:22.345.09-May-2021 4516.51 3299.23 67.76 7.00 248.49 2978.60
   00:34:22.545.09-May-2021 4516.51 3299.21 67.76 7.00 248.69 2978.60
   00:34:22.745.09-May-2021 4516.51 3299.23 67.76 7.00 248.89 2978.60
   00:34:22.945.09-May-2021 4516.51 3299.26 67.76 7.00 249.09 2978.60
   00:34:23.145.09-May-2021 4516.51 3299.26 67.76 7.00 249.29 2978.60
   00:34:23.345.09-May-2021 4516.51 3299.28 67.76 7.00 249.49 2978.60
   00:34:23.545.09-May-2021 4516.51 3299.21 67.76 7.00 249.69 2978.60
   00:34:23.745.09-May-2021 4516.51 3298.93 67.76 7.00 249.89 2978.60
   00:34:23.945.09-May-2021 4516.51 3299.56 67.76 7.00 250.09 2978.60
   00:34:24.145.09-May-2021 4516.51 3299.56 67.76 7.00 250.29 2978.60
   00:34:24.345.09-May-2021 4516.51 3299.56 67.76 7.00 250.49 2978.60
   00:34:24.545.09-May-2021 4516.51 3299.24 67.76 7.00 250.69 2978.60
   00:34:24.745.09-May-2021 4516.51 3299.26 67.76 7.00 250.89 2978.60
   00:34:24.945.09-May-2021 4516.51 3299.03 67.76 7.00 251.09 2978.60
   00:34:25.146.09-May-2021 4516.51 3299.03 67.76 7.00 251.29 2978.60
   00:34:25.346.09-May-2021 4516.51 3299.37 67.76 7.00 251.49 2978.60
   00:34:25.546.09-May-2021 4516.51 3299.22 67.76 7.00 251.69 2978.60
   00:34:25.746.09-May-2021 4516.51 3299.32 67.76 7.00 251.89 2978.60
   00:34:25.946.09-May-2021 4516.51 3298.96 67.76 7.00 252.09 2978.60
   00:34:26.146.09-May-2021 4516.51 3298.96 67.76 7.00 252.29 2978.60
   00:34:26.346.09-May-2021 4516.51 3299.48 67.76 7.00 252.49 2978.60
   00:34:26.546.09-May-2021 4516.51 3299.25 67.75 7.00 252.69 2978.60
   00:34:26.746.09-May-2021 4516.51 3299.30 67.75 7.00 252.89 2978.60
