~Version Information
 VERS.                  2.0:   CWLS log ASCII Standard -VERSION 2.0
 WRAP.                   NO:   One line per depth step
~Well Information Block
#MNEM.UNIT     VALUE/NAME     DESCRIPTION
#---------     -----------    ---------------------------
 STRT.S             20:58:23 08-May-21: START TIME 20:58:23 08-May-21
 STOP.S             21:05:15 08-May-21: STOP TIME  21:05:15 08-May-21
 STEP.S                   0.00: STEP TIME
 NULL.                 -999.25: NULL VALUE
 PROV.                    Baku:  PROVINCE
 STAT.                    Baku:  STATE NAME
 SON .        AZ-XX-0906571588:  JOB NUMBER
 WTYP.                Deviated:  WELL TYPE
 COMP.     BP Exploration (Caspian Sea) ltd:  COMPANY
 BASE.              Azerbaijan:  LOGGING EQUIPMENT BASE LOCATION
 REGN.                   EESSA:  REGION
 CTRY.              Azerbaijan:  COUNTRY NAME
 FLD .                     ACG:  FIELD NAME
 WELL.                     J28:  WELL NAME
 RIG .             West Chirag:  RIG NAME
 DMF .             Drill Floor:  DRILL MEAS FROM
 PDAT.       Caspian Sea Level:  PERMANENT DATUM
 HPTY.       Minimum Curvature:  HOLE POS TYPE
 MDS .        Operator Entered:  MAG DATA SOURCE
 NREF.                    Grid:  NORTH REFERENCE
 SRVC.          TURAN DRILLING:  CONTRACTOR
 JOBN.        AZ-XX-0906571588:  JOB TICKET NUMB
 DCON.     Halliburton Sperry Drilling:  DIRECTNL CONTR
 STIM.      00.44.00 11-Feb-21:  START TIME
 DATE.      00.00.00 05-May-21:  END TIME
 SPUD.               13-Feb-21:  SPUD DATE
 MWDS.                    Baku:  MWD SHOP
 DOE .                     N/A:  DOE NUMBER
 UNIT.                     N/A:  LOGGING EQUIPMENT ID
 UWI .                     N/A:  UNIQUE WELL IDENTIFIER
 API .                     N/A:  API NUMBER
 CNTY.                        :  COUNTY
 LOC .                        :  LOCATION
 LMF .             Drill Floor:  LOG MEASURED FROM
 TVDS.m                  43.00:  TVDSS CORRECTN
 SDEP.m                 341.00:  START DEPTH
 EGL .m                   0.00:  GROUND ELEVATION
 WDMS.m                 169.80:  WD ELEV
 AGAP.m                  43.00:  AIR GAP
 EPD .m                   0.00:  ELEVATION
 APD .m                  43.00:  DEPTH ABOVE PD
 LATI.deg                40.13:  LATITUDE
 LONG.deg                51.22:  LONGITUDE
 UTMY.m             4443793.85:  UTM Y
 UTMX.m              519005.06:  UTM X
 WHEW.m                 -11.57:  WELL HEAD E/W
 WHNS.m                   8.57:  WELL HEAD N/S
 VSEW.m                 -11.57:  VERT SEC E/W
 VSNS.m                   8.57:  VERT SEC N/S
 DFWL.m                   0.00:  DISTANCE FWL
 DFSL.m                   0.00:  DISTANCE FSL
 VSDR.deg               299.34:  VERT SEC DIRECT
 GVFD.g                   1.00:  GRAVITY FIELD
 AZTC.deg                 6.36:  AZM TOTAL CORR
 MFLD.nT              50391.00:  MAGNETIC FIELD
 MDIP.deg                59.65:  MAGNETIC DIP
 MDEC.deg                 6.48:  MAGNETIC DECL
 GRDC.deg                 0.12:  GRID CORRECTION
 DEP .m                 334.96:  DEPTH
 TDD .m                1407.26:  TOTAL DEPTH (DRILLER)
 EKB .m                  43.00:  KB ELEVATION
 EDF .m                  43.00:  DF ELEVATION
 TDL .m                 228.00:  TOTAL DEPTH (LOGGER)
 VSC .                       0:  VS TO CLOSURE
 MAGU.                 1854484:  MAGUTM CHECKSUM
~Parameter Information Block
#MNEM.UNIT       Value        Description
#---------     -----------    ---------------------------
 AV  .mps                 4.00:  Ann Velocity 
 AVMX.mps                 4.73:  Max Ann Veloc 
 AZIF.deg               304.48:  Azm, Final 
 BHAT.        Rotary Steerable:  BHA Type 
 BREV.rev            257300.00:  Rev Bit Total 
 BROT.°/30m               0.00:  Build Rotating 
 BS  .in                  8.50:  Bit Size 
 BSZ .in                  8.50:  Bit Size 
 BTPL.psig              589.00:  Bit Press Loss 
 CABU.                      No:  Customer Abuse 
 CGEO.          Mubariz ghayev:  Customer Geo 
 COMM.                     ”<v:  Run Comments 1 
 TCS .hr                 64.25:  Time Ciculation Ended 
 CV  .mps                 3.50:  Crit Velocity 
 CVMX.mps                 4.52:  Max Crit Veloc 
 DD1 .             Aziz Aliyev:  Direct Drillr 1 
 DD2 .         Intigam Rahimov:  Direct Drillr 2 
 DD3 .          Rashad Habibov:  Direct Drillr 3 
 DDSV.               Geo-Pilot:  DD Service 
 DEFF.%                  98.00:  % Det Eff 
 DLRX.°/30m               0.00:  Dogleg Rot Max 
 DLSO.°/30m               0.00:  Dogleg Oriented 
 DLSX.°/30m               0.00:  Dogleg Str Max 
 DRET.      10.45.04 08-May-21:  Drill End Time 
 DRST.      03.30.04 04-May-21:  Drill Start Tim 
 DTIM.hr                 14.97:  Time Drilling 
 EDEP.m                4640.01:  End Depth 
 ENG1.         Dail Mahammadov:  Engineer 1 
 ENG2.           Eldar Hajiyev:  Engineer 2 
 ENG3.       Bakhtiar Jabbarli:  Engineer 3 
 ENG4.       Natik Hasanagayev:  Engineer 4 
 ETIM.      09.30.04 14-May-21:  End Time 
 FLOI.gpm               460.00:  Flow In 
 FLON.gpm               200.00:  Flow In Min 
 FLOS.cptm                0.00:  Fluid Loss 
 FLOX.gpm               505.00:  Flow In Max 
 HFLO.                      No:  High Flow 
 HPRE.                      No:  High Pressure 
 HTEM.                      No:  High Temp 
 HYDO.m                   1.80:  Hydro Offset 
 IFIN.deg                66.71:  Inc, Final 
 IMAX.deg                67.03:  Inc Max 
 IMIN.deg                66.63:  Inc Min 
 IMND.m                4550.58:  Inc Min Depth 
 IMXD.m                4439.01:  Inc Max Depth 
 JARR.                      No:  Jarring 
 LETM.      10.45.04 08-May-21:  Log End Time 
 LOST.hr                     0:  Lost Rig Time 
 LSTM.      03.30.04 04-May-21:  Log Start Time 
 MDCL.ppm             37000.00:  Mud Chlorides 
 MDES.     Inversion Oil/Synthetic:  Mud Desc 
 DFD .sg                  1.38:  Mud Density 
 MDMN.sg                  1.35:  Dens Mud Min 
 MDMX.sg                  1.40:  Dens Mud Max 
 MOIL.                   57.40:  Run Mud Oil % 
 MOWR.                   70:30:  Run Mud OWR 
 MSND.                    0.00:  Run Mud Sand % 
 MSOL.                   18.00:  Run Mud Solids% 
 DFV .spqt               71.00:  Mud Viscosity 
 MWOD.in                  6.75:  MWD Tool OD 
 MWSI.                      No:  Serv Intrp, MWD 
 OTIM.hr                242.76:  Time Operating 
 PCON.           Look Like New:  Pad Condition 
 PMAX.psia            12183.92:  Press Op, Max 
 PV  .cP                 27.00:  Mud PV 
 RUN .                    1300:  Run Number 
 ROPA.m/hr               15.00:  ROP Avg 
 ROPN.m/hr                9.00:  ROP Min 
 ROPX.m/hr               19.00:  ROP Max 
 RPMA.rpm               120.00:  RPM Surface Avg 
 RPMN.rpm               100.00:  RPM Surface Min 
 RPMX.rpm               120.00:  RPM Surface Max 
 RRUN.                    1300:  Rig Run Number 
 RTIM.hr                  5.00:  Time Reaming 
 SAZI.deg               304.73:  Azm, Start 
 SDEP.m                4412.01:  Start Depth 
 SIDD.                      No:  Serv Intrp, DD 
 SINC.deg                66.82:  Inc, Start 
 SPPA.psig             2800.00:  SPP Avg 
 SPPN.psig             2610.00:  SPP Min 
 SPPX.psig             3100.00:  SPP Max 
 STIM.      03.30.00 04-May-21:  Start Time 
 SVCS.                 DD, MWD:  Services 
 SVER.                    9.20:  Sperry Version 
 TDAT.m                 228.00:  Tot Depth Attmp 
 TDDF.                      No:  Trip for DD 
 TDLG.m                 228.00:  Tot Depth Loggd 
 TFF .                      No:  Trip for Fail 
 TQAA.f-kp               15.00:  Torque Abs Avg 
 TQAN.f-kp               12.00:  Torque Abs Min 
 TQAX.f-kp               22.00:  Torque Abs Max 
 TRRT.°/30m               0.00:  Turn Rotating 
 MRT .                    HCIM:  Maximum Recorded Temperature 
 TTMX.degC               90.20:  Max Tool Temp 
 VS01.                90627813:  Virtual Str1 SN 
 VS02.                90634712:  Virtual Str2 SN 
 VS03.                90643410:  Virtual Str3 SN 
 VS04.                90634712:  Virtual Str4 SN 
 WBMN.klb                 9.00:  WOB Min 
 WITN.        Elmaddin Rahimov:  Customer Rep 
 WITN.         Haytham Mostafa:  Customer Rep 2 
 WOBA.klb                15.00:  WOB Avg 
 WOBX.klb                23.00:  WOB Max 
 YP  .lhf2               29.00:  Yield Point 
~Curve Information Block
#MNEM.UNIT                 API CODE     Curve Description
#---------               -----------    ---------------------------
 TIME.HHMMSS            00 000 000 000:  GT Time & Date
 GTDEPTH.m              00 000 000 000:  GT Depth
 GTPQH.psia             00 000 000 000:  GT HR Quartz Pressure
 GTTQ.degC              00 000 000 000:  GT Quartz Temperature
 GTTN.NONE              00 000 000 000:  GT Test Number
 GTET.sec               00 000 000 000:  GT Elapsed Test Time
 GTTVD.m                00 000 000 000:  GT True Vertical Depth
#Other Information
#
#WARRANTY: Halliburton will use its best efforts to furnish customers with 
#accurate information and interpretations that are part of, and incident to, the services 
#provided.  However, Halliburton cannot and does not warrant the accuracy 
#or correctness of such information and interpretations.  Under no circumstances should any 
#such information or interpretation be relied upon as the sole basis for any drilling, 
#completion, production, or financial decision or any procedure involving any risk to the 
#safety of any drilling venture, drilling rig or its crew or any other third party.  The 
#Customer has full responsibility for all drilling, completion and production operation.  
#Halliburton makes no representations or warranties, either expressed or 
#implied, including, but not limited to, the implied warranties of merchantability or fitness 
#for a particular purpose, with respect to the services rendered.  In no event will 
#Halliburton be liable for failure to obtain any particular results or for 
#any damages, including, but not limited to, indirect, special or consequential damages, 
#resulting from the use of any information or interpretation provided by Halliburton.
#
~A           TIME           GTDEPTH  GTPQH  GTTQ  GTTN  GTET   GTTVD  
# ...
   21:02:36.806.08-May-2021 4593.01 1617.76 69.00 2.00 253.03 3008.90
   21:02:37.006.08-May-2021 4593.01 1617.76 69.00 2.00 253.23 3008.90
   21:02:37.206.08-May-2021 4593.01 1528.26 69.00 2.00 253.43 3008.90
   21:02:37.406.08-May-2021 4593.01 1443.79 69.00 2.00 253.63 3008.90
   21:02:37.606.08-May-2021 4593.01 1356.94 69.00 2.00 253.83 3008.90
   21:02:37.806.08-May-2021 4593.01 1286.90 69.00 2.00 254.03 3008.90
   21:02:38.006.08-May-2021 4593.01 1286.90 69.00 2.00 254.23 3008.90
   21:02:38.206.08-May-2021 4593.01 1228.80 69.00 2.00 254.43 3008.90
   21:02:38.406.08-May-2021 4593.01 1221.12 68.99 2.00 254.63 3008.90
   21:02:38.606.08-May-2021 4593.01 1199.53 68.99 2.00 254.83 3008.90
   21:02:38.806.08-May-2021 4593.01 1179.84 68.99 2.00 255.03 3008.90
   21:02:39.006.08-May-2021 4593.01 1179.84 68.99 2.00 255.23 3008.90
   21:02:39.206.08-May-2021 4593.01 1166.50 68.99 2.00 255.43 3008.90
   21:02:39.406.08-May-2021 4593.01 1177.36 68.99 2.00 255.63 3008.90
   21:02:39.606.08-May-2021 4593.01 1184.29 68.98 2.00 255.83 3008.90
   21:02:39.806.08-May-2021 4593.01 1181.40 68.98 2.00 256.03 3008.90
   21:02:40.006.08-May-2021 4593.01 1181.40 68.98 2.00 256.23 3008.90
   21:02:40.206.08-May-2021 4593.01 1161.41 68.98 2.00 256.43 3008.90
   21:02:40.406.08-May-2021 4593.01 1143.79 68.98 2.00 256.63 3008.90
   21:02:40.606.08-May-2021 4593.01 1131.31 68.98 2.00 256.83 3008.90
   21:02:40.806.08-May-2021 4593.01 1120.85 68.97 2.00 257.03 3008.90
   21:02:41.006.08-May-2021 4593.01 1120.85 68.97 2.00 257.23 3008.90
   21:02:41.206.08-May-2021 4593.01 1136.09 68.97 2.00 257.43 3008.90
   21:02:41.406.08-May-2021 4593.01 1137.82 68.97 2.00 257.63 3008.90
   21:02:41.606.08-May-2021 4593.01 1125.05 68.97 2.00 257.83 3008.90
   21:02:41.806.08-May-2021 4593.01 1095.92 68.97 2.00 258.03 3008.90
   21:02:42.006.08-May-2021 4593.01 1095.92 68.97 2.00 258.23 3008.90
   21:02:42.206.08-May-2021 4593.01 1058.23 68.97 2.00 258.43 3008.90
   21:02:42.406.08-May-2021 4593.01 1048.36 68.96 2.00 258.63 3008.90
   21:02:42.606.08-May-2021 4593.01 1050.71 68.96 2.00 258.83 3008.90
   21:02:42.806.08-May-2021 4593.01 1053.26 68.96 2.00 259.03 3008.90
   21:02:43.006.08-May-2021 4593.01 1053.26 68.96 2.00 259.23 3008.90
   21:02:43.206.08-May-2021 4593.01 1039.73 68.96 2.00 259.43 3008.90
   21:02:43.407.08-May-2021 4593.01 1040.34 68.96 2.00 259.63 3008.90
   21:02:43.607.08-May-2021 4593.01 1056.43 68.96 2.00 259.83 3008.90
   21:02:43.807.08-May-2021 4593.01 1079.17 68.96 2.00 260.03 3008.90
   21:02:44.007.08-May-2021 4593.01 1079.17 68.96 2.00 260.23 3008.90
   21:02:44.207.08-May-2021 4593.01 1093.43 68.96 2.00 260.43 3008.90
   21:02:44.407.08-May-2021 4593.01 1131.55 68.95 2.00 260.63 3008.90
   21:02:44.607.08-May-2021 4593.01 1366.90 68.95 2.00 260.83 3008.90
   21:02:44.807.08-May-2021 4593.01 1613.70 68.95 2.00 261.03 3008.90
   21:02:45.007.08-May-2021 4593.01 1613.70 68.95 2.00 261.23 3008.90
   21:02:45.207.08-May-2021 4593.01 2058.05 68.95 2.00 261.43 3008.90
   21:02:45.407.08-May-2021 4593.01 2244.38 68.95 2.00 261.63 3008.90
   21:02:45.607.08-May-2021 4593.01 2410.24 68.95 2.00 261.83 3008.90
   21:02:45.807.08-May-2021 4593.01 2559.13 68.95 2.00 262.03 3008.90
   21:02:46.007.08-May-2021 4593.01 2559.13 68.95 2.00 262.23 3008.90
   21:02:46.207.08-May-2021 4593.01 2810.71 68.95 2.00 262.43 3008.90
   21:02:46.407.08-May-2021 4593.01 2917.17 68.95 2.00 262.63 3008.90
   21:02:46.607.08-May-2021 4593.01 3011.85 68.95 2.00 262.83 3008.90
   21:02:46.807.08-May-2021 4593.01 3096.90 68.95 2.00 263.03 3008.90
   21:02:47.007.08-May-2021 4593.01 3096.90 68.95 2.00 263.23 3008.90
   21:02:47.207.08-May-2021 4593.01 3241.59 68.95 2.00 263.43 3008.90
   21:02:47.407.08-May-2021 4593.01 3302.56 68.95 2.00 263.63 3008.90
   21:02:47.607.08-May-2021 4593.01 3357.33 68.95 2.00 263.83 3008.90
   21:02:47.807.08-May-2021 4593.01 3405.84 68.96 2.00 264.03 3008.90
   21:02:48.007.08-May-2021 4593.01 3405.84 68.96 2.00 264.23 3008.90
   21:02:48.207.08-May-2021 4593.01 3487.41 68.96 2.00 264.43 3008.90
   21:02:48.407.08-May-2021 4593.01 3522.00 68.96 2.00 264.63 3008.90
   21:02:48.607.08-May-2021 4593.01 3552.22 68.96 2.00 264.83 3008.90
   21:02:48.807.08-May-2021 4593.01 3579.28 68.96 2.00 265.03 3008.90
   21:02:49.007.08-May-2021 4593.01 3579.28 68.96 2.00 265.23 3008.90
   21:02:49.207.08-May-2021 4593.01 3623.78 68.96 2.00 265.43 3008.90
   21:02:49.407.08-May-2021 4593.01 3642.30 68.97 2.00 265.63 3008.90
   21:02:49.607.08-May-2021 4593.01 3658.74 68.97 2.00 265.83 3008.90
   21:02:49.807.08-May-2021 4593.01 3673.03 68.97 2.00 266.03 3008.90
   21:02:50.007.08-May-2021 4593.01 3673.03 68.97 2.00 266.23 3008.90
   21:02:50.207.08-May-2021 4593.01 3696.97 68.97 2.00 266.43 3008.90
   21:02:50.407.08-May-2021 4593.01 3706.69 68.97 2.00 266.63 3008.90
   21:02:50.607.08-May-2021 4593.01 3715.06 68.98 2.00 266.83 3008.90
   21:02:50.807.08-May-2021 4593.01 3722.28 68.98 2.00 267.03 3008.90
   21:02:51.007.08-May-2021 4593.01 3722.28 68.98 2.00 267.23 3008.90
   21:02:51.207.08-May-2021 4593.01 3734.68 68.98 2.00 267.43 3008.90
   21:02:51.407.08-May-2021 4593.01 3740.20 68.98 2.00 267.63 3008.90
   21:02:51.607.08-May-2021 4593.01 3744.47 68.98 2.00 267.83 3008.90
   21:02:51.807.08-May-2021 4593.01 3748.11 68.98 2.00 268.03 3008.90
   21:02:52.007.08-May-2021 4593.01 3748.11 68.98 2.00 268.23 3008.90
   21:02:52.207.08-May-2021 4593.01 3754.37 68.99 2.00 268.43 3008.90
   21:02:52.407.08-May-2021 4593.01 3756.80 68.99 2.00 268.63 3008.90
   21:02:52.607.08-May-2021 4593.01 3759.04 68.99 2.00 268.83 3008.90
   21:02:52.807.08-May-2021 4593.01 3760.95 68.99 2.00 269.03 3008.90
   21:02:53.008.08-May-2021 4593.01 3760.95 68.99 2.00 269.23 3008.90
   21:02:53.208.08-May-2021 4593.01 3764.00 68.99 2.00 269.43 3008.90
   21:02:53.408.08-May-2021 4593.01 3764.98 68.99 2.00 269.63 3008.90
   21:02:53.608.08-May-2021 4593.01 3766.57 69.00 2.00 269.83 3008.90
   21:02:53.808.08-May-2021 4593.01 3767.30 69.00 2.00 270.03 3008.90
   21:02:54.008.08-May-2021 4593.01 3767.30 69.00 2.00 270.23 3008.90
   21:02:54.208.08-May-2021 4593.01 3769.57 69.00 2.00 270.43 3008.90
   21:02:54.408.08-May-2021 4593.01 3769.76 69.00 2.00 270.63 3008.90
   21:02:54.608.08-May-2021 4593.01 3770.72 69.00 2.00 270.83 3008.90
   21:02:54.808.08-May-2021 4593.01 3770.93 69.00 2.00 271.03 3008.90
   21:02:55.008.08-May-2021 4593.01 3770.93 69.00 2.00 271.23 3008.90
   21:02:55.208.08-May-2021 4593.01 3771.99 69.00 2.00 271.43 3008.90
   21:02:55.408.08-May-2021 4593.01 3772.49 69.00 2.00 271.63 3008.90
   21:02:55.608.08-May-2021 4593.01 3773.12 69.00 2.00 271.83 3008.90
   21:02:55.808.08-May-2021 4593.01 3773.11 69.01 2.00 272.03 3008.90
   21:02:56.008.08-May-2021 4593.01 3773.11 69.01 2.00 272.23 3008.90
   21:02:56.208.08-May-2021 4593.01 3773.70 69.01 2.00 272.43 3008.90
   21:02:56.408.08-May-2021 4593.01 3773.98 69.01 2.00 272.63 3008.90
   21:02:56.608.08-May-2021 4593.01 3774.07 69.01 2.00 272.83 3008.90
   21:02:56.808.08-May-2021 4593.01 3774.18 69.01 2.00 273.03 3008.90
   21:02:57.008.08-May-2021 4593.01 3774.18 69.01 2.00 273.23 3008.90
   21:02:57.208.08-May-2021 4593.01 3774.61 69.01 2.00 273.43 3008.90
   21:02:57.408.08-May-2021 4593.01 3774.68 69.01 2.00 273.63 3008.90
   21:02:57.608.08-May-2021 4593.01 3774.83 69.01 2.00 273.83 3008.90
   21:02:57.808.08-May-2021 4593.01 3774.91 69.01 2.00 274.03 3008.90
   21:02:58.008.08-May-2021 4593.01 3774.91 69.01 2.00 274.23 3008.90
   21:02:58.208.08-May-2021 4593.01 3775.51 69.01 2.00 274.43 3008.90
   21:02:58.408.08-May-2021 4593.01 3775.16 69.01 2.00 274.63 3008.90
   21:02:58.608.08-May-2021 4593.01 3775.52 69.01 2.00 274.83 3008.90
   21:02:58.808.08-May-2021 4593.01 3775.45 69.01 2.00 275.03 3008.90
   21:02:59.008.08-May-2021 4593.01 3775.45 69.01 2.00 275.23 3008.90
   21:02:59.208.08-May-2021 4593.01 3775.48 69.01 2.00 275.43 3008.90
   21:02:59.408.08-May-2021 4593.01 3775.66 69.01 2.00 275.63 3008.90
   21:02:59.608.08-May-2021 4593.01 3775.80 69.02 2.00 275.83 3008.90
