~Version Information
 VERS.                  2.0:   CWLS log ASCII Standard -VERSION 2.0
 WRAP.                   NO:   One line per depth step
~Well Information Block
#MNEM.UNIT     VALUE/NAME     DESCRIPTION
#---------     -----------    ---------------------------
 STRT.S             05:06:20 09-May-21: START TIME 05:06:20 09-May-21
 STOP.S             05:13:20 09-May-21: STOP TIME  05:13:20 09-May-21
 STEP.S                   0.00: STEP TIME
 NULL.                 -999.25: NULL VALUE
 PROV.                    Baku:  PROVINCE
 STAT.                    Baku:  STATE NAME
 SON .        AZ-XX-0906571588:  JOB NUMBER
 WTYP.                Deviated:  WELL TYPE
 COMP.     BP Exploration (Caspian Sea) ltd:  COMPANY
 BASE.              Azerbaijan:  LOGGING EQUIPMENT BASE LOCATION
 REGN.                   EESSA:  REGION
 CTRY.              Azerbaijan:  COUNTRY NAME
 FLD .                     ACG:  FIELD NAME
 WELL.                     J28:  WELL NAME
 RIG .             West Chirag:  RIG NAME
 DMF .             Drill Floor:  DRILL MEAS FROM
 PDAT.       Caspian Sea Level:  PERMANENT DATUM
 HPTY.       Minimum Curvature:  HOLE POS TYPE
 MDS .        Operator Entered:  MAG DATA SOURCE
 NREF.                    Grid:  NORTH REFERENCE
 SRVC.          TURAN DRILLING:  CONTRACTOR
 JOBN.        AZ-XX-0906571588:  JOB TICKET NUMB
 DCON.     Halliburton Sperry Drilling:  DIRECTNL CONTR
 STIM.      00.44.00 11-Feb-21:  START TIME
 DATE.      00.00.00 05-May-21:  END TIME
 SPUD.               13-Feb-21:  SPUD DATE
 MWDS.                    Baku:  MWD SHOP
 DOE .                     N/A:  DOE NUMBER
 UNIT.                     N/A:  LOGGING EQUIPMENT ID
 UWI .                     N/A:  UNIQUE WELL IDENTIFIER
 API .                     N/A:  API NUMBER
 CNTY.                        :  COUNTY
 LOC .                        :  LOCATION
 LMF .             Drill Floor:  LOG MEASURED FROM
 TVDS.m                  43.00:  TVDSS CORRECTN
 SDEP.m                 341.00:  START DEPTH
 EGL .m                   0.00:  GROUND ELEVATION
 WDMS.m                 169.80:  WD ELEV
 AGAP.m                  43.00:  AIR GAP
 EPD .m                   0.00:  ELEVATION
 APD .m                  43.00:  DEPTH ABOVE PD
 LATI.deg                40.13:  LATITUDE
 LONG.deg                51.22:  LONGITUDE
 UTMY.m             4443793.85:  UTM Y
 UTMX.m              519005.06:  UTM X
 WHEW.m                 -11.57:  WELL HEAD E/W
 WHNS.m                   8.57:  WELL HEAD N/S
 VSEW.m                 -11.57:  VERT SEC E/W
 VSNS.m                   8.57:  VERT SEC N/S
 DFWL.m                   0.00:  DISTANCE FWL
 DFSL.m                   0.00:  DISTANCE FSL
 VSDR.deg               299.34:  VERT SEC DIRECT
 GVFD.g                   1.00:  GRAVITY FIELD
 AZTC.deg                 6.36:  AZM TOTAL CORR
 MFLD.nT              50391.00:  MAGNETIC FIELD
 MDIP.deg                59.65:  MAGNETIC DIP
 MDEC.deg                 6.48:  MAGNETIC DECL
 GRDC.deg                 0.12:  GRID CORRECTION
 DEP .m                 334.96:  DEPTH
 TDD .m                1407.26:  TOTAL DEPTH (DRILLER)
 EKB .m                  43.00:  KB ELEVATION
 EDF .m                  43.00:  DF ELEVATION
 TDL .m                 228.00:  TOTAL DEPTH (LOGGER)
 VSC .                       0:  VS TO CLOSURE
 MAGU.                 1854484:  MAGUTM CHECKSUM
~Parameter Information Block
#MNEM.UNIT       Value        Description
#---------     -----------    ---------------------------
 AV  .mps                 4.00:  Ann Velocity 
 AVMX.mps                 4.73:  Max Ann Veloc 
 AZIF.deg               304.48:  Azm, Final 
 BHAT.        Rotary Steerable:  BHA Type 
 BREV.rev            257300.00:  Rev Bit Total 
 BROT.°/30m               0.00:  Build Rotating 
 BS  .in                  8.50:  Bit Size 
 BSZ .in                  8.50:  Bit Size 
 BTPL.psig              589.00:  Bit Press Loss 
 CABU.                      No:  Customer Abuse 
 CGEO.          Mubariz ghayev:  Customer Geo 
 COMM.                     ¼8\:  Run Comments 1 
 TCS .hr                 64.25:  Time Ciculation Ended 
 CV  .mps                 3.50:  Crit Velocity 
 CVMX.mps                 4.52:  Max Crit Veloc 
 DD1 .             Aziz Aliyev:  Direct Drillr 1 
 DD2 .         Intigam Rahimov:  Direct Drillr 2 
 DD3 .          Rashad Habibov:  Direct Drillr 3 
 DDSV.               Geo-Pilot:  DD Service 
 DEFF.%                  98.00:  % Det Eff 
 DLRX.°/30m               0.00:  Dogleg Rot Max 
 DLSO.°/30m               0.00:  Dogleg Oriented 
 DLSX.°/30m               0.00:  Dogleg Str Max 
 DRET.      10.45.04 08-May-21:  Drill End Time 
 DRST.      03.30.04 04-May-21:  Drill Start Tim 
 DTIM.hr                 14.97:  Time Drilling 
 EDEP.m                4640.01:  End Depth 
 ENG1.         Dail Mahammadov:  Engineer 1 
 ENG2.           Eldar Hajiyev:  Engineer 2 
 ENG3.       Bakhtiar Jabbarli:  Engineer 3 
 ENG4.       Natik Hasanagayev:  Engineer 4 
 ETIM.      09.30.04 14-May-21:  End Time 
 FLOI.gpm               460.00:  Flow In 
 FLON.gpm               200.00:  Flow In Min 
 FLOS.cptm                0.00:  Fluid Loss 
 FLOX.gpm               505.00:  Flow In Max 
 HFLO.                      No:  High Flow 
 HPRE.                      No:  High Pressure 
 HTEM.                      No:  High Temp 
 HYDO.m                   1.80:  Hydro Offset 
 IFIN.deg                66.71:  Inc, Final 
 IMAX.deg                67.03:  Inc Max 
 IMIN.deg                66.63:  Inc Min 
 IMND.m                4550.58:  Inc Min Depth 
 IMXD.m                4439.01:  Inc Max Depth 
 JARR.                      No:  Jarring 
 LETM.      10.45.04 08-May-21:  Log End Time 
 LOST.hr                     0:  Lost Rig Time 
 LSTM.      03.30.04 04-May-21:  Log Start Time 
 MDCL.ppm             37000.00:  Mud Chlorides 
 MDES.     Inversion Oil/Synthetic:  Mud Desc 
 DFD .sg                  1.38:  Mud Density 
 MDMN.sg                  1.35:  Dens Mud Min 
 MDMX.sg                  1.40:  Dens Mud Max 
 MOIL.                   57.40:  Run Mud Oil % 
 MOWR.                   70:30:  Run Mud OWR 
 MSND.                    0.00:  Run Mud Sand % 
 MSOL.                   18.00:  Run Mud Solids% 
 DFV .spqt               71.00:  Mud Viscosity 
 MWOD.in                  6.75:  MWD Tool OD 
 MWSI.                      No:  Serv Intrp, MWD 
 OTIM.hr                242.76:  Time Operating 
 PCON.           Look Like New:  Pad Condition 
 PMAX.psia            12183.92:  Press Op, Max 
 PV  .cP                 27.00:  Mud PV 
 RUN .                    1300:  Run Number 
 ROPA.m/hr               15.00:  ROP Avg 
 ROPN.m/hr                9.00:  ROP Min 
 ROPX.m/hr               19.00:  ROP Max 
 RPMA.rpm               120.00:  RPM Surface Avg 
 RPMN.rpm               100.00:  RPM Surface Min 
 RPMX.rpm               120.00:  RPM Surface Max 
 RRUN.                    1300:  Rig Run Number 
 RTIM.hr                  5.00:  Time Reaming 
 SAZI.deg               304.73:  Azm, Start 
 SDEP.m                4412.01:  Start Depth 
 SIDD.                      No:  Serv Intrp, DD 
 SINC.deg                66.82:  Inc, Start 
 SPPA.psig             2800.00:  SPP Avg 
 SPPN.psig             2610.00:  SPP Min 
 SPPX.psig             3100.00:  SPP Max 
 STIM.      03.30.00 04-May-21:  Start Time 
 SVCS.                 DD, MWD:  Services 
 SVER.                    9.20:  Sperry Version 
 TDAT.m                 228.00:  Tot Depth Attmp 
 TDDF.                      No:  Trip for DD 
 TDLG.m                 228.00:  Tot Depth Loggd 
 TFF .                      No:  Trip for Fail 
 TQAA.f-kp               15.00:  Torque Abs Avg 
 TQAN.f-kp               12.00:  Torque Abs Min 
 TQAX.f-kp               22.00:  Torque Abs Max 
 TRRT.°/30m               0.00:  Turn Rotating 
 MRT .                    HCIM:  Maximum Recorded Temperature 
 TTMX.degC               90.20:  Max Tool Temp 
 VS01.                90627813:  Virtual Str1 SN 
 VS02.                90634712:  Virtual Str2 SN 
 VS03.                90643410:  Virtual Str3 SN 
 VS04.                90634712:  Virtual Str4 SN 
 WBMN.klb                 9.00:  WOB Min 
 WITN.        Elmaddin Rahimov:  Customer Rep 
 WITN.         Haytham Mostafa:  Customer Rep 2 
 WOBA.klb                15.00:  WOB Avg 
 WOBX.klb                23.00:  WOB Max 
 YP  .lhf2               29.00:  Yield Point 
~Curve Information Block
#MNEM.UNIT                 API CODE     Curve Description
#---------               -----------    ---------------------------
 TIME.HHMMSS            00 000 000 000:  GT Time & Date
 GTDEPTH.m              00 000 000 000:  GT Depth
 GTPQH.psia             00 000 000 000:  GT HR Quartz Pressure
 GTTQ.degC              00 000 000 000:  GT Quartz Temperature
 GTTN.NONE              00 000 000 000:  GT Test Number
 GTET.sec               00 000 000 000:  GT Elapsed Test Time
 GTTVD.m                00 000 000 000:  GT True Vertical Depth
#Other Information
#
#WARRANTY: Halliburton will use its best efforts to furnish customers with 
#accurate information and interpretations that are part of, and incident to, the services 
#provided.  However, Halliburton cannot and does not warrant the accuracy 
#or correctness of such information and interpretations.  Under no circumstances should any 
#such information or interpretation be relied upon as the sole basis for any drilling, 
#completion, production, or financial decision or any procedure involving any risk to the 
#safety of any drilling venture, drilling rig or its crew or any other third party.  The 
#Customer has full responsibility for all drilling, completion and production operation.  
#Halliburton makes no representations or warranties, either expressed or 
#implied, including, but not limited to, the implied warranties of merchantability or fitness 
#for a particular purpose, with respect to the services rendered.  In no event will 
#Halliburton be liable for failure to obtain any particular results or for 
#any damages, including, but not limited to, indirect, special or consequential damages, 
#resulting from the use of any information or interpretation provided by Halliburton.
#
~A           TIME           GTDEPTH  GTPQH  GTTQ  GTTN   GTET   GTTVD  
# ...
   05:08:35.600.09-May-2021 4452.51 4282.11 66.91 13.00 135.60 2953.46
   05:08:35.800.09-May-2021 4452.51 4282.31 66.91 13.00 135.80 2953.46
   05:08:36.000.09-May-2021 4452.51 4281.97 66.91 13.00 136.00 2953.46
   05:08:36.200.09-May-2021 4452.51 4281.97 66.91 13.00 136.20 2953.46
   05:08:36.400.09-May-2021 4452.51 4281.98 66.91 13.00 136.40 2953.46
   05:08:36.600.09-May-2021 4452.51 4282.18 66.91 13.00 136.60 2953.46
   05:08:36.800.09-May-2021 4452.51 4282.06 66.91 13.00 136.80 2953.46
   05:08:37.000.09-May-2021 4452.51 4282.31 66.91 13.00 137.00 2953.46
   05:08:37.200.09-May-2021 4452.51 4282.31 66.91 13.00 137.20 2953.46
   05:08:37.400.09-May-2021 4452.51 4282.25 66.91 13.00 137.40 2953.46
   05:08:37.600.09-May-2021 4452.51 4281.95 66.91 13.00 137.60 2953.46
   05:08:37.800.09-May-2021 4452.51 4282.21 66.91 13.00 137.80 2953.46
   05:08:38.000.09-May-2021 4452.51 4282.03 66.91 13.00 138.00 2953.46
   05:08:38.200.09-May-2021 4452.51 4282.03 66.91 13.00 138.20 2953.46
   05:08:38.400.09-May-2021 4452.51 4282.02 66.91 13.00 138.40 2953.46
   05:08:38.600.09-May-2021 4452.51 4282.14 66.91 13.00 138.60 2953.46
   05:08:38.800.09-May-2021 4452.51 4282.04 66.91 13.00 138.80 2953.46
   05:08:39.000.09-May-2021 4452.51 4282.23 66.91 13.00 139.00 2953.46
   05:08:39.200.09-May-2021 4452.51 4282.23 66.91 13.00 139.20 2953.46
   05:08:39.400.09-May-2021 4452.51 4282.03 66.91 13.00 139.40 2953.46
   05:08:39.600.09-May-2021 4452.51 4282.15 66.91 13.00 139.60 2953.46
   05:08:39.800.09-May-2021 4452.51 4282.07 66.91 13.00 139.80 2953.46
   05:08:40.000.09-May-2021 4452.51 4282.13 66.91 13.00 140.00 2953.46
   05:08:40.200.09-May-2021 4452.51 4282.13 66.91 13.00 140.20 2953.46
   05:08:40.400.09-May-2021 4452.51 4282.12 66.91 13.00 140.40 2953.46
   05:08:40.600.09-May-2021 4452.51 4282.12 66.91 13.00 140.60 2953.46
   05:08:40.800.09-May-2021 4452.51 4282.12 66.91 13.00 140.80 2953.46
   05:08:41.000.09-May-2021 4452.51 4282.13 66.91 13.00 141.00 2953.46
   05:08:41.200.09-May-2021 4452.51 4282.13 66.91 13.00 141.20 2953.46
   05:08:41.400.09-May-2021 4452.51 4282.16 66.91 13.00 141.40 2953.46
   05:08:41.600.09-May-2021 4452.51 4282.07 66.91 13.00 141.60 2953.46
   05:08:41.800.09-May-2021 4452.51 4282.26 66.91 13.00 141.80 2953.46
   05:08:42.000.09-May-2021 4452.51 4282.00 66.91 13.00 142.00 2953.46
   05:08:42.200.09-May-2021 4452.51 4282.00 66.91 13.00 142.20 2953.46
   05:08:42.400.09-May-2021 4452.51 4282.10 66.91 13.00 142.40 2953.46
   05:08:42.600.09-May-2021 4452.51 4282.13 66.91 13.00 142.60 2953.46
   05:08:42.800.09-May-2021 4452.51 4282.10 66.91 13.00 142.80 2953.46
   05:08:43.000.09-May-2021 4452.51 4282.13 66.91 13.00 143.00 2953.46
   05:08:43.200.09-May-2021 4452.51 4282.13 66.91 13.00 143.20 2953.46
   05:08:43.400.09-May-2021 4452.51 4282.13 66.91 13.00 143.40 2953.46
   05:08:43.600.09-May-2021 4452.51 4282.11 66.91 13.00 143.60 2953.46
   05:08:43.800.09-May-2021 4452.51 4282.11 66.91 13.00 143.80 2953.46
   05:08:44.000.09-May-2021 4452.51 4282.04 66.91 13.00 144.00 2953.46
   05:08:44.200.09-May-2021 4452.51 4282.04 66.91 13.00 144.20 2953.46
   05:08:44.400.09-May-2021 4452.51 4282.17 66.91 13.00 144.40 2953.46
   05:08:44.600.09-May-2021 4452.51 4282.04 66.91 13.00 144.60 2953.46
   05:08:44.800.09-May-2021 4452.51 4282.15 66.91 13.00 144.80 2953.46
   05:08:45.000.09-May-2021 4452.51 4282.07 66.91 13.00 145.00 2953.46
   05:08:45.200.09-May-2021 4452.51 4282.07 66.91 13.00 145.20 2953.46
   05:08:45.400.09-May-2021 4452.51 4282.23 66.91 13.00 145.40 2953.46
   05:08:45.600.09-May-2021 4452.51 4282.18 66.91 13.00 145.60 2953.46
   05:08:45.800.09-May-2021 4452.51 4282.02 66.91 13.00 145.80 2953.46
   05:08:46.000.09-May-2021 4452.51 4282.33 66.91 13.00 146.00 2953.46
   05:08:46.200.09-May-2021 4452.51 4282.33 66.91 13.00 146.20 2953.46
   05:08:46.400.09-May-2021 4452.51 4282.25 66.91 13.00 146.40 2953.46
   05:08:46.600.09-May-2021 4452.51 4281.94 66.91 13.00 146.60 2953.46
   05:08:46.800.09-May-2021 4452.51 4282.16 66.91 13.00 146.80 2953.46
   05:08:47.000.09-May-2021 4452.51 4281.98 66.91 13.00 147.00 2953.46
   05:08:47.200.09-May-2021 4452.51 4281.98 66.91 13.00 147.20 2953.46
   05:08:47.400.09-May-2021 4452.51 4282.07 66.91 13.00 147.40 2953.46
   05:08:47.600.09-May-2021 4452.51 4282.14 66.91 13.00 147.60 2953.46
   05:08:47.800.09-May-2021 4452.51 4282.11 66.91 13.00 147.80 2953.46
   05:08:48.000.09-May-2021 4452.51 4282.10 66.91 13.00 148.00 2953.46
   05:08:48.200.09-May-2021 4452.51 4282.10 66.91 13.00 148.20 2953.46
   05:08:48.400.09-May-2021 4452.51 4282.10 66.91 13.00 148.40 2953.46
   05:08:48.600.09-May-2021 4452.51 4282.11 66.91 13.00 148.60 2953.46
   05:08:48.800.09-May-2021 4452.51 4282.11 66.91 13.00 148.80 2953.46
   05:08:49.000.09-May-2021 4452.51 4282.13 66.91 13.00 149.00 2953.46
   05:08:49.200.09-May-2021 4452.51 4282.13 66.91 13.00 149.20 2953.46
   05:08:49.400.09-May-2021 4452.51 4282.10 66.91 13.00 149.40 2953.46
   05:08:49.600.09-May-2021 4452.51 4282.25 66.91 13.00 149.60 2953.46
   05:08:49.800.09-May-2021 4452.51 4198.52 66.91 13.00 149.80 2953.46
   05:08:50.000.09-May-2021 4452.51 4113.06 66.91 13.00 150.00 2953.46
   05:08:50.200.09-May-2021 4452.51 4113.06 66.91 13.00 150.20 2953.46
   05:08:50.400.09-May-2021 4452.51 4105.11 66.91 13.00 150.40 2953.46
   05:08:50.600.09-May-2021 4452.51 4105.03 66.91 13.00 150.60 2953.46
   05:08:50.800.09-May-2021 4452.51 4104.02 66.91 13.00 150.80 2953.46
   05:08:51.000.09-May-2021 4452.51 4105.54 66.91 13.00 151.00 2953.46
   05:08:51.200.09-May-2021 4452.51 4105.54 66.91 13.00 151.20 2953.46
   05:08:51.400.09-May-2021 4452.51 4102.47 66.91 13.00 151.40 2953.46
   05:08:51.600.09-May-2021 4452.51 4103.79 66.91 13.00 151.60 2953.46
   05:08:51.800.09-May-2021 4452.51 4103.19 66.91 13.00 151.80 2953.46
   05:08:52.000.09-May-2021 4452.51 4103.08 66.91 13.00 152.00 2953.46
   05:08:52.200.09-May-2021 4452.51 4103.08 66.91 13.00 152.20 2953.46
   05:08:52.400.09-May-2021 4452.51 4101.99 66.91 13.00 152.40 2953.46
   05:08:52.600.09-May-2021 4452.51 4102.29 66.91 13.00 152.60 2953.46
   05:08:52.800.09-May-2021 4452.51 4101.91 66.91 13.00 152.80 2953.46
   05:08:53.000.09-May-2021 4452.51 4101.47 66.91 13.00 153.00 2953.46
   05:08:53.200.09-May-2021 4452.51 4101.47 66.91 13.00 153.20 2953.46
   05:08:53.400.09-May-2021 4452.51 4101.11 66.91 13.00 153.40 2953.46
   05:08:53.600.09-May-2021 4452.51 4100.23 66.91 13.00 153.60 2953.46
   05:08:53.800.09-May-2021 4452.51 4100.21 66.91 13.00 153.80 2953.46
   05:08:54.000.09-May-2021 4452.51 4101.69 66.91 13.00 154.00 2953.46
   05:08:54.200.09-May-2021 4452.51 4101.69 66.91 13.00 154.20 2953.46
   05:08:54.400.09-May-2021 4452.51 4100.15 66.90 13.00 154.40 2953.46
   05:08:54.600.09-May-2021 4452.51 4101.42 66.90 13.00 154.60 2953.46
   05:08:54.800.09-May-2021 4452.51 4100.55 66.90 13.00 154.80 2953.46
   05:08:55.000.09-May-2021 4452.51 4100.64 66.90 13.00 155.00 2953.46
   05:08:55.200.09-May-2021 4452.51 4100.64 66.90 13.00 155.20 2953.46
   05:08:55.400.09-May-2021 4452.51 4112.19 66.90 13.00 155.40 2953.46
   05:08:55.600.09-May-2021 4452.51 4134.54 66.90 13.00 155.60 2953.46
   05:08:55.800.09-May-2021 4452.51 4123.97 66.90 13.00 155.80 2953.46
   05:08:56.000.09-May-2021 4452.51 4114.39 66.90 13.00 156.00 2953.46
   05:08:56.200.09-May-2021 4452.51 4114.39 66.90 13.00 156.20 2953.46
   05:08:56.400.09-May-2021 4452.51 4107.48 66.90 13.00 156.40 2953.46
   05:08:56.600.09-May-2021 4452.51 4104.78 66.90 13.00 156.60 2953.46
   05:08:56.800.09-May-2021 4452.51 4102.55 66.90 13.00 156.80 2953.46
   05:08:57.000.09-May-2021 4452.51 4099.41 66.90 13.00 157.00 2953.46
   05:08:57.200.09-May-2021 4452.51 4099.41 66.90 13.00 157.20 2953.46
   05:08:57.400.09-May-2021 4452.51 4094.74 66.90 13.00 157.40 2953.46
   05:08:57.600.09-May-2021 4452.51 4093.43 66.90 13.00 157.60 2953.46
   05:08:57.800.09-May-2021 4452.51 4100.43 66.90 13.00 157.80 2953.46
   05:08:58.000.09-May-2021 4452.51 4100.95 66.90 13.00 158.00 2953.46
