~Version Information
 VERS.                  2.0:   CWLS log ASCII Standard -VERSION 2.0
 WRAP.                   NO:   One line per depth step
~Well Information Block
#MNEM.UNIT     VALUE/NAME     DESCRIPTION
#---------     -----------    ---------------------------
 STRT.S             00:30:13 09-May-21: START TIME 00:30:13 09-May-21
 STOP.S             00:37:03 09-May-21: STOP TIME  00:37:03 09-May-21
 STEP.S                   0.00: STEP TIME
 NULL.                 -999.25: NULL VALUE
 PROV.                    Baku:  PROVINCE
 STAT.                    Baku:  STATE NAME
 SON .        AZ-XX-0906571588:  JOB NUMBER
 WTYP.                Deviated:  WELL TYPE
 COMP.     BP Exploration (Caspian Sea) ltd:  COMPANY
 BASE.              Azerbaijan:  LOGGING EQUIPMENT BASE LOCATION
 REGN.                   EESSA:  REGION
 CTRY.              Azerbaijan:  COUNTRY NAME
 FLD .                     ACG:  FIELD NAME
 WELL.                     J28:  WELL NAME
 RIG .             West Chirag:  RIG NAME
 DMF .             Drill Floor:  DRILL MEAS FROM
 PDAT.       Caspian Sea Level:  PERMANENT DATUM
 HPTY.       Minimum Curvature:  HOLE POS TYPE
 MDS .        Operator Entered:  MAG DATA SOURCE
 NREF.                    Grid:  NORTH REFERENCE
 SRVC.          TURAN DRILLING:  CONTRACTOR
 JOBN.        AZ-XX-0906571588:  JOB TICKET NUMB
 DCON.     Halliburton Sperry Drilling:  DIRECTNL CONTR
 STIM.      00.44.00 11-Feb-21:  START TIME
 DATE.      00.00.00 05-May-21:  END TIME
 SPUD.               13-Feb-21:  SPUD DATE
 MWDS.                    Baku:  MWD SHOP
 DOE .                     N/A:  DOE NUMBER
 UNIT.                     N/A:  LOGGING EQUIPMENT ID
 UWI .                     N/A:  UNIQUE WELL IDENTIFIER
 API .                     N/A:  API NUMBER
 CNTY.                        :  COUNTY
 LOC .                        :  LOCATION
 LMF .             Drill Floor:  LOG MEASURED FROM
 TVDS.m                  43.00:  TVDSS CORRECTN
 SDEP.m                 341.00:  START DEPTH
 EGL .m                   0.00:  GROUND ELEVATION
 WDMS.m                 169.80:  WD ELEV
 AGAP.m                  43.00:  AIR GAP
 EPD .m                   0.00:  ELEVATION
 APD .m                  43.00:  DEPTH ABOVE PD
 LATI.deg                40.13:  LATITUDE
 LONG.deg                51.22:  LONGITUDE
 UTMY.m             4443793.85:  UTM Y
 UTMX.m              519005.06:  UTM X
 WHEW.m                 -11.57:  WELL HEAD E/W
 WHNS.m                   8.57:  WELL HEAD N/S
 VSEW.m                 -11.57:  VERT SEC E/W
 VSNS.m                   8.57:  VERT SEC N/S
 DFWL.m                   0.00:  DISTANCE FWL
 DFSL.m                   0.00:  DISTANCE FSL
 VSDR.deg               299.34:  VERT SEC DIRECT
 GVFD.g                   1.00:  GRAVITY FIELD
 AZTC.deg                 6.36:  AZM TOTAL CORR
 MFLD.nT              50391.00:  MAGNETIC FIELD
 MDIP.deg                59.65:  MAGNETIC DIP
 MDEC.deg                 6.48:  MAGNETIC DECL
 GRDC.deg                 0.12:  GRID CORRECTION
 DEP .m                 334.96:  DEPTH
 TDD .m                1407.26:  TOTAL DEPTH (DRILLER)
 EKB .m                  43.00:  KB ELEVATION
 EDF .m                  43.00:  DF ELEVATION
 TDL .m                 228.00:  TOTAL DEPTH (LOGGER)
 VSC .                       0:  VS TO CLOSURE
 MAGU.                 1854484:  MAGUTM CHECKSUM
~Parameter Information Block
#MNEM.UNIT       Value        Description
#---------     -----------    ---------------------------
 AV  .mps                 4.00:  Ann Velocity 
 AVMX.mps                 4.73:  Max Ann Veloc 
 AZIF.deg               304.48:  Azm, Final 
 BHAT.        Rotary Steerable:  BHA Type 
 BREV.rev            257300.00:  Rev Bit Total 
 BROT.°/30m               0.00:  Build Rotating 
 BS  .in                  8.50:  Bit Size 
 BSZ .in                  8.50:  Bit Size 
 BTPL.psig              589.00:  Bit Press Loss 
 CABU.                      No:  Customer Abuse 
 CGEO.          Mubariz ghayev:  Customer Geo 
 TCS .hr                 64.25:  Time Ciculation Ended 
 CV  .mps                 3.50:  Crit Velocity 
 CVMX.mps                 4.52:  Max Crit Veloc 
 DD1 .             Aziz Aliyev:  Direct Drillr 1 
 DD2 .         Intigam Rahimov:  Direct Drillr 2 
 DD3 .          Rashad Habibov:  Direct Drillr 3 
 DDSV.               Geo-Pilot:  DD Service 
 DEFF.%                  98.00:  % Det Eff 
 DLRX.°/30m               0.00:  Dogleg Rot Max 
 DLSO.°/30m               0.00:  Dogleg Oriented 
 DLSX.°/30m               0.00:  Dogleg Str Max 
 DRET.      10.45.04 08-May-21:  Drill End Time 
 DRST.      03.30.04 04-May-21:  Drill Start Tim 
 DTIM.hr                 14.97:  Time Drilling 
 EDEP.m                4640.01:  End Depth 
 ENG1.         Dail Mahammadov:  Engineer 1 
 ENG2.           Eldar Hajiyev:  Engineer 2 
 ENG3.       Bakhtiar Jabbarli:  Engineer 3 
 ENG4.       Natik Hasanagayev:  Engineer 4 
 ETIM.      09.30.04 14-May-21:  End Time 
 FLOI.gpm               460.00:  Flow In 
 FLON.gpm               200.00:  Flow In Min 
 FLOS.cptm                0.00:  Fluid Loss 
 FLOX.gpm               505.00:  Flow In Max 
 HFLO.                      No:  High Flow 
 HPRE.                      No:  High Pressure 
 HTEM.                      No:  High Temp 
 HYDO.m                   1.80:  Hydro Offset 
 IFIN.deg                66.71:  Inc, Final 
 IMAX.deg                67.03:  Inc Max 
 IMIN.deg                66.63:  Inc Min 
 IMND.m                4550.58:  Inc Min Depth 
 IMXD.m                4439.01:  Inc Max Depth 
 JARR.                      No:  Jarring 
 LETM.      10.45.04 08-May-21:  Log End Time 
 LOST.hr                     0:  Lost Rig Time 
 LSTM.      03.30.04 04-May-21:  Log Start Time 
 MDCL.ppm             37000.00:  Mud Chlorides 
 MDES.     Inversion Oil/Synthetic:  Mud Desc 
 DFD .sg                  1.38:  Mud Density 
 MDMN.sg                  1.35:  Dens Mud Min 
 MDMX.sg                  1.40:  Dens Mud Max 
 MOIL.                   57.40:  Run Mud Oil % 
 MOWR.                   70:30:  Run Mud OWR 
 MSND.                    0.00:  Run Mud Sand % 
 MSOL.                   18.00:  Run Mud Solids% 
 DFV .spqt               71.00:  Mud Viscosity 
 MWOD.in                  6.75:  MWD Tool OD 
 MWSI.                      No:  Serv Intrp, MWD 
 OTIM.hr                242.76:  Time Operating 
 PCON.           Look Like New:  Pad Condition 
 PMAX.psia            12183.92:  Press Op, Max 
 PV  .cP                 27.00:  Mud PV 
 RUN .                    1300:  Run Number 
 ROPA.m/hr               15.00:  ROP Avg 
 ROPN.m/hr                9.00:  ROP Min 
 ROPX.m/hr               19.00:  ROP Max 
 RPMA.rpm               120.00:  RPM Surface Avg 
 RPMN.rpm               100.00:  RPM Surface Min 
 RPMX.rpm               120.00:  RPM Surface Max 
 RRUN.                    1300:  Rig Run Number 
 RTIM.hr                  5.00:  Time Reaming 
 SAZI.deg               304.73:  Azm, Start 
 SDEP.m                4412.01:  Start Depth 
 SIDD.                      No:  Serv Intrp, DD 
 SINC.deg                66.82:  Inc, Start 
 SPPA.psig             2800.00:  SPP Avg 
 SPPN.psig             2610.00:  SPP Min 
 SPPX.psig             3100.00:  SPP Max 
 STIM.      03.30.00 04-May-21:  Start Time 
 SVCS.                 DD, MWD:  Services 
 SVER.                    9.20:  Sperry Version 
 TDAT.m                 228.00:  Tot Depth Attmp 
 TDDF.                      No:  Trip for DD 
 TDLG.m                 228.00:  Tot Depth Loggd 
 TFF .                      No:  Trip for Fail 
 TQAA.f-kp               15.00:  Torque Abs Avg 
 TQAN.f-kp               12.00:  Torque Abs Min 
 TQAX.f-kp               22.00:  Torque Abs Max 
 TRRT.°/30m               0.00:  Turn Rotating 
 MRT .                    HCIM:  Maximum Recorded Temperature 
 TTMX.degC               90.20:  Max Tool Temp 
 VS01.                90627813:  Virtual Str1 SN 
 VS02.                90634712:  Virtual Str2 SN 
 VS03.                90643410:  Virtual Str3 SN 
 VS04.                90634712:  Virtual Str4 SN 
 WBMN.klb                 9.00:  WOB Min 
 WITN.        Elmaddin Rahimov:  Customer Rep 
 WITN.         Haytham Mostafa:  Customer Rep 2 
 WOBA.klb                15.00:  WOB Avg 
 WOBX.klb                23.00:  WOB Max 
 YP  .lhf2               29.00:  Yield Point 
~Curve Information Block
#MNEM.UNIT                 API CODE     Curve Description
#---------               -----------    ---------------------------
 TIME.HHMMSS            00 000 000 000:  GT Time & Date
 GTDEPTH.m              00 000 000 000:  GT Depth
 GTPQH.psia             00 000 000 000:  GT HR Quartz Pressure
 GTTQ.degC              00 000 000 000:  GT Quartz Temperature
 GTTN.NONE              00 000 000 000:  GT Test Number
 GTET.sec               00 000 000 000:  GT Elapsed Test Time
 GTTVD.m                00 000 000 000:  GT True Vertical Depth
#Other Information
#
#WARRANTY: Halliburton will use its best efforts to furnish customers with 
#accurate information and interpretations that are part of, and incident to, the services 
#provided.  However, Halliburton cannot and does not warrant the accuracy 
#or correctness of such information and interpretations.  Under no circumstances should any 
#such information or interpretation be relied upon as the sole basis for any drilling, 
#completion, production, or financial decision or any procedure involving any risk to the 
#safety of any drilling venture, drilling rig or its crew or any other third party.  The 
#Customer has full responsibility for all drilling, completion and production operation.  
#Halliburton makes no representations or warranties, either expressed or 
#implied, including, but not limited to, the implied warranties of merchantability or fitness 
#for a particular purpose, with respect to the services rendered.  In no event will 
#Halliburton be liable for failure to obtain any particular results or for 
#any damages, including, but not limited to, indirect, special or consequential damages, 
#resulting from the use of any information or interpretation provided by Halliburton.
#
~A           TIME           GTDEPTH  GTPQH  GTTQ  GTTN  GTET   GTTVD  
   00:30:13.855.09-May-2021 4516.51 6692.31 67.88 7.00   0.00 2978.60
   00:30:14.055.09-May-2021 4516.51 6692.31 67.88 7.00   0.20 2978.60
   00:30:14.255.09-May-2021 4516.51 6695.43 67.88 7.00   0.40 2978.60
   00:30:14.455.09-May-2021 4516.51 6689.75 67.88 7.00   0.60 2978.60
   00:30:14.655.09-May-2021 4516.51 6691.18 67.88 7.00   0.80 2978.60
   00:30:14.855.09-May-2021 4516.51 6689.15 67.88 7.00   1.00 2978.60
   00:30:15.055.09-May-2021 4516.51 6689.15 67.88 7.00   1.20 2978.60
   00:30:15.255.09-May-2021 4516.51 6692.80 67.88 7.00   1.40 2978.60
   00:30:15.455.09-May-2021 4516.51 6694.28 67.88 7.00   1.60 2978.60
   00:30:15.655.09-May-2021 4516.51 6693.31 67.88 7.00   1.80 2978.60
   00:30:15.855.09-May-2021 4516.51 6699.83 67.88 7.00   2.00 2978.60
   00:30:16.055.09-May-2021 4516.51 6699.83 67.88 7.00   2.20 2978.60
   00:30:16.255.09-May-2021 4516.51 6697.66 67.88 7.00   2.40 2978.60
   00:30:16.455.09-May-2021 4516.51 6697.45 67.88 7.00   2.60 2978.60
   00:30:16.656.09-May-2021 4516.51 6696.74 67.88 7.00   2.80 2978.60
   00:30:16.856.09-May-2021 4516.51 6703.69 67.88 7.00   3.00 2978.60
   00:30:17.056.09-May-2021 4516.51 6703.69 67.88 7.00   3.20 2978.60
   00:30:17.256.09-May-2021 4516.51 6702.93 67.88 7.00   3.40 2978.60
   00:30:17.456.09-May-2021 4516.51 6697.21 67.88 7.00   3.60 2978.60
   00:30:17.656.09-May-2021 4516.51 6706.62 67.88 7.00   3.80 2978.60
   00:30:17.856.09-May-2021 4516.51 6707.97 67.88 7.00   4.00 2978.60
   00:30:18.056.09-May-2021 4516.51 6707.97 67.88 7.00   4.20 2978.60
   00:30:18.256.09-May-2021 4516.51 6700.40 67.88 7.00   4.40 2978.60
   00:30:18.456.09-May-2021 4516.51 6700.71 67.88 7.00   4.60 2978.60
   00:30:18.656.09-May-2021 4516.51 6700.06 67.88 7.00   4.80 2978.60
   00:30:18.856.09-May-2021 4516.51 6700.33 67.88 7.00   5.00 2978.60
   00:30:19.056.09-May-2021 4516.51 6700.33 67.88 7.00   5.20 2978.60
   00:30:19.256.09-May-2021 4516.51 6700.40 67.88 7.00   5.40 2978.60
   00:30:19.457.09-May-2021 4516.51 6700.35 67.88 7.00   5.60 2978.60
   00:30:19.657.09-May-2021 4516.51 6700.62 67.88 7.00   5.80 2978.60
   00:30:19.857.09-May-2021 4516.51 6700.77 67.88 7.00   6.00 2978.60
   00:30:20.057.09-May-2021 4516.51 6700.77 67.88 7.00   6.20 2978.60
   00:30:20.257.09-May-2021 4516.51 6701.97 67.88 7.00   6.40 2978.60
   00:30:20.457.09-May-2021 4516.51 6711.76 67.88 7.00   6.60 2978.60
   00:30:20.657.09-May-2021 4516.51 6710.95 67.88 7.00   6.80 2978.60
   00:30:20.857.09-May-2021 4516.51 6711.05 67.88 7.00   7.00 2978.60
   00:30:21.057.09-May-2021 4516.51 6711.05 67.88 7.00   7.20 2978.60
   00:30:21.257.09-May-2021 4516.51 6707.15 67.88 7.00   7.40 2978.60
   00:30:21.457.09-May-2021 4516.51 6707.37 67.88 7.00   7.60 2978.60
   00:30:21.657.09-May-2021 4516.51 6708.16 67.88 7.00   7.80 2978.60
   00:30:21.857.09-May-2021 4516.51 6707.06 67.88 7.00   8.00 2978.60
   00:30:22.057.09-May-2021 4516.51 6707.06 67.88 7.00   8.20 2978.60
   00:30:22.258.09-May-2021 4516.51 6707.08 67.88 7.00   8.40 2978.60
   00:30:22.458.09-May-2021 4516.51 6707.01 67.88 7.00   8.60 2978.60
   00:30:22.658.09-May-2021 4516.51 6706.29 67.88 7.00   8.80 2978.60
   00:30:22.858.09-May-2021 4516.51 6706.58 67.88 7.00   9.00 2978.60
   00:30:23.058.09-May-2021 4516.51 6706.58 67.88 7.00   9.20 2978.60
   00:30:23.258.09-May-2021 4516.51 6715.26 67.88 7.00   9.40 2978.60
   00:30:23.458.09-May-2021 4516.51 6715.19 67.88 7.00   9.60 2978.60
   00:30:23.658.09-May-2021 4516.51 6713.93 67.88 7.00   9.80 2978.60
   00:30:23.858.09-May-2021 4516.51 6708.47 67.88 7.00  10.00 2978.60
   00:30:24.058.09-May-2021 4516.51 6708.47 67.88 7.00  10.20 2978.60
   00:30:24.258.09-May-2021 4516.51 6716.75 67.88 7.00  10.40 2978.60
   00:30:24.458.09-May-2021 4516.51 6717.82 67.88 7.00  10.60 2978.60
   00:30:24.658.09-May-2021 4516.51 6717.25 67.88 7.00  10.80 2978.60
   00:30:24.859.09-May-2021 4516.51 6711.77 67.88 7.00  11.00 2978.60
   00:30:25.059.09-May-2021 4516.51 6711.77 67.88 7.00  11.20 2978.60
   00:30:25.259.09-May-2021 4516.51 6717.05 67.88 7.00  11.40 2978.60
   00:30:25.459.09-May-2021 4516.51 6720.48 67.88 7.00  11.60 2978.60
   00:30:25.659.09-May-2021 4516.51 6720.21 67.88 7.00  11.80 2978.60
   00:30:25.859.09-May-2021 4516.51 6715.99 67.88 7.00  12.00 2978.60
   00:30:26.059.09-May-2021 4516.51 6715.99 67.88 7.00  12.20 2978.60
   00:30:26.259.09-May-2021 4516.51 6715.99 67.88 7.00  12.40 2978.60
   00:30:26.459.09-May-2021 4516.51 6720.80 67.88 7.00  12.60 2978.60
   00:30:26.659.09-May-2021 4516.51 6726.27 67.88 7.00  12.80 2978.60
   00:30:26.859.09-May-2021 4516.51 6722.54 67.87 7.00  13.00 2978.60
   00:30:27.059.09-May-2021 4516.51 6722.54 67.87 7.00  13.20 2978.60
   00:30:27.259.09-May-2021 4516.51 6723.06 67.87 7.00  13.40 2978.60
   00:30:27.459.09-May-2021 4516.51 6721.73 67.87 7.00  13.60 2978.60
   00:30:27.660.09-May-2021 4516.51 6720.46 67.87 7.00  13.81 2978.60
   00:30:27.860.09-May-2021 4516.51 6730.28 67.87 7.00  14.01 2978.60
   00:30:28.060.09-May-2021 4516.51 6730.28 67.87 7.00  14.21 2978.60
   00:30:28.260.09-May-2021 4516.51 6727.00 67.87 7.00  14.41 2978.60
   00:30:28.460.09-May-2021 4516.51 6724.79 67.87 7.00  14.61 2978.60
   00:30:28.660.09-May-2021 4516.51 6724.73 67.87 7.00  14.81 2978.60
   00:30:28.860.09-May-2021 4516.51 6723.34 67.87 7.00  15.01 2978.60
   00:30:29.060.09-May-2021 4516.51 6723.34 67.87 7.00  15.21 2978.60
   00:30:29.260.09-May-2021 4516.51 6723.01 67.87 7.00  15.41 2978.60
   00:30:29.460.09-May-2021 4516.51 6723.27 67.87 7.00  15.61 2978.60
   00:30:29.660.09-May-2021 4516.51 6723.31 67.87 7.00  15.81 2978.60
   00:30:29.860.09-May-2021 4516.51 6723.56 67.87 7.00  16.01 2978.60
   00:30:30.060.09-May-2021 4516.51 6723.56 67.87 7.00  16.21 2978.60
   00:30:30.260.09-May-2021 4516.51 6723.64 67.87 7.00  16.41 2978.60
   00:30:30.461.09-May-2021 4516.51 6731.63 67.87 7.00  16.61 2978.60
   00:30:30.661.09-May-2021 4516.51 6727.33 67.87 7.00  16.81 2978.60
   00:30:30.861.09-May-2021 4516.51 6730.56 67.87 7.00  17.01 2978.60
   00:30:31.061.09-May-2021 4516.51 6730.56 67.87 7.00  17.21 2978.60
   00:30:31.261.09-May-2021 4516.51 6729.35 67.87 7.00  17.41 2978.60
   00:30:31.461.09-May-2021 4516.51 6727.33 67.87 7.00  17.61 2978.60
   00:30:31.661.09-May-2021 4516.51 6725.88 67.87 7.00  17.81 2978.60
   00:30:31.861.09-May-2021 4516.51 6726.44 67.87 7.00  18.01 2978.60
   00:30:32.061.09-May-2021 4516.51 6726.44 67.87 7.00  18.21 2978.60
   00:30:32.261.09-May-2021 4516.51 6727.11 67.87 7.00  18.41 2978.60
   00:30:32.461.09-May-2021 4516.51 6726.40 67.87 7.00  18.61 2978.60
   00:30:32.661.09-May-2021 4516.51 6725.56 67.87 7.00  18.81 2978.60
   00:30:32.861.09-May-2021 4516.51 6726.22 67.87 7.00  19.01 2978.60
   00:30:33.061.09-May-2021 4516.51 6726.22 67.87 7.00  19.21 2978.60
   00:30:33.262.09-May-2021 4516.51 6734.93 67.87 7.00  19.41 2978.60
   00:30:33.462.09-May-2021 4516.51 6734.82 67.87 7.00  19.61 2978.60
   00:30:33.662.09-May-2021 4516.51 6732.79 67.87 7.00  19.81 2978.60
   00:30:33.862.09-May-2021 4516.51 6727.65 67.87 7.00  20.01 2978.60
   00:30:34.062.09-May-2021 4516.51 6727.65 67.87 7.00  20.21 2978.60
   00:30:34.262.09-May-2021 4516.51 6732.31 67.87 7.00  20.41 2978.60
   00:30:34.462.09-May-2021 4516.51 6734.55 67.87 7.00  20.61 2978.60
   00:30:34.662.09-May-2021 4516.51 6731.94 67.87 7.00  20.81 2978.60
   00:30:34.862.09-May-2021 4516.51 6742.79 67.87 7.00  21.01 2978.60
   00:30:35.062.09-May-2021 4516.51 6742.79 67.87 7.00  21.21 2978.60
   00:30:35.262.09-May-2021 4516.51 6735.45 67.87 7.00  21.41 2978.60
   00:30:35.462.09-May-2021 4516.51 6733.18 67.87 7.00  21.61 2978.60
   00:30:35.662.09-May-2021 4516.51 6734.39 67.87 7.00  21.81 2978.60
   00:30:35.862.09-May-2021 4516.51 6734.12 67.87 7.00  22.01 2978.60
   00:30:36.063.09-May-2021 4516.51 6734.12 67.87 7.00  22.21 2978.60
   00:30:36.263.09-May-2021 4516.51 6735.69 67.87 7.00  22.41 2978.60
   00:30:36.463.09-May-2021 4516.51 6738.27 67.87 7.00  22.61 2978.60
   00:30:36.663.09-May-2021 4516.51 6735.97 67.87 7.00  22.81 2978.60
