~Version Information
 VERS.                  2.0:   CWLS log ASCII Standard -VERSION 2.0
 WRAP.                   NO:   One line per depth step
~Well Information Block
#MNEM.UNIT     VALUE/NAME     DESCRIPTION
#---------     -----------    ---------------------------
 STRT.S             00:12:22 09-May-21: START TIME 00:12:22 09-May-21
 STOP.S             00:19:08 09-May-21: STOP TIME  00:19:08 09-May-21
 STEP.S                   0.00: STEP TIME
 NULL.                 -999.25: NULL VALUE
 PROV.                    Baku:  PROVINCE
 STAT.                    Baku:  STATE NAME
 SON .        AZ-XX-0906571588:  JOB NUMBER
 WTYP.                Deviated:  WELL TYPE
 COMP.     BP Exploration (Caspian Sea) ltd:  COMPANY
 BASE.              Azerbaijan:  LOGGING EQUIPMENT BASE LOCATION
 REGN.                   EESSA:  REGION
 CTRY.              Azerbaijan:  COUNTRY NAME
 FLD .                     ACG:  FIELD NAME
 WELL.                     J28:  WELL NAME
 RIG .             West Chirag:  RIG NAME
 DMF .             Drill Floor:  DRILL MEAS FROM
 PDAT.       Caspian Sea Level:  PERMANENT DATUM
 HPTY.       Minimum Curvature:  HOLE POS TYPE
 MDS .        Operator Entered:  MAG DATA SOURCE
 NREF.                    Grid:  NORTH REFERENCE
 SRVC.          TURAN DRILLING:  CONTRACTOR
 JOBN.        AZ-XX-0906571588:  JOB TICKET NUMB
 DCON.     Halliburton Sperry Drilling:  DIRECTNL CONTR
 STIM.      00.44.00 11-Feb-21:  START TIME
 DATE.      00.00.00 05-May-21:  END TIME
 SPUD.               13-Feb-21:  SPUD DATE
 MWDS.                    Baku:  MWD SHOP
 DOE .                     N/A:  DOE NUMBER
 UNIT.                     N/A:  LOGGING EQUIPMENT ID
 UWI .                     N/A:  UNIQUE WELL IDENTIFIER
 API .                     N/A:  API NUMBER
 CNTY.                        :  COUNTY
 LOC .                        :  LOCATION
 LMF .             Drill Floor:  LOG MEASURED FROM
 TVDS.m                  43.00:  TVDSS CORRECTN
 SDEP.m                 341.00:  START DEPTH
 EGL .m                   0.00:  GROUND ELEVATION
 WDMS.m                 169.80:  WD ELEV
 AGAP.m                  43.00:  AIR GAP
 EPD .m                   0.00:  ELEVATION
 APD .m                  43.00:  DEPTH ABOVE PD
 LATI.deg                40.13:  LATITUDE
 LONG.deg                51.22:  LONGITUDE
 UTMY.m             4443793.85:  UTM Y
 UTMX.m              519005.06:  UTM X
 WHEW.m                 -11.57:  WELL HEAD E/W
 WHNS.m                   8.57:  WELL HEAD N/S
 VSEW.m                 -11.57:  VERT SEC E/W
 VSNS.m                   8.57:  VERT SEC N/S
 DFWL.m                   0.00:  DISTANCE FWL
 DFSL.m                   0.00:  DISTANCE FSL
 VSDR.deg               299.34:  VERT SEC DIRECT
 GVFD.g                   1.00:  GRAVITY FIELD
 AZTC.deg                 6.36:  AZM TOTAL CORR
 MFLD.nT              50391.00:  MAGNETIC FIELD
 MDIP.deg                59.65:  MAGNETIC DIP
 MDEC.deg                 6.48:  MAGNETIC DECL
 GRDC.deg                 0.12:  GRID CORRECTION
 DEP .m                 334.96:  DEPTH
 TDD .m                1407.26:  TOTAL DEPTH (DRILLER)
 EKB .m                  43.00:  KB ELEVATION
 EDF .m                  43.00:  DF ELEVATION
 TDL .m                 228.00:  TOTAL DEPTH (LOGGER)
 VSC .                       0:  VS TO CLOSURE
 MAGU.                 1854484:  MAGUTM CHECKSUM
~Parameter Information Block
#MNEM.UNIT       Value        Description
#---------     -----------    ---------------------------
 AV  .mps                 4.00:  Ann Velocity 
 AVMX.mps                 4.73:  Max Ann Veloc 
 AZIF.deg               304.48:  Azm, Final 
 BHAT.        Rotary Steerable:  BHA Type 
 BREV.rev            257300.00:  Rev Bit Total 
 BROT.°/30m               0.00:  Build Rotating 
 BS  .in                  8.50:  Bit Size 
 BSZ .in                  8.50:  Bit Size 
 BTPL.psig              589.00:  Bit Press Loss 
 CABU.                      No:  Customer Abuse 
 CGEO.          Mubariz ghayev:  Customer Geo 
 COMM.                     <Š|:  Run Comments 1 
 TCS .hr                 64.25:  Time Ciculation Ended 
 CV  .mps                 3.50:  Crit Velocity 
 CVMX.mps                 4.52:  Max Crit Veloc 
 DD1 .             Aziz Aliyev:  Direct Drillr 1 
 DD2 .         Intigam Rahimov:  Direct Drillr 2 
 DD3 .          Rashad Habibov:  Direct Drillr 3 
 DDSV.               Geo-Pilot:  DD Service 
 DEFF.%                  98.00:  % Det Eff 
 DLRX.°/30m               0.00:  Dogleg Rot Max 
 DLSO.°/30m               0.00:  Dogleg Oriented 
 DLSX.°/30m               0.00:  Dogleg Str Max 
 DRET.      10.45.04 08-May-21:  Drill End Time 
 DRST.      03.30.04 04-May-21:  Drill Start Tim 
 DTIM.hr                 14.97:  Time Drilling 
 EDEP.m                4640.01:  End Depth 
 ENG1.         Dail Mahammadov:  Engineer 1 
 ENG2.           Eldar Hajiyev:  Engineer 2 
 ENG3.       Bakhtiar Jabbarli:  Engineer 3 
 ENG4.       Natik Hasanagayev:  Engineer 4 
 ETIM.      09.30.04 14-May-21:  End Time 
 FLOI.gpm               460.00:  Flow In 
 FLON.gpm               200.00:  Flow In Min 
 FLOS.cptm                0.00:  Fluid Loss 
 FLOX.gpm               505.00:  Flow In Max 
 HFLO.                      No:  High Flow 
 HPRE.                      No:  High Pressure 
 HTEM.                      No:  High Temp 
 HYDO.m                   1.80:  Hydro Offset 
 IFIN.deg                66.71:  Inc, Final 
 IMAX.deg                67.03:  Inc Max 
 IMIN.deg                66.63:  Inc Min 
 IMND.m                4550.58:  Inc Min Depth 
 IMXD.m                4439.01:  Inc Max Depth 
 JARR.                      No:  Jarring 
 LETM.      10.45.04 08-May-21:  Log End Time 
 LOST.hr                     0:  Lost Rig Time 
 LSTM.      03.30.04 04-May-21:  Log Start Time 
 MDCL.ppm             37000.00:  Mud Chlorides 
 MDES.     Inversion Oil/Synthetic:  Mud Desc 
 DFD .sg                  1.38:  Mud Density 
 MDMN.sg                  1.35:  Dens Mud Min 
 MDMX.sg                  1.40:  Dens Mud Max 
 MOIL.                   57.40:  Run Mud Oil % 
 MOWR.                   70:30:  Run Mud OWR 
 MSND.                    0.00:  Run Mud Sand % 
 MSOL.                   18.00:  Run Mud Solids% 
 DFV .spqt               71.00:  Mud Viscosity 
 MWOD.in                  6.75:  MWD Tool OD 
 MWSI.                      No:  Serv Intrp, MWD 
 OTIM.hr                242.76:  Time Operating 
 PCON.           Look Like New:  Pad Condition 
 PMAX.psia            12183.92:  Press Op, Max 
 PV  .cP                 27.00:  Mud PV 
 RUN .                    1300:  Run Number 
 ROPA.m/hr               15.00:  ROP Avg 
 ROPN.m/hr                9.00:  ROP Min 
 ROPX.m/hr               19.00:  ROP Max 
 RPMA.rpm               120.00:  RPM Surface Avg 
 RPMN.rpm               100.00:  RPM Surface Min 
 RPMX.rpm               120.00:  RPM Surface Max 
 RRUN.                    1300:  Rig Run Number 
 RTIM.hr                  5.00:  Time Reaming 
 SAZI.deg               304.73:  Azm, Start 
 SDEP.m                4412.01:  Start Depth 
 SIDD.                      No:  Serv Intrp, DD 
 SINC.deg                66.82:  Inc, Start 
 SPPA.psig             2800.00:  SPP Avg 
 SPPN.psig             2610.00:  SPP Min 
 SPPX.psig             3100.00:  SPP Max 
 STIM.      03.30.00 04-May-21:  Start Time 
 SVCS.                 DD, MWD:  Services 
 SVER.                    9.20:  Sperry Version 
 TDAT.m                 228.00:  Tot Depth Attmp 
 TDDF.                      No:  Trip for DD 
 TDLG.m                 228.00:  Tot Depth Loggd 
 TFF .                      No:  Trip for Fail 
 TQAA.f-kp               15.00:  Torque Abs Avg 
 TQAN.f-kp               12.00:  Torque Abs Min 
 TQAX.f-kp               22.00:  Torque Abs Max 
 TRRT.°/30m               0.00:  Turn Rotating 
 MRT .                    HCIM:  Maximum Recorded Temperature 
 TTMX.degC               90.20:  Max Tool Temp 
 VS01.                90627813:  Virtual Str1 SN 
 VS02.                90634712:  Virtual Str2 SN 
 VS03.                90643410:  Virtual Str3 SN 
 VS04.                90634712:  Virtual Str4 SN 
 WBMN.klb                 9.00:  WOB Min 
 WITN.        Elmaddin Rahimov:  Customer Rep 
 WITN.         Haytham Mostafa:  Customer Rep 2 
 WOBA.klb                15.00:  WOB Avg 
 WOBX.klb                23.00:  WOB Max 
 YP  .lhf2               29.00:  Yield Point 
~Curve Information Block
#MNEM.UNIT                 API CODE     Curve Description
#---------               -----------    ---------------------------
 TIME.HHMMSS            00 000 000 000:  GT Time & Date
 GTDEPTH.m              00 000 000 000:  GT Depth
 GTPQH.psia             00 000 000 000:  GT HR Quartz Pressure
 GTTQ.degC              00 000 000 000:  GT Quartz Temperature
 GTTN.NONE              00 000 000 000:  GT Test Number
 GTET.sec               00 000 000 000:  GT Elapsed Test Time
 GTTVD.m                00 000 000 000:  GT True Vertical Depth
#Other Information
#
#WARRANTY: Halliburton will use its best efforts to furnish customers with 
#accurate information and interpretations that are part of, and incident to, the services 
#provided.  However, Halliburton cannot and does not warrant the accuracy 
#or correctness of such information and interpretations.  Under no circumstances should any 
#such information or interpretation be relied upon as the sole basis for any drilling, 
#completion, production, or financial decision or any procedure involving any risk to the 
#safety of any drilling venture, drilling rig or its crew or any other third party.  The 
#Customer has full responsibility for all drilling, completion and production operation.  
#Halliburton makes no representations or warranties, either expressed or 
#implied, including, but not limited to, the implied warranties of merchantability or fitness 
#for a particular purpose, with respect to the services rendered.  In no event will 
#Halliburton be liable for failure to obtain any particular results or for 
#any damages, including, but not limited to, indirect, special or consequential damages, 
#resulting from the use of any information or interpretation provided by Halliburton.
#
~A           TIME           GTDEPTH  GTPQH  GTTQ  GTTN  GTET   GTTVD  
# ...
   00:16:58.566.09-May-2021 4527.01 3089.45 68.13 6.00 276.10 2982.74
   00:16:58.766.09-May-2021 4527.01 3089.45 68.13 6.00 276.30 2982.74
   00:16:58.967.09-May-2021 4527.01 3108.15 68.13 6.00 276.50 2982.74
   00:16:59.167.09-May-2021 4527.01 3118.31 68.13 6.00 276.70 2982.74
   00:16:59.367.09-May-2021 4527.01 3126.85 68.13 6.00 276.90 2982.74
   00:16:59.567.09-May-2021 4527.01 3135.26 68.13 6.00 277.10 2982.74
   00:16:59.767.09-May-2021 4527.01 3135.26 68.13 6.00 277.30 2982.74
   00:16:59.967.09-May-2021 4527.01 3150.77 68.13 6.00 277.50 2982.74
   00:17:00.167.09-May-2021 4527.01 3157.89 68.13 6.00 277.70 2982.74
   00:17:00.367.09-May-2021 4527.01 3164.45 68.13 6.00 277.90 2982.74
   00:17:00.567.09-May-2021 4527.01 3170.29 68.14 6.00 278.10 2982.74
   00:17:00.767.09-May-2021 4527.01 3170.29 68.14 6.00 278.30 2982.74
   00:17:00.967.09-May-2021 4527.01 3181.74 68.14 6.00 278.50 2982.74
   00:17:01.167.09-May-2021 4527.01 3187.06 68.14 6.00 278.70 2982.74
   00:17:01.367.09-May-2021 4527.01 3192.08 68.14 6.00 278.90 2982.74
   00:17:01.567.09-May-2021 4527.01 3195.98 68.14 6.00 279.10 2982.74
   00:17:01.768.09-May-2021 4527.01 3195.98 68.14 6.00 279.30 2982.74
   00:17:01.968.09-May-2021 4527.01 3205.51 68.14 6.00 279.50 2982.74
   00:17:02.168.09-May-2021 4527.01 3208.99 68.14 6.00 279.70 2982.74
   00:17:02.368.09-May-2021 4527.01 3211.91 68.14 6.00 279.90 2982.74
   00:17:02.568.09-May-2021 4527.01 3216.26 68.14 6.00 280.10 2982.74
   00:17:02.768.09-May-2021 4527.01 3216.26 68.14 6.00 280.30 2982.74
   00:17:02.968.09-May-2021 4527.01 3222.59 68.14 6.00 280.50 2982.74
   00:17:03.168.09-May-2021 4527.01 3225.41 68.14 6.00 280.70 2982.74
   00:17:03.368.09-May-2021 4527.01 3228.13 68.14 6.00 280.90 2982.74
   00:17:03.568.09-May-2021 4527.01 3229.96 68.14 6.00 281.10 2982.74
   00:17:03.768.09-May-2021 4527.01 3229.96 68.14 6.00 281.30 2982.74
   00:17:03.968.09-May-2021 4527.01 3234.98 68.15 6.00 281.50 2982.74
   00:17:04.168.09-May-2021 4527.01 3237.20 68.15 6.00 281.70 2982.74
   00:17:04.368.09-May-2021 4527.01 3239.23 68.15 6.00 281.90 2982.74
   00:17:04.569.09-May-2021 4527.01 3240.18 68.15 6.00 282.10 2982.74
   00:17:04.769.09-May-2021 4527.01 3240.18 68.15 6.00 282.30 2982.74
   00:17:04.969.09-May-2021 4527.01 3243.82 68.15 6.00 282.50 2982.74
   00:17:05.169.09-May-2021 4527.01 3245.41 68.15 6.00 282.70 2982.74
   00:17:05.369.09-May-2021 4527.01 3246.56 68.15 6.00 282.90 2982.74
   00:17:05.569.09-May-2021 4527.01 3247.66 68.15 6.00 283.10 2982.74
   00:17:05.769.09-May-2021 4527.01 3247.66 68.15 6.00 283.30 2982.74
   00:17:05.969.09-May-2021 4527.01 3249.59 68.15 6.00 283.50 2982.74
   00:17:06.169.09-May-2021 4527.01 3250.39 68.15 6.00 283.70 2982.74
   00:17:06.369.09-May-2021 4527.01 3251.16 68.15 6.00 283.90 2982.74
   00:17:06.569.09-May-2021 4527.01 3251.81 68.15 6.00 284.10 2982.74
   00:17:06.769.09-May-2021 4527.01 3251.81 68.15 6.00 284.30 2982.74
   00:17:06.969.09-May-2021 4527.01 3252.96 68.15 6.00 284.50 2982.74
   00:17:07.169.09-May-2021 4527.01 3252.66 68.15 6.00 284.70 2982.74
   00:17:07.370.09-May-2021 4527.01 3253.96 68.15 6.00 284.90 2982.74
   00:17:07.570.09-May-2021 4527.01 3254.00 68.15 6.00 285.10 2982.74
   00:17:07.770.09-May-2021 4527.01 3254.00 68.15 6.00 285.30 2982.74
   00:17:07.970.09-May-2021 4527.01 3254.91 68.15 6.00 285.50 2982.74
   00:17:08.170.09-May-2021 4527.01 3255.20 68.15 6.00 285.70 2982.74
   00:17:08.370.09-May-2021 4527.01 3255.53 68.15 6.00 285.90 2982.74
   00:17:08.570.09-May-2021 4527.01 3255.75 68.15 6.00 286.10 2982.74
   00:17:08.770.09-May-2021 4527.01 3255.75 68.15 6.00 286.30 2982.74
   00:17:08.970.09-May-2021 4527.01 3256.22 68.15 6.00 286.50 2982.74
   00:17:09.170.09-May-2021 4527.01 3256.43 68.15 6.00 286.70 2982.74
   00:17:09.370.09-May-2021 4527.01 3256.63 68.15 6.00 286.90 2982.74
   00:17:09.570.09-May-2021 4527.01 3256.72 68.15 6.00 287.10 2982.74
   00:17:09.770.09-May-2021 4527.01 3256.72 68.15 6.00 287.30 2982.74
   00:17:09.971.09-May-2021 4527.01 3257.13 68.15 6.00 287.50 2982.74
   00:17:10.171.09-May-2021 4527.01 3256.93 68.15 6.00 287.70 2982.74
   00:17:10.371.09-May-2021 4527.01 3257.36 68.15 6.00 287.90 2982.74
   00:17:10.571.09-May-2021 4527.01 3257.04 68.15 6.00 288.10 2982.74
   00:17:10.771.09-May-2021 4527.01 3257.04 68.15 6.00 288.30 2982.74
   00:17:10.971.09-May-2021 4527.01 3257.77 68.15 6.00 288.50 2982.74
   00:17:11.171.09-May-2021 4527.01 3257.91 68.15 6.00 288.70 2982.74
   00:17:11.371.09-May-2021 4527.01 3257.47 68.15 6.00 288.90 2982.74
   00:17:11.571.09-May-2021 4527.01 3258.49 68.15 6.00 289.10 2982.74
   00:17:11.771.09-May-2021 4527.01 3258.49 68.15 6.00 289.30 2982.74
   00:17:11.971.09-May-2021 4527.01 3258.23 68.15 6.00 289.50 2982.74
   00:17:12.171.09-May-2021 4527.01 3258.40 68.15 6.00 289.70 2982.74
   00:17:12.371.09-May-2021 4527.01 3258.96 68.15 6.00 289.91 2982.74
   00:17:12.571.09-May-2021 4527.01 3259.03 68.15 6.00 290.11 2982.74
   00:17:12.772.09-May-2021 4527.01 3259.03 68.15 6.00 290.31 2982.74
   00:17:12.972.09-May-2021 4527.01 3258.99 68.15 6.00 290.51 2982.74
   00:17:13.172.09-May-2021 4527.01 3259.03 68.15 6.00 290.71 2982.74
   00:17:13.372.09-May-2021 4527.01 3259.09 68.15 6.00 290.91 2982.74
   00:17:13.572.09-May-2021 4527.01 3259.10 68.15 6.00 291.11 2982.74
   00:17:13.772.09-May-2021 4527.01 3259.10 68.15 6.00 291.31 2982.74
   00:17:13.972.09-May-2021 4527.01 3259.18 68.15 6.00 291.51 2982.74
   00:17:14.172.09-May-2021 4527.01 3259.19 68.15 6.00 291.71 2982.74
   00:17:14.372.09-May-2021 4527.01 3259.22 68.15 6.00 291.91 2982.74
   00:17:14.572.09-May-2021 4527.01 3258.94 68.15 6.00 292.11 2982.74
   00:17:14.772.09-May-2021 4527.01 3258.94 68.15 6.00 292.31 2982.74
   00:17:14.972.09-May-2021 4527.01 3259.35 68.15 6.00 292.51 2982.74
   00:17:15.172.09-May-2021 4527.01 3259.41 68.15 6.00 292.71 2982.74
   00:17:15.372.09-May-2021 4527.01 3259.27 68.15 6.00 292.91 2982.74
   00:17:15.573.09-May-2021 4527.01 3259.33 68.15 6.00 293.11 2982.74
   00:17:15.773.09-May-2021 4527.01 3259.33 68.15 6.00 293.31 2982.74
   00:17:15.973.09-May-2021 4527.01 3259.44 68.15 6.00 293.51 2982.74
   00:17:16.173.09-May-2021 4527.01 3259.47 68.15 6.00 293.71 2982.74
   00:17:16.373.09-May-2021 4527.01 3259.49 68.15 6.00 293.91 2982.74
   00:17:16.573.09-May-2021 4527.01 3259.49 68.15 6.00 294.11 2982.74
   00:17:16.773.09-May-2021 4527.01 3259.49 68.15 6.00 294.31 2982.74
   00:17:16.973.09-May-2021 4527.01 3259.54 68.15 6.00 294.51 2982.74
   00:17:17.173.09-May-2021 4527.01 3259.30 68.15 6.00 294.71 2982.74
   00:17:17.373.09-May-2021 4527.01 3259.22 68.15 6.00 294.91 2982.74
   00:17:17.573.09-May-2021 4527.01 3259.63 68.15 6.00 295.11 2982.74
   00:17:17.773.09-May-2021 4527.01 3259.63 68.15 6.00 295.31 2982.74
   00:17:17.973.09-May-2021 4527.01 3259.49 68.15 6.00 295.51 2982.74
   00:17:18.173.09-May-2021 4527.01 3259.60 68.15 6.00 295.71 2982.74
   00:17:18.374.09-May-2021 4527.01 3259.21 68.15 6.00 295.91 2982.74
   00:17:18.574.09-May-2021 4527.01 3259.93 68.15 6.00 296.11 2982.74
   00:17:18.774.09-May-2021 4527.01 3259.93 68.15 6.00 296.31 2982.74
   00:17:18.974.09-May-2021 4527.01 3259.65 68.15 6.00 296.51 2982.74
   00:17:19.174.09-May-2021 4527.01 3259.24 68.15 6.00 296.71 2982.74
   00:17:19.374.09-May-2021 4527.01 3260.10 68.15 6.00 296.91 2982.74
   00:17:19.574.09-May-2021 4527.01 3259.63 68.15 6.00 297.11 2982.74
   00:17:19.774.09-May-2021 4527.01 3259.63 68.15 6.00 297.31 2982.74
   00:17:19.974.09-May-2021 4527.01 3259.42 68.15 6.00 297.51 2982.74
   00:17:20.174.09-May-2021 4527.01 3260.25 68.15 6.00 297.71 2982.74
   00:17:20.374.09-May-2021 4527.01 3259.77 68.15 6.00 297.91 2982.74
   00:17:20.574.09-May-2021 4527.01 3259.96 68.15 6.00 298.11 2982.74
   00:17:20.774.09-May-2021 4527.01 3259.96 68.15 6.00 298.31 2982.74
   00:17:20.974.09-May-2021 4527.01 3259.98 68.15 6.00 298.51 2982.74
   00:17:21.175.09-May-2021 4527.01 3260.00 68.15 6.00 298.71 2982.74
   00:17:21.375.09-May-2021 4527.01 3260.02 68.15 6.00 298.91 2982.74
