~Version Information
 VERS.                  2.0:   CWLS log ASCII Standard -VERSION 2.0
 WRAP.                   NO:   One line per depth step
~Well Information Block
#MNEM.UNIT     VALUE/NAME     DESCRIPTION
#---------     -----------    ---------------------------
 STRT.S             06:41:26 09-May-21: START TIME 06:41:26 09-May-21
 STOP.S             06:48:05 09-May-21: STOP TIME  06:48:05 09-May-21
 STEP.S                   0.00: STEP TIME
 NULL.                 -999.25: NULL VALUE
 PROV.                    Baku:  PROVINCE
 STAT.                    Baku:  STATE NAME
 SON .        AZ-XX-0906571588:  JOB NUMBER
 WTYP.                Deviated:  WELL TYPE
 COMP.     BP Exploration (Caspian Sea) ltd:  COMPANY
 BASE.              Azerbaijan:  LOGGING EQUIPMENT BASE LOCATION
 REGN.                   EESSA:  REGION
 CTRY.              Azerbaijan:  COUNTRY NAME
 FLD .                     ACG:  FIELD NAME
 WELL.                     J28:  WELL NAME
 RIG .             West Chirag:  RIG NAME
 DMF .             Drill Floor:  DRILL MEAS FROM
 PDAT.       Caspian Sea Level:  PERMANENT DATUM
 HPTY.       Minimum Curvature:  HOLE POS TYPE
 MDS .        Operator Entered:  MAG DATA SOURCE
 NREF.                    Grid:  NORTH REFERENCE
 SRVC.          TURAN DRILLING:  CONTRACTOR
 JOBN.        AZ-XX-0906571588:  JOB TICKET NUMB
 DCON.     Halliburton Sperry Drilling:  DIRECTNL CONTR
 STIM.      00.44.00 11-Feb-21:  START TIME
 DATE.      00.00.00 05-May-21:  END TIME
 SPUD.               13-Feb-21:  SPUD DATE
 MWDS.                    Baku:  MWD SHOP
 DOE .                     N/A:  DOE NUMBER
 UNIT.                     N/A:  LOGGING EQUIPMENT ID
 UWI .                     N/A:  UNIQUE WELL IDENTIFIER
 API .                     N/A:  API NUMBER
 CNTY.                        :  COUNTY
 LOC .                        :  LOCATION
 LMF .             Drill Floor:  LOG MEASURED FROM
 TVDS.m                  43.00:  TVDSS CORRECTN
 SDEP.m                 341.00:  START DEPTH
 EGL .m                   0.00:  GROUND ELEVATION
 WDMS.m                 169.80:  WD ELEV
 AGAP.m                  43.00:  AIR GAP
 EPD .m                   0.00:  ELEVATION
 APD .m                  43.00:  DEPTH ABOVE PD
 LATI.deg                40.13:  LATITUDE
 LONG.deg                51.22:  LONGITUDE
 UTMY.m             4443793.85:  UTM Y
 UTMX.m              519005.06:  UTM X
 WHEW.m                 -11.57:  WELL HEAD E/W
 WHNS.m                   8.57:  WELL HEAD N/S
 VSEW.m                 -11.57:  VERT SEC E/W
 VSNS.m                   8.57:  VERT SEC N/S
 DFWL.m                   0.00:  DISTANCE FWL
 DFSL.m                   0.00:  DISTANCE FSL
 VSDR.deg               299.34:  VERT SEC DIRECT
 GVFD.g                   1.00:  GRAVITY FIELD
 AZTC.deg                 6.36:  AZM TOTAL CORR
 MFLD.nT              50391.00:  MAGNETIC FIELD
 MDIP.deg                59.65:  MAGNETIC DIP
 MDEC.deg                 6.48:  MAGNETIC DECL
 GRDC.deg                 0.12:  GRID CORRECTION
 DEP .m                 334.96:  DEPTH
 TDD .m                1407.26:  TOTAL DEPTH (DRILLER)
 EKB .m                  43.00:  KB ELEVATION
 EDF .m                  43.00:  DF ELEVATION
 TDL .m                 228.00:  TOTAL DEPTH (LOGGER)
 VSC .                       0:  VS TO CLOSURE
 MAGU.                 1854484:  MAGUTM CHECKSUM
~Parameter Information Block
#MNEM.UNIT       Value        Description
#---------     -----------    ---------------------------
 AV  .mps                 4.00:  Ann Velocity 
 AVMX.mps                 4.73:  Max Ann Veloc 
 AZIF.deg               304.48:  Azm, Final 
 BHAT.        Rotary Steerable:  BHA Type 
 BREV.rev            257300.00:  Rev Bit Total 
 BROT.°/30m               0.00:  Build Rotating 
 BS  .in                  8.50:  Bit Size 
 BSZ .in                  8.50:  Bit Size 
 BTPL.psig              589.00:  Bit Press Loss 
 CABU.                      No:  Customer Abuse 
 CGEO.          Mubariz ghayev:  Customer Geo 
 COMM.                     ì
‚:  Run Comments 1 
 TCS .hr                 64.25:  Time Ciculation Ended 
 CV  .mps                 3.50:  Crit Velocity 
 CVMX.mps                 4.52:  Max Crit Veloc 
 DD1 .             Aziz Aliyev:  Direct Drillr 1 
 DD2 .         Intigam Rahimov:  Direct Drillr 2 
 DD3 .          Rashad Habibov:  Direct Drillr 3 
 DDSV.               Geo-Pilot:  DD Service 
 DEFF.%                  98.00:  % Det Eff 
 DLRX.°/30m               0.00:  Dogleg Rot Max 
 DLSO.°/30m               0.00:  Dogleg Oriented 
 DLSX.°/30m               0.00:  Dogleg Str Max 
 DRET.      10.45.04 08-May-21:  Drill End Time 
 DRST.      03.30.04 04-May-21:  Drill Start Tim 
 DTIM.hr                 14.97:  Time Drilling 
 EDEP.m                4640.01:  End Depth 
 ENG1.         Dail Mahammadov:  Engineer 1 
 ENG2.           Eldar Hajiyev:  Engineer 2 
 ENG3.       Bakhtiar Jabbarli:  Engineer 3 
 ENG4.       Natik Hasanagayev:  Engineer 4 
 ETIM.      09.30.04 14-May-21:  End Time 
 FLOI.gpm               460.00:  Flow In 
 FLON.gpm               200.00:  Flow In Min 
 FLOS.cptm                0.00:  Fluid Loss 
 FLOX.gpm               505.00:  Flow In Max 
 HFLO.                      No:  High Flow 
 HPRE.                      No:  High Pressure 
 HTEM.                      No:  High Temp 
 HYDO.m                   1.80:  Hydro Offset 
 IFIN.deg                66.71:  Inc, Final 
 IMAX.deg                67.03:  Inc Max 
 IMIN.deg                66.63:  Inc Min 
 IMND.m                4550.58:  Inc Min Depth 
 IMXD.m                4439.01:  Inc Max Depth 
 JARR.                      No:  Jarring 
 LETM.      10.45.04 08-May-21:  Log End Time 
 LOST.hr                     0:  Lost Rig Time 
 LSTM.      03.30.04 04-May-21:  Log Start Time 
 MDCL.ppm             37000.00:  Mud Chlorides 
 MDES.     Inversion Oil/Synthetic:  Mud Desc 
 DFD .sg                  1.38:  Mud Density 
 MDMN.sg                  1.35:  Dens Mud Min 
 MDMX.sg                  1.40:  Dens Mud Max 
 MOIL.                   57.40:  Run Mud Oil % 
 MOWR.                   70:30:  Run Mud OWR 
 MSND.                    0.00:  Run Mud Sand % 
 MSOL.                   18.00:  Run Mud Solids% 
 DFV .spqt               71.00:  Mud Viscosity 
 MWOD.in                  6.75:  MWD Tool OD 
 MWSI.                      No:  Serv Intrp, MWD 
 OTIM.hr                242.76:  Time Operating 
 PCON.           Look Like New:  Pad Condition 
 PMAX.psia            12183.92:  Press Op, Max 
 PV  .cP                 27.00:  Mud PV 
 RUN .                    1300:  Run Number 
 ROPA.m/hr               15.00:  ROP Avg 
 ROPN.m/hr                9.00:  ROP Min 
 ROPX.m/hr               19.00:  ROP Max 
 RPMA.rpm               120.00:  RPM Surface Avg 
 RPMN.rpm               100.00:  RPM Surface Min 
 RPMX.rpm               120.00:  RPM Surface Max 
 RRUN.                    1300:  Rig Run Number 
 RTIM.hr                  5.00:  Time Reaming 
 SAZI.deg               304.73:  Azm, Start 
 SDEP.m                4412.01:  Start Depth 
 SIDD.                      No:  Serv Intrp, DD 
 SINC.deg                66.82:  Inc, Start 
 SPPA.psig             2800.00:  SPP Avg 
 SPPN.psig             2610.00:  SPP Min 
 SPPX.psig             3100.00:  SPP Max 
 STIM.      03.30.00 04-May-21:  Start Time 
 SVCS.                 DD, MWD:  Services 
 SVER.                    9.20:  Sperry Version 
 TDAT.m                 228.00:  Tot Depth Attmp 
 TDDF.                      No:  Trip for DD 
 TDLG.m                 228.00:  Tot Depth Loggd 
 TFF .                      No:  Trip for Fail 
 TQAA.f-kp               15.00:  Torque Abs Avg 
 TQAN.f-kp               12.00:  Torque Abs Min 
 TQAX.f-kp               22.00:  Torque Abs Max 
 TRRT.°/30m               0.00:  Turn Rotating 
 MRT .                    HCIM:  Maximum Recorded Temperature 
 TTMX.degC               90.20:  Max Tool Temp 
 VS01.                90627813:  Virtual Str1 SN 
 VS02.                90634712:  Virtual Str2 SN 
 VS03.                90643410:  Virtual Str3 SN 
 VS04.                90634712:  Virtual Str4 SN 
 WBMN.klb                 9.00:  WOB Min 
 WITN.        Elmaddin Rahimov:  Customer Rep 
 WITN.         Haytham Mostafa:  Customer Rep 2 
 WOBA.klb                15.00:  WOB Avg 
 WOBX.klb                23.00:  WOB Max 
 YP  .lhf2               29.00:  Yield Point 
~Curve Information Block
#MNEM.UNIT                 API CODE     Curve Description
#---------               -----------    ---------------------------
 TIME.HHMMSS            00 000 000 000:  GT Time & Date
 GTDEPTH.m              00 000 000 000:  GT Depth
 GTPQH.psia             00 000 000 000:  GT HR Quartz Pressure
 GTTQ.degC              00 000 000 000:  GT Quartz Temperature
 GTTN.NONE              00 000 000 000:  GT Test Number
 GTET.sec               00 000 000 000:  GT Elapsed Test Time
 GTTVD.m                00 000 000 000:  GT True Vertical Depth
#Other Information
#
#WARRANTY: Halliburton will use its best efforts to furnish customers with 
#accurate information and interpretations that are part of, and incident to, the services 
#provided.  However, Halliburton cannot and does not warrant the accuracy 
#or correctness of such information and interpretations.  Under no circumstances should any 
#such information or interpretation be relied upon as the sole basis for any drilling, 
#completion, production, or financial decision or any procedure involving any risk to the 
#safety of any drilling venture, drilling rig or its crew or any other third party.  The 
#Customer has full responsibility for all drilling, completion and production operation.  
#Halliburton makes no representations or warranties, either expressed or 
#implied, including, but not limited to, the implied warranties of merchantability or fitness 
#for a particular purpose, with respect to the services rendered.  In no event will 
#Halliburton be liable for failure to obtain any particular results or for 
#any damages, including, but not limited to, indirect, special or consequential damages, 
#resulting from the use of any information or interpretation provided by Halliburton.
#
~A           TIME           GTDEPTH  GTPQH  GTTQ  GTTN   GTET   GTTVD  
# ...
   06:44:04.200.09-May-2021 4440.01  327.19 65.65 15.00 158.20 2948.57
   06:44:04.400.09-May-2021 4440.01  328.97 65.65 15.00 158.40 2948.57
   06:44:04.600.09-May-2021 4440.01  333.25 65.65 15.00 158.60 2948.57
   06:44:04.800.09-May-2021 4440.01  335.02 65.65 15.00 158.80 2948.57
   06:44:05.000.09-May-2021 4440.01  337.79 65.65 15.00 159.00 2948.57
   06:44:05.200.09-May-2021 4440.01  337.79 65.65 15.00 159.20 2948.57
   06:44:05.400.09-May-2021 4440.01  340.90 65.65 15.00 159.40 2948.57
   06:44:05.600.09-May-2021 4440.01  341.59 65.65 15.00 159.60 2948.57
   06:44:05.800.09-May-2021 4440.01  344.01 65.65 15.00 159.80 2948.57
   06:44:06.000.09-May-2021 4440.01  348.40 65.65 15.00 160.00 2948.57
   06:44:06.200.09-May-2021 4440.01  348.40 65.65 15.00 160.20 2948.57
   06:44:06.400.09-May-2021 4440.01  356.60 65.65 15.00 160.40 2948.57
   06:44:06.600.09-May-2021 4440.01  358.57 65.65 15.00 160.60 2948.57
   06:44:06.800.09-May-2021 4440.01  360.76 65.65 15.00 160.80 2948.57
   06:44:07.000.09-May-2021 4440.01  362.84 65.65 15.00 161.00 2948.57
   06:44:07.200.09-May-2021 4440.01  362.84 65.65 15.00 161.20 2948.57
   06:44:07.400.09-May-2021 4440.01  367.03 65.65 15.00 161.40 2948.57
   06:44:07.600.09-May-2021 4440.01  369.08 65.65 15.00 161.60 2948.57
   06:44:07.800.09-May-2021 4440.01  371.16 65.65 15.00 161.80 2948.57
   06:44:08.000.09-May-2021 4440.01  373.18 65.65 15.00 162.00 2948.57
   06:44:08.200.09-May-2021 4440.01  373.18 65.65 15.00 162.20 2948.57
   06:44:08.400.09-May-2021 4440.01  375.24 65.64 15.00 162.40 2948.57
   06:44:08.600.09-May-2021 4440.01  379.22 65.64 15.00 162.60 2948.57
   06:44:08.800.09-May-2021 4440.01  381.11 65.64 15.00 162.80 2948.57
   06:44:09.000.09-May-2021 4440.01  383.10 65.64 15.00 163.00 2948.57
   06:44:09.200.09-May-2021 4440.01  383.10 65.64 15.00 163.20 2948.57
   06:44:09.400.09-May-2021 4440.01  387.00 65.64 15.00 163.40 2948.57
   06:44:09.600.09-May-2021 4440.01  388.98 65.64 15.00 163.60 2948.57
   06:44:09.800.09-May-2021 4440.01  390.92 65.64 15.00 163.80 2948.57
   06:44:10.000.09-May-2021 4440.01  392.87 65.64 15.00 164.00 2948.57
   06:44:10.200.09-May-2021 4440.01  392.87 65.64 15.00 164.20 2948.57
   06:44:10.400.09-May-2021 4440.01  396.77 65.64 15.00 164.40 2948.57
   06:44:10.600.09-May-2021 4440.01  398.66 65.64 15.00 164.60 2948.57
   06:44:10.800.09-May-2021 4440.01  400.57 65.64 15.00 164.80 2948.57
   06:44:11.000.09-May-2021 4440.01  402.00 65.64 15.00 165.00 2948.57
   06:44:11.200.09-May-2021 4440.01  402.00 65.64 15.00 165.20 2948.57
   06:44:11.400.09-May-2021 4440.01  406.14 65.64 15.00 165.40 2948.57
   06:44:11.600.09-May-2021 4440.01  407.50 65.64 15.00 165.60 2948.57
   06:44:11.800.09-May-2021 4440.01  409.71 65.64 15.00 165.80 2948.57
   06:44:12.000.09-May-2021 4440.01  411.36 65.64 15.00 166.00 2948.57
   06:44:12.200.09-May-2021 4440.01  411.36 65.64 15.00 166.20 2948.57
   06:44:12.400.09-May-2021 4440.01  413.51 65.64 15.00 166.40 2948.57
   06:44:12.600.09-May-2021 4440.01  416.63 65.64 15.00 166.60 2948.57
   06:44:12.800.09-May-2021 4440.01  418.75 65.64 15.00 166.80 2948.57
   06:44:13.000.09-May-2021 4440.01  420.47 65.64 15.00 167.00 2948.57
   06:44:13.200.09-May-2021 4440.01  420.47 65.64 15.00 167.20 2948.57
   06:44:13.400.09-May-2021 4440.01  424.06 65.64 15.00 167.40 2948.57
   06:44:13.600.09-May-2021 4440.01  425.47 65.64 15.00 167.60 2948.57
   06:44:13.800.09-May-2021 4440.01  427.60 65.64 15.00 167.80 2948.57
   06:44:14.000.09-May-2021 4440.01  429.15 65.64 15.00 168.00 2948.57
   06:44:14.200.09-May-2021 4440.01  429.15 65.64 15.00 168.20 2948.57
   06:44:14.400.09-May-2021 4440.01  432.71 65.64 15.00 168.40 2948.57
   06:44:14.600.09-May-2021 4440.01  434.58 65.64 15.00 168.60 2948.57
   06:44:14.800.09-May-2021 4440.01  436.27 65.64 15.00 168.80 2948.57
   06:44:15.000.09-May-2021 4440.01  438.04 65.64 15.00 169.00 2948.57
   06:44:15.200.09-May-2021 4440.01  438.04 65.64 15.00 169.20 2948.57
   06:44:15.400.09-May-2021 4440.01  441.50 65.64 15.00 169.40 2948.57
   06:44:15.600.09-May-2021 4440.01  443.22 65.64 15.00 169.60 2948.57
   06:44:15.800.09-May-2021 4440.01  444.96 65.64 15.00 169.80 2948.57
   06:44:16.000.09-May-2021 4440.01  446.69 65.64 15.00 170.00 2948.57
   06:44:16.200.09-May-2021 4440.01  446.69 65.64 15.00 170.20 2948.57
   06:44:16.400.09-May-2021 4440.01  448.04 65.64 15.00 170.40 2948.57
   06:44:16.600.09-May-2021 4440.01  451.70 65.65 15.00 170.60 2948.57
   06:44:16.800.09-May-2021 4440.01  453.46 65.65 15.00 170.80 2948.57
   06:44:17.000.09-May-2021 4440.01  455.15 65.65 15.00 171.00 2948.57
   06:44:17.200.09-May-2021 4440.01  455.15 65.65 15.00 171.20 2948.57
   06:44:17.400.09-May-2021 4440.01  458.56 65.65 15.00 171.40 2948.57
   06:44:17.600.09-May-2021 4440.01  460.28 65.65 15.00 171.60 2948.57
   06:44:17.800.09-May-2021 4440.01  461.97 65.65 15.00 171.80 2948.57
   06:44:18.000.09-May-2021 4440.01  463.68 65.65 15.00 172.00 2948.57
   06:44:18.200.09-May-2021 4440.01  463.68 65.65 15.00 172.20 2948.57
   06:44:18.400.09-May-2021 4440.01  467.06 65.65 15.00 172.40 2948.57
   06:44:18.600.09-May-2021 4440.01  468.74 65.65 15.00 172.60 2948.57
   06:44:18.800.09-May-2021 4440.01  470.04 65.65 15.00 172.80 2948.57
   06:44:19.000.09-May-2021 4440.01  472.03 65.65 15.00 173.00 2948.57
   06:44:19.200.09-May-2021 4440.01  472.03 65.65 15.00 173.20 2948.57
   06:44:19.400.09-May-2021 4440.01  475.25 65.65 15.00 173.40 2948.57
   06:44:19.600.09-May-2021 4440.01  476.59 65.65 15.00 173.60 2948.57
   06:44:19.800.09-May-2021 4440.01  478.71 65.65 15.00 173.80 2948.57
   06:44:20.000.09-May-2021 4440.01  480.09 65.65 15.00 174.00 2948.57
   06:44:20.200.09-May-2021 4440.01  480.09 65.65 15.00 174.20 2948.57
   06:44:20.400.09-May-2021 4440.01  481.96 65.65 15.00 174.40 2948.57
   06:44:20.600.09-May-2021 4440.01  485.14 65.65 15.00 174.60 2948.57
   06:44:20.800.09-May-2021 4440.01  486.32 65.65 15.00 174.80 2948.57
   06:44:21.000.09-May-2021 4440.01  488.31 65.65 15.00 175.00 2948.57
   06:44:21.200.09-May-2021 4440.01  488.31 65.65 15.00 175.20 2948.57
   06:44:21.400.09-May-2021 4440.01  491.48 65.65 15.00 175.40 2948.57
   06:44:21.600.09-May-2021 4440.01  492.80 65.65 15.00 175.60 2948.57
   06:44:21.800.09-May-2021 4440.01  494.88 65.65 15.00 175.80 2948.57
   06:44:22.000.09-May-2021 4440.01  496.25 65.65 15.00 176.00 2948.57
   06:44:22.200.09-May-2021 4440.01  496.25 65.65 15.00 176.20 2948.57
   06:44:22.400.09-May-2021 4440.01  499.54 65.65 15.00 176.40 2948.57
   06:44:22.600.09-May-2021 4440.01  501.21 65.65 15.00 176.60 2948.57
   06:44:22.800.09-May-2021 4440.01  502.80 65.65 15.00 176.80 2948.57
   06:44:23.000.09-May-2021 4440.01  504.41 65.65 15.00 177.00 2948.57
   06:44:23.200.09-May-2021 4440.01  504.41 65.65 15.00 177.20 2948.57
   06:44:23.400.09-May-2021 4440.01  507.61 65.65 15.00 177.40 2948.57
   06:44:23.600.09-May-2021 4440.01  509.20 65.65 15.00 177.60 2948.57
   06:44:23.800.09-May-2021 4440.01  510.81 65.65 15.00 177.80 2948.57
   06:44:24.000.09-May-2021 4440.01  512.41 65.65 15.00 178.00 2948.57
   06:44:24.200.09-May-2021 4440.01  512.41 65.65 15.00 178.20 2948.57
   06:44:24.400.09-May-2021 4440.01  513.63 65.65 15.00 178.40 2948.57
   06:44:24.600.09-May-2021 4440.01  517.12 65.65 15.00 178.60 2948.57
   06:44:24.800.09-May-2021 4440.01  518.56 65.65 15.00 178.80 2948.57
   06:44:25.000.09-May-2021 4440.01  520.26 65.65 15.00 179.00 2948.57
   06:44:25.200.09-May-2021 4440.01  520.26 65.65 15.00 179.20 2948.57
   06:44:25.400.09-May-2021 4440.01  523.39 65.65 15.00 179.40 2948.57
   06:44:25.600.09-May-2021 4440.01  524.95 65.65 15.00 179.60 2948.57
   06:44:25.800.09-May-2021 4440.01  526.51 65.65 15.00 179.80 2948.57
   06:44:26.000.09-May-2021 4440.01  528.09 65.65 15.00 180.00 2948.57
   06:44:26.200.09-May-2021 4440.01  528.09 65.65 15.00 180.20 2948.57
   06:44:26.400.09-May-2021 4440.01  531.23 65.65 15.00 180.40 2948.57
   06:44:26.600.09-May-2021 4440.01  532.60 65.65 15.00 180.60 2948.57
