~Version Information
 VERS.                  2.0:   CWLS log ASCII Standard -VERSION 2.0
 WRAP.                   NO:   One line per depth step
~Well Information Block
#MNEM.UNIT     VALUE/NAME     DESCRIPTION
#---------     -----------    ---------------------------
 STRT.S             02:35:25 09-May-21: START TIME 02:35:25 09-May-21
 STOP.S             02:42:01 09-May-21: STOP TIME  02:42:01 09-May-21
 STEP.S                   0.00: STEP TIME
 NULL.                 -999.25: NULL VALUE
 PROV.                    Baku:  PROVINCE
 STAT.                    Baku:  STATE NAME
 SON .        AZ-XX-0906571588:  JOB NUMBER
 WTYP.                Deviated:  WELL TYPE
 COMP.     BP Exploration (Caspian Sea) ltd:  COMPANY
 BASE.              Azerbaijan:  LOGGING EQUIPMENT BASE LOCATION
 REGN.                   EESSA:  REGION
 CTRY.              Azerbaijan:  COUNTRY NAME
 FLD .                     ACG:  FIELD NAME
 WELL.                     J28:  WELL NAME
 RIG .             West Chirag:  RIG NAME
 DMF .             Drill Floor:  DRILL MEAS FROM
 PDAT.       Caspian Sea Level:  PERMANENT DATUM
 HPTY.       Minimum Curvature:  HOLE POS TYPE
 MDS .        Operator Entered:  MAG DATA SOURCE
 NREF.                    Grid:  NORTH REFERENCE
 SRVC.          TURAN DRILLING:  CONTRACTOR
 JOBN.        AZ-XX-0906571588:  JOB TICKET NUMB
 DCON.     Halliburton Sperry Drilling:  DIRECTNL CONTR
 STIM.      00.44.00 11-Feb-21:  START TIME
 DATE.      00.00.00 05-May-21:  END TIME
 SPUD.               13-Feb-21:  SPUD DATE
 MWDS.                    Baku:  MWD SHOP
 DOE .                     N/A:  DOE NUMBER
 UNIT.                     N/A:  LOGGING EQUIPMENT ID
 UWI .                     N/A:  UNIQUE WELL IDENTIFIER
 API .                     N/A:  API NUMBER
 CNTY.                        :  COUNTY
 LOC .                        :  LOCATION
 LMF .             Drill Floor:  LOG MEASURED FROM
 TVDS.m                  43.00:  TVDSS CORRECTN
 SDEP.m                 341.00:  START DEPTH
 EGL .m                   0.00:  GROUND ELEVATION
 WDMS.m                 169.80:  WD ELEV
 AGAP.m                  43.00:  AIR GAP
 EPD .m                   0.00:  ELEVATION
 APD .m                  43.00:  DEPTH ABOVE PD
 LATI.deg                40.13:  LATITUDE
 LONG.deg                51.22:  LONGITUDE
 UTMY.m             4443793.85:  UTM Y
 UTMX.m              519005.06:  UTM X
 WHEW.m                 -11.57:  WELL HEAD E/W
 WHNS.m                   8.57:  WELL HEAD N/S
 VSEW.m                 -11.57:  VERT SEC E/W
 VSNS.m                   8.57:  VERT SEC N/S
 DFWL.m                   0.00:  DISTANCE FWL
 DFSL.m                   0.00:  DISTANCE FSL
 VSDR.deg               299.34:  VERT SEC DIRECT
 GVFD.g                   1.00:  GRAVITY FIELD
 AZTC.deg                 6.36:  AZM TOTAL CORR
 MFLD.nT              50391.00:  MAGNETIC FIELD
 MDIP.deg                59.65:  MAGNETIC DIP
 MDEC.deg                 6.48:  MAGNETIC DECL
 GRDC.deg                 0.12:  GRID CORRECTION
 DEP .m                 334.96:  DEPTH
 TDD .m                1407.26:  TOTAL DEPTH (DRILLER)
 EKB .m                  43.00:  KB ELEVATION
 EDF .m                  43.00:  DF ELEVATION
 TDL .m                 228.00:  TOTAL DEPTH (LOGGER)
 VSC .                       0:  VS TO CLOSURE
 MAGU.                 1854484:  MAGUTM CHECKSUM
~Parameter Information Block
#MNEM.UNIT       Value        Description
#---------     -----------    ---------------------------
 AV  .mps                 4.00:  Ann Velocity 
 AVMX.mps                 4.73:  Max Ann Veloc 
 AZIF.deg               304.48:  Azm, Final 
 BHAT.        Rotary Steerable:  BHA Type 
 BREV.rev            257300.00:  Rev Bit Total 
 BROT.°/30m               0.00:  Build Rotating 
 BS  .in                  8.50:  Bit Size 
 BSZ .in                  8.50:  Bit Size 
 BTPL.psig              589.00:  Bit Press Loss 
 CABU.                      No:  Customer Abuse 
 CGEO.          Mubariz ghayev:  Customer Geo 
 COMM.                     LÑz:  Run Comments 1 
 TCS .hr                 64.25:  Time Ciculation Ended 
 CV  .mps                 3.50:  Crit Velocity 
 CVMX.mps                 4.52:  Max Crit Veloc 
 DD1 .             Aziz Aliyev:  Direct Drillr 1 
 DD2 .         Intigam Rahimov:  Direct Drillr 2 
 DD3 .          Rashad Habibov:  Direct Drillr 3 
 DDSV.               Geo-Pilot:  DD Service 
 DEFF.%                  98.00:  % Det Eff 
 DLRX.°/30m               0.00:  Dogleg Rot Max 
 DLSO.°/30m               0.00:  Dogleg Oriented 
 DLSX.°/30m               0.00:  Dogleg Str Max 
 DRET.      10.45.04 08-May-21:  Drill End Time 
 DRST.      03.30.04 04-May-21:  Drill Start Tim 
 DTIM.hr                 14.97:  Time Drilling 
 EDEP.m                4640.01:  End Depth 
 ENG1.         Dail Mahammadov:  Engineer 1 
 ENG2.           Eldar Hajiyev:  Engineer 2 
 ENG3.       Bakhtiar Jabbarli:  Engineer 3 
 ENG4.       Natik Hasanagayev:  Engineer 4 
 ETIM.      09.30.04 14-May-21:  End Time 
 FLOI.gpm               460.00:  Flow In 
 FLON.gpm               200.00:  Flow In Min 
 FLOS.cptm                0.00:  Fluid Loss 
 FLOX.gpm               505.00:  Flow In Max 
 HFLO.                      No:  High Flow 
 HPRE.                      No:  High Pressure 
 HTEM.                      No:  High Temp 
 HYDO.m                   1.80:  Hydro Offset 
 IFIN.deg                66.71:  Inc, Final 
 IMAX.deg                67.03:  Inc Max 
 IMIN.deg                66.63:  Inc Min 
 IMND.m                4550.58:  Inc Min Depth 
 IMXD.m                4439.01:  Inc Max Depth 
 JARR.                      No:  Jarring 
 LETM.      10.45.04 08-May-21:  Log End Time 
 LOST.hr                     0:  Lost Rig Time 
 LSTM.      03.30.04 04-May-21:  Log Start Time 
 MDCL.ppm             37000.00:  Mud Chlorides 
 MDES.     Inversion Oil/Synthetic:  Mud Desc 
 DFD .sg                  1.38:  Mud Density 
 MDMN.sg                  1.35:  Dens Mud Min 
 MDMX.sg                  1.40:  Dens Mud Max 
 MOIL.                   57.40:  Run Mud Oil % 
 MOWR.                   70:30:  Run Mud OWR 
 MSND.                    0.00:  Run Mud Sand % 
 MSOL.                   18.00:  Run Mud Solids% 
 DFV .spqt               71.00:  Mud Viscosity 
 MWOD.in                  6.75:  MWD Tool OD 
 MWSI.                      No:  Serv Intrp, MWD 
 OTIM.hr                242.76:  Time Operating 
 PCON.           Look Like New:  Pad Condition 
 PMAX.psia            12183.92:  Press Op, Max 
 PV  .cP                 27.00:  Mud PV 
 RUN .                    1300:  Run Number 
 ROPA.m/hr               15.00:  ROP Avg 
 ROPN.m/hr                9.00:  ROP Min 
 ROPX.m/hr               19.00:  ROP Max 
 RPMA.rpm               120.00:  RPM Surface Avg 
 RPMN.rpm               100.00:  RPM Surface Min 
 RPMX.rpm               120.00:  RPM Surface Max 
 RRUN.                    1300:  Rig Run Number 
 RTIM.hr                  5.00:  Time Reaming 
 SAZI.deg               304.73:  Azm, Start 
 SDEP.m                4412.01:  Start Depth 
 SIDD.                      No:  Serv Intrp, DD 
 SINC.deg                66.82:  Inc, Start 
 SPPA.psig             2800.00:  SPP Avg 
 SPPN.psig             2610.00:  SPP Min 
 SPPX.psig             3100.00:  SPP Max 
 STIM.      03.30.00 04-May-21:  Start Time 
 SVCS.                 DD, MWD:  Services 
 SVER.                    9.20:  Sperry Version 
 TDAT.m                 228.00:  Tot Depth Attmp 
 TDDF.                      No:  Trip for DD 
 TDLG.m                 228.00:  Tot Depth Loggd 
 TFF .                      No:  Trip for Fail 
 TQAA.f-kp               15.00:  Torque Abs Avg 
 TQAN.f-kp               12.00:  Torque Abs Min 
 TQAX.f-kp               22.00:  Torque Abs Max 
 TRRT.°/30m               0.00:  Turn Rotating 
 MRT .                    HCIM:  Maximum Recorded Temperature 
 TTMX.degC               90.20:  Max Tool Temp 
 VS01.                90627813:  Virtual Str1 SN 
 VS02.                90634712:  Virtual Str2 SN 
 VS03.                90643410:  Virtual Str3 SN 
 VS04.                90634712:  Virtual Str4 SN 
 WBMN.klb                 9.00:  WOB Min 
 WITN.        Elmaddin Rahimov:  Customer Rep 
 WITN.         Haytham Mostafa:  Customer Rep 2 
 WOBA.klb                15.00:  WOB Avg 
 WOBX.klb                23.00:  WOB Max 
 YP  .lhf2               29.00:  Yield Point 
~Curve Information Block
#MNEM.UNIT                 API CODE     Curve Description
#---------               -----------    ---------------------------
 TIME.HHMMSS            00 000 000 000:  GT Time & Date
 GTDEPTH.m              00 000 000 000:  GT Depth
 GTPQH.psia             00 000 000 000:  GT HR Quartz Pressure
 GTTQ.degC              00 000 000 000:  GT Quartz Temperature
 GTTN.NONE              00 000 000 000:  GT Test Number
 GTET.sec               00 000 000 000:  GT Elapsed Test Time
 GTTVD.m                00 000 000 000:  GT True Vertical Depth
#Other Information
#
#WARRANTY: Halliburton will use its best efforts to furnish customers with 
#accurate information and interpretations that are part of, and incident to, the services 
#provided.  However, Halliburton cannot and does not warrant the accuracy 
#or correctness of such information and interpretations.  Under no circumstances should any 
#such information or interpretation be relied upon as the sole basis for any drilling, 
#completion, production, or financial decision or any procedure involving any risk to the 
#safety of any drilling venture, drilling rig or its crew or any other third party.  The 
#Customer has full responsibility for all drilling, completion and production operation.  
#Halliburton makes no representations or warranties, either expressed or 
#implied, including, but not limited to, the implied warranties of merchantability or fitness 
#for a particular purpose, with respect to the services rendered.  In no event will 
#Halliburton be liable for failure to obtain any particular results or for 
#any damages, including, but not limited to, indirect, special or consequential damages, 
#resulting from the use of any information or interpretation provided by Halliburton.
#
~A           TIME           GTDEPTH  GTPQH  GTTQ  GTTN   GTET   GTTVD  
# ...
   02:39:33.907.09-May-2021 4482.51 1407.42 67.67 11.00 248.64 2965.25
   02:39:34.107.09-May-2021 4482.51 1407.90 67.67 11.00 248.84 2965.25
   02:39:34.307.09-May-2021 4482.51 1408.27 67.67 11.00 249.04 2965.25
   02:39:34.507.09-May-2021 4482.51 1408.27 67.67 11.00 249.24 2965.25
   02:39:34.707.09-May-2021 4482.51 1410.85 67.67 11.00 249.44 2965.25
   02:39:34.907.09-May-2021 4482.51 1411.72 67.67 11.00 249.64 2965.25
   02:39:35.107.09-May-2021 4482.51 1412.95 67.67 11.00 249.84 2965.25
   02:39:35.307.09-May-2021 4482.51 1414.01 67.67 11.00 250.04 2965.25
   02:39:35.507.09-May-2021 4482.51 1414.01 67.67 11.00 250.24 2965.25
   02:39:35.708.09-May-2021 4482.51 1415.90 67.67 11.00 250.44 2965.25
   02:39:35.908.09-May-2021 4482.51 1417.00 67.67 11.00 250.64 2965.25
   02:39:36.108.09-May-2021 4482.51 1418.01 67.67 11.00 250.84 2965.25
   02:39:36.308.09-May-2021 4482.51 1419.02 67.67 11.00 251.04 2965.25
   02:39:36.508.09-May-2021 4482.51 1419.02 67.67 11.00 251.24 2965.25
   02:39:36.708.09-May-2021 4482.51 1421.08 67.67 11.00 251.44 2965.25
   02:39:36.908.09-May-2021 4482.51 1422.08 67.67 11.00 251.64 2965.25
   02:39:37.108.09-May-2021 4482.51 1422.84 67.67 11.00 251.84 2965.25
   02:39:37.308.09-May-2021 4482.51 1386.67 67.67 11.00 252.04 2965.25
   02:39:37.508.09-May-2021 4482.51 1386.67 67.67 11.00 252.24 2965.25
   02:39:37.708.09-May-2021 4482.51  720.89 67.67 11.00 252.44 2965.25
   02:39:37.908.09-May-2021 4482.51  668.14 67.67 11.00 252.64 2965.25
   02:39:38.108.09-May-2021 4482.51  655.02 67.67 11.00 252.84 2965.25
   02:39:38.308.09-May-2021 4482.51  647.40 67.67 11.00 253.04 2965.25
   02:39:38.508.09-May-2021 4482.51  647.40 67.67 11.00 253.24 2965.25
   02:39:38.708.09-May-2021 4482.51  647.83 67.66 11.00 253.44 2965.25
   02:39:38.908.09-May-2021 4482.51  643.80 67.66 11.00 253.64 2965.25
   02:39:39.108.09-May-2021 4482.51  640.36 67.66 11.00 253.84 2965.25
   02:39:39.308.09-May-2021 4482.51  634.50 67.66 11.00 254.04 2965.25
   02:39:39.508.09-May-2021 4482.51  634.50 67.66 11.00 254.24 2965.25
   02:39:39.708.09-May-2021 4482.51  627.33 67.66 11.00 254.44 2965.25
   02:39:39.908.09-May-2021 4482.51  626.46 67.66 11.00 254.64 2965.25
   02:39:40.108.09-May-2021 4482.51  624.20 67.66 11.00 254.84 2965.25
   02:39:40.308.09-May-2021 4482.51  623.69 67.66 11.00 255.04 2965.25
   02:39:40.508.09-May-2021 4482.51  623.69 67.66 11.00 255.24 2965.25
   02:39:40.708.09-May-2021 4482.51  627.08 67.66 11.00 255.44 2965.25
   02:39:40.908.09-May-2021 4482.51  628.17 67.66 11.00 255.64 2965.25
   02:39:41.108.09-May-2021 4482.51  630.64 67.66 11.00 255.84 2965.25
   02:39:41.308.09-May-2021 4482.51  631.85 67.66 11.00 256.04 2965.25
   02:39:41.509.09-May-2021 4482.51  631.85 67.66 11.00 256.24 2965.25
   02:39:41.709.09-May-2021 4482.51  635.10 67.66 11.00 256.44 2965.25
   02:39:41.909.09-May-2021 4482.51  636.55 67.66 11.00 256.64 2965.25
   02:39:42.109.09-May-2021 4482.51  638.61 67.66 11.00 256.84 2965.25
   02:39:42.309.09-May-2021 4482.51  639.75 67.65 11.00 257.04 2965.25
   02:39:42.509.09-May-2021 4482.51  639.75 67.65 11.00 257.24 2965.25
   02:39:42.709.09-May-2021 4482.51  640.26 67.65 11.00 257.44 2965.25
   02:39:42.909.09-May-2021 4482.51  639.55 67.65 11.00 257.64 2965.25
   02:39:43.109.09-May-2021 4482.51  638.85 67.65 11.00 257.84 2965.25
   02:39:43.309.09-May-2021 4482.51  638.52 67.65 11.00 258.04 2965.25
   02:39:43.509.09-May-2021 4482.51  638.52 67.65 11.00 258.24 2965.25
   02:39:43.709.09-May-2021 4482.51  641.02 67.65 11.00 258.44 2965.25
   02:39:43.909.09-May-2021 4482.51  642.60 67.65 11.00 258.64 2965.25
   02:39:44.109.09-May-2021 4482.51  643.63 67.65 11.00 258.84 2965.25
   02:39:44.309.09-May-2021 4482.51  644.75 67.65 11.00 259.04 2965.25
   02:39:44.509.09-May-2021 4482.51  644.75 67.65 11.00 259.24 2965.25
   02:39:44.709.09-May-2021 4482.51  642.22 67.65 11.00 259.44 2965.25
   02:39:44.909.09-May-2021 4482.51  641.00 67.65 11.00 259.64 2965.25
   02:39:45.109.09-May-2021 4482.51  637.37 67.65 11.00 259.84 2965.25
   02:39:45.309.09-May-2021 4482.51  632.43 67.65 11.00 260.04 2965.25
   02:39:45.509.09-May-2021 4482.51  632.43 67.65 11.00 260.24 2965.25
   02:39:45.709.09-May-2021 4482.51  629.90 67.65 11.00 260.44 2965.25
   02:39:45.909.09-May-2021 4482.51  631.73 67.65 11.00 260.64 2965.25
   02:39:46.109.09-May-2021 4482.51  633.67 67.65 11.00 260.84 2965.25
   02:39:46.309.09-May-2021 4482.51  634.56 67.65 11.00 261.04 2965.25
   02:39:46.509.09-May-2021 4482.51  634.56 67.65 11.00 261.24 2965.25
   02:39:46.709.09-May-2021 4482.51  637.86 67.65 11.00 261.44 2965.25
   02:39:46.909.09-May-2021 4482.51  639.43 67.65 11.00 261.64 2965.25
   02:39:47.109.09-May-2021 4482.51  640.99 67.65 11.00 261.84 2965.25
   02:39:47.309.09-May-2021 4482.51  642.39 67.65 11.00 262.04 2965.25
   02:39:47.510.09-May-2021 4482.51  642.39 67.65 11.00 262.24 2965.25
   02:39:47.710.09-May-2021 4482.51  645.99 67.65 11.00 262.44 2965.25
   02:39:47.910.09-May-2021 4482.51  653.18 67.65 11.00 262.64 2965.25
   02:39:48.110.09-May-2021 4482.51  654.59 67.64 11.00 262.84 2965.25
   02:39:48.310.09-May-2021 4482.51  657.37 67.64 11.00 263.04 2965.25
   02:39:48.510.09-May-2021 4482.51  657.37 67.64 11.00 263.24 2965.25
   02:39:48.710.09-May-2021 4482.51  660.35 67.64 11.00 263.44 2965.25
   02:39:48.910.09-May-2021 4482.51  661.60 67.64 11.00 263.64 2965.25
   02:39:49.110.09-May-2021 4482.51  662.58 67.64 11.00 263.84 2965.25
   02:39:49.310.09-May-2021 4482.51  664.42 67.64 11.00 264.04 2965.25
   02:39:49.510.09-May-2021 4482.51  664.42 67.64 11.00 264.24 2965.25
   02:39:49.710.09-May-2021 4482.51  667.47 67.64 11.00 264.44 2965.25
   02:39:49.910.09-May-2021 4482.51  668.15 67.64 11.00 264.64 2965.25
   02:39:50.110.09-May-2021 4482.51  670.39 67.64 11.00 264.84 2965.25
   02:39:50.310.09-May-2021 4482.51  671.53 67.64 11.00 265.04 2965.25
   02:39:50.510.09-May-2021 4482.51  671.53 67.64 11.00 265.24 2965.25
   02:39:50.710.09-May-2021 4482.51  674.61 67.64 11.00 265.44 2965.25
   02:39:50.910.09-May-2021 4482.51  675.76 67.64 11.00 265.64 2965.25
   02:39:51.110.09-May-2021 4482.51  677.18 67.64 11.00 265.84 2965.25
   02:39:51.310.09-May-2021 4482.51  678.44 67.64 11.00 266.04 2965.25
   02:39:51.510.09-May-2021 4482.51  678.44 67.64 11.00 266.24 2965.25
   02:39:51.710.09-May-2021 4482.51  681.20 67.64 11.00 266.44 2965.25
   02:39:51.910.09-May-2021 4482.51  682.59 67.64 11.00 266.64 2965.25
   02:39:52.110.09-May-2021 4482.51  683.94 67.64 11.00 266.84 2965.25
   02:39:52.310.09-May-2021 4482.51  685.31 67.64 11.00 267.04 2965.25
   02:39:52.510.09-May-2021 4482.51  685.31 67.64 11.00 267.24 2965.25
   02:39:52.710.09-May-2021 4482.51  687.97 67.64 11.00 267.44 2965.25
   02:39:52.910.09-May-2021 4482.51  689.35 67.64 11.00 267.64 2965.25
   02:39:53.110.09-May-2021 4482.51  690.24 67.64 11.00 267.84 2965.25
   02:39:53.310.09-May-2021 4482.51  692.22 67.64 11.00 268.04 2965.25
   02:39:53.511.09-May-2021 4482.51  692.22 67.64 11.00 268.24 2965.25
   02:39:53.711.09-May-2021 4482.51  694.59 67.64 11.00 268.44 2965.25
   02:39:53.911.09-May-2021 4482.51  696.03 67.64 11.00 268.64 2965.25
   02:39:54.111.09-May-2021 4482.51  697.22 67.64 11.00 268.84 2965.25
   02:39:54.311.09-May-2021 4482.51  698.55 67.64 11.00 269.04 2965.25
   02:39:54.511.09-May-2021 4482.51  698.55 67.64 11.00 269.25 2965.25
   02:39:54.711.09-May-2021 4482.51  701.07 67.64 11.00 269.45 2965.25
   02:39:54.911.09-May-2021 4482.51  702.36 67.64 11.00 269.65 2965.25
   02:39:55.111.09-May-2021 4482.51  703.58 67.64 11.00 269.85 2965.25
   02:39:55.311.09-May-2021 4482.51  704.83 67.64 11.00 270.05 2965.25
   02:39:55.511.09-May-2021 4482.51  704.83 67.64 11.00 270.25 2965.25
   02:39:55.711.09-May-2021 4482.51  707.37 67.64 11.00 270.45 2965.25
   02:39:55.911.09-May-2021 4482.51  708.70 67.64 11.00 270.65 2965.25
   02:39:56.111.09-May-2021 4482.51  710.08 67.64 11.00 270.85 2965.25
   02:39:56.311.09-May-2021 4482.51  710.56 67.64 11.00 271.05 2965.25
