~Version Information
 VERS.                  2.0:   CWLS log ASCII Standard -VERSION 2.0
 WRAP.                   NO:   One line per depth step
~Well Information Block
#MNEM.UNIT     VALUE/NAME     DESCRIPTION
#---------     -----------    ---------------------------
 STRT.S             07:52:13 09-May-21: START TIME 07:52:13 09-May-21
 STOP.S             07:59:09 09-May-21: STOP TIME  07:59:09 09-May-21
 STEP.S                   0.00: STEP TIME
 NULL.                 -999.25: NULL VALUE
 PROV.                    Baku:  PROVINCE
 STAT.                    Baku:  STATE NAME
 SON .        AZ-XX-0906571588:  JOB NUMBER
 WTYP.                Deviated:  WELL TYPE
 COMP.     BP Exploration (Caspian Sea) ltd:  COMPANY
 BASE.              Azerbaijan:  LOGGING EQUIPMENT BASE LOCATION
 REGN.                   EESSA:  REGION
 CTRY.              Azerbaijan:  COUNTRY NAME
 FLD .                     ACG:  FIELD NAME
 WELL.                     J28:  WELL NAME
 RIG .             West Chirag:  RIG NAME
 DMF .             Drill Floor:  DRILL MEAS FROM
 PDAT.       Caspian Sea Level:  PERMANENT DATUM
 HPTY.       Minimum Curvature:  HOLE POS TYPE
 MDS .        Operator Entered:  MAG DATA SOURCE
 NREF.                    Grid:  NORTH REFERENCE
 SRVC.          TURAN DRILLING:  CONTRACTOR
 JOBN.        AZ-XX-0906571588:  JOB TICKET NUMB
 DCON.     Halliburton Sperry Drilling:  DIRECTNL CONTR
 STIM.      00.44.00 11-Feb-21:  START TIME
 DATE.      00.00.00 05-May-21:  END TIME
 SPUD.               13-Feb-21:  SPUD DATE
 MWDS.                    Baku:  MWD SHOP
 DOE .                     N/A:  DOE NUMBER
 UNIT.                     N/A:  LOGGING EQUIPMENT ID
 UWI .                     N/A:  UNIQUE WELL IDENTIFIER
 API .                     N/A:  API NUMBER
 CNTY.                        :  COUNTY
 LOC .                        :  LOCATION
 LMF .             Drill Floor:  LOG MEASURED FROM
 TVDS.m                  43.00:  TVDSS CORRECTN
 SDEP.m                 341.00:  START DEPTH
 EGL .m                   0.00:  GROUND ELEVATION
 WDMS.m                 169.80:  WD ELEV
 AGAP.m                  43.00:  AIR GAP
 EPD .m                   0.00:  ELEVATION
 APD .m                  43.00:  DEPTH ABOVE PD
 LATI.deg                40.13:  LATITUDE
 LONG.deg                51.22:  LONGITUDE
 UTMY.m             4443793.85:  UTM Y
 UTMX.m              519005.06:  UTM X
 WHEW.m                 -11.57:  WELL HEAD E/W
 WHNS.m                   8.57:  WELL HEAD N/S
 VSEW.m                 -11.57:  VERT SEC E/W
 VSNS.m                   8.57:  VERT SEC N/S
 DFWL.m                   0.00:  DISTANCE FWL
 DFSL.m                   0.00:  DISTANCE FSL
 VSDR.deg               299.34:  VERT SEC DIRECT
 GVFD.g                   1.00:  GRAVITY FIELD
 AZTC.deg                 6.36:  AZM TOTAL CORR
 MFLD.nT              50391.00:  MAGNETIC FIELD
 MDIP.deg                59.65:  MAGNETIC DIP
 MDEC.deg                 6.48:  MAGNETIC DECL
 GRDC.deg                 0.12:  GRID CORRECTION
 DEP .m                 334.96:  DEPTH
 TDD .m                1407.26:  TOTAL DEPTH (DRILLER)
 EKB .m                  43.00:  KB ELEVATION
 EDF .m                  43.00:  DF ELEVATION
 TDL .m                 228.00:  TOTAL DEPTH (LOGGER)
 VSC .                       0:  VS TO CLOSURE
 MAGU.                 1854484:  MAGUTM CHECKSUM
~Parameter Information Block
#MNEM.UNIT       Value        Description
#---------     -----------    ---------------------------
 AV  .mps                 4.00:  Ann Velocity 
 AVMX.mps                 4.73:  Max Ann Veloc 
 AZIF.deg               304.48:  Azm, Final 
 BHAT.        Rotary Steerable:  BHA Type 
 BREV.rev            257300.00:  Rev Bit Total 
 BROT.°/30m               0.00:  Build Rotating 
 BS  .in                  8.50:  Bit Size 
 BSZ .in                  8.50:  Bit Size 
 BTPL.psig              589.00:  Bit Press Loss 
 CABU.                      No:  Customer Abuse 
 CGEO.          Mubariz ghayev:  Customer Geo 
 TCS .hr                 64.25:  Time Ciculation Ended 
 CV  .mps                 3.50:  Crit Velocity 
 CVMX.mps                 4.52:  Max Crit Veloc 
 DD1 .             Aziz Aliyev:  Direct Drillr 1 
 DD2 .         Intigam Rahimov:  Direct Drillr 2 
 DD3 .          Rashad Habibov:  Direct Drillr 3 
 DDSV.               Geo-Pilot:  DD Service 
 DEFF.%                  98.00:  % Det Eff 
 DLRX.°/30m               0.00:  Dogleg Rot Max 
 DLSO.°/30m               0.00:  Dogleg Oriented 
 DLSX.°/30m               0.00:  Dogleg Str Max 
 DRET.      10.45.04 08-May-21:  Drill End Time 
 DRST.      03.30.04 04-May-21:  Drill Start Tim 
 DTIM.hr                 14.97:  Time Drilling 
 EDEP.m                4640.01:  End Depth 
 ENG1.         Dail Mahammadov:  Engineer 1 
 ENG2.           Eldar Hajiyev:  Engineer 2 
 ENG3.       Bakhtiar Jabbarli:  Engineer 3 
 ENG4.       Natik Hasanagayev:  Engineer 4 
 ETIM.      09.30.04 14-May-21:  End Time 
 FLOI.gpm               460.00:  Flow In 
 FLON.gpm               200.00:  Flow In Min 
 FLOS.cptm                0.00:  Fluid Loss 
 FLOX.gpm               505.00:  Flow In Max 
 HFLO.                      No:  High Flow 
 HPRE.                      No:  High Pressure 
 HTEM.                      No:  High Temp 
 HYDO.m                   1.80:  Hydro Offset 
 IFIN.deg                66.71:  Inc, Final 
 IMAX.deg                67.03:  Inc Max 
 IMIN.deg                66.63:  Inc Min 
 IMND.m                4550.58:  Inc Min Depth 
 IMXD.m                4439.01:  Inc Max Depth 
 JARR.                      No:  Jarring 
 LETM.      10.45.04 08-May-21:  Log End Time 
 LOST.hr                     0:  Lost Rig Time 
 LSTM.      03.30.04 04-May-21:  Log Start Time 
 MDCL.ppm             37000.00:  Mud Chlorides 
 MDES.     Inversion Oil/Synthetic:  Mud Desc 
 DFD .sg                  1.38:  Mud Density 
 MDMN.sg                  1.35:  Dens Mud Min 
 MDMX.sg                  1.40:  Dens Mud Max 
 MOIL.                   57.40:  Run Mud Oil % 
 MOWR.                   70:30:  Run Mud OWR 
 MSND.                    0.00:  Run Mud Sand % 
 MSOL.                   18.00:  Run Mud Solids% 
 DFV .spqt               71.00:  Mud Viscosity 
 MWOD.in                  6.75:  MWD Tool OD 
 MWSI.                      No:  Serv Intrp, MWD 
 OTIM.hr                242.76:  Time Operating 
 PCON.           Look Like New:  Pad Condition 
 PMAX.psia            12183.92:  Press Op, Max 
 PV  .cP                 27.00:  Mud PV 
 RUN .                    1300:  Run Number 
 ROPA.m/hr               15.00:  ROP Avg 
 ROPN.m/hr                9.00:  ROP Min 
 ROPX.m/hr               19.00:  ROP Max 
 RPMA.rpm               120.00:  RPM Surface Avg 
 RPMN.rpm               100.00:  RPM Surface Min 
 RPMX.rpm               120.00:  RPM Surface Max 
 RRUN.                    1300:  Rig Run Number 
 RTIM.hr                  5.00:  Time Reaming 
 SAZI.deg               304.73:  Azm, Start 
 SDEP.m                4412.01:  Start Depth 
 SIDD.                      No:  Serv Intrp, DD 
 SINC.deg                66.82:  Inc, Start 
 SPPA.psig             2800.00:  SPP Avg 
 SPPN.psig             2610.00:  SPP Min 
 SPPX.psig             3100.00:  SPP Max 
 STIM.      03.30.00 04-May-21:  Start Time 
 SVCS.                 DD, MWD:  Services 
 SVER.                    9.20:  Sperry Version 
 TDAT.m                 228.00:  Tot Depth Attmp 
 TDDF.                      No:  Trip for DD 
 TDLG.m                 228.00:  Tot Depth Loggd 
 TFF .                      No:  Trip for Fail 
 TQAA.f-kp               15.00:  Torque Abs Avg 
 TQAN.f-kp               12.00:  Torque Abs Min 
 TQAX.f-kp               22.00:  Torque Abs Max 
 TRRT.°/30m               0.00:  Turn Rotating 
 MRT .                    HCIM:  Maximum Recorded Temperature 
 TTMX.degC               90.20:  Max Tool Temp 
 VS01.                90627813:  Virtual Str1 SN 
 VS02.                90634712:  Virtual Str2 SN 
 VS03.                90643410:  Virtual Str3 SN 
 VS04.                90634712:  Virtual Str4 SN 
 WBMN.klb                 9.00:  WOB Min 
 WITN.        Elmaddin Rahimov:  Customer Rep 
 WITN.         Haytham Mostafa:  Customer Rep 2 
 WOBA.klb                15.00:  WOB Avg 
 WOBX.klb                23.00:  WOB Max 
 YP  .lhf2               29.00:  Yield Point 
~Curve Information Block
#MNEM.UNIT                 API CODE     Curve Description
#---------               -----------    ---------------------------
 TIME.HHMMSS            00 000 000 000:  GT Time & Date
 GTDEPTH.m              00 000 000 000:  GT Depth
 GTPQH.psia             00 000 000 000:  GT HR Quartz Pressure
 GTTQ.degC              00 000 000 000:  GT Quartz Temperature
 GTTN.NONE              00 000 000 000:  GT Test Number
 GTET.sec               00 000 000 000:  GT Elapsed Test Time
 GTTVD.m                00 000 000 000:  GT True Vertical Depth
#Other Information
#
#WARRANTY: Halliburton will use its best efforts to furnish customers with 
#accurate information and interpretations that are part of, and incident to, the services 
#provided.  However, Halliburton cannot and does not warrant the accuracy 
#or correctness of such information and interpretations.  Under no circumstances should any 
#such information or interpretation be relied upon as the sole basis for any drilling, 
#completion, production, or financial decision or any procedure involving any risk to the 
#safety of any drilling venture, drilling rig or its crew or any other third party.  The 
#Customer has full responsibility for all drilling, completion and production operation.  
#Halliburton makes no representations or warranties, either expressed or 
#implied, including, but not limited to, the implied warranties of merchantability or fitness 
#for a particular purpose, with respect to the services rendered.  In no event will 
#Halliburton be liable for failure to obtain any particular results or for 
#any damages, including, but not limited to, indirect, special or consequential damages, 
#resulting from the use of any information or interpretation provided by Halliburton.
#
~A           TIME           GTDEPTH  GTPQH  GTTQ  GTTN   GTET   GTTVD  
# ...
   07:56:21.830.09-May-2021 4413.51 4428.70 65.51 16.00 248.63 2938.18
   07:56:22.030.09-May-2021 4413.51 4428.70 65.51 16.00 248.83 2938.18
   07:56:22.230.09-May-2021 4413.51 4428.76 65.51 16.00 249.03 2938.18
   07:56:22.430.09-May-2021 4413.51 4428.76 65.51 16.00 249.23 2938.18
   07:56:22.630.09-May-2021 4413.51 4428.77 65.51 16.00 249.43 2938.18
   07:56:22.830.09-May-2021 4413.51 4428.75 65.51 16.00 249.63 2938.18
   07:56:23.030.09-May-2021 4413.51 4428.75 65.51 16.00 249.83 2938.18
   07:56:23.230.09-May-2021 4413.51 4428.77 65.51 16.00 250.03 2938.18
   07:56:23.430.09-May-2021 4413.51 4428.77 65.51 16.00 250.23 2938.18
   07:56:23.630.09-May-2021 4413.51 4428.66 65.51 16.00 250.43 2938.18
   07:56:23.830.09-May-2021 4413.51 4428.93 65.51 16.00 250.63 2938.18
   07:56:24.030.09-May-2021 4413.51 4428.71 65.51 16.00 250.83 2938.18
   07:56:24.230.09-May-2021 4413.51 4428.91 65.51 16.00 251.03 2938.18
   07:56:24.430.09-May-2021 4413.51 4428.91 65.51 16.00 251.23 2938.18
   07:56:24.630.09-May-2021 4413.51 4428.77 65.51 16.00 251.43 2938.18
   07:56:24.830.09-May-2021 4413.51 4428.72 65.51 16.00 251.63 2938.18
   07:56:25.030.09-May-2021 4413.51 4428.75 65.51 16.00 251.83 2938.18
   07:56:25.230.09-May-2021 4413.51 4428.74 65.51 16.00 252.03 2938.18
   07:56:25.430.09-May-2021 4413.51 4428.74 65.51 16.00 252.24 2938.18
   07:56:25.630.09-May-2021 4413.51 4428.75 65.51 16.00 252.44 2938.18
   07:56:25.830.09-May-2021 4413.51 4428.76 65.51 16.00 252.64 2938.18
   07:56:26.030.09-May-2021 4413.51 4428.76 65.51 16.00 252.84 2938.18
   07:56:26.230.09-May-2021 4413.51 4428.77 65.51 16.00 253.04 2938.18
   07:56:26.431.09-May-2021 4413.51 4428.77 65.51 16.00 253.24 2938.18
   07:56:26.631.09-May-2021 4413.51 4428.73 65.51 16.00 253.44 2938.18
   07:56:26.831.09-May-2021 4413.51 4428.69 65.51 16.00 253.64 2938.18
   07:56:27.031.09-May-2021 4413.51 4428.72 65.51 16.00 253.84 2938.18
   07:56:27.231.09-May-2021 4413.51 4428.86 65.51 16.00 254.04 2938.18
   07:56:27.431.09-May-2021 4413.51 4428.86 65.51 16.00 254.24 2938.18
   07:56:27.631.09-May-2021 4413.51 4428.87 65.51 16.00 254.44 2938.18
   07:56:27.831.09-May-2021 4413.51 4428.68 65.51 16.00 254.64 2938.18
   07:56:28.031.09-May-2021 4413.51 4428.96 65.51 16.00 254.84 2938.18
   07:56:28.231.09-May-2021 4413.51 4297.24 65.51 16.00 255.04 2938.18
   07:56:28.431.09-May-2021 4413.51 4297.24 65.51 16.00 255.24 2938.18
   07:56:28.631.09-May-2021 4413.51 4276.67 65.51 16.00 255.44 2938.18
   07:56:28.831.09-May-2021 4413.51 4311.67 65.51 16.00 255.64 2938.18
   07:56:29.031.09-May-2021 4413.51 4318.32 65.51 16.00 255.84 2938.18
   07:56:29.231.09-May-2021 4413.51 4323.04 65.51 16.00 256.04 2938.18
   07:56:29.431.09-May-2021 4413.51 4323.04 65.51 16.00 256.24 2938.18
   07:56:29.631.09-May-2021 4413.51 4322.07 65.51 16.00 256.44 2938.18
   07:56:29.831.09-May-2021 4413.51 4326.79 65.51 16.00 256.64 2938.18
   07:56:30.031.09-May-2021 4413.51 4327.33 65.50 16.00 256.84 2938.18
   07:56:30.231.09-May-2021 4413.51 4311.92 65.50 16.00 257.04 2938.18
   07:56:30.431.09-May-2021 4413.51 4311.92 65.50 16.00 257.24 2938.18
   07:56:30.631.09-May-2021 4413.51 4326.82 65.50 16.00 257.44 2938.18
   07:56:30.831.09-May-2021 4413.51 4325.71 65.50 16.00 257.64 2938.18
   07:56:31.031.09-May-2021 4413.51 4326.92 65.50 16.00 257.84 2938.18
   07:56:31.231.09-May-2021 4413.51 4326.32 65.50 16.00 258.04 2938.18
   07:56:31.431.09-May-2021 4413.51 4326.32 65.50 16.00 258.24 2938.18
   07:56:31.631.09-May-2021 4413.51 4326.13 65.50 16.00 258.44 2938.18
   07:56:31.831.09-May-2021 4413.51 4326.53 65.50 16.00 258.64 2938.18
   07:56:32.031.09-May-2021 4413.51 4323.73 65.50 16.00 258.84 2938.18
   07:56:32.231.09-May-2021 4413.51 4325.71 65.50 16.00 259.04 2938.18
   07:56:32.431.09-May-2021 4413.51 4325.71 65.50 16.00 259.24 2938.18
   07:56:32.631.09-May-2021 4413.51 4324.68 65.50 16.00 259.44 2938.18
   07:56:32.831.09-May-2021 4413.51 4324.01 65.50 16.00 259.64 2938.18
   07:56:33.031.09-May-2021 4413.51 4323.28 65.50 16.00 259.84 2938.18
   07:56:33.231.09-May-2021 4413.51 4324.03 65.50 16.00 260.04 2938.18
   07:56:33.431.09-May-2021 4413.51 4324.03 65.50 16.00 260.24 2938.18
   07:56:33.632.09-May-2021 4413.51 4323.27 65.50 16.00 260.44 2938.18
   07:56:33.832.09-May-2021 4413.51 4323.71 65.50 16.00 260.64 2938.18
   07:56:34.032.09-May-2021 4413.51 4323.98 65.50 16.00 260.84 2938.18
   07:56:34.232.09-May-2021 4413.51 4323.62 65.50 16.00 261.04 2938.18
   07:56:34.432.09-May-2021 4413.51 4323.62 65.50 16.00 261.24 2938.18
   07:56:34.632.09-May-2021 4413.51 4321.94 65.50 16.00 261.44 2938.18
   07:56:34.832.09-May-2021 4413.51 4324.26 65.50 16.00 261.64 2938.18
   07:56:35.032.09-May-2021 4413.51 4325.64 65.50 16.00 261.84 2938.18
   07:56:35.232.09-May-2021 4413.51 4325.41 65.50 16.00 262.04 2938.18
   07:56:35.432.09-May-2021 4413.51 4325.41 65.50 16.00 262.24 2938.18
   07:56:35.632.09-May-2021 4413.51 4325.16 65.50 16.00 262.44 2938.18
   07:56:35.832.09-May-2021 4413.51 4323.44 65.50 16.00 262.64 2938.18
   07:56:36.032.09-May-2021 4413.51 4323.17 65.50 16.00 262.84 2938.18
   07:56:36.232.09-May-2021 4413.51 4326.84 65.50 16.00 263.04 2938.18
   07:56:36.432.09-May-2021 4413.51 4326.84 65.50 16.00 263.24 2938.18
   07:56:36.632.09-May-2021 4413.51 4330.57 65.50 16.00 263.44 2938.18
   07:56:36.832.09-May-2021 4413.51 4329.06 65.50 16.00 263.64 2938.18
   07:56:37.032.09-May-2021 4413.51 4328.92 65.50 16.00 263.84 2938.18
   07:56:37.232.09-May-2021 4413.51 4328.85 65.50 16.00 264.04 2938.18
   07:56:37.432.09-May-2021 4413.51 4328.85 65.50 16.00 264.24 2938.18
   07:56:37.632.09-May-2021 4413.51 4328.67 65.50 16.00 264.44 2938.18
   07:56:37.832.09-May-2021 4413.51 4330.11 65.50 16.00 264.64 2938.18
   07:56:38.032.09-May-2021 4413.51 4328.38 65.50 16.00 264.84 2938.18
   07:56:38.232.09-May-2021 4413.51 4341.20 65.50 16.00 265.04 2938.18
   07:56:38.432.09-May-2021 4413.51 4341.20 65.50 16.00 265.24 2938.18
   07:56:38.632.09-May-2021 4413.51 4426.98 65.50 16.00 265.44 2938.18
   07:56:38.832.09-May-2021 4413.51 4427.48 65.50 16.00 265.64 2938.18
   07:56:39.032.09-May-2021 4413.51 4427.68 65.50 16.00 265.84 2938.18
   07:56:39.232.09-May-2021 4413.51 4427.81 65.50 16.00 266.04 2938.18
   07:56:39.432.09-May-2021 4413.51 4427.81 65.50 16.00 266.24 2938.18
   07:56:39.632.09-May-2021 4413.51 4428.00 65.50 16.00 266.44 2938.18
   07:56:39.832.09-May-2021 4413.51 4428.06 65.50 16.00 266.64 2938.18
   07:56:40.032.09-May-2021 4413.51 4428.19 65.50 16.00 266.84 2938.18
   07:56:40.232.09-May-2021 4413.51 4428.09 65.50 16.00 267.04 2938.18
   07:56:40.432.09-May-2021 4413.51 4428.09 65.50 16.00 267.24 2938.18
   07:56:40.632.09-May-2021 4413.51 4428.21 65.50 16.00 267.44 2938.18
   07:56:40.833.09-May-2021 4413.51 4428.32 65.50 16.00 267.64 2938.18
   07:56:41.033.09-May-2021 4413.51 4428.27 65.50 16.00 267.84 2938.18
   07:56:41.233.09-May-2021 4413.51 4428.33 65.50 16.00 268.04 2938.18
   07:56:41.433.09-May-2021 4413.51 4428.33 65.50 16.00 268.24 2938.18
   07:56:41.633.09-May-2021 4413.51 4428.38 65.50 16.00 268.44 2938.18
   07:56:41.833.09-May-2021 4413.51 4428.39 65.50 16.00 268.64 2938.18
   07:56:42.033.09-May-2021 4413.51 4428.42 65.50 16.00 268.84 2938.18
   07:56:42.233.09-May-2021 4413.51 4428.43 65.50 16.00 269.04 2938.18
   07:56:42.433.09-May-2021 4413.51 4428.43 65.50 16.00 269.24 2938.18
   07:56:42.633.09-May-2021 4413.51 4428.62 65.50 16.00 269.44 2938.18
   07:56:42.833.09-May-2021 4413.51 4428.33 65.50 16.00 269.64 2938.18
   07:56:43.033.09-May-2021 4413.51 4428.66 65.50 16.00 269.84 2938.18
   07:56:43.233.09-May-2021 4413.51 4428.38 65.50 16.00 270.04 2938.18
   07:56:43.433.09-May-2021 4413.51 4428.38 65.50 16.00 270.24 2938.18
   07:56:43.633.09-May-2021 4413.51 4428.62 65.50 16.00 270.44 2938.18
   07:56:43.833.09-May-2021 4413.51 4428.45 65.50 16.00 270.64 2938.18
   07:56:44.033.09-May-2021 4413.51 4428.44 65.50 16.00 270.84 2938.18
   07:56:44.233.09-May-2021 4413.51 4428.60 65.50 16.00 271.04 2938.18
