~Version Information
 VERS.                  2.0:   CWLS log ASCII Standard -VERSION 2.0
 WRAP.                   NO:   One line per depth step
~Well Information Block
#MNEM.UNIT     VALUE/NAME     DESCRIPTION
#---------     -----------    ---------------------------
 STRT.S             21:53:52 08-May-21: START TIME 21:53:52 08-May-21
 STOP.S             22:00:27 08-May-21: STOP TIME  22:00:27 08-May-21
 STEP.S                   0.00: STEP TIME
 NULL.                 -999.25: NULL VALUE
 PROV.                    Baku:  PROVINCE
 STAT.                    Baku:  STATE NAME
 SON .        AZ-XX-0906571588:  JOB NUMBER
 WTYP.                Deviated:  WELL TYPE
 COMP.     BP Exploration (Caspian Sea) ltd:  COMPANY
 BASE.              Azerbaijan:  LOGGING EQUIPMENT BASE LOCATION
 REGN.                   EESSA:  REGION
 CTRY.              Azerbaijan:  COUNTRY NAME
 FLD .                     ACG:  FIELD NAME
 WELL.                     J28:  WELL NAME
 RIG .             West Chirag:  RIG NAME
 DMF .             Drill Floor:  DRILL MEAS FROM
 PDAT.       Caspian Sea Level:  PERMANENT DATUM
 HPTY.       Minimum Curvature:  HOLE POS TYPE
 MDS .        Operator Entered:  MAG DATA SOURCE
 NREF.                    Grid:  NORTH REFERENCE
 SRVC.          TURAN DRILLING:  CONTRACTOR
 JOBN.        AZ-XX-0906571588:  JOB TICKET NUMB
 DCON.     Halliburton Sperry Drilling:  DIRECTNL CONTR
 STIM.      00.44.00 11-Feb-21:  START TIME
 DATE.      00.00.00 05-May-21:  END TIME
 SPUD.               13-Feb-21:  SPUD DATE
 MWDS.                    Baku:  MWD SHOP
 DOE .                     N/A:  DOE NUMBER
 UNIT.                     N/A:  LOGGING EQUIPMENT ID
 UWI .                     N/A:  UNIQUE WELL IDENTIFIER
 API .                     N/A:  API NUMBER
 CNTY.                        :  COUNTY
 LOC .                        :  LOCATION
 LMF .             Drill Floor:  LOG MEASURED FROM
 TVDS.m                  43.00:  TVDSS CORRECTN
 SDEP.m                 341.00:  START DEPTH
 EGL .m                   0.00:  GROUND ELEVATION
 WDMS.m                 169.80:  WD ELEV
 AGAP.m                  43.00:  AIR GAP
 EPD .m                   0.00:  ELEVATION
 APD .m                  43.00:  DEPTH ABOVE PD
 LATI.deg                40.13:  LATITUDE
 LONG.deg                51.22:  LONGITUDE
 UTMY.m             4443793.85:  UTM Y
 UTMX.m              519005.06:  UTM X
 WHEW.m                 -11.57:  WELL HEAD E/W
 WHNS.m                   8.57:  WELL HEAD N/S
 VSEW.m                 -11.57:  VERT SEC E/W
 VSNS.m                   8.57:  VERT SEC N/S
 DFWL.m                   0.00:  DISTANCE FWL
 DFSL.m                   0.00:  DISTANCE FSL
 VSDR.deg               299.34:  VERT SEC DIRECT
 GVFD.g                   1.00:  GRAVITY FIELD
 AZTC.deg                 6.36:  AZM TOTAL CORR
 MFLD.nT              50391.00:  MAGNETIC FIELD
 MDIP.deg                59.65:  MAGNETIC DIP
 MDEC.deg                 6.48:  MAGNETIC DECL
 GRDC.deg                 0.12:  GRID CORRECTION
 DEP .m                 334.96:  DEPTH
 TDD .m                1407.26:  TOTAL DEPTH (DRILLER)
 EKB .m                  43.00:  KB ELEVATION
 EDF .m                  43.00:  DF ELEVATION
 TDL .m                 228.00:  TOTAL DEPTH (LOGGER)
 VSC .                       0:  VS TO CLOSURE
 MAGU.                 1854484:  MAGUTM CHECKSUM
~Parameter Information Block
#MNEM.UNIT       Value        Description
#---------     -----------    ---------------------------
 AV  .mps                 4.00:  Ann Velocity 
 AVMX.mps                 4.73:  Max Ann Veloc 
 AZIF.deg               304.48:  Azm, Final 
 BHAT.        Rotary Steerable:  BHA Type 
 BREV.rev            257300.00:  Rev Bit Total 
 BROT.°/30m               0.00:  Build Rotating 
 BS  .in                  8.50:  Bit Size 
 BSZ .in                  8.50:  Bit Size 
 BTPL.psig              589.00:  Bit Press Loss 
 CABU.                      No:  Customer Abuse 
 CGEO.          Mubariz ghayev:  Customer Geo 
 COMM.                     ¤=s:  Run Comments 1 
 TCS .hr                 64.25:  Time Ciculation Ended 
 CV  .mps                 3.50:  Crit Velocity 
 CVMX.mps                 4.52:  Max Crit Veloc 
 DD1 .             Aziz Aliyev:  Direct Drillr 1 
 DD2 .         Intigam Rahimov:  Direct Drillr 2 
 DD3 .          Rashad Habibov:  Direct Drillr 3 
 DDSV.               Geo-Pilot:  DD Service 
 DEFF.%                  98.00:  % Det Eff 
 DLRX.°/30m               0.00:  Dogleg Rot Max 
 DLSO.°/30m               0.00:  Dogleg Oriented 
 DLSX.°/30m               0.00:  Dogleg Str Max 
 DRET.      10.45.04 08-May-21:  Drill End Time 
 DRST.      03.30.04 04-May-21:  Drill Start Tim 
 DTIM.hr                 14.97:  Time Drilling 
 EDEP.m                4640.01:  End Depth 
 ENG1.         Dail Mahammadov:  Engineer 1 
 ENG2.           Eldar Hajiyev:  Engineer 2 
 ENG3.       Bakhtiar Jabbarli:  Engineer 3 
 ENG4.       Natik Hasanagayev:  Engineer 4 
 ETIM.      09.30.04 14-May-21:  End Time 
 FLOI.gpm               460.00:  Flow In 
 FLON.gpm               200.00:  Flow In Min 
 FLOS.cptm                0.00:  Fluid Loss 
 FLOX.gpm               505.00:  Flow In Max 
 HFLO.                      No:  High Flow 
 HPRE.                      No:  High Pressure 
 HTEM.                      No:  High Temp 
 HYDO.m                   1.80:  Hydro Offset 
 IFIN.deg                66.71:  Inc, Final 
 IMAX.deg                67.03:  Inc Max 
 IMIN.deg                66.63:  Inc Min 
 IMND.m                4550.58:  Inc Min Depth 
 IMXD.m                4439.01:  Inc Max Depth 
 JARR.                      No:  Jarring 
 LETM.      10.45.04 08-May-21:  Log End Time 
 LOST.hr                     0:  Lost Rig Time 
 LSTM.      03.30.04 04-May-21:  Log Start Time 
 MDCL.ppm             37000.00:  Mud Chlorides 
 MDES.     Inversion Oil/Synthetic:  Mud Desc 
 DFD .sg                  1.38:  Mud Density 
 MDMN.sg                  1.35:  Dens Mud Min 
 MDMX.sg                  1.40:  Dens Mud Max 
 MOIL.                   57.40:  Run Mud Oil % 
 MOWR.                   70:30:  Run Mud OWR 
 MSND.                    0.00:  Run Mud Sand % 
 MSOL.                   18.00:  Run Mud Solids% 
 DFV .spqt               71.00:  Mud Viscosity 
 MWOD.in                  6.75:  MWD Tool OD 
 MWSI.                      No:  Serv Intrp, MWD 
 OTIM.hr                242.76:  Time Operating 
 PCON.           Look Like New:  Pad Condition 
 PMAX.psia            12183.92:  Press Op, Max 
 PV  .cP                 27.00:  Mud PV 
 RUN .                    1300:  Run Number 
 ROPA.m/hr               15.00:  ROP Avg 
 ROPN.m/hr                9.00:  ROP Min 
 ROPX.m/hr               19.00:  ROP Max 
 RPMA.rpm               120.00:  RPM Surface Avg 
 RPMN.rpm               100.00:  RPM Surface Min 
 RPMX.rpm               120.00:  RPM Surface Max 
 RRUN.                    1300:  Rig Run Number 
 RTIM.hr                  5.00:  Time Reaming 
 SAZI.deg               304.73:  Azm, Start 
 SDEP.m                4412.01:  Start Depth 
 SIDD.                      No:  Serv Intrp, DD 
 SINC.deg                66.82:  Inc, Start 
 SPPA.psig             2800.00:  SPP Avg 
 SPPN.psig             2610.00:  SPP Min 
 SPPX.psig             3100.00:  SPP Max 
 STIM.      03.30.00 04-May-21:  Start Time 
 SVCS.                 DD, MWD:  Services 
 SVER.                    9.20:  Sperry Version 
 TDAT.m                 228.00:  Tot Depth Attmp 
 TDDF.                      No:  Trip for DD 
 TDLG.m                 228.00:  Tot Depth Loggd 
 TFF .                      No:  Trip for Fail 
 TQAA.f-kp               15.00:  Torque Abs Avg 
 TQAN.f-kp               12.00:  Torque Abs Min 
 TQAX.f-kp               22.00:  Torque Abs Max 
 TRRT.°/30m               0.00:  Turn Rotating 
 MRT .                    HCIM:  Maximum Recorded Temperature 
 TTMX.degC               90.20:  Max Tool Temp 
 VS01.                90627813:  Virtual Str1 SN 
 VS02.                90634712:  Virtual Str2 SN 
 VS03.                90643410:  Virtual Str3 SN 
 VS04.                90634712:  Virtual Str4 SN 
 WBMN.klb                 9.00:  WOB Min 
 WITN.        Elmaddin Rahimov:  Customer Rep 
 WITN.         Haytham Mostafa:  Customer Rep 2 
 WOBA.klb                15.00:  WOB Avg 
 WOBX.klb                23.00:  WOB Max 
 YP  .lhf2               29.00:  Yield Point 
~Curve Information Block
#MNEM.UNIT                 API CODE     Curve Description
#---------               -----------    ---------------------------
 TIME.HHMMSS            00 000 000 000:  GT Time & Date
 GTDEPTH.m              00 000 000 000:  GT Depth
 GTPQH.psia             00 000 000 000:  GT HR Quartz Pressure
 GTTQ.degC              00 000 000 000:  GT Quartz Temperature
 GTTN.NONE              00 000 000 000:  GT Test Number
 GTET.sec               00 000 000 000:  GT Elapsed Test Time
 GTTVD.m                00 000 000 000:  GT True Vertical Depth
#Other Information
#
#WARRANTY: Halliburton will use its best efforts to furnish customers with 
#accurate information and interpretations that are part of, and incident to, the services 
#provided.  However, Halliburton cannot and does not warrant the accuracy 
#or correctness of such information and interpretations.  Under no circumstances should any 
#such information or interpretation be relied upon as the sole basis for any drilling, 
#completion, production, or financial decision or any procedure involving any risk to the 
#safety of any drilling venture, drilling rig or its crew or any other third party.  The 
#Customer has full responsibility for all drilling, completion and production operation.  
#Halliburton makes no representations or warranties, either expressed or 
#implied, including, but not limited to, the implied warranties of merchantability or fitness 
#for a particular purpose, with respect to the services rendered.  In no event will 
#Halliburton be liable for failure to obtain any particular results or for 
#any damages, including, but not limited to, indirect, special or consequential damages, 
#resulting from the use of any information or interpretation provided by Halliburton.
#
~A           TIME           GTDEPTH  GTPQH  GTTQ  GTTN  GTET   GTTVD  
# ...
   21:55:01.000.08-May-2021 4568.51  793.58 68.95 3.00  69.00 2999.18
   21:55:01.200.08-May-2021 4568.51  793.58 68.95 3.00  69.20 2999.18
   21:55:01.400.08-May-2021 4568.51  794.13 68.95 3.00  69.40 2999.18
   21:55:01.600.08-May-2021 4568.51  795.48 68.95 3.00  69.60 2999.18
   21:55:01.800.08-May-2021 4568.51  795.41 68.95 3.00  69.80 2999.18
   21:55:02.000.08-May-2021 4568.51  796.16 68.95 3.00  70.00 2999.18
   21:55:02.200.08-May-2021 4568.51  796.16 68.95 3.00  70.20 2999.18
   21:55:02.400.08-May-2021 4568.51  796.87 68.95 3.00  70.40 2999.18
   21:55:02.600.08-May-2021 4568.51  797.62 68.95 3.00  70.60 2999.18
   21:55:02.800.08-May-2021 4568.51  803.16 68.95 3.00  70.80 2999.18
   21:55:03.000.08-May-2021 4568.51  803.35 68.95 3.00  71.00 2999.18
   21:55:03.200.08-May-2021 4568.51  803.35 68.95 3.00  71.20 2999.18
   21:55:03.400.08-May-2021 4568.51  804.42 68.95 3.00  71.40 2999.18
   21:55:03.600.08-May-2021 4568.51  804.50 68.95 3.00  71.60 2999.18
   21:55:03.800.08-May-2021 4568.51  805.15 68.95 3.00  71.80 2999.18
   21:55:04.000.08-May-2021 4568.51  805.48 68.95 3.00  72.00 2999.18
   21:55:04.200.08-May-2021 4568.51  805.48 68.95 3.00  72.20 2999.18
   21:55:04.400.08-May-2021 4568.51  806.35 68.95 3.00  72.40 2999.18
   21:55:04.600.08-May-2021 4568.51  806.78 68.95 3.00  72.60 2999.18
   21:55:04.800.08-May-2021 4568.51  807.19 68.95 3.00  72.80 2999.18
   21:55:05.000.08-May-2021 4568.51  807.63 68.95 3.00  73.00 2999.18
   21:55:05.200.08-May-2021 4568.51  807.63 68.95 3.00  73.20 2999.18
   21:55:05.400.08-May-2021 4568.51  808.46 68.95 3.00  73.40 2999.18
   21:55:05.600.08-May-2021 4568.51  808.91 68.95 3.00  73.60 2999.18
   21:55:05.800.08-May-2021 4568.51  808.80 68.95 3.00  73.80 2999.18
   21:55:06.000.08-May-2021 4568.51  810.14 68.95 3.00  74.00 2999.18
   21:55:06.200.08-May-2021 4568.51  810.14 68.95 3.00  74.20 2999.18
   21:55:06.400.08-May-2021 4568.51  810.66 68.95 3.00  74.40 2999.18
   21:55:06.600.08-May-2021 4568.51  810.94 68.95 3.00  74.60 2999.18
   21:55:06.800.08-May-2021 4568.51  811.29 68.95 3.00  74.80 2999.18
   21:55:07.000.08-May-2021 4568.51  811.67 68.95 3.00  75.00 2999.18
   21:55:07.200.08-May-2021 4568.51  811.67 68.95 3.00  75.20 2999.18
   21:55:07.400.08-May-2021 4568.51  812.44 68.95 3.00  75.40 2999.18
   21:55:07.600.08-May-2021 4568.51  812.81 68.95 3.00  75.60 2999.18
   21:55:07.800.08-May-2021 4568.51  813.16 68.95 3.00  75.80 2999.18
   21:55:08.000.08-May-2021 4568.51  813.54 68.95 3.00  76.00 2999.18
   21:55:08.200.08-May-2021 4568.51  813.54 68.95 3.00  76.20 2999.18
   21:55:08.400.08-May-2021 4568.51  813.96 68.96 3.00  76.40 2999.18
   21:55:08.600.08-May-2021 4568.51  814.87 68.96 3.00  76.60 2999.18
   21:55:08.800.08-May-2021 4568.51  814.94 68.96 3.00  76.80 2999.18
   21:55:09.000.08-May-2021 4568.51  814.83 68.96 3.00  77.00 2999.18
   21:55:09.200.08-May-2021 4568.51  814.83 68.96 3.00  77.20 2999.18
   21:55:09.400.08-May-2021 4568.51  816.01 68.96 3.00  77.40 2999.18
   21:55:09.600.08-May-2021 4568.51  816.54 68.96 3.00  77.60 2999.18
   21:55:09.800.08-May-2021 4568.51  816.05 68.96 3.00  77.80 2999.18
   21:55:10.000.08-May-2021 4568.51  817.32 68.96 3.00  78.00 2999.18
   21:55:10.200.08-May-2021 4568.51  817.32 68.96 3.00  78.20 2999.18
   21:55:10.400.08-May-2021 4568.51  825.35 68.96 3.00  78.40 2999.18
   21:55:10.600.08-May-2021 4568.51  826.94 68.96 3.00  78.60 2999.18
   21:55:10.800.08-May-2021 4568.51  827.14 68.96 3.00  78.80 2999.18
   21:55:11.000.08-May-2021 4568.51  827.00 68.96 3.00  79.00 2999.18
   21:55:11.200.08-May-2021 4568.51  827.00 68.96 3.00  79.20 2999.18
   21:55:11.400.08-May-2021 4568.51  828.00 68.96 3.00  79.40 2999.18
   21:55:11.600.08-May-2021 4568.51  828.34 68.96 3.00  79.60 2999.18
   21:55:11.800.08-May-2021 4568.51  828.67 68.96 3.00  79.80 2999.18
   21:55:12.000.08-May-2021 4568.51  828.93 68.96 3.00  80.00 2999.18
   21:55:12.200.08-May-2021 4568.51  828.93 68.96 3.00  80.20 2999.18
   21:55:12.400.08-May-2021 4568.51  829.57 68.96 3.00  80.40 2999.18
   21:55:12.600.08-May-2021 4568.51  829.90 68.96 3.00  80.60 2999.18
   21:55:12.800.08-May-2021 4568.51  830.21 68.96 3.00  80.80 2999.18
   21:55:13.000.08-May-2021 4568.51  830.51 68.96 3.00  81.00 2999.18
   21:55:13.200.08-May-2021 4568.51  830.51 68.96 3.00  81.20 2999.18
   21:55:13.400.08-May-2021 4568.51  831.09 68.96 3.00  81.40 2999.18
   21:55:13.600.08-May-2021 4568.51  831.01 68.96 3.00  81.60 2999.18
   21:55:13.800.08-May-2021 4568.51  832.17 68.96 3.00  81.80 2999.18
   21:55:14.000.08-May-2021 4568.51  832.08 68.96 3.00  82.00 2999.18
   21:55:14.200.08-May-2021 4568.51  832.08 68.96 3.00  82.20 2999.18
   21:55:14.400.08-May-2021 4568.51  832.64 68.96 3.00  82.40 2999.18
   21:55:14.600.08-May-2021 4568.51  832.90 68.96 3.00  82.60 2999.18
   21:55:14.800.08-May-2021 4568.51  833.18 68.96 3.00  82.80 2999.18
   21:55:15.000.08-May-2021 4568.51  833.45 68.96 3.00  83.00 2999.18
   21:55:15.200.08-May-2021 4568.51  833.45 68.96 3.00  83.20 2999.18
   21:55:15.400.08-May-2021 4568.51  833.99 68.96 3.00  83.40 2999.18
   21:55:15.600.08-May-2021 4568.51  834.26 68.96 3.00  83.60 2999.18
   21:55:15.800.08-May-2021 4568.51  834.54 68.96 3.00  83.80 2999.18
   21:55:16.000.08-May-2021 4568.51  834.48 68.96 3.00  84.00 2999.18
   21:55:16.200.08-May-2021 4568.51  834.48 68.96 3.00  84.20 2999.18
   21:55:16.400.08-May-2021 4568.51  835.62 68.96 3.00  84.40 2999.18
   21:55:16.600.08-May-2021 4568.51  835.66 68.96 3.00  84.60 2999.18
   21:55:16.800.08-May-2021 4568.51  835.87 68.96 3.00  84.80 2999.18
   21:55:17.000.08-May-2021 4568.51  835.77 68.96 3.00  85.00 2999.18
   21:55:17.200.08-May-2021 4568.51  835.77 68.96 3.00  85.20 2999.18
   21:55:17.400.08-May-2021 4568.51  836.76 68.96 3.00  85.40 2999.18
   21:55:17.600.08-May-2021 4568.51  836.43 68.96 3.00  85.60 2999.18
   21:55:17.800.08-May-2021 4568.51  837.57 68.96 3.00  85.80 2999.18
   21:55:18.000.08-May-2021 4568.51  837.36 68.96 3.00  86.00 2999.18
   21:55:18.200.08-May-2021 4568.51  837.36 68.96 3.00  86.20 2999.18
   21:55:18.400.08-May-2021 4568.51  837.46 68.96 3.00  86.40 2999.18
   21:55:18.600.08-May-2021 4568.51  837.98 68.96 3.00  86.60 2999.18
   21:55:18.800.08-May-2021 4568.51  838.48 68.96 3.00  86.80 2999.18
   21:55:19.000.08-May-2021 4568.51  838.57 68.96 3.00  87.00 2999.18
   21:55:19.200.08-May-2021 4568.51  838.57 68.96 3.00  87.20 2999.18
   21:55:19.400.08-May-2021 4568.51  838.95 68.96 3.00  87.40 2999.18
   21:55:19.600.08-May-2021 4568.51  839.25 68.96 3.00  87.60 2999.18
   21:55:19.800.08-May-2021 4568.51  839.49 68.96 3.00  87.80 2999.18
   21:55:20.000.08-May-2021 4568.51  839.73 68.96 3.00  88.00 2999.18
   21:55:20.200.08-May-2021 4568.51  839.73 68.96 3.00  88.20 2999.18
   21:55:20.400.08-May-2021 4568.51  840.21 68.96 3.00  88.40 2999.18
   21:55:20.600.08-May-2021 4568.51  840.46 68.96 3.00  88.60 2999.18
   21:55:20.800.08-May-2021 4568.51  840.70 68.96 3.00  88.80 2999.18
   21:55:21.000.08-May-2021 4568.51  840.56 68.96 3.00  89.00 2999.18
   21:55:21.200.08-May-2021 4568.51  840.56 68.96 3.00  89.20 2999.18
   21:55:21.400.08-May-2021 4568.51  841.41 68.96 3.00  89.40 2999.18
   21:55:21.600.08-May-2021 4568.51  841.90 68.96 3.00  89.60 2999.18
   21:55:21.800.08-May-2021 4568.51  841.90 68.96 3.00  89.80 2999.18
   21:55:22.000.08-May-2021 4568.51  842.11 68.96 3.00  90.00 2999.18
   21:55:22.200.08-May-2021 4568.51  842.11 68.96 3.00  90.20 2999.18
   21:55:22.400.08-May-2021 4568.51  842.57 68.96 3.00  90.40 2999.18
   21:55:22.600.08-May-2021 4568.51  842.81 68.96 3.00  90.60 2999.18
   21:55:22.800.08-May-2021 4568.51  843.01 68.96 3.00  90.80 2999.18
   21:55:23.000.08-May-2021 4568.51  843.21 68.96 3.00  91.00 2999.18
   21:55:23.200.08-May-2021 4568.51  843.21 68.96 3.00  91.20 2999.18
   21:55:23.400.08-May-2021 4568.51  843.63 68.96 3.00  91.40 2999.18
   21:55:23.600.08-May-2021 4568.51  843.32 68.97 3.00  91.60 2999.18
   21:55:23.800.08-May-2021 4568.51  844.54 68.97 3.00  91.80 2999.18
