~Version Information
 VERS.                  2.0:   CWLS log ASCII Standard -VERSION 2.0
 WRAP.                   NO:   One line per depth step
~Well Information Block
#MNEM.UNIT     VALUE/NAME     DESCRIPTION
#---------     -----------    ---------------------------
 STRT.S             05:06:20 09-May-21: START TIME 05:06:20 09-May-21
 STOP.S             05:13:20 09-May-21: STOP TIME  05:13:20 09-May-21
 STEP.S                   0.00: STEP TIME
 NULL.                 -999.25: NULL VALUE
 PROV.                    Baku:  PROVINCE
 STAT.                    Baku:  STATE NAME
 SON .        AZ-XX-0906571588:  JOB NUMBER
 WTYP.                Deviated:  WELL TYPE
 COMP.     BP Exploration (Caspian Sea) ltd:  COMPANY
 BASE.              Azerbaijan:  LOGGING EQUIPMENT BASE LOCATION
 REGN.                   EESSA:  REGION
 CTRY.              Azerbaijan:  COUNTRY NAME
 FLD .                     ACG:  FIELD NAME
 WELL.                     J28:  WELL NAME
 RIG .             West Chirag:  RIG NAME
 DMF .             Drill Floor:  DRILL MEAS FROM
 PDAT.       Caspian Sea Level:  PERMANENT DATUM
 HPTY.       Minimum Curvature:  HOLE POS TYPE
 MDS .        Operator Entered:  MAG DATA SOURCE
 NREF.                    Grid:  NORTH REFERENCE
 SRVC.          TURAN DRILLING:  CONTRACTOR
 JOBN.        AZ-XX-0906571588:  JOB TICKET NUMB
 DCON.     Halliburton Sperry Drilling:  DIRECTNL CONTR
 STIM.      00.44.00 11-Feb-21:  START TIME
 DATE.      00.00.00 05-May-21:  END TIME
 SPUD.               13-Feb-21:  SPUD DATE
 MWDS.                    Baku:  MWD SHOP
 DOE .                     N/A:  DOE NUMBER
 UNIT.                     N/A:  LOGGING EQUIPMENT ID
 UWI .                     N/A:  UNIQUE WELL IDENTIFIER
 API .                     N/A:  API NUMBER
 CNTY.                        :  COUNTY
 LOC .                        :  LOCATION
 LMF .             Drill Floor:  LOG MEASURED FROM
 TVDS.m                  43.00:  TVDSS CORRECTN
 SDEP.m                 341.00:  START DEPTH
 EGL .m                   0.00:  GROUND ELEVATION
 WDMS.m                 169.80:  WD ELEV
 AGAP.m                  43.00:  AIR GAP
 EPD .m                   0.00:  ELEVATION
 APD .m                  43.00:  DEPTH ABOVE PD
 LATI.deg                40.13:  LATITUDE
 LONG.deg                51.22:  LONGITUDE
 UTMY.m             4443793.85:  UTM Y
 UTMX.m              519005.06:  UTM X
 WHEW.m                 -11.57:  WELL HEAD E/W
 WHNS.m                   8.57:  WELL HEAD N/S
 VSEW.m                 -11.57:  VERT SEC E/W
 VSNS.m                   8.57:  VERT SEC N/S
 DFWL.m                   0.00:  DISTANCE FWL
 DFSL.m                   0.00:  DISTANCE FSL
 VSDR.deg               299.34:  VERT SEC DIRECT
 GVFD.g                   1.00:  GRAVITY FIELD
 AZTC.deg                 6.36:  AZM TOTAL CORR
 MFLD.nT              50391.00:  MAGNETIC FIELD
 MDIP.deg                59.65:  MAGNETIC DIP
 MDEC.deg                 6.48:  MAGNETIC DECL
 GRDC.deg                 0.12:  GRID CORRECTION
 DEP .m                 334.96:  DEPTH
 TDD .m                1407.26:  TOTAL DEPTH (DRILLER)
 EKB .m                  43.00:  KB ELEVATION
 EDF .m                  43.00:  DF ELEVATION
 TDL .m                 228.00:  TOTAL DEPTH (LOGGER)
 VSC .                       0:  VS TO CLOSURE
 MAGU.                 1854484:  MAGUTM CHECKSUM
~Parameter Information Block
#MNEM.UNIT       Value        Description
#---------     -----------    ---------------------------
 AV  .mps                 4.00:  Ann Velocity 
 AVMX.mps                 4.73:  Max Ann Veloc 
 AZIF.deg               304.48:  Azm, Final 
 BHAT.        Rotary Steerable:  BHA Type 
 BREV.rev            257300.00:  Rev Bit Total 
 BROT.°/30m               0.00:  Build Rotating 
 BS  .in                  8.50:  Bit Size 
 BSZ .in                  8.50:  Bit Size 
 BTPL.psig              589.00:  Bit Press Loss 
 CABU.                      No:  Customer Abuse 
 CGEO.          Mubariz ghayev:  Customer Geo 
 COMM.                     ¼8\:  Run Comments 1 
 TCS .hr                 64.25:  Time Ciculation Ended 
 CV  .mps                 3.50:  Crit Velocity 
 CVMX.mps                 4.52:  Max Crit Veloc 
 DD1 .             Aziz Aliyev:  Direct Drillr 1 
 DD2 .         Intigam Rahimov:  Direct Drillr 2 
 DD3 .          Rashad Habibov:  Direct Drillr 3 
 DDSV.               Geo-Pilot:  DD Service 
 DEFF.%                  98.00:  % Det Eff 
 DLRX.°/30m               0.00:  Dogleg Rot Max 
 DLSO.°/30m               0.00:  Dogleg Oriented 
 DLSX.°/30m               0.00:  Dogleg Str Max 
 DRET.      10.45.04 08-May-21:  Drill End Time 
 DRST.      03.30.04 04-May-21:  Drill Start Tim 
 DTIM.hr                 14.97:  Time Drilling 
 EDEP.m                4640.01:  End Depth 
 ENG1.         Dail Mahammadov:  Engineer 1 
 ENG2.           Eldar Hajiyev:  Engineer 2 
 ENG3.       Bakhtiar Jabbarli:  Engineer 3 
 ENG4.       Natik Hasanagayev:  Engineer 4 
 ETIM.      09.30.04 14-May-21:  End Time 
 FLOI.gpm               460.00:  Flow In 
 FLON.gpm               200.00:  Flow In Min 
 FLOS.cptm                0.00:  Fluid Loss 
 FLOX.gpm               505.00:  Flow In Max 
 HFLO.                      No:  High Flow 
 HPRE.                      No:  High Pressure 
 HTEM.                      No:  High Temp 
 HYDO.m                   1.80:  Hydro Offset 
 IFIN.deg                66.71:  Inc, Final 
 IMAX.deg                67.03:  Inc Max 
 IMIN.deg                66.63:  Inc Min 
 IMND.m                4550.58:  Inc Min Depth 
 IMXD.m                4439.01:  Inc Max Depth 
 JARR.                      No:  Jarring 
 LETM.      10.45.04 08-May-21:  Log End Time 
 LOST.hr                     0:  Lost Rig Time 
 LSTM.      03.30.04 04-May-21:  Log Start Time 
 MDCL.ppm             37000.00:  Mud Chlorides 
 MDES.     Inversion Oil/Synthetic:  Mud Desc 
 DFD .sg                  1.38:  Mud Density 
 MDMN.sg                  1.35:  Dens Mud Min 
 MDMX.sg                  1.40:  Dens Mud Max 
 MOIL.                   57.40:  Run Mud Oil % 
 MOWR.                   70:30:  Run Mud OWR 
 MSND.                    0.00:  Run Mud Sand % 
 MSOL.                   18.00:  Run Mud Solids% 
 DFV .spqt               71.00:  Mud Viscosity 
 MWOD.in                  6.75:  MWD Tool OD 
 MWSI.                      No:  Serv Intrp, MWD 
 OTIM.hr                242.76:  Time Operating 
 PCON.           Look Like New:  Pad Condition 
 PMAX.psia            12183.92:  Press Op, Max 
 PV  .cP                 27.00:  Mud PV 
 RUN .                    1300:  Run Number 
 ROPA.m/hr               15.00:  ROP Avg 
 ROPN.m/hr                9.00:  ROP Min 
 ROPX.m/hr               19.00:  ROP Max 
 RPMA.rpm               120.00:  RPM Surface Avg 
 RPMN.rpm               100.00:  RPM Surface Min 
 RPMX.rpm               120.00:  RPM Surface Max 
 RRUN.                    1300:  Rig Run Number 
 RTIM.hr                  5.00:  Time Reaming 
 SAZI.deg               304.73:  Azm, Start 
 SDEP.m                4412.01:  Start Depth 
 SIDD.                      No:  Serv Intrp, DD 
 SINC.deg                66.82:  Inc, Start 
 SPPA.psig             2800.00:  SPP Avg 
 SPPN.psig             2610.00:  SPP Min 
 SPPX.psig             3100.00:  SPP Max 
 STIM.      03.30.00 04-May-21:  Start Time 
 SVCS.                 DD, MWD:  Services 
 SVER.                    9.20:  Sperry Version 
 TDAT.m                 228.00:  Tot Depth Attmp 
 TDDF.                      No:  Trip for DD 
 TDLG.m                 228.00:  Tot Depth Loggd 
 TFF .                      No:  Trip for Fail 
 TQAA.f-kp               15.00:  Torque Abs Avg 
 TQAN.f-kp               12.00:  Torque Abs Min 
 TQAX.f-kp               22.00:  Torque Abs Max 
 TRRT.°/30m               0.00:  Turn Rotating 
 MRT .                    HCIM:  Maximum Recorded Temperature 
 TTMX.degC               90.20:  Max Tool Temp 
 VS01.                90627813:  Virtual Str1 SN 
 VS02.                90634712:  Virtual Str2 SN 
 VS03.                90643410:  Virtual Str3 SN 
 VS04.                90634712:  Virtual Str4 SN 
 WBMN.klb                 9.00:  WOB Min 
 WITN.        Elmaddin Rahimov:  Customer Rep 
 WITN.         Haytham Mostafa:  Customer Rep 2 
 WOBA.klb                15.00:  WOB Avg 
 WOBX.klb                23.00:  WOB Max 
 YP  .lhf2               29.00:  Yield Point 
~Curve Information Block
#MNEM.UNIT                 API CODE     Curve Description
#---------               -----------    ---------------------------
 TIME.HHMMSS            00 000 000 000:  GT Time & Date
 GTDEPTH.m              00 000 000 000:  GT Depth
 GTPQH.psia             00 000 000 000:  GT HR Quartz Pressure
 GTTQ.degC              00 000 000 000:  GT Quartz Temperature
 GTTN.NONE              00 000 000 000:  GT Test Number
 GTET.sec               00 000 000 000:  GT Elapsed Test Time
 GTTVD.m                00 000 000 000:  GT True Vertical Depth
#Other Information
#
#WARRANTY: Halliburton will use its best efforts to furnish customers with 
#accurate information and interpretations that are part of, and incident to, the services 
#provided.  However, Halliburton cannot and does not warrant the accuracy 
#or correctness of such information and interpretations.  Under no circumstances should any 
#such information or interpretation be relied upon as the sole basis for any drilling, 
#completion, production, or financial decision or any procedure involving any risk to the 
#safety of any drilling venture, drilling rig or its crew or any other third party.  The 
#Customer has full responsibility for all drilling, completion and production operation.  
#Halliburton makes no representations or warranties, either expressed or 
#implied, including, but not limited to, the implied warranties of merchantability or fitness 
#for a particular purpose, with respect to the services rendered.  In no event will 
#Halliburton be liable for failure to obtain any particular results or for 
#any damages, including, but not limited to, indirect, special or consequential damages, 
#resulting from the use of any information or interpretation provided by Halliburton.
#
~A           TIME           GTDEPTH  GTPQH  GTTQ  GTTN   GTET   GTTVD  
# ...
   05:13:06.800.09-May-2021 4452.51 6579.74 66.86 13.00 406.80 2953.46
   05:13:07.000.09-May-2021 4452.51 6582.10 66.86 13.00 407.00 2953.46
   05:13:07.200.09-May-2021 4452.51 6582.10 66.86 13.00 407.20 2953.46
   05:13:07.400.09-May-2021 4452.51 6579.74 66.86 13.00 407.40 2953.46
   05:13:07.600.09-May-2021 4452.51 6586.09 66.86 13.00 407.60 2953.46
   05:13:07.800.09-May-2021 4452.51 6578.76 66.86 13.00 407.80 2953.46
   05:13:08.000.09-May-2021 4452.51 6590.76 66.86 13.00 408.00 2953.46
   05:13:08.200.09-May-2021 4452.51 6590.76 66.86 13.00 408.20 2953.46
   05:13:08.400.09-May-2021 4452.51 6587.99 66.86 13.00 408.40 2953.46
   05:13:08.600.09-May-2021 4452.51 6578.74 66.86 13.00 408.60 2953.46
   05:13:08.800.09-May-2021 4452.51 6581.25 66.86 13.00 408.80 2953.46
   05:13:09.000.09-May-2021 4452.51 6580.25 66.86 13.00 409.00 2953.46
   05:13:09.200.09-May-2021 4452.51 6580.25 66.86 13.00 409.20 2953.46
   05:13:09.400.09-May-2021 4452.51 6578.59 66.86 13.00 409.40 2953.46
   05:13:09.600.09-May-2021 4452.51 6585.76 66.86 13.00 409.60 2953.46
   05:13:09.800.09-May-2021 4452.51 6578.38 66.86 13.00 409.80 2953.46
   05:13:10.000.09-May-2021 4452.51 6581.32 66.86 13.00 410.00 2953.46
   05:13:10.200.09-May-2021 4452.51 6581.32 66.86 13.00 410.20 2953.46
   05:13:10.400.09-May-2021 4452.51 6578.91 66.86 13.00 410.40 2953.46
   05:13:10.600.09-May-2021 4452.51 6578.11 66.86 13.00 410.60 2953.46
   05:13:10.800.09-May-2021 4452.51 6578.44 66.86 13.00 410.80 2953.46
   05:13:11.000.09-May-2021 4452.51 6578.65 66.86 13.00 411.00 2953.46
   05:13:11.200.09-May-2021 4452.51 6578.65 66.86 13.00 411.20 2953.46
   05:13:11.400.09-May-2021 4452.51 6578.57 66.86 13.00 411.40 2953.46
   05:13:11.600.09-May-2021 4452.51 6580.17 66.86 13.00 411.60 2953.46
   05:13:11.800.09-May-2021 4452.51 6584.98 66.86 13.00 411.80 2953.46
   05:13:12.000.09-May-2021 4452.51 6578.81 66.86 13.00 412.00 2953.46
   05:13:12.200.09-May-2021 4452.51 6578.81 66.86 13.00 412.20 2953.46
   05:13:12.400.09-May-2021 4452.51 6578.28 66.86 13.00 412.40 2953.46
   05:13:12.600.09-May-2021 4452.51 6580.94 66.86 13.00 412.60 2953.46
   05:13:12.800.09-May-2021 4452.51 6577.97 66.85 13.00 412.80 2953.46
   05:13:13.000.09-May-2021 4452.51 6578.49 66.85 13.00 413.00 2953.46
   05:13:13.200.09-May-2021 4452.51 6578.49 66.85 13.00 413.20 2953.46
   05:13:13.400.09-May-2021 4452.51 6577.72 66.85 13.00 413.40 2953.46
   05:13:13.600.09-May-2021 4452.51 6577.47 66.85 13.00 413.60 2953.46
   05:13:13.800.09-May-2021 4452.51 6577.89 66.85 13.00 413.80 2953.46
   05:13:14.000.09-May-2021 4452.51 6577.90 66.85 13.00 414.00 2953.46
   05:13:14.200.09-May-2021 4452.51 6577.90 66.85 13.00 414.20 2953.46
   05:13:14.400.09-May-2021 4452.51 6585.58 66.85 13.00 414.40 2953.46
   05:13:14.600.09-May-2021 4452.51 6576.91 66.85 13.00 414.60 2953.46
   05:13:14.800.09-May-2021 4452.51 6583.74 66.85 13.00 414.80 2953.46
   05:13:15.000.09-May-2021 4452.51 6580.55 66.85 13.00 415.00 2953.46
   05:13:15.200.09-May-2021 4452.51 6580.55 66.85 13.00 415.20 2953.46
   05:13:15.400.09-May-2021 4452.51 6578.69 66.85 13.00 415.40 2953.46
   05:13:15.600.09-May-2021 4452.51 6586.93 66.85 13.00 415.60 2953.46
   05:13:15.800.09-May-2021 4452.51 6577.02 66.85 13.00 415.80 2953.46
   05:13:16.000.09-May-2021 4452.51 6586.55 66.85 13.00 416.00 2953.46
   05:13:16.200.09-May-2021 4452.51 6586.55 66.85 13.00 416.20 2953.46
   05:13:16.400.09-May-2021 4452.51 6589.50 66.85 13.00 416.40 2953.46
   05:13:16.600.09-May-2021 4452.51 6576.73 66.85 13.00 416.60 2953.46
   05:13:16.800.09-May-2021 4452.51 6587.80 66.85 13.00 416.80 2953.46
   05:13:17.000.09-May-2021 4452.51 6578.29 66.85 13.00 417.00 2953.46
   05:13:17.200.09-May-2021 4452.51 6578.29 66.85 13.00 417.20 2953.46
   05:13:17.400.09-May-2021 4452.51 6586.78 66.85 13.00 417.40 2953.46
   05:13:17.600.09-May-2021 4452.51 6578.58 66.85 13.00 417.60 2953.46
   05:13:17.800.09-May-2021 4452.51 6584.27 66.85 13.00 417.80 2953.46
   05:13:18.000.09-May-2021 4452.51 6580.63 66.85 13.00 418.00 2953.46
   05:13:18.200.09-May-2021 4452.51 6580.63 66.85 13.00 418.20 2953.46
   05:13:18.400.09-May-2021 4452.51 6579.47 66.85 13.00 418.40 2953.46
   05:13:18.600.09-May-2021 4452.51 6578.00 66.85 13.00 418.60 2953.46
   05:13:18.800.09-May-2021 4452.51 6578.19 66.85 13.00 418.80 2953.46
   05:13:19.000.09-May-2021 4452.51 6577.94 66.85 13.00 419.00 2953.46
   05:13:19.200.09-May-2021 4452.51 6577.94 66.85 13.00 419.20 2953.46
   05:13:19.400.09-May-2021 4452.51 6578.58 66.85 13.00 419.40 2953.46
   05:13:19.600.09-May-2021 4452.51 6578.84 66.85 13.00 419.60 2953.46
   05:13:19.800.09-May-2021 4452.51 6578.52 66.85 13.00 419.80 2953.46
   05:13:20.000.09-May-2021 4452.51 6586.76 66.85 13.00 420.00 2953.46
   05:13:20.200.09-May-2021 4452.51 6586.76 66.85 13.00 420.20 2953.46
   05:13:20.400.09-May-2021 4452.51 6584.32 66.85 13.00 420.40 2953.46
   05:13:20.600.09-May-2021 4452.51 6580.82 66.85 13.00 420.60 2953.46
   05:13:20.800.09-May-2021 4452.51 6579.36 66.85 13.00 420.80 2953.46
