~Version Information
 VERS.                  2.0:   CWLS log ASCII Standard -VERSION 2.0
 WRAP.                   NO:   One line per depth step
~Well Information Block
#MNEM.UNIT     VALUE/NAME     DESCRIPTION
#---------     -----------    ---------------------------
 STRT.S             23:07:02 09-May-21: START TIME 23:07:02 09-May-21
 STOP.S             23:13:42 09-May-21: STOP TIME  23:13:42 09-May-21
 STEP.S                   0.00: STEP TIME
 NULL.                 -999.25: NULL VALUE
 PROV.                    Baku:  PROVINCE
 STAT.                    Baku:  STATE NAME
 SON .        AZ-XX-0906571588:  JOB NUMBER
 WTYP.                Deviated:  WELL TYPE
 COMP.     BP Exploration (Caspian Sea) ltd:  COMPANY
 BASE.              Azerbaijan:  LOGGING EQUIPMENT BASE LOCATION
 REGN.                   EESSA:  REGION
 CTRY.              Azerbaijan:  COUNTRY NAME
 FLD .                     ACG:  FIELD NAME
 WELL.                     J28:  WELL NAME
 RIG .             West Chirag:  RIG NAME
 DMF .             Drill Floor:  DRILL MEAS FROM
 PDAT.       Caspian Sea Level:  PERMANENT DATUM
 HPTY.       Minimum Curvature:  HOLE POS TYPE
 MDS .        Operator Entered:  MAG DATA SOURCE
 NREF.                    Grid:  NORTH REFERENCE
 SRVC.          TURAN DRILLING:  CONTRACTOR
 JOBN.        AZ-XX-0906571588:  JOB TICKET NUMB
 DCON.     Halliburton Sperry Drilling:  DIRECTNL CONTR
 STIM.      00.44.00 11-Feb-21:  START TIME
 DATE.      00.00.00 05-May-21:  END TIME
 SPUD.               13-Feb-21:  SPUD DATE
 MWDS.                    Baku:  MWD SHOP
 DOE .                     N/A:  DOE NUMBER
 UNIT.                     N/A:  LOGGING EQUIPMENT ID
 UWI .                     N/A:  UNIQUE WELL IDENTIFIER
 API .                     N/A:  API NUMBER
 CNTY.                        :  COUNTY
 LOC .                        :  LOCATION
 LMF .             Drill Floor:  LOG MEASURED FROM
 TVDS.m                  43.00:  TVDSS CORRECTN
 SDEP.m                 341.00:  START DEPTH
 EGL .m                   0.00:  GROUND ELEVATION
 WDMS.m                 169.80:  WD ELEV
 AGAP.m                  43.00:  AIR GAP
 EPD .m                   0.00:  ELEVATION
 APD .m                  43.00:  DEPTH ABOVE PD
 LATI.deg                40.13:  LATITUDE
 LONG.deg                51.22:  LONGITUDE
 UTMY.m             4443793.85:  UTM Y
 UTMX.m              519005.06:  UTM X
 WHEW.m                 -11.57:  WELL HEAD E/W
 WHNS.m                   8.57:  WELL HEAD N/S
 VSEW.m                 -11.57:  VERT SEC E/W
 VSNS.m                   8.57:  VERT SEC N/S
 DFWL.m                   0.00:  DISTANCE FWL
 DFSL.m                   0.00:  DISTANCE FSL
 VSDR.deg               299.34:  VERT SEC DIRECT
 GVFD.g                   1.00:  GRAVITY FIELD
 AZTC.deg                 6.36:  AZM TOTAL CORR
 MFLD.nT              50391.00:  MAGNETIC FIELD
 MDIP.deg                59.65:  MAGNETIC DIP
 MDEC.deg                 6.48:  MAGNETIC DECL
 GRDC.deg                 0.12:  GRID CORRECTION
 DEP .m                 334.96:  DEPTH
 TDD .m                1407.26:  TOTAL DEPTH (DRILLER)
 EKB .m                  43.00:  KB ELEVATION
 EDF .m                  43.00:  DF ELEVATION
 TDL .m                 228.00:  TOTAL DEPTH (LOGGER)
 VSC .                       0:  VS TO CLOSURE
 MAGU.                 1854484:  MAGUTM CHECKSUM
~Parameter Information Block
#MNEM.UNIT       Value        Description
#---------     -----------    ---------------------------
 AV  .mps                 4.00:  Ann Velocity 
 AVMX.mps                 4.73:  Max Ann Veloc 
 AZIF.deg               304.48:  Azm, Final 
 BHAT.        Rotary Steerable:  BHA Type 
 BREV.rev            257300.00:  Rev Bit Total 
 BROT.°/30m               0.00:  Build Rotating 
 BS  .in                  8.50:  Bit Size 
 BSZ .in                  8.50:  Bit Size 
 BTPL.psig              589.00:  Bit Press Loss 
 CABU.                      No:  Customer Abuse 
 CGEO.          Mubariz ghayev:  Customer Geo 
 COMM.                     d:  Run Comments 1 
 TCS .hr                 64.25:  Time Ciculation Ended 
 CV  .mps                 3.50:  Crit Velocity 
 CVMX.mps                 4.52:  Max Crit Veloc 
 DD1 .             Aziz Aliyev:  Direct Drillr 1 
 DD2 .         Intigam Rahimov:  Direct Drillr 2 
 DD3 .          Rashad Habibov:  Direct Drillr 3 
 DDSV.               Geo-Pilot:  DD Service 
 DEFF.%                  98.00:  % Det Eff 
 DLRX.°/30m               0.00:  Dogleg Rot Max 
 DLSO.°/30m               0.00:  Dogleg Oriented 
 DLSX.°/30m               0.00:  Dogleg Str Max 
 DRET.      10.45.04 08-May-21:  Drill End Time 
 DRST.      03.30.04 04-May-21:  Drill Start Tim 
 DTIM.hr                 14.97:  Time Drilling 
 EDEP.m                4640.01:  End Depth 
 ENG1.         Dail Mahammadov:  Engineer 1 
 ENG2.           Eldar Hajiyev:  Engineer 2 
 ENG3.       Bakhtiar Jabbarli:  Engineer 3 
 ENG4.       Natik Hasanagayev:  Engineer 4 
 ETIM.      09.30.04 14-May-21:  End Time 
 FLOI.gpm               460.00:  Flow In 
 FLON.gpm               200.00:  Flow In Min 
 FLOS.cptm                0.00:  Fluid Loss 
 FLOX.gpm               505.00:  Flow In Max 
 HFLO.                      No:  High Flow 
 HPRE.                      No:  High Pressure 
 HTEM.                      No:  High Temp 
 HYDO.m                   1.80:  Hydro Offset 
 IFIN.deg                66.71:  Inc, Final 
 IMAX.deg                67.03:  Inc Max 
 IMIN.deg                66.63:  Inc Min 
 IMND.m                4550.58:  Inc Min Depth 
 IMXD.m                4439.01:  Inc Max Depth 
 JARR.                      No:  Jarring 
 LETM.      10.45.04 08-May-21:  Log End Time 
 LOST.hr                     0:  Lost Rig Time 
 LSTM.      03.30.04 04-May-21:  Log Start Time 
 MDCL.ppm             37000.00:  Mud Chlorides 
 MDES.     Inversion Oil/Synthetic:  Mud Desc 
 DFD .sg                  1.38:  Mud Density 
 MDMN.sg                  1.35:  Dens Mud Min 
 MDMX.sg                  1.40:  Dens Mud Max 
 MOIL.                   57.40:  Run Mud Oil % 
 MOWR.                   70:30:  Run Mud OWR 
 MSND.                    0.00:  Run Mud Sand % 
 MSOL.                   18.00:  Run Mud Solids% 
 DFV .spqt               71.00:  Mud Viscosity 
 MWOD.in                  6.75:  MWD Tool OD 
 MWSI.                      No:  Serv Intrp, MWD 
 OTIM.hr                242.76:  Time Operating 
 PCON.           Look Like New:  Pad Condition 
 PMAX.psia            12183.92:  Press Op, Max 
 PV  .cP                 27.00:  Mud PV 
 RUN .                    1300:  Run Number 
 ROPA.m/hr               15.00:  ROP Avg 
 ROPN.m/hr                9.00:  ROP Min 
 ROPX.m/hr               19.00:  ROP Max 
 RPMA.rpm               120.00:  RPM Surface Avg 
 RPMN.rpm               100.00:  RPM Surface Min 
 RPMX.rpm               120.00:  RPM Surface Max 
 RRUN.                    1300:  Rig Run Number 
 RTIM.hr                  5.00:  Time Reaming 
 SAZI.deg               304.73:  Azm, Start 
 SDEP.m                4412.01:  Start Depth 
 SIDD.                      No:  Serv Intrp, DD 
 SINC.deg                66.82:  Inc, Start 
 SPPA.psig             2800.00:  SPP Avg 
 SPPN.psig             2610.00:  SPP Min 
 SPPX.psig             3100.00:  SPP Max 
 STIM.      03.30.00 04-May-21:  Start Time 
 SVCS.                 DD, MWD:  Services 
 SVER.                    9.20:  Sperry Version 
 TDAT.m                 228.00:  Tot Depth Attmp 
 TDDF.                      No:  Trip for DD 
 TDLG.m                 228.00:  Tot Depth Loggd 
 TFF .                      No:  Trip for Fail 
 TQAA.f-kp               15.00:  Torque Abs Avg 
 TQAN.f-kp               12.00:  Torque Abs Min 
 TQAX.f-kp               22.00:  Torque Abs Max 
 TRRT.°/30m               0.00:  Turn Rotating 
 MRT .                    HCIM:  Maximum Recorded Temperature 
 TTMX.degC               90.20:  Max Tool Temp 
 VS01.                90627813:  Virtual Str1 SN 
 VS02.                90634712:  Virtual Str2 SN 
 VS03.                90643410:  Virtual Str3 SN 
 VS04.                90634712:  Virtual Str4 SN 
 WBMN.klb                 9.00:  WOB Min 
 WITN.        Elmaddin Rahimov:  Customer Rep 
 WITN.         Haytham Mostafa:  Customer Rep 2 
 WOBA.klb                15.00:  WOB Avg 
 WOBX.klb                23.00:  WOB Max 
 YP  .lhf2               29.00:  Yield Point 
~Curve Information Block
#MNEM.UNIT                 API CODE     Curve Description
#---------               -----------    ---------------------------
 TIME.HHMMSS            00 000 000 000:  GT Time & Date
 GTDEPTH.m              00 000 000 000:  GT Depth
 GTPQH.psia             00 000 000 000:  GT HR Quartz Pressure
 GTTQ.degC              00 000 000 000:  GT Quartz Temperature
 GTTN.NONE              00 000 000 000:  GT Test Number
 GTET.sec               00 000 000 000:  GT Elapsed Test Time
 GTTVD.m                00 000 000 000:  GT True Vertical Depth
#Other Information
#
#WARRANTY: Halliburton will use its best efforts to furnish customers with 
#accurate information and interpretations that are part of, and incident to, the services 
#provided.  However, Halliburton cannot and does not warrant the accuracy 
#or correctness of such information and interpretations.  Under no circumstances should any 
#such information or interpretation be relied upon as the sole basis for any drilling, 
#completion, production, or financial decision or any procedure involving any risk to the 
#safety of any drilling venture, drilling rig or its crew or any other third party.  The 
#Customer has full responsibility for all drilling, completion and production operation.  
#Halliburton makes no representations or warranties, either expressed or 
#implied, including, but not limited to, the implied warranties of merchantability or fitness 
#for a particular purpose, with respect to the services rendered.  In no event will 
#Halliburton be liable for failure to obtain any particular results or for 
#any damages, including, but not limited to, indirect, special or consequential damages, 
#resulting from the use of any information or interpretation provided by Halliburton.
#
~A           TIME           GTDEPTH  GTPQH  GTTQ  GTTN   GTET   GTTVD  
# ...
   23:07:25.431.09-May-2021 4503.01 6535.54 60.57 17.00  22.59 2973.29
   23:07:25.631.09-May-2021 4503.01 6535.97 60.57 17.00  22.79 2973.29
   23:07:25.831.09-May-2021 4503.01 6537.78 60.57 17.00  22.99 2973.29
   23:07:26.031.09-May-2021 4503.01 6537.78 60.57 17.00  23.19 2973.29
   23:07:26.231.09-May-2021 4503.01 6537.87 60.57 17.00  23.39 2973.29
   23:07:26.430.09-May-2021 4503.01 6536.87 60.57 17.00  23.59 2973.29
   23:07:26.630.09-May-2021 4503.01 6537.97 60.57 17.00  23.79 2973.29
   23:07:26.830.09-May-2021 4503.01 6535.65 60.57 17.00  23.99 2973.29
   23:07:27.030.09-May-2021 4503.01 6535.65 60.57 17.00  24.19 2973.29
   23:07:27.230.09-May-2021 4503.01 6534.65 60.57 17.00  24.39 2973.29
   23:07:27.430.09-May-2021 4503.01 6534.41 60.57 17.00  24.59 2973.29
   23:07:27.630.09-May-2021 4503.01 6534.57 60.57 17.00  24.79 2973.29
   23:07:27.830.09-May-2021 4503.01 6534.54 60.57 17.00  24.99 2973.29
   23:07:28.030.09-May-2021 4503.01 6534.54 60.57 17.00  25.19 2973.29
   23:07:28.230.09-May-2021 4503.01 6534.77 60.57 17.00  25.39 2973.29
   23:07:28.430.09-May-2021 4503.01 6535.01 60.57 17.00  25.59 2973.29
   23:07:28.630.09-May-2021 4503.01 6541.41 60.57 17.00  25.79 2973.29
   23:07:28.830.09-May-2021 4503.01 6538.52 60.57 17.00  25.99 2973.29
   23:07:29.030.09-May-2021 4503.01 6538.52 60.57 17.00  26.19 2973.29
   23:07:29.230.09-May-2021 4503.01 6539.40 60.57 17.00  26.39 2973.29
   23:07:29.430.09-May-2021 4503.01 6537.12 60.57 17.00  26.59 2973.29
   23:07:29.630.09-May-2021 4503.01 6536.39 60.57 17.00  26.79 2973.29
   23:07:29.830.09-May-2021 4503.01 6536.29 60.57 17.00  26.99 2973.29
   23:07:30.030.09-May-2021 4503.01 6536.29 60.57 17.00  27.19 2973.29
   23:07:30.229.09-May-2021 4503.01 6536.35 60.57 17.00  27.39 2973.29
   23:07:30.429.09-May-2021 4503.01 6536.05 60.57 17.00  27.59 2973.29
   23:07:30.629.09-May-2021 4503.01 6536.17 60.57 17.00  27.79 2973.29
   23:07:30.829.09-May-2021 4503.01 6535.92 60.57 17.00  27.99 2973.29
   23:07:31.029.09-May-2021 4503.01 6535.92 60.57 17.00  28.19 2973.29
   23:07:31.229.09-May-2021 4503.01 6536.64 60.57 17.00  28.39 2973.29
   23:07:31.429.09-May-2021 4503.01 6543.72 60.57 17.00  28.59 2973.29
   23:07:31.629.09-May-2021 4503.01 6540.32 60.57 17.00  28.79 2973.29
   23:07:31.829.09-May-2021 4503.01 6542.16 60.57 17.00  28.99 2973.29
   23:07:32.029.09-May-2021 4503.01 6542.16 60.57 17.00  29.19 2973.29
   23:07:32.229.09-May-2021 4503.01 6542.21 60.57 17.00  29.39 2973.29
   23:07:32.429.09-May-2021 4503.01 6542.97 60.57 17.00  29.59 2973.29
   23:07:32.629.09-May-2021 4503.01 6541.91 60.57 17.00  29.79 2973.29
   23:07:32.829.09-May-2021 4503.01 6542.42 60.57 17.00  29.99 2973.29
   23:07:33.029.09-May-2021 4503.01 6542.42 60.57 17.00  30.19 2973.29
   23:07:33.229.09-May-2021 4503.01 6542.34 60.57 17.00  30.39 2973.29
   23:07:33.429.09-May-2021 4503.01 6544.64 60.57 17.00  30.59 2973.29
   23:07:33.629.09-May-2021 4503.01 6538.84 60.57 17.00  30.79 2973.29
   23:07:33.829.09-May-2021 4503.01 6545.42 60.57 17.00  30.99 2973.29
   23:07:34.029.09-May-2021 4503.01 6545.42 60.57 17.00  31.19 2973.29
   23:07:34.228.09-May-2021 4503.01 6541.86 60.57 17.00  31.39 2973.29
   23:07:34.428.09-May-2021 4503.01 6542.76 60.57 17.00  31.59 2973.29
   23:07:34.628.09-May-2021 4503.01 6539.50 60.57 17.00  31.79 2973.29
   23:07:34.828.09-May-2021 4503.01 6538.43 60.57 17.00  31.99 2973.29
   23:07:35.028.09-May-2021 4503.01 6538.43 60.57 17.00  32.19 2973.29
   23:07:35.228.09-May-2021 4503.01 6537.80 60.57 17.00  32.39 2973.29
   23:07:35.428.09-May-2021 4503.01 6537.89 60.57 17.00  32.59 2973.29
   23:07:35.628.09-May-2021 4503.01 6537.88 60.56 17.00  32.79 2973.29
   23:07:35.828.09-May-2021 4503.01 6537.66 60.56 17.00  32.99 2973.29
   23:07:36.028.09-May-2021 4503.01 6537.66 60.56 17.00  33.19 2973.29
   23:07:36.228.09-May-2021 4503.01 6537.64 60.56 17.00  33.39 2973.29
   23:07:36.428.09-May-2021 4503.01 6538.34 60.56 17.00  33.59 2973.29
   23:07:36.628.09-May-2021 4503.01 6541.89 60.56 17.00  33.79 2973.29
   23:07:36.828.09-May-2021 4503.01 6544.04 60.56 17.00  33.99 2973.29
   23:07:37.028.09-May-2021 4503.01 6544.04 60.56 17.00  34.19 2973.29
   23:07:37.228.09-May-2021 4503.01 6544.33 60.56 17.00  34.39 2973.29
   23:07:37.428.09-May-2021 4503.01 6540.32 60.56 17.00  34.59 2973.29
   23:07:37.628.09-May-2021 4503.01 6539.58 60.56 17.00  34.79 2973.29
   23:07:37.828.09-May-2021 4503.01 6540.03 60.56 17.00  34.99 2973.29
   23:07:38.027.09-May-2021 4503.01 6540.03 60.56 17.00  35.19 2973.29
   23:07:38.227.09-May-2021 4503.01 6540.11 60.56 17.00  35.39 2973.29
   23:07:38.427.09-May-2021 4503.01 6540.09 60.56 17.00  35.59 2973.29
   23:07:38.627.09-May-2021 4503.01 6539.96 60.56 17.00  35.79 2973.29
   23:07:38.827.09-May-2021 4503.01 6539.73 60.56 17.00  35.99 2973.29
   23:07:39.027.09-May-2021 4503.01 6539.73 60.56 17.00  36.19 2973.29
   23:07:39.227.09-May-2021 4503.01 6540.39 60.56 17.00  36.39 2973.29
   23:07:39.427.09-May-2021 4503.01 6546.65 60.56 17.00  36.59 2973.29
   23:07:39.627.09-May-2021 4503.01 6534.41 60.56 17.00  36.79 2973.29
   23:07:39.827.09-May-2021 4503.01 6531.53 60.56 17.00  36.99 2973.29
   23:07:40.027.09-May-2021 4503.01 6531.53 60.56 17.00  37.19 2973.29
   23:07:40.227.09-May-2021 4503.01 6781.51 60.56 17.00  37.39 2973.29
   23:07:40.427.09-May-2021 4503.01 6856.48 60.56 17.00  37.59 2973.29
   23:07:40.627.09-May-2021 4503.01 6919.13 60.56 17.00  37.79 2973.29
   23:07:40.827.09-May-2021 4503.01 6948.51 60.56 17.00  37.99 2973.29
   23:07:41.027.09-May-2021 4503.01 6948.51 60.56 17.00  38.19 2973.29
   23:07:41.227.09-May-2021 4503.01 6963.47 60.56 17.00  38.39 2973.29
   23:07:41.427.09-May-2021 4503.01 6974.92 60.56 17.00  38.59 2973.29
   23:07:41.627.09-May-2021 4503.01 6965.52 60.56 17.00  38.79 2973.29
   23:07:41.826.09-May-2021 4503.01 6965.42 60.56 17.00  38.99 2973.29
   23:07:42.026.09-May-2021 4503.01 6965.42 60.56 17.00  39.19 2973.29
   23:07:42.226.09-May-2021 4503.01 6986.16 60.56 17.00  39.39 2973.29
   23:07:42.426.09-May-2021 4503.01 7003.97 60.56 17.00  39.59 2973.29
   23:07:42.626.09-May-2021 4503.01 6992.32 60.56 17.00  39.79 2973.29
   23:07:42.826.09-May-2021 4503.01 6962.30 60.56 17.00  39.99 2973.29
   23:07:43.026.09-May-2021 4503.01 6962.30 60.56 17.00  40.19 2973.29
   23:07:43.226.09-May-2021 4503.01 6887.16 60.56 17.00  40.39 2973.29
   23:07:43.426.09-May-2021 4503.01 6848.97 60.56 17.00  40.59 2973.29
   23:07:43.626.09-May-2021 4503.01 6818.89 60.56 17.00  40.79 2973.29
   23:07:43.826.09-May-2021 4503.01 6794.92 60.56 17.00  40.99 2973.29
   23:07:44.026.09-May-2021 4503.01 6794.92 60.56 17.00  41.19 2973.29
   23:07:44.226.09-May-2021 4503.01 6760.41 60.56 17.00  41.39 2973.29
   23:07:44.426.09-May-2021 4503.01 6738.75 60.56 17.00  41.59 2973.29
   23:07:44.626.09-May-2021 4503.01 6716.88 60.56 17.00  41.79 2973.29
   23:07:44.826.09-May-2021 4503.01 6696.57 60.56 17.00  41.99 2973.29
   23:07:45.026.09-May-2021 4503.01 6696.57 60.56 17.00  42.19 2973.29
   23:07:45.226.09-May-2021 4503.01 6672.68 60.56 17.00  42.39 2973.29
   23:07:45.426.09-May-2021 4503.01 6661.54 60.56 17.00  42.59 2973.29
   23:07:45.625.09-May-2021 4503.01 6651.63 60.56 17.00  42.79 2973.29
   23:07:45.825.09-May-2021 4503.01 6642.52 60.56 17.00  42.99 2973.29
   23:07:46.025.09-May-2021 4503.01 6642.52 60.56 17.00  43.19 2973.29
   23:07:46.225.09-May-2021 4503.01 6624.87 60.56 17.00  43.39 2973.29
   23:07:46.425.09-May-2021 4503.01 6616.01 60.56 17.00  43.59 2973.29
   23:07:46.625.09-May-2021 4503.01 6618.67 60.56 17.00  43.79 2973.29
   23:07:46.825.09-May-2021 4503.01 6625.74 60.56 17.00  43.99 2973.29
   23:07:47.025.09-May-2021 4503.01 6625.74 60.56 17.00  44.19 2973.29
   23:07:47.225.09-May-2021 4503.01 6341.63 60.56 17.00  44.39 2973.29
   23:07:47.425.09-May-2021 4503.01 6184.46 60.56 17.00  44.59 2973.29
   23:07:47.625.09-May-2021 4503.01 5887.37 60.56 17.00  44.79 2973.29
   23:07:47.825.09-May-2021 4503.01 5323.77 60.56 17.00  44.99 2973.29
