~Version Information
 VERS.                  2.0:   CWLS log ASCII Standard -VERSION 2.0
 WRAP.                   NO:   One line per depth step
~Well Information Block
#MNEM.UNIT     VALUE/NAME     DESCRIPTION
#---------     -----------    ---------------------------
 STRT.S             02:17:40 10-May-21: START TIME 02:17:40 10-May-21
 STOP.S             02:25:48 10-May-21: STOP TIME  02:25:48 10-May-21
 STEP.S                   0.00: STEP TIME
 NULL.                 -999.25: NULL VALUE
 PROV.                    Baku:  PROVINCE
 STAT.                    Baku:  STATE NAME
 SON .        AZ-XX-0906571588:  JOB NUMBER
 WTYP.                Deviated:  WELL TYPE
 COMP.     BP Exploration (Caspian Sea) ltd:  COMPANY
 BASE.              Azerbaijan:  LOGGING EQUIPMENT BASE LOCATION
 REGN.                   EESSA:  REGION
 CTRY.              Azerbaijan:  COUNTRY NAME
 FLD .                     ACG:  FIELD NAME
 WELL.                     J28:  WELL NAME
 RIG .             West Chirag:  RIG NAME
 DMF .             Drill Floor:  DRILL MEAS FROM
 PDAT.       Caspian Sea Level:  PERMANENT DATUM
 HPTY.       Minimum Curvature:  HOLE POS TYPE
 MDS .        Operator Entered:  MAG DATA SOURCE
 NREF.                    Grid:  NORTH REFERENCE
 SRVC.          TURAN DRILLING:  CONTRACTOR
 JOBN.        AZ-XX-0906571588:  JOB TICKET NUMB
 DCON.     Halliburton Sperry Drilling:  DIRECTNL CONTR
 STIM.      00.44.00 11-Feb-21:  START TIME
 DATE.      00.00.00 05-May-21:  END TIME
 SPUD.               13-Feb-21:  SPUD DATE
 MWDS.                    Baku:  MWD SHOP
 DOE .                     N/A:  DOE NUMBER
 UNIT.                     N/A:  LOGGING EQUIPMENT ID
 UWI .                     N/A:  UNIQUE WELL IDENTIFIER
 API .                     N/A:  API NUMBER
 CNTY.                        :  COUNTY
 LOC .                        :  LOCATION
 LMF .             Drill Floor:  LOG MEASURED FROM
 TVDS.m                  43.00:  TVDSS CORRECTN
 SDEP.m                 341.00:  START DEPTH
 EGL .m                   0.00:  GROUND ELEVATION
 WDMS.m                 169.80:  WD ELEV
 AGAP.m                  43.00:  AIR GAP
 EPD .m                   0.00:  ELEVATION
 APD .m                  43.00:  DEPTH ABOVE PD
 LATI.deg                40.13:  LATITUDE
 LONG.deg                51.22:  LONGITUDE
 UTMY.m             4443793.85:  UTM Y
 UTMX.m              519005.06:  UTM X
 WHEW.m                 -11.57:  WELL HEAD E/W
 WHNS.m                   8.57:  WELL HEAD N/S
 VSEW.m                 -11.57:  VERT SEC E/W
 VSNS.m                   8.57:  VERT SEC N/S
 DFWL.m                   0.00:  DISTANCE FWL
 DFSL.m                   0.00:  DISTANCE FSL
 VSDR.deg               299.34:  VERT SEC DIRECT
 GVFD.g                   1.00:  GRAVITY FIELD
 AZTC.deg                 6.36:  AZM TOTAL CORR
 MFLD.nT              50391.00:  MAGNETIC FIELD
 MDIP.deg                59.65:  MAGNETIC DIP
 MDEC.deg                 6.48:  MAGNETIC DECL
 GRDC.deg                 0.12:  GRID CORRECTION
 DEP .m                 334.96:  DEPTH
 TDD .m                1407.26:  TOTAL DEPTH (DRILLER)
 EKB .m                  43.00:  KB ELEVATION
 EDF .m                  43.00:  DF ELEVATION
 TDL .m                 228.00:  TOTAL DEPTH (LOGGER)
 VSC .                       0:  VS TO CLOSURE
 MAGU.                 1854484:  MAGUTM CHECKSUM
~Parameter Information Block
#MNEM.UNIT       Value        Description
#---------     -----------    ---------------------------
 AV  .mps                 4.00:  Ann Velocity 
 AVMX.mps                 4.73:  Max Ann Veloc 
 AZIF.deg               304.48:  Azm, Final 
 BHAT.        Rotary Steerable:  BHA Type 
 BREV.rev            257300.00:  Rev Bit Total 
 BROT.°/30m               0.00:  Build Rotating 
 BS  .in                  8.50:  Bit Size 
 BSZ .in                  8.50:  Bit Size 
 BTPL.psig              589.00:  Bit Press Loss 
 CABU.                      No:  Customer Abuse 
 CGEO.          Mubariz ghayev:  Customer Geo 
 COMM.                     …:  Run Comments 1 
 TCS .hr                 64.25:  Time Ciculation Ended 
 CV  .mps                 3.50:  Crit Velocity 
 CVMX.mps                 4.52:  Max Crit Veloc 
 DD1 .             Aziz Aliyev:  Direct Drillr 1 
 DD2 .         Intigam Rahimov:  Direct Drillr 2 
 DD3 .          Rashad Habibov:  Direct Drillr 3 
 DDSV.               Geo-Pilot:  DD Service 
 DEFF.%                  98.00:  % Det Eff 
 DLRX.°/30m               0.00:  Dogleg Rot Max 
 DLSO.°/30m               0.00:  Dogleg Oriented 
 DLSX.°/30m               0.00:  Dogleg Str Max 
 DRET.      10.45.04 08-May-21:  Drill End Time 
 DRST.      03.30.04 04-May-21:  Drill Start Tim 
 DTIM.hr                 14.97:  Time Drilling 
 EDEP.m                4640.01:  End Depth 
 ENG1.         Dail Mahammadov:  Engineer 1 
 ENG2.           Eldar Hajiyev:  Engineer 2 
 ENG3.       Bakhtiar Jabbarli:  Engineer 3 
 ENG4.       Natik Hasanagayev:  Engineer 4 
 ETIM.      09.30.04 14-May-21:  End Time 
 FLOI.gpm               460.00:  Flow In 
 FLON.gpm               200.00:  Flow In Min 
 FLOS.cptm                0.00:  Fluid Loss 
 FLOX.gpm               505.00:  Flow In Max 
 HFLO.                      No:  High Flow 
 HPRE.                      No:  High Pressure 
 HTEM.                      No:  High Temp 
 HYDO.m                   1.80:  Hydro Offset 
 IFIN.deg                66.71:  Inc, Final 
 IMAX.deg                67.03:  Inc Max 
 IMIN.deg                66.63:  Inc Min 
 IMND.m                4550.58:  Inc Min Depth 
 IMXD.m                4439.01:  Inc Max Depth 
 JARR.                      No:  Jarring 
 LETM.      10.45.04 08-May-21:  Log End Time 
 LOST.hr                     0:  Lost Rig Time 
 LSTM.      03.30.04 04-May-21:  Log Start Time 
 MDCL.ppm             37000.00:  Mud Chlorides 
 MDES.     Inversion Oil/Synthetic:  Mud Desc 
 DFD .sg                  1.38:  Mud Density 
 MDMN.sg                  1.35:  Dens Mud Min 
 MDMX.sg                  1.40:  Dens Mud Max 
 MOIL.                   57.40:  Run Mud Oil % 
 MOWR.                   70:30:  Run Mud OWR 
 MSND.                    0.00:  Run Mud Sand % 
 MSOL.                   18.00:  Run Mud Solids% 
 DFV .spqt               71.00:  Mud Viscosity 
 MWOD.in                  6.75:  MWD Tool OD 
 MWSI.                      No:  Serv Intrp, MWD 
 OTIM.hr                242.76:  Time Operating 
 PCON.           Look Like New:  Pad Condition 
 PMAX.psia            12183.92:  Press Op, Max 
 PV  .cP                 27.00:  Mud PV 
 RUN .                    1300:  Run Number 
 ROPA.m/hr               15.00:  ROP Avg 
 ROPN.m/hr                9.00:  ROP Min 
 ROPX.m/hr               19.00:  ROP Max 
 RPMA.rpm               120.00:  RPM Surface Avg 
 RPMN.rpm               100.00:  RPM Surface Min 
 RPMX.rpm               120.00:  RPM Surface Max 
 RRUN.                    1300:  Rig Run Number 
 RTIM.hr                  5.00:  Time Reaming 
 SAZI.deg               304.73:  Azm, Start 
 SDEP.m                4412.01:  Start Depth 
 SIDD.                      No:  Serv Intrp, DD 
 SINC.deg                66.82:  Inc, Start 
 SPPA.psig             2800.00:  SPP Avg 
 SPPN.psig             2610.00:  SPP Min 
 SPPX.psig             3100.00:  SPP Max 
 STIM.      03.30.00 04-May-21:  Start Time 
 SVCS.                 DD, MWD:  Services 
 SVER.                    9.20:  Sperry Version 
 TDAT.m                 228.00:  Tot Depth Attmp 
 TDDF.                      No:  Trip for DD 
 TDLG.m                 228.00:  Tot Depth Loggd 
 TFF .                      No:  Trip for Fail 
 TQAA.f-kp               15.00:  Torque Abs Avg 
 TQAN.f-kp               12.00:  Torque Abs Min 
 TQAX.f-kp               22.00:  Torque Abs Max 
 TRRT.°/30m               0.00:  Turn Rotating 
 MRT .                    HCIM:  Maximum Recorded Temperature 
 TTMX.degC               90.20:  Max Tool Temp 
 VS01.                90627813:  Virtual Str1 SN 
 VS02.                90634712:  Virtual Str2 SN 
 VS03.                90643410:  Virtual Str3 SN 
 VS04.                90634712:  Virtual Str4 SN 
 WBMN.klb                 9.00:  WOB Min 
 WITN.        Elmaddin Rahimov:  Customer Rep 
 WITN.         Haytham Mostafa:  Customer Rep 2 
 WOBA.klb                15.00:  WOB Avg 
 WOBX.klb                23.00:  WOB Max 
 YP  .lhf2               29.00:  Yield Point 
~Curve Information Block
#MNEM.UNIT                 API CODE     Curve Description
#---------               -----------    ---------------------------
 TIME.HHMMSS            00 000 000 000:  GT Time & Date
 GTDEPTH.m              00 000 000 000:  GT Depth
 GTPQH.psia             00 000 000 000:  GT HR Quartz Pressure
 GTTQ.degC              00 000 000 000:  GT Quartz Temperature
 GTTN.NONE              00 000 000 000:  GT Test Number
 GTET.sec               00 000 000 000:  GT Elapsed Test Time
 GTTVD.m                00 000 000 000:  GT True Vertical Depth
#Other Information
#
#WARRANTY: Halliburton will use its best efforts to furnish customers with 
#accurate information and interpretations that are part of, and incident to, the services 
#provided.  However, Halliburton cannot and does not warrant the accuracy 
#or correctness of such information and interpretations.  Under no circumstances should any 
#such information or interpretation be relied upon as the sole basis for any drilling, 
#completion, production, or financial decision or any procedure involving any risk to the 
#safety of any drilling venture, drilling rig or its crew or any other third party.  The 
#Customer has full responsibility for all drilling, completion and production operation.  
#Halliburton makes no representations or warranties, either expressed or 
#implied, including, but not limited to, the implied warranties of merchantability or fitness 
#for a particular purpose, with respect to the services rendered.  In no event will 
#Halliburton be liable for failure to obtain any particular results or for 
#any damages, including, but not limited to, indirect, special or consequential damages, 
#resulting from the use of any information or interpretation provided by Halliburton.
#
~A           TIME           GTDEPTH  GTPQH  GTTQ  GTTN   GTET   GTTVD  
# ...
   02:18:48.444.10-May-2021 4568.01  595.04 60.27 20.00  67.81 2998.98
   02:18:48.644.10-May-2021 4568.01  595.38 60.27 20.00  68.01 2998.98
   02:18:48.844.10-May-2021 4568.01  595.38 60.27 20.00  68.21 2998.98
   02:18:49.044.10-May-2021 4568.01  596.48 60.27 20.00  68.41 2998.98
   02:18:49.244.10-May-2021 4568.01  596.90 60.27 20.00  68.61 2998.98
   02:18:49.444.10-May-2021 4568.01  597.43 60.27 20.00  68.81 2998.98
   02:18:49.644.10-May-2021 4568.01  598.21 60.27 20.00  69.01 2998.98
   02:18:49.845.10-May-2021 4568.01  598.21 60.27 20.00  69.21 2998.98
   02:18:50.045.10-May-2021 4568.01  598.98 60.27 20.00  69.41 2998.98
   02:18:50.245.10-May-2021 4568.01  599.47 60.27 20.00  69.61 2998.98
   02:18:50.445.10-May-2021 4568.01  599.88 60.27 20.00  69.81 2998.98
   02:18:50.645.10-May-2021 4568.01  600.31 60.27 20.00  70.01 2998.98
   02:18:50.845.10-May-2021 4568.01  600.31 60.27 20.00  70.21 2998.98
   02:18:51.045.10-May-2021 4568.01  601.24 60.27 20.00  70.41 2998.98
   02:18:51.245.10-May-2021 4568.01  601.69 60.27 20.00  70.61 2998.98
   02:18:51.445.10-May-2021 4568.01  602.14 60.27 20.00  70.81 2998.98
   02:18:51.645.10-May-2021 4568.01  602.58 60.27 20.00  71.01 2998.98
   02:18:51.845.10-May-2021 4568.01  602.58 60.27 20.00  71.21 2998.98
   02:18:52.045.10-May-2021 4568.01  603.54 60.27 20.00  71.41 2998.98
   02:18:52.245.10-May-2021 4568.01  603.87 60.27 20.00  71.61 2998.98
   02:18:52.445.10-May-2021 4568.01  604.43 60.27 20.00  71.81 2998.98
   02:18:52.645.10-May-2021 4568.01  604.77 60.27 20.00  72.01 2998.98
   02:18:52.845.10-May-2021 4568.01  604.77 60.27 20.00  72.21 2998.98
   02:18:53.045.10-May-2021 4568.01  605.20 60.27 20.00  72.41 2998.98
   02:18:53.245.10-May-2021 4568.01  605.95 60.27 20.00  72.61 2998.98
   02:18:53.445.10-May-2021 4568.01  606.36 60.27 20.00  72.81 2998.98
   02:18:53.645.10-May-2021 4568.01  606.78 60.27 20.00  73.01 2998.98
   02:18:53.845.10-May-2021 4568.01  606.78 60.27 20.00  73.21 2998.98
   02:18:54.045.10-May-2021 4568.01  607.60 60.28 20.00  73.41 2998.98
   02:18:54.245.10-May-2021 4568.01  608.00 60.28 20.00  73.61 2998.98
   02:18:54.445.10-May-2021 4568.01  608.07 60.28 20.00  73.81 2998.98
   02:18:54.645.10-May-2021 4568.01  609.04 60.28 20.00  74.01 2998.98
   02:18:54.845.10-May-2021 4568.01  609.04 60.28 20.00  74.21 2998.98
   02:18:55.045.10-May-2021 4568.01  609.22 60.28 20.00  74.41 2998.98
   02:18:55.245.10-May-2021 4568.01  610.42 60.28 20.00  74.61 2998.98
   02:18:55.446.10-May-2021 4568.01  610.36 60.28 20.00  74.81 2998.98
   02:18:55.646.10-May-2021 4568.01  610.89 60.28 20.00  75.01 2998.98
   02:18:55.846.10-May-2021 4568.01  610.89 60.28 20.00  75.21 2998.98
   02:18:56.046.10-May-2021 4568.01  611.10 60.28 20.00  75.41 2998.98
   02:18:56.246.10-May-2021 4568.01  612.24 60.28 20.00  75.61 2998.98
   02:18:56.446.10-May-2021 4568.01  612.18 60.28 20.00  75.81 2998.98
   02:18:56.646.10-May-2021 4568.01  612.73 60.28 20.00  76.01 2998.98
   02:18:56.846.10-May-2021 4568.01  612.73 60.28 20.00  76.21 2998.98
   02:18:57.046.10-May-2021 4568.01  612.92 60.28 20.00  76.41 2998.98
   02:18:57.246.10-May-2021 4568.01  613.88 60.28 20.00  76.61 2998.98
   02:18:57.446.10-May-2021 4568.01  614.01 60.28 20.00  76.81 2998.98
   02:18:57.646.10-May-2021 4568.01  614.37 60.28 20.00  77.01 2998.98
   02:18:57.846.10-May-2021 4568.01  614.37 60.28 20.00  77.21 2998.98
   02:18:58.046.10-May-2021 4568.01  615.02 60.28 20.00  77.41 2998.98
   02:18:58.246.10-May-2021 4568.01  615.37 60.28 20.00  77.61 2998.98
   02:18:58.446.10-May-2021 4568.01  615.72 60.28 20.00  77.81 2998.98
   02:18:58.646.10-May-2021 4568.01  616.06 60.28 20.00  78.01 2998.98
   02:18:58.846.10-May-2021 4568.01  616.06 60.28 20.00  78.21 2998.98
   02:18:59.046.10-May-2021 4568.01  616.73 60.28 20.00  78.41 2998.98
   02:18:59.246.10-May-2021 4568.01  617.08 60.28 20.00  78.61 2998.98
   02:18:59.446.10-May-2021 4568.01  617.41 60.28 20.00  78.81 2998.98
   02:18:59.646.10-May-2021 4568.01  617.37 60.28 20.00  79.01 2998.98
   02:18:59.846.10-May-2021 4568.01  617.37 60.28 20.00  79.21 2998.98
   02:19:00.046.10-May-2021 4568.01  618.51 60.28 20.00  79.41 2998.98
   02:19:00.246.10-May-2021 4568.01  618.72 60.28 20.00  79.61 2998.98
   02:19:00.446.10-May-2021 4568.01  619.06 60.28 20.00  79.81 2998.98
   02:19:00.646.10-May-2021 4568.01  619.34 60.28 20.00  80.01 2998.98
   02:19:00.846.10-May-2021 4568.01  619.34 60.28 20.00  80.21 2998.98
   02:19:01.047.10-May-2021 4568.01  620.01 60.28 20.00  80.41 2998.98
   02:19:01.247.10-May-2021 4568.01  620.30 60.28 20.00  80.61 2998.98
   02:19:01.447.10-May-2021 4568.01  620.62 60.28 20.00  80.81 2998.98
   02:19:01.647.10-May-2021 4568.01  620.90 60.28 20.00  81.01 2998.98
   02:19:01.847.10-May-2021 4568.01  620.90 60.28 20.00  81.21 2998.98
   02:19:02.047.10-May-2021 4568.01  621.18 60.28 20.00  81.41 2998.98
   02:19:02.247.10-May-2021 4568.01  621.96 60.28 20.00  81.61 2998.98
   02:19:02.447.10-May-2021 4568.01  622.17 60.28 20.00  81.81 2998.98
   02:19:02.647.10-May-2021 4568.01  622.56 60.28 20.00  82.01 2998.98
   02:19:02.847.10-May-2021 4568.01  622.56 60.28 20.00  82.21 2998.98
   02:19:03.047.10-May-2021 4568.01  623.25 60.28 20.00  82.41 2998.98
   02:19:03.247.10-May-2021 4568.01  623.27 60.28 20.00  82.61 2998.98
   02:19:03.447.10-May-2021 4568.01  623.54 60.28 20.00  82.81 2998.98
   02:19:03.647.10-May-2021 4568.01  623.80 60.28 20.00  83.01 2998.98
   02:19:03.847.10-May-2021 4568.01  623.80 60.28 20.00  83.21 2998.98
   02:19:04.047.10-May-2021 4568.01  624.49 60.29 20.00  83.41 2998.98
   02:19:04.247.10-May-2021 4568.01  624.64 60.29 20.00  83.61 2998.98
   02:19:04.447.10-May-2021 4568.01  624.94 60.29 20.00  83.81 2998.98
   02:19:04.647.10-May-2021 4568.01  625.06 60.29 20.00  84.01 2998.98
   02:19:04.847.10-May-2021 4568.01  625.06 60.29 20.00  84.21 2998.98
   02:19:05.047.10-May-2021 4568.01  625.30 60.29 20.00  84.42 2998.98
   02:19:05.247.10-May-2021 4568.01  626.12 60.29 20.00  84.62 2998.98
   02:19:05.447.10-May-2021 4568.01  626.08 60.29 20.00  84.82 2998.98
   02:19:05.647.10-May-2021 4568.01  626.37 60.29 20.00  85.02 2998.98
   02:19:05.847.10-May-2021 4568.01  626.37 60.29 20.00  85.22 2998.98
   02:19:06.047.10-May-2021 4568.01  626.83 60.29 20.00  85.42 2998.98
   02:19:06.247.10-May-2021 4568.01  627.08 60.29 20.00  85.62 2998.98
   02:19:06.447.10-May-2021 4568.01  627.32 60.29 20.00  85.82 2998.98
   02:19:06.647.10-May-2021 4568.01  627.55 60.29 20.00  86.02 2998.98
   02:19:06.848.10-May-2021 4568.01  627.55 60.29 20.00  86.22 2998.98
   02:19:07.048.10-May-2021 4568.01  628.03 60.29 20.00  86.42 2998.98
   02:19:07.248.10-May-2021 4568.01  628.28 60.29 20.00  86.62 2998.98
   02:19:07.448.10-May-2021 4568.01  628.53 60.29 20.00  86.82 2998.98
   02:19:07.648.10-May-2021 4568.01  628.48 60.29 20.00  87.02 2998.98
   02:19:07.848.10-May-2021 4568.01  628.48 60.29 20.00  87.22 2998.98
   02:19:08.048.10-May-2021 4568.01  629.35 60.29 20.00  87.42 2998.98
   02:19:08.248.10-May-2021 4568.01  629.53 60.29 20.00  87.62 2998.98
   02:19:08.448.10-May-2021 4568.01  629.87 60.29 20.00  87.82 2998.98
   02:19:08.648.10-May-2021 4568.01  630.06 60.29 20.00  88.02 2998.98
   02:19:08.848.10-May-2021 4568.01  630.06 60.29 20.00  88.22 2998.98
   02:19:09.048.10-May-2021 4568.01  630.53 60.29 20.00  88.42 2998.98
   02:19:09.248.10-May-2021 4568.01  630.78 60.29 20.00  88.62 2998.98
   02:19:09.448.10-May-2021 4568.01  631.01 60.29 20.00  88.82 2998.98
   02:19:09.648.10-May-2021 4568.01  631.25 60.29 20.00  89.02 2998.98
   02:19:09.848.10-May-2021 4568.01  631.25 60.29 20.00  89.22 2998.98
   02:19:10.048.10-May-2021 4568.01  631.40 60.29 20.00  89.42 2998.98
   02:19:10.248.10-May-2021 4568.01  632.08 60.29 20.00  89.62 2998.98
   02:19:10.448.10-May-2021 4568.01  632.12 60.29 20.00  89.82 2998.98
   02:19:10.648.10-May-2021 4568.01  632.46 60.29 20.00  90.02 2998.98
   02:19:10.848.10-May-2021 4568.01  632.46 60.29 20.00  90.22 2998.98
