~Version Information
 VERS.                  2.0:   CWLS log ASCII Standard -VERSION 2.0
 WRAP.                   NO:   One line per depth step
~Well Information Block
#MNEM.UNIT     VALUE/NAME     DESCRIPTION
#---------     -----------    ---------------------------
 STRT.S             21:53:52 08-May-21: START TIME 21:53:52 08-May-21
 STOP.S             22:00:27 08-May-21: STOP TIME  22:00:27 08-May-21
 STEP.S                   0.00: STEP TIME
 NULL.                 -999.25: NULL VALUE
 PROV.                    Baku:  PROVINCE
 STAT.                    Baku:  STATE NAME
 SON .        AZ-XX-0906571588:  JOB NUMBER
 WTYP.                Deviated:  WELL TYPE
 COMP.     BP Exploration (Caspian Sea) ltd:  COMPANY
 BASE.              Azerbaijan:  LOGGING EQUIPMENT BASE LOCATION
 REGN.                   EESSA:  REGION
 CTRY.              Azerbaijan:  COUNTRY NAME
 FLD .                     ACG:  FIELD NAME
 WELL.                     J28:  WELL NAME
 RIG .             West Chirag:  RIG NAME
 DMF .             Drill Floor:  DRILL MEAS FROM
 PDAT.       Caspian Sea Level:  PERMANENT DATUM
 HPTY.       Minimum Curvature:  HOLE POS TYPE
 MDS .        Operator Entered:  MAG DATA SOURCE
 NREF.                    Grid:  NORTH REFERENCE
 SRVC.          TURAN DRILLING:  CONTRACTOR
 JOBN.        AZ-XX-0906571588:  JOB TICKET NUMB
 DCON.     Halliburton Sperry Drilling:  DIRECTNL CONTR
 STIM.      00.44.00 11-Feb-21:  START TIME
 DATE.      00.00.00 05-May-21:  END TIME
 SPUD.               13-Feb-21:  SPUD DATE
 MWDS.                    Baku:  MWD SHOP
 DOE .                     N/A:  DOE NUMBER
 UNIT.                     N/A:  LOGGING EQUIPMENT ID
 UWI .                     N/A:  UNIQUE WELL IDENTIFIER
 API .                     N/A:  API NUMBER
 CNTY.                        :  COUNTY
 LOC .                        :  LOCATION
 LMF .             Drill Floor:  LOG MEASURED FROM
 TVDS.m                  43.00:  TVDSS CORRECTN
 SDEP.m                 341.00:  START DEPTH
 EGL .m                   0.00:  GROUND ELEVATION
 WDMS.m                 169.80:  WD ELEV
 AGAP.m                  43.00:  AIR GAP
 EPD .m                   0.00:  ELEVATION
 APD .m                  43.00:  DEPTH ABOVE PD
 LATI.deg                40.13:  LATITUDE
 LONG.deg                51.22:  LONGITUDE
 UTMY.m             4443793.85:  UTM Y
 UTMX.m              519005.06:  UTM X
 WHEW.m                 -11.57:  WELL HEAD E/W
 WHNS.m                   8.57:  WELL HEAD N/S
 VSEW.m                 -11.57:  VERT SEC E/W
 VSNS.m                   8.57:  VERT SEC N/S
 DFWL.m                   0.00:  DISTANCE FWL
 DFSL.m                   0.00:  DISTANCE FSL
 VSDR.deg               299.34:  VERT SEC DIRECT
 GVFD.g                   1.00:  GRAVITY FIELD
 AZTC.deg                 6.36:  AZM TOTAL CORR
 MFLD.nT              50391.00:  MAGNETIC FIELD
 MDIP.deg                59.65:  MAGNETIC DIP
 MDEC.deg                 6.48:  MAGNETIC DECL
 GRDC.deg                 0.12:  GRID CORRECTION
 DEP .m                 334.96:  DEPTH
 TDD .m                1407.26:  TOTAL DEPTH (DRILLER)
 EKB .m                  43.00:  KB ELEVATION
 EDF .m                  43.00:  DF ELEVATION
 TDL .m                 228.00:  TOTAL DEPTH (LOGGER)
 VSC .                       0:  VS TO CLOSURE
 MAGU.                 1854484:  MAGUTM CHECKSUM
~Parameter Information Block
#MNEM.UNIT       Value        Description
#---------     -----------    ---------------------------
 AV  .mps                 4.00:  Ann Velocity 
 AVMX.mps                 4.73:  Max Ann Veloc 
 AZIF.deg               304.48:  Azm, Final 
 BHAT.        Rotary Steerable:  BHA Type 
 BREV.rev            257300.00:  Rev Bit Total 
 BROT.°/30m               0.00:  Build Rotating 
 BS  .in                  8.50:  Bit Size 
 BSZ .in                  8.50:  Bit Size 
 BTPL.psig              589.00:  Bit Press Loss 
 CABU.                      No:  Customer Abuse 
 CGEO.          Mubariz ghayev:  Customer Geo 
 COMM.                     ¤=s:  Run Comments 1 
 TCS .hr                 64.25:  Time Ciculation Ended 
 CV  .mps                 3.50:  Crit Velocity 
 CVMX.mps                 4.52:  Max Crit Veloc 
 DD1 .             Aziz Aliyev:  Direct Drillr 1 
 DD2 .         Intigam Rahimov:  Direct Drillr 2 
 DD3 .          Rashad Habibov:  Direct Drillr 3 
 DDSV.               Geo-Pilot:  DD Service 
 DEFF.%                  98.00:  % Det Eff 
 DLRX.°/30m               0.00:  Dogleg Rot Max 
 DLSO.°/30m               0.00:  Dogleg Oriented 
 DLSX.°/30m               0.00:  Dogleg Str Max 
 DRET.      10.45.04 08-May-21:  Drill End Time 
 DRST.      03.30.04 04-May-21:  Drill Start Tim 
 DTIM.hr                 14.97:  Time Drilling 
 EDEP.m                4640.01:  End Depth 
 ENG1.         Dail Mahammadov:  Engineer 1 
 ENG2.           Eldar Hajiyev:  Engineer 2 
 ENG3.       Bakhtiar Jabbarli:  Engineer 3 
 ENG4.       Natik Hasanagayev:  Engineer 4 
 ETIM.      09.30.04 14-May-21:  End Time 
 FLOI.gpm               460.00:  Flow In 
 FLON.gpm               200.00:  Flow In Min 
 FLOS.cptm                0.00:  Fluid Loss 
 FLOX.gpm               505.00:  Flow In Max 
 HFLO.                      No:  High Flow 
 HPRE.                      No:  High Pressure 
 HTEM.                      No:  High Temp 
 HYDO.m                   1.80:  Hydro Offset 
 IFIN.deg                66.71:  Inc, Final 
 IMAX.deg                67.03:  Inc Max 
 IMIN.deg                66.63:  Inc Min 
 IMND.m                4550.58:  Inc Min Depth 
 IMXD.m                4439.01:  Inc Max Depth 
 JARR.                      No:  Jarring 
 LETM.      10.45.04 08-May-21:  Log End Time 
 LOST.hr                     0:  Lost Rig Time 
 LSTM.      03.30.04 04-May-21:  Log Start Time 
 MDCL.ppm             37000.00:  Mud Chlorides 
 MDES.     Inversion Oil/Synthetic:  Mud Desc 
 DFD .sg                  1.38:  Mud Density 
 MDMN.sg                  1.35:  Dens Mud Min 
 MDMX.sg                  1.40:  Dens Mud Max 
 MOIL.                   57.40:  Run Mud Oil % 
 MOWR.                   70:30:  Run Mud OWR 
 MSND.                    0.00:  Run Mud Sand % 
 MSOL.                   18.00:  Run Mud Solids% 
 DFV .spqt               71.00:  Mud Viscosity 
 MWOD.in                  6.75:  MWD Tool OD 
 MWSI.                      No:  Serv Intrp, MWD 
 OTIM.hr                242.76:  Time Operating 
 PCON.           Look Like New:  Pad Condition 
 PMAX.psia            12183.92:  Press Op, Max 
 PV  .cP                 27.00:  Mud PV 
 RUN .                    1300:  Run Number 
 ROPA.m/hr               15.00:  ROP Avg 
 ROPN.m/hr                9.00:  ROP Min 
 ROPX.m/hr               19.00:  ROP Max 
 RPMA.rpm               120.00:  RPM Surface Avg 
 RPMN.rpm               100.00:  RPM Surface Min 
 RPMX.rpm               120.00:  RPM Surface Max 
 RRUN.                    1300:  Rig Run Number 
 RTIM.hr                  5.00:  Time Reaming 
 SAZI.deg               304.73:  Azm, Start 
 SDEP.m                4412.01:  Start Depth 
 SIDD.                      No:  Serv Intrp, DD 
 SINC.deg                66.82:  Inc, Start 
 SPPA.psig             2800.00:  SPP Avg 
 SPPN.psig             2610.00:  SPP Min 
 SPPX.psig             3100.00:  SPP Max 
 STIM.      03.30.00 04-May-21:  Start Time 
 SVCS.                 DD, MWD:  Services 
 SVER.                    9.20:  Sperry Version 
 TDAT.m                 228.00:  Tot Depth Attmp 
 TDDF.                      No:  Trip for DD 
 TDLG.m                 228.00:  Tot Depth Loggd 
 TFF .                      No:  Trip for Fail 
 TQAA.f-kp               15.00:  Torque Abs Avg 
 TQAN.f-kp               12.00:  Torque Abs Min 
 TQAX.f-kp               22.00:  Torque Abs Max 
 TRRT.°/30m               0.00:  Turn Rotating 
 MRT .                    HCIM:  Maximum Recorded Temperature 
 TTMX.degC               90.20:  Max Tool Temp 
 VS01.                90627813:  Virtual Str1 SN 
 VS02.                90634712:  Virtual Str2 SN 
 VS03.                90643410:  Virtual Str3 SN 
 VS04.                90634712:  Virtual Str4 SN 
 WBMN.klb                 9.00:  WOB Min 
 WITN.        Elmaddin Rahimov:  Customer Rep 
 WITN.         Haytham Mostafa:  Customer Rep 2 
 WOBA.klb                15.00:  WOB Avg 
 WOBX.klb                23.00:  WOB Max 
 YP  .lhf2               29.00:  Yield Point 
~Curve Information Block
#MNEM.UNIT                 API CODE     Curve Description
#---------               -----------    ---------------------------
 TIME.HHMMSS            00 000 000 000:  GT Time & Date
 GTDEPTH.m              00 000 000 000:  GT Depth
 GTPQH.psia             00 000 000 000:  GT HR Quartz Pressure
 GTTQ.degC              00 000 000 000:  GT Quartz Temperature
 GTTN.NONE              00 000 000 000:  GT Test Number
 GTET.sec               00 000 000 000:  GT Elapsed Test Time
 GTTVD.m                00 000 000 000:  GT True Vertical Depth
#Other Information
#
#WARRANTY: Halliburton will use its best efforts to furnish customers with 
#accurate information and interpretations that are part of, and incident to, the services 
#provided.  However, Halliburton cannot and does not warrant the accuracy 
#or correctness of such information and interpretations.  Under no circumstances should any 
#such information or interpretation be relied upon as the sole basis for any drilling, 
#completion, production, or financial decision or any procedure involving any risk to the 
#safety of any drilling venture, drilling rig or its crew or any other third party.  The 
#Customer has full responsibility for all drilling, completion and production operation.  
#Halliburton makes no representations or warranties, either expressed or 
#implied, including, but not limited to, the implied warranties of merchantability or fitness 
#for a particular purpose, with respect to the services rendered.  In no event will 
#Halliburton be liable for failure to obtain any particular results or for 
#any damages, including, but not limited to, indirect, special or consequential damages, 
#resulting from the use of any information or interpretation provided by Halliburton.
#
~A           TIME           GTDEPTH  GTPQH  GTTQ  GTTN  GTET   GTTVD  
# ...
   21:58:05.000.08-May-2021 4568.51  736.29 68.95 3.00 253.00 2999.18
   21:58:05.200.08-May-2021 4568.51  736.29 68.95 3.00 253.20 2999.18
   21:58:05.400.08-May-2021 4568.51  736.00 68.95 3.00 253.40 2999.18
   21:58:05.600.08-May-2021 4568.51  727.19 68.95 3.00 253.60 2999.18
   21:58:05.800.08-May-2021 4568.51  724.36 68.95 3.00 253.80 2999.18
   21:58:06.000.08-May-2021 4568.51  723.92 68.95 3.00 254.00 2999.18
   21:58:06.200.08-May-2021 4568.51  723.92 68.95 3.00 254.20 2999.18
   21:58:06.400.08-May-2021 4568.51  722.97 68.95 3.00 254.40 2999.18
   21:58:06.600.08-May-2021 4568.51  722.70 68.95 3.00 254.60 2999.18
   21:58:06.800.08-May-2021 4568.51  722.26 68.95 3.00 254.80 2999.18
   21:58:07.000.08-May-2021 4568.51  721.76 68.95 3.00 255.00 2999.18
   21:58:07.200.08-May-2021 4568.51  721.76 68.95 3.00 255.20 2999.18
   21:58:07.400.08-May-2021 4568.51  721.18 68.95 3.00 255.40 2999.18
   21:58:07.600.08-May-2021 4568.51  720.80 68.95 3.00 255.60 2999.18
   21:58:07.800.08-May-2021 4568.51  721.56 68.95 3.00 255.80 2999.18
   21:58:08.000.08-May-2021 4568.51  720.72 68.95 3.00 256.00 2999.18
   21:58:08.200.08-May-2021 4568.51  720.72 68.95 3.00 256.20 2999.18
   21:58:08.400.08-May-2021 4568.51  720.49 68.95 3.00 256.40 2999.18
   21:58:08.600.08-May-2021 4568.51  720.20 68.95 3.00 256.60 2999.18
   21:58:08.800.08-May-2021 4568.51  719.89 68.95 3.00 256.80 2999.18
   21:58:09.000.08-May-2021 4568.51  719.59 68.95 3.00 257.00 2999.18
   21:58:09.200.08-May-2021 4568.51  719.59 68.95 3.00 257.20 2999.18
   21:58:09.400.08-May-2021 4568.51  719.60 68.95 3.00 257.40 2999.18
   21:58:09.600.08-May-2021 4568.51  719.70 68.95 3.00 257.60 2999.18
   21:58:09.800.08-May-2021 4568.51  719.75 68.95 3.00 257.80 2999.18
   21:58:10.000.08-May-2021 4568.51  719.38 68.95 3.00 258.00 2999.18
   21:58:10.200.08-May-2021 4568.51  719.38 68.95 3.00 258.20 2999.18
   21:58:10.400.08-May-2021 4568.51  718.92 68.95 3.00 258.40 2999.18
   21:58:10.600.08-May-2021 4568.51  718.36 68.95 3.00 258.60 2999.18
   21:58:10.800.08-May-2021 4568.51  718.27 68.95 3.00 258.80 2999.18
   21:58:11.000.08-May-2021 4568.51  718.29 68.95 3.00 259.00 2999.18
   21:58:11.200.08-May-2021 4568.51  718.29 68.95 3.00 259.20 2999.18
   21:58:11.400.08-May-2021 4568.51  718.64 68.95 3.00 259.40 2999.18
   21:58:11.600.08-May-2021 4568.51  718.18 68.95 3.00 259.60 2999.18
   21:58:11.800.08-May-2021 4568.51  718.30 68.95 3.00 259.80 2999.18
   21:58:12.000.08-May-2021 4568.51  718.32 68.95 3.00 260.00 2999.18
   21:58:12.200.08-May-2021 4568.51  718.32 68.95 3.00 260.20 2999.18
   21:58:12.400.08-May-2021 4568.51  717.94 68.95 3.00 260.40 2999.18
   21:58:12.600.08-May-2021 4568.51  718.45 68.95 3.00 260.60 2999.18
   21:58:12.800.08-May-2021 4568.51  718.02 68.95 3.00 260.80 2999.18
   21:58:13.000.08-May-2021 4568.51  718.15 68.95 3.00 261.00 2999.18
   21:58:13.200.08-May-2021 4568.51  718.15 68.95 3.00 261.20 2999.18
   21:58:13.400.08-May-2021 4568.51  717.42 68.95 3.00 261.40 2999.18
   21:58:13.600.08-May-2021 4568.51  718.15 68.95 3.00 261.60 2999.18
   21:58:13.800.08-May-2021 4568.51  717.58 68.95 3.00 261.80 2999.18
   21:58:14.000.08-May-2021 4568.51  717.52 68.95 3.00 262.00 2999.18
   21:58:14.200.08-May-2021 4568.51  717.52 68.95 3.00 262.20 2999.18
   21:58:14.400.08-May-2021 4568.51  717.54 68.95 3.00 262.40 2999.18
   21:58:14.600.08-May-2021 4568.51  717.56 68.95 3.00 262.60 2999.18
   21:58:14.800.08-May-2021 4568.51  717.52 68.95 3.00 262.80 2999.18
   21:58:15.000.08-May-2021 4568.51  717.57 68.95 3.00 263.00 2999.18
   21:58:15.200.08-May-2021 4568.51  717.57 68.95 3.00 263.20 2999.18
   21:58:15.400.08-May-2021 4568.51  717.72 68.95 3.00 263.40 2999.18
   21:58:15.600.08-May-2021 4568.51  717.81 68.95 3.00 263.60 2999.18
   21:58:15.800.08-May-2021 4568.51  717.53 68.95 3.00 263.80 2999.18
   21:58:16.000.08-May-2021 4568.51  721.19 68.95 3.00 264.00 2999.18
   21:58:16.200.08-May-2021 4568.51  721.19 68.95 3.00 264.20 2999.18
   21:58:16.400.08-May-2021 4568.51  725.28 68.95 3.00 264.40 2999.18
   21:58:16.600.08-May-2021 4568.51  725.24 68.95 3.00 264.60 2999.18
   21:58:16.800.08-May-2021 4568.51  725.26 68.95 3.00 264.80 2999.18
   21:58:17.000.08-May-2021 4568.51  725.29 68.95 3.00 265.00 2999.18
   21:58:17.200.08-May-2021 4568.51  725.29 68.95 3.00 265.20 2999.18
   21:58:17.400.08-May-2021 4568.51  725.36 68.95 3.00 265.40 2999.18
   21:58:17.600.08-May-2021 4568.51  725.37 68.95 3.00 265.60 2999.18
   21:58:17.800.08-May-2021 4568.51  725.41 68.95 3.00 265.80 2999.18
   21:58:18.000.08-May-2021 4568.51  725.49 68.95 3.00 266.00 2999.18
   21:58:18.200.08-May-2021 4568.51  725.49 68.95 3.00 266.20 2999.18
   21:58:18.400.08-May-2021 4568.51  724.95 68.95 3.00 266.40 2999.18
   21:58:18.600.08-May-2021 4568.51  726.06 68.95 3.00 266.60 2999.18
   21:58:18.800.08-May-2021 4568.51  725.68 68.95 3.00 266.80 2999.18
   21:58:19.000.08-May-2021 4568.51  725.99 68.95 3.00 267.00 2999.18
   21:58:19.200.08-May-2021 4568.51  725.99 68.95 3.00 267.20 2999.18
   21:58:19.400.08-May-2021 4568.51  725.49 68.95 3.00 267.40 2999.18
   21:58:19.600.08-May-2021 4568.51  726.29 68.95 3.00 267.60 2999.18
   21:58:19.800.08-May-2021 4568.51  726.05 68.95 3.00 267.80 2999.18
   21:58:20.000.08-May-2021 4568.51  726.10 68.95 3.00 268.00 2999.18
   21:58:20.200.08-May-2021 4568.51  726.10 68.95 3.00 268.20 2999.18
   21:58:20.400.08-May-2021 4568.51  725.67 68.95 3.00 268.40 2999.18
   21:58:20.600.08-May-2021 4568.51  726.63 68.95 3.00 268.60 2999.18
   21:58:20.800.08-May-2021 4568.51  726.14 68.95 3.00 268.80 2999.18
   21:58:21.000.08-May-2021 4568.51  726.44 68.95 3.00 269.00 2999.18
   21:58:21.200.08-May-2021 4568.51  726.44 68.95 3.00 269.20 2999.18
   21:58:21.400.08-May-2021 4568.51  726.92 68.95 3.00 269.40 2999.18
   21:58:21.600.08-May-2021 4568.51  726.53 68.95 3.00 269.60 2999.18
   21:58:21.800.08-May-2021 4568.51  726.55 68.95 3.00 269.80 2999.18
   21:58:22.000.08-May-2021 4568.51  726.66 68.95 3.00 270.00 2999.18
   21:58:22.200.08-May-2021 4568.51  726.66 68.95 3.00 270.20 2999.18
   21:58:22.400.08-May-2021 4568.51  726.70 68.95 3.00 270.40 2999.18
   21:58:22.600.08-May-2021 4568.51  726.72 68.95 3.00 270.60 2999.18
   21:58:22.800.08-May-2021 4568.51  726.75 68.95 3.00 270.80 2999.18
   21:58:23.000.08-May-2021 4568.51  726.78 68.95 3.00 271.00 2999.18
   21:58:23.200.08-May-2021 4568.51  726.78 68.95 3.00 271.20 2999.18
   21:58:23.400.08-May-2021 4568.51  726.89 68.95 3.00 271.40 2999.18
   21:58:23.600.08-May-2021 4568.51  726.58 68.95 3.00 271.60 2999.18
   21:58:23.800.08-May-2021 4568.51  727.05 68.95 3.00 271.80 2999.18
   21:58:24.000.08-May-2021 4568.51  727.26 68.95 3.00 272.00 2999.18
   21:58:24.200.08-May-2021 4568.51  727.26 68.95 3.00 272.20 2999.18
   21:58:24.400.08-May-2021 4568.51  727.07 68.95 3.00 272.40 2999.18
   21:58:24.600.08-May-2021 4568.51  727.12 68.95 3.00 272.60 2999.18
   21:58:24.800.08-May-2021 4568.51  727.16 68.95 3.00 272.80 2999.18
   21:58:25.000.08-May-2021 4568.51  727.16 68.95 3.00 273.00 2999.18
   21:58:25.200.08-May-2021 4568.51  727.16 68.95 3.00 273.20 2999.18
   21:58:25.400.08-May-2021 4568.51  727.21 68.95 3.00 273.40 2999.18
   21:58:25.600.08-May-2021 4568.51  727.21 68.95 3.00 273.60 2999.18
   21:58:25.800.08-May-2021 4568.51  727.25 68.95 3.00 273.80 2999.18
   21:58:26.000.08-May-2021 4568.51  727.28 68.95 3.00 274.00 2999.18
   21:58:26.200.08-May-2021 4568.51  727.28 68.95 3.00 274.20 2999.18
   21:58:26.400.08-May-2021 4568.51  727.90 68.95 3.00 274.40 2999.18
   21:58:26.600.08-May-2021 4568.51  727.35 68.95 3.00 274.60 2999.18
   21:58:26.800.08-May-2021 4568.51  727.54 68.95 3.00 274.80 2999.18
   21:58:27.000.08-May-2021 4568.51  727.48 68.94 3.00 275.00 2999.18
   21:58:27.200.08-May-2021 4568.51  727.48 68.94 3.00 275.20 2999.18
   21:58:27.400.08-May-2021 4568.51  727.97 68.94 3.00 275.40 2999.18
   21:58:27.600.08-May-2021 4568.51  727.56 68.94 3.00 275.60 2999.18
   21:58:27.800.08-May-2021 4568.51  727.57 68.94 3.00 275.80 2999.18
