~Version Information
 VERS.                  2.0:   CWLS log ASCII Standard -VERSION 2.0
 WRAP.                   NO:   One line per depth step
~Well Information Block
#MNEM.UNIT     VALUE/NAME     DESCRIPTION
#---------     -----------    ---------------------------
 STRT.S             23:07:02 09-May-21: START TIME 23:07:02 09-May-21
 STOP.S             23:13:42 09-May-21: STOP TIME  23:13:42 09-May-21
 STEP.S                   0.00: STEP TIME
 NULL.                 -999.25: NULL VALUE
 PROV.                    Baku:  PROVINCE
 STAT.                    Baku:  STATE NAME
 SON .        AZ-XX-0906571588:  JOB NUMBER
 WTYP.                Deviated:  WELL TYPE
 COMP.     BP Exploration (Caspian Sea) ltd:  COMPANY
 BASE.              Azerbaijan:  LOGGING EQUIPMENT BASE LOCATION
 REGN.                   EESSA:  REGION
 CTRY.              Azerbaijan:  COUNTRY NAME
 FLD .                     ACG:  FIELD NAME
 WELL.                     J28:  WELL NAME
 RIG .             West Chirag:  RIG NAME
 DMF .             Drill Floor:  DRILL MEAS FROM
 PDAT.       Caspian Sea Level:  PERMANENT DATUM
 HPTY.       Minimum Curvature:  HOLE POS TYPE
 MDS .        Operator Entered:  MAG DATA SOURCE
 NREF.                    Grid:  NORTH REFERENCE
 SRVC.          TURAN DRILLING:  CONTRACTOR
 JOBN.        AZ-XX-0906571588:  JOB TICKET NUMB
 DCON.     Halliburton Sperry Drilling:  DIRECTNL CONTR
 STIM.      00.44.00 11-Feb-21:  START TIME
 DATE.      00.00.00 05-May-21:  END TIME
 SPUD.               13-Feb-21:  SPUD DATE
 MWDS.                    Baku:  MWD SHOP
 DOE .                     N/A:  DOE NUMBER
 UNIT.                     N/A:  LOGGING EQUIPMENT ID
 UWI .                     N/A:  UNIQUE WELL IDENTIFIER
 API .                     N/A:  API NUMBER
 CNTY.                        :  COUNTY
 LOC .                        :  LOCATION
 LMF .             Drill Floor:  LOG MEASURED FROM
 TVDS.m                  43.00:  TVDSS CORRECTN
 SDEP.m                 341.00:  START DEPTH
 EGL .m                   0.00:  GROUND ELEVATION
 WDMS.m                 169.80:  WD ELEV
 AGAP.m                  43.00:  AIR GAP
 EPD .m                   0.00:  ELEVATION
 APD .m                  43.00:  DEPTH ABOVE PD
 LATI.deg                40.13:  LATITUDE
 LONG.deg                51.22:  LONGITUDE
 UTMY.m             4443793.85:  UTM Y
 UTMX.m              519005.06:  UTM X
 WHEW.m                 -11.57:  WELL HEAD E/W
 WHNS.m                   8.57:  WELL HEAD N/S
 VSEW.m                 -11.57:  VERT SEC E/W
 VSNS.m                   8.57:  VERT SEC N/S
 DFWL.m                   0.00:  DISTANCE FWL
 DFSL.m                   0.00:  DISTANCE FSL
 VSDR.deg               299.34:  VERT SEC DIRECT
 GVFD.g                   1.00:  GRAVITY FIELD
 AZTC.deg                 6.36:  AZM TOTAL CORR
 MFLD.nT              50391.00:  MAGNETIC FIELD
 MDIP.deg                59.65:  MAGNETIC DIP
 MDEC.deg                 6.48:  MAGNETIC DECL
 GRDC.deg                 0.12:  GRID CORRECTION
 DEP .m                 334.96:  DEPTH
 TDD .m                1407.26:  TOTAL DEPTH (DRILLER)
 EKB .m                  43.00:  KB ELEVATION
 EDF .m                  43.00:  DF ELEVATION
 TDL .m                 228.00:  TOTAL DEPTH (LOGGER)
 VSC .                       0:  VS TO CLOSURE
 MAGU.                 1854484:  MAGUTM CHECKSUM
~Parameter Information Block
#MNEM.UNIT       Value        Description
#---------     -----------    ---------------------------
 AV  .mps                 4.00:  Ann Velocity 
 AVMX.mps                 4.73:  Max Ann Veloc 
 AZIF.deg               304.48:  Azm, Final 
 BHAT.        Rotary Steerable:  BHA Type 
 BREV.rev            257300.00:  Rev Bit Total 
 BROT.°/30m               0.00:  Build Rotating 
 BS  .in                  8.50:  Bit Size 
 BSZ .in                  8.50:  Bit Size 
 BTPL.psig              589.00:  Bit Press Loss 
 CABU.                      No:  Customer Abuse 
 CGEO.          Mubariz ghayev:  Customer Geo 
 COMM.                     d:  Run Comments 1 
 TCS .hr                 64.25:  Time Ciculation Ended 
 CV  .mps                 3.50:  Crit Velocity 
 CVMX.mps                 4.52:  Max Crit Veloc 
 DD1 .             Aziz Aliyev:  Direct Drillr 1 
 DD2 .         Intigam Rahimov:  Direct Drillr 2 
 DD3 .          Rashad Habibov:  Direct Drillr 3 
 DDSV.               Geo-Pilot:  DD Service 
 DEFF.%                  98.00:  % Det Eff 
 DLRX.°/30m               0.00:  Dogleg Rot Max 
 DLSO.°/30m               0.00:  Dogleg Oriented 
 DLSX.°/30m               0.00:  Dogleg Str Max 
 DRET.      10.45.04 08-May-21:  Drill End Time 
 DRST.      03.30.04 04-May-21:  Drill Start Tim 
 DTIM.hr                 14.97:  Time Drilling 
 EDEP.m                4640.01:  End Depth 
 ENG1.         Dail Mahammadov:  Engineer 1 
 ENG2.           Eldar Hajiyev:  Engineer 2 
 ENG3.       Bakhtiar Jabbarli:  Engineer 3 
 ENG4.       Natik Hasanagayev:  Engineer 4 
 ETIM.      09.30.04 14-May-21:  End Time 
 FLOI.gpm               460.00:  Flow In 
 FLON.gpm               200.00:  Flow In Min 
 FLOS.cptm                0.00:  Fluid Loss 
 FLOX.gpm               505.00:  Flow In Max 
 HFLO.                      No:  High Flow 
 HPRE.                      No:  High Pressure 
 HTEM.                      No:  High Temp 
 HYDO.m                   1.80:  Hydro Offset 
 IFIN.deg                66.71:  Inc, Final 
 IMAX.deg                67.03:  Inc Max 
 IMIN.deg                66.63:  Inc Min 
 IMND.m                4550.58:  Inc Min Depth 
 IMXD.m                4439.01:  Inc Max Depth 
 JARR.                      No:  Jarring 
 LETM.      10.45.04 08-May-21:  Log End Time 
 LOST.hr                     0:  Lost Rig Time 
 LSTM.      03.30.04 04-May-21:  Log Start Time 
 MDCL.ppm             37000.00:  Mud Chlorides 
 MDES.     Inversion Oil/Synthetic:  Mud Desc 
 DFD .sg                  1.38:  Mud Density 
 MDMN.sg                  1.35:  Dens Mud Min 
 MDMX.sg                  1.40:  Dens Mud Max 
 MOIL.                   57.40:  Run Mud Oil % 
 MOWR.                   70:30:  Run Mud OWR 
 MSND.                    0.00:  Run Mud Sand % 
 MSOL.                   18.00:  Run Mud Solids% 
 DFV .spqt               71.00:  Mud Viscosity 
 MWOD.in                  6.75:  MWD Tool OD 
 MWSI.                      No:  Serv Intrp, MWD 
 OTIM.hr                242.76:  Time Operating 
 PCON.           Look Like New:  Pad Condition 
 PMAX.psia            12183.92:  Press Op, Max 
 PV  .cP                 27.00:  Mud PV 
 RUN .                    1300:  Run Number 
 ROPA.m/hr               15.00:  ROP Avg 
 ROPN.m/hr                9.00:  ROP Min 
 ROPX.m/hr               19.00:  ROP Max 
 RPMA.rpm               120.00:  RPM Surface Avg 
 RPMN.rpm               100.00:  RPM Surface Min 
 RPMX.rpm               120.00:  RPM Surface Max 
 RRUN.                    1300:  Rig Run Number 
 RTIM.hr                  5.00:  Time Reaming 
 SAZI.deg               304.73:  Azm, Start 
 SDEP.m                4412.01:  Start Depth 
 SIDD.                      No:  Serv Intrp, DD 
 SINC.deg                66.82:  Inc, Start 
 SPPA.psig             2800.00:  SPP Avg 
 SPPN.psig             2610.00:  SPP Min 
 SPPX.psig             3100.00:  SPP Max 
 STIM.      03.30.00 04-May-21:  Start Time 
 SVCS.                 DD, MWD:  Services 
 SVER.                    9.20:  Sperry Version 
 TDAT.m                 228.00:  Tot Depth Attmp 
 TDDF.                      No:  Trip for DD 
 TDLG.m                 228.00:  Tot Depth Loggd 
 TFF .                      No:  Trip for Fail 
 TQAA.f-kp               15.00:  Torque Abs Avg 
 TQAN.f-kp               12.00:  Torque Abs Min 
 TQAX.f-kp               22.00:  Torque Abs Max 
 TRRT.°/30m               0.00:  Turn Rotating 
 MRT .                    HCIM:  Maximum Recorded Temperature 
 TTMX.degC               90.20:  Max Tool Temp 
 VS01.                90627813:  Virtual Str1 SN 
 VS02.                90634712:  Virtual Str2 SN 
 VS03.                90643410:  Virtual Str3 SN 
 VS04.                90634712:  Virtual Str4 SN 
 WBMN.klb                 9.00:  WOB Min 
 WITN.        Elmaddin Rahimov:  Customer Rep 
 WITN.         Haytham Mostafa:  Customer Rep 2 
 WOBA.klb                15.00:  WOB Avg 
 WOBX.klb                23.00:  WOB Max 
 YP  .lhf2               29.00:  Yield Point 
~Curve Information Block
#MNEM.UNIT                 API CODE     Curve Description
#---------               -----------    ---------------------------
 TIME.HHMMSS            00 000 000 000:  GT Time & Date
 GTDEPTH.m              00 000 000 000:  GT Depth
 GTPQH.psia             00 000 000 000:  GT HR Quartz Pressure
 GTTQ.degC              00 000 000 000:  GT Quartz Temperature
 GTTN.NONE              00 000 000 000:  GT Test Number
 GTET.sec               00 000 000 000:  GT Elapsed Test Time
 GTTVD.m                00 000 000 000:  GT True Vertical Depth
#Other Information
#
#WARRANTY: Halliburton will use its best efforts to furnish customers with 
#accurate information and interpretations that are part of, and incident to, the services 
#provided.  However, Halliburton cannot and does not warrant the accuracy 
#or correctness of such information and interpretations.  Under no circumstances should any 
#such information or interpretation be relied upon as the sole basis for any drilling, 
#completion, production, or financial decision or any procedure involving any risk to the 
#safety of any drilling venture, drilling rig or its crew or any other third party.  The 
#Customer has full responsibility for all drilling, completion and production operation.  
#Halliburton makes no representations or warranties, either expressed or 
#implied, including, but not limited to, the implied warranties of merchantability or fitness 
#for a particular purpose, with respect to the services rendered.  In no event will 
#Halliburton be liable for failure to obtain any particular results or for 
#any damages, including, but not limited to, indirect, special or consequential damages, 
#resulting from the use of any information or interpretation provided by Halliburton.
#
~A           TIME           GTDEPTH  GTPQH  GTTQ  GTTN   GTET   GTTVD  
# ...
   23:08:55.807.09-May-2021 4503.01 3169.02 60.48 17.00 112.97 2973.29
   23:08:56.007.09-May-2021 4503.01 3169.02 60.48 17.00 113.17 2973.29
   23:08:56.207.09-May-2021 4503.01 3173.40 60.48 17.00 113.37 2973.29
   23:08:56.407.09-May-2021 4503.01 3175.52 60.48 17.00 113.57 2973.29
   23:08:56.607.09-May-2021 4503.01 3177.61 60.48 17.00 113.77 2973.29
   23:08:56.807.09-May-2021 4503.01 3179.66 60.48 17.00 113.97 2973.29
   23:08:57.007.09-May-2021 4503.01 3179.66 60.48 17.00 114.17 2973.29
   23:08:57.207.09-May-2021 4503.01 3184.20 60.48 17.00 114.37 2973.29
   23:08:57.407.09-May-2021 4503.01 3186.20 60.48 17.00 114.57 2973.29
   23:08:57.607.09-May-2021 4503.01 3188.53 60.48 17.00 114.77 2973.29
   23:08:57.807.09-May-2021 4503.01 3190.52 60.48 17.00 114.97 2973.29
   23:08:58.007.09-May-2021 4503.01 3190.52 60.48 17.00 115.17 2973.29
   23:08:58.207.09-May-2021 4503.01 3194.38 60.48 17.00 115.37 2973.29
   23:08:58.406.09-May-2021 4503.01 3196.20 60.48 17.00 115.57 2973.29
   23:08:58.606.09-May-2021 4503.01 3197.95 60.48 17.00 115.77 2973.29
   23:08:58.806.09-May-2021 4503.01 3199.67 60.48 17.00 115.97 2973.29
   23:08:59.006.09-May-2021 4503.01 3199.67 60.48 17.00 116.17 2973.29
   23:08:59.206.09-May-2021 4503.01 3202.96 60.48 17.00 116.37 2973.29
   23:08:59.406.09-May-2021 4503.01 3204.56 60.48 17.00 116.57 2973.29
   23:08:59.606.09-May-2021 4503.01 3205.55 60.48 17.00 116.77 2973.29
   23:08:59.806.09-May-2021 4503.01 3208.24 60.48 17.00 116.97 2973.29
   23:09:00.006.09-May-2021 4503.01 3208.24 60.48 17.00 117.17 2973.29
   23:09:00.206.09-May-2021 4503.01 3211.22 60.48 17.00 117.37 2973.29
   23:09:00.406.09-May-2021 4503.01 3213.58 60.48 17.00 117.57 2973.29
   23:09:00.606.09-May-2021 4503.01 3215.31 60.48 17.00 117.77 2973.29
   23:09:00.806.09-May-2021 4503.01 3217.36 60.48 17.00 117.97 2973.29
   23:09:01.006.09-May-2021 4503.01 3217.36 60.48 17.00 118.17 2973.29
   23:09:01.206.09-May-2021 4503.01 3220.87 60.48 17.00 118.37 2973.29
   23:09:01.406.09-May-2021 4503.01 3222.53 60.48 17.00 118.57 2973.29
   23:09:01.606.09-May-2021 4503.01 3223.90 60.48 17.00 118.77 2973.29
   23:09:01.806.09-May-2021 4503.01 3225.40 60.48 17.00 118.97 2973.29
   23:09:02.006.09-May-2021 4503.01 3225.40 60.48 17.00 119.17 2973.29
   23:09:02.205.09-May-2021 4503.01 3228.67 60.48 17.00 119.37 2973.29
   23:09:02.405.09-May-2021 4503.01 3230.11 60.48 17.00 119.57 2973.29
   23:09:02.605.09-May-2021 4503.01 3231.24 60.48 17.00 119.77 2973.29
   23:09:02.805.09-May-2021 4503.01 3232.59 60.48 17.00 119.97 2973.29
   23:09:03.005.09-May-2021 4503.01 3232.59 60.48 17.00 120.17 2973.29
   23:09:03.205.09-May-2021 4503.01 3234.85 60.48 17.00 120.37 2973.29
   23:09:03.405.09-May-2021 4503.01 3235.91 60.48 17.00 120.57 2973.29
   23:09:03.605.09-May-2021 4503.01 3236.88 60.48 17.00 120.77 2973.29
   23:09:03.805.09-May-2021 4503.01 3237.85 60.48 17.00 120.97 2973.29
   23:09:04.005.09-May-2021 4503.01 3237.85 60.48 17.00 121.17 2973.29
   23:09:04.205.09-May-2021 4503.01 3239.58 60.48 17.00 121.37 2973.29
   23:09:04.405.09-May-2021 4503.01 3240.35 60.48 17.00 121.57 2973.29
   23:09:04.605.09-May-2021 4503.01 3240.93 60.48 17.00 121.77 2973.29
   23:09:04.805.09-May-2021 4503.01 3243.99 60.48 17.00 121.97 2973.29
   23:09:05.005.09-May-2021 4503.01 3243.99 60.48 17.00 122.17 2973.29
   23:09:05.205.09-May-2021 4503.01 3245.75 60.48 17.00 122.37 2973.29
   23:09:05.405.09-May-2021 4503.01 3246.63 60.48 17.00 122.57 2973.29
   23:09:05.605.09-May-2021 4503.01 3247.24 60.48 17.00 122.77 2973.29
   23:09:05.805.09-May-2021 4503.01 3247.85 60.48 17.00 122.97 2973.29
   23:09:06.005.09-May-2021 4503.01 3247.85 60.48 17.00 123.17 2973.29
   23:09:06.204.09-May-2021 4503.01 3248.82 60.48 17.00 123.37 2973.29
   23:09:06.404.09-May-2021 4503.01 3249.22 60.47 17.00 123.57 2973.29
   23:09:06.604.09-May-2021 4503.01 3249.59 60.48 17.00 123.77 2973.29
   23:09:06.804.09-May-2021 4503.01 3249.89 60.47 17.00 123.97 2973.29
   23:09:07.004.09-May-2021 4503.01 3249.89 60.47 17.00 124.17 2973.29
   23:09:07.204.09-May-2021 4503.01 3251.46 60.47 17.00 124.37 2973.29
   23:09:07.404.09-May-2021 4503.01 3252.35 60.47 17.00 124.57 2973.29
   23:09:07.604.09-May-2021 4503.01 3252.40 60.47 17.00 124.77 2973.29
   23:09:07.804.09-May-2021 4503.01 3252.28 60.47 17.00 124.97 2973.29
   23:09:08.004.09-May-2021 4503.01 3252.28 60.47 17.00 125.17 2973.29
   23:09:08.204.09-May-2021 4503.01 3252.60 60.47 17.00 125.37 2973.29
   23:09:08.404.09-May-2021 4503.01 3252.29 60.47 17.00 125.57 2973.29
   23:09:08.604.09-May-2021 4503.01 3252.29 60.47 17.00 125.77 2973.29
   23:09:08.804.09-May-2021 4503.01 3252.36 60.47 17.00 125.97 2973.29
   23:09:09.004.09-May-2021 4503.01 3252.36 60.47 17.00 126.17 2973.29
   23:09:09.204.09-May-2021 4503.01 3252.32 60.47 17.00 126.37 2973.29
   23:09:09.404.09-May-2021 4503.01 3252.36 60.47 17.00 126.57 2973.29
   23:09:09.604.09-May-2021 4503.01 3252.22 60.47 17.00 126.77 2973.29
   23:09:09.804.09-May-2021 4503.01 3252.36 60.47 17.00 126.97 2973.29
   23:09:10.003.09-May-2021 4503.01 3252.36 60.47 17.00 127.17 2973.29
   23:09:10.203.09-May-2021 4503.01 3252.42 60.47 17.00 127.37 2973.29
   23:09:10.403.09-May-2021 4503.01 3252.30 60.47 17.00 127.57 2973.29
   23:09:10.603.09-May-2021 4503.01 3252.34 60.47 17.00 127.77 2973.29
   23:09:10.803.09-May-2021 4503.01 3252.35 60.47 17.00 127.97 2973.29
   23:09:11.003.09-May-2021 4503.01 3252.35 60.47 17.00 128.17 2973.29
   23:09:11.203.09-May-2021 4503.01 3252.34 60.47 17.00 128.37 2973.29
   23:09:11.403.09-May-2021 4503.01 3252.33 60.47 17.00 128.57 2973.29
   23:09:11.603.09-May-2021 4503.01 3252.34 60.47 17.00 128.77 2973.29
   23:09:11.803.09-May-2021 4503.01 3252.33 60.47 17.00 128.97 2973.29
   23:09:12.003.09-May-2021 4503.01 3252.33 60.47 17.00 129.17 2973.29
   23:09:12.203.09-May-2021 4503.01 3252.31 60.47 17.00 129.37 2973.29
   23:09:12.403.09-May-2021 4503.01 3252.33 60.47 17.00 129.57 2973.29
   23:09:12.603.09-May-2021 4503.01 3252.36 60.47 17.00 129.77 2973.29
   23:09:12.803.09-May-2021 4503.01 3252.40 60.47 17.00 129.97 2973.29
   23:09:13.003.09-May-2021 4503.01 3252.40 60.47 17.00 130.17 2973.29
   23:09:13.203.09-May-2021 4503.01 3252.34 60.47 17.00 130.37 2973.29
   23:09:13.403.09-May-2021 4503.01 3252.34 60.47 17.00 130.57 2973.29
   23:09:13.603.09-May-2021 4503.01 3252.32 60.47 17.00 130.77 2973.29
   23:09:13.802.09-May-2021 4503.01 3252.33 60.47 17.00 130.97 2973.29
   23:09:14.002.09-May-2021 4503.01 3252.33 60.47 17.00 131.17 2973.29
   23:09:14.202.09-May-2021 4503.01 3252.33 60.47 17.00 131.37 2973.29
   23:09:14.402.09-May-2021 4503.01 3252.32 60.47 17.00 131.57 2973.29
   23:09:14.602.09-May-2021 4503.01 3252.32 60.47 17.00 131.77 2973.29
   23:09:14.802.09-May-2021 4503.01 3252.30 60.47 17.00 131.97 2973.29
   23:09:15.002.09-May-2021 4503.01 3252.30 60.47 17.00 132.17 2973.29
   23:09:15.202.09-May-2021 4503.01 3252.35 60.47 17.00 132.37 2973.29
   23:09:15.402.09-May-2021 4503.01 3252.40 60.47 17.00 132.57 2973.29
   23:09:15.602.09-May-2021 4503.01 3252.27 60.47 17.00 132.77 2973.29
   23:09:15.802.09-May-2021 4503.01 3252.34 60.47 17.00 132.97 2973.29
   23:09:16.002.09-May-2021 4503.01 3252.34 60.47 17.00 133.17 2973.29
   23:09:16.202.09-May-2021 4503.01 3252.29 60.47 17.00 133.37 2973.29
   23:09:16.402.09-May-2021 4503.01 3252.35 60.47 17.00 133.57 2973.29
   23:09:16.602.09-May-2021 4503.01 3252.39 60.47 17.00 133.77 2973.29
   23:09:16.802.09-May-2021 4503.01 3252.40 60.47 17.00 133.97 2973.29
   23:09:17.002.09-May-2021 4503.01 3252.40 60.47 17.00 134.17 2973.29
   23:09:17.202.09-May-2021 4503.01 3252.33 60.47 17.00 134.36 2973.29
   23:09:17.402.09-May-2021 4503.01 3252.20 60.47 17.00 134.56 2973.29
   23:09:17.601.09-May-2021 4503.01 3252.21 60.47 17.00 134.76 2973.29
   23:09:17.801.09-May-2021 4503.01 3252.54 60.47 17.00 134.96 2973.29
   23:09:18.001.09-May-2021 4503.01 3252.54 60.47 17.00 135.16 2973.29
   23:09:18.201.09-May-2021 4503.01 3252.36 60.47 17.00 135.36 2973.29
