~Version Information
 VERS.                  2.0:   CWLS log ASCII Standard -VERSION 2.0
 WRAP.                   NO:   One line per depth step
~Well Information Block
#MNEM.UNIT     VALUE/NAME     DESCRIPTION
#---------     -----------    ---------------------------
 STRT.S             23:15:39 08-May-21: START TIME 23:15:39 08-May-21
 STOP.S             23:22:30 08-May-21: STOP TIME  23:22:30 08-May-21
 STEP.S                   0.00: STEP TIME
 NULL.                 -999.25: NULL VALUE
 PROV.                    Baku:  PROVINCE
 STAT.                    Baku:  STATE NAME
 SON .        AZ-XX-0906571588:  JOB NUMBER
 WTYP.                Deviated:  WELL TYPE
 COMP.     BP Exploration (Caspian Sea) ltd:  COMPANY
 BASE.              Azerbaijan:  LOGGING EQUIPMENT BASE LOCATION
 REGN.                   EESSA:  REGION
 CTRY.              Azerbaijan:  COUNTRY NAME
 FLD .                     ACG:  FIELD NAME
 WELL.                     J28:  WELL NAME
 RIG .             West Chirag:  RIG NAME
 DMF .             Drill Floor:  DRILL MEAS FROM
 PDAT.       Caspian Sea Level:  PERMANENT DATUM
 HPTY.       Minimum Curvature:  HOLE POS TYPE
 MDS .        Operator Entered:  MAG DATA SOURCE
 NREF.                    Grid:  NORTH REFERENCE
 SRVC.          TURAN DRILLING:  CONTRACTOR
 JOBN.        AZ-XX-0906571588:  JOB TICKET NUMB
 DCON.     Halliburton Sperry Drilling:  DIRECTNL CONTR
 STIM.      00.44.00 11-Feb-21:  START TIME
 DATE.      00.00.00 05-May-21:  END TIME
 SPUD.               13-Feb-21:  SPUD DATE
 MWDS.                    Baku:  MWD SHOP
 DOE .                     N/A:  DOE NUMBER
 UNIT.                     N/A:  LOGGING EQUIPMENT ID
 UWI .                     N/A:  UNIQUE WELL IDENTIFIER
 API .                     N/A:  API NUMBER
 CNTY.                        :  COUNTY
 LOC .                        :  LOCATION
 LMF .             Drill Floor:  LOG MEASURED FROM
 TVDS.m                  43.00:  TVDSS CORRECTN
 SDEP.m                 341.00:  START DEPTH
 EGL .m                   0.00:  GROUND ELEVATION
 WDMS.m                 169.80:  WD ELEV
 AGAP.m                  43.00:  AIR GAP
 EPD .m                   0.00:  ELEVATION
 APD .m                  43.00:  DEPTH ABOVE PD
 LATI.deg                40.13:  LATITUDE
 LONG.deg                51.22:  LONGITUDE
 UTMY.m             4443793.85:  UTM Y
 UTMX.m              519005.06:  UTM X
 WHEW.m                 -11.57:  WELL HEAD E/W
 WHNS.m                   8.57:  WELL HEAD N/S
 VSEW.m                 -11.57:  VERT SEC E/W
 VSNS.m                   8.57:  VERT SEC N/S
 DFWL.m                   0.00:  DISTANCE FWL
 DFSL.m                   0.00:  DISTANCE FSL
 VSDR.deg               299.34:  VERT SEC DIRECT
 GVFD.g                   1.00:  GRAVITY FIELD
 AZTC.deg                 6.36:  AZM TOTAL CORR
 MFLD.nT              50391.00:  MAGNETIC FIELD
 MDIP.deg                59.65:  MAGNETIC DIP
 MDEC.deg                 6.48:  MAGNETIC DECL
 GRDC.deg                 0.12:  GRID CORRECTION
 DEP .m                 334.96:  DEPTH
 TDD .m                1407.26:  TOTAL DEPTH (DRILLER)
 EKB .m                  43.00:  KB ELEVATION
 EDF .m                  43.00:  DF ELEVATION
 TDL .m                 228.00:  TOTAL DEPTH (LOGGER)
 VSC .                       0:  VS TO CLOSURE
 MAGU.                 1854484:  MAGUTM CHECKSUM
~Parameter Information Block
#MNEM.UNIT       Value        Description
#---------     -----------    ---------------------------
 AV  .mps                 4.00:  Ann Velocity 
 AVMX.mps                 4.73:  Max Ann Veloc 
 AZIF.deg               304.48:  Azm, Final 
 BHAT.        Rotary Steerable:  BHA Type 
 BREV.rev            257300.00:  Rev Bit Total 
 BROT.°/30m               0.00:  Build Rotating 
 BS  .in                  8.50:  Bit Size 
 BSZ .in                  8.50:  Bit Size 
 BTPL.psig              589.00:  Bit Press Loss 
 CABU.                      No:  Customer Abuse 
 CGEO.          Mubariz ghayev:  Customer Geo 
 COMM.                     dˆ[:  Run Comments 1 
 TCS .hr                 64.25:  Time Ciculation Ended 
 CV  .mps                 3.50:  Crit Velocity 
 CVMX.mps                 4.52:  Max Crit Veloc 
 DD1 .             Aziz Aliyev:  Direct Drillr 1 
 DD2 .         Intigam Rahimov:  Direct Drillr 2 
 DD3 .          Rashad Habibov:  Direct Drillr 3 
 DDSV.               Geo-Pilot:  DD Service 
 DEFF.%                  98.00:  % Det Eff 
 DLRX.°/30m               0.00:  Dogleg Rot Max 
 DLSO.°/30m               0.00:  Dogleg Oriented 
 DLSX.°/30m               0.00:  Dogleg Str Max 
 DRET.      10.45.04 08-May-21:  Drill End Time 
 DRST.      03.30.04 04-May-21:  Drill Start Tim 
 DTIM.hr                 14.97:  Time Drilling 
 EDEP.m                4640.01:  End Depth 
 ENG1.         Dail Mahammadov:  Engineer 1 
 ENG2.           Eldar Hajiyev:  Engineer 2 
 ENG3.       Bakhtiar Jabbarli:  Engineer 3 
 ENG4.       Natik Hasanagayev:  Engineer 4 
 ETIM.      09.30.04 14-May-21:  End Time 
 FLOI.gpm               460.00:  Flow In 
 FLON.gpm               200.00:  Flow In Min 
 FLOS.cptm                0.00:  Fluid Loss 
 FLOX.gpm               505.00:  Flow In Max 
 HFLO.                      No:  High Flow 
 HPRE.                      No:  High Pressure 
 HTEM.                      No:  High Temp 
 HYDO.m                   1.80:  Hydro Offset 
 IFIN.deg                66.71:  Inc, Final 
 IMAX.deg                67.03:  Inc Max 
 IMIN.deg                66.63:  Inc Min 
 IMND.m                4550.58:  Inc Min Depth 
 IMXD.m                4439.01:  Inc Max Depth 
 JARR.                      No:  Jarring 
 LETM.      10.45.04 08-May-21:  Log End Time 
 LOST.hr                     0:  Lost Rig Time 
 LSTM.      03.30.04 04-May-21:  Log Start Time 
 MDCL.ppm             37000.00:  Mud Chlorides 
 MDES.     Inversion Oil/Synthetic:  Mud Desc 
 DFD .sg                  1.38:  Mud Density 
 MDMN.sg                  1.35:  Dens Mud Min 
 MDMX.sg                  1.40:  Dens Mud Max 
 MOIL.                   57.40:  Run Mud Oil % 
 MOWR.                   70:30:  Run Mud OWR 
 MSND.                    0.00:  Run Mud Sand % 
 MSOL.                   18.00:  Run Mud Solids% 
 DFV .spqt               71.00:  Mud Viscosity 
 MWOD.in                  6.75:  MWD Tool OD 
 MWSI.                      No:  Serv Intrp, MWD 
 OTIM.hr                242.76:  Time Operating 
 PCON.           Look Like New:  Pad Condition 
 PMAX.psia            12183.92:  Press Op, Max 
 PV  .cP                 27.00:  Mud PV 
 RUN .                    1300:  Run Number 
 ROPA.m/hr               15.00:  ROP Avg 
 ROPN.m/hr                9.00:  ROP Min 
 ROPX.m/hr               19.00:  ROP Max 
 RPMA.rpm               120.00:  RPM Surface Avg 
 RPMN.rpm               100.00:  RPM Surface Min 
 RPMX.rpm               120.00:  RPM Surface Max 
 RRUN.                    1300:  Rig Run Number 
 RTIM.hr                  5.00:  Time Reaming 
 SAZI.deg               304.73:  Azm, Start 
 SDEP.m                4412.01:  Start Depth 
 SIDD.                      No:  Serv Intrp, DD 
 SINC.deg                66.82:  Inc, Start 
 SPPA.psig             2800.00:  SPP Avg 
 SPPN.psig             2610.00:  SPP Min 
 SPPX.psig             3100.00:  SPP Max 
 STIM.      03.30.00 04-May-21:  Start Time 
 SVCS.                 DD, MWD:  Services 
 SVER.                    9.20:  Sperry Version 
 TDAT.m                 228.00:  Tot Depth Attmp 
 TDDF.                      No:  Trip for DD 
 TDLG.m                 228.00:  Tot Depth Loggd 
 TFF .                      No:  Trip for Fail 
 TQAA.f-kp               15.00:  Torque Abs Avg 
 TQAN.f-kp               12.00:  Torque Abs Min 
 TQAX.f-kp               22.00:  Torque Abs Max 
 TRRT.°/30m               0.00:  Turn Rotating 
 MRT .                    HCIM:  Maximum Recorded Temperature 
 TTMX.degC               90.20:  Max Tool Temp 
 VS01.                90627813:  Virtual Str1 SN 
 VS02.                90634712:  Virtual Str2 SN 
 VS03.                90643410:  Virtual Str3 SN 
 VS04.                90634712:  Virtual Str4 SN 
 WBMN.klb                 9.00:  WOB Min 
 WITN.        Elmaddin Rahimov:  Customer Rep 
 WITN.         Haytham Mostafa:  Customer Rep 2 
 WOBA.klb                15.00:  WOB Avg 
 WOBX.klb                23.00:  WOB Max 
 YP  .lhf2               29.00:  Yield Point 
~Curve Information Block
#MNEM.UNIT                 API CODE     Curve Description
#---------               -----------    ---------------------------
 TIME.HHMMSS            00 000 000 000:  GT Time & Date
 GTDEPTH.m              00 000 000 000:  GT Depth
 GTPQH.psia             00 000 000 000:  GT HR Quartz Pressure
 GTTQ.degC              00 000 000 000:  GT Quartz Temperature
 GTTN.NONE              00 000 000 000:  GT Test Number
 GTET.sec               00 000 000 000:  GT Elapsed Test Time
 GTTVD.m                00 000 000 000:  GT True Vertical Depth
#Other Information
#
#WARRANTY: Halliburton will use its best efforts to furnish customers with 
#accurate information and interpretations that are part of, and incident to, the services 
#provided.  However, Halliburton cannot and does not warrant the accuracy 
#or correctness of such information and interpretations.  Under no circumstances should any 
#such information or interpretation be relied upon as the sole basis for any drilling, 
#completion, production, or financial decision or any procedure involving any risk to the 
#safety of any drilling venture, drilling rig or its crew or any other third party.  The 
#Customer has full responsibility for all drilling, completion and production operation.  
#Halliburton makes no representations or warranties, either expressed or 
#implied, including, but not limited to, the implied warranties of merchantability or fitness 
#for a particular purpose, with respect to the services rendered.  In no event will 
#Halliburton be liable for failure to obtain any particular results or for 
#any damages, including, but not limited to, indirect, special or consequential damages, 
#resulting from the use of any information or interpretation provided by Halliburton.
#
~A           TIME           GTDEPTH  GTPQH  GTTQ  GTTN  GTET   GTTVD  
   23:15:39.658.08-May-2021 4549.51 6710.02 68.69 5.00   0.00 2991.64
   23:15:39.858.08-May-2021 4549.51 6710.02 68.69 5.00   0.20 2991.64
   23:15:40.058.08-May-2021 4549.51 6711.55 68.69 5.00   0.40 2991.64
   23:15:40.258.08-May-2021 4549.51 6717.80 68.69 5.00   0.60 2991.64
   23:15:40.458.08-May-2021 4549.51 6720.03 68.69 5.00   0.80 2991.64
   23:15:40.658.08-May-2021 4549.51 6714.26 68.69 5.00   1.00 2991.64
   23:15:40.858.08-May-2021 4549.51 6714.26 68.69 5.00   1.20 2991.64
   23:15:41.058.08-May-2021 4549.51 6709.38 68.69 5.00   1.40 2991.64
   23:15:41.258.08-May-2021 4549.51 6710.25 68.69 5.00   1.60 2991.64
   23:15:41.458.08-May-2021 4549.51 6716.32 68.69 5.00   1.80 2991.64
   23:15:41.658.08-May-2021 4549.51 6718.52 68.69 5.00   2.00 2991.64
   23:15:41.858.08-May-2021 4549.51 6718.52 68.69 5.00   2.20 2991.64
   23:15:42.058.08-May-2021 4549.51 6709.53 68.69 5.00   2.40 2991.64
   23:15:42.258.08-May-2021 4549.51 6710.12 68.69 5.00   2.60 2991.64
   23:15:42.458.08-May-2021 4549.51 6716.95 68.69 5.00   2.80 2991.64
   23:15:42.657.08-May-2021 4549.51 6714.98 68.69 5.00   3.00 2991.64
   23:15:42.857.08-May-2021 4549.51 6714.98 68.69 5.00   3.20 2991.64
   23:15:43.057.08-May-2021 4549.51 6714.73 68.69 5.00   3.40 2991.64
   23:15:43.257.08-May-2021 4549.51 6714.69 68.69 5.00   3.60 2991.64
   23:15:43.457.08-May-2021 4549.51 6721.62 68.69 5.00   3.80 2991.64
   23:15:43.657.08-May-2021 4549.51 6724.95 68.69 5.00   4.00 2991.64
   23:15:43.857.08-May-2021 4549.51 6724.95 68.69 5.00   4.20 2991.64
   23:15:44.057.08-May-2021 4549.51 6717.44 68.69 5.00   4.40 2991.64
   23:15:44.257.08-May-2021 4549.51 6717.86 68.69 5.00   4.60 2991.64
   23:15:44.457.08-May-2021 4549.51 6718.73 68.69 5.00   4.80 2991.64
   23:15:44.657.08-May-2021 4549.51 6718.43 68.69 5.00   5.00 2991.64
   23:15:44.857.08-May-2021 4549.51 6718.43 68.69 5.00   5.20 2991.64
   23:15:45.057.08-May-2021 4549.51 6719.31 68.69 5.00   5.40 2991.64
   23:15:45.257.08-May-2021 4549.51 6719.93 68.69 5.00   5.60 2991.64
   23:15:45.457.08-May-2021 4549.51 6720.93 68.69 5.00   5.80 2991.64
   23:15:45.657.08-May-2021 4549.51 6721.00 68.69 5.00   6.00 2991.64
   23:15:45.856.08-May-2021 4549.51 6721.00 68.69 5.00   6.20 2991.64
   23:15:46.056.08-May-2021 4549.51 6719.65 68.69 5.00   6.40 2991.64
   23:15:46.256.08-May-2021 4549.51 6731.74 68.69 5.00   6.60 2991.64
   23:15:46.456.08-May-2021 4549.51 6726.15 68.69 5.00   6.80 2991.64
   23:15:46.656.08-May-2021 4549.51 6725.28 68.69 5.00   7.00 2991.64
   23:15:46.856.08-May-2021 4549.51 6725.28 68.69 5.00   7.20 2991.64
   23:15:47.056.08-May-2021 4549.51 6724.21 68.69 5.00   7.40 2991.64
   23:15:47.256.08-May-2021 4549.51 6723.72 68.68 5.00   7.60 2991.64
   23:15:47.456.08-May-2021 4549.51 6723.83 68.68 5.00   7.80 2991.64
   23:15:47.656.08-May-2021 4549.51 6724.58 68.68 5.00   8.00 2991.64
   23:15:47.856.08-May-2021 4549.51 6724.58 68.68 5.00   8.20 2991.64
   23:15:48.056.08-May-2021 4549.51 6726.16 68.68 5.00   8.40 2991.64
   23:15:48.256.08-May-2021 4549.51 6727.25 68.68 5.00   8.60 2991.64
   23:15:48.456.08-May-2021 4549.51 6726.75 68.68 5.00   8.80 2991.64
   23:15:48.656.08-May-2021 4549.51 6725.82 68.68 5.00   9.00 2991.64
   23:15:48.856.08-May-2021 4549.51 6725.82 68.68 5.00   9.20 2991.64
   23:15:49.055.08-May-2021 4549.51 6735.11 68.68 5.00   9.40 2991.64
   23:15:49.255.08-May-2021 4549.51 6738.52 68.68 5.00   9.60 2991.64
   23:15:49.455.08-May-2021 4549.51 6733.41 68.68 5.00   9.80 2991.64
   23:15:49.655.08-May-2021 4549.51 6729.50 68.68 5.00  10.00 2991.64
   23:15:49.855.08-May-2021 4549.51 6729.50 68.68 5.00  10.20 2991.64
   23:15:50.055.08-May-2021 4549.51 6736.70 68.68 5.00  10.40 2991.64
   23:15:50.255.08-May-2021 4549.51 6739.96 68.68 5.00  10.60 2991.64
   23:15:50.455.08-May-2021 4549.51 6735.00 68.68 5.00  10.80 2991.64
   23:15:50.655.08-May-2021 4549.51 6732.95 68.68 5.00  11.00 2991.64
   23:15:50.855.08-May-2021 4549.51 6732.95 68.68 5.00  11.20 2991.64
   23:15:51.055.08-May-2021 4549.51 6739.70 68.68 5.00  11.40 2991.64
   23:15:51.255.08-May-2021 4549.51 6743.10 68.68 5.00  11.60 2991.64
   23:15:51.455.08-May-2021 4549.51 6738.53 68.68 5.00  11.80 2991.64
   23:15:51.655.08-May-2021 4549.51 6734.76 68.68 5.00  12.00 2991.64
   23:15:51.855.08-May-2021 4549.51 6734.76 68.68 5.00  12.20 2991.64
   23:15:52.055.08-May-2021 4549.51 6734.76 68.68 5.00  12.40 2991.64
   23:15:52.254.08-May-2021 4549.51 6740.38 68.68 5.00  12.60 2991.64
   23:15:52.454.08-May-2021 4549.51 6743.96 68.68 5.00  12.80 2991.64
   23:15:52.654.08-May-2021 4549.51 6744.28 68.68 5.00  13.00 2991.64
   23:15:52.854.08-May-2021 4549.51 6744.28 68.68 5.00  13.20 2991.64
   23:15:53.054.08-May-2021 4549.51 6739.95 68.68 5.00  13.40 2991.64
   23:15:53.254.08-May-2021 4549.51 6741.34 68.68 5.00  13.60 2991.64
   23:15:53.454.08-May-2021 4549.51 6740.50 68.68 5.00  13.80 2991.64
   23:15:53.654.08-May-2021 4549.51 6749.33 68.68 5.00  14.00 2991.64
   23:15:53.854.08-May-2021 4549.51 6749.33 68.68 5.00  14.20 2991.64
   23:15:54.054.08-May-2021 4549.51 6747.62 68.68 5.00  14.40 2991.64
   23:15:54.254.08-May-2021 4549.51 6746.07 68.68 5.00  14.60 2991.64
   23:15:54.454.08-May-2021 4549.51 6746.97 68.68 5.00  14.80 2991.64
   23:15:54.654.08-May-2021 4549.51 6743.79 68.68 5.00  15.00 2991.64
   23:15:54.854.08-May-2021 4549.51 6743.79 68.68 5.00  15.20 2991.64
   23:15:55.054.08-May-2021 4549.51 6744.15 68.68 5.00  15.40 2991.64
   23:15:55.254.08-May-2021 4549.51 6744.56 68.68 5.00  15.60 2991.64
   23:15:55.453.08-May-2021 4549.51 6744.42 68.68 5.00  15.80 2991.64
   23:15:55.653.08-May-2021 4549.51 6744.74 68.68 5.00  16.00 2991.64
   23:15:55.853.08-May-2021 4549.51 6744.74 68.68 5.00  16.19 2991.64
   23:15:56.053.08-May-2021 4549.51 6744.53 68.68 5.00  16.39 2991.64
   23:15:56.253.08-May-2021 4549.51 6750.63 68.68 5.00  16.59 2991.64
   23:15:56.453.08-May-2021 4549.51 6750.02 68.68 5.00  16.79 2991.64
   23:15:56.653.08-May-2021 4549.51 6754.53 68.68 5.00  16.99 2991.64
   23:15:56.853.08-May-2021 4549.51 6754.53 68.68 5.00  17.19 2991.64
   23:15:57.053.08-May-2021 4549.51 6750.85 68.68 5.00  17.39 2991.64
   23:15:57.253.08-May-2021 4549.51 6748.78 68.68 5.00  17.59 2991.64
   23:15:57.453.08-May-2021 4549.51 6747.23 68.68 5.00  17.79 2991.64
   23:15:57.653.08-May-2021 4549.51 6747.98 68.68 5.00  17.99 2991.64
   23:15:57.853.08-May-2021 4549.51 6747.98 68.68 5.00  18.19 2991.64
   23:15:58.053.08-May-2021 4549.51 6749.13 68.68 5.00  18.39 2991.64
   23:15:58.253.08-May-2021 4549.51 6747.98 68.68 5.00  18.59 2991.64
   23:15:58.453.08-May-2021 4549.51 6747.12 68.68 5.00  18.79 2991.64
   23:15:58.652.08-May-2021 4549.51 6747.60 68.68 5.00  18.99 2991.64
   23:15:58.852.08-May-2021 4549.51 6747.60 68.68 5.00  19.19 2991.64
   23:15:59.052.08-May-2021 4549.51 6756.94 68.68 5.00  19.39 2991.64
   23:15:59.252.08-May-2021 4549.51 6758.45 68.68 5.00  19.59 2991.64
   23:15:59.452.08-May-2021 4549.51 6752.04 68.68 5.00  19.79 2991.64
   23:15:59.652.08-May-2021 4549.51 6761.83 68.68 5.00  19.99 2991.64
   23:15:59.852.08-May-2021 4549.51 6761.83 68.68 5.00  20.19 2991.64
   23:16:00.052.08-May-2021 4549.51 6755.50 68.68 5.00  20.39 2991.64
   23:16:00.252.08-May-2021 4549.51 6751.58 68.68 5.00  20.59 2991.64
   23:16:00.452.08-May-2021 4549.51 6753.44 68.68 5.00  20.79 2991.64
   23:16:00.652.08-May-2021 4549.51 6758.64 68.68 5.00  20.99 2991.64
   23:16:00.852.08-May-2021 4549.51 6758.64 68.68 5.00  21.19 2991.64
   23:16:01.052.08-May-2021 4549.51 6760.19 68.68 5.00  21.39 2991.64
   23:16:01.252.08-May-2021 4549.51 6754.91 68.68 5.00  21.59 2991.64
   23:16:01.452.08-May-2021 4549.51 6762.43 68.68 5.00  21.79 2991.64
   23:16:01.652.08-May-2021 4549.51 6760.98 68.68 5.00  21.99 2991.64
   23:16:01.851.08-May-2021 4549.51 6760.98 68.68 5.00  22.19 2991.64
   23:16:02.051.08-May-2021 4549.51 6756.93 68.67 5.00  22.39 2991.64
   23:16:02.251.08-May-2021 4549.51 6758.21 68.67 5.00  22.59 2991.64
   23:16:02.451.08-May-2021 4549.51 6757.83 68.67 5.00  22.79 2991.64
