~Version Information
 VERS.                  2.0:   CWLS log ASCII Standard -VERSION 2.0
 WRAP.                   NO:   One line per depth step
~Well Information Block
#MNEM.UNIT     VALUE/NAME     DESCRIPTION
#---------     -----------    ---------------------------
 STRT.S             01:12:50 09-May-21: START TIME 01:12:50 09-May-21
 STOP.S             01:19:27 09-May-21: STOP TIME  01:19:27 09-May-21
 STEP.S                   0.00: STEP TIME
 NULL.                 -999.25: NULL VALUE
 PROV.                    Baku:  PROVINCE
 STAT.                    Baku:  STATE NAME
 SON .        AZ-XX-0906571588:  JOB NUMBER
 WTYP.                Deviated:  WELL TYPE
 COMP.     BP Exploration (Caspian Sea) ltd:  COMPANY
 BASE.              Azerbaijan:  LOGGING EQUIPMENT BASE LOCATION
 REGN.                   EESSA:  REGION
 CTRY.              Azerbaijan:  COUNTRY NAME
 FLD .                     ACG:  FIELD NAME
 WELL.                     J28:  WELL NAME
 RIG .             West Chirag:  RIG NAME
 DMF .             Drill Floor:  DRILL MEAS FROM
 PDAT.       Caspian Sea Level:  PERMANENT DATUM
 HPTY.       Minimum Curvature:  HOLE POS TYPE
 MDS .        Operator Entered:  MAG DATA SOURCE
 NREF.                    Grid:  NORTH REFERENCE
 SRVC.          TURAN DRILLING:  CONTRACTOR
 JOBN.        AZ-XX-0906571588:  JOB TICKET NUMB
 DCON.     Halliburton Sperry Drilling:  DIRECTNL CONTR
 STIM.      00.44.00 11-Feb-21:  START TIME
 DATE.      00.00.00 05-May-21:  END TIME
 SPUD.               13-Feb-21:  SPUD DATE
 MWDS.                    Baku:  MWD SHOP
 DOE .                     N/A:  DOE NUMBER
 UNIT.                     N/A:  LOGGING EQUIPMENT ID
 UWI .                     N/A:  UNIQUE WELL IDENTIFIER
 API .                     N/A:  API NUMBER
 CNTY.                        :  COUNTY
 LOC .                        :  LOCATION
 LMF .             Drill Floor:  LOG MEASURED FROM
 TVDS.m                  43.00:  TVDSS CORRECTN
 SDEP.m                 341.00:  START DEPTH
 EGL .m                   0.00:  GROUND ELEVATION
 WDMS.m                 169.80:  WD ELEV
 AGAP.m                  43.00:  AIR GAP
 EPD .m                   0.00:  ELEVATION
 APD .m                  43.00:  DEPTH ABOVE PD
 LATI.deg                40.13:  LATITUDE
 LONG.deg                51.22:  LONGITUDE
 UTMY.m             4443793.85:  UTM Y
 UTMX.m              519005.06:  UTM X
 WHEW.m                 -11.57:  WELL HEAD E/W
 WHNS.m                   8.57:  WELL HEAD N/S
 VSEW.m                 -11.57:  VERT SEC E/W
 VSNS.m                   8.57:  VERT SEC N/S
 DFWL.m                   0.00:  DISTANCE FWL
 DFSL.m                   0.00:  DISTANCE FSL
 VSDR.deg               299.34:  VERT SEC DIRECT
 GVFD.g                   1.00:  GRAVITY FIELD
 AZTC.deg                 6.36:  AZM TOTAL CORR
 MFLD.nT              50391.00:  MAGNETIC FIELD
 MDIP.deg                59.65:  MAGNETIC DIP
 MDEC.deg                 6.48:  MAGNETIC DECL
 GRDC.deg                 0.12:  GRID CORRECTION
 DEP .m                 334.96:  DEPTH
 TDD .m                1407.26:  TOTAL DEPTH (DRILLER)
 EKB .m                  43.00:  KB ELEVATION
 EDF .m                  43.00:  DF ELEVATION
 TDL .m                 228.00:  TOTAL DEPTH (LOGGER)
 VSC .                       0:  VS TO CLOSURE
 MAGU.                 1854484:  MAGUTM CHECKSUM
~Parameter Information Block
#MNEM.UNIT       Value        Description
#---------     -----------    ---------------------------
 AV  .mps                 4.00:  Ann Velocity 
 AVMX.mps                 4.73:  Max Ann Veloc 
 AZIF.deg               304.48:  Azm, Final 
 BHAT.        Rotary Steerable:  BHA Type 
 BREV.rev            257300.00:  Rev Bit Total 
 BROT.°/30m               0.00:  Build Rotating 
 BS  .in                  8.50:  Bit Size 
 BSZ .in                  8.50:  Bit Size 
 BTPL.psig              589.00:  Bit Press Loss 
 CABU.                      No:  Customer Abuse 
 CGEO.          Mubariz ghayev:  Customer Geo 
 COMM.                     ÌğZ:  Run Comments 1 
 TCS .hr                 64.25:  Time Ciculation Ended 
 CV  .mps                 3.50:  Crit Velocity 
 CVMX.mps                 4.52:  Max Crit Veloc 
 DD1 .             Aziz Aliyev:  Direct Drillr 1 
 DD2 .         Intigam Rahimov:  Direct Drillr 2 
 DD3 .          Rashad Habibov:  Direct Drillr 3 
 DDSV.               Geo-Pilot:  DD Service 
 DEFF.%                  98.00:  % Det Eff 
 DLRX.°/30m               0.00:  Dogleg Rot Max 
 DLSO.°/30m               0.00:  Dogleg Oriented 
 DLSX.°/30m               0.00:  Dogleg Str Max 
 DRET.      10.45.04 08-May-21:  Drill End Time 
 DRST.      03.30.04 04-May-21:  Drill Start Tim 
 DTIM.hr                 14.97:  Time Drilling 
 EDEP.m                4640.01:  End Depth 
 ENG1.         Dail Mahammadov:  Engineer 1 
 ENG2.           Eldar Hajiyev:  Engineer 2 
 ENG3.       Bakhtiar Jabbarli:  Engineer 3 
 ENG4.       Natik Hasanagayev:  Engineer 4 
 ETIM.      09.30.04 14-May-21:  End Time 
 FLOI.gpm               460.00:  Flow In 
 FLON.gpm               200.00:  Flow In Min 
 FLOS.cptm                0.00:  Fluid Loss 
 FLOX.gpm               505.00:  Flow In Max 
 HFLO.                      No:  High Flow 
 HPRE.                      No:  High Pressure 
 HTEM.                      No:  High Temp 
 HYDO.m                   1.80:  Hydro Offset 
 IFIN.deg                66.71:  Inc, Final 
 IMAX.deg                67.03:  Inc Max 
 IMIN.deg                66.63:  Inc Min 
 IMND.m                4550.58:  Inc Min Depth 
 IMXD.m                4439.01:  Inc Max Depth 
 JARR.                      No:  Jarring 
 LETM.      10.45.04 08-May-21:  Log End Time 
 LOST.hr                     0:  Lost Rig Time 
 LSTM.      03.30.04 04-May-21:  Log Start Time 
 MDCL.ppm             37000.00:  Mud Chlorides 
 MDES.     Inversion Oil/Synthetic:  Mud Desc 
 DFD .sg                  1.38:  Mud Density 
 MDMN.sg                  1.35:  Dens Mud Min 
 MDMX.sg                  1.40:  Dens Mud Max 
 MOIL.                   57.40:  Run Mud Oil % 
 MOWR.                   70:30:  Run Mud OWR 
 MSND.                    0.00:  Run Mud Sand % 
 MSOL.                   18.00:  Run Mud Solids% 
 DFV .spqt               71.00:  Mud Viscosity 
 MWOD.in                  6.75:  MWD Tool OD 
 MWSI.                      No:  Serv Intrp, MWD 
 OTIM.hr                242.76:  Time Operating 
 PCON.           Look Like New:  Pad Condition 
 PMAX.psia            12183.92:  Press Op, Max 
 PV  .cP                 27.00:  Mud PV 
 RUN .                    1300:  Run Number 
 ROPA.m/hr               15.00:  ROP Avg 
 ROPN.m/hr                9.00:  ROP Min 
 ROPX.m/hr               19.00:  ROP Max 
 RPMA.rpm               120.00:  RPM Surface Avg 
 RPMN.rpm               100.00:  RPM Surface Min 
 RPMX.rpm               120.00:  RPM Surface Max 
 RRUN.                    1300:  Rig Run Number 
 RTIM.hr                  5.00:  Time Reaming 
 SAZI.deg               304.73:  Azm, Start 
 SDEP.m                4412.01:  Start Depth 
 SIDD.                      No:  Serv Intrp, DD 
 SINC.deg                66.82:  Inc, Start 
 SPPA.psig             2800.00:  SPP Avg 
 SPPN.psig             2610.00:  SPP Min 
 SPPX.psig             3100.00:  SPP Max 
 STIM.      03.30.00 04-May-21:  Start Time 
 SVCS.                 DD, MWD:  Services 
 SVER.                    9.20:  Sperry Version 
 TDAT.m                 228.00:  Tot Depth Attmp 
 TDDF.                      No:  Trip for DD 
 TDLG.m                 228.00:  Tot Depth Loggd 
 TFF .                      No:  Trip for Fail 
 TQAA.f-kp               15.00:  Torque Abs Avg 
 TQAN.f-kp               12.00:  Torque Abs Min 
 TQAX.f-kp               22.00:  Torque Abs Max 
 TRRT.°/30m               0.00:  Turn Rotating 
 MRT .                    HCIM:  Maximum Recorded Temperature 
 TTMX.degC               90.20:  Max Tool Temp 
 VS01.                90627813:  Virtual Str1 SN 
 VS02.                90634712:  Virtual Str2 SN 
 VS03.                90643410:  Virtual Str3 SN 
 VS04.                90634712:  Virtual Str4 SN 
 WBMN.klb                 9.00:  WOB Min 
 WITN.        Elmaddin Rahimov:  Customer Rep 
 WITN.         Haytham Mostafa:  Customer Rep 2 
 WOBA.klb                15.00:  WOB Avg 
 WOBX.klb                23.00:  WOB Max 
 YP  .lhf2               29.00:  Yield Point 
~Curve Information Block
#MNEM.UNIT                 API CODE     Curve Description
#---------               -----------    ---------------------------
 TIME.HHMMSS            00 000 000 000:  GT Time & Date
 GTDEPTH.m              00 000 000 000:  GT Depth
 GTPQH.psia             00 000 000 000:  GT HR Quartz Pressure
 GTTQ.degC              00 000 000 000:  GT Quartz Temperature
 GTTN.NONE              00 000 000 000:  GT Test Number
 GTET.sec               00 000 000 000:  GT Elapsed Test Time
 GTTVD.m                00 000 000 000:  GT True Vertical Depth
#Other Information
#
#WARRANTY: Halliburton will use its best efforts to furnish customers with 
#accurate information and interpretations that are part of, and incident to, the services 
#provided.  However, Halliburton cannot and does not warrant the accuracy 
#or correctness of such information and interpretations.  Under no circumstances should any 
#such information or interpretation be relied upon as the sole basis for any drilling, 
#completion, production, or financial decision or any procedure involving any risk to the 
#safety of any drilling venture, drilling rig or its crew or any other third party.  The 
#Customer has full responsibility for all drilling, completion and production operation.  
#Halliburton makes no representations or warranties, either expressed or 
#implied, including, but not limited to, the implied warranties of merchantability or fitness 
#for a particular purpose, with respect to the services rendered.  In no event will 
#Halliburton be liable for failure to obtain any particular results or for 
#any damages, including, but not limited to, indirect, special or consequential damages, 
#resulting from the use of any information or interpretation provided by Halliburton.
#
~A           TIME           GTDEPTH  GTPQH  GTTQ  GTTN  GTET   GTTVD  
# ...
   01:14:22.814.09-May-2021 4503.51  812.97 67.47 9.00  92.03 2973.49
   01:14:23.014.09-May-2021 4503.51  812.97 67.47 9.00  92.23 2973.49
   01:14:23.214.09-May-2021 4503.51  813.28 67.47 9.00  92.43 2973.49
   01:14:23.415.09-May-2021 4503.51  813.62 67.47 9.00  92.63 2973.49
   01:14:23.615.09-May-2021 4503.51  813.80 67.47 9.00  92.83 2973.49
   01:14:23.815.09-May-2021 4503.51  814.09 67.47 9.00  93.03 2973.49
   01:14:24.015.09-May-2021 4503.51  814.09 67.47 9.00  93.23 2973.49
   01:14:24.215.09-May-2021 4503.51  814.37 67.47 9.00  93.43 2973.49
   01:14:24.415.09-May-2021 4503.51  814.92 67.47 9.00  93.63 2973.49
   01:14:24.615.09-May-2021 4503.51  815.17 67.47 9.00  93.83 2973.49
   01:14:24.815.09-May-2021 4503.51  815.44 67.47 9.00  94.03 2973.49
   01:14:25.015.09-May-2021 4503.51  815.44 67.47 9.00  94.23 2973.49
   01:14:25.215.09-May-2021 4503.51  815.73 67.47 9.00  94.43 2973.49
   01:14:25.415.09-May-2021 4503.51  815.99 67.47 9.00  94.63 2973.49
   01:14:25.615.09-May-2021 4503.51  816.28 67.47 9.00  94.83 2973.49
   01:14:25.815.09-May-2021 4503.51  816.00 67.47 9.00  95.03 2973.49
   01:14:26.015.09-May-2021 4503.51  816.00 67.47 9.00  95.23 2973.49
   01:14:26.216.09-May-2021 4503.51  816.91 67.47 9.00  95.43 2973.49
   01:14:26.416.09-May-2021 4503.51  816.98 67.47 9.00  95.63 2973.49
   01:14:26.616.09-May-2021 4503.51  816.73 67.47 9.00  95.83 2973.49
   01:14:26.816.09-May-2021 4503.51  817.61 67.47 9.00  96.03 2973.49
   01:14:27.016.09-May-2021 4503.51  817.61 67.47 9.00  96.23 2973.49
   01:14:27.216.09-May-2021 4503.51  817.90 67.47 9.00  96.43 2973.49
   01:14:27.416.09-May-2021 4503.51  818.05 67.47 9.00  96.64 2973.49
   01:14:27.616.09-May-2021 4503.51  817.75 67.47 9.00  96.84 2973.49
   01:14:27.816.09-May-2021 4503.51  818.70 67.47 9.00  97.04 2973.49
   01:14:28.016.09-May-2021 4503.51  818.70 67.47 9.00  97.24 2973.49
   01:14:28.216.09-May-2021 4503.51  822.12 67.47 9.00  97.44 2973.49
   01:14:28.416.09-May-2021 4503.51  825.99 67.47 9.00  97.64 2973.49
   01:14:28.616.09-May-2021 4503.51  827.60 67.47 9.00  97.84 2973.49
   01:14:28.816.09-May-2021 4503.51  827.89 67.48 9.00  98.04 2973.49
   01:14:29.017.09-May-2021 4503.51  827.89 67.48 9.00  98.24 2973.49
   01:14:29.217.09-May-2021 4503.51  828.39 67.48 9.00  98.44 2973.49
   01:14:29.417.09-May-2021 4503.51  828.65 67.48 9.00  98.64 2973.49
   01:14:29.617.09-May-2021 4503.51  828.90 67.48 9.00  98.84 2973.49
   01:14:29.817.09-May-2021 4503.51  829.17 67.48 9.00  99.04 2973.49
   01:14:30.017.09-May-2021 4503.51  829.17 67.48 9.00  99.24 2973.49
   01:14:30.217.09-May-2021 4503.51  829.21 67.48 9.00  99.44 2973.49
   01:14:30.417.09-May-2021 4503.51  829.98 67.48 9.00  99.64 2973.49
   01:14:30.617.09-May-2021 4503.51  830.03 67.48 9.00  99.84 2973.49
   01:14:30.817.09-May-2021 4503.51  830.09 67.48 9.00 100.04 2973.49
   01:14:31.017.09-May-2021 4503.51  830.09 67.48 9.00 100.24 2973.49
   01:14:31.217.09-May-2021 4503.51  830.64 67.48 9.00 100.44 2973.49
   01:14:31.417.09-May-2021 4503.51  830.90 67.48 9.00 100.64 2973.49
   01:14:31.617.09-May-2021 4503.51  831.12 67.48 9.00 100.84 2973.49
   01:14:31.818.09-May-2021 4503.51  831.34 67.48 9.00 101.04 2973.49
   01:14:32.018.09-May-2021 4503.51  831.34 67.48 9.00 101.24 2973.49
   01:14:32.218.09-May-2021 4503.51  831.79 67.48 9.00 101.44 2973.49
   01:14:32.418.09-May-2021 4503.51  832.02 67.48 9.00 101.64 2973.49
   01:14:32.618.09-May-2021 4503.51  832.13 67.48 9.00 101.84 2973.49
   01:14:32.818.09-May-2021 4503.51  832.01 67.48 9.00 102.04 2973.49
   01:14:33.018.09-May-2021 4503.51  832.01 67.48 9.00 102.24 2973.49
   01:14:33.218.09-May-2021 4503.51  832.83 67.48 9.00 102.44 2973.49
   01:14:33.418.09-May-2021 4503.51  832.86 67.48 9.00 102.64 2973.49
   01:14:33.618.09-May-2021 4503.51  832.68 67.48 9.00 102.84 2973.49
   01:14:33.818.09-May-2021 4503.51  833.40 67.48 9.00 103.04 2973.49
   01:14:34.018.09-May-2021 4503.51  833.40 67.48 9.00 103.24 2973.49
   01:14:34.218.09-May-2021 4503.51  833.25 67.48 9.00 103.44 2973.49
   01:14:34.418.09-May-2021 4503.51  834.25 67.48 9.00 103.64 2973.49
   01:14:34.619.09-May-2021 4503.51  834.19 67.48 9.00 103.84 2973.49
   01:14:34.819.09-May-2021 4503.51  834.61 67.48 9.00 104.04 2973.49
   01:14:35.019.09-May-2021 4503.51  834.61 67.48 9.00 104.24 2973.49
   01:14:35.219.09-May-2021 4503.51  834.90 67.48 9.00 104.44 2973.49
   01:14:35.419.09-May-2021 4503.51  834.65 67.48 9.00 104.64 2973.49
   01:14:35.619.09-May-2021 4503.51  835.43 67.48 9.00 104.84 2973.49
   01:14:35.819.09-May-2021 4503.51  835.44 67.48 9.00 105.04 2973.49
   01:14:36.019.09-May-2021 4503.51  835.44 67.48 9.00 105.24 2973.49
   01:14:36.219.09-May-2021 4503.51  835.89 67.48 9.00 105.44 2973.49
   01:14:36.419.09-May-2021 4503.51  836.04 67.48 9.00 105.64 2973.49
   01:14:36.619.09-May-2021 4503.51  836.31 67.48 9.00 105.84 2973.49
   01:14:36.819.09-May-2021 4503.51  836.51 67.48 9.00 106.04 2973.49
   01:14:37.019.09-May-2021 4503.51  836.51 67.48 9.00 106.24 2973.49
   01:14:37.220.09-May-2021 4503.51  836.98 67.48 9.00 106.44 2973.49
   01:14:37.420.09-May-2021 4503.51  837.19 67.48 9.00 106.64 2973.49
   01:14:37.620.09-May-2021 4503.51  837.44 67.48 9.00 106.84 2973.49
   01:14:37.820.09-May-2021 4503.51  837.55 67.48 9.00 107.04 2973.49
   01:14:38.020.09-May-2021 4503.51  837.55 67.48 9.00 107.24 2973.49
   01:14:38.220.09-May-2021 4503.51  838.21 67.48 9.00 107.44 2973.49
   01:14:38.420.09-May-2021 4503.51  838.25 67.48 9.00 107.64 2973.49
   01:14:38.620.09-May-2021 4503.51  838.30 67.48 9.00 107.84 2973.49
   01:14:38.820.09-May-2021 4503.51  838.58 67.48 9.00 108.04 2973.49
   01:14:39.020.09-May-2021 4503.51  838.58 67.48 9.00 108.24 2973.49
   01:14:39.220.09-May-2021 4503.51  838.98 67.48 9.00 108.44 2973.49
   01:14:39.420.09-May-2021 4503.51  839.17 67.48 9.00 108.64 2973.49
   01:14:39.620.09-May-2021 4503.51  839.38 67.48 9.00 108.84 2973.49
   01:14:39.820.09-May-2021 4503.51  839.57 67.48 9.00 109.04 2973.49
   01:14:40.021.09-May-2021 4503.51  839.57 67.48 9.00 109.24 2973.49
   01:14:40.221.09-May-2021 4503.51  839.99 67.48 9.00 109.44 2973.49
   01:14:40.421.09-May-2021 4503.51  839.82 67.48 9.00 109.64 2973.49
   01:14:40.621.09-May-2021 4503.51  841.42 67.48 9.00 109.84 2973.49
   01:14:40.821.09-May-2021 4503.51  842.45 67.48 9.00 110.04 2973.49
   01:14:41.021.09-May-2021 4503.51  842.45 67.48 9.00 110.24 2973.49
   01:14:41.221.09-May-2021 4503.51  842.63 67.48 9.00 110.44 2973.49
   01:14:41.421.09-May-2021 4503.51  842.55 67.48 9.00 110.64 2973.49
   01:14:41.621.09-May-2021 4503.51  843.29 67.48 9.00 110.84 2973.49
   01:14:41.821.09-May-2021 4503.51  843.28 67.48 9.00 111.04 2973.49
   01:14:42.021.09-May-2021 4503.51  843.28 67.48 9.00 111.24 2973.49
   01:14:42.221.09-May-2021 4503.51  843.09 67.48 9.00 111.44 2973.49
   01:14:42.421.09-May-2021 4503.51  843.91 67.48 9.00 111.64 2973.49
   01:14:42.621.09-May-2021 4503.51  843.79 67.48 9.00 111.84 2973.49
   01:14:42.822.09-May-2021 4503.51  844.03 67.48 9.00 112.04 2973.49
   01:14:43.022.09-May-2021 4503.51  844.03 67.48 9.00 112.24 2973.49
   01:14:43.222.09-May-2021 4503.51  844.42 67.48 9.00 112.44 2973.49
   01:14:43.422.09-May-2021 4503.51  844.66 67.48 9.00 112.64 2973.49
   01:14:43.622.09-May-2021 4503.51  844.94 67.48 9.00 112.84 2973.49
   01:14:43.822.09-May-2021 4503.51  844.90 67.48 9.00 113.04 2973.49
   01:14:44.022.09-May-2021 4503.51  844.90 67.48 9.00 113.24 2973.49
   01:14:44.222.09-May-2021 4503.51  845.14 67.48 9.00 113.44 2973.49
   01:14:44.422.09-May-2021 4503.51  845.49 67.48 9.00 113.64 2973.49
   01:14:44.622.09-May-2021 4503.51  845.73 67.48 9.00 113.84 2973.49
   01:14:44.822.09-May-2021 4503.51  845.88 67.48 9.00 114.04 2973.49
   01:14:45.022.09-May-2021 4503.51  845.88 67.48 9.00 114.24 2973.49
   01:14:45.222.09-May-2021 4503.51  846.26 67.48 9.00 114.44 2973.49
   01:14:45.422.09-May-2021 4503.51  846.43 67.48 9.00 114.64 2973.49
   01:14:45.623.09-May-2021 4503.51  846.27 67.48 9.00 114.84 2973.49
