~Version Information
 VERS.                  2.0:   CWLS log ASCII Standard -VERSION 2.0
 WRAP.                   NO:   One line per depth step
~Well Information Block
#MNEM.UNIT     VALUE/NAME     DESCRIPTION
#---------     -----------    ---------------------------
 STRT.S             20:58:23 08-May-21: START TIME 20:58:23 08-May-21
 STOP.S             21:05:15 08-May-21: STOP TIME  21:05:15 08-May-21
 STEP.S                   0.00: STEP TIME
 NULL.                 -999.25: NULL VALUE
 PROV.                    Baku:  PROVINCE
 STAT.                    Baku:  STATE NAME
 SON .        AZ-XX-0906571588:  JOB NUMBER
 WTYP.                Deviated:  WELL TYPE
 COMP.     BP Exploration (Caspian Sea) ltd:  COMPANY
 BASE.              Azerbaijan:  LOGGING EQUIPMENT BASE LOCATION
 REGN.                   EESSA:  REGION
 CTRY.              Azerbaijan:  COUNTRY NAME
 FLD .                     ACG:  FIELD NAME
 WELL.                     J28:  WELL NAME
 RIG .             West Chirag:  RIG NAME
 DMF .             Drill Floor:  DRILL MEAS FROM
 PDAT.       Caspian Sea Level:  PERMANENT DATUM
 HPTY.       Minimum Curvature:  HOLE POS TYPE
 MDS .        Operator Entered:  MAG DATA SOURCE
 NREF.                    Grid:  NORTH REFERENCE
 SRVC.          TURAN DRILLING:  CONTRACTOR
 JOBN.        AZ-XX-0906571588:  JOB TICKET NUMB
 DCON.     Halliburton Sperry Drilling:  DIRECTNL CONTR
 STIM.      00.44.00 11-Feb-21:  START TIME
 DATE.      00.00.00 05-May-21:  END TIME
 SPUD.               13-Feb-21:  SPUD DATE
 MWDS.                    Baku:  MWD SHOP
 DOE .                     N/A:  DOE NUMBER
 UNIT.                     N/A:  LOGGING EQUIPMENT ID
 UWI .                     N/A:  UNIQUE WELL IDENTIFIER
 API .                     N/A:  API NUMBER
 CNTY.                        :  COUNTY
 LOC .                        :  LOCATION
 LMF .             Drill Floor:  LOG MEASURED FROM
 TVDS.m                  43.00:  TVDSS CORRECTN
 SDEP.m                 341.00:  START DEPTH
 EGL .m                   0.00:  GROUND ELEVATION
 WDMS.m                 169.80:  WD ELEV
 AGAP.m                  43.00:  AIR GAP
 EPD .m                   0.00:  ELEVATION
 APD .m                  43.00:  DEPTH ABOVE PD
 LATI.deg                40.13:  LATITUDE
 LONG.deg                51.22:  LONGITUDE
 UTMY.m             4443793.85:  UTM Y
 UTMX.m              519005.06:  UTM X
 WHEW.m                 -11.57:  WELL HEAD E/W
 WHNS.m                   8.57:  WELL HEAD N/S
 VSEW.m                 -11.57:  VERT SEC E/W
 VSNS.m                   8.57:  VERT SEC N/S
 DFWL.m                   0.00:  DISTANCE FWL
 DFSL.m                   0.00:  DISTANCE FSL
 VSDR.deg               299.34:  VERT SEC DIRECT
 GVFD.g                   1.00:  GRAVITY FIELD
 AZTC.deg                 6.36:  AZM TOTAL CORR
 MFLD.nT              50391.00:  MAGNETIC FIELD
 MDIP.deg                59.65:  MAGNETIC DIP
 MDEC.deg                 6.48:  MAGNETIC DECL
 GRDC.deg                 0.12:  GRID CORRECTION
 DEP .m                 334.96:  DEPTH
 TDD .m                1407.26:  TOTAL DEPTH (DRILLER)
 EKB .m                  43.00:  KB ELEVATION
 EDF .m                  43.00:  DF ELEVATION
 TDL .m                 228.00:  TOTAL DEPTH (LOGGER)
 VSC .                       0:  VS TO CLOSURE
 MAGU.                 1854484:  MAGUTM CHECKSUM
~Parameter Information Block
#MNEM.UNIT       Value        Description
#---------     -----------    ---------------------------
 AV  .mps                 4.00:  Ann Velocity 
 AVMX.mps                 4.73:  Max Ann Veloc 
 AZIF.deg               304.48:  Azm, Final 
 BHAT.        Rotary Steerable:  BHA Type 
 BREV.rev            257300.00:  Rev Bit Total 
 BROT.°/30m               0.00:  Build Rotating 
 BS  .in                  8.50:  Bit Size 
 BSZ .in                  8.50:  Bit Size 
 BTPL.psig              589.00:  Bit Press Loss 
 CABU.                      No:  Customer Abuse 
 CGEO.          Mubariz ghayev:  Customer Geo 
 COMM.                     ”<v:  Run Comments 1 
 TCS .hr                 64.25:  Time Ciculation Ended 
 CV  .mps                 3.50:  Crit Velocity 
 CVMX.mps                 4.52:  Max Crit Veloc 
 DD1 .             Aziz Aliyev:  Direct Drillr 1 
 DD2 .         Intigam Rahimov:  Direct Drillr 2 
 DD3 .          Rashad Habibov:  Direct Drillr 3 
 DDSV.               Geo-Pilot:  DD Service 
 DEFF.%                  98.00:  % Det Eff 
 DLRX.°/30m               0.00:  Dogleg Rot Max 
 DLSO.°/30m               0.00:  Dogleg Oriented 
 DLSX.°/30m               0.00:  Dogleg Str Max 
 DRET.      10.45.04 08-May-21:  Drill End Time 
 DRST.      03.30.04 04-May-21:  Drill Start Tim 
 DTIM.hr                 14.97:  Time Drilling 
 EDEP.m                4640.01:  End Depth 
 ENG1.         Dail Mahammadov:  Engineer 1 
 ENG2.           Eldar Hajiyev:  Engineer 2 
 ENG3.       Bakhtiar Jabbarli:  Engineer 3 
 ENG4.       Natik Hasanagayev:  Engineer 4 
 ETIM.      09.30.04 14-May-21:  End Time 
 FLOI.gpm               460.00:  Flow In 
 FLON.gpm               200.00:  Flow In Min 
 FLOS.cptm                0.00:  Fluid Loss 
 FLOX.gpm               505.00:  Flow In Max 
 HFLO.                      No:  High Flow 
 HPRE.                      No:  High Pressure 
 HTEM.                      No:  High Temp 
 HYDO.m                   1.80:  Hydro Offset 
 IFIN.deg                66.71:  Inc, Final 
 IMAX.deg                67.03:  Inc Max 
 IMIN.deg                66.63:  Inc Min 
 IMND.m                4550.58:  Inc Min Depth 
 IMXD.m                4439.01:  Inc Max Depth 
 JARR.                      No:  Jarring 
 LETM.      10.45.04 08-May-21:  Log End Time 
 LOST.hr                     0:  Lost Rig Time 
 LSTM.      03.30.04 04-May-21:  Log Start Time 
 MDCL.ppm             37000.00:  Mud Chlorides 
 MDES.     Inversion Oil/Synthetic:  Mud Desc 
 DFD .sg                  1.38:  Mud Density 
 MDMN.sg                  1.35:  Dens Mud Min 
 MDMX.sg                  1.40:  Dens Mud Max 
 MOIL.                   57.40:  Run Mud Oil % 
 MOWR.                   70:30:  Run Mud OWR 
 MSND.                    0.00:  Run Mud Sand % 
 MSOL.                   18.00:  Run Mud Solids% 
 DFV .spqt               71.00:  Mud Viscosity 
 MWOD.in                  6.75:  MWD Tool OD 
 MWSI.                      No:  Serv Intrp, MWD 
 OTIM.hr                242.76:  Time Operating 
 PCON.           Look Like New:  Pad Condition 
 PMAX.psia            12183.92:  Press Op, Max 
 PV  .cP                 27.00:  Mud PV 
 RUN .                    1300:  Run Number 
 ROPA.m/hr               15.00:  ROP Avg 
 ROPN.m/hr                9.00:  ROP Min 
 ROPX.m/hr               19.00:  ROP Max 
 RPMA.rpm               120.00:  RPM Surface Avg 
 RPMN.rpm               100.00:  RPM Surface Min 
 RPMX.rpm               120.00:  RPM Surface Max 
 RRUN.                    1300:  Rig Run Number 
 RTIM.hr                  5.00:  Time Reaming 
 SAZI.deg               304.73:  Azm, Start 
 SDEP.m                4412.01:  Start Depth 
 SIDD.                      No:  Serv Intrp, DD 
 SINC.deg                66.82:  Inc, Start 
 SPPA.psig             2800.00:  SPP Avg 
 SPPN.psig             2610.00:  SPP Min 
 SPPX.psig             3100.00:  SPP Max 
 STIM.      03.30.00 04-May-21:  Start Time 
 SVCS.                 DD, MWD:  Services 
 SVER.                    9.20:  Sperry Version 
 TDAT.m                 228.00:  Tot Depth Attmp 
 TDDF.                      No:  Trip for DD 
 TDLG.m                 228.00:  Tot Depth Loggd 
 TFF .                      No:  Trip for Fail 
 TQAA.f-kp               15.00:  Torque Abs Avg 
 TQAN.f-kp               12.00:  Torque Abs Min 
 TQAX.f-kp               22.00:  Torque Abs Max 
 TRRT.°/30m               0.00:  Turn Rotating 
 MRT .                    HCIM:  Maximum Recorded Temperature 
 TTMX.degC               90.20:  Max Tool Temp 
 VS01.                90627813:  Virtual Str1 SN 
 VS02.                90634712:  Virtual Str2 SN 
 VS03.                90643410:  Virtual Str3 SN 
 VS04.                90634712:  Virtual Str4 SN 
 WBMN.klb                 9.00:  WOB Min 
 WITN.        Elmaddin Rahimov:  Customer Rep 
 WITN.         Haytham Mostafa:  Customer Rep 2 
 WOBA.klb                15.00:  WOB Avg 
 WOBX.klb                23.00:  WOB Max 
 YP  .lhf2               29.00:  Yield Point 
~Curve Information Block
#MNEM.UNIT                 API CODE     Curve Description
#---------               -----------    ---------------------------
 TIME.HHMMSS            00 000 000 000:  GT Time & Date
 GTDEPTH.m              00 000 000 000:  GT Depth
 GTPQH.psia             00 000 000 000:  GT HR Quartz Pressure
 GTTQ.degC              00 000 000 000:  GT Quartz Temperature
 GTTN.NONE              00 000 000 000:  GT Test Number
 GTET.sec               00 000 000 000:  GT Elapsed Test Time
 GTTVD.m                00 000 000 000:  GT True Vertical Depth
#Other Information
#
#WARRANTY: Halliburton will use its best efforts to furnish customers with 
#accurate information and interpretations that are part of, and incident to, the services 
#provided.  However, Halliburton cannot and does not warrant the accuracy 
#or correctness of such information and interpretations.  Under no circumstances should any 
#such information or interpretation be relied upon as the sole basis for any drilling, 
#completion, production, or financial decision or any procedure involving any risk to the 
#safety of any drilling venture, drilling rig or its crew or any other third party.  The 
#Customer has full responsibility for all drilling, completion and production operation.  
#Halliburton makes no representations or warranties, either expressed or 
#implied, including, but not limited to, the implied warranties of merchantability or fitness 
#for a particular purpose, with respect to the services rendered.  In no event will 
#Halliburton be liable for failure to obtain any particular results or for 
#any damages, including, but not limited to, indirect, special or consequential damages, 
#resulting from the use of any information or interpretation provided by Halliburton.
#
~A           TIME           GTDEPTH  GTPQH  GTTQ  GTTN  GTET   GTTVD  
# ...
   20:59:09.784.08-May-2021 4593.01 2151.04 69.01 2.00  46.00 3008.90
   20:59:09.984.08-May-2021 4593.01 2151.04 69.01 2.00  46.20 3008.90
   20:59:10.184.08-May-2021 4593.01 2075.91 69.00 2.00  46.40 3008.90
   20:59:10.384.08-May-2021 4593.01 2100.12 69.00 2.00  46.60 3008.90
   20:59:10.585.08-May-2021 4593.01 2529.05 69.00 2.00  46.80 3008.90
   20:59:10.785.08-May-2021 4593.01 2916.77 69.00 2.00  47.00 3008.90
   20:59:10.985.08-May-2021 4593.01 2916.77 69.00 2.00  47.20 3008.90
   20:59:11.185.08-May-2021 4593.01 3399.40 68.99 2.00  47.40 3008.90
   20:59:11.385.08-May-2021 4593.01 3533.12 68.99 2.00  47.60 3008.90
   20:59:11.585.08-May-2021 4593.01 3624.81 68.99 2.00  47.80 3008.90
   20:59:11.785.08-May-2021 4593.01 3686.45 68.99 2.00  48.00 3008.90
   20:59:11.985.08-May-2021 4593.01 3686.45 68.99 2.00  48.20 3008.90
   20:59:12.185.08-May-2021 4593.01 3750.41 68.99 2.00  48.41 3008.90
   20:59:12.385.08-May-2021 4593.01 3763.40 68.99 2.00  48.61 3008.90
   20:59:12.585.08-May-2021 4593.01 3770.29 68.99 2.00  48.81 3008.90
   20:59:12.785.08-May-2021 4593.01 3773.40 68.99 2.00  49.01 3008.90
   20:59:12.985.08-May-2021 4593.01 3773.40 68.99 2.00  49.21 3008.90
   20:59:13.185.08-May-2021 4593.01 3774.90 68.99 2.00  49.41 3008.90
   20:59:13.385.08-May-2021 4593.01 3775.29 68.99 2.00  49.61 3008.90
   20:59:13.585.08-May-2021 4593.01 3775.55 68.99 2.00  49.81 3008.90
   20:59:13.785.08-May-2021 4593.01 3775.72 68.99 2.00  50.01 3008.90
   20:59:13.985.08-May-2021 4593.01 3775.72 68.99 2.00  50.21 3008.90
   20:59:14.185.08-May-2021 4593.01 3776.18 68.99 2.00  50.41 3008.90
   20:59:14.385.08-May-2021 4593.01 3776.04 68.99 2.00  50.61 3008.90
   20:59:14.585.08-May-2021 4593.01 3776.14 68.99 2.00  50.81 3008.90
   20:59:14.785.08-May-2021 4593.01 3776.41 68.99 2.00  51.01 3008.90
   20:59:14.985.08-May-2021 4593.01 3776.41 68.99 2.00  51.21 3008.90
   20:59:15.185.08-May-2021 4593.01 3776.44 68.99 2.00  51.41 3008.90
   20:59:15.385.08-May-2021 4593.01 3776.62 68.99 2.00  51.61 3008.90
   20:59:15.585.08-May-2021 4593.01 3776.49 68.99 2.00  51.81 3008.90
   20:59:15.785.08-May-2021 4593.01 3776.56 68.99 2.00  52.01 3008.90
   20:59:15.985.08-May-2021 4593.01 3776.56 68.99 2.00  52.21 3008.90
   20:59:16.185.08-May-2021 4593.01 3776.77 68.99 2.00  52.41 3008.90
   20:59:16.385.08-May-2021 4593.01 3776.80 68.99 2.00  52.61 3008.90
   20:59:16.585.08-May-2021 4593.01 3776.67 68.99 2.00  52.81 3008.90
   20:59:16.785.08-May-2021 4593.01 3776.79 68.99 2.00  53.01 3008.90
   20:59:16.985.08-May-2021 4593.01 3776.79 68.99 2.00  53.21 3008.90
   20:59:17.185.08-May-2021 4593.01 3776.90 68.99 2.00  53.41 3008.90
   20:59:17.385.08-May-2021 4593.01 3777.04 68.99 2.00  53.61 3008.90
   20:59:17.585.08-May-2021 4593.01 3776.74 69.00 2.00  53.81 3008.90
   20:59:17.785.08-May-2021 4593.01 3776.97 69.00 2.00  54.01 3008.90
   20:59:17.985.08-May-2021 4593.01 3776.97 69.00 2.00  54.21 3008.90
   20:59:18.185.08-May-2021 4593.01 3777.23 69.00 2.00  54.41 3008.90
   20:59:18.385.08-May-2021 4593.01 3776.78 69.00 2.00  54.61 3008.90
   20:59:18.585.08-May-2021 4593.01 3777.13 69.00 2.00  54.81 3008.90
   20:59:18.785.08-May-2021 4593.01 3776.94 69.00 2.00  55.01 3008.90
   20:59:18.985.08-May-2021 4593.01 3776.94 69.00 2.00  55.21 3008.90
   20:59:19.185.08-May-2021 4593.01 3776.97 69.00 2.00  55.41 3008.90
   20:59:19.385.08-May-2021 4593.01 3777.06 69.00 2.00  55.61 3008.90
   20:59:19.585.08-May-2021 4593.01 3776.98 69.00 2.00  55.81 3008.90
   20:59:19.785.08-May-2021 4593.01 3777.12 69.00 2.00  56.01 3008.90
   20:59:19.985.08-May-2021 4593.01 3777.12 69.00 2.00  56.21 3008.90
   20:59:20.185.08-May-2021 4593.01 3777.09 69.00 2.00  56.41 3008.90
   20:59:20.386.08-May-2021 4593.01 3777.23 69.00 2.00  56.61 3008.90
   20:59:20.586.08-May-2021 4593.01 3777.05 69.00 2.00  56.81 3008.90
   20:59:20.786.08-May-2021 4593.01 3777.13 69.00 2.00  57.01 3008.90
   20:59:20.986.08-May-2021 4593.01 3777.13 69.00 2.00  57.21 3008.90
   20:59:21.186.08-May-2021 4593.01 3777.14 69.00 2.00  57.41 3008.90
   20:59:21.386.08-May-2021 4593.01 3777.13 69.00 2.00  57.61 3008.90
   20:59:21.586.08-May-2021 4593.01 3777.40 69.00 2.00  57.81 3008.90
   20:59:21.786.08-May-2021 4593.01 3777.26 69.00 2.00  58.01 3008.90
   20:59:21.986.08-May-2021 4593.01 3777.26 69.00 2.00  58.21 3008.90
   20:59:22.186.08-May-2021 4593.01 3777.25 69.00 2.00  58.41 3008.90
   20:59:22.386.08-May-2021 4593.01 3777.25 69.00 2.00  58.61 3008.90
   20:59:22.586.08-May-2021 4593.01 3777.15 69.00 2.00  58.81 3008.90
   20:59:22.786.08-May-2021 4593.01 3777.32 69.00 2.00  59.01 3008.90
   20:59:22.986.08-May-2021 4593.01 3777.32 69.00 2.00  59.21 3008.90
   20:59:23.186.08-May-2021 4593.01 3777.20 69.00 2.00  59.41 3008.90
   20:59:23.386.08-May-2021 4593.01 3777.24 69.00 2.00  59.61 3008.90
   20:59:23.586.08-May-2021 4593.01 3777.38 69.00 2.00  59.81 3008.90
   20:59:23.786.08-May-2021 4593.01 3777.25 69.00 2.00  60.01 3008.90
   20:59:23.986.08-May-2021 4593.01 3777.25 69.00 2.00  60.21 3008.90
   20:59:24.186.08-May-2021 4593.01 3777.50 69.01 2.00  60.41 3008.90
   20:59:24.386.08-May-2021 4593.01 3777.32 69.01 2.00  60.61 3008.90
   20:59:24.586.08-May-2021 4593.01 3777.19 69.01 2.00  60.81 3008.90
   20:59:24.786.08-May-2021 4593.01 3777.46 69.01 2.00  61.01 3008.90
   20:59:24.986.08-May-2021 4593.01 3777.46 69.01 2.00  61.21 3008.90
   20:59:25.186.08-May-2021 4593.01 3777.47 69.01 2.00  61.41 3008.90
   20:59:25.386.08-May-2021 4593.01 3777.34 69.01 2.00  61.61 3008.90
   20:59:25.586.08-May-2021 4593.01 3777.37 69.01 2.00  61.81 3008.90
   20:59:25.786.08-May-2021 4593.01 3777.30 69.01 2.00  62.01 3008.90
   20:59:25.986.08-May-2021 4593.01 3777.30 69.01 2.00  62.21 3008.90
   20:59:26.186.08-May-2021 4593.01 3777.55 69.01 2.00  62.41 3008.90
   20:59:26.386.08-May-2021 4593.01 3777.11 69.01 2.00  62.61 3008.90
   20:59:26.586.08-May-2021 4593.01 3777.55 69.01 2.00  62.81 3008.90
   20:59:26.786.08-May-2021 4593.01 3777.29 69.01 2.00  63.01 3008.90
   20:59:26.986.08-May-2021 4593.01 3777.29 69.01 2.00  63.21 3008.90
   20:59:27.186.08-May-2021 4593.01 3777.36 69.01 2.00  63.41 3008.90
   20:59:27.386.08-May-2021 4593.01 3777.42 69.01 2.00  63.61 3008.90
   20:59:27.586.08-May-2021 4593.01 3777.37 69.01 2.00  63.81 3008.90
   20:59:27.786.08-May-2021 4593.01 3777.39 69.01 2.00  64.01 3008.90
   20:59:27.986.08-May-2021 4593.01 3777.39 69.01 2.00  64.21 3008.90
   20:59:28.186.08-May-2021 4593.01 3777.40 69.01 2.00  64.41 3008.90
   20:59:28.386.08-May-2021 4593.01 3777.45 69.01 2.00  64.61 3008.90
   20:59:28.586.08-May-2021 4593.01 3777.45 69.01 2.00  64.81 3008.90
   20:59:28.786.08-May-2021 4593.01 3777.39 69.01 2.00  65.01 3008.90
   20:59:28.986.08-May-2021 4593.01 3777.39 69.01 2.00  65.21 3008.90
   20:59:29.186.08-May-2021 4593.01 3777.53 69.01 2.00  65.41 3008.90
   20:59:29.386.08-May-2021 4593.01 3777.43 69.01 2.00  65.61 3008.90
   20:59:29.586.08-May-2021 4593.01 3777.54 69.01 2.00  65.81 3008.90
   20:59:29.786.08-May-2021 4593.01 3777.58 69.01 2.00  66.01 3008.90
   20:59:29.987.08-May-2021 4593.01 3777.58 69.01 2.00  66.21 3008.90
   20:59:30.187.08-May-2021 4593.01 3777.44 69.01 2.00  66.41 3008.90
   20:59:30.387.08-May-2021 4593.01 3777.48 69.01 2.00  66.61 3008.90
   20:59:30.587.08-May-2021 4593.01 3777.48 69.01 2.00  66.81 3008.90
   20:59:30.787.08-May-2021 4593.01 3777.45 69.01 2.00  67.01 3008.90
   20:59:30.987.08-May-2021 4593.01 3777.45 69.01 2.00  67.21 3008.90
   20:59:31.187.08-May-2021 4593.01 3777.52 69.01 2.00  67.41 3008.90
   20:59:31.387.08-May-2021 4593.01 3777.46 69.01 2.00  67.61 3008.90
   20:59:31.587.08-May-2021 4593.01 3777.44 69.01 2.00  67.81 3008.90
   20:59:31.787.08-May-2021 4593.01 3777.56 69.01 2.00  68.01 3008.90
   20:59:31.987.08-May-2021 4593.01 3777.56 69.01 2.00  68.21 3008.90
   20:59:32.187.08-May-2021 4593.01 3777.60 69.01 2.00  68.41 3008.90
   20:59:32.387.08-May-2021 4593.01 3777.58 69.01 2.00  68.61 3008.90
   20:59:32.587.08-May-2021 4593.01 3777.34 69.01 2.00  68.81 3008.90
