~Version Information
 VERS.                  2.0:   CWLS log ASCII Standard -VERSION 2.0
 WRAP.                   NO:   One line per depth step
~Well Information Block
#MNEM.UNIT     VALUE/NAME     DESCRIPTION
#---------     -----------    ---------------------------
 STRT.S             02:35:25 09-May-21: START TIME 02:35:25 09-May-21
 STOP.S             02:42:01 09-May-21: STOP TIME  02:42:01 09-May-21
 STEP.S                   0.00: STEP TIME
 NULL.                 -999.25: NULL VALUE
 PROV.                    Baku:  PROVINCE
 STAT.                    Baku:  STATE NAME
 SON .        AZ-XX-0906571588:  JOB NUMBER
 WTYP.                Deviated:  WELL TYPE
 COMP.     BP Exploration (Caspian Sea) ltd:  COMPANY
 BASE.              Azerbaijan:  LOGGING EQUIPMENT BASE LOCATION
 REGN.                   EESSA:  REGION
 CTRY.              Azerbaijan:  COUNTRY NAME
 FLD .                     ACG:  FIELD NAME
 WELL.                     J28:  WELL NAME
 RIG .             West Chirag:  RIG NAME
 DMF .             Drill Floor:  DRILL MEAS FROM
 PDAT.       Caspian Sea Level:  PERMANENT DATUM
 HPTY.       Minimum Curvature:  HOLE POS TYPE
 MDS .        Operator Entered:  MAG DATA SOURCE
 NREF.                    Grid:  NORTH REFERENCE
 SRVC.          TURAN DRILLING:  CONTRACTOR
 JOBN.        AZ-XX-0906571588:  JOB TICKET NUMB
 DCON.     Halliburton Sperry Drilling:  DIRECTNL CONTR
 STIM.      00.44.00 11-Feb-21:  START TIME
 DATE.      00.00.00 05-May-21:  END TIME
 SPUD.               13-Feb-21:  SPUD DATE
 MWDS.                    Baku:  MWD SHOP
 DOE .                     N/A:  DOE NUMBER
 UNIT.                     N/A:  LOGGING EQUIPMENT ID
 UWI .                     N/A:  UNIQUE WELL IDENTIFIER
 API .                     N/A:  API NUMBER
 CNTY.                        :  COUNTY
 LOC .                        :  LOCATION
 LMF .             Drill Floor:  LOG MEASURED FROM
 TVDS.m                  43.00:  TVDSS CORRECTN
 SDEP.m                 341.00:  START DEPTH
 EGL .m                   0.00:  GROUND ELEVATION
 WDMS.m                 169.80:  WD ELEV
 AGAP.m                  43.00:  AIR GAP
 EPD .m                   0.00:  ELEVATION
 APD .m                  43.00:  DEPTH ABOVE PD
 LATI.deg                40.13:  LATITUDE
 LONG.deg                51.22:  LONGITUDE
 UTMY.m             4443793.85:  UTM Y
 UTMX.m              519005.06:  UTM X
 WHEW.m                 -11.57:  WELL HEAD E/W
 WHNS.m                   8.57:  WELL HEAD N/S
 VSEW.m                 -11.57:  VERT SEC E/W
 VSNS.m                   8.57:  VERT SEC N/S
 DFWL.m                   0.00:  DISTANCE FWL
 DFSL.m                   0.00:  DISTANCE FSL
 VSDR.deg               299.34:  VERT SEC DIRECT
 GVFD.g                   1.00:  GRAVITY FIELD
 AZTC.deg                 6.36:  AZM TOTAL CORR
 MFLD.nT              50391.00:  MAGNETIC FIELD
 MDIP.deg                59.65:  MAGNETIC DIP
 MDEC.deg                 6.48:  MAGNETIC DECL
 GRDC.deg                 0.12:  GRID CORRECTION
 DEP .m                 334.96:  DEPTH
 TDD .m                1407.26:  TOTAL DEPTH (DRILLER)
 EKB .m                  43.00:  KB ELEVATION
 EDF .m                  43.00:  DF ELEVATION
 TDL .m                 228.00:  TOTAL DEPTH (LOGGER)
 VSC .                       0:  VS TO CLOSURE
 MAGU.                 1854484:  MAGUTM CHECKSUM
~Parameter Information Block
#MNEM.UNIT       Value        Description
#---------     -----------    ---------------------------
 AV  .mps                 4.00:  Ann Velocity 
 AVMX.mps                 4.73:  Max Ann Veloc 
 AZIF.deg               304.48:  Azm, Final 
 BHAT.        Rotary Steerable:  BHA Type 
 BREV.rev            257300.00:  Rev Bit Total 
 BROT.°/30m               0.00:  Build Rotating 
 BS  .in                  8.50:  Bit Size 
 BSZ .in                  8.50:  Bit Size 
 BTPL.psig              589.00:  Bit Press Loss 
 CABU.                      No:  Customer Abuse 
 CGEO.          Mubariz ghayev:  Customer Geo 
 COMM.                     LÑz:  Run Comments 1 
 TCS .hr                 64.25:  Time Ciculation Ended 
 CV  .mps                 3.50:  Crit Velocity 
 CVMX.mps                 4.52:  Max Crit Veloc 
 DD1 .             Aziz Aliyev:  Direct Drillr 1 
 DD2 .         Intigam Rahimov:  Direct Drillr 2 
 DD3 .          Rashad Habibov:  Direct Drillr 3 
 DDSV.               Geo-Pilot:  DD Service 
 DEFF.%                  98.00:  % Det Eff 
 DLRX.°/30m               0.00:  Dogleg Rot Max 
 DLSO.°/30m               0.00:  Dogleg Oriented 
 DLSX.°/30m               0.00:  Dogleg Str Max 
 DRET.      10.45.04 08-May-21:  Drill End Time 
 DRST.      03.30.04 04-May-21:  Drill Start Tim 
 DTIM.hr                 14.97:  Time Drilling 
 EDEP.m                4640.01:  End Depth 
 ENG1.         Dail Mahammadov:  Engineer 1 
 ENG2.           Eldar Hajiyev:  Engineer 2 
 ENG3.       Bakhtiar Jabbarli:  Engineer 3 
 ENG4.       Natik Hasanagayev:  Engineer 4 
 ETIM.      09.30.04 14-May-21:  End Time 
 FLOI.gpm               460.00:  Flow In 
 FLON.gpm               200.00:  Flow In Min 
 FLOS.cptm                0.00:  Fluid Loss 
 FLOX.gpm               505.00:  Flow In Max 
 HFLO.                      No:  High Flow 
 HPRE.                      No:  High Pressure 
 HTEM.                      No:  High Temp 
 HYDO.m                   1.80:  Hydro Offset 
 IFIN.deg                66.71:  Inc, Final 
 IMAX.deg                67.03:  Inc Max 
 IMIN.deg                66.63:  Inc Min 
 IMND.m                4550.58:  Inc Min Depth 
 IMXD.m                4439.01:  Inc Max Depth 
 JARR.                      No:  Jarring 
 LETM.      10.45.04 08-May-21:  Log End Time 
 LOST.hr                     0:  Lost Rig Time 
 LSTM.      03.30.04 04-May-21:  Log Start Time 
 MDCL.ppm             37000.00:  Mud Chlorides 
 MDES.     Inversion Oil/Synthetic:  Mud Desc 
 DFD .sg                  1.38:  Mud Density 
 MDMN.sg                  1.35:  Dens Mud Min 
 MDMX.sg                  1.40:  Dens Mud Max 
 MOIL.                   57.40:  Run Mud Oil % 
 MOWR.                   70:30:  Run Mud OWR 
 MSND.                    0.00:  Run Mud Sand % 
 MSOL.                   18.00:  Run Mud Solids% 
 DFV .spqt               71.00:  Mud Viscosity 
 MWOD.in                  6.75:  MWD Tool OD 
 MWSI.                      No:  Serv Intrp, MWD 
 OTIM.hr                242.76:  Time Operating 
 PCON.           Look Like New:  Pad Condition 
 PMAX.psia            12183.92:  Press Op, Max 
 PV  .cP                 27.00:  Mud PV 
 RUN .                    1300:  Run Number 
 ROPA.m/hr               15.00:  ROP Avg 
 ROPN.m/hr                9.00:  ROP Min 
 ROPX.m/hr               19.00:  ROP Max 
 RPMA.rpm               120.00:  RPM Surface Avg 
 RPMN.rpm               100.00:  RPM Surface Min 
 RPMX.rpm               120.00:  RPM Surface Max 
 RRUN.                    1300:  Rig Run Number 
 RTIM.hr                  5.00:  Time Reaming 
 SAZI.deg               304.73:  Azm, Start 
 SDEP.m                4412.01:  Start Depth 
 SIDD.                      No:  Serv Intrp, DD 
 SINC.deg                66.82:  Inc, Start 
 SPPA.psig             2800.00:  SPP Avg 
 SPPN.psig             2610.00:  SPP Min 
 SPPX.psig             3100.00:  SPP Max 
 STIM.      03.30.00 04-May-21:  Start Time 
 SVCS.                 DD, MWD:  Services 
 SVER.                    9.20:  Sperry Version 
 TDAT.m                 228.00:  Tot Depth Attmp 
 TDDF.                      No:  Trip for DD 
 TDLG.m                 228.00:  Tot Depth Loggd 
 TFF .                      No:  Trip for Fail 
 TQAA.f-kp               15.00:  Torque Abs Avg 
 TQAN.f-kp               12.00:  Torque Abs Min 
 TQAX.f-kp               22.00:  Torque Abs Max 
 TRRT.°/30m               0.00:  Turn Rotating 
 MRT .                    HCIM:  Maximum Recorded Temperature 
 TTMX.degC               90.20:  Max Tool Temp 
 VS01.                90627813:  Virtual Str1 SN 
 VS02.                90634712:  Virtual Str2 SN 
 VS03.                90643410:  Virtual Str3 SN 
 VS04.                90634712:  Virtual Str4 SN 
 WBMN.klb                 9.00:  WOB Min 
 WITN.        Elmaddin Rahimov:  Customer Rep 
 WITN.         Haytham Mostafa:  Customer Rep 2 
 WOBA.klb                15.00:  WOB Avg 
 WOBX.klb                23.00:  WOB Max 
 YP  .lhf2               29.00:  Yield Point 
~Curve Information Block
#MNEM.UNIT                 API CODE     Curve Description
#---------               -----------    ---------------------------
 TIME.HHMMSS            00 000 000 000:  GT Time & Date
 GTDEPTH.m              00 000 000 000:  GT Depth
 GTPQH.psia             00 000 000 000:  GT HR Quartz Pressure
 GTTQ.degC              00 000 000 000:  GT Quartz Temperature
 GTTN.NONE              00 000 000 000:  GT Test Number
 GTET.sec               00 000 000 000:  GT Elapsed Test Time
 GTTVD.m                00 000 000 000:  GT True Vertical Depth
#Other Information
#
#WARRANTY: Halliburton will use its best efforts to furnish customers with 
#accurate information and interpretations that are part of, and incident to, the services 
#provided.  However, Halliburton cannot and does not warrant the accuracy 
#or correctness of such information and interpretations.  Under no circumstances should any 
#such information or interpretation be relied upon as the sole basis for any drilling, 
#completion, production, or financial decision or any procedure involving any risk to the 
#safety of any drilling venture, drilling rig or its crew or any other third party.  The 
#Customer has full responsibility for all drilling, completion and production operation.  
#Halliburton makes no representations or warranties, either expressed or 
#implied, including, but not limited to, the implied warranties of merchantability or fitness 
#for a particular purpose, with respect to the services rendered.  In no event will 
#Halliburton be liable for failure to obtain any particular results or for 
#any damages, including, but not limited to, indirect, special or consequential damages, 
#resulting from the use of any information or interpretation provided by Halliburton.
#
~A           TIME           GTDEPTH  GTPQH  GTTQ  GTTN   GTET   GTTVD  
# ...
   02:41:04.322.09-May-2021 4482.51 1027.64 67.64 11.00 339.06 2965.25
   02:41:04.522.09-May-2021 4482.51 1027.64 67.64 11.00 339.26 2965.25
   02:41:04.722.09-May-2021 4482.51 1029.20 67.64 11.00 339.46 2965.25
   02:41:04.922.09-May-2021 4482.51 1029.96 67.64 11.00 339.66 2965.25
   02:41:05.122.09-May-2021 4482.51 1030.75 67.64 11.00 339.86 2965.25
   02:41:05.323.09-May-2021 4482.51 1031.37 67.64 11.00 340.06 2965.25
   02:41:05.523.09-May-2021 4482.51 1031.37 67.64 11.00 340.26 2965.25
   02:41:05.723.09-May-2021 4482.51 1033.22 67.64 11.00 340.46 2965.25
   02:41:05.923.09-May-2021 4482.51 1034.04 67.64 11.00 340.66 2965.25
   02:41:06.123.09-May-2021 4482.51 1034.61 67.64 11.00 340.86 2965.25
   02:41:06.323.09-May-2021 4482.51 1035.47 67.64 11.00 341.06 2965.25
   02:41:06.523.09-May-2021 4482.51 1035.47 67.64 11.00 341.26 2965.25
   02:41:06.723.09-May-2021 4482.51 1037.16 67.64 11.00 341.46 2965.25
   02:41:06.923.09-May-2021 4482.51 1037.71 67.64 11.00 341.66 2965.25
   02:41:07.123.09-May-2021 4482.51 1038.61 67.64 11.00 341.86 2965.25
   02:41:07.323.09-May-2021 4482.51 1039.31 67.64 11.00 342.06 2965.25
   02:41:07.523.09-May-2021 4482.51 1039.31 67.64 11.00 342.26 2965.25
   02:41:07.723.09-May-2021 4482.51 1041.04 67.64 11.00 342.46 2965.25
   02:41:07.923.09-May-2021 4482.51 1041.59 67.64 11.00 342.66 2965.25
   02:41:08.123.09-May-2021 4482.51 1042.66 67.64 11.00 342.86 2965.25
   02:41:08.323.09-May-2021 4482.51 1042.69 67.64 11.00 343.06 2965.25
   02:41:08.523.09-May-2021 4482.51 1042.69 67.64 11.00 343.26 2965.25
   02:41:08.723.09-May-2021 4482.51 1044.77 67.64 11.00 343.46 2965.25
   02:41:08.923.09-May-2021 4482.51 1045.63 67.64 11.00 343.66 2965.25
   02:41:09.123.09-May-2021 4482.51 1046.36 67.64 11.00 343.86 2965.25
   02:41:09.323.09-May-2021 4482.51 1047.08 67.64 11.00 344.06 2965.25
   02:41:09.523.09-May-2021 4482.51 1047.08 67.64 11.00 344.26 2965.25
   02:41:09.723.09-May-2021 4482.51 1048.68 67.64 11.00 344.46 2965.25
   02:41:09.923.09-May-2021 4482.51 1049.47 67.64 11.00 344.66 2965.25
   02:41:10.123.09-May-2021 4482.51 1050.27 67.64 11.00 344.86 2965.25
   02:41:10.323.09-May-2021 4482.51 1051.03 67.64 11.00 345.06 2965.25
   02:41:10.523.09-May-2021 4482.51 1051.03 67.64 11.00 345.26 2965.25
   02:41:10.723.09-May-2021 4482.51 1052.65 67.64 11.00 345.46 2965.25
   02:41:10.923.09-May-2021 4482.51 1053.00 67.64 11.00 345.66 2965.25
   02:41:11.123.09-May-2021 4482.51 1054.38 67.64 11.00 345.86 2965.25
   02:41:11.324.09-May-2021 4482.51 1055.09 67.64 11.00 346.06 2965.25
   02:41:11.524.09-May-2021 4482.51 1055.09 67.64 11.00 346.26 2965.25
   02:41:11.724.09-May-2021 4482.51 1056.56 67.64 11.00 346.46 2965.25
   02:41:11.924.09-May-2021 4482.51 1057.26 67.64 11.00 346.66 2965.25
   02:41:12.124.09-May-2021 4482.51 1058.02 67.64 11.00 346.86 2965.25
   02:41:12.324.09-May-2021 4482.51 1058.75 67.64 11.00 347.06 2965.25
   02:41:12.524.09-May-2021 4482.51 1058.75 67.64 11.00 347.26 2965.25
   02:41:12.724.09-May-2021 4482.51 1060.23 67.64 11.00 347.46 2965.25
   02:41:12.924.09-May-2021 4482.51 1061.00 67.64 11.00 347.66 2965.25
   02:41:13.124.09-May-2021 4482.51 1061.77 67.64 11.00 347.86 2965.25
   02:41:13.324.09-May-2021 4482.51 1062.37 67.64 11.00 348.06 2965.25
   02:41:13.524.09-May-2021 4482.51 1062.37 67.64 11.00 348.26 2965.25
   02:41:13.724.09-May-2021 4482.51 1064.13 67.64 11.00 348.46 2965.25
   02:41:13.924.09-May-2021 4482.51 1064.93 67.64 11.00 348.66 2965.25
   02:41:14.124.09-May-2021 4482.51 1065.45 67.64 11.00 348.86 2965.25
   02:41:14.324.09-May-2021 4482.51 1066.31 67.64 11.00 349.06 2965.25
   02:41:14.524.09-May-2021 4482.51 1066.31 67.64 11.00 349.26 2965.25
   02:41:14.724.09-May-2021 4482.51 1067.70 67.64 11.00 349.46 2965.25
   02:41:14.924.09-May-2021 4482.51 1068.47 67.64 11.00 349.66 2965.25
   02:41:15.124.09-May-2021 4482.51 1069.41 67.64 11.00 349.86 2965.25
   02:41:15.324.09-May-2021 4482.51 1069.90 67.64 11.00 350.06 2965.25
   02:41:15.524.09-May-2021 4482.51 1069.90 67.64 11.00 350.26 2965.25
   02:41:15.724.09-May-2021 4482.51 1070.96 67.64 11.00 350.46 2965.25
   02:41:15.924.09-May-2021 4482.51 1072.25 67.64 11.00 350.66 2965.25
   02:41:16.124.09-May-2021 4482.51 1073.04 67.64 11.00 350.86 2965.25
   02:41:16.324.09-May-2021 4482.51 1073.92 67.64 11.00 351.06 2965.25
   02:41:16.524.09-May-2021 4482.51 1073.92 67.64 11.00 351.26 2965.25
   02:41:16.724.09-May-2021 4482.51 1075.46 67.64 11.00 351.46 2965.25
   02:41:16.924.09-May-2021 4482.51 1075.93 67.64 11.00 351.66 2965.25
   02:41:17.124.09-May-2021 4482.51 1076.95 67.64 11.00 351.86 2965.25
   02:41:17.325.09-May-2021 4482.51 1077.48 67.64 11.00 352.06 2965.25
   02:41:17.525.09-May-2021 4482.51 1077.48 67.64 11.00 352.26 2965.25
   02:41:17.725.09-May-2021 4482.51 1078.98 67.64 11.00 352.46 2965.25
   02:41:17.925.09-May-2021 4482.51 1079.71 67.64 11.00 352.66 2965.25
   02:41:18.125.09-May-2021 4482.51 1080.46 67.64 11.00 352.86 2965.25
   02:41:18.325.09-May-2021 4482.51 1081.22 67.64 11.00 353.06 2965.25
   02:41:18.525.09-May-2021 4482.51 1081.22 67.64 11.00 353.26 2965.25
   02:41:18.725.09-May-2021 4482.51 1082.75 67.64 11.00 353.46 2965.25
   02:41:18.925.09-May-2021 4482.51 1083.43 67.64 11.00 353.66 2965.25
   02:41:19.125.09-May-2021 4482.51 1083.72 67.64 11.00 353.86 2965.25
   02:41:19.325.09-May-2021 4482.51 1085.10 67.64 11.00 354.06 2965.25
   02:41:19.525.09-May-2021 4482.51 1085.10 67.64 11.00 354.26 2965.25
   02:41:19.725.09-May-2021 4482.51 1086.40 67.64 11.00 354.46 2965.25
   02:41:19.925.09-May-2021 4482.51 1087.23 67.64 11.00 354.66 2965.25
   02:41:20.125.09-May-2021 4482.51 1087.88 67.64 11.00 354.86 2965.25
   02:41:20.325.09-May-2021 4482.51 1088.63 67.64 11.00 355.06 2965.25
   02:41:20.525.09-May-2021 4482.51 1088.63 67.64 11.00 355.26 2965.25
   02:41:20.725.09-May-2021 4482.51 1090.09 67.64 11.00 355.46 2965.25
   02:41:20.925.09-May-2021 4482.51 1090.83 67.64 11.00 355.66 2965.25
   02:41:21.125.09-May-2021 4482.51 1091.59 67.64 11.00 355.86 2965.25
   02:41:21.325.09-May-2021 4482.51 1092.34 67.64 11.00 356.06 2965.25
   02:41:21.525.09-May-2021 4482.51 1092.34 67.64 11.00 356.26 2965.25
   02:41:21.725.09-May-2021 4482.51 1093.30 67.64 11.00 356.46 2965.25
   02:41:21.925.09-May-2021 4482.51 1094.65 67.64 11.00 356.66 2965.25
   02:41:22.125.09-May-2021 4482.51 1095.36 67.64 11.00 356.86 2965.25
   02:41:22.325.09-May-2021 4482.51 1095.80 67.64 11.00 357.06 2965.25
   02:41:22.525.09-May-2021 4482.51 1095.80 67.64 11.00 357.26 2965.25
   02:41:22.725.09-May-2021 4482.51 1097.53 67.64 11.00 357.46 2965.25
   02:41:22.925.09-May-2021 4482.51 1098.16 67.64 11.00 357.66 2965.25
   02:41:23.125.09-May-2021 4482.51 1098.51 67.64 11.00 357.86 2965.25
   02:41:23.326.09-May-2021 4482.51 1099.93 67.64 11.00 358.06 2965.25
   02:41:23.526.09-May-2021 4482.51 1099.93 67.64 11.00 358.26 2965.25
   02:41:23.726.09-May-2021 4482.51 1101.17 67.64 11.00 358.46 2965.25
   02:41:23.926.09-May-2021 4482.51 1101.55 67.64 11.00 358.66 2965.25
   02:41:24.126.09-May-2021 4482.51 1102.75 67.64 11.00 358.86 2965.25
   02:41:24.326.09-May-2021 4482.51 1112.06 67.64 11.00 359.06 2965.25
   02:41:24.526.09-May-2021 4482.51 1112.06 67.64 11.00 359.26 2965.25
   02:41:24.726.09-May-2021 4482.51 1296.91 67.64 11.00 359.46 2965.25
   02:41:24.926.09-May-2021 4482.51 4010.39 67.64 11.00 359.66 2965.25
   02:41:25.126.09-May-2021 4482.51 6781.67 67.64 11.00 359.86 2965.25
   02:41:25.326.09-May-2021 4482.51 6778.77 67.64 11.00 360.06 2965.25
   02:41:25.526.09-May-2021 4482.51 6778.77 67.64 11.00 360.26 2965.25
   02:41:25.726.09-May-2021 4482.51 6778.90 67.64 11.00 360.46 2965.25
   02:41:25.926.09-May-2021 4482.51 6779.85 67.64 11.00 360.66 2965.25
   02:41:26.126.09-May-2021 4482.51 6781.21 67.64 11.00 360.86 2965.25
   02:41:26.326.09-May-2021 4482.51 6782.28 67.65 11.00 361.06 2965.25
   02:41:26.526.09-May-2021 4482.51 6782.28 67.65 11.00 361.26 2965.25
   02:41:26.726.09-May-2021 4482.51 6786.37 67.65 11.00 361.46 2965.25
