~Version Information
 VERS.                  2.0:   CWLS log ASCII Standard -VERSION 2.0
 WRAP.                   NO:   One line per depth step
~Well Information Block
#MNEM.UNIT     VALUE/NAME     DESCRIPTION
#---------     -----------    ---------------------------
 STRT.S             07:52:13 09-May-21: START TIME 07:52:13 09-May-21
 STOP.S             07:59:09 09-May-21: STOP TIME  07:59:09 09-May-21
 STEP.S                   0.00: STEP TIME
 NULL.                 -999.25: NULL VALUE
 PROV.                    Baku:  PROVINCE
 STAT.                    Baku:  STATE NAME
 SON .        AZ-XX-0906571588:  JOB NUMBER
 WTYP.                Deviated:  WELL TYPE
 COMP.     BP Exploration (Caspian Sea) ltd:  COMPANY
 BASE.              Azerbaijan:  LOGGING EQUIPMENT BASE LOCATION
 REGN.                   EESSA:  REGION
 CTRY.              Azerbaijan:  COUNTRY NAME
 FLD .                     ACG:  FIELD NAME
 WELL.                     J28:  WELL NAME
 RIG .             West Chirag:  RIG NAME
 DMF .             Drill Floor:  DRILL MEAS FROM
 PDAT.       Caspian Sea Level:  PERMANENT DATUM
 HPTY.       Minimum Curvature:  HOLE POS TYPE
 MDS .        Operator Entered:  MAG DATA SOURCE
 NREF.                    Grid:  NORTH REFERENCE
 SRVC.          TURAN DRILLING:  CONTRACTOR
 JOBN.        AZ-XX-0906571588:  JOB TICKET NUMB
 DCON.     Halliburton Sperry Drilling:  DIRECTNL CONTR
 STIM.      00.44.00 11-Feb-21:  START TIME
 DATE.      00.00.00 05-May-21:  END TIME
 SPUD.               13-Feb-21:  SPUD DATE
 MWDS.                    Baku:  MWD SHOP
 DOE .                     N/A:  DOE NUMBER
 UNIT.                     N/A:  LOGGING EQUIPMENT ID
 UWI .                     N/A:  UNIQUE WELL IDENTIFIER
 API .                     N/A:  API NUMBER
 CNTY.                        :  COUNTY
 LOC .                        :  LOCATION
 LMF .             Drill Floor:  LOG MEASURED FROM
 TVDS.m                  43.00:  TVDSS CORRECTN
 SDEP.m                 341.00:  START DEPTH
 EGL .m                   0.00:  GROUND ELEVATION
 WDMS.m                 169.80:  WD ELEV
 AGAP.m                  43.00:  AIR GAP
 EPD .m                   0.00:  ELEVATION
 APD .m                  43.00:  DEPTH ABOVE PD
 LATI.deg                40.13:  LATITUDE
 LONG.deg                51.22:  LONGITUDE
 UTMY.m             4443793.85:  UTM Y
 UTMX.m              519005.06:  UTM X
 WHEW.m                 -11.57:  WELL HEAD E/W
 WHNS.m                   8.57:  WELL HEAD N/S
 VSEW.m                 -11.57:  VERT SEC E/W
 VSNS.m                   8.57:  VERT SEC N/S
 DFWL.m                   0.00:  DISTANCE FWL
 DFSL.m                   0.00:  DISTANCE FSL
 VSDR.deg               299.34:  VERT SEC DIRECT
 GVFD.g                   1.00:  GRAVITY FIELD
 AZTC.deg                 6.36:  AZM TOTAL CORR
 MFLD.nT              50391.00:  MAGNETIC FIELD
 MDIP.deg                59.65:  MAGNETIC DIP
 MDEC.deg                 6.48:  MAGNETIC DECL
 GRDC.deg                 0.12:  GRID CORRECTION
 DEP .m                 334.96:  DEPTH
 TDD .m                1407.26:  TOTAL DEPTH (DRILLER)
 EKB .m                  43.00:  KB ELEVATION
 EDF .m                  43.00:  DF ELEVATION
 TDL .m                 228.00:  TOTAL DEPTH (LOGGER)
 VSC .                       0:  VS TO CLOSURE
 MAGU.                 1854484:  MAGUTM CHECKSUM
~Parameter Information Block
#MNEM.UNIT       Value        Description
#---------     -----------    ---------------------------
 AV  .mps                 4.00:  Ann Velocity 
 AVMX.mps                 4.73:  Max Ann Veloc 
 AZIF.deg               304.48:  Azm, Final 
 BHAT.        Rotary Steerable:  BHA Type 
 BREV.rev            257300.00:  Rev Bit Total 
 BROT.°/30m               0.00:  Build Rotating 
 BS  .in                  8.50:  Bit Size 
 BSZ .in                  8.50:  Bit Size 
 BTPL.psig              589.00:  Bit Press Loss 
 CABU.                      No:  Customer Abuse 
 CGEO.          Mubariz ghayev:  Customer Geo 
 TCS .hr                 64.25:  Time Ciculation Ended 
 CV  .mps                 3.50:  Crit Velocity 
 CVMX.mps                 4.52:  Max Crit Veloc 
 DD1 .             Aziz Aliyev:  Direct Drillr 1 
 DD2 .         Intigam Rahimov:  Direct Drillr 2 
 DD3 .          Rashad Habibov:  Direct Drillr 3 
 DDSV.               Geo-Pilot:  DD Service 
 DEFF.%                  98.00:  % Det Eff 
 DLRX.°/30m               0.00:  Dogleg Rot Max 
 DLSO.°/30m               0.00:  Dogleg Oriented 
 DLSX.°/30m               0.00:  Dogleg Str Max 
 DRET.      10.45.04 08-May-21:  Drill End Time 
 DRST.      03.30.04 04-May-21:  Drill Start Tim 
 DTIM.hr                 14.97:  Time Drilling 
 EDEP.m                4640.01:  End Depth 
 ENG1.         Dail Mahammadov:  Engineer 1 
 ENG2.           Eldar Hajiyev:  Engineer 2 
 ENG3.       Bakhtiar Jabbarli:  Engineer 3 
 ENG4.       Natik Hasanagayev:  Engineer 4 
 ETIM.      09.30.04 14-May-21:  End Time 
 FLOI.gpm               460.00:  Flow In 
 FLON.gpm               200.00:  Flow In Min 
 FLOS.cptm                0.00:  Fluid Loss 
 FLOX.gpm               505.00:  Flow In Max 
 HFLO.                      No:  High Flow 
 HPRE.                      No:  High Pressure 
 HTEM.                      No:  High Temp 
 HYDO.m                   1.80:  Hydro Offset 
 IFIN.deg                66.71:  Inc, Final 
 IMAX.deg                67.03:  Inc Max 
 IMIN.deg                66.63:  Inc Min 
 IMND.m                4550.58:  Inc Min Depth 
 IMXD.m                4439.01:  Inc Max Depth 
 JARR.                      No:  Jarring 
 LETM.      10.45.04 08-May-21:  Log End Time 
 LOST.hr                     0:  Lost Rig Time 
 LSTM.      03.30.04 04-May-21:  Log Start Time 
 MDCL.ppm             37000.00:  Mud Chlorides 
 MDES.     Inversion Oil/Synthetic:  Mud Desc 
 DFD .sg                  1.38:  Mud Density 
 MDMN.sg                  1.35:  Dens Mud Min 
 MDMX.sg                  1.40:  Dens Mud Max 
 MOIL.                   57.40:  Run Mud Oil % 
 MOWR.                   70:30:  Run Mud OWR 
 MSND.                    0.00:  Run Mud Sand % 
 MSOL.                   18.00:  Run Mud Solids% 
 DFV .spqt               71.00:  Mud Viscosity 
 MWOD.in                  6.75:  MWD Tool OD 
 MWSI.                      No:  Serv Intrp, MWD 
 OTIM.hr                242.76:  Time Operating 
 PCON.           Look Like New:  Pad Condition 
 PMAX.psia            12183.92:  Press Op, Max 
 PV  .cP                 27.00:  Mud PV 
 RUN .                    1300:  Run Number 
 ROPA.m/hr               15.00:  ROP Avg 
 ROPN.m/hr                9.00:  ROP Min 
 ROPX.m/hr               19.00:  ROP Max 
 RPMA.rpm               120.00:  RPM Surface Avg 
 RPMN.rpm               100.00:  RPM Surface Min 
 RPMX.rpm               120.00:  RPM Surface Max 
 RRUN.                    1300:  Rig Run Number 
 RTIM.hr                  5.00:  Time Reaming 
 SAZI.deg               304.73:  Azm, Start 
 SDEP.m                4412.01:  Start Depth 
 SIDD.                      No:  Serv Intrp, DD 
 SINC.deg                66.82:  Inc, Start 
 SPPA.psig             2800.00:  SPP Avg 
 SPPN.psig             2610.00:  SPP Min 
 SPPX.psig             3100.00:  SPP Max 
 STIM.      03.30.00 04-May-21:  Start Time 
 SVCS.                 DD, MWD:  Services 
 SVER.                    9.20:  Sperry Version 
 TDAT.m                 228.00:  Tot Depth Attmp 
 TDDF.                      No:  Trip for DD 
 TDLG.m                 228.00:  Tot Depth Loggd 
 TFF .                      No:  Trip for Fail 
 TQAA.f-kp               15.00:  Torque Abs Avg 
 TQAN.f-kp               12.00:  Torque Abs Min 
 TQAX.f-kp               22.00:  Torque Abs Max 
 TRRT.°/30m               0.00:  Turn Rotating 
 MRT .                    HCIM:  Maximum Recorded Temperature 
 TTMX.degC               90.20:  Max Tool Temp 
 VS01.                90627813:  Virtual Str1 SN 
 VS02.                90634712:  Virtual Str2 SN 
 VS03.                90643410:  Virtual Str3 SN 
 VS04.                90634712:  Virtual Str4 SN 
 WBMN.klb                 9.00:  WOB Min 
 WITN.        Elmaddin Rahimov:  Customer Rep 
 WITN.         Haytham Mostafa:  Customer Rep 2 
 WOBA.klb                15.00:  WOB Avg 
 WOBX.klb                23.00:  WOB Max 
 YP  .lhf2               29.00:  Yield Point 
~Curve Information Block
#MNEM.UNIT                 API CODE     Curve Description
#---------               -----------    ---------------------------
 TIME.HHMMSS            00 000 000 000:  GT Time & Date
 GTDEPTH.m              00 000 000 000:  GT Depth
 GTPQH.psia             00 000 000 000:  GT HR Quartz Pressure
 GTTQ.degC              00 000 000 000:  GT Quartz Temperature
 GTTN.NONE              00 000 000 000:  GT Test Number
 GTET.sec               00 000 000 000:  GT Elapsed Test Time
 GTTVD.m                00 000 000 000:  GT True Vertical Depth
#Other Information
#
#WARRANTY: Halliburton will use its best efforts to furnish customers with 
#accurate information and interpretations that are part of, and incident to, the services 
#provided.  However, Halliburton cannot and does not warrant the accuracy 
#or correctness of such information and interpretations.  Under no circumstances should any 
#such information or interpretation be relied upon as the sole basis for any drilling, 
#completion, production, or financial decision or any procedure involving any risk to the 
#safety of any drilling venture, drilling rig or its crew or any other third party.  The 
#Customer has full responsibility for all drilling, completion and production operation.  
#Halliburton makes no representations or warranties, either expressed or 
#implied, including, but not limited to, the implied warranties of merchantability or fitness 
#for a particular purpose, with respect to the services rendered.  In no event will 
#Halliburton be liable for failure to obtain any particular results or for 
#any damages, including, but not limited to, indirect, special or consequential damages, 
#resulting from the use of any information or interpretation provided by Halliburton.
#
~A           TIME           GTDEPTH  GTPQH  GTTQ  GTTN   GTET   GTTVD  
# ...
   07:53:21.005.09-May-2021 4413.51 4428.19 65.56 16.00  67.81 2938.18
   07:53:21.205.09-May-2021 4413.51 4428.22 65.56 16.00  68.01 2938.18
   07:53:21.405.09-May-2021 4413.51 4428.22 65.56 16.00  68.21 2938.18
   07:53:21.605.09-May-2021 4413.51 4428.11 65.56 16.00  68.41 2938.18
   07:53:21.805.09-May-2021 4413.51 4428.44 65.56 16.00  68.61 2938.18
   07:53:22.005.09-May-2021 4413.51 4428.21 65.56 16.00  68.81 2938.18
   07:53:22.205.09-May-2021 4413.51 4428.39 65.56 16.00  69.01 2938.18
   07:53:22.405.09-May-2021 4413.51 4428.39 65.56 16.00  69.21 2938.18
   07:53:22.605.09-May-2021 4413.51 4428.26 65.56 16.00  69.41 2938.18
   07:53:22.805.09-May-2021 4413.51 4428.15 65.56 16.00  69.61 2938.18
   07:53:23.005.09-May-2021 4413.51 4428.31 65.56 16.00  69.81 2938.18
   07:53:23.205.09-May-2021 4413.51 4428.18 65.56 16.00  70.01 2938.18
   07:53:23.405.09-May-2021 4413.51 4428.18 65.56 16.00  70.21 2938.18
   07:53:23.605.09-May-2021 4413.51 4428.02 65.56 16.00  70.41 2938.18
   07:53:23.805.09-May-2021 4413.51 4428.34 65.56 16.00  70.61 2938.18
   07:53:24.005.09-May-2021 4413.51 4428.20 65.56 16.00  70.81 2938.18
   07:53:24.205.09-May-2021 4413.51 4428.20 65.56 16.00  71.01 2938.18
   07:53:24.405.09-May-2021 4413.51 4428.20 65.56 16.00  71.21 2938.18
   07:53:24.605.09-May-2021 4413.51 4428.39 65.56 16.00  71.41 2938.18
   07:53:24.805.09-May-2021 4413.51 4428.18 65.56 16.00  71.61 2938.18
   07:53:25.005.09-May-2021 4413.51 4428.37 65.56 16.00  71.81 2938.18
   07:53:25.205.09-May-2021 4413.51 4428.20 65.56 16.00  72.01 2938.18
   07:53:25.405.09-May-2021 4413.51 4428.20 65.56 16.00  72.21 2938.18
   07:53:25.605.09-May-2021 4413.51 4428.19 65.56 16.00  72.41 2938.18
   07:53:25.805.09-May-2021 4413.51 4428.25 65.56 16.00  72.61 2938.18
   07:53:26.005.09-May-2021 4413.51 4428.24 65.56 16.00  72.81 2938.18
   07:53:26.205.09-May-2021 4413.51 4428.24 65.56 16.00  73.01 2938.18
   07:53:26.406.09-May-2021 4413.51 4428.24 65.56 16.00  73.21 2938.18
   07:53:26.606.09-May-2021 4413.51 4428.27 65.56 16.00  73.41 2938.18
   07:53:26.806.09-May-2021 4413.51 4428.26 65.56 16.00  73.61 2938.18
   07:53:27.006.09-May-2021 4413.51 4428.63 65.56 16.00  73.81 2938.18
   07:53:27.206.09-May-2021 4413.51 4428.10 65.56 16.00  74.01 2938.18
   07:53:27.406.09-May-2021 4413.51 4428.10 65.56 16.00  74.21 2938.18
   07:53:27.606.09-May-2021 4413.51 4428.23 65.56 16.00  74.41 2938.18
   07:53:27.806.09-May-2021 4413.51 4428.21 65.56 16.00  74.61 2938.18
   07:53:28.006.09-May-2021 4413.51 4428.28 65.56 16.00  74.81 2938.18
   07:53:28.206.09-May-2021 4413.51 4428.24 65.56 16.00  75.01 2938.18
   07:53:28.406.09-May-2021 4413.51 4428.24 65.56 16.00  75.21 2938.18
   07:53:28.606.09-May-2021 4413.51 4428.26 65.56 16.00  75.41 2938.18
   07:53:28.806.09-May-2021 4413.51 4428.28 65.56 16.00  75.61 2938.18
   07:53:29.006.09-May-2021 4413.51 4428.26 65.56 16.00  75.81 2938.18
   07:53:29.206.09-May-2021 4413.51 4428.29 65.56 16.00  76.01 2938.18
   07:53:29.406.09-May-2021 4413.51 4428.29 65.56 16.00  76.21 2938.18
   07:53:29.606.09-May-2021 4413.51 4428.18 65.56 16.00  76.41 2938.18
   07:53:29.806.09-May-2021 4413.51 4428.51 65.56 16.00  76.61 2938.18
   07:53:30.006.09-May-2021 4413.51 4428.26 65.56 16.00  76.81 2938.18
   07:53:30.206.09-May-2021 4413.51 4428.46 65.56 16.00  77.01 2938.18
   07:53:30.406.09-May-2021 4413.51 4428.46 65.56 16.00  77.21 2938.18
   07:53:30.606.09-May-2021 4413.51 4428.11 65.56 16.00  77.41 2938.18
   07:53:30.806.09-May-2021 4413.51 4428.33 65.56 16.00  77.61 2938.18
   07:53:31.006.09-May-2021 4413.51 4428.24 65.56 16.00  77.81 2938.18
   07:53:31.206.09-May-2021 4413.51 4428.23 65.56 16.00  78.01 2938.18
   07:53:31.406.09-May-2021 4413.51 4428.23 65.56 16.00  78.21 2938.18
   07:53:31.606.09-May-2021 4413.51 4428.04 65.56 16.00  78.41 2938.18
   07:53:31.806.09-May-2021 4413.51 4428.38 65.56 16.00  78.61 2938.18
   07:53:32.006.09-May-2021 4413.51 4428.23 65.56 16.00  78.81 2938.18
   07:53:32.206.09-May-2021 4413.51 4428.26 65.56 16.00  79.01 2938.18
   07:53:32.406.09-May-2021 4413.51 4428.26 65.56 16.00  79.21 2938.18
   07:53:32.606.09-May-2021 4413.51 4428.48 65.56 16.00  79.41 2938.18
   07:53:32.806.09-May-2021 4413.51 4428.15 65.56 16.00  79.61 2938.18
   07:53:33.006.09-May-2021 4413.51 4428.46 65.56 16.00  79.81 2938.18
   07:53:33.206.09-May-2021 4413.51 4428.17 65.56 16.00  80.01 2938.18
   07:53:33.406.09-May-2021 4413.51 4428.17 65.56 16.00  80.21 2938.18
   07:53:33.607.09-May-2021 4413.51 4428.27 65.56 16.00  80.41 2938.18
   07:53:33.807.09-May-2021 4413.51 4428.27 65.56 16.00  80.61 2938.18
   07:53:34.007.09-May-2021 4413.51 4428.30 65.56 16.00  80.81 2938.18
   07:53:34.207.09-May-2021 4413.51 4428.27 65.56 16.00  81.01 2938.18
   07:53:34.407.09-May-2021 4413.51 4428.27 65.56 16.00  81.21 2938.18
   07:53:34.607.09-May-2021 4413.51 4428.30 65.56 16.00  81.41 2938.18
   07:53:34.807.09-May-2021 4413.51 4428.31 65.56 16.00  81.61 2938.18
   07:53:35.007.09-May-2021 4413.51 4428.31 65.56 16.00  81.81 2938.18
   07:53:35.207.09-May-2021 4413.51 4428.46 65.56 16.00  82.01 2938.18
   07:53:35.407.09-May-2021 4413.51 4428.46 65.56 16.00  82.21 2938.18
   07:53:35.607.09-May-2021 4413.51 4428.40 65.56 16.00  82.41 2938.18
   07:53:35.807.09-May-2021 4413.51 4428.25 65.56 16.00  82.61 2938.18
   07:53:36.007.09-May-2021 4413.51 4428.35 65.56 16.00  82.81 2938.18
   07:53:36.207.09-May-2021 4413.51 4428.25 65.56 16.00  83.01 2938.18
   07:53:36.407.09-May-2021 4413.51 4428.25 65.56 16.00  83.21 2938.18
   07:53:36.607.09-May-2021 4413.51 4428.29 65.56 16.00  83.41 2938.18
   07:53:36.807.09-May-2021 4413.51 4428.29 65.56 16.00  83.61 2938.18
   07:53:37.007.09-May-2021 4413.51 4428.31 65.56 16.00  83.81 2938.18
   07:53:37.207.09-May-2021 4413.51 4428.30 65.56 16.00  84.01 2938.18
   07:53:37.407.09-May-2021 4413.51 4428.30 65.56 16.00  84.21 2938.18
   07:53:37.607.09-May-2021 4413.51 4428.33 65.56 16.00  84.41 2938.18
   07:53:37.807.09-May-2021 4413.51 4428.63 65.56 16.00  84.61 2938.18
   07:53:38.007.09-May-2021 4413.51 4428.14 65.56 16.00  84.81 2938.18
   07:53:38.207.09-May-2021 4413.51 4428.37 65.56 16.00  85.01 2938.18
   07:53:38.407.09-May-2021 4413.51 4428.37 65.56 16.00  85.21 2938.18
   07:53:38.607.09-May-2021 4413.51 4428.38 65.56 16.00  85.41 2938.18
   07:53:38.807.09-May-2021 4413.51 4428.23 65.56 16.00  85.61 2938.18
   07:53:39.007.09-May-2021 4413.51 4428.39 65.56 16.00  85.81 2938.18
   07:53:39.207.09-May-2021 4413.51 4428.29 65.56 16.00  86.01 2938.18
   07:53:39.407.09-May-2021 4413.51 4428.29 65.56 16.00  86.21 2938.18
   07:53:39.607.09-May-2021 4413.51 4428.39 65.56 16.00  86.41 2938.18
   07:53:39.807.09-May-2021 4413.51 4428.22 65.56 16.00  86.61 2938.18
   07:53:40.007.09-May-2021 4413.51 4428.39 65.56 16.00  86.81 2938.18
   07:53:40.207.09-May-2021 4413.51 4428.28 65.56 16.00  87.01 2938.18
   07:53:40.407.09-May-2021 4413.51 4428.28 65.56 16.00  87.21 2938.18
   07:53:40.607.09-May-2021 4413.51 4428.41 65.56 16.00  87.41 2938.18
   07:53:40.808.09-May-2021 4413.51 4428.29 65.56 16.00  87.61 2938.18
   07:53:41.008.09-May-2021 4413.51 4428.21 65.56 16.00  87.81 2938.18
   07:53:41.208.09-May-2021 4413.51 4428.40 65.56 16.00  88.01 2938.18
   07:53:41.408.09-May-2021 4413.51 4428.40 65.56 16.00  88.21 2938.18
   07:53:41.608.09-May-2021 4413.51 4428.33 65.56 16.00  88.41 2938.18
   07:53:41.808.09-May-2021 4413.51 4428.28 65.56 16.00  88.61 2938.18
   07:53:42.008.09-May-2021 4413.51 4428.32 65.56 16.00  88.81 2938.18
   07:53:42.208.09-May-2021 4413.51 4428.30 65.56 16.00  89.01 2938.18
   07:53:42.408.09-May-2021 4413.51 4428.30 65.56 16.00  89.21 2938.18
   07:53:42.608.09-May-2021 4413.51 4428.31 65.56 16.00  89.41 2938.18
   07:53:42.808.09-May-2021 4413.51 4428.33 65.56 16.00  89.61 2938.18
   07:53:43.008.09-May-2021 4413.51 4428.33 65.56 16.00  89.81 2938.18
   07:53:43.208.09-May-2021 4413.51 4428.53 65.56 16.00  90.01 2938.18
   07:53:43.408.09-May-2021 4413.51 4428.53 65.56 16.00  90.21 2938.18
