~Version Information
 VERS.                  2.0:   CWLS log ASCII Standard -VERSION 2.0
 WRAP.                   NO:   One line per depth step
~Well Information Block
#MNEM.UNIT     VALUE/NAME     DESCRIPTION
#---------     -----------    ---------------------------
 STRT.S             03:18:48 09-May-21: START TIME 03:18:48 09-May-21
 STOP.S             03:25:48 09-May-21: STOP TIME  03:25:48 09-May-21
 STEP.S                   0.00: STEP TIME
 NULL.                 -999.25: NULL VALUE
 PROV.                    Baku:  PROVINCE
 STAT.                    Baku:  STATE NAME
 SON .        AZ-XX-0906571588:  JOB NUMBER
 WTYP.                Deviated:  WELL TYPE
 COMP.     BP Exploration (Caspian Sea) ltd:  COMPANY
 BASE.              Azerbaijan:  LOGGING EQUIPMENT BASE LOCATION
 REGN.                   EESSA:  REGION
 CTRY.              Azerbaijan:  COUNTRY NAME
 FLD .                     ACG:  FIELD NAME
 WELL.                     J28:  WELL NAME
 RIG .             West Chirag:  RIG NAME
 DMF .             Drill Floor:  DRILL MEAS FROM
 PDAT.       Caspian Sea Level:  PERMANENT DATUM
 HPTY.       Minimum Curvature:  HOLE POS TYPE
 MDS .        Operator Entered:  MAG DATA SOURCE
 NREF.                    Grid:  NORTH REFERENCE
 SRVC.          TURAN DRILLING:  CONTRACTOR
 JOBN.        AZ-XX-0906571588:  JOB TICKET NUMB
 DCON.     Halliburton Sperry Drilling:  DIRECTNL CONTR
 STIM.      00.44.00 11-Feb-21:  START TIME
 DATE.      00.00.00 05-May-21:  END TIME
 SPUD.               13-Feb-21:  SPUD DATE
 MWDS.                    Baku:  MWD SHOP
 DOE .                     N/A:  DOE NUMBER
 UNIT.                     N/A:  LOGGING EQUIPMENT ID
 UWI .                     N/A:  UNIQUE WELL IDENTIFIER
 API .                     N/A:  API NUMBER
 CNTY.                        :  COUNTY
 LOC .                        :  LOCATION
 LMF .             Drill Floor:  LOG MEASURED FROM
 TVDS.m                  43.00:  TVDSS CORRECTN
 SDEP.m                 341.00:  START DEPTH
 EGL .m                   0.00:  GROUND ELEVATION
 WDMS.m                 169.80:  WD ELEV
 AGAP.m                  43.00:  AIR GAP
 EPD .m                   0.00:  ELEVATION
 APD .m                  43.00:  DEPTH ABOVE PD
 LATI.deg                40.13:  LATITUDE
 LONG.deg                51.22:  LONGITUDE
 UTMY.m             4443793.85:  UTM Y
 UTMX.m              519005.06:  UTM X
 WHEW.m                 -11.57:  WELL HEAD E/W
 WHNS.m                   8.57:  WELL HEAD N/S
 VSEW.m                 -11.57:  VERT SEC E/W
 VSNS.m                   8.57:  VERT SEC N/S
 DFWL.m                   0.00:  DISTANCE FWL
 DFSL.m                   0.00:  DISTANCE FSL
 VSDR.deg               299.34:  VERT SEC DIRECT
 GVFD.g                   1.00:  GRAVITY FIELD
 AZTC.deg                 6.36:  AZM TOTAL CORR
 MFLD.nT              50391.00:  MAGNETIC FIELD
 MDIP.deg                59.65:  MAGNETIC DIP
 MDEC.deg                 6.48:  MAGNETIC DECL
 GRDC.deg                 0.12:  GRID CORRECTION
 DEP .m                 334.96:  DEPTH
 TDD .m                1407.26:  TOTAL DEPTH (DRILLER)
 EKB .m                  43.00:  KB ELEVATION
 EDF .m                  43.00:  DF ELEVATION
 TDL .m                 228.00:  TOTAL DEPTH (LOGGER)
 VSC .                       0:  VS TO CLOSURE
 MAGU.                 1854484:  MAGUTM CHECKSUM
~Parameter Information Block
#MNEM.UNIT       Value        Description
#---------     -----------    ---------------------------
 AV  .mps                 4.00:  Ann Velocity 
 AVMX.mps                 4.73:  Max Ann Veloc 
 AZIF.deg               304.48:  Azm, Final 
 BHAT.        Rotary Steerable:  BHA Type 
 BREV.rev            257300.00:  Rev Bit Total 
 BROT.°/30m               0.00:  Build Rotating 
 BS  .in                  8.50:  Bit Size 
 BSZ .in                  8.50:  Bit Size 
 BTPL.psig              589.00:  Bit Press Loss 
 CABU.                      No:  Customer Abuse 
 CGEO.          Mubariz ghayev:  Customer Geo 
 COMM.                     ü>:  Run Comments 1 
 TCS .hr                 64.25:  Time Ciculation Ended 
 CV  .mps                 3.50:  Crit Velocity 
 CVMX.mps                 4.52:  Max Crit Veloc 
 DD1 .             Aziz Aliyev:  Direct Drillr 1 
 DD2 .         Intigam Rahimov:  Direct Drillr 2 
 DD3 .          Rashad Habibov:  Direct Drillr 3 
 DDSV.               Geo-Pilot:  DD Service 
 DEFF.%                  98.00:  % Det Eff 
 DLRX.°/30m               0.00:  Dogleg Rot Max 
 DLSO.°/30m               0.00:  Dogleg Oriented 
 DLSX.°/30m               0.00:  Dogleg Str Max 
 DRET.      10.45.04 08-May-21:  Drill End Time 
 DRST.      03.30.04 04-May-21:  Drill Start Tim 
 DTIM.hr                 14.97:  Time Drilling 
 EDEP.m                4640.01:  End Depth 
 ENG1.         Dail Mahammadov:  Engineer 1 
 ENG2.           Eldar Hajiyev:  Engineer 2 
 ENG3.       Bakhtiar Jabbarli:  Engineer 3 
 ENG4.       Natik Hasanagayev:  Engineer 4 
 ETIM.      09.30.04 14-May-21:  End Time 
 FLOI.gpm               460.00:  Flow In 
 FLON.gpm               200.00:  Flow In Min 
 FLOS.cptm                0.00:  Fluid Loss 
 FLOX.gpm               505.00:  Flow In Max 
 HFLO.                      No:  High Flow 
 HPRE.                      No:  High Pressure 
 HTEM.                      No:  High Temp 
 HYDO.m                   1.80:  Hydro Offset 
 IFIN.deg                66.71:  Inc, Final 
 IMAX.deg                67.03:  Inc Max 
 IMIN.deg                66.63:  Inc Min 
 IMND.m                4550.58:  Inc Min Depth 
 IMXD.m                4439.01:  Inc Max Depth 
 JARR.                      No:  Jarring 
 LETM.      10.45.04 08-May-21:  Log End Time 
 LOST.hr                     0:  Lost Rig Time 
 LSTM.      03.30.04 04-May-21:  Log Start Time 
 MDCL.ppm             37000.00:  Mud Chlorides 
 MDES.     Inversion Oil/Synthetic:  Mud Desc 
 DFD .sg                  1.38:  Mud Density 
 MDMN.sg                  1.35:  Dens Mud Min 
 MDMX.sg                  1.40:  Dens Mud Max 
 MOIL.                   57.40:  Run Mud Oil % 
 MOWR.                   70:30:  Run Mud OWR 
 MSND.                    0.00:  Run Mud Sand % 
 MSOL.                   18.00:  Run Mud Solids% 
 DFV .spqt               71.00:  Mud Viscosity 
 MWOD.in                  6.75:  MWD Tool OD 
 MWSI.                      No:  Serv Intrp, MWD 
 OTIM.hr                242.76:  Time Operating 
 PCON.           Look Like New:  Pad Condition 
 PMAX.psia            12183.92:  Press Op, Max 
 PV  .cP                 27.00:  Mud PV 
 RUN .                    1300:  Run Number 
 ROPA.m/hr               15.00:  ROP Avg 
 ROPN.m/hr                9.00:  ROP Min 
 ROPX.m/hr               19.00:  ROP Max 
 RPMA.rpm               120.00:  RPM Surface Avg 
 RPMN.rpm               100.00:  RPM Surface Min 
 RPMX.rpm               120.00:  RPM Surface Max 
 RRUN.                    1300:  Rig Run Number 
 RTIM.hr                  5.00:  Time Reaming 
 SAZI.deg               304.73:  Azm, Start 
 SDEP.m                4412.01:  Start Depth 
 SIDD.                      No:  Serv Intrp, DD 
 SINC.deg                66.82:  Inc, Start 
 SPPA.psig             2800.00:  SPP Avg 
 SPPN.psig             2610.00:  SPP Min 
 SPPX.psig             3100.00:  SPP Max 
 STIM.      03.30.00 04-May-21:  Start Time 
 SVCS.                 DD, MWD:  Services 
 SVER.                    9.20:  Sperry Version 
 TDAT.m                 228.00:  Tot Depth Attmp 
 TDDF.                      No:  Trip for DD 
 TDLG.m                 228.00:  Tot Depth Loggd 
 TFF .                      No:  Trip for Fail 
 TQAA.f-kp               15.00:  Torque Abs Avg 
 TQAN.f-kp               12.00:  Torque Abs Min 
 TQAX.f-kp               22.00:  Torque Abs Max 
 TRRT.°/30m               0.00:  Turn Rotating 
 MRT .                    HCIM:  Maximum Recorded Temperature 
 TTMX.degC               90.20:  Max Tool Temp 
 VS01.                90627813:  Virtual Str1 SN 
 VS02.                90634712:  Virtual Str2 SN 
 VS03.                90643410:  Virtual Str3 SN 
 VS04.                90634712:  Virtual Str4 SN 
 WBMN.klb                 9.00:  WOB Min 
 WITN.        Elmaddin Rahimov:  Customer Rep 
 WITN.         Haytham Mostafa:  Customer Rep 2 
 WOBA.klb                15.00:  WOB Avg 
 WOBX.klb                23.00:  WOB Max 
 YP  .lhf2               29.00:  Yield Point 
~Curve Information Block
#MNEM.UNIT                 API CODE     Curve Description
#---------               -----------    ---------------------------
 TIME.HHMMSS            00 000 000 000:  GT Time & Date
 GTDEPTH.m              00 000 000 000:  GT Depth
 GTPQH.psia             00 000 000 000:  GT HR Quartz Pressure
 GTTQ.degC              00 000 000 000:  GT Quartz Temperature
 GTTN.NONE              00 000 000 000:  GT Test Number
 GTET.sec               00 000 000 000:  GT Elapsed Test Time
 GTTVD.m                00 000 000 000:  GT True Vertical Depth
#Other Information
#
#WARRANTY: Halliburton will use its best efforts to furnish customers with 
#accurate information and interpretations that are part of, and incident to, the services 
#provided.  However, Halliburton cannot and does not warrant the accuracy 
#or correctness of such information and interpretations.  Under no circumstances should any 
#such information or interpretation be relied upon as the sole basis for any drilling, 
#completion, production, or financial decision or any procedure involving any risk to the 
#safety of any drilling venture, drilling rig or its crew or any other third party.  The 
#Customer has full responsibility for all drilling, completion and production operation.  
#Halliburton makes no representations or warranties, either expressed or 
#implied, including, but not limited to, the implied warranties of merchantability or fitness 
#for a particular purpose, with respect to the services rendered.  In no event will 
#Halliburton be liable for failure to obtain any particular results or for 
#any damages, including, but not limited to, indirect, special or consequential damages, 
#resulting from the use of any information or interpretation provided by Halliburton.
#
~A           TIME           GTDEPTH  GTPQH  GTTQ  GTTN   GTET   GTTVD  
# ...
   03:23:19.946.09-May-2021 4480.01 4092.15 67.51 12.00 271.25 2964.27
   03:23:20.146.09-May-2021 4480.01 4098.76 67.51 12.00 271.45 2964.27
   03:23:20.347.09-May-2021 4480.01 4101.12 67.51 12.00 271.65 2964.27
   03:23:20.547.09-May-2021 4480.01 4102.69 67.51 12.00 271.85 2964.27
   03:23:20.747.09-May-2021 4480.01 4104.41 67.52 12.00 272.05 2964.27
   03:23:20.947.09-May-2021 4480.01 4104.41 67.52 12.00 272.25 2964.27
   03:23:21.147.09-May-2021 4480.01 4106.65 67.52 12.00 272.45 2964.27
   03:23:21.347.09-May-2021 4480.01 4107.79 67.52 12.00 272.65 2964.27
   03:23:21.547.09-May-2021 4480.01 4108.49 67.52 12.00 272.85 2964.27
   03:23:21.747.09-May-2021 4480.01 4108.97 67.52 12.00 273.05 2964.27
   03:23:21.947.09-May-2021 4480.01 4108.97 67.52 12.00 273.25 2964.27
   03:23:22.147.09-May-2021 4480.01 4109.88 67.52 12.00 273.45 2964.27
   03:23:22.347.09-May-2021 4480.01 4110.05 67.52 12.00 273.65 2964.27
   03:23:22.547.09-May-2021 4480.01 4110.63 67.53 12.00 273.85 2964.27
   03:23:22.747.09-May-2021 4480.01 4110.51 67.53 12.00 274.05 2964.27
   03:23:22.947.09-May-2021 4480.01 4110.51 67.53 12.00 274.25 2964.27
   03:23:23.147.09-May-2021 4480.01 4110.76 67.53 12.00 274.45 2964.27
   03:23:23.347.09-May-2021 4480.01 4111.19 67.53 12.00 274.65 2964.27
   03:23:23.547.09-May-2021 4480.01 4111.34 67.53 12.00 274.85 2964.27
   03:23:23.747.09-May-2021 4480.01 4111.36 67.53 12.00 275.05 2964.27
   03:23:23.947.09-May-2021 4480.01 4111.36 67.53 12.00 275.25 2964.27
   03:23:24.147.09-May-2021 4480.01 4111.60 67.53 12.00 275.45 2964.27
   03:23:24.347.09-May-2021 4480.01 4111.72 67.53 12.00 275.65 2964.27
   03:23:24.547.09-May-2021 4480.01 4111.82 67.53 12.00 275.85 2964.27
   03:23:24.747.09-May-2021 4480.01 4111.89 67.53 12.00 276.05 2964.27
   03:23:24.947.09-May-2021 4480.01 4111.89 67.53 12.00 276.25 2964.27
   03:23:25.147.09-May-2021 4480.01 4112.03 67.54 12.00 276.45 2964.27
   03:23:25.347.09-May-2021 4480.01 4112.10 67.54 12.00 276.65 2964.27
   03:23:25.547.09-May-2021 4480.01 4112.17 67.54 12.00 276.85 2964.27
   03:23:25.747.09-May-2021 4480.01 4111.87 67.54 12.00 277.05 2964.27
   03:23:25.947.09-May-2021 4480.01 4111.87 67.54 12.00 277.25 2964.27
   03:23:26.147.09-May-2021 4480.01 4112.30 67.54 12.00 277.45 2964.27
   03:23:26.348.09-May-2021 4480.01 4112.56 67.54 12.00 277.65 2964.27
   03:23:26.548.09-May-2021 4480.01 4112.46 67.54 12.00 277.85 2964.27
   03:23:26.748.09-May-2021 4480.01 4112.51 67.54 12.00 278.05 2964.27
   03:23:26.948.09-May-2021 4480.01 4112.51 67.54 12.00 278.25 2964.27
   03:23:27.148.09-May-2021 4480.01 4112.61 67.54 12.00 278.45 2964.27
   03:23:27.348.09-May-2021 4480.01 4112.65 67.54 12.00 278.65 2964.27
   03:23:27.548.09-May-2021 4480.01 4112.68 67.54 12.00 278.85 2964.27
   03:23:27.748.09-May-2021 4480.01 4112.70 67.54 12.00 279.05 2964.27
   03:23:27.948.09-May-2021 4480.01 4112.70 67.54 12.00 279.25 2964.27
   03:23:28.148.09-May-2021 4480.01 4112.78 67.54 12.00 279.45 2964.27
   03:23:28.348.09-May-2021 4480.01 4112.54 67.54 12.00 279.65 2964.27
   03:23:28.548.09-May-2021 4480.01 4112.94 67.54 12.00 279.85 2964.27
   03:23:28.748.09-May-2021 4480.01 4112.77 67.54 12.00 280.05 2964.27
   03:23:28.948.09-May-2021 4480.01 4112.77 67.54 12.00 280.25 2964.27
   03:23:29.148.09-May-2021 4480.01 4112.81 67.54 12.00 280.45 2964.27
   03:23:29.348.09-May-2021 4480.01 4112.89 67.54 12.00 280.65 2964.27
   03:23:29.548.09-May-2021 4480.01 4112.68 67.54 12.00 280.85 2964.27
   03:23:29.748.09-May-2021 4480.01 4113.15 67.54 12.00 281.05 2964.27
   03:23:29.948.09-May-2021 4480.01 4113.15 67.54 12.00 281.25 2964.27
   03:23:30.148.09-May-2021 4480.01 4113.19 67.54 12.00 281.45 2964.27
   03:23:30.348.09-May-2021 4480.01 4112.68 67.55 12.00 281.65 2964.27
   03:23:30.548.09-May-2021 4480.01 4113.35 67.55 12.00 281.85 2964.27
   03:23:30.748.09-May-2021 4480.01 4113.17 67.55 12.00 282.05 2964.27
   03:23:30.948.09-May-2021 4480.01 4113.17 67.55 12.00 282.25 2964.27
   03:23:31.148.09-May-2021 4480.01 4113.05 67.55 12.00 282.45 2964.27
   03:23:31.348.09-May-2021 4480.01 4113.32 67.55 12.00 282.65 2964.27
   03:23:31.548.09-May-2021 4480.01 4113.36 67.55 12.00 282.85 2964.27
   03:23:31.748.09-May-2021 4480.01 4113.24 67.55 12.00 283.05 2964.27
   03:23:31.948.09-May-2021 4480.01 4113.24 67.55 12.00 283.25 2964.27
   03:23:32.148.09-May-2021 4480.01 4113.26 67.55 12.00 283.45 2964.27
   03:23:32.349.09-May-2021 4480.01 4113.33 67.55 12.00 283.65 2964.27
   03:23:32.549.09-May-2021 4480.01 4113.31 67.55 12.00 283.85 2964.27
   03:23:32.749.09-May-2021 4480.01 4113.33 67.55 12.00 284.05 2964.27
   03:23:32.949.09-May-2021 4480.01 4113.33 67.55 12.00 284.25 2964.27
   03:23:33.149.09-May-2021 4480.01 4113.34 67.55 12.00 284.45 2964.27
   03:23:33.349.09-May-2021 4480.01 4113.38 67.55 12.00 284.65 2964.27
   03:23:33.549.09-May-2021 4480.01 4113.18 67.55 12.00 284.85 2964.27
   03:23:33.749.09-May-2021 4480.01 4113.45 67.55 12.00 285.05 2964.27
   03:23:33.949.09-May-2021 4480.01 4113.45 67.55 12.00 285.25 2964.27
   03:23:34.149.09-May-2021 4480.01 4113.60 67.55 12.00 285.45 2964.27
   03:23:34.349.09-May-2021 4480.01 4113.32 67.55 12.00 285.65 2964.27
   03:23:34.549.09-May-2021 4480.01 4113.46 67.55 12.00 285.85 2964.27
   03:23:34.749.09-May-2021 4480.01 4113.43 67.55 12.00 286.05 2964.27
   03:23:34.949.09-May-2021 4480.01 4113.43 67.55 12.00 286.25 2964.27
   03:23:35.149.09-May-2021 4480.01 4113.43 67.55 12.00 286.45 2964.27
   03:23:35.349.09-May-2021 4480.01 4113.45 67.55 12.00 286.65 2964.27
   03:23:35.549.09-May-2021 4480.01 4113.45 67.55 12.00 286.85 2964.27
   03:23:35.749.09-May-2021 4480.01 4113.47 67.55 12.00 287.05 2964.27
   03:23:35.949.09-May-2021 4480.01 4113.47 67.55 12.00 287.25 2964.27
   03:23:36.149.09-May-2021 4480.01 4113.50 67.55 12.00 287.45 2964.27
   03:23:36.349.09-May-2021 4480.01 4113.34 67.55 12.00 287.65 2964.27
   03:23:36.549.09-May-2021 4480.01 4113.51 67.55 12.00 287.85 2964.27
   03:23:36.749.09-May-2021 4480.01 4113.60 67.55 12.00 288.05 2964.27
   03:23:36.949.09-May-2021 4480.01 4113.60 67.55 12.00 288.25 2964.27
   03:23:37.149.09-May-2021 4480.01 4113.64 67.55 12.00 288.45 2964.27
   03:23:37.349.09-May-2021 4480.01 4113.64 67.55 12.00 288.65 2964.27
   03:23:37.549.09-May-2021 4480.01 4113.47 67.55 12.00 288.85 2964.27
   03:23:37.749.09-May-2021 4480.01 4113.34 67.55 12.00 289.05 2964.27
   03:23:37.949.09-May-2021 4480.01 4113.34 67.55 12.00 289.25 2964.27
   03:23:38.149.09-May-2021 4480.01 4113.74 67.55 12.00 289.45 2964.27
   03:23:38.350.09-May-2021 4480.01 4113.18 67.55 12.00 289.65 2964.27
   03:23:38.550.09-May-2021 4480.01 4113.76 67.55 12.00 289.85 2964.27
   03:23:38.750.09-May-2021 4480.01 4113.54 67.55 12.00 290.05 2964.27
   03:23:38.950.09-May-2021 4480.01 4113.54 67.55 12.00 290.25 2964.27
   03:23:39.150.09-May-2021 4480.01 4113.50 67.55 12.00 290.45 2964.27
   03:23:39.350.09-May-2021 4480.01 4113.56 67.55 12.00 290.65 2964.27
   03:23:39.550.09-May-2021 4480.01 4113.56 67.55 12.00 290.85 2964.27
   03:23:39.750.09-May-2021 4480.01 4113.60 67.55 12.00 291.05 2964.27
   03:23:39.950.09-May-2021 4480.01 4113.60 67.55 12.00 291.25 2964.27
   03:23:40.150.09-May-2021 4480.01 4113.61 67.55 12.00 291.45 2964.27
   03:23:40.350.09-May-2021 4480.01 4113.63 67.55 12.00 291.65 2964.27
   03:23:40.550.09-May-2021 4480.01 4113.63 67.55 12.00 291.85 2964.27
   03:23:40.750.09-May-2021 4480.01 4113.65 67.55 12.00 292.05 2964.27
   03:23:40.950.09-May-2021 4480.01 4113.65 67.55 12.00 292.25 2964.27
   03:23:41.150.09-May-2021 4480.01 4113.72 67.55 12.00 292.45 2964.27
   03:23:41.350.09-May-2021 4480.01 4113.79 67.55 12.00 292.65 2964.27
   03:23:41.550.09-May-2021 4480.01 4113.59 67.55 12.00 292.85 2964.27
   03:23:41.750.09-May-2021 4480.01 4113.65 67.55 12.00 293.05 2964.27
   03:23:41.950.09-May-2021 4480.01 4113.65 67.55 12.00 293.25 2964.27
   03:23:42.150.09-May-2021 4480.01 4113.66 67.55 12.00 293.45 2964.27
   03:23:42.350.09-May-2021 4480.01 4113.66 67.55 12.00 293.65 2964.27
