~Version Information
 VERS.                  2.0:   CWLS log ASCII Standard -VERSION 2.0
 WRAP.                   NO:   One line per depth step
~Well Information Block
#MNEM.UNIT     VALUE/NAME     DESCRIPTION
#---------     -----------    ---------------------------
 STRT.S             23:07:02 09-May-21: START TIME 23:07:02 09-May-21
 STOP.S             23:13:42 09-May-21: STOP TIME  23:13:42 09-May-21
 STEP.S                   0.00: STEP TIME
 NULL.                 -999.25: NULL VALUE
 PROV.                    Baku:  PROVINCE
 STAT.                    Baku:  STATE NAME
 SON .        AZ-XX-0906571588:  JOB NUMBER
 WTYP.                Deviated:  WELL TYPE
 COMP.     BP Exploration (Caspian Sea) ltd:  COMPANY
 BASE.              Azerbaijan:  LOGGING EQUIPMENT BASE LOCATION
 REGN.                   EESSA:  REGION
 CTRY.              Azerbaijan:  COUNTRY NAME
 FLD .                     ACG:  FIELD NAME
 WELL.                     J28:  WELL NAME
 RIG .             West Chirag:  RIG NAME
 DMF .             Drill Floor:  DRILL MEAS FROM
 PDAT.       Caspian Sea Level:  PERMANENT DATUM
 HPTY.       Minimum Curvature:  HOLE POS TYPE
 MDS .        Operator Entered:  MAG DATA SOURCE
 NREF.                    Grid:  NORTH REFERENCE
 SRVC.          TURAN DRILLING:  CONTRACTOR
 JOBN.        AZ-XX-0906571588:  JOB TICKET NUMB
 DCON.     Halliburton Sperry Drilling:  DIRECTNL CONTR
 STIM.      00.44.00 11-Feb-21:  START TIME
 DATE.      00.00.00 05-May-21:  END TIME
 SPUD.               13-Feb-21:  SPUD DATE
 MWDS.                    Baku:  MWD SHOP
 DOE .                     N/A:  DOE NUMBER
 UNIT.                     N/A:  LOGGING EQUIPMENT ID
 UWI .                     N/A:  UNIQUE WELL IDENTIFIER
 API .                     N/A:  API NUMBER
 CNTY.                        :  COUNTY
 LOC .                        :  LOCATION
 LMF .             Drill Floor:  LOG MEASURED FROM
 TVDS.m                  43.00:  TVDSS CORRECTN
 SDEP.m                 341.00:  START DEPTH
 EGL .m                   0.00:  GROUND ELEVATION
 WDMS.m                 169.80:  WD ELEV
 AGAP.m                  43.00:  AIR GAP
 EPD .m                   0.00:  ELEVATION
 APD .m                  43.00:  DEPTH ABOVE PD
 LATI.deg                40.13:  LATITUDE
 LONG.deg                51.22:  LONGITUDE
 UTMY.m             4443793.85:  UTM Y
 UTMX.m              519005.06:  UTM X
 WHEW.m                 -11.57:  WELL HEAD E/W
 WHNS.m                   8.57:  WELL HEAD N/S
 VSEW.m                 -11.57:  VERT SEC E/W
 VSNS.m                   8.57:  VERT SEC N/S
 DFWL.m                   0.00:  DISTANCE FWL
 DFSL.m                   0.00:  DISTANCE FSL
 VSDR.deg               299.34:  VERT SEC DIRECT
 GVFD.g                   1.00:  GRAVITY FIELD
 AZTC.deg                 6.36:  AZM TOTAL CORR
 MFLD.nT              50391.00:  MAGNETIC FIELD
 MDIP.deg                59.65:  MAGNETIC DIP
 MDEC.deg                 6.48:  MAGNETIC DECL
 GRDC.deg                 0.12:  GRID CORRECTION
 DEP .m                 334.96:  DEPTH
 TDD .m                1407.26:  TOTAL DEPTH (DRILLER)
 EKB .m                  43.00:  KB ELEVATION
 EDF .m                  43.00:  DF ELEVATION
 TDL .m                 228.00:  TOTAL DEPTH (LOGGER)
 VSC .                       0:  VS TO CLOSURE
 MAGU.                 1854484:  MAGUTM CHECKSUM
~Parameter Information Block
#MNEM.UNIT       Value        Description
#---------     -----------    ---------------------------
 AV  .mps                 4.00:  Ann Velocity 
 AVMX.mps                 4.73:  Max Ann Veloc 
 AZIF.deg               304.48:  Azm, Final 
 BHAT.        Rotary Steerable:  BHA Type 
 BREV.rev            257300.00:  Rev Bit Total 
 BROT.°/30m               0.00:  Build Rotating 
 BS  .in                  8.50:  Bit Size 
 BSZ .in                  8.50:  Bit Size 
 BTPL.psig              589.00:  Bit Press Loss 
 CABU.                      No:  Customer Abuse 
 CGEO.          Mubariz ghayev:  Customer Geo 
 COMM.                     d:  Run Comments 1 
 TCS .hr                 64.25:  Time Ciculation Ended 
 CV  .mps                 3.50:  Crit Velocity 
 CVMX.mps                 4.52:  Max Crit Veloc 
 DD1 .             Aziz Aliyev:  Direct Drillr 1 
 DD2 .         Intigam Rahimov:  Direct Drillr 2 
 DD3 .          Rashad Habibov:  Direct Drillr 3 
 DDSV.               Geo-Pilot:  DD Service 
 DEFF.%                  98.00:  % Det Eff 
 DLRX.°/30m               0.00:  Dogleg Rot Max 
 DLSO.°/30m               0.00:  Dogleg Oriented 
 DLSX.°/30m               0.00:  Dogleg Str Max 
 DRET.      10.45.04 08-May-21:  Drill End Time 
 DRST.      03.30.04 04-May-21:  Drill Start Tim 
 DTIM.hr                 14.97:  Time Drilling 
 EDEP.m                4640.01:  End Depth 
 ENG1.         Dail Mahammadov:  Engineer 1 
 ENG2.           Eldar Hajiyev:  Engineer 2 
 ENG3.       Bakhtiar Jabbarli:  Engineer 3 
 ENG4.       Natik Hasanagayev:  Engineer 4 
 ETIM.      09.30.04 14-May-21:  End Time 
 FLOI.gpm               460.00:  Flow In 
 FLON.gpm               200.00:  Flow In Min 
 FLOS.cptm                0.00:  Fluid Loss 
 FLOX.gpm               505.00:  Flow In Max 
 HFLO.                      No:  High Flow 
 HPRE.                      No:  High Pressure 
 HTEM.                      No:  High Temp 
 HYDO.m                   1.80:  Hydro Offset 
 IFIN.deg                66.71:  Inc, Final 
 IMAX.deg                67.03:  Inc Max 
 IMIN.deg                66.63:  Inc Min 
 IMND.m                4550.58:  Inc Min Depth 
 IMXD.m                4439.01:  Inc Max Depth 
 JARR.                      No:  Jarring 
 LETM.      10.45.04 08-May-21:  Log End Time 
 LOST.hr                     0:  Lost Rig Time 
 LSTM.      03.30.04 04-May-21:  Log Start Time 
 MDCL.ppm             37000.00:  Mud Chlorides 
 MDES.     Inversion Oil/Synthetic:  Mud Desc 
 DFD .sg                  1.38:  Mud Density 
 MDMN.sg                  1.35:  Dens Mud Min 
 MDMX.sg                  1.40:  Dens Mud Max 
 MOIL.                   57.40:  Run Mud Oil % 
 MOWR.                   70:30:  Run Mud OWR 
 MSND.                    0.00:  Run Mud Sand % 
 MSOL.                   18.00:  Run Mud Solids% 
 DFV .spqt               71.00:  Mud Viscosity 
 MWOD.in                  6.75:  MWD Tool OD 
 MWSI.                      No:  Serv Intrp, MWD 
 OTIM.hr                242.76:  Time Operating 
 PCON.           Look Like New:  Pad Condition 
 PMAX.psia            12183.92:  Press Op, Max 
 PV  .cP                 27.00:  Mud PV 
 RUN .                    1300:  Run Number 
 ROPA.m/hr               15.00:  ROP Avg 
 ROPN.m/hr                9.00:  ROP Min 
 ROPX.m/hr               19.00:  ROP Max 
 RPMA.rpm               120.00:  RPM Surface Avg 
 RPMN.rpm               100.00:  RPM Surface Min 
 RPMX.rpm               120.00:  RPM Surface Max 
 RRUN.                    1300:  Rig Run Number 
 RTIM.hr                  5.00:  Time Reaming 
 SAZI.deg               304.73:  Azm, Start 
 SDEP.m                4412.01:  Start Depth 
 SIDD.                      No:  Serv Intrp, DD 
 SINC.deg                66.82:  Inc, Start 
 SPPA.psig             2800.00:  SPP Avg 
 SPPN.psig             2610.00:  SPP Min 
 SPPX.psig             3100.00:  SPP Max 
 STIM.      03.30.00 04-May-21:  Start Time 
 SVCS.                 DD, MWD:  Services 
 SVER.                    9.20:  Sperry Version 
 TDAT.m                 228.00:  Tot Depth Attmp 
 TDDF.                      No:  Trip for DD 
 TDLG.m                 228.00:  Tot Depth Loggd 
 TFF .                      No:  Trip for Fail 
 TQAA.f-kp               15.00:  Torque Abs Avg 
 TQAN.f-kp               12.00:  Torque Abs Min 
 TQAX.f-kp               22.00:  Torque Abs Max 
 TRRT.°/30m               0.00:  Turn Rotating 
 MRT .                    HCIM:  Maximum Recorded Temperature 
 TTMX.degC               90.20:  Max Tool Temp 
 VS01.                90627813:  Virtual Str1 SN 
 VS02.                90634712:  Virtual Str2 SN 
 VS03.                90643410:  Virtual Str3 SN 
 VS04.                90634712:  Virtual Str4 SN 
 WBMN.klb                 9.00:  WOB Min 
 WITN.        Elmaddin Rahimov:  Customer Rep 
 WITN.         Haytham Mostafa:  Customer Rep 2 
 WOBA.klb                15.00:  WOB Avg 
 WOBX.klb                23.00:  WOB Max 
 YP  .lhf2               29.00:  Yield Point 
~Curve Information Block
#MNEM.UNIT                 API CODE     Curve Description
#---------               -----------    ---------------------------
 TIME.HHMMSS            00 000 000 000:  GT Time & Date
 GTDEPTH.m              00 000 000 000:  GT Depth
 GTPQH.psia             00 000 000 000:  GT HR Quartz Pressure
 GTTQ.degC              00 000 000 000:  GT Quartz Temperature
 GTTN.NONE              00 000 000 000:  GT Test Number
 GTET.sec               00 000 000 000:  GT Elapsed Test Time
 GTTVD.m                00 000 000 000:  GT True Vertical Depth
#Other Information
#
#WARRANTY: Halliburton will use its best efforts to furnish customers with 
#accurate information and interpretations that are part of, and incident to, the services 
#provided.  However, Halliburton cannot and does not warrant the accuracy 
#or correctness of such information and interpretations.  Under no circumstances should any 
#such information or interpretation be relied upon as the sole basis for any drilling, 
#completion, production, or financial decision or any procedure involving any risk to the 
#safety of any drilling venture, drilling rig or its crew or any other third party.  The 
#Customer has full responsibility for all drilling, completion and production operation.  
#Halliburton makes no representations or warranties, either expressed or 
#implied, including, but not limited to, the implied warranties of merchantability or fitness 
#for a particular purpose, with respect to the services rendered.  In no event will 
#Halliburton be liable for failure to obtain any particular results or for 
#any damages, including, but not limited to, indirect, special or consequential damages, 
#resulting from the use of any information or interpretation provided by Halliburton.
#
~A           TIME           GTDEPTH  GTPQH  GTTQ  GTTN   GTET   GTTVD  
   23:07:02.837.09-May-2021 4503.01 6516.30 60.59 17.00   0.00 2973.29
   23:07:03.037.09-May-2021 4503.01 6516.30 60.59 17.00   0.20 2973.29
   23:07:03.237.09-May-2021 4503.01 6517.53 60.59 17.00   0.40 2973.29
   23:07:03.436.09-May-2021 4503.01 6519.10 60.59 17.00   0.60 2973.29
   23:07:03.636.09-May-2021 4503.01 6515.11 60.59 17.00   0.80 2973.29
   23:07:03.836.09-May-2021 4503.01 6520.61 60.59 17.00   1.00 2973.29
   23:07:04.036.09-May-2021 4503.01 6520.61 60.59 17.00   1.20 2973.29
   23:07:04.236.09-May-2021 4503.01 6520.86 60.59 17.00   1.40 2973.29
   23:07:04.436.09-May-2021 4503.01 6516.20 60.59 17.00   1.60 2973.29
   23:07:04.636.09-May-2021 4503.01 6523.13 60.59 17.00   1.80 2973.29
   23:07:04.836.09-May-2021 4503.01 6521.78 60.59 17.00   2.00 2973.29
   23:07:05.036.09-May-2021 4503.01 6521.78 60.59 17.00   2.20 2973.29
   23:07:05.236.09-May-2021 4503.01 6517.06 60.59 17.00   2.40 2973.29
   23:07:05.436.09-May-2021 4503.01 6518.32 60.59 17.00   2.60 2973.29
   23:07:05.636.09-May-2021 4503.01 6524.09 60.59 17.00   2.80 2973.29
   23:07:05.836.09-May-2021 4503.01 6520.84 60.59 17.00   3.00 2973.29
   23:07:06.036.09-May-2021 4503.01 6520.84 60.59 17.00   3.20 2973.29
   23:07:06.236.09-May-2021 4503.01 6525.48 60.59 17.00   3.40 2973.29
   23:07:06.436.09-May-2021 4503.01 6520.69 60.59 17.00   3.60 2973.29
   23:07:06.636.09-May-2021 4503.01 6522.12 60.59 17.00   3.80 2973.29
   23:07:06.836.09-May-2021 4503.01 6520.86 60.59 17.00   4.00 2973.29
   23:07:07.036.09-May-2021 4503.01 6520.86 60.59 17.00   4.20 2973.29
   23:07:07.235.09-May-2021 4503.01 6522.57 60.59 17.00   4.40 2973.29
   23:07:07.435.09-May-2021 4503.01 6521.68 60.59 17.00   4.60 2973.29
   23:07:07.635.09-May-2021 4503.01 6528.86 60.59 17.00   4.80 2973.29
   23:07:07.835.09-May-2021 4503.01 6520.84 60.59 17.00   5.00 2973.29
   23:07:08.035.09-May-2021 4503.01 6524.44 60.59 17.00   5.20 2973.29
   23:07:08.235.09-May-2021 4503.01 6524.44 60.59 17.00   5.40 2973.29
   23:07:08.435.09-May-2021 4503.01 6524.44 60.59 17.00   5.60 2973.29
   23:07:08.635.09-May-2021 4503.01 6522.85 60.59 17.00   5.80 2973.29
   23:07:08.835.09-May-2021 4503.01 6522.11 60.59 17.00   6.00 2973.29
   23:07:09.035.09-May-2021 4503.01 6522.11 60.59 17.00   6.20 2973.29
   23:07:09.235.09-May-2021 4503.01 6522.48 60.59 17.00   6.40 2973.29
   23:07:09.435.09-May-2021 4503.01 6522.72 60.59 17.00   6.60 2973.29
   23:07:09.635.09-May-2021 4503.01 6522.87 60.59 17.00   6.80 2973.29
   23:07:09.835.09-May-2021 4503.01 6522.86 60.59 17.00   7.00 2973.29
   23:07:10.035.09-May-2021 4503.01 6522.86 60.59 17.00   7.20 2973.29
   23:07:10.235.09-May-2021 4503.01 6522.79 60.59 17.00   7.40 2973.29
   23:07:10.435.09-May-2021 4503.01 6525.61 60.58 17.00   7.60 2973.29
   23:07:10.635.09-May-2021 4503.01 6527.63 60.58 17.00   7.80 2973.29
   23:07:10.835.09-May-2021 4503.01 6527.69 60.58 17.00   8.00 2973.29
   23:07:11.034.09-May-2021 4503.01 6527.69 60.58 17.00   8.20 2973.29
   23:07:11.234.09-May-2021 4503.01 6525.00 60.58 17.00   8.40 2973.29
   23:07:11.434.09-May-2021 4503.01 6524.12 60.58 17.00   8.60 2973.29
   23:07:11.634.09-May-2021 4503.01 6524.52 60.58 17.00   8.80 2973.29
   23:07:11.834.09-May-2021 4503.01 6524.64 60.58 17.00   9.00 2973.29
   23:07:12.034.09-May-2021 4503.01 6524.64 60.58 17.00   9.20 2973.29
   23:07:12.234.09-May-2021 4503.01 6524.17 60.58 17.00   9.40 2973.29
   23:07:12.434.09-May-2021 4503.01 6524.19 60.58 17.00   9.60 2973.29
   23:07:12.634.09-May-2021 4503.01 6524.53 60.58 17.00   9.80 2973.29
   23:07:12.834.09-May-2021 4503.01 6524.25 60.58 17.00  10.00 2973.29
   23:07:13.034.09-May-2021 4503.01 6524.25 60.58 17.00  10.20 2973.29
   23:07:13.234.09-May-2021 4503.01 6529.26 60.58 17.00  10.40 2973.29
   23:07:13.434.09-May-2021 4503.01 6527.32 60.58 17.00  10.60 2973.29
   23:07:13.634.09-May-2021 4503.01 6527.86 60.58 17.00  10.80 2973.29
   23:07:13.834.09-May-2021 4503.01 6529.29 60.58 17.00  11.00 2973.29
   23:07:14.034.09-May-2021 4503.01 6529.29 60.58 17.00  11.20 2973.29
   23:07:14.234.09-May-2021 4503.01 6531.49 60.58 17.00  11.40 2973.29
   23:07:14.434.09-May-2021 4503.01 6528.55 60.58 17.00  11.60 2973.29
   23:07:14.634.09-May-2021 4503.01 6527.83 60.58 17.00  11.80 2973.29
   23:07:14.834.09-May-2021 4503.01 6529.68 60.58 17.00  12.00 2973.29
   23:07:15.033.09-May-2021 4503.01 6529.68 60.58 17.00  12.20 2973.29
   23:07:15.233.09-May-2021 4503.01 6529.68 60.58 17.00  12.40 2973.29
   23:07:15.433.09-May-2021 4503.01 6528.18 60.58 17.00  12.60 2973.29
   23:07:15.633.09-May-2021 4503.01 6529.87 60.58 17.00  12.80 2973.29
   23:07:15.833.09-May-2021 4503.01 6528.76 60.58 17.00  13.00 2973.29
   23:07:16.033.09-May-2021 4503.01 6528.76 60.58 17.00  13.20 2973.29
   23:07:16.233.09-May-2021 4503.01 6532.99 60.58 17.00  13.40 2973.29
   23:07:16.433.09-May-2021 4503.01 6530.93 60.58 17.00  13.60 2973.29
   23:07:16.633.09-May-2021 4503.01 6532.11 60.58 17.00  13.80 2973.29
   23:07:16.833.09-May-2021 4503.01 6533.25 60.58 17.00  14.00 2973.29
   23:07:17.033.09-May-2021 4503.01 6533.25 60.58 17.00  14.20 2973.29
   23:07:17.233.09-May-2021 4503.01 6533.69 60.58 17.00  14.40 2973.29
   23:07:17.433.09-May-2021 4503.01 6528.38 60.58 17.00  14.60 2973.29
   23:07:17.633.09-May-2021 4503.01 6529.42 60.58 17.00  14.80 2973.29
   23:07:17.833.09-May-2021 4503.01 6528.95 60.58 17.00  15.00 2973.29
   23:07:18.033.09-May-2021 4503.01 6528.95 60.58 17.00  15.20 2973.29
   23:07:18.233.09-May-2021 4503.01 6533.91 60.58 17.00  15.40 2973.29
   23:07:18.433.09-May-2021 4503.01 6535.21 60.58 17.00  15.60 2973.29
   23:07:18.633.09-May-2021 4503.01 6530.04 60.58 17.00  15.80 2973.29
   23:07:18.832.09-May-2021 4503.01 6530.44 60.58 17.00  16.00 2973.29
   23:07:19.032.09-May-2021 4503.01 6530.44 60.58 17.00  16.20 2973.29
   23:07:19.232.09-May-2021 4503.01 6529.50 60.58 17.00  16.40 2973.29
   23:07:19.432.09-May-2021 4503.01 6529.76 60.58 17.00  16.60 2973.29
   23:07:19.632.09-May-2021 4503.01 6529.73 60.58 17.00  16.80 2973.29
   23:07:19.832.09-May-2021 4503.01 6529.89 60.58 17.00  17.00 2973.29
   23:07:20.032.09-May-2021 4503.01 6529.89 60.58 17.00  17.20 2973.29
   23:07:20.232.09-May-2021 4503.01 6530.15 60.58 17.00  17.40 2973.29
   23:07:20.432.09-May-2021 4503.01 6529.94 60.58 17.00  17.60 2973.29
   23:07:20.632.09-May-2021 4503.01 6536.52 60.58 17.00  17.80 2973.29
   23:07:20.832.09-May-2021 4503.01 6535.23 60.58 17.00  18.00 2973.29
   23:07:21.032.09-May-2021 4503.01 6535.23 60.58 17.00  18.20 2973.29
   23:07:21.232.09-May-2021 4503.01 6531.32 60.58 17.00  18.40 2973.29
   23:07:21.432.09-May-2021 4503.01 6532.50 60.58 17.00  18.60 2973.29
   23:07:21.632.09-May-2021 4503.01 6532.00 60.58 17.00  18.80 2973.29
   23:07:21.832.09-May-2021 4503.01 6531.27 60.58 17.00  19.00 2973.29
   23:07:22.032.09-May-2021 4503.01 6531.27 60.58 17.00  19.19 2973.29
   23:07:22.232.09-May-2021 4503.01 6531.71 60.58 17.00  19.39 2973.29
   23:07:22.432.09-May-2021 4503.01 6531.94 60.58 17.00  19.59 2973.29
   23:07:22.631.09-May-2021 4503.01 6531.59 60.58 17.00  19.79 2973.29
   23:07:22.831.09-May-2021 4503.01 6531.24 60.58 17.00  19.99 2973.29
   23:07:23.031.09-May-2021 4503.01 6531.24 60.58 17.00  20.19 2973.29
   23:07:23.231.09-May-2021 4503.01 6537.53 60.57 17.00  20.39 2973.29
   23:07:23.431.09-May-2021 4503.01 6535.11 60.57 17.00  20.59 2973.29
   23:07:23.631.09-May-2021 4503.01 6534.77 60.57 17.00  20.79 2973.29
   23:07:23.831.09-May-2021 4503.01 6535.99 60.57 17.00  20.99 2973.29
   23:07:24.031.09-May-2021 4503.01 6535.99 60.57 17.00  21.19 2973.29
   23:07:24.231.09-May-2021 4503.01 6538.36 60.57 17.00  21.39 2973.29
   23:07:24.431.09-May-2021 4503.01 6537.27 60.57 17.00  21.59 2973.29
   23:07:24.631.09-May-2021 4503.01 6538.10 60.57 17.00  21.79 2973.29
   23:07:24.831.09-May-2021 4503.01 6534.29 60.57 17.00  21.99 2973.29
   23:07:25.031.09-May-2021 4503.01 6534.29 60.57 17.00  22.19 2973.29
   23:07:25.231.09-May-2021 4503.01 6538.89 60.57 17.00  22.39 2973.29
