~Version Information
 VERS.                  2.0:   CWLS log ASCII Standard -VERSION 2.0
 WRAP.                   NO:   One line per depth step
~Well Information Block
#MNEM.UNIT     VALUE/NAME     DESCRIPTION
#---------     -----------    ---------------------------
 STRT.S             00:24:13 10-May-21: START TIME 00:24:13 10-May-21
 STOP.S             00:32:26 10-May-21: STOP TIME  00:32:26 10-May-21
 STEP.S                   0.00: STEP TIME
 NULL.                 -999.25: NULL VALUE
 PROV.                    Baku:  PROVINCE
 STAT.                    Baku:  STATE NAME
 SON .        AZ-XX-0906571588:  JOB NUMBER
 WTYP.                Deviated:  WELL TYPE
 COMP.     BP Exploration (Caspian Sea) ltd:  COMPANY
 BASE.              Azerbaijan:  LOGGING EQUIPMENT BASE LOCATION
 REGN.                   EESSA:  REGION
 CTRY.              Azerbaijan:  COUNTRY NAME
 FLD .                     ACG:  FIELD NAME
 WELL.                     J28:  WELL NAME
 RIG .             West Chirag:  RIG NAME
 DMF .             Drill Floor:  DRILL MEAS FROM
 PDAT.       Caspian Sea Level:  PERMANENT DATUM
 HPTY.       Minimum Curvature:  HOLE POS TYPE
 MDS .        Operator Entered:  MAG DATA SOURCE
 NREF.                    Grid:  NORTH REFERENCE
 SRVC.          TURAN DRILLING:  CONTRACTOR
 JOBN.        AZ-XX-0906571588:  JOB TICKET NUMB
 DCON.     Halliburton Sperry Drilling:  DIRECTNL CONTR
 STIM.      00.44.00 11-Feb-21:  START TIME
 DATE.      00.00.00 05-May-21:  END TIME
 SPUD.               13-Feb-21:  SPUD DATE
 MWDS.                    Baku:  MWD SHOP
 DOE .                     N/A:  DOE NUMBER
 UNIT.                     N/A:  LOGGING EQUIPMENT ID
 UWI .                     N/A:  UNIQUE WELL IDENTIFIER
 API .                     N/A:  API NUMBER
 CNTY.                        :  COUNTY
 LOC .                        :  LOCATION
 LMF .             Drill Floor:  LOG MEASURED FROM
 TVDS.m                  43.00:  TVDSS CORRECTN
 SDEP.m                 341.00:  START DEPTH
 EGL .m                   0.00:  GROUND ELEVATION
 WDMS.m                 169.80:  WD ELEV
 AGAP.m                  43.00:  AIR GAP
 EPD .m                   0.00:  ELEVATION
 APD .m                  43.00:  DEPTH ABOVE PD
 LATI.deg                40.13:  LATITUDE
 LONG.deg                51.22:  LONGITUDE
 UTMY.m             4443793.85:  UTM Y
 UTMX.m              519005.06:  UTM X
 WHEW.m                 -11.57:  WELL HEAD E/W
 WHNS.m                   8.57:  WELL HEAD N/S
 VSEW.m                 -11.57:  VERT SEC E/W
 VSNS.m                   8.57:  VERT SEC N/S
 DFWL.m                   0.00:  DISTANCE FWL
 DFSL.m                   0.00:  DISTANCE FSL
 VSDR.deg               299.34:  VERT SEC DIRECT
 GVFD.g                   1.00:  GRAVITY FIELD
 AZTC.deg                 6.36:  AZM TOTAL CORR
 MFLD.nT              50391.00:  MAGNETIC FIELD
 MDIP.deg                59.65:  MAGNETIC DIP
 MDEC.deg                 6.48:  MAGNETIC DECL
 GRDC.deg                 0.12:  GRID CORRECTION
 DEP .m                 334.96:  DEPTH
 TDD .m                1407.26:  TOTAL DEPTH (DRILLER)
 EKB .m                  43.00:  KB ELEVATION
 EDF .m                  43.00:  DF ELEVATION
 TDL .m                 228.00:  TOTAL DEPTH (LOGGER)
 VSC .                       0:  VS TO CLOSURE
 MAGU.                 1854484:  MAGUTM CHECKSUM
~Parameter Information Block
#MNEM.UNIT       Value        Description
#---------     -----------    ---------------------------
 AV  .mps                 4.00:  Ann Velocity 
 AVMX.mps                 4.73:  Max Ann Veloc 
 AZIF.deg               304.48:  Azm, Final 
 BHAT.        Rotary Steerable:  BHA Type 
 BREV.rev            257300.00:  Rev Bit Total 
 BROT.°/30m               0.00:  Build Rotating 
 BS  .in                  8.50:  Bit Size 
 BSZ .in                  8.50:  Bit Size 
 BTPL.psig              589.00:  Bit Press Loss 
 CABU.                      No:  Customer Abuse 
 CGEO.          Mubariz ghayev:  Customer Geo 
 TCS .hr                 64.25:  Time Ciculation Ended 
 CV  .mps                 3.50:  Crit Velocity 
 CVMX.mps                 4.52:  Max Crit Veloc 
 DD1 .             Aziz Aliyev:  Direct Drillr 1 
 DD2 .         Intigam Rahimov:  Direct Drillr 2 
 DD3 .          Rashad Habibov:  Direct Drillr 3 
 DDSV.               Geo-Pilot:  DD Service 
 DEFF.%                  98.00:  % Det Eff 
 DLRX.°/30m               0.00:  Dogleg Rot Max 
 DLSO.°/30m               0.00:  Dogleg Oriented 
 DLSX.°/30m               0.00:  Dogleg Str Max 
 DRET.      10.45.04 08-May-21:  Drill End Time 
 DRST.      03.30.04 04-May-21:  Drill Start Tim 
 DTIM.hr                 14.97:  Time Drilling 
 EDEP.m                4640.01:  End Depth 
 ENG1.         Dail Mahammadov:  Engineer 1 
 ENG2.           Eldar Hajiyev:  Engineer 2 
 ENG3.       Bakhtiar Jabbarli:  Engineer 3 
 ENG4.       Natik Hasanagayev:  Engineer 4 
 ETIM.      09.30.04 14-May-21:  End Time 
 FLOI.gpm               460.00:  Flow In 
 FLON.gpm               200.00:  Flow In Min 
 FLOS.cptm                0.00:  Fluid Loss 
 FLOX.gpm               505.00:  Flow In Max 
 HFLO.                      No:  High Flow 
 HPRE.                      No:  High Pressure 
 HTEM.                      No:  High Temp 
 HYDO.m                   1.80:  Hydro Offset 
 IFIN.deg                66.71:  Inc, Final 
 IMAX.deg                67.03:  Inc Max 
 IMIN.deg                66.63:  Inc Min 
 IMND.m                4550.58:  Inc Min Depth 
 IMXD.m                4439.01:  Inc Max Depth 
 JARR.                      No:  Jarring 
 LETM.      10.45.04 08-May-21:  Log End Time 
 LOST.hr                     0:  Lost Rig Time 
 LSTM.      03.30.04 04-May-21:  Log Start Time 
 MDCL.ppm             37000.00:  Mud Chlorides 
 MDES.     Inversion Oil/Synthetic:  Mud Desc 
 DFD .sg                  1.38:  Mud Density 
 MDMN.sg                  1.35:  Dens Mud Min 
 MDMX.sg                  1.40:  Dens Mud Max 
 MOIL.                   57.40:  Run Mud Oil % 
 MOWR.                   70:30:  Run Mud OWR 
 MSND.                    0.00:  Run Mud Sand % 
 MSOL.                   18.00:  Run Mud Solids% 
 DFV .spqt               71.00:  Mud Viscosity 
 MWOD.in                  6.75:  MWD Tool OD 
 MWSI.                      No:  Serv Intrp, MWD 
 OTIM.hr                242.76:  Time Operating 
 PCON.           Look Like New:  Pad Condition 
 PMAX.psia            12183.92:  Press Op, Max 
 PV  .cP                 27.00:  Mud PV 
 RUN .                    1300:  Run Number 
 ROPA.m/hr               15.00:  ROP Avg 
 ROPN.m/hr                9.00:  ROP Min 
 ROPX.m/hr               19.00:  ROP Max 
 RPMA.rpm               120.00:  RPM Surface Avg 
 RPMN.rpm               100.00:  RPM Surface Min 
 RPMX.rpm               120.00:  RPM Surface Max 
 RRUN.                    1300:  Rig Run Number 
 RTIM.hr                  5.00:  Time Reaming 
 SAZI.deg               304.73:  Azm, Start 
 SDEP.m                4412.01:  Start Depth 
 SIDD.                      No:  Serv Intrp, DD 
 SINC.deg                66.82:  Inc, Start 
 SPPA.psig             2800.00:  SPP Avg 
 SPPN.psig             2610.00:  SPP Min 
 SPPX.psig             3100.00:  SPP Max 
 STIM.      03.30.00 04-May-21:  Start Time 
 SVCS.                 DD, MWD:  Services 
 SVER.                    9.20:  Sperry Version 
 TDAT.m                 228.00:  Tot Depth Attmp 
 TDDF.                      No:  Trip for DD 
 TDLG.m                 228.00:  Tot Depth Loggd 
 TFF .                      No:  Trip for Fail 
 TQAA.f-kp               15.00:  Torque Abs Avg 
 TQAN.f-kp               12.00:  Torque Abs Min 
 TQAX.f-kp               22.00:  Torque Abs Max 
 TRRT.°/30m               0.00:  Turn Rotating 
 MRT .                    HCIM:  Maximum Recorded Temperature 
 TTMX.degC               90.20:  Max Tool Temp 
 VS01.                90627813:  Virtual Str1 SN 
 VS02.                90634712:  Virtual Str2 SN 
 VS03.                90643410:  Virtual Str3 SN 
 VS04.                90634712:  Virtual Str4 SN 
 WBMN.klb                 9.00:  WOB Min 
 WITN.        Elmaddin Rahimov:  Customer Rep 
 WITN.         Haytham Mostafa:  Customer Rep 2 
 WOBA.klb                15.00:  WOB Avg 
 WOBX.klb                23.00:  WOB Max 
 YP  .lhf2               29.00:  Yield Point 
~Curve Information Block
#MNEM.UNIT                 API CODE     Curve Description
#---------               -----------    ---------------------------
 TIME.HHMMSS            00 000 000 000:  GT Time & Date
 GTDEPTH.m              00 000 000 000:  GT Depth
 GTPQH.psia             00 000 000 000:  GT HR Quartz Pressure
 GTTQ.degC              00 000 000 000:  GT Quartz Temperature
 GTTN.NONE              00 000 000 000:  GT Test Number
 GTET.sec               00 000 000 000:  GT Elapsed Test Time
 GTTVD.m                00 000 000 000:  GT True Vertical Depth
#Other Information
#
#WARRANTY: Halliburton will use its best efforts to furnish customers with 
#accurate information and interpretations that are part of, and incident to, the services 
#provided.  However, Halliburton cannot and does not warrant the accuracy 
#or correctness of such information and interpretations.  Under no circumstances should any 
#such information or interpretation be relied upon as the sole basis for any drilling, 
#completion, production, or financial decision or any procedure involving any risk to the 
#safety of any drilling venture, drilling rig or its crew or any other third party.  The 
#Customer has full responsibility for all drilling, completion and production operation.  
#Halliburton makes no representations or warranties, either expressed or 
#implied, including, but not limited to, the implied warranties of merchantability or fitness 
#for a particular purpose, with respect to the services rendered.  In no event will 
#Halliburton be liable for failure to obtain any particular results or for 
#any damages, including, but not limited to, indirect, special or consequential damages, 
#resulting from the use of any information or interpretation provided by Halliburton.
#
~A           TIME           GTDEPTH  GTPQH  GTTQ  GTTN   GTET   GTTVD  
# ...
   00:27:59.704.10-May-2021 4497.51  468.85 60.47 18.00 226.10 2971.13
   00:27:59.904.10-May-2021 4497.51  468.85 60.47 18.00 226.30 2971.13
   00:28:00.105.10-May-2021 4497.51  469.63 60.47 18.00 226.50 2971.13
   00:28:00.305.10-May-2021 4497.51  469.84 60.47 18.00 226.70 2971.13
   00:28:00.505.10-May-2021 4497.51  470.05 60.47 18.00 226.90 2971.13
   00:28:00.705.10-May-2021 4497.51  470.18 60.47 18.00 227.10 2971.13
   00:28:00.905.10-May-2021 4497.51  470.18 60.47 18.00 227.30 2971.13
   00:28:01.105.10-May-2021 4497.51  470.53 60.47 18.00 227.50 2971.13
   00:28:01.305.10-May-2021 4497.51  470.69 60.47 18.00 227.70 2971.13
   00:28:01.505.10-May-2021 4497.51  470.87 60.47 18.00 227.90 2971.13
   00:28:01.705.10-May-2021 4497.51  471.02 60.47 18.00 228.10 2971.13
   00:28:01.905.10-May-2021 4497.51  471.02 60.47 18.00 228.30 2971.13
   00:28:02.105.10-May-2021 4497.51  471.19 60.47 18.00 228.50 2971.13
   00:28:02.306.10-May-2021 4497.51  471.35 60.47 18.00 228.70 2971.13
   00:28:02.506.10-May-2021 4497.51  471.80 60.47 18.00 228.90 2971.13
   00:28:02.706.10-May-2021 4497.51  471.99 60.47 18.00 229.10 2971.13
   00:28:02.906.10-May-2021 4497.51  471.99 60.47 18.00 229.30 2971.13
   00:28:03.106.10-May-2021 4497.51  472.28 60.47 18.00 229.50 2971.13
   00:28:03.306.10-May-2021 4497.51  472.41 60.47 18.00 229.70 2971.13
   00:28:03.506.10-May-2021 4497.51  472.58 60.47 18.00 229.90 2971.13
   00:28:03.706.10-May-2021 4497.51  472.75 60.47 18.00 230.10 2971.13
   00:28:03.906.10-May-2021 4497.51  472.75 60.47 18.00 230.30 2971.13
   00:28:04.106.10-May-2021 4497.51  473.06 60.47 18.00 230.50 2971.13
   00:28:04.306.10-May-2021 4497.51  473.24 60.47 18.00 230.70 2971.13
   00:28:04.506.10-May-2021 4497.51  473.42 60.47 18.00 230.90 2971.13
   00:28:04.707.10-May-2021 4497.51  473.22 60.47 18.00 231.10 2971.13
   00:28:04.907.10-May-2021 4497.51  473.22 60.47 18.00 231.30 2971.13
   00:28:05.107.10-May-2021 4497.51  473.84 60.47 18.00 231.50 2971.13
   00:28:05.307.10-May-2021 4497.51  474.19 60.47 18.00 231.70 2971.13
   00:28:05.507.10-May-2021 4497.51  474.23 60.47 18.00 231.90 2971.13
   00:28:05.707.10-May-2021 4497.51  473.98 60.47 18.00 232.10 2971.13
   00:28:05.907.10-May-2021 4497.51  473.98 60.47 18.00 232.30 2971.13
   00:28:06.107.10-May-2021 4497.51  474.70 60.47 18.00 232.50 2971.13
   00:28:06.307.10-May-2021 4497.51  474.92 60.47 18.00 232.70 2971.13
   00:28:06.507.10-May-2021 4497.51  475.12 60.47 18.00 232.90 2971.13
   00:28:06.707.10-May-2021 4497.51  475.03 60.47 18.00 233.10 2971.13
   00:28:06.907.10-May-2021 4497.51  475.03 60.47 18.00 233.30 2971.13
   00:28:07.108.10-May-2021 4497.51  475.64 60.47 18.00 233.50 2971.13
   00:28:07.308.10-May-2021 4497.51  475.83 60.47 18.00 233.70 2971.13
   00:28:07.508.10-May-2021 4497.51  475.90 60.47 18.00 233.90 2971.13
   00:28:07.708.10-May-2021 4497.51  475.57 60.47 18.00 234.10 2971.13
   00:28:07.908.10-May-2021 4497.51  475.57 60.47 18.00 234.30 2971.13
   00:28:08.108.10-May-2021 4497.51  476.31 60.47 18.00 234.50 2971.13
   00:28:08.308.10-May-2021 4497.51  476.69 60.47 18.00 234.70 2971.13
   00:28:08.508.10-May-2021 4497.51  476.75 60.47 18.00 234.90 2971.13
   00:28:08.708.10-May-2021 4497.51  476.93 60.47 18.00 235.10 2971.13
   00:28:08.908.10-May-2021 4497.51  476.93 60.47 18.00 235.30 2971.13
   00:28:09.108.10-May-2021 4497.51  477.27 60.47 18.00 235.50 2971.13
   00:28:09.309.10-May-2021 4497.51  477.45 60.47 18.00 235.70 2971.13
   00:28:09.509.10-May-2021 4497.51  477.60 60.47 18.00 235.90 2971.13
   00:28:09.709.10-May-2021 4497.51  477.79 60.47 18.00 236.10 2971.13
   00:28:09.909.10-May-2021 4497.51  477.79 60.47 18.00 236.30 2971.13
   00:28:10.109.10-May-2021 4497.51  478.16 60.47 18.00 236.50 2971.13
   00:28:10.309.10-May-2021 4497.51  477.85 60.47 18.00 236.70 2971.13
   00:28:10.509.10-May-2021 4497.51  478.64 60.47 18.00 236.90 2971.13
   00:28:10.709.10-May-2021 4497.51  478.68 60.47 18.00 237.10 2971.13
   00:28:10.909.10-May-2021 4497.51  478.68 60.47 18.00 237.30 2971.13
   00:28:11.109.10-May-2021 4497.51  479.03 60.47 18.00 237.50 2971.13
   00:28:11.309.10-May-2021 4497.51  479.16 60.47 18.00 237.70 2971.13
   00:28:11.509.10-May-2021 4497.51  479.33 60.47 18.00 237.90 2971.13
   00:28:11.710.10-May-2021 4497.51  479.50 60.47 18.00 238.10 2971.13
   00:28:11.910.10-May-2021 4497.51  479.50 60.47 18.00 238.30 2971.13
   00:28:12.110.10-May-2021 4497.51  479.83 60.47 18.00 238.50 2971.13
   00:28:12.310.10-May-2021 4497.51  479.99 60.47 18.00 238.70 2971.13
   00:28:12.510.10-May-2021 4497.51  480.18 60.47 18.00 238.90 2971.13
   00:28:12.710.10-May-2021 4497.51  480.14 60.47 18.00 239.10 2971.13
   00:28:12.910.10-May-2021 4497.51  480.14 60.47 18.00 239.30 2971.13
   00:28:13.110.10-May-2021 4497.51  480.73 60.47 18.00 239.50 2971.13
   00:28:13.310.10-May-2021 4497.51  480.93 60.47 18.00 239.70 2971.13
   00:28:13.510.10-May-2021 4497.51  480.99 60.47 18.00 239.90 2971.13
   00:28:13.710.10-May-2021 4497.51  480.82 60.47 18.00 240.10 2971.13
   00:28:13.910.10-May-2021 4497.51  480.82 60.47 18.00 240.30 2971.13
   00:28:14.111.10-May-2021 4497.51  481.46 60.47 18.00 240.50 2971.13
   00:28:14.311.10-May-2021 4497.51  481.83 60.47 18.00 240.70 2971.13
   00:28:14.511.10-May-2021 4497.51  481.86 60.47 18.00 240.90 2971.13
   00:28:14.711.10-May-2021 4497.51  482.06 60.47 18.00 241.10 2971.13
   00:28:14.911.10-May-2021 4497.51  482.06 60.47 18.00 241.30 2971.13
   00:28:15.111.10-May-2021 4497.51  482.38 60.47 18.00 241.50 2971.13
   00:28:15.311.10-May-2021 4497.51  482.50 60.47 18.00 241.70 2971.13
   00:28:15.511.10-May-2021 4497.51  482.89 60.47 18.00 241.90 2971.13
   00:28:15.711.10-May-2021 4497.51  482.91 60.47 18.00 242.10 2971.13
   00:28:15.911.10-May-2021 4497.51  482.91 60.47 18.00 242.30 2971.13
   00:28:16.111.10-May-2021 4497.51  483.45 60.47 18.00 242.50 2971.13
   00:28:16.312.10-May-2021 4497.51  483.38 60.47 18.00 242.70 2971.13
   00:28:16.512.10-May-2021 4497.51  483.60 60.47 18.00 242.90 2971.13
   00:28:16.712.10-May-2021 4497.51  483.81 60.47 18.00 243.10 2971.13
   00:28:16.912.10-May-2021 4497.51  483.81 60.47 18.00 243.30 2971.13
   00:28:17.112.10-May-2021 4497.51  484.13 60.47 18.00 243.50 2971.13
   00:28:17.312.10-May-2021 4497.51  484.29 60.47 18.00 243.70 2971.13
   00:28:17.512.10-May-2021 4497.51  484.46 60.47 18.00 243.90 2971.13
   00:28:17.712.10-May-2021 4497.51  484.63 60.47 18.00 244.10 2971.13
   00:28:17.912.10-May-2021 4497.51  484.63 60.47 18.00 244.30 2971.13
   00:28:18.112.10-May-2021 4497.51  485.01 60.47 18.00 244.50 2971.13
   00:28:18.312.10-May-2021 4497.51  484.94 60.47 18.00 244.70 2971.13
   00:28:18.512.10-May-2021 4497.51  485.07 60.47 18.00 244.90 2971.13
   00:28:18.713.10-May-2021 4497.51  485.57 60.47 18.00 245.10 2971.13
   00:28:18.913.10-May-2021 4497.51  485.57 60.47 18.00 245.30 2971.13
   00:28:19.113.10-May-2021 4497.51  485.82 60.47 18.00 245.51 2971.13
   00:28:19.313.10-May-2021 4497.51  486.04 60.47 18.00 245.71 2971.13
   00:28:19.513.10-May-2021 4497.51  486.20 60.47 18.00 245.91 2971.13
   00:28:19.713.10-May-2021 4497.51  486.34 60.47 18.00 246.11 2971.13
   00:28:19.913.10-May-2021 4497.51  486.34 60.47 18.00 246.31 2971.13
   00:28:20.113.10-May-2021 4497.51  486.69 60.47 18.00 246.51 2971.13
   00:28:20.313.10-May-2021 4497.51  486.87 60.47 18.00 246.71 2971.13
   00:28:20.513.10-May-2021 4497.51  487.06 60.47 18.00 246.91 2971.13
   00:28:20.713.10-May-2021 4497.51  487.24 60.47 18.00 247.11 2971.13
   00:28:20.913.10-May-2021 4497.51  487.24 60.47 18.00 247.31 2971.13
   00:28:21.114.10-May-2021 4497.51  487.58 60.47 18.00 247.51 2971.13
   00:28:21.314.10-May-2021 4497.51  487.67 60.47 18.00 247.71 2971.13
   00:28:21.514.10-May-2021 4497.51  488.08 60.47 18.00 247.91 2971.13
   00:28:21.714.10-May-2021 4497.51  488.10 60.47 18.00 248.11 2971.13
   00:28:21.914.10-May-2021 4497.51  488.10 60.47 18.00 248.31 2971.13
   00:28:22.114.10-May-2021 4497.51  488.21 60.47 18.00 248.51 2971.13
