~Version Information
 VERS.                  2.0:   CWLS log ASCII Standard -VERSION 2.0
 WRAP.                   NO:   One line per depth step
~Well Information Block
#MNEM.UNIT     VALUE/NAME     DESCRIPTION
#---------     -----------    ---------------------------
 STRT.S             20:19:26 08-May-21: START TIME 20:19:26 08-May-21
 STOP.S             20:26:06 08-May-21: STOP TIME  20:26:06 08-May-21
 STEP.S                   0.00: STEP TIME
 NULL.                 -999.25: NULL VALUE
 PROV.                    Baku:  PROVINCE
 STAT.                    Baku:  STATE NAME
 SON .        AZ-XX-0906571588:  JOB NUMBER
 WTYP.                Deviated:  WELL TYPE
 COMP.     BP Exploration (Caspian Sea) ltd:  COMPANY
 BASE.              Azerbaijan:  LOGGING EQUIPMENT BASE LOCATION
 REGN.                   EESSA:  REGION
 CTRY.              Azerbaijan:  COUNTRY NAME
 FLD .                     ACG:  FIELD NAME
 WELL.                     J28:  WELL NAME
 RIG .             West Chirag:  RIG NAME
 DMF .             Drill Floor:  DRILL MEAS FROM
 PDAT.       Caspian Sea Level:  PERMANENT DATUM
 HPTY.       Minimum Curvature:  HOLE POS TYPE
 MDS .        Operator Entered:  MAG DATA SOURCE
 NREF.                    Grid:  NORTH REFERENCE
 SRVC.          TURAN DRILLING:  CONTRACTOR
 JOBN.        AZ-XX-0906571588:  JOB TICKET NUMB
 DCON.     Halliburton Sperry Drilling:  DIRECTNL CONTR
 STIM.      00.44.00 11-Feb-21:  START TIME
 DATE.      00.00.00 05-May-21:  END TIME
 SPUD.               13-Feb-21:  SPUD DATE
 MWDS.                    Baku:  MWD SHOP
 DOE .                     N/A:  DOE NUMBER
 UNIT.                     N/A:  LOGGING EQUIPMENT ID
 UWI .                     N/A:  UNIQUE WELL IDENTIFIER
 API .                     N/A:  API NUMBER
 CNTY.                        :  COUNTY
 LOC .                        :  LOCATION
 LMF .             Drill Floor:  LOG MEASURED FROM
 TVDS.m                  43.00:  TVDSS CORRECTN
 SDEP.m                 341.00:  START DEPTH
 EGL .m                   0.00:  GROUND ELEVATION
 WDMS.m                 169.80:  WD ELEV
 AGAP.m                  43.00:  AIR GAP
 EPD .m                   0.00:  ELEVATION
 APD .m                  43.00:  DEPTH ABOVE PD
 LATI.deg                40.13:  LATITUDE
 LONG.deg                51.22:  LONGITUDE
 UTMY.m             4443793.85:  UTM Y
 UTMX.m              519005.06:  UTM X
 WHEW.m                 -11.57:  WELL HEAD E/W
 WHNS.m                   8.57:  WELL HEAD N/S
 VSEW.m                 -11.57:  VERT SEC E/W
 VSNS.m                   8.57:  VERT SEC N/S
 DFWL.m                   0.00:  DISTANCE FWL
 DFSL.m                   0.00:  DISTANCE FSL
 VSDR.deg               299.34:  VERT SEC DIRECT
 GVFD.g                   1.00:  GRAVITY FIELD
 AZTC.deg                 6.36:  AZM TOTAL CORR
 MFLD.nT              50391.00:  MAGNETIC FIELD
 MDIP.deg                59.65:  MAGNETIC DIP
 MDEC.deg                 6.48:  MAGNETIC DECL
 GRDC.deg                 0.12:  GRID CORRECTION
 DEP .m                 334.96:  DEPTH
 TDD .m                1407.26:  TOTAL DEPTH (DRILLER)
 EKB .m                  43.00:  KB ELEVATION
 EDF .m                  43.00:  DF ELEVATION
 TDL .m                 228.00:  TOTAL DEPTH (LOGGER)
 VSC .                       0:  VS TO CLOSURE
 MAGU.                 1854484:  MAGUTM CHECKSUM
~Parameter Information Block
#MNEM.UNIT       Value        Description
#---------     -----------    ---------------------------
 AV  .mps                 4.00:  Ann Velocity 
 AVMX.mps                 4.73:  Max Ann Veloc 
 AZIF.deg               304.48:  Azm, Final 
 BHAT.        Rotary Steerable:  BHA Type 
 BREV.rev            257300.00:  Rev Bit Total 
 BROT.°/30m               0.00:  Build Rotating 
 BS  .in                  8.50:  Bit Size 
 BSZ .in                  8.50:  Bit Size 
 BTPL.psig              589.00:  Bit Press Loss 
 CABU.                      No:  Customer Abuse 
 CGEO.          Mubariz ghayev:  Customer Geo 
 COMM.                     $w`:  Run Comments 1 
 TCS .hr                 64.25:  Time Ciculation Ended 
 CV  .mps                 3.50:  Crit Velocity 
 CVMX.mps                 4.52:  Max Crit Veloc 
 DD1 .             Aziz Aliyev:  Direct Drillr 1 
 DD2 .         Intigam Rahimov:  Direct Drillr 2 
 DD3 .          Rashad Habibov:  Direct Drillr 3 
 DDSV.               Geo-Pilot:  DD Service 
 DEFF.%                  98.00:  % Det Eff 
 DLRX.°/30m               0.00:  Dogleg Rot Max 
 DLSO.°/30m               0.00:  Dogleg Oriented 
 DLSX.°/30m               0.00:  Dogleg Str Max 
 DRET.      10.45.04 08-May-21:  Drill End Time 
 DRST.      03.30.04 04-May-21:  Drill Start Tim 
 DTIM.hr                 14.97:  Time Drilling 
 EDEP.m                4640.01:  End Depth 
 ENG1.         Dail Mahammadov:  Engineer 1 
 ENG2.           Eldar Hajiyev:  Engineer 2 
 ENG3.       Bakhtiar Jabbarli:  Engineer 3 
 ENG4.       Natik Hasanagayev:  Engineer 4 
 ETIM.      09.30.04 14-May-21:  End Time 
 FLOI.gpm               460.00:  Flow In 
 FLON.gpm               200.00:  Flow In Min 
 FLOS.cptm                0.00:  Fluid Loss 
 FLOX.gpm               505.00:  Flow In Max 
 HFLO.                      No:  High Flow 
 HPRE.                      No:  High Pressure 
 HTEM.                      No:  High Temp 
 HYDO.m                   1.80:  Hydro Offset 
 IFIN.deg                66.71:  Inc, Final 
 IMAX.deg                67.03:  Inc Max 
 IMIN.deg                66.63:  Inc Min 
 IMND.m                4550.58:  Inc Min Depth 
 IMXD.m                4439.01:  Inc Max Depth 
 JARR.                      No:  Jarring 
 LETM.      10.45.04 08-May-21:  Log End Time 
 LOST.hr                     0:  Lost Rig Time 
 LSTM.      03.30.04 04-May-21:  Log Start Time 
 MDCL.ppm             37000.00:  Mud Chlorides 
 MDES.     Inversion Oil/Synthetic:  Mud Desc 
 DFD .sg                  1.38:  Mud Density 
 MDMN.sg                  1.35:  Dens Mud Min 
 MDMX.sg                  1.40:  Dens Mud Max 
 MOIL.                   57.40:  Run Mud Oil % 
 MOWR.                   70:30:  Run Mud OWR 
 MSND.                    0.00:  Run Mud Sand % 
 MSOL.                   18.00:  Run Mud Solids% 
 DFV .spqt               71.00:  Mud Viscosity 
 MWOD.in                  6.75:  MWD Tool OD 
 MWSI.                      No:  Serv Intrp, MWD 
 OTIM.hr                242.76:  Time Operating 
 PCON.           Look Like New:  Pad Condition 
 PMAX.psia            12183.92:  Press Op, Max 
 PV  .cP                 27.00:  Mud PV 
 RUN .                    1300:  Run Number 
 ROPA.m/hr               15.00:  ROP Avg 
 ROPN.m/hr                9.00:  ROP Min 
 ROPX.m/hr               19.00:  ROP Max 
 RPMA.rpm               120.00:  RPM Surface Avg 
 RPMN.rpm               100.00:  RPM Surface Min 
 RPMX.rpm               120.00:  RPM Surface Max 
 RRUN.                    1300:  Rig Run Number 
 RTIM.hr                  5.00:  Time Reaming 
 SAZI.deg               304.73:  Azm, Start 
 SDEP.m                4412.01:  Start Depth 
 SIDD.                      No:  Serv Intrp, DD 
 SINC.deg                66.82:  Inc, Start 
 SPPA.psig             2800.00:  SPP Avg 
 SPPN.psig             2610.00:  SPP Min 
 SPPX.psig             3100.00:  SPP Max 
 STIM.      03.30.00 04-May-21:  Start Time 
 SVCS.                 DD, MWD:  Services 
 SVER.                    9.20:  Sperry Version 
 TDAT.m                 228.00:  Tot Depth Attmp 
 TDDF.                      No:  Trip for DD 
 TDLG.m                 228.00:  Tot Depth Loggd 
 TFF .                      No:  Trip for Fail 
 TQAA.f-kp               15.00:  Torque Abs Avg 
 TQAN.f-kp               12.00:  Torque Abs Min 
 TQAX.f-kp               22.00:  Torque Abs Max 
 TRRT.°/30m               0.00:  Turn Rotating 
 MRT .                    HCIM:  Maximum Recorded Temperature 
 TTMX.degC               90.20:  Max Tool Temp 
 VS01.                90627813:  Virtual Str1 SN 
 VS02.                90634712:  Virtual Str2 SN 
 VS03.                90643410:  Virtual Str3 SN 
 VS04.                90634712:  Virtual Str4 SN 
 WBMN.klb                 9.00:  WOB Min 
 WITN.        Elmaddin Rahimov:  Customer Rep 
 WITN.         Haytham Mostafa:  Customer Rep 2 
 WOBA.klb                15.00:  WOB Avg 
 WOBX.klb                23.00:  WOB Max 
 YP  .lhf2               29.00:  Yield Point 
~Curve Information Block
#MNEM.UNIT                 API CODE     Curve Description
#---------               -----------    ---------------------------
 TIME.HHMMSS            00 000 000 000:  GT Time & Date
 GTDEPTH.m              00 000 000 000:  GT Depth
 GTPQH.psia             00 000 000 000:  GT HR Quartz Pressure
 GTTQ.degC              00 000 000 000:  GT Quartz Temperature
 GTTN.NONE              00 000 000 000:  GT Test Number
 GTET.sec               00 000 000 000:  GT Elapsed Test Time
 GTTVD.m                00 000 000 000:  GT True Vertical Depth
#Other Information
#
#WARRANTY: Halliburton will use its best efforts to furnish customers with 
#accurate information and interpretations that are part of, and incident to, the services 
#provided.  However, Halliburton cannot and does not warrant the accuracy 
#or correctness of such information and interpretations.  Under no circumstances should any 
#such information or interpretation be relied upon as the sole basis for any drilling, 
#completion, production, or financial decision or any procedure involving any risk to the 
#safety of any drilling venture, drilling rig or its crew or any other third party.  The 
#Customer has full responsibility for all drilling, completion and production operation.  
#Halliburton makes no representations or warranties, either expressed or 
#implied, including, but not limited to, the implied warranties of merchantability or fitness 
#for a particular purpose, with respect to the services rendered.  In no event will 
#Halliburton be liable for failure to obtain any particular results or for 
#any damages, including, but not limited to, indirect, special or consequential damages, 
#resulting from the use of any information or interpretation provided by Halliburton.
#
~A           TIME           GTDEPTH  GTPQH  GTTQ  GTTN  GTET   GTTVD  
# ...
   20:20:58.548.08-May-2021 4592.01 1684.68 69.09 1.00  92.01 3008.50
   20:20:58.748.08-May-2021 4592.01 1684.68 69.09 1.00  92.21 3008.50
   20:20:58.948.08-May-2021 4592.01 1688.53 69.09 1.00  92.41 3008.50
   20:20:59.148.08-May-2021 4592.01 1690.56 69.09 1.00  92.61 3008.50
   20:20:59.348.08-May-2021 4592.01 1692.38 69.09 1.00  92.81 3008.50
   20:20:59.548.08-May-2021 4592.01 1694.30 69.09 1.00  93.01 3008.50
   20:20:59.748.08-May-2021 4592.01 1694.30 69.09 1.00  93.21 3008.50
   20:20:59.948.08-May-2021 4592.01 1697.96 69.09 1.00  93.41 3008.50
   20:21:00.148.08-May-2021 4592.01 1699.83 69.09 1.00  93.61 3008.50
   20:21:00.348.08-May-2021 4592.01 1701.59 69.09 1.00  93.81 3008.50
   20:21:00.548.08-May-2021 4592.01 1703.05 69.09 1.00  94.01 3008.50
   20:21:00.748.08-May-2021 4592.01 1703.05 69.09 1.00  94.21 3008.50
   20:21:00.948.08-May-2021 4592.01 1707.52 69.09 1.00  94.41 3008.50
   20:21:01.148.08-May-2021 4592.01 1709.50 69.09 1.00  94.61 3008.50
   20:21:01.348.08-May-2021 4592.01 1711.29 69.09 1.00  94.81 3008.50
   20:21:01.548.08-May-2021 4592.01 1713.25 69.09 1.00  95.01 3008.50
   20:21:01.748.08-May-2021 4592.01 1713.25 69.09 1.00  95.21 3008.50
   20:21:01.948.08-May-2021 4592.01 1716.80 69.09 1.00  95.41 3008.50
   20:21:02.148.08-May-2021 4592.01 1718.63 69.09 1.00  95.61 3008.50
   20:21:02.348.08-May-2021 4592.01 1720.27 69.09 1.00  95.81 3008.50
   20:21:02.548.08-May-2021 4592.01 1722.11 69.09 1.00  96.01 3008.50
   20:21:02.748.08-May-2021 4592.01 1722.11 69.09 1.00  96.21 3008.50
   20:21:02.948.08-May-2021 4592.01 1725.51 69.09 1.00  96.41 3008.50
   20:21:03.148.08-May-2021 4592.01 1726.71 69.09 1.00  96.61 3008.50
   20:21:03.348.08-May-2021 4592.01 1729.43 69.10 1.00  96.81 3008.50
   20:21:03.548.08-May-2021 4592.01 1731.04 69.10 1.00  97.01 3008.50
   20:21:03.748.08-May-2021 4592.01 1731.04 69.10 1.00  97.21 3008.50
   20:21:03.948.08-May-2021 4592.01 1735.22 69.10 1.00  97.41 3008.50
   20:21:04.148.08-May-2021 4592.01 1737.00 69.10 1.00  97.61 3008.50
   20:21:04.348.08-May-2021 4592.01 1739.26 69.10 1.00  97.81 3008.50
   20:21:04.548.08-May-2021 4592.01 1740.87 69.10 1.00  98.01 3008.50
   20:21:04.748.08-May-2021 4592.01 1740.87 69.10 1.00  98.21 3008.50
   20:21:04.948.08-May-2021 4592.01 1744.95 69.10 1.00  98.41 3008.50
   20:21:05.148.08-May-2021 4592.01 1746.71 69.10 1.00  98.61 3008.50
   20:21:05.348.08-May-2021 4592.01 1749.00 69.10 1.00  98.81 3008.50
   20:21:05.548.08-May-2021 4592.01 1749.73 69.10 1.00  99.01 3008.50
   20:21:05.748.08-May-2021 4592.01 1749.73 69.10 1.00  99.21 3008.50
   20:21:05.948.08-May-2021 4592.01 1754.22 69.10 1.00  99.41 3008.50
   20:21:06.148.08-May-2021 4592.01 1757.05 69.10 1.00  99.61 3008.50
   20:21:06.348.08-May-2021 4592.01 1758.36 69.10 1.00  99.81 3008.50
   20:21:06.548.08-May-2021 4592.01 1760.20 69.10 1.00 100.01 3008.50
   20:21:06.748.08-May-2021 4592.01 1760.20 69.10 1.00 100.21 3008.50
   20:21:06.948.08-May-2021 4592.01 1763.67 69.10 1.00 100.41 3008.50
   20:21:07.148.08-May-2021 4592.01 1765.38 69.10 1.00 100.61 3008.50
   20:21:07.348.08-May-2021 4592.01 1767.15 69.10 1.00 100.81 3008.50
   20:21:07.548.08-May-2021 4592.01 1768.77 69.10 1.00 101.01 3008.50
   20:21:07.748.08-May-2021 4592.01 1768.77 69.10 1.00 101.21 3008.50
   20:21:07.949.08-May-2021 4592.01 1772.21 69.10 1.00 101.41 3008.50
   20:21:08.149.08-May-2021 4592.01 1773.45 69.10 1.00 101.61 3008.50
   20:21:08.349.08-May-2021 4592.01 1776.20 69.10 1.00 101.81 3008.50
   20:21:08.549.08-May-2021 4592.01 1777.64 69.10 1.00 102.01 3008.50
   20:21:08.749.08-May-2021 4592.01 1777.64 69.10 1.00 102.21 3008.50
   20:21:08.949.08-May-2021 4592.01 1781.19 69.10 1.00 102.41 3008.50
   20:21:09.149.08-May-2021 4592.01 1783.06 69.10 1.00 102.61 3008.50
   20:21:09.349.08-May-2021 4592.01 1784.77 69.10 1.00 102.81 3008.50
   20:21:09.549.08-May-2021 4592.01 1786.48 69.10 1.00 103.01 3008.50
   20:21:09.749.08-May-2021 4592.01 1786.48 69.10 1.00 103.21 3008.50
   20:21:09.949.08-May-2021 4592.01 1789.78 69.10 1.00 103.41 3008.50
   20:21:10.149.08-May-2021 4592.01 1791.61 69.10 1.00 103.61 3008.50
   20:21:10.349.08-May-2021 4592.01 1793.15 69.10 1.00 103.81 3008.50
   20:21:10.549.08-May-2021 4592.01 1794.85 69.10 1.00 104.01 3008.50
   20:21:10.749.08-May-2021 4592.01 1794.85 69.10 1.00 104.21 3008.50
   20:21:10.949.08-May-2021 4592.01 1798.48 69.10 1.00 104.41 3008.50
   20:21:11.149.08-May-2021 4592.01 1799.94 69.10 1.00 104.61 3008.50
   20:21:11.349.08-May-2021 4592.01 1801.80 69.10 1.00 104.81 3008.50
   20:21:11.549.08-May-2021 4592.01 1803.25 69.10 1.00 105.01 3008.50
   20:21:11.749.08-May-2021 4592.01 1803.25 69.10 1.00 105.21 3008.50
   20:21:11.949.08-May-2021 4592.01 1806.53 69.10 1.00 105.41 3008.50
   20:21:12.149.08-May-2021 4592.01 1808.30 69.10 1.00 105.61 3008.50
   20:21:12.349.08-May-2021 4592.01 1810.26 69.10 1.00 105.81 3008.50
   20:21:12.549.08-May-2021 4592.01 1811.30 69.10 1.00 106.01 3008.50
   20:21:12.749.08-May-2021 4592.01 1811.30 69.10 1.00 106.21 3008.50
   20:21:12.949.08-May-2021 4592.01 1815.44 69.10 1.00 106.41 3008.50
   20:21:13.149.08-May-2021 4592.01 1817.71 69.10 1.00 106.61 3008.50
   20:21:13.349.08-May-2021 4592.01 1819.16 69.10 1.00 106.81 3008.50
   20:21:13.549.08-May-2021 4592.01 1820.56 69.10 1.00 107.01 3008.50
   20:21:13.749.08-May-2021 4592.01 1820.56 69.10 1.00 107.21 3008.50
   20:21:13.949.08-May-2021 4592.01 1824.82 69.10 1.00 107.41 3008.50
   20:21:14.149.08-May-2021 4592.01 1826.82 69.10 1.00 107.61 3008.50
   20:21:14.349.08-May-2021 4592.01 1828.37 69.10 1.00 107.81 3008.50
   20:21:14.549.08-May-2021 4592.01 1830.10 69.10 1.00 108.01 3008.50
   20:21:14.749.08-May-2021 4592.01 1830.10 69.10 1.00 108.21 3008.50
   20:21:14.949.08-May-2021 4592.01 1833.13 69.10 1.00 108.41 3008.50
   20:21:15.149.08-May-2021 4592.01 1834.75 69.10 1.00 108.61 3008.50
   20:21:15.349.08-May-2021 4592.01 1836.16 69.10 1.00 108.81 3008.50
   20:21:15.549.08-May-2021 4592.01 1837.68 69.10 1.00 109.01 3008.50
   20:21:15.749.08-May-2021 4592.01 1837.68 69.10 1.00 109.21 3008.50
   20:21:15.949.08-May-2021 4592.01 1840.40 69.10 1.00 109.41 3008.50
   20:21:16.149.08-May-2021 4592.01 1842.41 69.10 1.00 109.61 3008.50
   20:21:16.349.08-May-2021 4592.01 1844.20 69.10 1.00 109.81 3008.50
   20:21:16.549.08-May-2021 4592.01 1846.35 69.10 1.00 110.01 3008.50
   20:21:16.749.08-May-2021 4592.01 1846.35 69.10 1.00 110.21 3008.50
   20:21:16.949.08-May-2021 4592.01 1849.87 69.10 1.00 110.41 3008.50
   20:21:17.149.08-May-2021 4592.01 1851.61 69.10 1.00 110.61 3008.50
   20:21:17.349.08-May-2021 4592.01 1853.14 69.10 1.00 110.81 3008.50
   20:21:17.549.08-May-2021 4592.01 1854.83 69.10 1.00 111.01 3008.50
   20:21:17.750.08-May-2021 4592.01 1854.83 69.10 1.00 111.21 3008.50
   20:21:17.950.08-May-2021 4592.01 1857.87 69.10 1.00 111.41 3008.50
   20:21:18.150.08-May-2021 4592.01 1859.47 69.10 1.00 111.61 3008.50
   20:21:18.350.08-May-2021 4592.01 1860.94 69.10 1.00 111.81 3008.50
   20:21:18.550.08-May-2021 4592.01 1862.23 69.10 1.00 112.01 3008.50
   20:21:18.750.08-May-2021 4592.01 1862.23 69.10 1.00 112.21 3008.50
   20:21:18.950.08-May-2021 4592.01 1865.85 69.10 1.00 112.41 3008.50
   20:21:19.150.08-May-2021 4592.01 1867.68 69.10 1.00 112.61 3008.50
   20:21:19.350.08-May-2021 4592.01 1869.30 69.10 1.00 112.81 3008.50
   20:21:19.550.08-May-2021 4592.01 1870.88 69.10 1.00 113.01 3008.50
   20:21:19.750.08-May-2021 4592.01 1870.88 69.10 1.00 113.21 3008.50
   20:21:19.950.08-May-2021 4592.01 1874.73 69.10 1.00 113.41 3008.50
   20:21:20.150.08-May-2021 4592.01 1876.06 69.10 1.00 113.61 3008.50
   20:21:20.350.08-May-2021 4592.01 1878.07 69.10 1.00 113.81 3008.50
   20:21:20.550.08-May-2021 4592.01 1879.65 69.10 1.00 114.01 3008.50
   20:21:20.750.08-May-2021 4592.01 1879.65 69.10 1.00 114.21 3008.50
   20:21:20.950.08-May-2021 4592.01 1885.87 69.10 1.00 114.41 3008.50
   20:21:21.150.08-May-2021 4592.01 1991.07 69.10 1.00 114.61 3008.50
   20:21:21.350.08-May-2021 4592.01 2057.20 69.10 1.00 114.81 3008.50
