~Version Information
 VERS.                  2.0:   CWLS log ASCII Standard -VERSION 2.0
 WRAP.                   NO:   One line per depth step
~Well Information Block
#MNEM.UNIT     VALUE/NAME     DESCRIPTION
#---------     -----------    ---------------------------
 STRT.S             23:07:02 09-May-21: START TIME 23:07:02 09-May-21
 STOP.S             23:13:42 09-May-21: STOP TIME  23:13:42 09-May-21
 STEP.S                   0.00: STEP TIME
 NULL.                 -999.25: NULL VALUE
 PROV.                    Baku:  PROVINCE
 STAT.                    Baku:  STATE NAME
 SON .        AZ-XX-0906571588:  JOB NUMBER
 WTYP.                Deviated:  WELL TYPE
 COMP.     BP Exploration (Caspian Sea) ltd:  COMPANY
 BASE.              Azerbaijan:  LOGGING EQUIPMENT BASE LOCATION
 REGN.                   EESSA:  REGION
 CTRY.              Azerbaijan:  COUNTRY NAME
 FLD .                     ACG:  FIELD NAME
 WELL.                     J28:  WELL NAME
 RIG .             West Chirag:  RIG NAME
 DMF .             Drill Floor:  DRILL MEAS FROM
 PDAT.       Caspian Sea Level:  PERMANENT DATUM
 HPTY.       Minimum Curvature:  HOLE POS TYPE
 MDS .        Operator Entered:  MAG DATA SOURCE
 NREF.                    Grid:  NORTH REFERENCE
 SRVC.          TURAN DRILLING:  CONTRACTOR
 JOBN.        AZ-XX-0906571588:  JOB TICKET NUMB
 DCON.     Halliburton Sperry Drilling:  DIRECTNL CONTR
 STIM.      00.44.00 11-Feb-21:  START TIME
 DATE.      00.00.00 05-May-21:  END TIME
 SPUD.               13-Feb-21:  SPUD DATE
 MWDS.                    Baku:  MWD SHOP
 DOE .                     N/A:  DOE NUMBER
 UNIT.                     N/A:  LOGGING EQUIPMENT ID
 UWI .                     N/A:  UNIQUE WELL IDENTIFIER
 API .                     N/A:  API NUMBER
 CNTY.                        :  COUNTY
 LOC .                        :  LOCATION
 LMF .             Drill Floor:  LOG MEASURED FROM
 TVDS.m                  43.00:  TVDSS CORRECTN
 SDEP.m                 341.00:  START DEPTH
 EGL .m                   0.00:  GROUND ELEVATION
 WDMS.m                 169.80:  WD ELEV
 AGAP.m                  43.00:  AIR GAP
 EPD .m                   0.00:  ELEVATION
 APD .m                  43.00:  DEPTH ABOVE PD
 LATI.deg                40.13:  LATITUDE
 LONG.deg                51.22:  LONGITUDE
 UTMY.m             4443793.85:  UTM Y
 UTMX.m              519005.06:  UTM X
 WHEW.m                 -11.57:  WELL HEAD E/W
 WHNS.m                   8.57:  WELL HEAD N/S
 VSEW.m                 -11.57:  VERT SEC E/W
 VSNS.m                   8.57:  VERT SEC N/S
 DFWL.m                   0.00:  DISTANCE FWL
 DFSL.m                   0.00:  DISTANCE FSL
 VSDR.deg               299.34:  VERT SEC DIRECT
 GVFD.g                   1.00:  GRAVITY FIELD
 AZTC.deg                 6.36:  AZM TOTAL CORR
 MFLD.nT              50391.00:  MAGNETIC FIELD
 MDIP.deg                59.65:  MAGNETIC DIP
 MDEC.deg                 6.48:  MAGNETIC DECL
 GRDC.deg                 0.12:  GRID CORRECTION
 DEP .m                 334.96:  DEPTH
 TDD .m                1407.26:  TOTAL DEPTH (DRILLER)
 EKB .m                  43.00:  KB ELEVATION
 EDF .m                  43.00:  DF ELEVATION
 TDL .m                 228.00:  TOTAL DEPTH (LOGGER)
 VSC .                       0:  VS TO CLOSURE
 MAGU.                 1854484:  MAGUTM CHECKSUM
~Parameter Information Block
#MNEM.UNIT       Value        Description
#---------     -----------    ---------------------------
 AV  .mps                 4.00:  Ann Velocity 
 AVMX.mps                 4.73:  Max Ann Veloc 
 AZIF.deg               304.48:  Azm, Final 
 BHAT.        Rotary Steerable:  BHA Type 
 BREV.rev            257300.00:  Rev Bit Total 
 BROT.°/30m               0.00:  Build Rotating 
 BS  .in                  8.50:  Bit Size 
 BSZ .in                  8.50:  Bit Size 
 BTPL.psig              589.00:  Bit Press Loss 
 CABU.                      No:  Customer Abuse 
 CGEO.          Mubariz ghayev:  Customer Geo 
 COMM.                     d:  Run Comments 1 
 TCS .hr                 64.25:  Time Ciculation Ended 
 CV  .mps                 3.50:  Crit Velocity 
 CVMX.mps                 4.52:  Max Crit Veloc 
 DD1 .             Aziz Aliyev:  Direct Drillr 1 
 DD2 .         Intigam Rahimov:  Direct Drillr 2 
 DD3 .          Rashad Habibov:  Direct Drillr 3 
 DDSV.               Geo-Pilot:  DD Service 
 DEFF.%                  98.00:  % Det Eff 
 DLRX.°/30m               0.00:  Dogleg Rot Max 
 DLSO.°/30m               0.00:  Dogleg Oriented 
 DLSX.°/30m               0.00:  Dogleg Str Max 
 DRET.      10.45.04 08-May-21:  Drill End Time 
 DRST.      03.30.04 04-May-21:  Drill Start Tim 
 DTIM.hr                 14.97:  Time Drilling 
 EDEP.m                4640.01:  End Depth 
 ENG1.         Dail Mahammadov:  Engineer 1 
 ENG2.           Eldar Hajiyev:  Engineer 2 
 ENG3.       Bakhtiar Jabbarli:  Engineer 3 
 ENG4.       Natik Hasanagayev:  Engineer 4 
 ETIM.      09.30.04 14-May-21:  End Time 
 FLOI.gpm               460.00:  Flow In 
 FLON.gpm               200.00:  Flow In Min 
 FLOS.cptm                0.00:  Fluid Loss 
 FLOX.gpm               505.00:  Flow In Max 
 HFLO.                      No:  High Flow 
 HPRE.                      No:  High Pressure 
 HTEM.                      No:  High Temp 
 HYDO.m                   1.80:  Hydro Offset 
 IFIN.deg                66.71:  Inc, Final 
 IMAX.deg                67.03:  Inc Max 
 IMIN.deg                66.63:  Inc Min 
 IMND.m                4550.58:  Inc Min Depth 
 IMXD.m                4439.01:  Inc Max Depth 
 JARR.                      No:  Jarring 
 LETM.      10.45.04 08-May-21:  Log End Time 
 LOST.hr                     0:  Lost Rig Time 
 LSTM.      03.30.04 04-May-21:  Log Start Time 
 MDCL.ppm             37000.00:  Mud Chlorides 
 MDES.     Inversion Oil/Synthetic:  Mud Desc 
 DFD .sg                  1.38:  Mud Density 
 MDMN.sg                  1.35:  Dens Mud Min 
 MDMX.sg                  1.40:  Dens Mud Max 
 MOIL.                   57.40:  Run Mud Oil % 
 MOWR.                   70:30:  Run Mud OWR 
 MSND.                    0.00:  Run Mud Sand % 
 MSOL.                   18.00:  Run Mud Solids% 
 DFV .spqt               71.00:  Mud Viscosity 
 MWOD.in                  6.75:  MWD Tool OD 
 MWSI.                      No:  Serv Intrp, MWD 
 OTIM.hr                242.76:  Time Operating 
 PCON.           Look Like New:  Pad Condition 
 PMAX.psia            12183.92:  Press Op, Max 
 PV  .cP                 27.00:  Mud PV 
 RUN .                    1300:  Run Number 
 ROPA.m/hr               15.00:  ROP Avg 
 ROPN.m/hr                9.00:  ROP Min 
 ROPX.m/hr               19.00:  ROP Max 
 RPMA.rpm               120.00:  RPM Surface Avg 
 RPMN.rpm               100.00:  RPM Surface Min 
 RPMX.rpm               120.00:  RPM Surface Max 
 RRUN.                    1300:  Rig Run Number 
 RTIM.hr                  5.00:  Time Reaming 
 SAZI.deg               304.73:  Azm, Start 
 SDEP.m                4412.01:  Start Depth 
 SIDD.                      No:  Serv Intrp, DD 
 SINC.deg                66.82:  Inc, Start 
 SPPA.psig             2800.00:  SPP Avg 
 SPPN.psig             2610.00:  SPP Min 
 SPPX.psig             3100.00:  SPP Max 
 STIM.      03.30.00 04-May-21:  Start Time 
 SVCS.                 DD, MWD:  Services 
 SVER.                    9.20:  Sperry Version 
 TDAT.m                 228.00:  Tot Depth Attmp 
 TDDF.                      No:  Trip for DD 
 TDLG.m                 228.00:  Tot Depth Loggd 
 TFF .                      No:  Trip for Fail 
 TQAA.f-kp               15.00:  Torque Abs Avg 
 TQAN.f-kp               12.00:  Torque Abs Min 
 TQAX.f-kp               22.00:  Torque Abs Max 
 TRRT.°/30m               0.00:  Turn Rotating 
 MRT .                    HCIM:  Maximum Recorded Temperature 
 TTMX.degC               90.20:  Max Tool Temp 
 VS01.                90627813:  Virtual Str1 SN 
 VS02.                90634712:  Virtual Str2 SN 
 VS03.                90643410:  Virtual Str3 SN 
 VS04.                90634712:  Virtual Str4 SN 
 WBMN.klb                 9.00:  WOB Min 
 WITN.        Elmaddin Rahimov:  Customer Rep 
 WITN.         Haytham Mostafa:  Customer Rep 2 
 WOBA.klb                15.00:  WOB Avg 
 WOBX.klb                23.00:  WOB Max 
 YP  .lhf2               29.00:  Yield Point 
~Curve Information Block
#MNEM.UNIT                 API CODE     Curve Description
#---------               -----------    ---------------------------
 TIME.HHMMSS            00 000 000 000:  GT Time & Date
 GTDEPTH.m              00 000 000 000:  GT Depth
 GTPQH.psia             00 000 000 000:  GT HR Quartz Pressure
 GTTQ.degC              00 000 000 000:  GT Quartz Temperature
 GTTN.NONE              00 000 000 000:  GT Test Number
 GTET.sec               00 000 000 000:  GT Elapsed Test Time
 GTTVD.m                00 000 000 000:  GT True Vertical Depth
#Other Information
#
#WARRANTY: Halliburton will use its best efforts to furnish customers with 
#accurate information and interpretations that are part of, and incident to, the services 
#provided.  However, Halliburton cannot and does not warrant the accuracy 
#or correctness of such information and interpretations.  Under no circumstances should any 
#such information or interpretation be relied upon as the sole basis for any drilling, 
#completion, production, or financial decision or any procedure involving any risk to the 
#safety of any drilling venture, drilling rig or its crew or any other third party.  The 
#Customer has full responsibility for all drilling, completion and production operation.  
#Halliburton makes no representations or warranties, either expressed or 
#implied, including, but not limited to, the implied warranties of merchantability or fitness 
#for a particular purpose, with respect to the services rendered.  In no event will 
#Halliburton be liable for failure to obtain any particular results or for 
#any damages, including, but not limited to, indirect, special or consequential damages, 
#resulting from the use of any information or interpretation provided by Halliburton.
#
~A           TIME           GTDEPTH  GTPQH  GTTQ  GTTN   GTET   GTTVD  
# ...
   23:11:33.966.09-May-2021 4503.01  497.46 60.37 17.00 271.13 2973.29
   23:11:34.166.09-May-2021 4503.01  503.02 60.37 17.00 271.33 2973.29
   23:11:34.366.09-May-2021 4503.01  505.36 60.37 17.00 271.53 2973.29
   23:11:34.566.09-May-2021 4503.01  508.80 60.37 17.00 271.73 2973.29
   23:11:34.766.09-May-2021 4503.01  511.25 60.37 17.00 271.93 2973.29
   23:11:34.966.09-May-2021 4503.01  511.25 60.37 17.00 272.13 2973.29
   23:11:35.166.09-May-2021 4503.01  516.42 60.37 17.00 272.33 2973.29
   23:11:35.366.09-May-2021 4503.01  519.61 60.37 17.00 272.53 2973.29
   23:11:35.565.09-May-2021 4503.01  522.11 60.37 17.00 272.73 2973.29
   23:11:35.765.09-May-2021 4503.01  525.01 60.37 17.00 272.93 2973.29
   23:11:35.965.09-May-2021 4503.01  525.01 60.37 17.00 273.13 2973.29
   23:11:36.165.09-May-2021 4503.01  529.91 60.37 17.00 273.33 2973.29
   23:11:36.365.09-May-2021 4503.01  533.21 60.37 17.00 273.53 2973.29
   23:11:36.565.09-May-2021 4503.01  535.82 60.37 17.00 273.73 2973.29
   23:11:36.765.09-May-2021 4503.01  538.35 60.37 17.00 273.93 2973.29
   23:11:36.965.09-May-2021 4503.01  538.35 60.37 17.00 274.13 2973.29
   23:11:37.165.09-May-2021 4503.01  543.68 60.37 17.00 274.33 2973.29
   23:11:37.365.09-May-2021 4503.01  546.32 60.37 17.00 274.53 2973.29
   23:11:37.565.09-May-2021 4503.01  548.91 60.37 17.00 274.73 2973.29
   23:11:37.765.09-May-2021 4503.01  551.47 60.37 17.00 274.93 2973.29
   23:11:37.965.09-May-2021 4503.01  551.47 60.37 17.00 275.13 2973.29
   23:11:38.165.09-May-2021 4503.01  556.51 60.37 17.00 275.33 2973.29
   23:11:38.365.09-May-2021 4503.01  559.03 60.37 17.00 275.53 2973.29
   23:11:38.565.09-May-2021 4503.01  561.21 60.37 17.00 275.73 2973.29
   23:11:38.765.09-May-2021 4503.01  564.19 60.37 17.00 275.93 2973.29
   23:11:38.965.09-May-2021 4503.01  564.19 60.37 17.00 276.13 2973.29
   23:11:39.165.09-May-2021 4503.01  569.33 60.37 17.00 276.33 2973.29
   23:11:39.365.09-May-2021 4503.01  571.64 60.37 17.00 276.53 2973.29
   23:11:39.564.09-May-2021 4503.01  574.18 60.37 17.00 276.73 2973.29
   23:11:39.764.09-May-2021 4503.01  576.66 60.37 17.00 276.93 2973.29
   23:11:39.964.09-May-2021 4503.01  576.66 60.37 17.00 277.13 2973.29
   23:11:40.164.09-May-2021 4503.01  581.64 60.37 17.00 277.33 2973.29
   23:11:40.364.09-May-2021 4503.01  584.12 60.37 17.00 277.53 2973.29
   23:11:40.564.09-May-2021 4503.01  586.55 60.37 17.00 277.73 2973.29
   23:11:40.764.09-May-2021 4503.01  589.01 60.37 17.00 277.93 2973.29
   23:11:40.964.09-May-2021 4503.01  589.01 60.37 17.00 278.13 2973.29
   23:11:41.164.09-May-2021 4503.01  593.45 60.37 17.00 278.33 2973.29
   23:11:41.364.09-May-2021 4503.01  596.56 60.37 17.00 278.53 2973.29
   23:11:41.564.09-May-2021 4503.01  598.67 60.37 17.00 278.73 2973.29
   23:11:41.764.09-May-2021 4503.01  601.13 60.37 17.00 278.93 2973.29
   23:11:41.964.09-May-2021 4503.01  601.13 60.37 17.00 279.13 2973.29
   23:11:42.164.09-May-2021 4503.01  605.39 60.37 17.00 279.33 2973.29
   23:11:42.364.09-May-2021 4503.01  608.30 60.37 17.00 279.53 2973.29
   23:11:42.564.09-May-2021 4503.01  610.54 60.37 17.00 279.73 2973.29
   23:11:42.764.09-May-2021 4503.01  612.69 60.37 17.00 279.93 2973.29
   23:11:42.964.09-May-2021 4503.01  612.69 60.37 17.00 280.13 2973.29
   23:11:43.164.09-May-2021 4503.01  615.13 60.37 17.00 280.33 2973.29
   23:11:43.363.09-May-2021 4503.01  619.93 60.37 17.00 280.53 2973.29
   23:11:43.563.09-May-2021 4503.01  622.16 60.37 17.00 280.73 2973.29
   23:11:43.763.09-May-2021 4503.01  624.77 60.37 17.00 280.93 2973.29
   23:11:43.963.09-May-2021 4503.01  624.77 60.37 17.00 281.13 2973.29
   23:11:44.163.09-May-2021 4503.01  629.07 60.37 17.00 281.33 2973.29
   23:11:44.363.09-May-2021 4503.01  631.85 60.37 17.00 281.53 2973.29
   23:11:44.563.09-May-2021 4503.01  634.14 60.37 17.00 281.73 2973.29
   23:11:44.763.09-May-2021 4503.01  636.40 60.37 17.00 281.93 2973.29
   23:11:44.963.09-May-2021 4503.01  636.40 60.37 17.00 282.13 2973.29
   23:11:45.163.09-May-2021 4503.01  641.07 60.37 17.00 282.33 2973.29
   23:11:45.363.09-May-2021 4503.01  643.39 60.37 17.00 282.53 2973.29
   23:11:45.563.09-May-2021 4503.01  645.64 60.38 17.00 282.73 2973.29
   23:11:45.763.09-May-2021 4503.01  647.92 60.38 17.00 282.93 2973.29
   23:11:45.963.09-May-2021 4503.01  647.92 60.38 17.00 283.13 2973.29
   23:11:46.163.09-May-2021 4503.01  652.39 60.38 17.00 283.33 2973.29
   23:11:46.363.09-May-2021 4503.01  654.45 60.38 17.00 283.53 2973.29
   23:11:46.563.09-May-2021 4503.01  656.58 60.38 17.00 283.73 2973.29
   23:11:46.763.09-May-2021 4503.01  658.46 60.38 17.00 283.93 2973.29
   23:11:46.963.09-May-2021 4503.01  658.46 60.38 17.00 284.13 2973.29
   23:11:47.162.09-May-2021 4503.01  663.49 60.38 17.00 284.33 2973.29
   23:11:47.362.09-May-2021 4503.01  665.62 60.38 17.00 284.53 2973.29
   23:11:47.562.09-May-2021 4503.01  667.98 60.38 17.00 284.73 2973.29
   23:11:47.762.09-May-2021 4503.01  670.22 60.38 17.00 284.93 2973.29
   23:11:47.962.09-May-2021 4503.01  670.22 60.38 17.00 285.13 2973.29
   23:11:48.162.09-May-2021 4503.01  674.72 60.38 17.00 285.33 2973.29
   23:11:48.362.09-May-2021 4503.01  676.93 60.38 17.00 285.53 2973.29
   23:11:48.562.09-May-2021 4503.01  679.15 60.38 17.00 285.73 2973.29
   23:11:48.762.09-May-2021 4503.01  681.38 60.38 17.00 285.93 2973.29
   23:11:48.962.09-May-2021 4503.01  681.38 60.38 17.00 286.13 2973.29
   23:11:49.162.09-May-2021 4503.01  685.52 60.38 17.00 286.33 2973.29
   23:11:49.362.09-May-2021 4503.01  688.15 60.38 17.00 286.53 2973.29
   23:11:49.562.09-May-2021 4503.01  690.27 60.38 17.00 286.73 2973.29
   23:11:49.762.09-May-2021 4503.01  692.41 60.38 17.00 286.93 2973.29
   23:11:49.962.09-May-2021 4503.01  692.41 60.38 17.00 287.13 2973.29
   23:11:50.162.09-May-2021 4503.01  697.18 60.38 17.00 287.33 2973.29
   23:11:50.362.09-May-2021 4503.01  699.59 60.38 17.00 287.52 2973.29
   23:11:50.562.09-May-2021 4503.01  701.57 60.38 17.00 287.72 2973.29
   23:11:50.762.09-May-2021 4503.01  703.53 60.38 17.00 287.92 2973.29
   23:11:50.961.09-May-2021 4503.01  703.53 60.38 17.00 288.12 2973.29
   23:11:51.161.09-May-2021 4503.01  708.26 60.38 17.00 288.32 2973.29
   23:11:51.361.09-May-2021 4503.01  710.13 60.38 17.00 288.52 2973.29
   23:11:51.561.09-May-2021 4503.01  712.26 60.38 17.00 288.72 2973.29
   23:11:51.761.09-May-2021 4503.01  714.09 60.38 17.00 288.92 2973.29
   23:11:51.961.09-May-2021 4503.01  714.09 60.38 17.00 289.12 2973.29
   23:11:52.161.09-May-2021 4503.01  719.10 60.38 17.00 289.32 2973.29
   23:11:52.361.09-May-2021 4503.01  721.11 60.38 17.00 289.52 2973.29
   23:11:52.561.09-May-2021 4503.01  723.37 60.38 17.00 289.72 2973.29
   23:11:52.761.09-May-2021 4503.01  725.50 60.38 17.00 289.92 2973.29
   23:11:52.961.09-May-2021 4503.01  725.50 60.38 17.00 290.12 2973.29
   23:11:53.161.09-May-2021 4503.01  729.88 60.38 17.00 290.32 2973.29
   23:11:53.361.09-May-2021 4503.01  732.05 60.38 17.00 290.52 2973.29
   23:11:53.561.09-May-2021 4503.01  734.22 60.38 17.00 290.72 2973.29
   23:11:53.761.09-May-2021 4503.01  736.39 60.38 17.00 290.92 2973.29
   23:11:53.961.09-May-2021 4503.01  736.39 60.38 17.00 291.12 2973.29
   23:11:54.161.09-May-2021 4503.01  740.50 60.38 17.00 291.32 2973.29
   23:11:54.361.09-May-2021 4503.01  742.98 60.38 17.00 291.52 2973.29
   23:11:54.561.09-May-2021 4503.01  745.27 60.38 17.00 291.72 2973.29
   23:11:54.760.09-May-2021 4503.01  747.50 60.38 17.00 291.92 2973.29
   23:11:54.960.09-May-2021 4503.01  747.50 60.38 17.00 292.12 2973.29
   23:11:55.160.09-May-2021 4503.01  751.48 60.38 17.00 292.32 2973.29
   23:11:55.360.09-May-2021 4503.01  753.54 60.38 17.00 292.52 2973.29
   23:11:55.560.09-May-2021 4503.01  755.59 60.38 17.00 292.72 2973.29
   23:11:55.760.09-May-2021 4503.01  757.67 60.38 17.00 292.92 2973.29
   23:11:55.960.09-May-2021 4503.01  757.67 60.38 17.00 293.12 2973.29
   23:11:56.160.09-May-2021 4503.01  761.66 60.38 17.00 293.32 2973.29
   23:11:56.360.09-May-2021 4503.01  763.43 60.38 17.00 293.52 2973.29
