~Version Information
 VERS.                  2.0:   CWLS log ASCII Standard -VERSION 2.0
 WRAP.                   NO:   One line per depth step
~Well Information Block
#MNEM.UNIT     VALUE/NAME     DESCRIPTION
#---------     -----------    ---------------------------
 STRT.S             05:06:20 09-May-21: START TIME 05:06:20 09-May-21
 STOP.S             05:13:20 09-May-21: STOP TIME  05:13:20 09-May-21
 STEP.S                   0.00: STEP TIME
 NULL.                 -999.25: NULL VALUE
 PROV.                    Baku:  PROVINCE
 STAT.                    Baku:  STATE NAME
 SON .        AZ-XX-0906571588:  JOB NUMBER
 WTYP.                Deviated:  WELL TYPE
 COMP.     BP Exploration (Caspian Sea) ltd:  COMPANY
 BASE.              Azerbaijan:  LOGGING EQUIPMENT BASE LOCATION
 REGN.                   EESSA:  REGION
 CTRY.              Azerbaijan:  COUNTRY NAME
 FLD .                     ACG:  FIELD NAME
 WELL.                     J28:  WELL NAME
 RIG .             West Chirag:  RIG NAME
 DMF .             Drill Floor:  DRILL MEAS FROM
 PDAT.       Caspian Sea Level:  PERMANENT DATUM
 HPTY.       Minimum Curvature:  HOLE POS TYPE
 MDS .        Operator Entered:  MAG DATA SOURCE
 NREF.                    Grid:  NORTH REFERENCE
 SRVC.          TURAN DRILLING:  CONTRACTOR
 JOBN.        AZ-XX-0906571588:  JOB TICKET NUMB
 DCON.     Halliburton Sperry Drilling:  DIRECTNL CONTR
 STIM.      00.44.00 11-Feb-21:  START TIME
 DATE.      00.00.00 05-May-21:  END TIME
 SPUD.               13-Feb-21:  SPUD DATE
 MWDS.                    Baku:  MWD SHOP
 DOE .                     N/A:  DOE NUMBER
 UNIT.                     N/A:  LOGGING EQUIPMENT ID
 UWI .                     N/A:  UNIQUE WELL IDENTIFIER
 API .                     N/A:  API NUMBER
 CNTY.                        :  COUNTY
 LOC .                        :  LOCATION
 LMF .             Drill Floor:  LOG MEASURED FROM
 TVDS.m                  43.00:  TVDSS CORRECTN
 SDEP.m                 341.00:  START DEPTH
 EGL .m                   0.00:  GROUND ELEVATION
 WDMS.m                 169.80:  WD ELEV
 AGAP.m                  43.00:  AIR GAP
 EPD .m                   0.00:  ELEVATION
 APD .m                  43.00:  DEPTH ABOVE PD
 LATI.deg                40.13:  LATITUDE
 LONG.deg                51.22:  LONGITUDE
 UTMY.m             4443793.85:  UTM Y
 UTMX.m              519005.06:  UTM X
 WHEW.m                 -11.57:  WELL HEAD E/W
 WHNS.m                   8.57:  WELL HEAD N/S
 VSEW.m                 -11.57:  VERT SEC E/W
 VSNS.m                   8.57:  VERT SEC N/S
 DFWL.m                   0.00:  DISTANCE FWL
 DFSL.m                   0.00:  DISTANCE FSL
 VSDR.deg               299.34:  VERT SEC DIRECT
 GVFD.g                   1.00:  GRAVITY FIELD
 AZTC.deg                 6.36:  AZM TOTAL CORR
 MFLD.nT              50391.00:  MAGNETIC FIELD
 MDIP.deg                59.65:  MAGNETIC DIP
 MDEC.deg                 6.48:  MAGNETIC DECL
 GRDC.deg                 0.12:  GRID CORRECTION
 DEP .m                 334.96:  DEPTH
 TDD .m                1407.26:  TOTAL DEPTH (DRILLER)
 EKB .m                  43.00:  KB ELEVATION
 EDF .m                  43.00:  DF ELEVATION
 TDL .m                 228.00:  TOTAL DEPTH (LOGGER)
 VSC .                       0:  VS TO CLOSURE
 MAGU.                 1854484:  MAGUTM CHECKSUM
~Parameter Information Block
#MNEM.UNIT       Value        Description
#---------     -----------    ---------------------------
 AV  .mps                 4.00:  Ann Velocity 
 AVMX.mps                 4.73:  Max Ann Veloc 
 AZIF.deg               304.48:  Azm, Final 
 BHAT.        Rotary Steerable:  BHA Type 
 BREV.rev            257300.00:  Rev Bit Total 
 BROT.°/30m               0.00:  Build Rotating 
 BS  .in                  8.50:  Bit Size 
 BSZ .in                  8.50:  Bit Size 
 BTPL.psig              589.00:  Bit Press Loss 
 CABU.                      No:  Customer Abuse 
 CGEO.          Mubariz ghayev:  Customer Geo 
 COMM.                     ¼8\:  Run Comments 1 
 TCS .hr                 64.25:  Time Ciculation Ended 
 CV  .mps                 3.50:  Crit Velocity 
 CVMX.mps                 4.52:  Max Crit Veloc 
 DD1 .             Aziz Aliyev:  Direct Drillr 1 
 DD2 .         Intigam Rahimov:  Direct Drillr 2 
 DD3 .          Rashad Habibov:  Direct Drillr 3 
 DDSV.               Geo-Pilot:  DD Service 
 DEFF.%                  98.00:  % Det Eff 
 DLRX.°/30m               0.00:  Dogleg Rot Max 
 DLSO.°/30m               0.00:  Dogleg Oriented 
 DLSX.°/30m               0.00:  Dogleg Str Max 
 DRET.      10.45.04 08-May-21:  Drill End Time 
 DRST.      03.30.04 04-May-21:  Drill Start Tim 
 DTIM.hr                 14.97:  Time Drilling 
 EDEP.m                4640.01:  End Depth 
 ENG1.         Dail Mahammadov:  Engineer 1 
 ENG2.           Eldar Hajiyev:  Engineer 2 
 ENG3.       Bakhtiar Jabbarli:  Engineer 3 
 ENG4.       Natik Hasanagayev:  Engineer 4 
 ETIM.      09.30.04 14-May-21:  End Time 
 FLOI.gpm               460.00:  Flow In 
 FLON.gpm               200.00:  Flow In Min 
 FLOS.cptm                0.00:  Fluid Loss 
 FLOX.gpm               505.00:  Flow In Max 
 HFLO.                      No:  High Flow 
 HPRE.                      No:  High Pressure 
 HTEM.                      No:  High Temp 
 HYDO.m                   1.80:  Hydro Offset 
 IFIN.deg                66.71:  Inc, Final 
 IMAX.deg                67.03:  Inc Max 
 IMIN.deg                66.63:  Inc Min 
 IMND.m                4550.58:  Inc Min Depth 
 IMXD.m                4439.01:  Inc Max Depth 
 JARR.                      No:  Jarring 
 LETM.      10.45.04 08-May-21:  Log End Time 
 LOST.hr                     0:  Lost Rig Time 
 LSTM.      03.30.04 04-May-21:  Log Start Time 
 MDCL.ppm             37000.00:  Mud Chlorides 
 MDES.     Inversion Oil/Synthetic:  Mud Desc 
 DFD .sg                  1.38:  Mud Density 
 MDMN.sg                  1.35:  Dens Mud Min 
 MDMX.sg                  1.40:  Dens Mud Max 
 MOIL.                   57.40:  Run Mud Oil % 
 MOWR.                   70:30:  Run Mud OWR 
 MSND.                    0.00:  Run Mud Sand % 
 MSOL.                   18.00:  Run Mud Solids% 
 DFV .spqt               71.00:  Mud Viscosity 
 MWOD.in                  6.75:  MWD Tool OD 
 MWSI.                      No:  Serv Intrp, MWD 
 OTIM.hr                242.76:  Time Operating 
 PCON.           Look Like New:  Pad Condition 
 PMAX.psia            12183.92:  Press Op, Max 
 PV  .cP                 27.00:  Mud PV 
 RUN .                    1300:  Run Number 
 ROPA.m/hr               15.00:  ROP Avg 
 ROPN.m/hr                9.00:  ROP Min 
 ROPX.m/hr               19.00:  ROP Max 
 RPMA.rpm               120.00:  RPM Surface Avg 
 RPMN.rpm               100.00:  RPM Surface Min 
 RPMX.rpm               120.00:  RPM Surface Max 
 RRUN.                    1300:  Rig Run Number 
 RTIM.hr                  5.00:  Time Reaming 
 SAZI.deg               304.73:  Azm, Start 
 SDEP.m                4412.01:  Start Depth 
 SIDD.                      No:  Serv Intrp, DD 
 SINC.deg                66.82:  Inc, Start 
 SPPA.psig             2800.00:  SPP Avg 
 SPPN.psig             2610.00:  SPP Min 
 SPPX.psig             3100.00:  SPP Max 
 STIM.      03.30.00 04-May-21:  Start Time 
 SVCS.                 DD, MWD:  Services 
 SVER.                    9.20:  Sperry Version 
 TDAT.m                 228.00:  Tot Depth Attmp 
 TDDF.                      No:  Trip for DD 
 TDLG.m                 228.00:  Tot Depth Loggd 
 TFF .                      No:  Trip for Fail 
 TQAA.f-kp               15.00:  Torque Abs Avg 
 TQAN.f-kp               12.00:  Torque Abs Min 
 TQAX.f-kp               22.00:  Torque Abs Max 
 TRRT.°/30m               0.00:  Turn Rotating 
 MRT .                    HCIM:  Maximum Recorded Temperature 
 TTMX.degC               90.20:  Max Tool Temp 
 VS01.                90627813:  Virtual Str1 SN 
 VS02.                90634712:  Virtual Str2 SN 
 VS03.                90643410:  Virtual Str3 SN 
 VS04.                90634712:  Virtual Str4 SN 
 WBMN.klb                 9.00:  WOB Min 
 WITN.        Elmaddin Rahimov:  Customer Rep 
 WITN.         Haytham Mostafa:  Customer Rep 2 
 WOBA.klb                15.00:  WOB Avg 
 WOBX.klb                23.00:  WOB Max 
 YP  .lhf2               29.00:  Yield Point 
~Curve Information Block
#MNEM.UNIT                 API CODE     Curve Description
#---------               -----------    ---------------------------
 TIME.HHMMSS            00 000 000 000:  GT Time & Date
 GTDEPTH.m              00 000 000 000:  GT Depth
 GTPQH.psia             00 000 000 000:  GT HR Quartz Pressure
 GTTQ.degC              00 000 000 000:  GT Quartz Temperature
 GTTN.NONE              00 000 000 000:  GT Test Number
 GTET.sec               00 000 000 000:  GT Elapsed Test Time
 GTTVD.m                00 000 000 000:  GT True Vertical Depth
#Other Information
#
#WARRANTY: Halliburton will use its best efforts to furnish customers with 
#accurate information and interpretations that are part of, and incident to, the services 
#provided.  However, Halliburton cannot and does not warrant the accuracy 
#or correctness of such information and interpretations.  Under no circumstances should any 
#such information or interpretation be relied upon as the sole basis for any drilling, 
#completion, production, or financial decision or any procedure involving any risk to the 
#safety of any drilling venture, drilling rig or its crew or any other third party.  The 
#Customer has full responsibility for all drilling, completion and production operation.  
#Halliburton makes no representations or warranties, either expressed or 
#implied, including, but not limited to, the implied warranties of merchantability or fitness 
#for a particular purpose, with respect to the services rendered.  In no event will 
#Halliburton be liable for failure to obtain any particular results or for 
#any damages, including, but not limited to, indirect, special or consequential damages, 
#resulting from the use of any information or interpretation provided by Halliburton.
#
~A           TIME           GTDEPTH  GTPQH  GTTQ  GTTN   GTET   GTTVD  
# ...
   05:07:50.400.09-May-2021 4452.51 4282.10 66.93 13.00  90.40 2953.46
   05:07:50.600.09-May-2021 4452.51 4282.14 66.93 13.00  90.60 2953.46
   05:07:50.800.09-May-2021 4452.51 4282.14 66.93 13.00  90.80 2953.46
   05:07:51.000.09-May-2021 4452.51 4282.14 66.93 13.00  91.00 2953.46
   05:07:51.200.09-May-2021 4452.51 4282.14 66.93 13.00  91.20 2953.46
   05:07:51.400.09-May-2021 4452.51 4282.15 66.93 13.00  91.40 2953.46
   05:07:51.600.09-May-2021 4452.51 4282.14 66.93 13.00  91.60 2953.46
   05:07:51.800.09-May-2021 4452.51 4281.96 66.93 13.00  91.80 2953.46
   05:07:52.000.09-May-2021 4452.51 4282.36 66.93 13.00  92.00 2953.46
   05:07:52.200.09-May-2021 4452.51 4282.36 66.93 13.00  92.20 2953.46
   05:07:52.400.09-May-2021 4452.51 4282.23 66.93 13.00  92.40 2953.46
   05:07:52.600.09-May-2021 4452.51 4282.12 66.93 13.00  92.60 2953.46
   05:07:52.800.09-May-2021 4452.51 4282.16 66.93 13.00  92.80 2953.46
   05:07:53.000.09-May-2021 4452.51 4282.14 66.93 13.00  93.00 2953.46
   05:07:53.200.09-May-2021 4452.51 4282.14 66.93 13.00  93.20 2953.46
   05:07:53.400.09-May-2021 4452.51 4282.15 66.93 13.00  93.40 2953.46
   05:07:53.600.09-May-2021 4452.51 4282.15 66.93 13.00  93.60 2953.46
   05:07:53.800.09-May-2021 4452.51 4282.15 66.93 13.00  93.80 2953.46
   05:07:54.000.09-May-2021 4452.51 4282.16 66.93 13.00  94.00 2953.46
   05:07:54.200.09-May-2021 4452.51 4282.16 66.93 13.00  94.20 2953.46
   05:07:54.400.09-May-2021 4452.51 4282.14 66.93 13.00  94.40 2953.46
   05:07:54.600.09-May-2021 4452.51 4282.34 66.93 13.00  94.60 2953.46
   05:07:54.800.09-May-2021 4452.51 4281.98 66.93 13.00  94.80 2953.46
   05:07:55.000.09-May-2021 4452.51 4282.28 66.93 13.00  95.00 2953.46
   05:07:55.200.09-May-2021 4452.51 4282.28 66.93 13.00  95.20 2953.46
   05:07:55.400.09-May-2021 4452.51 4282.21 66.93 13.00  95.40 2953.46
   05:07:55.600.09-May-2021 4452.51 4282.10 66.93 13.00  95.60 2953.46
   05:07:55.800.09-May-2021 4452.51 4282.33 66.93 13.00  95.80 2953.46
   05:07:56.000.09-May-2021 4452.51 4282.00 66.93 13.00  96.00 2953.46
   05:07:56.200.09-May-2021 4452.51 4282.00 66.93 13.00  96.20 2953.46
   05:07:56.400.09-May-2021 4452.51 4281.99 66.93 13.00  96.40 2953.46
   05:07:56.600.09-May-2021 4452.51 4282.22 66.92 13.00  96.60 2953.46
   05:07:56.800.09-May-2021 4452.51 4282.06 66.93 13.00  96.80 2953.46
   05:07:57.000.09-May-2021 4452.51 4282.30 66.93 13.00  97.00 2953.46
   05:07:57.200.09-May-2021 4452.51 4282.30 66.93 13.00  97.20 2953.46
   05:07:57.400.09-May-2021 4452.51 4282.16 66.92 13.00  97.40 2953.46
   05:07:57.600.09-May-2021 4452.51 4282.07 66.93 13.00  97.60 2953.46
   05:07:57.800.09-May-2021 4452.51 4282.26 66.92 13.00  97.80 2953.46
   05:07:58.000.09-May-2021 4452.51 4282.20 66.92 13.00  98.00 2953.46
   05:07:58.200.09-May-2021 4452.51 4282.20 66.92 13.00  98.20 2953.46
   05:07:58.400.09-May-2021 4452.51 4282.17 66.92 13.00  98.40 2953.46
   05:07:58.600.09-May-2021 4452.51 4282.11 66.92 13.00  98.60 2953.46
   05:07:58.800.09-May-2021 4452.51 4282.15 66.92 13.00  98.80 2953.46
   05:07:59.000.09-May-2021 4452.51 4282.15 66.92 13.00  99.00 2953.46
   05:07:59.200.09-May-2021 4452.51 4282.15 66.92 13.00  99.20 2953.46
   05:07:59.400.09-May-2021 4452.51 4282.16 66.92 13.00  99.40 2953.46
   05:07:59.600.09-May-2021 4452.51 4282.16 66.92 13.00  99.60 2953.46
   05:07:59.800.09-May-2021 4452.51 4282.16 66.92 13.00  99.80 2953.46
   05:08:00.000.09-May-2021 4452.51 4282.13 66.92 13.00 100.00 2953.46
   05:08:00.200.09-May-2021 4452.51 4282.13 66.92 13.00 100.20 2953.46
   05:08:00.400.09-May-2021 4452.51 4282.10 66.92 13.00 100.40 2953.46
   05:08:00.600.09-May-2021 4452.51 4282.29 66.92 13.00 100.60 2953.46
   05:08:00.800.09-May-2021 4452.51 4282.04 66.92 13.00 100.80 2953.46
   05:08:01.000.09-May-2021 4452.51 4282.18 66.92 13.00 101.00 2953.46
   05:08:01.200.09-May-2021 4452.51 4282.18 66.92 13.00 101.20 2953.46
   05:08:01.400.09-May-2021 4452.51 4282.16 66.92 13.00 101.40 2953.46
   05:08:01.600.09-May-2021 4452.51 4282.14 66.92 13.00 101.60 2953.46
   05:08:01.800.09-May-2021 4452.51 4282.15 66.92 13.00 101.80 2953.46
   05:08:02.000.09-May-2021 4452.51 4282.15 66.92 13.00 102.00 2953.46
   05:08:02.200.09-May-2021 4452.51 4282.15 66.92 13.00 102.20 2953.46
   05:08:02.400.09-May-2021 4452.51 4282.16 66.92 13.00 102.40 2953.46
   05:08:02.600.09-May-2021 4452.51 4282.14 66.92 13.00 102.60 2953.46
   05:08:02.800.09-May-2021 4452.51 4282.09 66.92 13.00 102.80 2953.46
   05:08:03.000.09-May-2021 4452.51 4282.26 66.92 13.00 103.00 2953.46
   05:08:03.200.09-May-2021 4452.51 4282.26 66.92 13.00 103.20 2953.46
   05:08:03.400.09-May-2021 4452.51 4282.08 66.92 13.00 103.40 2953.46
   05:08:03.600.09-May-2021 4452.51 4282.18 66.92 13.00 103.60 2953.46
   05:08:03.800.09-May-2021 4452.51 4282.10 66.92 13.00 103.80 2953.46
   05:08:04.000.09-May-2021 4452.51 4282.11 66.92 13.00 104.00 2953.46
   05:08:04.200.09-May-2021 4452.51 4282.11 66.92 13.00 104.20 2953.46
   05:08:04.400.09-May-2021 4452.51 4282.21 66.92 13.00 104.40 2953.46
   05:08:04.600.09-May-2021 4452.51 4282.06 66.92 13.00 104.60 2953.46
   05:08:04.800.09-May-2021 4452.51 4282.36 66.92 13.00 104.80 2953.46
   05:08:05.000.09-May-2021 4452.51 4281.96 66.92 13.00 105.00 2953.46
   05:08:05.200.09-May-2021 4452.51 4281.96 66.92 13.00 105.20 2953.46
   05:08:05.400.09-May-2021 4452.51 4282.00 66.92 13.00 105.40 2953.46
   05:08:05.600.09-May-2021 4452.51 4282.21 66.92 13.00 105.60 2953.46
   05:08:05.800.09-May-2021 4452.51 4282.03 66.92 13.00 105.80 2953.46
   05:08:06.000.09-May-2021 4452.51 4282.26 66.92 13.00 106.00 2953.46
   05:08:06.200.09-May-2021 4452.51 4282.26 66.92 13.00 106.20 2953.46
   05:08:06.400.09-May-2021 4452.51 4282.20 66.92 13.00 106.40 2953.46
   05:08:06.600.09-May-2021 4452.51 4282.16 66.92 13.00 106.60 2953.46
   05:08:06.800.09-May-2021 4452.51 4282.13 66.92 13.00 106.80 2953.46
   05:08:07.000.09-May-2021 4452.51 4282.16 66.92 13.00 107.00 2953.46
   05:08:07.200.09-May-2021 4452.51 4282.16 66.92 13.00 107.20 2953.46
   05:08:07.400.09-May-2021 4452.51 4282.15 66.92 13.00 107.40 2953.46
   05:08:07.600.09-May-2021 4452.51 4282.15 66.92 13.00 107.60 2953.46
   05:08:07.800.09-May-2021 4452.51 4282.17 66.92 13.00 107.80 2953.46
   05:08:08.000.09-May-2021 4452.51 4282.15 66.92 13.00 108.00 2953.46
   05:08:08.200.09-May-2021 4452.51 4282.15 66.92 13.00 108.20 2953.46
   05:08:08.400.09-May-2021 4452.51 4282.33 66.92 13.00 108.40 2953.46
   05:08:08.600.09-May-2021 4452.51 4281.99 66.92 13.00 108.60 2953.46
   05:08:08.800.09-May-2021 4452.51 4282.28 66.92 13.00 108.80 2953.46
   05:08:09.000.09-May-2021 4452.51 4282.01 66.92 13.00 109.00 2953.46
   05:08:09.200.09-May-2021 4452.51 4282.01 66.92 13.00 109.20 2953.46
   05:08:09.400.09-May-2021 4452.51 4282.10 66.92 13.00 109.40 2953.46
   05:08:09.600.09-May-2021 4452.51 4282.17 66.92 13.00 109.60 2953.46
   05:08:09.800.09-May-2021 4452.51 4282.14 66.92 13.00 109.80 2953.46
   05:08:10.000.09-May-2021 4452.51 4282.16 66.92 13.00 110.00 2953.46
   05:08:10.200.09-May-2021 4452.51 4282.16 66.92 13.00 110.20 2953.46
   05:08:10.400.09-May-2021 4452.51 4282.16 66.92 13.00 110.40 2953.46
   05:08:10.600.09-May-2021 4452.51 4282.15 66.92 13.00 110.60 2953.46
   05:08:10.800.09-May-2021 4452.51 4282.16 66.92 13.00 110.80 2953.46
   05:08:11.000.09-May-2021 4452.51 4282.07 66.92 13.00 111.00 2953.46
   05:08:11.200.09-May-2021 4452.51 4282.07 66.92 13.00 111.20 2953.46
   05:08:11.400.09-May-2021 4452.51 4282.12 66.92 13.00 111.40 2953.46
   05:08:11.600.09-May-2021 4452.51 4282.21 66.92 13.00 111.60 2953.46
   05:08:11.800.09-May-2021 4452.51 4282.14 66.92 13.00 111.80 2953.46
   05:08:12.000.09-May-2021 4452.51 4282.14 66.92 13.00 112.00 2953.46
   05:08:12.200.09-May-2021 4452.51 4282.14 66.92 13.00 112.20 2953.46
   05:08:12.400.09-May-2021 4452.51 4282.24 66.92 13.00 112.40 2953.46
   05:08:12.600.09-May-2021 4452.51 4282.11 66.92 13.00 112.60 2953.46
   05:08:12.800.09-May-2021 4452.51 4282.17 66.92 13.00 112.80 2953.46
