~Version Information
 VERS.                  2.0:   CWLS log ASCII Standard -VERSION 2.0
 WRAP.                   NO:   One line per depth step
~Well Information Block
#MNEM.UNIT     VALUE/NAME     DESCRIPTION
#---------     -----------    ---------------------------
 STRT.S             07:52:13 09-May-21: START TIME 07:52:13 09-May-21
 STOP.S             07:59:09 09-May-21: STOP TIME  07:59:09 09-May-21
 STEP.S                   0.00: STEP TIME
 NULL.                 -999.25: NULL VALUE
 PROV.                    Baku:  PROVINCE
 STAT.                    Baku:  STATE NAME
 SON .        AZ-XX-0906571588:  JOB NUMBER
 WTYP.                Deviated:  WELL TYPE
 COMP.     BP Exploration (Caspian Sea) ltd:  COMPANY
 BASE.              Azerbaijan:  LOGGING EQUIPMENT BASE LOCATION
 REGN.                   EESSA:  REGION
 CTRY.              Azerbaijan:  COUNTRY NAME
 FLD .                     ACG:  FIELD NAME
 WELL.                     J28:  WELL NAME
 RIG .             West Chirag:  RIG NAME
 DMF .             Drill Floor:  DRILL MEAS FROM
 PDAT.       Caspian Sea Level:  PERMANENT DATUM
 HPTY.       Minimum Curvature:  HOLE POS TYPE
 MDS .        Operator Entered:  MAG DATA SOURCE
 NREF.                    Grid:  NORTH REFERENCE
 SRVC.          TURAN DRILLING:  CONTRACTOR
 JOBN.        AZ-XX-0906571588:  JOB TICKET NUMB
 DCON.     Halliburton Sperry Drilling:  DIRECTNL CONTR
 STIM.      00.44.00 11-Feb-21:  START TIME
 DATE.      00.00.00 05-May-21:  END TIME
 SPUD.               13-Feb-21:  SPUD DATE
 MWDS.                    Baku:  MWD SHOP
 DOE .                     N/A:  DOE NUMBER
 UNIT.                     N/A:  LOGGING EQUIPMENT ID
 UWI .                     N/A:  UNIQUE WELL IDENTIFIER
 API .                     N/A:  API NUMBER
 CNTY.                        :  COUNTY
 LOC .                        :  LOCATION
 LMF .             Drill Floor:  LOG MEASURED FROM
 TVDS.m                  43.00:  TVDSS CORRECTN
 SDEP.m                 341.00:  START DEPTH
 EGL .m                   0.00:  GROUND ELEVATION
 WDMS.m                 169.80:  WD ELEV
 AGAP.m                  43.00:  AIR GAP
 EPD .m                   0.00:  ELEVATION
 APD .m                  43.00:  DEPTH ABOVE PD
 LATI.deg                40.13:  LATITUDE
 LONG.deg                51.22:  LONGITUDE
 UTMY.m             4443793.85:  UTM Y
 UTMX.m              519005.06:  UTM X
 WHEW.m                 -11.57:  WELL HEAD E/W
 WHNS.m                   8.57:  WELL HEAD N/S
 VSEW.m                 -11.57:  VERT SEC E/W
 VSNS.m                   8.57:  VERT SEC N/S
 DFWL.m                   0.00:  DISTANCE FWL
 DFSL.m                   0.00:  DISTANCE FSL
 VSDR.deg               299.34:  VERT SEC DIRECT
 GVFD.g                   1.00:  GRAVITY FIELD
 AZTC.deg                 6.36:  AZM TOTAL CORR
 MFLD.nT              50391.00:  MAGNETIC FIELD
 MDIP.deg                59.65:  MAGNETIC DIP
 MDEC.deg                 6.48:  MAGNETIC DECL
 GRDC.deg                 0.12:  GRID CORRECTION
 DEP .m                 334.96:  DEPTH
 TDD .m                1407.26:  TOTAL DEPTH (DRILLER)
 EKB .m                  43.00:  KB ELEVATION
 EDF .m                  43.00:  DF ELEVATION
 TDL .m                 228.00:  TOTAL DEPTH (LOGGER)
 VSC .                       0:  VS TO CLOSURE
 MAGU.                 1854484:  MAGUTM CHECKSUM
~Parameter Information Block
#MNEM.UNIT       Value        Description
#---------     -----------    ---------------------------
 AV  .mps                 4.00:  Ann Velocity 
 AVMX.mps                 4.73:  Max Ann Veloc 
 AZIF.deg               304.48:  Azm, Final 
 BHAT.        Rotary Steerable:  BHA Type 
 BREV.rev            257300.00:  Rev Bit Total 
 BROT.°/30m               0.00:  Build Rotating 
 BS  .in                  8.50:  Bit Size 
 BSZ .in                  8.50:  Bit Size 
 BTPL.psig              589.00:  Bit Press Loss 
 CABU.                      No:  Customer Abuse 
 CGEO.          Mubariz ghayev:  Customer Geo 
 TCS .hr                 64.25:  Time Ciculation Ended 
 CV  .mps                 3.50:  Crit Velocity 
 CVMX.mps                 4.52:  Max Crit Veloc 
 DD1 .             Aziz Aliyev:  Direct Drillr 1 
 DD2 .         Intigam Rahimov:  Direct Drillr 2 
 DD3 .          Rashad Habibov:  Direct Drillr 3 
 DDSV.               Geo-Pilot:  DD Service 
 DEFF.%                  98.00:  % Det Eff 
 DLRX.°/30m               0.00:  Dogleg Rot Max 
 DLSO.°/30m               0.00:  Dogleg Oriented 
 DLSX.°/30m               0.00:  Dogleg Str Max 
 DRET.      10.45.04 08-May-21:  Drill End Time 
 DRST.      03.30.04 04-May-21:  Drill Start Tim 
 DTIM.hr                 14.97:  Time Drilling 
 EDEP.m                4640.01:  End Depth 
 ENG1.         Dail Mahammadov:  Engineer 1 
 ENG2.           Eldar Hajiyev:  Engineer 2 
 ENG3.       Bakhtiar Jabbarli:  Engineer 3 
 ENG4.       Natik Hasanagayev:  Engineer 4 
 ETIM.      09.30.04 14-May-21:  End Time 
 FLOI.gpm               460.00:  Flow In 
 FLON.gpm               200.00:  Flow In Min 
 FLOS.cptm                0.00:  Fluid Loss 
 FLOX.gpm               505.00:  Flow In Max 
 HFLO.                      No:  High Flow 
 HPRE.                      No:  High Pressure 
 HTEM.                      No:  High Temp 
 HYDO.m                   1.80:  Hydro Offset 
 IFIN.deg                66.71:  Inc, Final 
 IMAX.deg                67.03:  Inc Max 
 IMIN.deg                66.63:  Inc Min 
 IMND.m                4550.58:  Inc Min Depth 
 IMXD.m                4439.01:  Inc Max Depth 
 JARR.                      No:  Jarring 
 LETM.      10.45.04 08-May-21:  Log End Time 
 LOST.hr                     0:  Lost Rig Time 
 LSTM.      03.30.04 04-May-21:  Log Start Time 
 MDCL.ppm             37000.00:  Mud Chlorides 
 MDES.     Inversion Oil/Synthetic:  Mud Desc 
 DFD .sg                  1.38:  Mud Density 
 MDMN.sg                  1.35:  Dens Mud Min 
 MDMX.sg                  1.40:  Dens Mud Max 
 MOIL.                   57.40:  Run Mud Oil % 
 MOWR.                   70:30:  Run Mud OWR 
 MSND.                    0.00:  Run Mud Sand % 
 MSOL.                   18.00:  Run Mud Solids% 
 DFV .spqt               71.00:  Mud Viscosity 
 MWOD.in                  6.75:  MWD Tool OD 
 MWSI.                      No:  Serv Intrp, MWD 
 OTIM.hr                242.76:  Time Operating 
 PCON.           Look Like New:  Pad Condition 
 PMAX.psia            12183.92:  Press Op, Max 
 PV  .cP                 27.00:  Mud PV 
 RUN .                    1300:  Run Number 
 ROPA.m/hr               15.00:  ROP Avg 
 ROPN.m/hr                9.00:  ROP Min 
 ROPX.m/hr               19.00:  ROP Max 
 RPMA.rpm               120.00:  RPM Surface Avg 
 RPMN.rpm               100.00:  RPM Surface Min 
 RPMX.rpm               120.00:  RPM Surface Max 
 RRUN.                    1300:  Rig Run Number 
 RTIM.hr                  5.00:  Time Reaming 
 SAZI.deg               304.73:  Azm, Start 
 SDEP.m                4412.01:  Start Depth 
 SIDD.                      No:  Serv Intrp, DD 
 SINC.deg                66.82:  Inc, Start 
 SPPA.psig             2800.00:  SPP Avg 
 SPPN.psig             2610.00:  SPP Min 
 SPPX.psig             3100.00:  SPP Max 
 STIM.      03.30.00 04-May-21:  Start Time 
 SVCS.                 DD, MWD:  Services 
 SVER.                    9.20:  Sperry Version 
 TDAT.m                 228.00:  Tot Depth Attmp 
 TDDF.                      No:  Trip for DD 
 TDLG.m                 228.00:  Tot Depth Loggd 
 TFF .                      No:  Trip for Fail 
 TQAA.f-kp               15.00:  Torque Abs Avg 
 TQAN.f-kp               12.00:  Torque Abs Min 
 TQAX.f-kp               22.00:  Torque Abs Max 
 TRRT.°/30m               0.00:  Turn Rotating 
 MRT .                    HCIM:  Maximum Recorded Temperature 
 TTMX.degC               90.20:  Max Tool Temp 
 VS01.                90627813:  Virtual Str1 SN 
 VS02.                90634712:  Virtual Str2 SN 
 VS03.                90643410:  Virtual Str3 SN 
 VS04.                90634712:  Virtual Str4 SN 
 WBMN.klb                 9.00:  WOB Min 
 WITN.        Elmaddin Rahimov:  Customer Rep 
 WITN.         Haytham Mostafa:  Customer Rep 2 
 WOBA.klb                15.00:  WOB Avg 
 WOBX.klb                23.00:  WOB Max 
 YP  .lhf2               29.00:  Yield Point 
~Curve Information Block
#MNEM.UNIT                 API CODE     Curve Description
#---------               -----------    ---------------------------
 TIME.HHMMSS            00 000 000 000:  GT Time & Date
 GTDEPTH.m              00 000 000 000:  GT Depth
 GTPQH.psia             00 000 000 000:  GT HR Quartz Pressure
 GTTQ.degC              00 000 000 000:  GT Quartz Temperature
 GTTN.NONE              00 000 000 000:  GT Test Number
 GTET.sec               00 000 000 000:  GT Elapsed Test Time
 GTTVD.m                00 000 000 000:  GT True Vertical Depth
#Other Information
#
#WARRANTY: Halliburton will use its best efforts to furnish customers with 
#accurate information and interpretations that are part of, and incident to, the services 
#provided.  However, Halliburton cannot and does not warrant the accuracy 
#or correctness of such information and interpretations.  Under no circumstances should any 
#such information or interpretation be relied upon as the sole basis for any drilling, 
#completion, production, or financial decision or any procedure involving any risk to the 
#safety of any drilling venture, drilling rig or its crew or any other third party.  The 
#Customer has full responsibility for all drilling, completion and production operation.  
#Halliburton makes no representations or warranties, either expressed or 
#implied, including, but not limited to, the implied warranties of merchantability or fitness 
#for a particular purpose, with respect to the services rendered.  In no event will 
#Halliburton be liable for failure to obtain any particular results or for 
#any damages, including, but not limited to, indirect, special or consequential damages, 
#resulting from the use of any information or interpretation provided by Halliburton.
#
~A           TIME           GTDEPTH  GTPQH  GTTQ  GTTN   GTET   GTTVD  
# ...
   07:57:29.639.09-May-2021 4413.51 4428.71 65.48 16.00 316.44 2938.18
   07:57:29.839.09-May-2021 4413.51 4428.62 65.48 16.00 316.64 2938.18
   07:57:30.039.09-May-2021 4413.51 4428.67 65.48 16.00 316.84 2938.18
   07:57:30.239.09-May-2021 4413.51 4428.66 65.48 16.00 317.04 2938.18
   07:57:30.439.09-May-2021 4413.51 4428.66 65.48 16.00 317.24 2938.18
   07:57:30.639.09-May-2021 4413.51 4428.66 65.48 16.00 317.44 2938.18
   07:57:30.839.09-May-2021 4413.51 4428.67 65.48 16.00 317.64 2938.18
   07:57:31.039.09-May-2021 4413.51 4428.68 65.48 16.00 317.84 2938.18
   07:57:31.240.09-May-2021 4413.51 4428.68 65.48 16.00 318.04 2938.18
   07:57:31.440.09-May-2021 4413.51 4428.68 65.48 16.00 318.24 2938.18
   07:57:31.640.09-May-2021 4413.51 4428.49 65.48 16.00 318.44 2938.18
   07:57:31.840.09-May-2021 4413.51 4428.73 65.48 16.00 318.64 2938.18
   07:57:32.040.09-May-2021 4413.51 4428.67 65.48 16.00 318.84 2938.18
   07:57:32.240.09-May-2021 4413.51 4428.69 65.48 16.00 319.04 2938.18
   07:57:32.440.09-May-2021 4413.51 4428.69 65.48 16.00 319.24 2938.18
   07:57:32.640.09-May-2021 4413.51 4428.73 65.48 16.00 319.44 2938.18
   07:57:32.840.09-May-2021 4413.51 4428.64 65.48 16.00 319.64 2938.18
   07:57:33.040.09-May-2021 4413.51 4428.71 65.48 16.00 319.84 2938.18
   07:57:33.240.09-May-2021 4413.51 4428.71 65.48 16.00 320.04 2938.18
   07:57:33.440.09-May-2021 4413.51 4428.71 65.48 16.00 320.24 2938.18
   07:57:33.640.09-May-2021 4413.51 4428.74 65.48 16.00 320.44 2938.18
   07:57:33.840.09-May-2021 4413.51 4428.63 65.48 16.00 320.64 2938.18
   07:57:34.040.09-May-2021 4413.51 4428.69 65.48 16.00 320.84 2938.18
   07:57:34.240.09-May-2021 4413.51 4428.74 65.48 16.00 321.04 2938.18
   07:57:34.440.09-May-2021 4413.51 4428.74 65.48 16.00 321.24 2938.18
   07:57:34.640.09-May-2021 4413.51 4428.58 65.48 16.00 321.44 2938.18
   07:57:34.840.09-May-2021 4413.51 4428.70 65.48 16.00 321.64 2938.18
   07:57:35.040.09-May-2021 4413.51 4428.63 65.48 16.00 321.84 2938.18
   07:57:35.240.09-May-2021 4413.51 4428.68 65.48 16.00 322.04 2938.18
   07:57:35.440.09-May-2021 4413.51 4428.68 65.48 16.00 322.24 2938.18
   07:57:35.640.09-May-2021 4413.51 4428.67 65.48 16.00 322.44 2938.18
   07:57:35.840.09-May-2021 4413.51 4428.67 65.48 16.00 322.64 2938.18
   07:57:36.040.09-May-2021 4413.51 4428.67 65.48 16.00 322.84 2938.18
   07:57:36.240.09-May-2021 4413.51 4428.68 65.48 16.00 323.04 2938.18
   07:57:36.440.09-May-2021 4413.51 4428.68 65.48 16.00 323.24 2938.18
   07:57:36.640.09-May-2021 4413.51 4428.69 65.48 16.00 323.44 2938.18
   07:57:36.840.09-May-2021 4413.51 4428.84 65.48 16.00 323.64 2938.18
   07:57:37.040.09-May-2021 4413.51 4428.55 65.48 16.00 323.84 2938.18
   07:57:37.240.09-May-2021 4413.51 4428.85 65.48 16.00 324.04 2938.18
   07:57:37.440.09-May-2021 4413.51 4428.85 65.48 16.00 324.25 2938.18
   07:57:37.640.09-May-2021 4413.51 4428.66 65.48 16.00 324.45 2938.18
   07:57:37.840.09-May-2021 4413.51 4428.66 65.48 16.00 324.65 2938.18
   07:57:38.040.09-May-2021 4413.51 4428.66 65.48 16.00 324.85 2938.18
   07:57:38.240.09-May-2021 4413.51 4428.67 65.48 16.00 325.05 2938.18
   07:57:38.441.09-May-2021 4413.51 4428.67 65.48 16.00 325.25 2938.18
   07:57:38.641.09-May-2021 4413.51 4428.66 65.48 16.00 325.45 2938.18
   07:57:38.841.09-May-2021 4413.51 4428.68 65.48 16.00 325.65 2938.18
   07:57:39.041.09-May-2021 4413.51 4428.68 65.48 16.00 325.85 2938.18
   07:57:39.241.09-May-2021 4413.51 4428.68 65.48 16.00 326.05 2938.18
   07:57:39.441.09-May-2021 4413.51 4428.68 65.48 16.00 326.25 2938.18
   07:57:39.641.09-May-2021 4413.51 4428.80 65.48 16.00 326.45 2938.18
   07:57:39.841.09-May-2021 4413.51 4428.58 65.48 16.00 326.65 2938.18
   07:57:40.041.09-May-2021 4413.51 4428.79 65.48 16.00 326.85 2938.18
   07:57:40.241.09-May-2021 4413.51 4428.77 65.48 16.00 327.05 2938.18
   07:57:40.441.09-May-2021 4413.51 4428.77 65.48 16.00 327.25 2938.18
   07:57:40.641.09-May-2021 4413.51 4428.78 65.48 16.00 327.45 2938.18
   07:57:40.841.09-May-2021 4413.51 4428.56 65.48 16.00 327.65 2938.18
   07:57:41.041.09-May-2021 4413.51 4428.65 65.48 16.00 327.85 2938.18
   07:57:41.241.09-May-2021 4413.51 4428.80 65.48 16.00 328.05 2938.18
   07:57:41.441.09-May-2021 4413.51 4428.80 65.48 16.00 328.25 2938.18
   07:57:41.641.09-May-2021 4413.51 4428.82 65.48 16.00 328.45 2938.18
   07:57:41.841.09-May-2021 4413.51 4428.55 65.48 16.00 328.65 2938.18
   07:57:42.041.09-May-2021 4413.51 4428.64 65.48 16.00 328.85 2938.18
   07:57:42.241.09-May-2021 4413.51 4428.57 65.48 16.00 329.05 2938.18
   07:57:42.441.09-May-2021 4413.51 4428.57 65.48 16.00 329.25 2938.18
   07:57:42.641.09-May-2021 4413.51 4428.62 65.48 16.00 329.45 2938.18
   07:57:42.841.09-May-2021 4413.51 4428.80 65.48 16.00 329.65 2938.18
   07:57:43.041.09-May-2021 4413.51 4428.57 65.48 16.00 329.85 2938.18
   07:57:43.241.09-May-2021 4413.51 4428.66 65.48 16.00 330.05 2938.18
   07:57:43.441.09-May-2021 4413.51 4428.66 65.48 16.00 330.25 2938.18
   07:57:43.641.09-May-2021 4413.51 4428.64 65.48 16.00 330.45 2938.18
   07:57:43.841.09-May-2021 4413.51 4428.66 65.48 16.00 330.65 2938.18
   07:57:44.041.09-May-2021 4413.51 4428.66 65.48 16.00 330.85 2938.18
   07:57:44.241.09-May-2021 4413.51 4428.67 65.48 16.00 331.05 2938.18
   07:57:44.441.09-May-2021 4413.51 4428.67 65.48 16.00 331.25 2938.18
   07:57:44.641.09-May-2021 4413.51 4428.68 65.48 16.00 331.45 2938.18
   07:57:44.841.09-May-2021 4413.51 4428.80 65.48 16.00 331.65 2938.18
   07:57:45.041.09-May-2021 4413.51 4428.63 65.48 16.00 331.85 2938.18
   07:57:45.241.09-May-2021 4413.51 4428.61 65.48 16.00 332.05 2938.18
   07:57:45.441.09-May-2021 4413.51 4428.61 65.48 16.00 332.25 2938.18
   07:57:45.642.09-May-2021 4413.51 4428.64 65.48 16.00 332.45 2938.18
   07:57:45.842.09-May-2021 4413.51 4428.68 65.48 16.00 332.65 2938.18
   07:57:46.042.09-May-2021 4413.51 4428.64 65.48 16.00 332.85 2938.18
   07:57:46.242.09-May-2021 4413.51 4428.67 65.48 16.00 333.05 2938.18
   07:57:46.442.09-May-2021 4413.51 4428.67 65.48 16.00 333.25 2938.18
   07:57:46.642.09-May-2021 4413.51 4428.66 65.48 16.00 333.45 2938.18
   07:57:46.842.09-May-2021 4413.51 4428.67 65.48 16.00 333.65 2938.18
   07:57:47.042.09-May-2021 4413.51 4428.67 65.48 16.00 333.85 2938.18
   07:57:47.242.09-May-2021 4413.51 4428.68 65.48 16.00 334.05 2938.18
   07:57:47.442.09-May-2021 4413.51 4428.68 65.48 16.00 334.25 2938.18
   07:57:47.642.09-May-2021 4413.51 4428.84 65.48 16.00 334.45 2938.18
   07:57:47.842.09-May-2021 4413.51 4428.56 65.48 16.00 334.65 2938.18
   07:57:48.042.09-May-2021 4413.51 4428.85 65.48 16.00 334.85 2938.18
   07:57:48.242.09-May-2021 4413.51 4428.69 65.48 16.00 335.05 2938.18
   07:57:48.442.09-May-2021 4413.51 4428.69 65.48 16.00 335.25 2938.18
   07:57:48.642.09-May-2021 4413.51 4428.59 65.48 16.00 335.45 2938.18
   07:57:48.842.09-May-2021 4413.51 4428.71 65.48 16.00 335.65 2938.18
   07:57:49.042.09-May-2021 4413.51 4428.64 65.48 16.00 335.85 2938.18
   07:57:49.242.09-May-2021 4413.51 4428.80 65.48 16.00 336.05 2938.18
   07:57:49.442.09-May-2021 4413.51 4428.80 65.48 16.00 336.25 2938.18
   07:57:49.642.09-May-2021 4413.51 4428.60 65.48 16.00 336.45 2938.18
   07:57:49.842.09-May-2021 4413.51 4428.72 65.48 16.00 336.65 2938.18
   07:57:50.042.09-May-2021 4413.51 4428.62 65.48 16.00 336.85 2938.18
   07:57:50.242.09-May-2021 4413.51 4428.70 65.48 16.00 337.05 2938.18
   07:57:50.442.09-May-2021 4413.51 4428.70 65.48 16.00 337.25 2938.18
   07:57:50.642.09-May-2021 4413.51 4428.46 65.48 16.00 337.45 2938.18
   07:57:50.842.09-May-2021 4413.51 4428.71 65.48 16.00 337.65 2938.18
   07:57:51.042.09-May-2021 4413.51 4428.62 65.47 16.00 337.85 2938.18
   07:57:51.242.09-May-2021 4413.51 4428.62 65.48 16.00 338.05 2938.18
   07:57:51.442.09-May-2021 4413.51 4428.62 65.48 16.00 338.25 2938.18
   07:57:51.642.09-May-2021 4413.51 4428.65 65.47 16.00 338.45 2938.18
   07:57:51.842.09-May-2021 4413.51 4428.68 65.47 16.00 338.65 2938.18
   07:57:52.042.09-May-2021 4413.51 4428.67 65.47 16.00 338.85 2938.18
