~Version Information
 VERS.                  2.0:   CWLS log ASCII Standard -VERSION 2.0
 WRAP.                   NO:   One line per depth step
~Well Information Block
#MNEM.UNIT     VALUE/NAME     DESCRIPTION
#---------     -----------    ---------------------------
 STRT.S             01:50:25 10-May-21: START TIME 01:50:25 10-May-21
 STOP.S             01:58:33 10-May-21: STOP TIME  01:58:33 10-May-21
 STEP.S                   0.00: STEP TIME
 NULL.                 -999.25: NULL VALUE
 PROV.                    Baku:  PROVINCE
 STAT.                    Baku:  STATE NAME
 SON .        AZ-XX-0906571588:  JOB NUMBER
 WTYP.                Deviated:  WELL TYPE
 COMP.     BP Exploration (Caspian Sea) ltd:  COMPANY
 BASE.              Azerbaijan:  LOGGING EQUIPMENT BASE LOCATION
 REGN.                   EESSA:  REGION
 CTRY.              Azerbaijan:  COUNTRY NAME
 FLD .                     ACG:  FIELD NAME
 WELL.                     J28:  WELL NAME
 RIG .             West Chirag:  RIG NAME
 DMF .             Drill Floor:  DRILL MEAS FROM
 PDAT.       Caspian Sea Level:  PERMANENT DATUM
 HPTY.       Minimum Curvature:  HOLE POS TYPE
 MDS .        Operator Entered:  MAG DATA SOURCE
 NREF.                    Grid:  NORTH REFERENCE
 SRVC.          TURAN DRILLING:  CONTRACTOR
 JOBN.        AZ-XX-0906571588:  JOB TICKET NUMB
 DCON.     Halliburton Sperry Drilling:  DIRECTNL CONTR
 STIM.      00.44.00 11-Feb-21:  START TIME
 DATE.      00.00.00 05-May-21:  END TIME
 SPUD.               13-Feb-21:  SPUD DATE
 MWDS.                    Baku:  MWD SHOP
 DOE .                     N/A:  DOE NUMBER
 UNIT.                     N/A:  LOGGING EQUIPMENT ID
 UWI .                     N/A:  UNIQUE WELL IDENTIFIER
 API .                     N/A:  API NUMBER
 CNTY.                        :  COUNTY
 LOC .                        :  LOCATION
 LMF .             Drill Floor:  LOG MEASURED FROM
 TVDS.m                  43.00:  TVDSS CORRECTN
 SDEP.m                 341.00:  START DEPTH
 EGL .m                   0.00:  GROUND ELEVATION
 WDMS.m                 169.80:  WD ELEV
 AGAP.m                  43.00:  AIR GAP
 EPD .m                   0.00:  ELEVATION
 APD .m                  43.00:  DEPTH ABOVE PD
 LATI.deg                40.13:  LATITUDE
 LONG.deg                51.22:  LONGITUDE
 UTMY.m             4443793.85:  UTM Y
 UTMX.m              519005.06:  UTM X
 WHEW.m                 -11.57:  WELL HEAD E/W
 WHNS.m                   8.57:  WELL HEAD N/S
 VSEW.m                 -11.57:  VERT SEC E/W
 VSNS.m                   8.57:  VERT SEC N/S
 DFWL.m                   0.00:  DISTANCE FWL
 DFSL.m                   0.00:  DISTANCE FSL
 VSDR.deg               299.34:  VERT SEC DIRECT
 GVFD.g                   1.00:  GRAVITY FIELD
 AZTC.deg                 6.36:  AZM TOTAL CORR
 MFLD.nT              50391.00:  MAGNETIC FIELD
 MDIP.deg                59.65:  MAGNETIC DIP
 MDEC.deg                 6.48:  MAGNETIC DECL
 GRDC.deg                 0.12:  GRID CORRECTION
 DEP .m                 334.96:  DEPTH
 TDD .m                1407.26:  TOTAL DEPTH (DRILLER)
 EKB .m                  43.00:  KB ELEVATION
 EDF .m                  43.00:  DF ELEVATION
 TDL .m                 228.00:  TOTAL DEPTH (LOGGER)
 VSC .                       0:  VS TO CLOSURE
 MAGU.                 1854484:  MAGUTM CHECKSUM
~Parameter Information Block
#MNEM.UNIT       Value        Description
#---------     -----------    ---------------------------
 AV  .mps                 4.00:  Ann Velocity 
 AVMX.mps                 4.73:  Max Ann Veloc 
 AZIF.deg               304.48:  Azm, Final 
 BHAT.        Rotary Steerable:  BHA Type 
 BREV.rev            257300.00:  Rev Bit Total 
 BROT.°/30m               0.00:  Build Rotating 
 BS  .in                  8.50:  Bit Size 
 BSZ .in                  8.50:  Bit Size 
 BTPL.psig              589.00:  Bit Press Loss 
 CABU.                      No:  Customer Abuse 
 CGEO.          Mubariz ghayev:  Customer Geo 
 COMM.                     Í‚:  Run Comments 1 
 TCS .hr                 64.25:  Time Ciculation Ended 
 CV  .mps                 3.50:  Crit Velocity 
 CVMX.mps                 4.52:  Max Crit Veloc 
 DD1 .             Aziz Aliyev:  Direct Drillr 1 
 DD2 .         Intigam Rahimov:  Direct Drillr 2 
 DD3 .          Rashad Habibov:  Direct Drillr 3 
 DDSV.               Geo-Pilot:  DD Service 
 DEFF.%                  98.00:  % Det Eff 
 DLRX.°/30m               0.00:  Dogleg Rot Max 
 DLSO.°/30m               0.00:  Dogleg Oriented 
 DLSX.°/30m               0.00:  Dogleg Str Max 
 DRET.      10.45.04 08-May-21:  Drill End Time 
 DRST.      03.30.04 04-May-21:  Drill Start Tim 
 DTIM.hr                 14.97:  Time Drilling 
 EDEP.m                4640.01:  End Depth 
 ENG1.         Dail Mahammadov:  Engineer 1 
 ENG2.           Eldar Hajiyev:  Engineer 2 
 ENG3.       Bakhtiar Jabbarli:  Engineer 3 
 ENG4.       Natik Hasanagayev:  Engineer 4 
 ETIM.      09.30.04 14-May-21:  End Time 
 FLOI.gpm               460.00:  Flow In 
 FLON.gpm               200.00:  Flow In Min 
 FLOS.cptm                0.00:  Fluid Loss 
 FLOX.gpm               505.00:  Flow In Max 
 HFLO.                      No:  High Flow 
 HPRE.                      No:  High Pressure 
 HTEM.                      No:  High Temp 
 HYDO.m                   1.80:  Hydro Offset 
 IFIN.deg                66.71:  Inc, Final 
 IMAX.deg                67.03:  Inc Max 
 IMIN.deg                66.63:  Inc Min 
 IMND.m                4550.58:  Inc Min Depth 
 IMXD.m                4439.01:  Inc Max Depth 
 JARR.                      No:  Jarring 
 LETM.      10.45.04 08-May-21:  Log End Time 
 LOST.hr                     0:  Lost Rig Time 
 LSTM.      03.30.04 04-May-21:  Log Start Time 
 MDCL.ppm             37000.00:  Mud Chlorides 
 MDES.     Inversion Oil/Synthetic:  Mud Desc 
 DFD .sg                  1.38:  Mud Density 
 MDMN.sg                  1.35:  Dens Mud Min 
 MDMX.sg                  1.40:  Dens Mud Max 
 MOIL.                   57.40:  Run Mud Oil % 
 MOWR.                   70:30:  Run Mud OWR 
 MSND.                    0.00:  Run Mud Sand % 
 MSOL.                   18.00:  Run Mud Solids% 
 DFV .spqt               71.00:  Mud Viscosity 
 MWOD.in                  6.75:  MWD Tool OD 
 MWSI.                      No:  Serv Intrp, MWD 
 OTIM.hr                242.76:  Time Operating 
 PCON.           Look Like New:  Pad Condition 
 PMAX.psia            12183.92:  Press Op, Max 
 PV  .cP                 27.00:  Mud PV 
 RUN .                    1300:  Run Number 
 ROPA.m/hr               15.00:  ROP Avg 
 ROPN.m/hr                9.00:  ROP Min 
 ROPX.m/hr               19.00:  ROP Max 
 RPMA.rpm               120.00:  RPM Surface Avg 
 RPMN.rpm               100.00:  RPM Surface Min 
 RPMX.rpm               120.00:  RPM Surface Max 
 RRUN.                    1300:  Rig Run Number 
 RTIM.hr                  5.00:  Time Reaming 
 SAZI.deg               304.73:  Azm, Start 
 SDEP.m                4412.01:  Start Depth 
 SIDD.                      No:  Serv Intrp, DD 
 SINC.deg                66.82:  Inc, Start 
 SPPA.psig             2800.00:  SPP Avg 
 SPPN.psig             2610.00:  SPP Min 
 SPPX.psig             3100.00:  SPP Max 
 STIM.      03.30.00 04-May-21:  Start Time 
 SVCS.                 DD, MWD:  Services 
 SVER.                    9.20:  Sperry Version 
 TDAT.m                 228.00:  Tot Depth Attmp 
 TDDF.                      No:  Trip for DD 
 TDLG.m                 228.00:  Tot Depth Loggd 
 TFF .                      No:  Trip for Fail 
 TQAA.f-kp               15.00:  Torque Abs Avg 
 TQAN.f-kp               12.00:  Torque Abs Min 
 TQAX.f-kp               22.00:  Torque Abs Max 
 TRRT.°/30m               0.00:  Turn Rotating 
 MRT .                    HCIM:  Maximum Recorded Temperature 
 TTMX.degC               90.20:  Max Tool Temp 
 VS01.                90627813:  Virtual Str1 SN 
 VS02.                90634712:  Virtual Str2 SN 
 VS03.                90643410:  Virtual Str3 SN 
 VS04.                90634712:  Virtual Str4 SN 
 WBMN.klb                 9.00:  WOB Min 
 WITN.        Elmaddin Rahimov:  Customer Rep 
 WITN.         Haytham Mostafa:  Customer Rep 2 
 WOBA.klb                15.00:  WOB Avg 
 WOBX.klb                23.00:  WOB Max 
 YP  .lhf2               29.00:  Yield Point 
~Curve Information Block
#MNEM.UNIT                 API CODE     Curve Description
#---------               -----------    ---------------------------
 TIME.HHMMSS            00 000 000 000:  GT Time & Date
 GTDEPTH.m              00 000 000 000:  GT Depth
 GTPQH.psia             00 000 000 000:  GT HR Quartz Pressure
 GTTQ.degC              00 000 000 000:  GT Quartz Temperature
 GTTN.NONE              00 000 000 000:  GT Test Number
 GTET.sec               00 000 000 000:  GT Elapsed Test Time
 GTTVD.m                00 000 000 000:  GT True Vertical Depth
#Other Information
#
#WARRANTY: Halliburton will use its best efforts to furnish customers with 
#accurate information and interpretations that are part of, and incident to, the services 
#provided.  However, Halliburton cannot and does not warrant the accuracy 
#or correctness of such information and interpretations.  Under no circumstances should any 
#such information or interpretation be relied upon as the sole basis for any drilling, 
#completion, production, or financial decision or any procedure involving any risk to the 
#safety of any drilling venture, drilling rig or its crew or any other third party.  The 
#Customer has full responsibility for all drilling, completion and production operation.  
#Halliburton makes no representations or warranties, either expressed or 
#implied, including, but not limited to, the implied warranties of merchantability or fitness 
#for a particular purpose, with respect to the services rendered.  In no event will 
#Halliburton be liable for failure to obtain any particular results or for 
#any damages, including, but not limited to, indirect, special or consequential damages, 
#resulting from the use of any information or interpretation provided by Halliburton.
#
~A           TIME           GTDEPTH  GTPQH  GTTQ  GTTN   GTET   GTTVD  
   01:50:25.341.10-May-2021 4567.51 6582.97 61.22 19.00   0.00 2998.78
   01:50:25.541.10-May-2021 4567.51 6582.97 61.22 19.00   0.20 2998.78
   01:50:25.741.10-May-2021 4567.51 6578.85 61.22 19.00   0.40 2998.78
   01:50:25.941.10-May-2021 4567.51 6578.02 61.22 19.00   0.60 2998.78
   01:50:26.141.10-May-2021 4567.51 6576.84 61.22 19.00   0.80 2998.78
   01:50:26.341.10-May-2021 4567.51 6576.30 61.22 19.00   1.00 2998.78
   01:50:26.541.10-May-2021 4567.51 6576.30 61.22 19.00   1.20 2998.78
   01:50:26.741.10-May-2021 4567.51 6576.51 61.22 19.00   1.40 2998.78
   01:50:26.941.10-May-2021 4567.51 6576.63 61.22 19.00   1.60 2998.78
   01:50:27.141.10-May-2021 4567.51 6577.01 61.22 19.00   1.80 2998.78
   01:50:27.341.10-May-2021 4567.51 6577.28 61.22 19.00   2.00 2998.78
   01:50:27.541.10-May-2021 4567.51 6577.28 61.22 19.00   2.20 2998.78
   01:50:27.741.10-May-2021 4567.51 6577.45 61.22 19.00   2.40 2998.78
   01:50:27.942.10-May-2021 4567.51 6578.08 61.22 19.00   2.60 2998.78
   01:50:28.142.10-May-2021 4567.51 6579.76 61.22 19.00   2.80 2998.78
   01:50:28.342.10-May-2021 4567.51 6584.27 61.22 19.00   3.00 2998.78
   01:50:28.542.10-May-2021 4567.51 6584.27 61.22 19.00   3.20 2998.78
   01:50:28.742.10-May-2021 4567.51 6579.94 61.22 19.00   3.40 2998.78
   01:50:28.942.10-May-2021 4567.51 6580.63 61.22 19.00   3.60 2998.78
   01:50:29.142.10-May-2021 4567.51 6579.60 61.22 19.00   3.80 2998.78
   01:50:29.342.10-May-2021 4567.51 6578.61 61.22 19.00   4.00 2998.78
   01:50:29.542.10-May-2021 4567.51 6578.61 61.22 19.00   4.20 2998.78
   01:50:29.742.10-May-2021 4567.51 6579.05 61.22 19.00   4.40 2998.78
   01:50:29.942.10-May-2021 4567.51 6579.43 61.22 19.00   4.60 2998.78
   01:50:30.142.10-May-2021 4567.51 6578.49 61.22 19.00   4.80 2998.78
   01:50:30.342.10-May-2021 4567.51 6578.76 61.22 19.00   5.00 2998.78
   01:50:30.542.10-May-2021 4567.51 6578.76 61.22 19.00   5.20 2998.78
   01:50:30.742.10-May-2021 4567.51 6579.37 61.22 19.00   5.40 2998.78
   01:50:30.942.10-May-2021 4567.51 6586.41 61.21 19.00   5.60 2998.78
   01:50:31.142.10-May-2021 4567.51 6583.59 61.21 19.00   5.80 2998.78
   01:50:31.342.10-May-2021 4567.51 6583.22 61.21 19.00   6.00 2998.78
   01:50:31.542.10-May-2021 4567.51 6583.22 61.21 19.00   6.20 2998.78
   01:50:31.742.10-May-2021 4567.51 6586.42 61.21 19.00   6.40 2998.78
   01:50:31.942.10-May-2021 4567.51 6584.57 61.21 19.00   6.60 2998.78
   01:50:32.142.10-May-2021 4567.51 6586.13 61.21 19.00   6.80 2998.78
   01:50:32.342.10-May-2021 4567.51 6582.25 61.21 19.00   7.00 2998.78
   01:50:32.542.10-May-2021 4567.51 6582.25 61.21 19.00   7.20 2998.78
   01:50:32.742.10-May-2021 4567.51 6581.77 61.21 19.00   7.40 2998.78
   01:50:32.942.10-May-2021 4567.51 6589.70 61.21 19.00   7.60 2998.78
   01:50:33.142.10-May-2021 4567.51 6584.20 61.21 19.00   7.80 2998.78
   01:50:33.342.10-May-2021 4567.51 6585.09 61.21 19.00   8.00 2998.78
   01:50:33.543.10-May-2021 4567.51 6585.09 61.21 19.00   8.20 2998.78
   01:50:33.743.10-May-2021 4567.51 6591.23 61.21 19.00   8.40 2998.78
   01:50:33.943.10-May-2021 4567.51 6586.57 61.21 19.00   8.60 2998.78
   01:50:34.143.10-May-2021 4567.51 6585.29 61.21 19.00   8.80 2998.78
   01:50:34.343.10-May-2021 4567.51 6585.87 61.21 19.00   9.00 2998.78
   01:50:34.543.10-May-2021 4567.51 6585.87 61.21 19.00   9.20 2998.78
   01:50:34.743.10-May-2021 4567.51 6591.06 61.21 19.00   9.40 2998.78
   01:50:34.943.10-May-2021 4567.51 6586.04 61.21 19.00   9.60 2998.78
   01:50:35.143.10-May-2021 4567.51 6586.36 61.21 19.00   9.80 2998.78
   01:50:35.343.10-May-2021 4567.51 6590.27 61.21 19.00  10.00 2998.78
   01:50:35.543.10-May-2021 4567.51 6590.27 61.21 19.00  10.20 2998.78
   01:50:35.743.10-May-2021 4567.51 6591.61 61.21 19.00  10.40 2998.78
   01:50:35.943.10-May-2021 4567.51 6586.70 61.21 19.00  10.60 2998.78
   01:50:36.143.10-May-2021 4567.51 6594.39 61.21 19.00  10.80 2998.78
   01:50:36.343.10-May-2021 4567.51 6591.89 61.21 19.00  11.00 2998.78
   01:50:36.543.10-May-2021 4567.51 6591.89 61.21 19.00  11.20 2998.78
   01:50:36.743.10-May-2021 4567.51 6588.36 61.21 19.00  11.40 2998.78
   01:50:36.943.10-May-2021 4567.51 6589.64 61.21 19.00  11.60 2998.78
   01:50:37.143.10-May-2021 4567.51 6587.80 61.21 19.00  11.80 2998.78
   01:50:37.343.10-May-2021 4567.51 6588.26 61.21 19.00  12.00 2998.78
   01:50:37.543.10-May-2021 4567.51 6588.26 61.21 19.00  12.20 2998.78
   01:50:37.743.10-May-2021 4567.51 6588.26 61.21 19.00  12.40 2998.78
   01:50:37.943.10-May-2021 4567.51 6588.04 61.21 19.00  12.60 2998.78
   01:50:38.143.10-May-2021 4567.51 6587.94 61.21 19.00  12.80 2998.78
   01:50:38.343.10-May-2021 4567.51 6591.89 61.21 19.00  13.00 2998.78
   01:50:38.543.10-May-2021 4567.51 6587.73 61.21 19.00  13.20 2998.78
   01:50:38.743.10-May-2021 4567.51 6587.73 61.21 19.00  13.40 2998.78
   01:50:38.943.10-May-2021 4567.51 6587.73 61.21 19.00  13.60 2998.78
   01:50:39.143.10-May-2021 4567.51 6594.89 61.21 19.00  13.80 2998.78
   01:50:39.344.10-May-2021 4567.51 6595.54 61.21 19.00  14.00 2998.78
   01:50:39.544.10-May-2021 4567.51 6595.54 61.21 19.00  14.20 2998.78
   01:50:39.744.10-May-2021 4567.51 6591.24 61.21 19.00  14.40 2998.78
   01:50:39.944.10-May-2021 4567.51 6590.47 61.21 19.00  14.60 2998.78
   01:50:40.144.10-May-2021 4567.51 6589.96 61.20 19.00  14.80 2998.78
   01:50:40.344.10-May-2021 4567.51 6589.33 61.21 19.00  15.00 2998.78
   01:50:40.544.10-May-2021 4567.51 6589.33 61.21 19.00  15.20 2998.78
   01:50:40.744.10-May-2021 4567.51 6589.30 61.20 19.00  15.40 2998.78
   01:50:40.944.10-May-2021 4567.51 6590.00 61.20 19.00  15.60 2998.78
   01:50:41.144.10-May-2021 4567.51 6590.45 61.20 19.00  15.80 2998.78
   01:50:41.344.10-May-2021 4567.51 6589.34 61.20 19.00  16.00 2998.78
   01:50:41.544.10-May-2021 4567.51 6589.34 61.20 19.00  16.20 2998.78
   01:50:41.744.10-May-2021 4567.51 6594.95 61.20 19.00  16.40 2998.78
   01:50:41.944.10-May-2021 4567.51 6593.94 61.20 19.00  16.60 2998.78
   01:50:42.144.10-May-2021 4567.51 6595.51 61.20 19.00  16.80 2998.78
   01:50:42.344.10-May-2021 4567.51 6590.47 61.20 19.00  17.00 2998.78
   01:50:42.544.10-May-2021 4567.51 6590.47 61.20 19.00  17.20 2998.78
   01:50:42.744.10-May-2021 4567.51 6595.48 61.20 19.00  17.40 2998.78
   01:50:42.944.10-May-2021 4567.51 6593.75 61.20 19.00  17.60 2998.78
   01:50:43.144.10-May-2021 4567.51 6596.04 61.20 19.00  17.80 2998.78
   01:50:43.344.10-May-2021 4567.51 6591.56 61.20 19.00  18.00 2998.78
   01:50:43.544.10-May-2021 4567.51 6591.56 61.20 19.00  18.20 2998.78
   01:50:43.744.10-May-2021 4567.51 6599.20 61.20 19.00  18.40 2998.78
   01:50:43.944.10-May-2021 4567.51 6594.73 61.20 19.00  18.60 2998.78
   01:50:44.144.10-May-2021 4567.51 6594.21 61.20 19.00  18.80 2998.78
   01:50:44.344.10-May-2021 4567.51 6593.59 61.20 19.00  19.00 2998.78
   01:50:44.544.10-May-2021 4567.51 6593.59 61.20 19.00  19.20 2998.78
   01:50:44.744.10-May-2021 4567.51 6597.91 61.20 19.00  19.40 2998.78
   01:50:44.945.10-May-2021 4567.51 6598.40 61.20 19.00  19.60 2998.78
   01:50:45.145.10-May-2021 4567.51 6594.92 61.20 19.00  19.80 2998.78
   01:50:45.345.10-May-2021 4567.51 6602.57 61.20 19.00  20.00 2998.78
   01:50:45.545.10-May-2021 4567.51 6602.57 61.20 19.00  20.20 2998.78
   01:50:45.745.10-May-2021 4567.51 6596.46 61.20 19.00  20.40 2998.78
   01:50:45.945.10-May-2021 4567.51 6595.49 61.20 19.00  20.60 2998.78
   01:50:46.145.10-May-2021 4567.51 6594.34 61.20 19.00  20.80 2998.78
   01:50:46.345.10-May-2021 4567.51 6594.21 61.20 19.00  21.00 2998.78
   01:50:46.545.10-May-2021 4567.51 6594.21 61.20 19.00  21.20 2998.78
   01:50:46.745.10-May-2021 4567.51 6601.20 61.20 19.00  21.40 2998.78
   01:50:46.945.10-May-2021 4567.51 6597.65 61.20 19.00  21.60 2998.78
   01:50:47.145.10-May-2021 4567.51 6597.54 61.20 19.00  21.80 2998.78
   01:50:47.345.10-May-2021 4567.51 6596.42 61.20 19.00  22.00 2998.78
   01:50:47.545.10-May-2021 4567.51 6596.42 61.20 19.00  22.20 2998.78
   01:50:47.745.10-May-2021 4567.51 6594.79 61.20 19.00  22.40 2998.78
