~Version Information
 VERS.                  2.0:   CWLS log ASCII Standard -VERSION 2.0
 WRAP.                   NO:   One line per depth step
~Well Information Block
#MNEM.UNIT     VALUE/NAME     DESCRIPTION
#---------     -----------    ---------------------------
 STRT.S             23:15:39 08-May-21: START TIME 23:15:39 08-May-21
 STOP.S             23:22:30 08-May-21: STOP TIME  23:22:30 08-May-21
 STEP.S                   0.00: STEP TIME
 NULL.                 -999.25: NULL VALUE
 PROV.                    Baku:  PROVINCE
 STAT.                    Baku:  STATE NAME
 SON .        AZ-XX-0906571588:  JOB NUMBER
 WTYP.                Deviated:  WELL TYPE
 COMP.     BP Exploration (Caspian Sea) ltd:  COMPANY
 BASE.              Azerbaijan:  LOGGING EQUIPMENT BASE LOCATION
 REGN.                   EESSA:  REGION
 CTRY.              Azerbaijan:  COUNTRY NAME
 FLD .                     ACG:  FIELD NAME
 WELL.                     J28:  WELL NAME
 RIG .             West Chirag:  RIG NAME
 DMF .             Drill Floor:  DRILL MEAS FROM
 PDAT.       Caspian Sea Level:  PERMANENT DATUM
 HPTY.       Minimum Curvature:  HOLE POS TYPE
 MDS .        Operator Entered:  MAG DATA SOURCE
 NREF.                    Grid:  NORTH REFERENCE
 SRVC.          TURAN DRILLING:  CONTRACTOR
 JOBN.        AZ-XX-0906571588:  JOB TICKET NUMB
 DCON.     Halliburton Sperry Drilling:  DIRECTNL CONTR
 STIM.      00.44.00 11-Feb-21:  START TIME
 DATE.      00.00.00 05-May-21:  END TIME
 SPUD.               13-Feb-21:  SPUD DATE
 MWDS.                    Baku:  MWD SHOP
 DOE .                     N/A:  DOE NUMBER
 UNIT.                     N/A:  LOGGING EQUIPMENT ID
 UWI .                     N/A:  UNIQUE WELL IDENTIFIER
 API .                     N/A:  API NUMBER
 CNTY.                        :  COUNTY
 LOC .                        :  LOCATION
 LMF .             Drill Floor:  LOG MEASURED FROM
 TVDS.m                  43.00:  TVDSS CORRECTN
 SDEP.m                 341.00:  START DEPTH
 EGL .m                   0.00:  GROUND ELEVATION
 WDMS.m                 169.80:  WD ELEV
 AGAP.m                  43.00:  AIR GAP
 EPD .m                   0.00:  ELEVATION
 APD .m                  43.00:  DEPTH ABOVE PD
 LATI.deg                40.13:  LATITUDE
 LONG.deg                51.22:  LONGITUDE
 UTMY.m             4443793.85:  UTM Y
 UTMX.m              519005.06:  UTM X
 WHEW.m                 -11.57:  WELL HEAD E/W
 WHNS.m                   8.57:  WELL HEAD N/S
 VSEW.m                 -11.57:  VERT SEC E/W
 VSNS.m                   8.57:  VERT SEC N/S
 DFWL.m                   0.00:  DISTANCE FWL
 DFSL.m                   0.00:  DISTANCE FSL
 VSDR.deg               299.34:  VERT SEC DIRECT
 GVFD.g                   1.00:  GRAVITY FIELD
 AZTC.deg                 6.36:  AZM TOTAL CORR
 MFLD.nT              50391.00:  MAGNETIC FIELD
 MDIP.deg                59.65:  MAGNETIC DIP
 MDEC.deg                 6.48:  MAGNETIC DECL
 GRDC.deg                 0.12:  GRID CORRECTION
 DEP .m                 334.96:  DEPTH
 TDD .m                1407.26:  TOTAL DEPTH (DRILLER)
 EKB .m                  43.00:  KB ELEVATION
 EDF .m                  43.00:  DF ELEVATION
 TDL .m                 228.00:  TOTAL DEPTH (LOGGER)
 VSC .                       0:  VS TO CLOSURE
 MAGU.                 1854484:  MAGUTM CHECKSUM
~Parameter Information Block
#MNEM.UNIT       Value        Description
#---------     -----------    ---------------------------
 AV  .mps                 4.00:  Ann Velocity 
 AVMX.mps                 4.73:  Max Ann Veloc 
 AZIF.deg               304.48:  Azm, Final 
 BHAT.        Rotary Steerable:  BHA Type 
 BREV.rev            257300.00:  Rev Bit Total 
 BROT.°/30m               0.00:  Build Rotating 
 BS  .in                  8.50:  Bit Size 
 BSZ .in                  8.50:  Bit Size 
 BTPL.psig              589.00:  Bit Press Loss 
 CABU.                      No:  Customer Abuse 
 CGEO.          Mubariz ghayev:  Customer Geo 
 COMM.                     dˆ[:  Run Comments 1 
 TCS .hr                 64.25:  Time Ciculation Ended 
 CV  .mps                 3.50:  Crit Velocity 
 CVMX.mps                 4.52:  Max Crit Veloc 
 DD1 .             Aziz Aliyev:  Direct Drillr 1 
 DD2 .         Intigam Rahimov:  Direct Drillr 2 
 DD3 .          Rashad Habibov:  Direct Drillr 3 
 DDSV.               Geo-Pilot:  DD Service 
 DEFF.%                  98.00:  % Det Eff 
 DLRX.°/30m               0.00:  Dogleg Rot Max 
 DLSO.°/30m               0.00:  Dogleg Oriented 
 DLSX.°/30m               0.00:  Dogleg Str Max 
 DRET.      10.45.04 08-May-21:  Drill End Time 
 DRST.      03.30.04 04-May-21:  Drill Start Tim 
 DTIM.hr                 14.97:  Time Drilling 
 EDEP.m                4640.01:  End Depth 
 ENG1.         Dail Mahammadov:  Engineer 1 
 ENG2.           Eldar Hajiyev:  Engineer 2 
 ENG3.       Bakhtiar Jabbarli:  Engineer 3 
 ENG4.       Natik Hasanagayev:  Engineer 4 
 ETIM.      09.30.04 14-May-21:  End Time 
 FLOI.gpm               460.00:  Flow In 
 FLON.gpm               200.00:  Flow In Min 
 FLOS.cptm                0.00:  Fluid Loss 
 FLOX.gpm               505.00:  Flow In Max 
 HFLO.                      No:  High Flow 
 HPRE.                      No:  High Pressure 
 HTEM.                      No:  High Temp 
 HYDO.m                   1.80:  Hydro Offset 
 IFIN.deg                66.71:  Inc, Final 
 IMAX.deg                67.03:  Inc Max 
 IMIN.deg                66.63:  Inc Min 
 IMND.m                4550.58:  Inc Min Depth 
 IMXD.m                4439.01:  Inc Max Depth 
 JARR.                      No:  Jarring 
 LETM.      10.45.04 08-May-21:  Log End Time 
 LOST.hr                     0:  Lost Rig Time 
 LSTM.      03.30.04 04-May-21:  Log Start Time 
 MDCL.ppm             37000.00:  Mud Chlorides 
 MDES.     Inversion Oil/Synthetic:  Mud Desc 
 DFD .sg                  1.38:  Mud Density 
 MDMN.sg                  1.35:  Dens Mud Min 
 MDMX.sg                  1.40:  Dens Mud Max 
 MOIL.                   57.40:  Run Mud Oil % 
 MOWR.                   70:30:  Run Mud OWR 
 MSND.                    0.00:  Run Mud Sand % 
 MSOL.                   18.00:  Run Mud Solids% 
 DFV .spqt               71.00:  Mud Viscosity 
 MWOD.in                  6.75:  MWD Tool OD 
 MWSI.                      No:  Serv Intrp, MWD 
 OTIM.hr                242.76:  Time Operating 
 PCON.           Look Like New:  Pad Condition 
 PMAX.psia            12183.92:  Press Op, Max 
 PV  .cP                 27.00:  Mud PV 
 RUN .                    1300:  Run Number 
 ROPA.m/hr               15.00:  ROP Avg 
 ROPN.m/hr                9.00:  ROP Min 
 ROPX.m/hr               19.00:  ROP Max 
 RPMA.rpm               120.00:  RPM Surface Avg 
 RPMN.rpm               100.00:  RPM Surface Min 
 RPMX.rpm               120.00:  RPM Surface Max 
 RRUN.                    1300:  Rig Run Number 
 RTIM.hr                  5.00:  Time Reaming 
 SAZI.deg               304.73:  Azm, Start 
 SDEP.m                4412.01:  Start Depth 
 SIDD.                      No:  Serv Intrp, DD 
 SINC.deg                66.82:  Inc, Start 
 SPPA.psig             2800.00:  SPP Avg 
 SPPN.psig             2610.00:  SPP Min 
 SPPX.psig             3100.00:  SPP Max 
 STIM.      03.30.00 04-May-21:  Start Time 
 SVCS.                 DD, MWD:  Services 
 SVER.                    9.20:  Sperry Version 
 TDAT.m                 228.00:  Tot Depth Attmp 
 TDDF.                      No:  Trip for DD 
 TDLG.m                 228.00:  Tot Depth Loggd 
 TFF .                      No:  Trip for Fail 
 TQAA.f-kp               15.00:  Torque Abs Avg 
 TQAN.f-kp               12.00:  Torque Abs Min 
 TQAX.f-kp               22.00:  Torque Abs Max 
 TRRT.°/30m               0.00:  Turn Rotating 
 MRT .                    HCIM:  Maximum Recorded Temperature 
 TTMX.degC               90.20:  Max Tool Temp 
 VS01.                90627813:  Virtual Str1 SN 
 VS02.                90634712:  Virtual Str2 SN 
 VS03.                90643410:  Virtual Str3 SN 
 VS04.                90634712:  Virtual Str4 SN 
 WBMN.klb                 9.00:  WOB Min 
 WITN.        Elmaddin Rahimov:  Customer Rep 
 WITN.         Haytham Mostafa:  Customer Rep 2 
 WOBA.klb                15.00:  WOB Avg 
 WOBX.klb                23.00:  WOB Max 
 YP  .lhf2               29.00:  Yield Point 
~Curve Information Block
#MNEM.UNIT                 API CODE     Curve Description
#---------               -----------    ---------------------------
 TIME.HHMMSS            00 000 000 000:  GT Time & Date
 GTDEPTH.m              00 000 000 000:  GT Depth
 GTPQH.psia             00 000 000 000:  GT HR Quartz Pressure
 GTTQ.degC              00 000 000 000:  GT Quartz Temperature
 GTTN.NONE              00 000 000 000:  GT Test Number
 GTET.sec               00 000 000 000:  GT Elapsed Test Time
 GTTVD.m                00 000 000 000:  GT True Vertical Depth
#Other Information
#
#WARRANTY: Halliburton will use its best efforts to furnish customers with 
#accurate information and interpretations that are part of, and incident to, the services 
#provided.  However, Halliburton cannot and does not warrant the accuracy 
#or correctness of such information and interpretations.  Under no circumstances should any 
#such information or interpretation be relied upon as the sole basis for any drilling, 
#completion, production, or financial decision or any procedure involving any risk to the 
#safety of any drilling venture, drilling rig or its crew or any other third party.  The 
#Customer has full responsibility for all drilling, completion and production operation.  
#Halliburton makes no representations or warranties, either expressed or 
#implied, including, but not limited to, the implied warranties of merchantability or fitness 
#for a particular purpose, with respect to the services rendered.  In no event will 
#Halliburton be liable for failure to obtain any particular results or for 
#any damages, including, but not limited to, indirect, special or consequential damages, 
#resulting from the use of any information or interpretation provided by Halliburton.
#
~A           TIME           GTDEPTH  GTPQH  GTTQ  GTTN  GTET   GTTVD  
# ...
   23:20:15.572.08-May-2021 4549.51 3245.17 68.53 5.00 275.91 2991.64
   23:20:15.772.08-May-2021 4549.51 3245.17 68.53 5.00 276.11 2991.64
   23:20:15.972.08-May-2021 4549.51 3245.79 68.53 5.00 276.31 2991.64
   23:20:16.172.08-May-2021 4549.51 3245.98 68.53 5.00 276.51 2991.64
   23:20:16.372.08-May-2021 4549.51 3246.14 68.53 5.00 276.71 2991.64
   23:20:16.572.08-May-2021 4549.51 3246.28 68.53 5.00 276.91 2991.64
   23:20:16.772.08-May-2021 4549.51 3246.28 68.53 5.00 277.11 2991.64
   23:20:16.972.08-May-2021 4549.51 3246.60 68.53 5.00 277.31 2991.64
   23:20:17.172.08-May-2021 4549.51 3246.84 68.53 5.00 277.51 2991.64
   23:20:17.372.08-May-2021 4549.51 3246.97 68.54 5.00 277.71 2991.64
   23:20:17.572.08-May-2021 4549.51 3246.72 68.54 5.00 277.91 2991.64
   23:20:17.772.08-May-2021 4549.51 3246.72 68.54 5.00 278.11 2991.64
   23:20:17.972.08-May-2021 4549.51 3247.62 68.54 5.00 278.31 2991.64
   23:20:18.172.08-May-2021 4549.51 3247.72 68.54 5.00 278.51 2991.64
   23:20:18.372.08-May-2021 4549.51 3247.45 68.54 5.00 278.71 2991.64
   23:20:18.571.08-May-2021 4549.51 3248.18 68.54 5.00 278.91 2991.64
   23:20:18.771.08-May-2021 4549.51 3248.18 68.54 5.00 279.11 2991.64
   23:20:18.971.08-May-2021 4549.51 3248.01 68.54 5.00 279.31 2991.64
   23:20:19.171.08-May-2021 4549.51 3248.03 68.54 5.00 279.51 2991.64
   23:20:19.371.08-May-2021 4549.51 3247.83 68.54 5.00 279.71 2991.64
   23:20:19.571.08-May-2021 4549.51 3248.45 68.54 5.00 279.91 2991.64
   23:20:19.771.08-May-2021 4549.51 3248.45 68.54 5.00 280.11 2991.64
   23:20:19.971.08-May-2021 4549.51 3248.34 68.54 5.00 280.31 2991.64
   23:20:20.171.08-May-2021 4549.51 3248.36 68.54 5.00 280.51 2991.64
   23:20:20.371.08-May-2021 4549.51 3248.36 68.54 5.00 280.71 2991.64
   23:20:20.571.08-May-2021 4549.51 3248.36 68.54 5.00 280.91 2991.64
   23:20:20.771.08-May-2021 4549.51 3248.36 68.54 5.00 281.11 2991.64
   23:20:20.971.08-May-2021 4549.51 3248.38 68.55 5.00 281.31 2991.64
   23:20:21.171.08-May-2021 4549.51 3248.38 68.55 5.00 281.51 2991.64
   23:20:21.371.08-May-2021 4549.51 3248.39 68.55 5.00 281.71 2991.64
   23:20:21.571.08-May-2021 4549.51 3248.40 68.55 5.00 281.91 2991.64
   23:20:21.770.08-May-2021 4549.51 3248.40 68.55 5.00 282.11 2991.64
   23:20:21.970.08-May-2021 4549.51 3248.24 68.55 5.00 282.31 2991.64
   23:20:22.170.08-May-2021 4549.51 3248.70 68.55 5.00 282.51 2991.64
   23:20:22.370.08-May-2021 4549.51 3248.34 68.55 5.00 282.71 2991.64
   23:20:22.570.08-May-2021 4549.51 3248.55 68.55 5.00 282.91 2991.64
   23:20:22.770.08-May-2021 4549.51 3248.55 68.55 5.00 283.11 2991.64
   23:20:22.970.08-May-2021 4549.51 3248.54 68.55 5.00 283.31 2991.64
   23:20:23.170.08-May-2021 4549.51 3248.54 68.55 5.00 283.51 2991.64
   23:20:23.370.08-May-2021 4549.51 3248.55 68.55 5.00 283.71 2991.64
   23:20:23.570.08-May-2021 4549.51 3248.55 68.55 5.00 283.91 2991.64
   23:20:23.770.08-May-2021 4549.51 3248.55 68.55 5.00 284.11 2991.64
   23:20:23.970.08-May-2021 4549.51 3248.56 68.55 5.00 284.31 2991.64
   23:20:24.170.08-May-2021 4549.51 3248.56 68.55 5.00 284.51 2991.64
   23:20:24.370.08-May-2021 4549.51 3248.58 68.55 5.00 284.71 2991.64
   23:20:24.570.08-May-2021 4549.51 3248.40 68.55 5.00 284.91 2991.64
   23:20:24.770.08-May-2021 4549.51 3248.40 68.55 5.00 285.11 2991.64
   23:20:24.969.08-May-2021 4549.51 3248.36 68.55 5.00 285.31 2991.64
   23:20:25.169.08-May-2021 4549.51 3248.60 68.55 5.00 285.51 2991.64
   23:20:25.369.08-May-2021 4549.51 3248.62 68.55 5.00 285.71 2991.64
   23:20:25.569.08-May-2021 4549.51 3248.58 68.55 5.00 285.91 2991.64
   23:20:25.769.08-May-2021 4549.51 3248.58 68.55 5.00 286.11 2991.64
   23:20:25.969.08-May-2021 4549.51 3248.67 68.55 5.00 286.31 2991.64
   23:20:26.169.08-May-2021 4549.51 3248.50 68.55 5.00 286.51 2991.64
   23:20:26.369.08-May-2021 4549.51 3248.47 68.55 5.00 286.71 2991.64
   23:20:26.569.08-May-2021 4549.51 3248.64 68.55 5.00 286.91 2991.64
   23:20:26.769.08-May-2021 4549.51 3248.64 68.55 5.00 287.11 2991.64
   23:20:26.969.08-May-2021 4549.51 3248.43 68.55 5.00 287.31 2991.64
   23:20:27.169.08-May-2021 4549.51 3248.79 68.55 5.00 287.51 2991.64
   23:20:27.369.08-May-2021 4549.51 3248.42 68.55 5.00 287.71 2991.64
   23:20:27.569.08-May-2021 4549.51 3248.60 68.55 5.00 287.91 2991.64
   23:20:27.769.08-May-2021 4549.51 3248.60 68.55 5.00 288.11 2991.64
   23:20:27.969.08-May-2021 4549.51 3248.61 68.55 5.00 288.31 2991.64
   23:20:28.168.08-May-2021 4549.51 3248.61 68.55 5.00 288.51 2991.64
   23:20:28.368.08-May-2021 4549.51 3248.60 68.55 5.00 288.71 2991.64
   23:20:28.568.08-May-2021 4549.51 3248.60 68.55 5.00 288.91 2991.64
   23:20:28.768.08-May-2021 4549.51 3248.60 68.55 5.00 289.11 2991.64
   23:20:28.968.08-May-2021 4549.51 3248.60 68.55 5.00 289.31 2991.64
   23:20:29.168.08-May-2021 4549.51 3248.60 68.55 5.00 289.51 2991.64
   23:20:29.368.08-May-2021 4549.51 3248.61 68.55 5.00 289.71 2991.64
   23:20:29.568.08-May-2021 4549.51 3248.44 68.55 5.00 289.91 2991.64
   23:20:29.768.08-May-2021 4549.51 3248.44 68.55 5.00 290.11 2991.64
   23:20:29.968.08-May-2021 4549.51 3248.46 68.55 5.00 290.31 2991.64
   23:20:30.168.08-May-2021 4549.51 3248.61 68.55 5.00 290.51 2991.64
   23:20:30.368.08-May-2021 4549.51 3248.62 68.55 5.00 290.71 2991.64
   23:20:30.568.08-May-2021 4549.51 3248.60 68.55 5.00 290.91 2991.64
   23:20:30.768.08-May-2021 4549.51 3248.60 68.55 5.00 291.11 2991.64
   23:20:30.968.08-May-2021 4549.51 3248.60 68.55 5.00 291.31 2991.64
   23:20:31.168.08-May-2021 4549.51 3248.60 68.55 5.00 291.51 2991.64
   23:20:31.367.08-May-2021 4549.51 3248.61 68.55 5.00 291.71 2991.64
   23:20:31.567.08-May-2021 4549.51 3248.60 68.55 5.00 291.91 2991.64
   23:20:31.767.08-May-2021 4549.51 3248.60 68.55 5.00 292.11 2991.64
   23:20:31.967.08-May-2021 4549.51 3248.59 68.55 5.00 292.31 2991.64
   23:20:32.167.08-May-2021 4549.51 3248.46 68.55 5.00 292.51 2991.64
   23:20:32.367.08-May-2021 4549.51 3248.77 68.55 5.00 292.71 2991.64
   23:20:32.567.08-May-2021 4549.51 3248.45 68.55 5.00 292.91 2991.64
   23:20:32.767.08-May-2021 4549.51 3248.45 68.55 5.00 293.11 2991.64
   23:20:32.967.08-May-2021 4549.51 3248.60 68.55 5.00 293.31 2991.64
   23:20:33.167.08-May-2021 4549.51 3248.50 68.55 5.00 293.51 2991.64
   23:20:33.367.08-May-2021 4549.51 3248.59 68.55 5.00 293.71 2991.64
   23:20:33.567.08-May-2021 4549.51 3248.55 68.55 5.00 293.91 2991.64
   23:20:33.767.08-May-2021 4549.51 3248.55 68.55 5.00 294.11 2991.64
   23:20:33.967.08-May-2021 4549.51 3248.41 68.55 5.00 294.31 2991.64
   23:20:34.167.08-May-2021 4549.51 3248.74 68.55 5.00 294.51 2991.64
   23:20:34.367.08-May-2021 4549.51 3248.51 68.55 5.00 294.71 2991.64
   23:20:34.566.08-May-2021 4549.51 3248.50 68.55 5.00 294.91 2991.64
   23:20:34.766.08-May-2021 4549.51 3248.50 68.55 5.00 295.11 2991.64
   23:20:34.966.08-May-2021 4549.51 3248.53 68.55 5.00 295.31 2991.64
   23:20:35.166.08-May-2021 4549.51 3248.61 68.55 5.00 295.51 2991.64
   23:20:35.366.08-May-2021 4549.51 3248.58 68.55 5.00 295.71 2991.64
   23:20:35.566.08-May-2021 4549.51 3248.60 68.55 5.00 295.91 2991.64
   23:20:35.766.08-May-2021 4549.51 3248.60 68.55 5.00 296.11 2991.64
   23:20:35.966.08-May-2021 4549.51 3248.59 68.55 5.00 296.31 2991.64
   23:20:36.166.08-May-2021 4549.51 3248.60 68.55 5.00 296.51 2991.64
   23:20:36.366.08-May-2021 4549.51 3248.59 68.55 5.00 296.71 2991.64
   23:20:36.566.08-May-2021 4549.51 3248.58 68.55 5.00 296.91 2991.64
   23:20:36.766.08-May-2021 4549.51 3248.58 68.55 5.00 297.11 2991.64
   23:20:36.966.08-May-2021 4549.51 3248.58 68.55 5.00 297.31 2991.64
   23:20:37.166.08-May-2021 4549.51 3248.50 68.55 5.00 297.51 2991.64
   23:20:37.366.08-May-2021 4549.51 3248.59 68.55 5.00 297.71 2991.64
   23:20:37.566.08-May-2021 4549.51 3248.54 68.55 5.00 297.91 2991.64
   23:20:37.765.08-May-2021 4549.51 3248.54 68.55 5.00 298.11 2991.64
   23:20:37.965.08-May-2021 4549.51 3248.56 68.55 5.00 298.31 2991.64
   23:20:38.165.08-May-2021 4549.51 3248.60 68.55 5.00 298.51 2991.64
   23:20:38.365.08-May-2021 4549.51 3248.58 68.55 5.00 298.71 2991.64
