~Version Information
 VERS.                  2.0:   CWLS log ASCII Standard -VERSION 2.0
 WRAP.                   NO:   One line per depth step
~Well Information Block
#MNEM.UNIT     VALUE/NAME     DESCRIPTION
#---------     -----------    ---------------------------
 STRT.S             23:07:02 09-May-21: START TIME 23:07:02 09-May-21
 STOP.S             23:13:42 09-May-21: STOP TIME  23:13:42 09-May-21
 STEP.S                   0.00: STEP TIME
 NULL.                 -999.25: NULL VALUE
 PROV.                    Baku:  PROVINCE
 STAT.                    Baku:  STATE NAME
 SON .        AZ-XX-0906571588:  JOB NUMBER
 WTYP.                Deviated:  WELL TYPE
 COMP.     BP Exploration (Caspian Sea) ltd:  COMPANY
 BASE.              Azerbaijan:  LOGGING EQUIPMENT BASE LOCATION
 REGN.                   EESSA:  REGION
 CTRY.              Azerbaijan:  COUNTRY NAME
 FLD .                     ACG:  FIELD NAME
 WELL.                     J28:  WELL NAME
 RIG .             West Chirag:  RIG NAME
 DMF .             Drill Floor:  DRILL MEAS FROM
 PDAT.       Caspian Sea Level:  PERMANENT DATUM
 HPTY.       Minimum Curvature:  HOLE POS TYPE
 MDS .        Operator Entered:  MAG DATA SOURCE
 NREF.                    Grid:  NORTH REFERENCE
 SRVC.          TURAN DRILLING:  CONTRACTOR
 JOBN.        AZ-XX-0906571588:  JOB TICKET NUMB
 DCON.     Halliburton Sperry Drilling:  DIRECTNL CONTR
 STIM.      00.44.00 11-Feb-21:  START TIME
 DATE.      00.00.00 05-May-21:  END TIME
 SPUD.               13-Feb-21:  SPUD DATE
 MWDS.                    Baku:  MWD SHOP
 DOE .                     N/A:  DOE NUMBER
 UNIT.                     N/A:  LOGGING EQUIPMENT ID
 UWI .                     N/A:  UNIQUE WELL IDENTIFIER
 API .                     N/A:  API NUMBER
 CNTY.                        :  COUNTY
 LOC .                        :  LOCATION
 LMF .             Drill Floor:  LOG MEASURED FROM
 TVDS.m                  43.00:  TVDSS CORRECTN
 SDEP.m                 341.00:  START DEPTH
 EGL .m                   0.00:  GROUND ELEVATION
 WDMS.m                 169.80:  WD ELEV
 AGAP.m                  43.00:  AIR GAP
 EPD .m                   0.00:  ELEVATION
 APD .m                  43.00:  DEPTH ABOVE PD
 LATI.deg                40.13:  LATITUDE
 LONG.deg                51.22:  LONGITUDE
 UTMY.m             4443793.85:  UTM Y
 UTMX.m              519005.06:  UTM X
 WHEW.m                 -11.57:  WELL HEAD E/W
 WHNS.m                   8.57:  WELL HEAD N/S
 VSEW.m                 -11.57:  VERT SEC E/W
 VSNS.m                   8.57:  VERT SEC N/S
 DFWL.m                   0.00:  DISTANCE FWL
 DFSL.m                   0.00:  DISTANCE FSL
 VSDR.deg               299.34:  VERT SEC DIRECT
 GVFD.g                   1.00:  GRAVITY FIELD
 AZTC.deg                 6.36:  AZM TOTAL CORR
 MFLD.nT              50391.00:  MAGNETIC FIELD
 MDIP.deg                59.65:  MAGNETIC DIP
 MDEC.deg                 6.48:  MAGNETIC DECL
 GRDC.deg                 0.12:  GRID CORRECTION
 DEP .m                 334.96:  DEPTH
 TDD .m                1407.26:  TOTAL DEPTH (DRILLER)
 EKB .m                  43.00:  KB ELEVATION
 EDF .m                  43.00:  DF ELEVATION
 TDL .m                 228.00:  TOTAL DEPTH (LOGGER)
 VSC .                       0:  VS TO CLOSURE
 MAGU.                 1854484:  MAGUTM CHECKSUM
~Parameter Information Block
#MNEM.UNIT       Value        Description
#---------     -----------    ---------------------------
 AV  .mps                 4.00:  Ann Velocity 
 AVMX.mps                 4.73:  Max Ann Veloc 
 AZIF.deg               304.48:  Azm, Final 
 BHAT.        Rotary Steerable:  BHA Type 
 BREV.rev            257300.00:  Rev Bit Total 
 BROT.°/30m               0.00:  Build Rotating 
 BS  .in                  8.50:  Bit Size 
 BSZ .in                  8.50:  Bit Size 
 BTPL.psig              589.00:  Bit Press Loss 
 CABU.                      No:  Customer Abuse 
 CGEO.          Mubariz ghayev:  Customer Geo 
 COMM.                     d:  Run Comments 1 
 TCS .hr                 64.25:  Time Ciculation Ended 
 CV  .mps                 3.50:  Crit Velocity 
 CVMX.mps                 4.52:  Max Crit Veloc 
 DD1 .             Aziz Aliyev:  Direct Drillr 1 
 DD2 .         Intigam Rahimov:  Direct Drillr 2 
 DD3 .          Rashad Habibov:  Direct Drillr 3 
 DDSV.               Geo-Pilot:  DD Service 
 DEFF.%                  98.00:  % Det Eff 
 DLRX.°/30m               0.00:  Dogleg Rot Max 
 DLSO.°/30m               0.00:  Dogleg Oriented 
 DLSX.°/30m               0.00:  Dogleg Str Max 
 DRET.      10.45.04 08-May-21:  Drill End Time 
 DRST.      03.30.04 04-May-21:  Drill Start Tim 
 DTIM.hr                 14.97:  Time Drilling 
 EDEP.m                4640.01:  End Depth 
 ENG1.         Dail Mahammadov:  Engineer 1 
 ENG2.           Eldar Hajiyev:  Engineer 2 
 ENG3.       Bakhtiar Jabbarli:  Engineer 3 
 ENG4.       Natik Hasanagayev:  Engineer 4 
 ETIM.      09.30.04 14-May-21:  End Time 
 FLOI.gpm               460.00:  Flow In 
 FLON.gpm               200.00:  Flow In Min 
 FLOS.cptm                0.00:  Fluid Loss 
 FLOX.gpm               505.00:  Flow In Max 
 HFLO.                      No:  High Flow 
 HPRE.                      No:  High Pressure 
 HTEM.                      No:  High Temp 
 HYDO.m                   1.80:  Hydro Offset 
 IFIN.deg                66.71:  Inc, Final 
 IMAX.deg                67.03:  Inc Max 
 IMIN.deg                66.63:  Inc Min 
 IMND.m                4550.58:  Inc Min Depth 
 IMXD.m                4439.01:  Inc Max Depth 
 JARR.                      No:  Jarring 
 LETM.      10.45.04 08-May-21:  Log End Time 
 LOST.hr                     0:  Lost Rig Time 
 LSTM.      03.30.04 04-May-21:  Log Start Time 
 MDCL.ppm             37000.00:  Mud Chlorides 
 MDES.     Inversion Oil/Synthetic:  Mud Desc 
 DFD .sg                  1.38:  Mud Density 
 MDMN.sg                  1.35:  Dens Mud Min 
 MDMX.sg                  1.40:  Dens Mud Max 
 MOIL.                   57.40:  Run Mud Oil % 
 MOWR.                   70:30:  Run Mud OWR 
 MSND.                    0.00:  Run Mud Sand % 
 MSOL.                   18.00:  Run Mud Solids% 
 DFV .spqt               71.00:  Mud Viscosity 
 MWOD.in                  6.75:  MWD Tool OD 
 MWSI.                      No:  Serv Intrp, MWD 
 OTIM.hr                242.76:  Time Operating 
 PCON.           Look Like New:  Pad Condition 
 PMAX.psia            12183.92:  Press Op, Max 
 PV  .cP                 27.00:  Mud PV 
 RUN .                    1300:  Run Number 
 ROPA.m/hr               15.00:  ROP Avg 
 ROPN.m/hr                9.00:  ROP Min 
 ROPX.m/hr               19.00:  ROP Max 
 RPMA.rpm               120.00:  RPM Surface Avg 
 RPMN.rpm               100.00:  RPM Surface Min 
 RPMX.rpm               120.00:  RPM Surface Max 
 RRUN.                    1300:  Rig Run Number 
 RTIM.hr                  5.00:  Time Reaming 
 SAZI.deg               304.73:  Azm, Start 
 SDEP.m                4412.01:  Start Depth 
 SIDD.                      No:  Serv Intrp, DD 
 SINC.deg                66.82:  Inc, Start 
 SPPA.psig             2800.00:  SPP Avg 
 SPPN.psig             2610.00:  SPP Min 
 SPPX.psig             3100.00:  SPP Max 
 STIM.      03.30.00 04-May-21:  Start Time 
 SVCS.                 DD, MWD:  Services 
 SVER.                    9.20:  Sperry Version 
 TDAT.m                 228.00:  Tot Depth Attmp 
 TDDF.                      No:  Trip for DD 
 TDLG.m                 228.00:  Tot Depth Loggd 
 TFF .                      No:  Trip for Fail 
 TQAA.f-kp               15.00:  Torque Abs Avg 
 TQAN.f-kp               12.00:  Torque Abs Min 
 TQAX.f-kp               22.00:  Torque Abs Max 
 TRRT.°/30m               0.00:  Turn Rotating 
 MRT .                    HCIM:  Maximum Recorded Temperature 
 TTMX.degC               90.20:  Max Tool Temp 
 VS01.                90627813:  Virtual Str1 SN 
 VS02.                90634712:  Virtual Str2 SN 
 VS03.                90643410:  Virtual Str3 SN 
 VS04.                90634712:  Virtual Str4 SN 
 WBMN.klb                 9.00:  WOB Min 
 WITN.        Elmaddin Rahimov:  Customer Rep 
 WITN.         Haytham Mostafa:  Customer Rep 2 
 WOBA.klb                15.00:  WOB Avg 
 WOBX.klb                23.00:  WOB Max 
 YP  .lhf2               29.00:  Yield Point 
~Curve Information Block
#MNEM.UNIT                 API CODE     Curve Description
#---------               -----------    ---------------------------
 TIME.HHMMSS            00 000 000 000:  GT Time & Date
 GTDEPTH.m              00 000 000 000:  GT Depth
 GTPQH.psia             00 000 000 000:  GT HR Quartz Pressure
 GTTQ.degC              00 000 000 000:  GT Quartz Temperature
 GTTN.NONE              00 000 000 000:  GT Test Number
 GTET.sec               00 000 000 000:  GT Elapsed Test Time
 GTTVD.m                00 000 000 000:  GT True Vertical Depth
#Other Information
#
#WARRANTY: Halliburton will use its best efforts to furnish customers with 
#accurate information and interpretations that are part of, and incident to, the services 
#provided.  However, Halliburton cannot and does not warrant the accuracy 
#or correctness of such information and interpretations.  Under no circumstances should any 
#such information or interpretation be relied upon as the sole basis for any drilling, 
#completion, production, or financial decision or any procedure involving any risk to the 
#safety of any drilling venture, drilling rig or its crew or any other third party.  The 
#Customer has full responsibility for all drilling, completion and production operation.  
#Halliburton makes no representations or warranties, either expressed or 
#implied, including, but not limited to, the implied warranties of merchantability or fitness 
#for a particular purpose, with respect to the services rendered.  In no event will 
#Halliburton be liable for failure to obtain any particular results or for 
#any damages, including, but not limited to, indirect, special or consequential damages, 
#resulting from the use of any information or interpretation provided by Halliburton.
#
~A           TIME           GTDEPTH  GTPQH  GTTQ  GTTN   GTET   GTTVD  
# ...
   23:12:19.154.09-May-2021 4503.01  989.91 60.38 17.00 316.32 2973.29
   23:12:19.354.09-May-2021 4503.01  992.13 60.38 17.00 316.52 2973.29
   23:12:19.554.09-May-2021 4503.01  993.79 60.38 17.00 316.72 2973.29
   23:12:19.754.09-May-2021 4503.01  995.43 60.38 17.00 316.92 2973.29
   23:12:19.954.09-May-2021 4503.01  995.43 60.38 17.00 317.12 2973.29
   23:12:20.154.09-May-2021 4503.01  998.93 60.38 17.00 317.32 2973.29
   23:12:20.354.09-May-2021 4503.01 1000.87 60.38 17.00 317.52 2973.29
   23:12:20.554.09-May-2021 4503.01 1002.40 60.38 17.00 317.72 2973.29
   23:12:20.754.09-May-2021 4503.01 1004.48 60.38 17.00 317.92 2973.29
   23:12:20.954.09-May-2021 4503.01 1004.48 60.38 17.00 318.12 2973.29
   23:12:21.154.09-May-2021 4503.01 1008.57 60.38 17.00 318.32 2973.29
   23:12:21.354.09-May-2021 4503.01 1009.92 60.38 17.00 318.52 2973.29
   23:12:21.553.09-May-2021 4503.01 1012.35 60.38 17.00 318.72 2973.29
   23:12:21.753.09-May-2021 4503.01 1014.15 60.38 17.00 318.92 2973.29
   23:12:21.953.09-May-2021 4503.01 1014.15 60.38 17.00 319.12 2973.29
   23:12:22.153.09-May-2021 4503.01 1017.91 60.38 17.00 319.32 2973.29
   23:12:22.353.09-May-2021 4503.01 1019.70 60.38 17.00 319.52 2973.29
   23:12:22.553.09-May-2021 4503.01 1021.53 60.38 17.00 319.72 2973.29
   23:12:22.753.09-May-2021 4503.01 1023.36 60.38 17.00 319.92 2973.29
   23:12:22.953.09-May-2021 4503.01 1023.36 60.38 17.00 320.12 2973.29
   23:12:23.153.09-May-2021 4503.01 1027.01 60.38 17.00 320.32 2973.29
   23:12:23.353.09-May-2021 4503.01 1028.81 60.38 17.00 320.52 2973.29
   23:12:23.553.09-May-2021 4503.01 1030.51 60.38 17.00 320.72 2973.29
   23:12:23.753.09-May-2021 4503.01 1032.12 60.38 17.00 320.92 2973.29
   23:12:23.953.09-May-2021 4503.01 1032.12 60.38 17.00 321.12 2973.29
   23:12:24.153.09-May-2021 4503.01 1035.91 60.38 17.00 321.32 2973.29
   23:12:24.353.09-May-2021 4503.01 1037.63 60.38 17.00 321.52 2973.29
   23:12:24.553.09-May-2021 4503.01 1039.24 60.38 17.00 321.72 2973.29
   23:12:24.753.09-May-2021 4503.01 1041.02 60.38 17.00 321.92 2973.29
   23:12:24.953.09-May-2021 4503.01 1041.02 60.38 17.00 322.12 2973.29
   23:12:25.153.09-May-2021 4503.01 1044.45 60.38 17.00 322.32 2973.29
   23:12:25.353.09-May-2021 4503.01 1046.19 60.38 17.00 322.52 2973.29
   23:12:25.552.09-May-2021 4503.01 1047.92 60.38 17.00 322.72 2973.29
   23:12:25.752.09-May-2021 4503.01 1049.66 60.38 17.00 322.92 2973.29
   23:12:25.952.09-May-2021 4503.01 1049.66 60.38 17.00 323.12 2973.29
   23:12:26.152.09-May-2021 4503.01 1053.09 60.38 17.00 323.32 2973.29
   23:12:26.352.09-May-2021 4503.01 1054.48 60.38 17.00 323.52 2973.29
   23:12:26.552.09-May-2021 4503.01 1056.48 60.38 17.00 323.72 2973.29
   23:12:26.752.09-May-2021 4503.01 1058.27 60.38 17.00 323.92 2973.29
   23:12:26.952.09-May-2021 4503.01 1058.27 60.38 17.00 324.12 2973.29
   23:12:27.152.09-May-2021 4503.01 1061.60 60.38 17.00 324.32 2973.29
   23:12:27.352.09-May-2021 4503.01 1062.93 60.38 17.00 324.52 2973.29
   23:12:27.552.09-May-2021 4503.01 1065.03 60.38 17.00 324.72 2973.29
   23:12:27.752.09-May-2021 4503.01 1066.56 60.38 17.00 324.92 2973.29
   23:12:27.952.09-May-2021 4503.01 1066.56 60.38 17.00 325.12 2973.29
   23:12:28.152.09-May-2021 4503.01 1069.95 60.38 17.00 325.32 2973.29
   23:12:28.352.09-May-2021 4503.01 1071.28 60.38 17.00 325.52 2973.29
   23:12:28.552.09-May-2021 4503.01 1073.24 60.38 17.00 325.72 2973.29
   23:12:28.752.09-May-2021 4503.01 1074.98 60.38 17.00 325.91 2973.29
   23:12:28.952.09-May-2021 4503.01 1074.98 60.38 17.00 326.11 2973.29
   23:12:29.152.09-May-2021 4503.01 1077.91 60.38 17.00 326.31 2973.29
   23:12:29.351.09-May-2021 4503.01 1080.20 60.38 17.00 326.51 2973.29
   23:12:29.551.09-May-2021 4503.01 1081.66 60.38 17.00 326.71 2973.29
   23:12:29.751.09-May-2021 4503.01 1082.81 60.38 17.00 326.91 2973.29
   23:12:29.951.09-May-2021 4503.01 1082.81 60.38 17.00 327.11 2973.29
   23:12:30.151.09-May-2021 4503.01 1085.92 60.38 17.00 327.31 2973.29
   23:12:30.351.09-May-2021 4503.01 1087.58 60.38 17.00 327.51 2973.29
   23:12:30.551.09-May-2021 4503.01 1089.25 60.38 17.00 327.71 2973.29
   23:12:30.751.09-May-2021 4503.01 1090.92 60.38 17.00 327.91 2973.29
   23:12:30.951.09-May-2021 4503.01 1090.92 60.38 17.00 328.11 2973.29
   23:12:31.151.09-May-2021 4503.01 1094.21 60.38 17.00 328.31 2973.29
   23:12:31.351.09-May-2021 4503.01 1095.85 60.38 17.00 328.51 2973.29
   23:12:31.551.09-May-2021 4503.01 1097.17 60.38 17.00 328.71 2973.29
   23:12:31.751.09-May-2021 4503.01 1099.27 60.38 17.00 328.91 2973.29
   23:12:31.951.09-May-2021 4503.01 1099.27 60.38 17.00 329.11 2973.29
   23:12:32.151.09-May-2021 4503.01 1102.59 60.38 17.00 329.31 2973.29
   23:12:32.351.09-May-2021 4503.01 1103.99 60.38 17.00 329.51 2973.29
   23:12:32.551.09-May-2021 4503.01 1105.61 60.38 17.00 329.71 2973.29
   23:12:32.751.09-May-2021 4503.01 1107.20 60.38 17.00 329.91 2973.29
   23:12:32.951.09-May-2021 4503.01 1107.20 60.38 17.00 330.11 2973.29
   23:12:33.150.09-May-2021 4503.01 1110.39 60.38 17.00 330.31 2973.29
   23:12:33.350.09-May-2021 4503.01 1111.94 60.38 17.00 330.51 2973.29
   23:12:33.550.09-May-2021 4503.01 1113.50 60.38 17.00 330.71 2973.29
   23:12:33.750.09-May-2021 4503.01 1115.04 60.38 17.00 330.91 2973.29
   23:12:33.950.09-May-2021 4503.01 1115.04 60.38 17.00 331.11 2973.29
   23:12:34.150.09-May-2021 4503.01 1117.82 60.38 17.00 331.31 2973.29
   23:12:34.350.09-May-2021 4503.01 1119.83 60.38 17.00 331.51 2973.29
   23:12:34.550.09-May-2021 4503.01 1121.31 60.38 17.00 331.71 2973.29
   23:12:34.750.09-May-2021 4503.01 1123.20 60.38 17.00 331.91 2973.29
   23:12:34.950.09-May-2021 4503.01 1123.20 60.38 17.00 332.11 2973.29
   23:12:35.150.09-May-2021 4503.01 1126.71 60.38 17.00 332.31 2973.29
   23:12:35.350.09-May-2021 4503.01 1128.30 60.38 17.00 332.51 2973.29
   23:12:35.550.09-May-2021 4503.01 1129.41 60.38 17.00 332.71 2973.29
   23:12:35.750.09-May-2021 4503.01 1131.71 60.38 17.00 332.91 2973.29
   23:12:35.950.09-May-2021 4503.01 1131.71 60.38 17.00 333.11 2973.29
   23:12:36.150.09-May-2021 4503.01 1134.05 60.38 17.00 333.31 2973.29
   23:12:36.350.09-May-2021 4503.01 1136.21 60.38 17.00 333.51 2973.29
   23:12:36.550.09-May-2021 4503.01 1137.69 60.38 17.00 333.71 2973.29
   23:12:36.750.09-May-2021 4503.01 1139.12 60.38 17.00 333.91 2973.29
   23:12:36.949.09-May-2021 4503.01 1139.12 60.38 17.00 334.11 2973.29
   23:12:37.149.09-May-2021 4503.01 1142.39 60.38 17.00 334.31 2973.29
   23:12:37.349.09-May-2021 4503.01 1143.93 60.38 17.00 334.51 2973.29
   23:12:37.549.09-May-2021 4503.01 1145.52 60.38 17.00 334.71 2973.29
   23:12:37.749.09-May-2021 4503.01 1147.12 60.38 17.00 334.91 2973.29
   23:12:37.949.09-May-2021 4503.01 1147.12 60.38 17.00 335.11 2973.29
   23:12:38.149.09-May-2021 4503.01 1150.33 60.38 17.00 335.31 2973.29
   23:12:38.349.09-May-2021 4503.01 1151.91 60.38 17.00 335.51 2973.29
   23:12:38.549.09-May-2021 4503.01 1153.13 60.38 17.00 335.71 2973.29
   23:12:38.749.09-May-2021 4503.01 1155.20 60.38 17.00 335.91 2973.29
   23:12:38.949.09-May-2021 4503.01 1155.20 60.38 17.00 336.11 2973.29
   23:12:39.149.09-May-2021 4503.01 1158.52 60.38 17.00 336.31 2973.29
   23:12:39.349.09-May-2021 4503.01 1159.94 60.38 17.00 336.51 2973.29
   23:12:39.549.09-May-2021 4503.01 1161.57 60.38 17.00 336.71 2973.29
   23:12:39.749.09-May-2021 4503.01 1163.09 60.38 17.00 336.91 2973.29
   23:12:39.949.09-May-2021 4503.01 1163.09 60.38 17.00 337.11 2973.29
   23:12:40.149.09-May-2021 4503.01 1166.15 60.38 17.00 337.31 2973.29
   23:12:40.349.09-May-2021 4503.01 1167.69 60.38 17.00 337.51 2973.29
   23:12:40.549.09-May-2021 4503.01 1169.21 60.38 17.00 337.71 2973.29
   23:12:40.748.09-May-2021 4503.01 1170.74 60.38 17.00 337.91 2973.29
   23:12:40.948.09-May-2021 4503.01 1170.74 60.38 17.00 338.11 2973.29
   23:12:41.148.09-May-2021 4503.01 1173.40 60.38 17.00 338.31 2973.29
   23:12:41.348.09-May-2021 4503.01 1175.37 60.38 17.00 338.51 2973.29
   23:12:41.548.09-May-2021 4503.01 1176.74 60.38 17.00 338.71 2973.29
