~Version Information
 VERS.                  2.0:   CWLS log ASCII Standard -VERSION 2.0
 WRAP.                   NO:   One line per depth step
~Well Information Block
#MNEM.UNIT     VALUE/NAME     DESCRIPTION
#---------     -----------    ---------------------------
 STRT.S             20:58:23 08-May-21: START TIME 20:58:23 08-May-21
 STOP.S             21:05:15 08-May-21: STOP TIME  21:05:15 08-May-21
 STEP.S                   0.00: STEP TIME
 NULL.                 -999.25: NULL VALUE
 PROV.                    Baku:  PROVINCE
 STAT.                    Baku:  STATE NAME
 SON .        AZ-XX-0906571588:  JOB NUMBER
 WTYP.                Deviated:  WELL TYPE
 COMP.     BP Exploration (Caspian Sea) ltd:  COMPANY
 BASE.              Azerbaijan:  LOGGING EQUIPMENT BASE LOCATION
 REGN.                   EESSA:  REGION
 CTRY.              Azerbaijan:  COUNTRY NAME
 FLD .                     ACG:  FIELD NAME
 WELL.                     J28:  WELL NAME
 RIG .             West Chirag:  RIG NAME
 DMF .             Drill Floor:  DRILL MEAS FROM
 PDAT.       Caspian Sea Level:  PERMANENT DATUM
 HPTY.       Minimum Curvature:  HOLE POS TYPE
 MDS .        Operator Entered:  MAG DATA SOURCE
 NREF.                    Grid:  NORTH REFERENCE
 SRVC.          TURAN DRILLING:  CONTRACTOR
 JOBN.        AZ-XX-0906571588:  JOB TICKET NUMB
 DCON.     Halliburton Sperry Drilling:  DIRECTNL CONTR
 STIM.      00.44.00 11-Feb-21:  START TIME
 DATE.      00.00.00 05-May-21:  END TIME
 SPUD.               13-Feb-21:  SPUD DATE
 MWDS.                    Baku:  MWD SHOP
 DOE .                     N/A:  DOE NUMBER
 UNIT.                     N/A:  LOGGING EQUIPMENT ID
 UWI .                     N/A:  UNIQUE WELL IDENTIFIER
 API .                     N/A:  API NUMBER
 CNTY.                        :  COUNTY
 LOC .                        :  LOCATION
 LMF .             Drill Floor:  LOG MEASURED FROM
 TVDS.m                  43.00:  TVDSS CORRECTN
 SDEP.m                 341.00:  START DEPTH
 EGL .m                   0.00:  GROUND ELEVATION
 WDMS.m                 169.80:  WD ELEV
 AGAP.m                  43.00:  AIR GAP
 EPD .m                   0.00:  ELEVATION
 APD .m                  43.00:  DEPTH ABOVE PD
 LATI.deg                40.13:  LATITUDE
 LONG.deg                51.22:  LONGITUDE
 UTMY.m             4443793.85:  UTM Y
 UTMX.m              519005.06:  UTM X
 WHEW.m                 -11.57:  WELL HEAD E/W
 WHNS.m                   8.57:  WELL HEAD N/S
 VSEW.m                 -11.57:  VERT SEC E/W
 VSNS.m                   8.57:  VERT SEC N/S
 DFWL.m                   0.00:  DISTANCE FWL
 DFSL.m                   0.00:  DISTANCE FSL
 VSDR.deg               299.34:  VERT SEC DIRECT
 GVFD.g                   1.00:  GRAVITY FIELD
 AZTC.deg                 6.36:  AZM TOTAL CORR
 MFLD.nT              50391.00:  MAGNETIC FIELD
 MDIP.deg                59.65:  MAGNETIC DIP
 MDEC.deg                 6.48:  MAGNETIC DECL
 GRDC.deg                 0.12:  GRID CORRECTION
 DEP .m                 334.96:  DEPTH
 TDD .m                1407.26:  TOTAL DEPTH (DRILLER)
 EKB .m                  43.00:  KB ELEVATION
 EDF .m                  43.00:  DF ELEVATION
 TDL .m                 228.00:  TOTAL DEPTH (LOGGER)
 VSC .                       0:  VS TO CLOSURE
 MAGU.                 1854484:  MAGUTM CHECKSUM
~Parameter Information Block
#MNEM.UNIT       Value        Description
#---------     -----------    ---------------------------
 AV  .mps                 4.00:  Ann Velocity 
 AVMX.mps                 4.73:  Max Ann Veloc 
 AZIF.deg               304.48:  Azm, Final 
 BHAT.        Rotary Steerable:  BHA Type 
 BREV.rev            257300.00:  Rev Bit Total 
 BROT.°/30m               0.00:  Build Rotating 
 BS  .in                  8.50:  Bit Size 
 BSZ .in                  8.50:  Bit Size 
 BTPL.psig              589.00:  Bit Press Loss 
 CABU.                      No:  Customer Abuse 
 CGEO.          Mubariz ghayev:  Customer Geo 
 COMM.                     ”<v:  Run Comments 1 
 TCS .hr                 64.25:  Time Ciculation Ended 
 CV  .mps                 3.50:  Crit Velocity 
 CVMX.mps                 4.52:  Max Crit Veloc 
 DD1 .             Aziz Aliyev:  Direct Drillr 1 
 DD2 .         Intigam Rahimov:  Direct Drillr 2 
 DD3 .          Rashad Habibov:  Direct Drillr 3 
 DDSV.               Geo-Pilot:  DD Service 
 DEFF.%                  98.00:  % Det Eff 
 DLRX.°/30m               0.00:  Dogleg Rot Max 
 DLSO.°/30m               0.00:  Dogleg Oriented 
 DLSX.°/30m               0.00:  Dogleg Str Max 
 DRET.      10.45.04 08-May-21:  Drill End Time 
 DRST.      03.30.04 04-May-21:  Drill Start Tim 
 DTIM.hr                 14.97:  Time Drilling 
 EDEP.m                4640.01:  End Depth 
 ENG1.         Dail Mahammadov:  Engineer 1 
 ENG2.           Eldar Hajiyev:  Engineer 2 
 ENG3.       Bakhtiar Jabbarli:  Engineer 3 
 ENG4.       Natik Hasanagayev:  Engineer 4 
 ETIM.      09.30.04 14-May-21:  End Time 
 FLOI.gpm               460.00:  Flow In 
 FLON.gpm               200.00:  Flow In Min 
 FLOS.cptm                0.00:  Fluid Loss 
 FLOX.gpm               505.00:  Flow In Max 
 HFLO.                      No:  High Flow 
 HPRE.                      No:  High Pressure 
 HTEM.                      No:  High Temp 
 HYDO.m                   1.80:  Hydro Offset 
 IFIN.deg                66.71:  Inc, Final 
 IMAX.deg                67.03:  Inc Max 
 IMIN.deg                66.63:  Inc Min 
 IMND.m                4550.58:  Inc Min Depth 
 IMXD.m                4439.01:  Inc Max Depth 
 JARR.                      No:  Jarring 
 LETM.      10.45.04 08-May-21:  Log End Time 
 LOST.hr                     0:  Lost Rig Time 
 LSTM.      03.30.04 04-May-21:  Log Start Time 
 MDCL.ppm             37000.00:  Mud Chlorides 
 MDES.     Inversion Oil/Synthetic:  Mud Desc 
 DFD .sg                  1.38:  Mud Density 
 MDMN.sg                  1.35:  Dens Mud Min 
 MDMX.sg                  1.40:  Dens Mud Max 
 MOIL.                   57.40:  Run Mud Oil % 
 MOWR.                   70:30:  Run Mud OWR 
 MSND.                    0.00:  Run Mud Sand % 
 MSOL.                   18.00:  Run Mud Solids% 
 DFV .spqt               71.00:  Mud Viscosity 
 MWOD.in                  6.75:  MWD Tool OD 
 MWSI.                      No:  Serv Intrp, MWD 
 OTIM.hr                242.76:  Time Operating 
 PCON.           Look Like New:  Pad Condition 
 PMAX.psia            12183.92:  Press Op, Max 
 PV  .cP                 27.00:  Mud PV 
 RUN .                    1300:  Run Number 
 ROPA.m/hr               15.00:  ROP Avg 
 ROPN.m/hr                9.00:  ROP Min 
 ROPX.m/hr               19.00:  ROP Max 
 RPMA.rpm               120.00:  RPM Surface Avg 
 RPMN.rpm               100.00:  RPM Surface Min 
 RPMX.rpm               120.00:  RPM Surface Max 
 RRUN.                    1300:  Rig Run Number 
 RTIM.hr                  5.00:  Time Reaming 
 SAZI.deg               304.73:  Azm, Start 
 SDEP.m                4412.01:  Start Depth 
 SIDD.                      No:  Serv Intrp, DD 
 SINC.deg                66.82:  Inc, Start 
 SPPA.psig             2800.00:  SPP Avg 
 SPPN.psig             2610.00:  SPP Min 
 SPPX.psig             3100.00:  SPP Max 
 STIM.      03.30.00 04-May-21:  Start Time 
 SVCS.                 DD, MWD:  Services 
 SVER.                    9.20:  Sperry Version 
 TDAT.m                 228.00:  Tot Depth Attmp 
 TDDF.                      No:  Trip for DD 
 TDLG.m                 228.00:  Tot Depth Loggd 
 TFF .                      No:  Trip for Fail 
 TQAA.f-kp               15.00:  Torque Abs Avg 
 TQAN.f-kp               12.00:  Torque Abs Min 
 TQAX.f-kp               22.00:  Torque Abs Max 
 TRRT.°/30m               0.00:  Turn Rotating 
 MRT .                    HCIM:  Maximum Recorded Temperature 
 TTMX.degC               90.20:  Max Tool Temp 
 VS01.                90627813:  Virtual Str1 SN 
 VS02.                90634712:  Virtual Str2 SN 
 VS03.                90643410:  Virtual Str3 SN 
 VS04.                90634712:  Virtual Str4 SN 
 WBMN.klb                 9.00:  WOB Min 
 WITN.        Elmaddin Rahimov:  Customer Rep 
 WITN.         Haytham Mostafa:  Customer Rep 2 
 WOBA.klb                15.00:  WOB Avg 
 WOBX.klb                23.00:  WOB Max 
 YP  .lhf2               29.00:  Yield Point 
~Curve Information Block
#MNEM.UNIT                 API CODE     Curve Description
#---------               -----------    ---------------------------
 TIME.HHMMSS            00 000 000 000:  GT Time & Date
 GTDEPTH.m              00 000 000 000:  GT Depth
 GTPQH.psia             00 000 000 000:  GT HR Quartz Pressure
 GTTQ.degC              00 000 000 000:  GT Quartz Temperature
 GTTN.NONE              00 000 000 000:  GT Test Number
 GTET.sec               00 000 000 000:  GT Elapsed Test Time
 GTTVD.m                00 000 000 000:  GT True Vertical Depth
#Other Information
#
#WARRANTY: Halliburton will use its best efforts to furnish customers with 
#accurate information and interpretations that are part of, and incident to, the services 
#provided.  However, Halliburton cannot and does not warrant the accuracy 
#or correctness of such information and interpretations.  Under no circumstances should any 
#such information or interpretation be relied upon as the sole basis for any drilling, 
#completion, production, or financial decision or any procedure involving any risk to the 
#safety of any drilling venture, drilling rig or its crew or any other third party.  The 
#Customer has full responsibility for all drilling, completion and production operation.  
#Halliburton makes no representations or warranties, either expressed or 
#implied, including, but not limited to, the implied warranties of merchantability or fitness 
#for a particular purpose, with respect to the services rendered.  In no event will 
#Halliburton be liable for failure to obtain any particular results or for 
#any damages, including, but not limited to, indirect, special or consequential damages, 
#resulting from the use of any information or interpretation provided by Halliburton.
#
~A           TIME           GTDEPTH  GTPQH  GTTQ  GTTN  GTET   GTTVD  
# ...
   21:02:59.808.08-May-2021 4593.01 3775.76 69.02 2.00 276.03 3008.90
   21:03:00.008.08-May-2021 4593.01 3775.76 69.02 2.00 276.23 3008.90
   21:03:00.208.08-May-2021 4593.01 3775.88 69.02 2.00 276.43 3008.90
   21:03:00.408.08-May-2021 4593.01 3775.83 69.02 2.00 276.63 3008.90
   21:03:00.608.08-May-2021 4593.01 3775.87 69.02 2.00 276.83 3008.90
   21:03:00.808.08-May-2021 4593.01 3776.49 69.02 2.00 277.03 3008.90
   21:03:01.008.08-May-2021 4593.01 3776.49 69.02 2.00 277.23 3008.90
   21:03:01.208.08-May-2021 4593.01 3776.35 69.02 2.00 277.43 3008.90
   21:03:01.408.08-May-2021 4593.01 3776.23 69.02 2.00 277.63 3008.90
   21:03:01.608.08-May-2021 4593.01 3776.51 69.02 2.00 277.83 3008.90
   21:03:01.808.08-May-2021 4593.01 3776.36 69.02 2.00 278.03 3008.90
   21:03:02.008.08-May-2021 4593.01 3776.36 69.02 2.00 278.23 3008.90
   21:03:02.208.08-May-2021 4593.01 3776.41 69.02 2.00 278.43 3008.90
   21:03:02.408.08-May-2021 4593.01 3776.24 69.02 2.00 278.63 3008.90
   21:03:02.608.08-May-2021 4593.01 3776.96 69.02 2.00 278.83 3008.90
   21:03:02.809.08-May-2021 4593.01 3776.43 69.02 2.00 279.03 3008.90
   21:03:03.009.08-May-2021 4593.01 3776.43 69.02 2.00 279.23 3008.90
   21:03:03.209.08-May-2021 4593.01 3776.48 69.02 2.00 279.43 3008.90
   21:03:03.409.08-May-2021 4593.01 3776.89 69.02 2.00 279.63 3008.90
   21:03:03.609.08-May-2021 4593.01 3776.59 69.02 2.00 279.83 3008.90
   21:03:03.809.08-May-2021 4593.01 3776.58 69.02 2.00 280.03 3008.90
   21:03:04.009.08-May-2021 4593.01 3776.58 69.02 2.00 280.23 3008.90
   21:03:04.209.08-May-2021 4593.01 3776.87 69.02 2.00 280.43 3008.90
   21:03:04.409.08-May-2021 4593.01 3776.82 69.02 2.00 280.63 3008.90
   21:03:04.609.08-May-2021 4593.01 3776.76 69.02 2.00 280.83 3008.90
   21:03:04.809.08-May-2021 4593.01 3776.90 69.02 2.00 281.03 3008.90
   21:03:05.009.08-May-2021 4593.01 3776.90 69.02 2.00 281.23 3008.90
   21:03:05.209.08-May-2021 4593.01 3776.86 69.02 2.00 281.43 3008.90
   21:03:05.409.08-May-2021 4593.01 3776.95 69.02 2.00 281.63 3008.90
   21:03:05.609.08-May-2021 4593.01 3777.01 69.02 2.00 281.83 3008.90
   21:03:05.809.08-May-2021 4593.01 3776.76 69.02 2.00 282.03 3008.90
   21:03:06.009.08-May-2021 4593.01 3776.76 69.02 2.00 282.23 3008.90
   21:03:06.209.08-May-2021 4593.01 3776.91 69.02 2.00 282.43 3008.90
   21:03:06.409.08-May-2021 4593.01 3777.02 69.02 2.00 282.63 3008.90
   21:03:06.609.08-May-2021 4593.01 3776.92 69.02 2.00 282.83 3008.90
   21:03:06.809.08-May-2021 4593.01 3777.07 69.02 2.00 283.03 3008.90
   21:03:07.009.08-May-2021 4593.01 3777.07 69.02 2.00 283.23 3008.90
   21:03:07.209.08-May-2021 4593.01 3777.02 69.02 2.00 283.43 3008.90
   21:03:07.409.08-May-2021 4593.01 3777.08 69.02 2.00 283.63 3008.90
   21:03:07.609.08-May-2021 4593.01 3777.07 69.02 2.00 283.83 3008.90
   21:03:07.809.08-May-2021 4593.01 3777.01 69.02 2.00 284.03 3008.90
   21:03:08.009.08-May-2021 4593.01 3777.01 69.02 2.00 284.23 3008.90
   21:03:08.209.08-May-2021 4593.01 3777.14 69.02 2.00 284.43 3008.90
   21:03:08.409.08-May-2021 4593.01 3776.93 69.02 2.00 284.63 3008.90
   21:03:08.609.08-May-2021 4593.01 3777.57 69.02 2.00 284.83 3008.90
   21:03:08.809.08-May-2021 4593.01 3776.99 69.02 2.00 285.03 3008.90
   21:03:09.009.08-May-2021 4593.01 3776.99 69.02 2.00 285.23 3008.90
   21:03:09.209.08-May-2021 4593.01 3777.22 69.02 2.00 285.43 3008.90
   21:03:09.409.08-May-2021 4593.01 3777.23 69.02 2.00 285.63 3008.90
   21:03:09.609.08-May-2021 4593.01 3776.92 69.02 2.00 285.83 3008.90
   21:03:09.809.08-May-2021 4593.01 3777.51 69.02 2.00 286.03 3008.90
   21:03:10.009.08-May-2021 4593.01 3777.51 69.02 2.00 286.23 3008.90
   21:03:10.209.08-May-2021 4593.01 3777.23 69.02 2.00 286.43 3008.90
   21:03:10.409.08-May-2021 4593.01 3777.04 69.02 2.00 286.63 3008.90
   21:03:10.609.08-May-2021 4593.01 3777.69 69.02 2.00 286.83 3008.90
   21:03:10.809.08-May-2021 4593.01 3777.02 69.02 2.00 287.03 3008.90
   21:03:11.009.08-May-2021 4593.01 3777.02 69.02 2.00 287.23 3008.90
   21:03:11.209.08-May-2021 4593.01 3777.28 69.02 2.00 287.43 3008.90
   21:03:11.409.08-May-2021 4593.01 3777.14 69.02 2.00 287.63 3008.90
   21:03:11.609.08-May-2021 4593.01 3777.59 69.02 2.00 287.83 3008.90
   21:03:11.809.08-May-2021 4593.01 3777.24 69.02 2.00 288.03 3008.90
   21:03:12.009.08-May-2021 4593.01 3777.24 69.02 2.00 288.23 3008.90
   21:03:12.209.08-May-2021 4593.01 3777.37 69.02 2.00 288.43 3008.90
   21:03:12.410.08-May-2021 4593.01 3777.36 69.02 2.00 288.63 3008.90
   21:03:12.610.08-May-2021 4593.01 3777.31 69.02 2.00 288.83 3008.90
   21:03:12.810.08-May-2021 4593.01 3777.45 69.02 2.00 289.03 3008.90
   21:03:13.010.08-May-2021 4593.01 3777.45 69.02 2.00 289.23 3008.90
   21:03:13.210.08-May-2021 4593.01 3777.32 69.02 2.00 289.43 3008.90
   21:03:13.410.08-May-2021 4593.01 3777.40 69.02 2.00 289.63 3008.90
   21:03:13.610.08-May-2021 4593.01 3777.45 69.02 2.00 289.83 3008.90
   21:03:13.810.08-May-2021 4593.01 3777.39 69.02 2.00 290.03 3008.90
   21:03:14.010.08-May-2021 4593.01 3777.39 69.02 2.00 290.23 3008.90
   21:03:14.210.08-May-2021 4593.01 3777.76 69.02 2.00 290.43 3008.90
   21:03:14.410.08-May-2021 4593.01 3777.23 69.02 2.00 290.63 3008.90
   21:03:14.610.08-May-2021 4593.01 3777.62 69.02 2.00 290.83 3008.90
   21:03:14.810.08-May-2021 4593.01 3777.40 69.02 2.00 291.03 3008.90
   21:03:15.010.08-May-2021 4593.01 3777.40 69.02 2.00 291.23 3008.90
   21:03:15.210.08-May-2021 4593.01 3777.46 69.02 2.00 291.43 3008.90
   21:03:15.410.08-May-2021 4593.01 3777.39 69.02 2.00 291.63 3008.90
   21:03:15.610.08-May-2021 4593.01 3777.42 69.02 2.00 291.83 3008.90
   21:03:15.810.08-May-2021 4593.01 3777.50 69.02 2.00 292.03 3008.90
   21:03:16.010.08-May-2021 4593.01 3777.50 69.02 2.00 292.23 3008.90
   21:03:16.210.08-May-2021 4593.01 3777.46 69.02 2.00 292.43 3008.90
   21:03:16.410.08-May-2021 4593.01 3777.56 69.02 2.00 292.63 3008.90
   21:03:16.610.08-May-2021 4593.01 3777.28 69.02 2.00 292.83 3008.90
   21:03:16.810.08-May-2021 4593.01 3777.70 69.02 2.00 293.03 3008.90
   21:03:17.010.08-May-2021 4593.01 3777.70 69.02 2.00 293.23 3008.90
   21:03:17.210.08-May-2021 4593.01 3777.61 69.02 2.00 293.43 3008.90
   21:03:17.410.08-May-2021 4593.01 3777.32 69.02 2.00 293.63 3008.90
   21:03:17.610.08-May-2021 4593.01 3777.50 69.02 2.00 293.83 3008.90
   21:03:17.810.08-May-2021 4593.01 3777.66 69.02 2.00 294.03 3008.90
   21:03:18.010.08-May-2021 4593.01 3777.66 69.02 2.00 294.23 3008.90
   21:03:18.210.08-May-2021 4593.01 3777.53 69.02 2.00 294.43 3008.90
   21:03:18.410.08-May-2021 4593.01 3777.32 69.02 2.00 294.63 3008.90
   21:03:18.610.08-May-2021 4593.01 3777.83 69.02 2.00 294.83 3008.90
   21:03:18.810.08-May-2021 4593.01 3777.24 69.02 2.00 295.03 3008.90
   21:03:19.010.08-May-2021 4593.01 3777.24 69.02 2.00 295.23 3008.90
   21:03:19.210.08-May-2021 4593.01 3777.47 69.02 2.00 295.43 3008.90
   21:03:19.410.08-May-2021 4593.01 3777.47 69.02 2.00 295.63 3008.90
   21:03:19.610.08-May-2021 4593.01 3777.76 69.02 2.00 295.83 3008.90
   21:03:19.810.08-May-2021 4593.01 3777.31 69.02 2.00 296.03 3008.90
   21:03:20.010.08-May-2021 4593.01 3777.31 69.02 2.00 296.23 3008.90
   21:03:20.210.08-May-2021 4593.01 3777.60 69.02 2.00 296.43 3008.90
   21:03:20.410.08-May-2021 4593.01 3777.54 69.02 2.00 296.63 3008.90
   21:03:20.610.08-May-2021 4593.01 3777.52 69.02 2.00 296.83 3008.90
   21:03:20.810.08-May-2021 4593.01 3777.61 69.02 2.00 297.03 3008.90
   21:03:21.010.08-May-2021 4593.01 3777.61 69.02 2.00 297.23 3008.90
   21:03:21.210.08-May-2021 4593.01 3777.46 69.02 2.00 297.43 3008.90
   21:03:21.410.08-May-2021 4593.01 3777.63 69.02 2.00 297.63 3008.90
   21:03:21.610.08-May-2021 4593.01 3777.61 69.02 2.00 297.83 3008.90
   21:03:21.810.08-May-2021 4593.01 3777.60 69.02 2.00 298.03 3008.90
   21:03:22.011.08-May-2021 4593.01 3777.60 69.02 2.00 298.23 3008.90
   21:03:22.211.08-May-2021 4593.01 3777.98 69.02 2.00 298.43 3008.90
   21:03:22.411.08-May-2021 4593.01 3777.35 69.02 2.00 298.63 3008.90
   21:03:22.611.08-May-2021 4593.01 3777.67 69.02 2.00 298.83 3008.90
