~Version Information
 VERS.                  2.0:   CWLS log ASCII Standard -VERSION 2.0
 WRAP.                   NO:   One line per depth step
~Well Information Block
#MNEM.UNIT     VALUE/NAME     DESCRIPTION
#---------     -----------    ---------------------------
 STRT.S             23:15:39 08-May-21: START TIME 23:15:39 08-May-21
 STOP.S             23:22:30 08-May-21: STOP TIME  23:22:30 08-May-21
 STEP.S                   0.00: STEP TIME
 NULL.                 -999.25: NULL VALUE
 PROV.                    Baku:  PROVINCE
 STAT.                    Baku:  STATE NAME
 SON .        AZ-XX-0906571588:  JOB NUMBER
 WTYP.                Deviated:  WELL TYPE
 COMP.     BP Exploration (Caspian Sea) ltd:  COMPANY
 BASE.              Azerbaijan:  LOGGING EQUIPMENT BASE LOCATION
 REGN.                   EESSA:  REGION
 CTRY.              Azerbaijan:  COUNTRY NAME
 FLD .                     ACG:  FIELD NAME
 WELL.                     J28:  WELL NAME
 RIG .             West Chirag:  RIG NAME
 DMF .             Drill Floor:  DRILL MEAS FROM
 PDAT.       Caspian Sea Level:  PERMANENT DATUM
 HPTY.       Minimum Curvature:  HOLE POS TYPE
 MDS .        Operator Entered:  MAG DATA SOURCE
 NREF.                    Grid:  NORTH REFERENCE
 SRVC.          TURAN DRILLING:  CONTRACTOR
 JOBN.        AZ-XX-0906571588:  JOB TICKET NUMB
 DCON.     Halliburton Sperry Drilling:  DIRECTNL CONTR
 STIM.      00.44.00 11-Feb-21:  START TIME
 DATE.      00.00.00 05-May-21:  END TIME
 SPUD.               13-Feb-21:  SPUD DATE
 MWDS.                    Baku:  MWD SHOP
 DOE .                     N/A:  DOE NUMBER
 UNIT.                     N/A:  LOGGING EQUIPMENT ID
 UWI .                     N/A:  UNIQUE WELL IDENTIFIER
 API .                     N/A:  API NUMBER
 CNTY.                        :  COUNTY
 LOC .                        :  LOCATION
 LMF .             Drill Floor:  LOG MEASURED FROM
 TVDS.m                  43.00:  TVDSS CORRECTN
 SDEP.m                 341.00:  START DEPTH
 EGL .m                   0.00:  GROUND ELEVATION
 WDMS.m                 169.80:  WD ELEV
 AGAP.m                  43.00:  AIR GAP
 EPD .m                   0.00:  ELEVATION
 APD .m                  43.00:  DEPTH ABOVE PD
 LATI.deg                40.13:  LATITUDE
 LONG.deg                51.22:  LONGITUDE
 UTMY.m             4443793.85:  UTM Y
 UTMX.m              519005.06:  UTM X
 WHEW.m                 -11.57:  WELL HEAD E/W
 WHNS.m                   8.57:  WELL HEAD N/S
 VSEW.m                 -11.57:  VERT SEC E/W
 VSNS.m                   8.57:  VERT SEC N/S
 DFWL.m                   0.00:  DISTANCE FWL
 DFSL.m                   0.00:  DISTANCE FSL
 VSDR.deg               299.34:  VERT SEC DIRECT
 GVFD.g                   1.00:  GRAVITY FIELD
 AZTC.deg                 6.36:  AZM TOTAL CORR
 MFLD.nT              50391.00:  MAGNETIC FIELD
 MDIP.deg                59.65:  MAGNETIC DIP
 MDEC.deg                 6.48:  MAGNETIC DECL
 GRDC.deg                 0.12:  GRID CORRECTION
 DEP .m                 334.96:  DEPTH
 TDD .m                1407.26:  TOTAL DEPTH (DRILLER)
 EKB .m                  43.00:  KB ELEVATION
 EDF .m                  43.00:  DF ELEVATION
 TDL .m                 228.00:  TOTAL DEPTH (LOGGER)
 VSC .                       0:  VS TO CLOSURE
 MAGU.                 1854484:  MAGUTM CHECKSUM
~Parameter Information Block
#MNEM.UNIT       Value        Description
#---------     -----------    ---------------------------
 AV  .mps                 4.00:  Ann Velocity 
 AVMX.mps                 4.73:  Max Ann Veloc 
 AZIF.deg               304.48:  Azm, Final 
 BHAT.        Rotary Steerable:  BHA Type 
 BREV.rev            257300.00:  Rev Bit Total 
 BROT.°/30m               0.00:  Build Rotating 
 BS  .in                  8.50:  Bit Size 
 BSZ .in                  8.50:  Bit Size 
 BTPL.psig              589.00:  Bit Press Loss 
 CABU.                      No:  Customer Abuse 
 CGEO.          Mubariz ghayev:  Customer Geo 
 COMM.                     dˆ[:  Run Comments 1 
 TCS .hr                 64.25:  Time Ciculation Ended 
 CV  .mps                 3.50:  Crit Velocity 
 CVMX.mps                 4.52:  Max Crit Veloc 
 DD1 .             Aziz Aliyev:  Direct Drillr 1 
 DD2 .         Intigam Rahimov:  Direct Drillr 2 
 DD3 .          Rashad Habibov:  Direct Drillr 3 
 DDSV.               Geo-Pilot:  DD Service 
 DEFF.%                  98.00:  % Det Eff 
 DLRX.°/30m               0.00:  Dogleg Rot Max 
 DLSO.°/30m               0.00:  Dogleg Oriented 
 DLSX.°/30m               0.00:  Dogleg Str Max 
 DRET.      10.45.04 08-May-21:  Drill End Time 
 DRST.      03.30.04 04-May-21:  Drill Start Tim 
 DTIM.hr                 14.97:  Time Drilling 
 EDEP.m                4640.01:  End Depth 
 ENG1.         Dail Mahammadov:  Engineer 1 
 ENG2.           Eldar Hajiyev:  Engineer 2 
 ENG3.       Bakhtiar Jabbarli:  Engineer 3 
 ENG4.       Natik Hasanagayev:  Engineer 4 
 ETIM.      09.30.04 14-May-21:  End Time 
 FLOI.gpm               460.00:  Flow In 
 FLON.gpm               200.00:  Flow In Min 
 FLOS.cptm                0.00:  Fluid Loss 
 FLOX.gpm               505.00:  Flow In Max 
 HFLO.                      No:  High Flow 
 HPRE.                      No:  High Pressure 
 HTEM.                      No:  High Temp 
 HYDO.m                   1.80:  Hydro Offset 
 IFIN.deg                66.71:  Inc, Final 
 IMAX.deg                67.03:  Inc Max 
 IMIN.deg                66.63:  Inc Min 
 IMND.m                4550.58:  Inc Min Depth 
 IMXD.m                4439.01:  Inc Max Depth 
 JARR.                      No:  Jarring 
 LETM.      10.45.04 08-May-21:  Log End Time 
 LOST.hr                     0:  Lost Rig Time 
 LSTM.      03.30.04 04-May-21:  Log Start Time 
 MDCL.ppm             37000.00:  Mud Chlorides 
 MDES.     Inversion Oil/Synthetic:  Mud Desc 
 DFD .sg                  1.38:  Mud Density 
 MDMN.sg                  1.35:  Dens Mud Min 
 MDMX.sg                  1.40:  Dens Mud Max 
 MOIL.                   57.40:  Run Mud Oil % 
 MOWR.                   70:30:  Run Mud OWR 
 MSND.                    0.00:  Run Mud Sand % 
 MSOL.                   18.00:  Run Mud Solids% 
 DFV .spqt               71.00:  Mud Viscosity 
 MWOD.in                  6.75:  MWD Tool OD 
 MWSI.                      No:  Serv Intrp, MWD 
 OTIM.hr                242.76:  Time Operating 
 PCON.           Look Like New:  Pad Condition 
 PMAX.psia            12183.92:  Press Op, Max 
 PV  .cP                 27.00:  Mud PV 
 RUN .                    1300:  Run Number 
 ROPA.m/hr               15.00:  ROP Avg 
 ROPN.m/hr                9.00:  ROP Min 
 ROPX.m/hr               19.00:  ROP Max 
 RPMA.rpm               120.00:  RPM Surface Avg 
 RPMN.rpm               100.00:  RPM Surface Min 
 RPMX.rpm               120.00:  RPM Surface Max 
 RRUN.                    1300:  Rig Run Number 
 RTIM.hr                  5.00:  Time Reaming 
 SAZI.deg               304.73:  Azm, Start 
 SDEP.m                4412.01:  Start Depth 
 SIDD.                      No:  Serv Intrp, DD 
 SINC.deg                66.82:  Inc, Start 
 SPPA.psig             2800.00:  SPP Avg 
 SPPN.psig             2610.00:  SPP Min 
 SPPX.psig             3100.00:  SPP Max 
 STIM.      03.30.00 04-May-21:  Start Time 
 SVCS.                 DD, MWD:  Services 
 SVER.                    9.20:  Sperry Version 
 TDAT.m                 228.00:  Tot Depth Attmp 
 TDDF.                      No:  Trip for DD 
 TDLG.m                 228.00:  Tot Depth Loggd 
 TFF .                      No:  Trip for Fail 
 TQAA.f-kp               15.00:  Torque Abs Avg 
 TQAN.f-kp               12.00:  Torque Abs Min 
 TQAX.f-kp               22.00:  Torque Abs Max 
 TRRT.°/30m               0.00:  Turn Rotating 
 MRT .                    HCIM:  Maximum Recorded Temperature 
 TTMX.degC               90.20:  Max Tool Temp 
 VS01.                90627813:  Virtual Str1 SN 
 VS02.                90634712:  Virtual Str2 SN 
 VS03.                90643410:  Virtual Str3 SN 
 VS04.                90634712:  Virtual Str4 SN 
 WBMN.klb                 9.00:  WOB Min 
 WITN.        Elmaddin Rahimov:  Customer Rep 
 WITN.         Haytham Mostafa:  Customer Rep 2 
 WOBA.klb                15.00:  WOB Avg 
 WOBX.klb                23.00:  WOB Max 
 YP  .lhf2               29.00:  Yield Point 
~Curve Information Block
#MNEM.UNIT                 API CODE     Curve Description
#---------               -----------    ---------------------------
 TIME.HHMMSS            00 000 000 000:  GT Time & Date
 GTDEPTH.m              00 000 000 000:  GT Depth
 GTPQH.psia             00 000 000 000:  GT HR Quartz Pressure
 GTTQ.degC              00 000 000 000:  GT Quartz Temperature
 GTTN.NONE              00 000 000 000:  GT Test Number
 GTET.sec               00 000 000 000:  GT Elapsed Test Time
 GTTVD.m                00 000 000 000:  GT True Vertical Depth
#Other Information
#
#WARRANTY: Halliburton will use its best efforts to furnish customers with 
#accurate information and interpretations that are part of, and incident to, the services 
#provided.  However, Halliburton cannot and does not warrant the accuracy 
#or correctness of such information and interpretations.  Under no circumstances should any 
#such information or interpretation be relied upon as the sole basis for any drilling, 
#completion, production, or financial decision or any procedure involving any risk to the 
#safety of any drilling venture, drilling rig or its crew or any other third party.  The 
#Customer has full responsibility for all drilling, completion and production operation.  
#Halliburton makes no representations or warranties, either expressed or 
#implied, including, but not limited to, the implied warranties of merchantability or fitness 
#for a particular purpose, with respect to the services rendered.  In no event will 
#Halliburton be liable for failure to obtain any particular results or for 
#any damages, including, but not limited to, indirect, special or consequential damages, 
#resulting from the use of any information or interpretation provided by Halliburton.
#
~A           TIME           GTDEPTH  GTPQH  GTTQ  GTTN  GTET   GTTVD  
# ...
   23:16:48.637.08-May-2021 4549.51 3248.68 68.56 5.00  68.98 2991.64
   23:16:48.837.08-May-2021 4549.51 3248.68 68.56 5.00  69.18 2991.64
   23:16:49.037.08-May-2021 4549.51 3248.69 68.57 5.00  69.38 2991.64
   23:16:49.237.08-May-2021 4549.51 3248.75 68.57 5.00  69.58 2991.64
   23:16:49.437.08-May-2021 4549.51 3248.68 68.57 5.00  69.78 2991.64
   23:16:49.637.08-May-2021 4549.51 3248.71 68.57 5.00  69.98 2991.64
   23:16:49.837.08-May-2021 4549.51 3248.71 68.57 5.00  70.18 2991.64
   23:16:50.036.08-May-2021 4549.51 3248.71 68.57 5.00  70.38 2991.64
   23:16:50.236.08-May-2021 4549.51 3248.77 68.57 5.00  70.58 2991.64
   23:16:50.436.08-May-2021 4549.51 3248.72 68.57 5.00  70.78 2991.64
   23:16:50.636.08-May-2021 4549.51 3248.67 68.57 5.00  70.98 2991.64
   23:16:50.836.08-May-2021 4549.51 3248.67 68.57 5.00  71.18 2991.64
   23:16:51.036.08-May-2021 4549.51 3248.73 68.57 5.00  71.38 2991.64
   23:16:51.236.08-May-2021 4549.51 3248.76 68.57 5.00  71.58 2991.64
   23:16:51.436.08-May-2021 4549.51 3248.76 68.57 5.00  71.78 2991.64
   23:16:51.636.08-May-2021 4549.51 3248.77 68.57 5.00  71.98 2991.64
   23:16:51.836.08-May-2021 4549.51 3248.77 68.57 5.00  72.18 2991.64
   23:16:52.036.08-May-2021 4549.51 3248.78 68.57 5.00  72.38 2991.64
   23:16:52.236.08-May-2021 4549.51 3248.76 68.57 5.00  72.58 2991.64
   23:16:52.436.08-May-2021 4549.51 3248.77 68.57 5.00  72.78 2991.64
   23:16:52.636.08-May-2021 4549.51 3248.78 68.57 5.00  72.98 2991.64
   23:16:52.836.08-May-2021 4549.51 3248.78 68.57 5.00  73.18 2991.64
   23:16:53.036.08-May-2021 4549.51 3248.79 68.57 5.00  73.38 2991.64
   23:16:53.235.08-May-2021 4549.51 3248.80 68.57 5.00  73.58 2991.64
   23:16:53.435.08-May-2021 4549.51 3248.79 68.57 5.00  73.78 2991.64
   23:16:53.635.08-May-2021 4549.51 3248.80 68.57 5.00  73.98 2991.64
   23:16:53.835.08-May-2021 4549.51 3248.80 68.57 5.00  74.18 2991.64
   23:16:54.035.08-May-2021 4549.51 3248.81 68.57 5.00  74.38 2991.64
   23:16:54.235.08-May-2021 4549.51 3248.82 68.57 5.00  74.58 2991.64
   23:16:54.435.08-May-2021 4549.51 3248.83 68.57 5.00  74.78 2991.64
   23:16:54.635.08-May-2021 4549.51 3248.82 68.57 5.00  74.98 2991.64
   23:16:54.835.08-May-2021 4549.51 3248.82 68.57 5.00  75.18 2991.64
   23:16:55.035.08-May-2021 4549.51 3248.81 68.57 5.00  75.38 2991.64
   23:16:55.235.08-May-2021 4549.51 3248.82 68.57 5.00  75.58 2991.64
   23:16:55.435.08-May-2021 4549.51 3248.82 68.57 5.00  75.78 2991.64
   23:16:55.635.08-May-2021 4549.51 3248.83 68.57 5.00  75.98 2991.64
   23:16:55.835.08-May-2021 4549.51 3248.83 68.57 5.00  76.18 2991.64
   23:16:56.035.08-May-2021 4549.51 3248.83 68.57 5.00  76.38 2991.64
   23:16:56.235.08-May-2021 4549.51 3248.83 68.57 5.00  76.58 2991.64
   23:16:56.434.08-May-2021 4549.51 3248.84 68.57 5.00  76.78 2991.64
   23:16:56.634.08-May-2021 4549.51 3248.84 68.57 5.00  76.98 2991.64
   23:16:56.834.08-May-2021 4549.51 3248.84 68.57 5.00  77.18 2991.64
   23:16:57.034.08-May-2021 4549.51 3248.86 68.57 5.00  77.38 2991.64
   23:16:57.234.08-May-2021 4549.51 3248.84 68.57 5.00  77.58 2991.64
   23:16:57.434.08-May-2021 4549.51 3248.83 68.57 5.00  77.78 2991.64
   23:16:57.634.08-May-2021 4549.51 3248.84 68.57 5.00  77.98 2991.64
   23:16:57.834.08-May-2021 4549.51 3248.84 68.57 5.00  78.18 2991.64
   23:16:58.034.08-May-2021 4549.51 3248.90 68.57 5.00  78.38 2991.64
   23:16:58.234.08-May-2021 4549.51 3248.83 68.57 5.00  78.58 2991.64
   23:16:58.434.08-May-2021 4549.51 3248.85 68.57 5.00  78.78 2991.64
   23:16:58.634.08-May-2021 4549.51 3248.93 68.57 5.00  78.98 2991.64
   23:16:58.834.08-May-2021 4549.51 3248.93 68.57 5.00  79.18 2991.64
   23:16:59.034.08-May-2021 4549.51 3248.84 68.57 5.00  79.38 2991.64
   23:16:59.234.08-May-2021 4549.51 3248.83 68.57 5.00  79.58 2991.64
   23:16:59.434.08-May-2021 4549.51 3248.92 68.57 5.00  79.78 2991.64
   23:16:59.633.08-May-2021 4549.51 3248.83 68.57 5.00  79.98 2991.64
   23:16:59.833.08-May-2021 4549.51 3248.83 68.57 5.00  80.18 2991.64
   23:17:00.033.08-May-2021 4549.51 3248.88 68.57 5.00  80.37 2991.64
   23:17:00.233.08-May-2021 4549.51 3248.85 68.57 5.00  80.57 2991.64
   23:17:00.433.08-May-2021 4549.51 3248.87 68.57 5.00  80.77 2991.64
   23:17:00.633.08-May-2021 4549.51 3248.86 68.57 5.00  80.97 2991.64
   23:17:00.833.08-May-2021 4549.51 3248.86 68.57 5.00  81.17 2991.64
   23:17:01.033.08-May-2021 4549.51 3248.87 68.57 5.00  81.37 2991.64
   23:17:01.233.08-May-2021 4549.51 3248.86 68.57 5.00  81.57 2991.64
   23:17:01.433.08-May-2021 4549.51 3248.87 68.57 5.00  81.77 2991.64
   23:17:01.633.08-May-2021 4549.51 3248.86 68.57 5.00  81.97 2991.64
   23:17:01.833.08-May-2021 4549.51 3248.86 68.57 5.00  82.17 2991.64
   23:17:02.033.08-May-2021 4549.51 3248.92 68.57 5.00  82.37 2991.64
   23:17:02.233.08-May-2021 4549.51 3248.85 68.57 5.00  82.57 2991.64
   23:17:02.433.08-May-2021 4549.51 3248.87 68.57 5.00  82.77 2991.64
   23:17:02.633.08-May-2021 4549.51 3248.88 68.57 5.00  82.97 2991.64
   23:17:02.832.08-May-2021 4549.51 3248.88 68.57 5.00  83.17 2991.64
   23:17:03.032.08-May-2021 4549.51 3248.88 68.57 5.00  83.37 2991.64
   23:17:03.232.08-May-2021 4549.51 3248.87 68.57 5.00  83.57 2991.64
   23:17:03.432.08-May-2021 4549.51 3248.88 68.57 5.00  83.77 2991.64
   23:17:03.632.08-May-2021 4549.51 3248.87 68.57 5.00  83.97 2991.64
   23:17:03.832.08-May-2021 4549.51 3248.87 68.57 5.00  84.17 2991.64
   23:17:04.032.08-May-2021 4549.51 3248.88 68.57 5.00  84.37 2991.64
   23:17:04.232.08-May-2021 4549.51 3248.88 68.57 5.00  84.57 2991.64
   23:17:04.432.08-May-2021 4549.51 3248.87 68.57 5.00  84.77 2991.64
   23:17:04.632.08-May-2021 4549.51 3248.94 68.57 5.00  84.97 2991.64
   23:17:04.832.08-May-2021 4549.51 3248.94 68.57 5.00  85.17 2991.64
   23:17:05.032.08-May-2021 4549.51 3248.88 68.57 5.00  85.37 2991.64
   23:17:05.232.08-May-2021 4549.51 3248.89 68.57 5.00  85.57 2991.64
   23:17:05.432.08-May-2021 4549.51 3248.81 68.57 5.00  85.77 2991.64
   23:17:05.632.08-May-2021 4549.51 3248.98 68.57 5.00  85.97 2991.64
   23:17:05.832.08-May-2021 4549.51 3248.98 68.57 5.00  86.17 2991.64
   23:17:06.031.08-May-2021 4549.51 3248.89 68.57 5.00  86.37 2991.64
   23:17:06.231.08-May-2021 4549.51 3248.86 68.57 5.00  86.57 2991.64
   23:17:06.431.08-May-2021 4549.51 3248.95 68.57 5.00  86.77 2991.64
   23:17:06.631.08-May-2021 4549.51 3248.87 68.57 5.00  86.97 2991.64
   23:17:06.831.08-May-2021 4549.51 3248.87 68.57 5.00  87.17 2991.64
   23:17:07.031.08-May-2021 4549.51 3248.98 68.57 5.00  87.37 2991.64
   23:17:07.231.08-May-2021 4549.51 3248.88 68.57 5.00  87.57 2991.64
   23:17:07.431.08-May-2021 4549.51 3248.89 68.57 5.00  87.77 2991.64
   23:17:07.631.08-May-2021 4549.51 3248.88 68.57 5.00  87.97 2991.64
   23:17:07.831.08-May-2021 4549.51 3248.88 68.57 5.00  88.17 2991.64
   23:17:08.031.08-May-2021 4549.51 3248.90 68.57 5.00  88.37 2991.64
   23:17:08.231.08-May-2021 4549.51 3248.88 68.57 5.00  88.57 2991.64
   23:17:08.431.08-May-2021 4549.51 3248.89 68.57 5.00  88.77 2991.64
   23:17:08.631.08-May-2021 4549.51 3248.89 68.57 5.00  88.97 2991.64
   23:17:08.831.08-May-2021 4549.51 3248.89 68.57 5.00  89.17 2991.64
   23:17:09.031.08-May-2021 4549.51 3248.90 68.57 5.00  89.37 2991.64
   23:17:09.230.08-May-2021 4549.51 3248.89 68.57 5.00  89.57 2991.64
   23:17:09.430.08-May-2021 4549.51 3248.83 68.57 5.00  89.77 2991.64
   23:17:09.630.08-May-2021 4549.51 3248.99 68.57 5.00  89.97 2991.64
   23:17:09.830.08-May-2021 4549.51 3248.99 68.57 5.00  90.17 2991.64
   23:17:10.030.08-May-2021 4549.51 3248.90 68.57 5.00  90.37 2991.64
   23:17:10.230.08-May-2021 4549.51 3248.89 68.57 5.00  90.57 2991.64
   23:17:10.430.08-May-2021 4549.51 3248.90 68.57 5.00  90.77 2991.64
   23:17:10.630.08-May-2021 4549.51 3248.89 68.57 5.00  90.97 2991.64
   23:17:10.830.08-May-2021 4549.51 3248.89 68.57 5.00  91.17 2991.64
   23:17:11.030.08-May-2021 4549.51 3248.89 68.57 5.00  91.37 2991.64
   23:17:11.230.08-May-2021 4549.51 3248.89 68.57 5.00  91.57 2991.64
   23:17:11.430.08-May-2021 4549.51 3248.90 68.57 5.00  91.77 2991.64
