~Version Information
 VERS.                  2.0:   CWLS log ASCII Standard -VERSION 2.0
 WRAP.                   NO:   One line per depth step
~Well Information Block
#MNEM.UNIT     VALUE/NAME     DESCRIPTION
#---------     -----------    ---------------------------
 STRT.S             00:47:21 09-May-21: START TIME 00:47:21 09-May-21
 STOP.S             00:54:19 09-May-21: STOP TIME  00:54:19 09-May-21
 STEP.S                   0.00: STEP TIME
 NULL.                 -999.25: NULL VALUE
 PROV.                    Baku:  PROVINCE
 STAT.                    Baku:  STATE NAME
 SON .        AZ-XX-0906571588:  JOB NUMBER
 WTYP.                Deviated:  WELL TYPE
 COMP.     BP Exploration (Caspian Sea) ltd:  COMPANY
 BASE.              Azerbaijan:  LOGGING EQUIPMENT BASE LOCATION
 REGN.                   EESSA:  REGION
 CTRY.              Azerbaijan:  COUNTRY NAME
 FLD .                     ACG:  FIELD NAME
 WELL.                     J28:  WELL NAME
 RIG .             West Chirag:  RIG NAME
 DMF .             Drill Floor:  DRILL MEAS FROM
 PDAT.       Caspian Sea Level:  PERMANENT DATUM
 HPTY.       Minimum Curvature:  HOLE POS TYPE
 MDS .        Operator Entered:  MAG DATA SOURCE
 NREF.                    Grid:  NORTH REFERENCE
 SRVC.          TURAN DRILLING:  CONTRACTOR
 JOBN.        AZ-XX-0906571588:  JOB TICKET NUMB
 DCON.     Halliburton Sperry Drilling:  DIRECTNL CONTR
 STIM.      00.44.00 11-Feb-21:  START TIME
 DATE.      00.00.00 05-May-21:  END TIME
 SPUD.               13-Feb-21:  SPUD DATE
 MWDS.                    Baku:  MWD SHOP
 DOE .                     N/A:  DOE NUMBER
 UNIT.                     N/A:  LOGGING EQUIPMENT ID
 UWI .                     N/A:  UNIQUE WELL IDENTIFIER
 API .                     N/A:  API NUMBER
 CNTY.                        :  COUNTY
 LOC .                        :  LOCATION
 LMF .             Drill Floor:  LOG MEASURED FROM
 TVDS.m                  43.00:  TVDSS CORRECTN
 SDEP.m                 341.00:  START DEPTH
 EGL .m                   0.00:  GROUND ELEVATION
 WDMS.m                 169.80:  WD ELEV
 AGAP.m                  43.00:  AIR GAP
 EPD .m                   0.00:  ELEVATION
 APD .m                  43.00:  DEPTH ABOVE PD
 LATI.deg                40.13:  LATITUDE
 LONG.deg                51.22:  LONGITUDE
 UTMY.m             4443793.85:  UTM Y
 UTMX.m              519005.06:  UTM X
 WHEW.m                 -11.57:  WELL HEAD E/W
 WHNS.m                   8.57:  WELL HEAD N/S
 VSEW.m                 -11.57:  VERT SEC E/W
 VSNS.m                   8.57:  VERT SEC N/S
 DFWL.m                   0.00:  DISTANCE FWL
 DFSL.m                   0.00:  DISTANCE FSL
 VSDR.deg               299.34:  VERT SEC DIRECT
 GVFD.g                   1.00:  GRAVITY FIELD
 AZTC.deg                 6.36:  AZM TOTAL CORR
 MFLD.nT              50391.00:  MAGNETIC FIELD
 MDIP.deg                59.65:  MAGNETIC DIP
 MDEC.deg                 6.48:  MAGNETIC DECL
 GRDC.deg                 0.12:  GRID CORRECTION
 DEP .m                 334.96:  DEPTH
 TDD .m                1407.26:  TOTAL DEPTH (DRILLER)
 EKB .m                  43.00:  KB ELEVATION
 EDF .m                  43.00:  DF ELEVATION
 TDL .m                 228.00:  TOTAL DEPTH (LOGGER)
 VSC .                       0:  VS TO CLOSURE
 MAGU.                 1854484:  MAGUTM CHECKSUM
~Parameter Information Block
#MNEM.UNIT       Value        Description
#---------     -----------    ---------------------------
 AV  .mps                 4.00:  Ann Velocity 
 AVMX.mps                 4.73:  Max Ann Veloc 
 AZIF.deg               304.48:  Azm, Final 
 BHAT.        Rotary Steerable:  BHA Type 
 BREV.rev            257300.00:  Rev Bit Total 
 BROT.°/30m               0.00:  Build Rotating 
 BS  .in                  8.50:  Bit Size 
 BSZ .in                  8.50:  Bit Size 
 BTPL.psig              589.00:  Bit Press Loss 
 CABU.                      No:  Customer Abuse 
 CGEO.          Mubariz ghayev:  Customer Geo 
 COMM.                     ­R:  Run Comments 1 
 TCS .hr                 64.25:  Time Ciculation Ended 
 CV  .mps                 3.50:  Crit Velocity 
 CVMX.mps                 4.52:  Max Crit Veloc 
 DD1 .             Aziz Aliyev:  Direct Drillr 1 
 DD2 .         Intigam Rahimov:  Direct Drillr 2 
 DD3 .          Rashad Habibov:  Direct Drillr 3 
 DDSV.               Geo-Pilot:  DD Service 
 DEFF.%                  98.00:  % Det Eff 
 DLRX.°/30m               0.00:  Dogleg Rot Max 
 DLSO.°/30m               0.00:  Dogleg Oriented 
 DLSX.°/30m               0.00:  Dogleg Str Max 
 DRET.      10.45.04 08-May-21:  Drill End Time 
 DRST.      03.30.04 04-May-21:  Drill Start Tim 
 DTIM.hr                 14.97:  Time Drilling 
 EDEP.m                4640.01:  End Depth 
 ENG1.         Dail Mahammadov:  Engineer 1 
 ENG2.           Eldar Hajiyev:  Engineer 2 
 ENG3.       Bakhtiar Jabbarli:  Engineer 3 
 ENG4.       Natik Hasanagayev:  Engineer 4 
 ETIM.      09.30.04 14-May-21:  End Time 
 FLOI.gpm               460.00:  Flow In 
 FLON.gpm               200.00:  Flow In Min 
 FLOS.cptm                0.00:  Fluid Loss 
 FLOX.gpm               505.00:  Flow In Max 
 HFLO.                      No:  High Flow 
 HPRE.                      No:  High Pressure 
 HTEM.                      No:  High Temp 
 HYDO.m                   1.80:  Hydro Offset 
 IFIN.deg                66.71:  Inc, Final 
 IMAX.deg                67.03:  Inc Max 
 IMIN.deg                66.63:  Inc Min 
 IMND.m                4550.58:  Inc Min Depth 
 IMXD.m                4439.01:  Inc Max Depth 
 JARR.                      No:  Jarring 
 LETM.      10.45.04 08-May-21:  Log End Time 
 LOST.hr                     0:  Lost Rig Time 
 LSTM.      03.30.04 04-May-21:  Log Start Time 
 MDCL.ppm             37000.00:  Mud Chlorides 
 MDES.     Inversion Oil/Synthetic:  Mud Desc 
 DFD .sg                  1.38:  Mud Density 
 MDMN.sg                  1.35:  Dens Mud Min 
 MDMX.sg                  1.40:  Dens Mud Max 
 MOIL.                   57.40:  Run Mud Oil % 
 MOWR.                   70:30:  Run Mud OWR 
 MSND.                    0.00:  Run Mud Sand % 
 MSOL.                   18.00:  Run Mud Solids% 
 DFV .spqt               71.00:  Mud Viscosity 
 MWOD.in                  6.75:  MWD Tool OD 
 MWSI.                      No:  Serv Intrp, MWD 
 OTIM.hr                242.76:  Time Operating 
 PCON.           Look Like New:  Pad Condition 
 PMAX.psia            12183.92:  Press Op, Max 
 PV  .cP                 27.00:  Mud PV 
 RUN .                    1300:  Run Number 
 ROPA.m/hr               15.00:  ROP Avg 
 ROPN.m/hr                9.00:  ROP Min 
 ROPX.m/hr               19.00:  ROP Max 
 RPMA.rpm               120.00:  RPM Surface Avg 
 RPMN.rpm               100.00:  RPM Surface Min 
 RPMX.rpm               120.00:  RPM Surface Max 
 RRUN.                    1300:  Rig Run Number 
 RTIM.hr                  5.00:  Time Reaming 
 SAZI.deg               304.73:  Azm, Start 
 SDEP.m                4412.01:  Start Depth 
 SIDD.                      No:  Serv Intrp, DD 
 SINC.deg                66.82:  Inc, Start 
 SPPA.psig             2800.00:  SPP Avg 
 SPPN.psig             2610.00:  SPP Min 
 SPPX.psig             3100.00:  SPP Max 
 STIM.      03.30.00 04-May-21:  Start Time 
 SVCS.                 DD, MWD:  Services 
 SVER.                    9.20:  Sperry Version 
 TDAT.m                 228.00:  Tot Depth Attmp 
 TDDF.                      No:  Trip for DD 
 TDLG.m                 228.00:  Tot Depth Loggd 
 TFF .                      No:  Trip for Fail 
 TQAA.f-kp               15.00:  Torque Abs Avg 
 TQAN.f-kp               12.00:  Torque Abs Min 
 TQAX.f-kp               22.00:  Torque Abs Max 
 TRRT.°/30m               0.00:  Turn Rotating 
 MRT .                    HCIM:  Maximum Recorded Temperature 
 TTMX.degC               90.20:  Max Tool Temp 
 VS01.                90627813:  Virtual Str1 SN 
 VS02.                90634712:  Virtual Str2 SN 
 VS03.                90643410:  Virtual Str3 SN 
 VS04.                90634712:  Virtual Str4 SN 
 WBMN.klb                 9.00:  WOB Min 
 WITN.        Elmaddin Rahimov:  Customer Rep 
 WITN.         Haytham Mostafa:  Customer Rep 2 
 WOBA.klb                15.00:  WOB Avg 
 WOBX.klb                23.00:  WOB Max 
 YP  .lhf2               29.00:  Yield Point 
~Curve Information Block
#MNEM.UNIT                 API CODE     Curve Description
#---------               -----------    ---------------------------
 TIME.HHMMSS            00 000 000 000:  GT Time & Date
 GTDEPTH.m              00 000 000 000:  GT Depth
 GTPQH.psia             00 000 000 000:  GT HR Quartz Pressure
 GTTQ.degC              00 000 000 000:  GT Quartz Temperature
 GTTN.NONE              00 000 000 000:  GT Test Number
 GTET.sec               00 000 000 000:  GT Elapsed Test Time
 GTTVD.m                00 000 000 000:  GT True Vertical Depth
#Other Information
#
#WARRANTY: Halliburton will use its best efforts to furnish customers with 
#accurate information and interpretations that are part of, and incident to, the services 
#provided.  However, Halliburton cannot and does not warrant the accuracy 
#or correctness of such information and interpretations.  Under no circumstances should any 
#such information or interpretation be relied upon as the sole basis for any drilling, 
#completion, production, or financial decision or any procedure involving any risk to the 
#safety of any drilling venture, drilling rig or its crew or any other third party.  The 
#Customer has full responsibility for all drilling, completion and production operation.  
#Halliburton makes no representations or warranties, either expressed or 
#implied, including, but not limited to, the implied warranties of merchantability or fitness 
#for a particular purpose, with respect to the services rendered.  In no event will 
#Halliburton be liable for failure to obtain any particular results or for 
#any damages, including, but not limited to, indirect, special or consequential damages, 
#resulting from the use of any information or interpretation provided by Halliburton.
#
~A           TIME           GTDEPTH  GTPQH  GTTQ  GTTN  GTET   GTTVD  
# ...
   00:51:34.318.09-May-2021 4512.01 3259.89 67.55 8.00 253.09 2976.83
   00:51:34.519.09-May-2021 4512.01 3259.89 67.55 8.00 253.29 2976.83
   00:51:34.719.09-May-2021 4512.01 3259.82 67.55 8.00 253.49 2976.83
   00:51:34.919.09-May-2021 4512.01 3259.82 67.55 8.00 253.69 2976.83
   00:51:35.119.09-May-2021 4512.01 3259.78 67.55 8.00 253.89 2976.83
   00:51:35.319.09-May-2021 4512.01 3259.77 67.55 8.00 254.09 2976.83
   00:51:35.519.09-May-2021 4512.01 3259.77 67.55 8.00 254.29 2976.83
   00:51:35.719.09-May-2021 4512.01 3259.76 67.55 8.00 254.49 2976.83
   00:51:35.919.09-May-2021 4512.01 3259.81 67.55 8.00 254.69 2976.83
   00:51:36.119.09-May-2021 4512.01 3259.28 67.55 8.00 254.89 2976.83
   00:51:36.319.09-May-2021 4512.01 3144.79 67.55 8.00 255.09 2976.83
   00:51:36.519.09-May-2021 4512.01 3144.79 67.55 8.00 255.29 2976.83
   00:51:36.719.09-May-2021 4512.01 2776.36 67.55 8.00 255.49 2976.83
   00:51:36.919.09-May-2021 4512.01 2660.90 67.55 8.00 255.69 2976.83
   00:51:37.119.09-May-2021 4512.01 2608.56 67.55 8.00 255.89 2976.83
   00:51:37.320.09-May-2021 4512.01 2563.57 67.55 8.00 256.09 2976.83
   00:51:37.520.09-May-2021 4512.01 2563.57 67.55 8.00 256.29 2976.83
   00:51:37.720.09-May-2021 4512.01 2543.34 67.55 8.00 256.49 2976.83
   00:51:37.920.09-May-2021 4512.01 2509.69 67.55 8.00 256.69 2976.83
   00:51:38.120.09-May-2021 4512.01 2488.91 67.55 8.00 256.89 2976.83
   00:51:38.320.09-May-2021 4512.01 2472.30 67.55 8.00 257.09 2976.83
   00:51:38.520.09-May-2021 4512.01 2472.30 67.55 8.00 257.29 2976.83
   00:51:38.720.09-May-2021 4512.01 2433.49 67.55 8.00 257.49 2976.83
   00:51:38.920.09-May-2021 4512.01 2346.29 67.55 8.00 257.69 2976.83
   00:51:39.120.09-May-2021 4512.01 2284.99 67.55 8.00 257.89 2976.83
   00:51:39.320.09-May-2021 4512.01 2237.20 67.55 8.00 258.09 2976.83
   00:51:39.520.09-May-2021 4512.01 2237.20 67.55 8.00 258.29 2976.83
   00:51:39.720.09-May-2021 4512.01 2140.95 67.55 8.00 258.49 2976.83
   00:51:39.920.09-May-2021 4512.01 2045.70 67.55 8.00 258.69 2976.83
   00:51:40.121.09-May-2021 4512.01 1994.05 67.55 8.00 258.89 2976.83
   00:51:40.321.09-May-2021 4512.01 1935.24 67.55 8.00 259.09 2976.83
   00:51:40.521.09-May-2021 4512.01 1935.24 67.55 8.00 259.29 2976.83
   00:51:40.721.09-May-2021 4512.01 1781.85 67.55 8.00 259.49 2976.83
   00:51:40.921.09-May-2021 4512.01 1752.86 67.54 8.00 259.69 2976.83
   00:51:41.121.09-May-2021 4512.01 1696.28 67.54 8.00 259.89 2976.83
   00:51:41.321.09-May-2021 4512.01 1623.99 67.54 8.00 260.09 2976.83
   00:51:41.521.09-May-2021 4512.01 1623.99 67.54 8.00 260.29 2976.83
   00:51:41.721.09-May-2021 4512.01 1550.95 67.54 8.00 260.49 2976.83
   00:51:41.921.09-May-2021 4512.01 1527.12 67.54 8.00 260.69 2976.83
   00:51:42.121.09-May-2021 4512.01 1513.00 67.54 8.00 260.89 2976.83
   00:51:42.321.09-May-2021 4512.01 1479.95 67.54 8.00 261.09 2976.83
   00:51:42.521.09-May-2021 4512.01 1479.95 67.54 8.00 261.29 2976.83
   00:51:42.722.09-May-2021 4512.01 1440.42 67.54 8.00 261.49 2976.83
   00:51:42.922.09-May-2021 4512.01 1424.27 67.54 8.00 261.69 2976.83
   00:51:43.122.09-May-2021 4512.01 1407.22 67.53 8.00 261.89 2976.83
   00:51:43.322.09-May-2021 4512.01 1388.43 67.53 8.00 262.09 2976.83
   00:51:43.522.09-May-2021 4512.01 1388.43 67.53 8.00 262.30 2976.83
   00:51:43.722.09-May-2021 4512.01 1364.47 67.53 8.00 262.50 2976.83
   00:51:43.922.09-May-2021 4512.01 1369.45 67.53 8.00 262.70 2976.83
   00:51:44.122.09-May-2021 4512.01 1351.21 67.53 8.00 262.90 2976.83
   00:51:44.322.09-May-2021 4512.01 1324.35 67.53 8.00 263.10 2976.83
   00:51:44.522.09-May-2021 4512.01 1324.35 67.53 8.00 263.30 2976.83
   00:51:44.722.09-May-2021 4512.01 1237.17 67.53 8.00 263.50 2976.83
   00:51:44.922.09-May-2021 4512.01 1214.43 67.53 8.00 263.70 2976.83
   00:51:45.122.09-May-2021 4512.01 1196.97 67.52 8.00 263.90 2976.83
   00:51:45.322.09-May-2021 4512.01 1172.74 67.52 8.00 264.10 2976.83
   00:51:45.523.09-May-2021 4512.01 1172.74 67.52 8.00 264.30 2976.83
   00:51:45.723.09-May-2021 4512.01 1151.71 67.52 8.00 264.50 2976.83
   00:51:45.923.09-May-2021 4512.01 1152.31 67.52 8.00 264.70 2976.83
   00:51:46.123.09-May-2021 4512.01 1167.63 67.52 8.00 264.90 2976.83
   00:51:46.323.09-May-2021 4512.01 1199.81 67.52 8.00 265.10 2976.83
   00:51:46.523.09-May-2021 4512.01 1199.81 67.52 8.00 265.30 2976.83
   00:51:46.723.09-May-2021 4512.01 1752.34 67.52 8.00 265.50 2976.83
   00:51:46.923.09-May-2021 4512.01 2008.87 67.52 8.00 265.70 2976.83
   00:51:47.123.09-May-2021 4512.01 2220.06 67.52 8.00 265.90 2976.83
   00:51:47.323.09-May-2021 4512.01 2392.82 67.52 8.00 266.10 2976.83
   00:51:47.523.09-May-2021 4512.01 2392.82 67.52 8.00 266.30 2976.83
   00:51:47.723.09-May-2021 4512.01 2655.35 67.51 8.00 266.50 2976.83
   00:51:47.923.09-May-2021 4512.01 2756.13 67.51 8.00 266.70 2976.83
   00:51:48.123.09-May-2021 4512.01 2841.55 67.51 8.00 266.90 2976.83
   00:51:48.324.09-May-2021 4512.01 2912.45 67.51 8.00 267.10 2976.83
   00:51:48.524.09-May-2021 4512.01 2912.45 67.51 8.00 267.30 2976.83
   00:51:48.724.09-May-2021 4512.01 3021.86 67.51 8.00 267.50 2976.83
   00:51:48.924.09-May-2021 4512.01 3063.63 67.52 8.00 267.70 2976.83
   00:51:49.124.09-May-2021 4512.01 3098.07 67.52 8.00 267.90 2976.83
   00:51:49.324.09-May-2021 4512.01 3127.08 67.52 8.00 268.10 2976.83
   00:51:49.524.09-May-2021 4512.01 3127.08 67.52 8.00 268.30 2976.83
   00:51:49.724.09-May-2021 4512.01 3171.52 67.52 8.00 268.50 2976.83
   00:51:49.924.09-May-2021 4512.01 3188.38 67.52 8.00 268.70 2976.83
   00:51:50.124.09-May-2021 4512.01 3202.47 67.52 8.00 268.90 2976.83
   00:51:50.324.09-May-2021 4512.01 3214.04 67.52 8.00 269.10 2976.83
   00:51:50.524.09-May-2021 4512.01 3214.04 67.52 8.00 269.30 2976.83
   00:51:50.724.09-May-2021 4512.01 3230.67 67.52 8.00 269.50 2976.83
   00:51:50.924.09-May-2021 4512.01 3236.53 67.52 8.00 269.70 2976.83
   00:51:51.125.09-May-2021 4512.01 3241.48 67.52 8.00 269.90 2976.83
   00:51:51.325.09-May-2021 4512.01 3245.87 67.53 8.00 270.10 2976.83
   00:51:51.525.09-May-2021 4512.01 3245.87 67.53 8.00 270.30 2976.83
   00:51:51.725.09-May-2021 4512.01 3251.52 67.53 8.00 270.50 2976.83
   00:51:51.925.09-May-2021 4512.01 3253.23 67.53 8.00 270.70 2976.83
   00:51:52.125.09-May-2021 4512.01 3254.25 67.53 8.00 270.90 2976.83
   00:51:52.325.09-May-2021 4512.01 3255.98 67.53 8.00 271.10 2976.83
   00:51:52.525.09-May-2021 4512.01 3255.98 67.53 8.00 271.30 2976.83
   00:51:52.725.09-May-2021 4512.01 3256.76 67.53 8.00 271.50 2976.83
   00:51:52.925.09-May-2021 4512.01 3257.86 67.53 8.00 271.70 2976.83
   00:51:53.125.09-May-2021 4512.01 3258.40 67.53 8.00 271.90 2976.83
   00:51:53.325.09-May-2021 4512.01 3258.88 67.54 8.00 272.10 2976.83
   00:51:53.525.09-May-2021 4512.01 3258.88 67.54 8.00 272.30 2976.83
   00:51:53.725.09-May-2021 4512.01 3258.92 67.54 8.00 272.50 2976.83
   00:51:53.926.09-May-2021 4512.01 3259.25 67.54 8.00 272.70 2976.83
   00:51:54.126.09-May-2021 4512.01 3259.00 67.54 8.00 272.90 2976.83
   00:51:54.326.09-May-2021 4512.01 3259.08 67.54 8.00 273.10 2976.83
   00:51:54.526.09-May-2021 4512.01 3259.08 67.54 8.00 273.30 2976.83
   00:51:54.726.09-May-2021 4512.01 3259.20 67.54 8.00 273.50 2976.83
   00:51:54.926.09-May-2021 4512.01 3259.24 67.54 8.00 273.70 2976.83
   00:51:55.126.09-May-2021 4512.01 3259.26 67.54 8.00 273.90 2976.83
   00:51:55.326.09-May-2021 4512.01 3259.33 67.54 8.00 274.10 2976.83
   00:51:55.526.09-May-2021 4512.01 3259.33 67.54 8.00 274.30 2976.83
   00:51:55.726.09-May-2021 4512.01 3259.35 67.55 8.00 274.50 2976.83
   00:51:55.926.09-May-2021 4512.01 3259.40 67.55 8.00 274.70 2976.83
   00:51:56.126.09-May-2021 4512.01 3259.41 67.55 8.00 274.90 2976.83
   00:51:56.326.09-May-2021 4512.01 3259.35 67.55 8.00 275.10 2976.83
   00:51:56.527.09-May-2021 4512.01 3259.35 67.55 8.00 275.30 2976.83
   00:51:56.727.09-May-2021 4512.01 3259.31 67.55 8.00 275.50 2976.83
   00:51:56.927.09-May-2021 4512.01 3259.52 67.55 8.00 275.70 2976.83
   00:51:57.127.09-May-2021 4512.01 3259.50 67.55 8.00 275.90 2976.83
