~Version Information
 VERS.                  2.0:   CWLS log ASCII Standard -VERSION 2.0
 WRAP.                   NO:   One line per depth step
~Well Information Block
#MNEM.UNIT     VALUE/NAME     DESCRIPTION
#---------     -----------    ---------------------------
 STRT.S             02:35:25 09-May-21: START TIME 02:35:25 09-May-21
 STOP.S             02:42:01 09-May-21: STOP TIME  02:42:01 09-May-21
 STEP.S                   0.00: STEP TIME
 NULL.                 -999.25: NULL VALUE
 PROV.                    Baku:  PROVINCE
 STAT.                    Baku:  STATE NAME
 SON .        AZ-XX-0906571588:  JOB NUMBER
 WTYP.                Deviated:  WELL TYPE
 COMP.     BP Exploration (Caspian Sea) ltd:  COMPANY
 BASE.              Azerbaijan:  LOGGING EQUIPMENT BASE LOCATION
 REGN.                   EESSA:  REGION
 CTRY.              Azerbaijan:  COUNTRY NAME
 FLD .                     ACG:  FIELD NAME
 WELL.                     J28:  WELL NAME
 RIG .             West Chirag:  RIG NAME
 DMF .             Drill Floor:  DRILL MEAS FROM
 PDAT.       Caspian Sea Level:  PERMANENT DATUM
 HPTY.       Minimum Curvature:  HOLE POS TYPE
 MDS .        Operator Entered:  MAG DATA SOURCE
 NREF.                    Grid:  NORTH REFERENCE
 SRVC.          TURAN DRILLING:  CONTRACTOR
 JOBN.        AZ-XX-0906571588:  JOB TICKET NUMB
 DCON.     Halliburton Sperry Drilling:  DIRECTNL CONTR
 STIM.      00.44.00 11-Feb-21:  START TIME
 DATE.      00.00.00 05-May-21:  END TIME
 SPUD.               13-Feb-21:  SPUD DATE
 MWDS.                    Baku:  MWD SHOP
 DOE .                     N/A:  DOE NUMBER
 UNIT.                     N/A:  LOGGING EQUIPMENT ID
 UWI .                     N/A:  UNIQUE WELL IDENTIFIER
 API .                     N/A:  API NUMBER
 CNTY.                        :  COUNTY
 LOC .                        :  LOCATION
 LMF .             Drill Floor:  LOG MEASURED FROM
 TVDS.m                  43.00:  TVDSS CORRECTN
 SDEP.m                 341.00:  START DEPTH
 EGL .m                   0.00:  GROUND ELEVATION
 WDMS.m                 169.80:  WD ELEV
 AGAP.m                  43.00:  AIR GAP
 EPD .m                   0.00:  ELEVATION
 APD .m                  43.00:  DEPTH ABOVE PD
 LATI.deg                40.13:  LATITUDE
 LONG.deg                51.22:  LONGITUDE
 UTMY.m             4443793.85:  UTM Y
 UTMX.m              519005.06:  UTM X
 WHEW.m                 -11.57:  WELL HEAD E/W
 WHNS.m                   8.57:  WELL HEAD N/S
 VSEW.m                 -11.57:  VERT SEC E/W
 VSNS.m                   8.57:  VERT SEC N/S
 DFWL.m                   0.00:  DISTANCE FWL
 DFSL.m                   0.00:  DISTANCE FSL
 VSDR.deg               299.34:  VERT SEC DIRECT
 GVFD.g                   1.00:  GRAVITY FIELD
 AZTC.deg                 6.36:  AZM TOTAL CORR
 MFLD.nT              50391.00:  MAGNETIC FIELD
 MDIP.deg                59.65:  MAGNETIC DIP
 MDEC.deg                 6.48:  MAGNETIC DECL
 GRDC.deg                 0.12:  GRID CORRECTION
 DEP .m                 334.96:  DEPTH
 TDD .m                1407.26:  TOTAL DEPTH (DRILLER)
 EKB .m                  43.00:  KB ELEVATION
 EDF .m                  43.00:  DF ELEVATION
 TDL .m                 228.00:  TOTAL DEPTH (LOGGER)
 VSC .                       0:  VS TO CLOSURE
 MAGU.                 1854484:  MAGUTM CHECKSUM
~Parameter Information Block
#MNEM.UNIT       Value        Description
#---------     -----------    ---------------------------
 AV  .mps                 4.00:  Ann Velocity 
 AVMX.mps                 4.73:  Max Ann Veloc 
 AZIF.deg               304.48:  Azm, Final 
 BHAT.        Rotary Steerable:  BHA Type 
 BREV.rev            257300.00:  Rev Bit Total 
 BROT.°/30m               0.00:  Build Rotating 
 BS  .in                  8.50:  Bit Size 
 BSZ .in                  8.50:  Bit Size 
 BTPL.psig              589.00:  Bit Press Loss 
 CABU.                      No:  Customer Abuse 
 CGEO.          Mubariz ghayev:  Customer Geo 
 COMM.                     LÑz:  Run Comments 1 
 TCS .hr                 64.25:  Time Ciculation Ended 
 CV  .mps                 3.50:  Crit Velocity 
 CVMX.mps                 4.52:  Max Crit Veloc 
 DD1 .             Aziz Aliyev:  Direct Drillr 1 
 DD2 .         Intigam Rahimov:  Direct Drillr 2 
 DD3 .          Rashad Habibov:  Direct Drillr 3 
 DDSV.               Geo-Pilot:  DD Service 
 DEFF.%                  98.00:  % Det Eff 
 DLRX.°/30m               0.00:  Dogleg Rot Max 
 DLSO.°/30m               0.00:  Dogleg Oriented 
 DLSX.°/30m               0.00:  Dogleg Str Max 
 DRET.      10.45.04 08-May-21:  Drill End Time 
 DRST.      03.30.04 04-May-21:  Drill Start Tim 
 DTIM.hr                 14.97:  Time Drilling 
 EDEP.m                4640.01:  End Depth 
 ENG1.         Dail Mahammadov:  Engineer 1 
 ENG2.           Eldar Hajiyev:  Engineer 2 
 ENG3.       Bakhtiar Jabbarli:  Engineer 3 
 ENG4.       Natik Hasanagayev:  Engineer 4 
 ETIM.      09.30.04 14-May-21:  End Time 
 FLOI.gpm               460.00:  Flow In 
 FLON.gpm               200.00:  Flow In Min 
 FLOS.cptm                0.00:  Fluid Loss 
 FLOX.gpm               505.00:  Flow In Max 
 HFLO.                      No:  High Flow 
 HPRE.                      No:  High Pressure 
 HTEM.                      No:  High Temp 
 HYDO.m                   1.80:  Hydro Offset 
 IFIN.deg                66.71:  Inc, Final 
 IMAX.deg                67.03:  Inc Max 
 IMIN.deg                66.63:  Inc Min 
 IMND.m                4550.58:  Inc Min Depth 
 IMXD.m                4439.01:  Inc Max Depth 
 JARR.                      No:  Jarring 
 LETM.      10.45.04 08-May-21:  Log End Time 
 LOST.hr                     0:  Lost Rig Time 
 LSTM.      03.30.04 04-May-21:  Log Start Time 
 MDCL.ppm             37000.00:  Mud Chlorides 
 MDES.     Inversion Oil/Synthetic:  Mud Desc 
 DFD .sg                  1.38:  Mud Density 
 MDMN.sg                  1.35:  Dens Mud Min 
 MDMX.sg                  1.40:  Dens Mud Max 
 MOIL.                   57.40:  Run Mud Oil % 
 MOWR.                   70:30:  Run Mud OWR 
 MSND.                    0.00:  Run Mud Sand % 
 MSOL.                   18.00:  Run Mud Solids% 
 DFV .spqt               71.00:  Mud Viscosity 
 MWOD.in                  6.75:  MWD Tool OD 
 MWSI.                      No:  Serv Intrp, MWD 
 OTIM.hr                242.76:  Time Operating 
 PCON.           Look Like New:  Pad Condition 
 PMAX.psia            12183.92:  Press Op, Max 
 PV  .cP                 27.00:  Mud PV 
 RUN .                    1300:  Run Number 
 ROPA.m/hr               15.00:  ROP Avg 
 ROPN.m/hr                9.00:  ROP Min 
 ROPX.m/hr               19.00:  ROP Max 
 RPMA.rpm               120.00:  RPM Surface Avg 
 RPMN.rpm               100.00:  RPM Surface Min 
 RPMX.rpm               120.00:  RPM Surface Max 
 RRUN.                    1300:  Rig Run Number 
 RTIM.hr                  5.00:  Time Reaming 
 SAZI.deg               304.73:  Azm, Start 
 SDEP.m                4412.01:  Start Depth 
 SIDD.                      No:  Serv Intrp, DD 
 SINC.deg                66.82:  Inc, Start 
 SPPA.psig             2800.00:  SPP Avg 
 SPPN.psig             2610.00:  SPP Min 
 SPPX.psig             3100.00:  SPP Max 
 STIM.      03.30.00 04-May-21:  Start Time 
 SVCS.                 DD, MWD:  Services 
 SVER.                    9.20:  Sperry Version 
 TDAT.m                 228.00:  Tot Depth Attmp 
 TDDF.                      No:  Trip for DD 
 TDLG.m                 228.00:  Tot Depth Loggd 
 TFF .                      No:  Trip for Fail 
 TQAA.f-kp               15.00:  Torque Abs Avg 
 TQAN.f-kp               12.00:  Torque Abs Min 
 TQAX.f-kp               22.00:  Torque Abs Max 
 TRRT.°/30m               0.00:  Turn Rotating 
 MRT .                    HCIM:  Maximum Recorded Temperature 
 TTMX.degC               90.20:  Max Tool Temp 
 VS01.                90627813:  Virtual Str1 SN 
 VS02.                90634712:  Virtual Str2 SN 
 VS03.                90643410:  Virtual Str3 SN 
 VS04.                90634712:  Virtual Str4 SN 
 WBMN.klb                 9.00:  WOB Min 
 WITN.        Elmaddin Rahimov:  Customer Rep 
 WITN.         Haytham Mostafa:  Customer Rep 2 
 WOBA.klb                15.00:  WOB Avg 
 WOBX.klb                23.00:  WOB Max 
 YP  .lhf2               29.00:  Yield Point 
~Curve Information Block
#MNEM.UNIT                 API CODE     Curve Description
#---------               -----------    ---------------------------
 TIME.HHMMSS            00 000 000 000:  GT Time & Date
 GTDEPTH.m              00 000 000 000:  GT Depth
 GTPQH.psia             00 000 000 000:  GT HR Quartz Pressure
 GTTQ.degC              00 000 000 000:  GT Quartz Temperature
 GTTN.NONE              00 000 000 000:  GT Test Number
 GTET.sec               00 000 000 000:  GT Elapsed Test Time
 GTTVD.m                00 000 000 000:  GT True Vertical Depth
#Other Information
#
#WARRANTY: Halliburton will use its best efforts to furnish customers with 
#accurate information and interpretations that are part of, and incident to, the services 
#provided.  However, Halliburton cannot and does not warrant the accuracy 
#or correctness of such information and interpretations.  Under no circumstances should any 
#such information or interpretation be relied upon as the sole basis for any drilling, 
#completion, production, or financial decision or any procedure involving any risk to the 
#safety of any drilling venture, drilling rig or its crew or any other third party.  The 
#Customer has full responsibility for all drilling, completion and production operation.  
#Halliburton makes no representations or warranties, either expressed or 
#implied, including, but not limited to, the implied warranties of merchantability or fitness 
#for a particular purpose, with respect to the services rendered.  In no event will 
#Halliburton be liable for failure to obtain any particular results or for 
#any damages, including, but not limited to, indirect, special or consequential damages, 
#resulting from the use of any information or interpretation provided by Halliburton.
#
~A           TIME           GTDEPTH  GTPQH  GTTQ  GTTN   GTET   GTTVD  
# ...
   02:35:47.869.09-May-2021 4482.51 6725.58 67.81 11.00  22.60 2965.25
   02:35:48.069.09-May-2021 4482.51 6726.25 67.81 11.00  22.80 2965.25
   02:35:48.269.09-May-2021 4482.51 6729.04 67.81 11.00  23.00 2965.25
   02:35:48.470.09-May-2021 4482.51 6729.04 67.81 11.00  23.20 2965.25
   02:35:48.670.09-May-2021 4482.51 6728.13 67.81 11.00  23.40 2965.25
   02:35:48.870.09-May-2021 4482.51 6723.52 67.81 11.00  23.60 2965.25
   02:35:49.070.09-May-2021 4482.51 6723.64 67.81 11.00  23.80 2965.25
   02:35:49.270.09-May-2021 4482.51 6723.57 67.81 11.00  24.00 2965.25
   02:35:49.470.09-May-2021 4482.51 6723.57 67.81 11.00  24.20 2965.25
   02:35:49.670.09-May-2021 4482.51 6723.64 67.81 11.00  24.40 2965.25
   02:35:49.870.09-May-2021 4482.51 6723.84 67.81 11.00  24.60 2965.25
   02:35:50.070.09-May-2021 4482.51 6724.15 67.81 11.00  24.80 2965.25
   02:35:50.270.09-May-2021 4482.51 6724.21 67.81 11.00  25.00 2965.25
   02:35:50.470.09-May-2021 4482.51 6724.21 67.81 11.00  25.20 2965.25
   02:35:50.670.09-May-2021 4482.51 6725.40 67.81 11.00  25.40 2965.25
   02:35:50.870.09-May-2021 4482.51 6735.76 67.81 11.00  25.60 2965.25
   02:35:51.070.09-May-2021 4482.51 6729.79 67.81 11.00  25.80 2965.25
   02:35:51.270.09-May-2021 4482.51 6734.71 67.81 11.00  26.00 2965.25
   02:35:51.470.09-May-2021 4482.51 6734.71 67.81 11.00  26.20 2965.25
   02:35:51.670.09-May-2021 4482.51 6728.35 67.81 11.00  26.40 2965.25
   02:35:51.870.09-May-2021 4482.51 6727.46 67.80 11.00  26.60 2965.25
   02:35:52.070.09-May-2021 4482.51 6727.09 67.80 11.00  26.80 2965.25
   02:35:52.270.09-May-2021 4482.51 6726.81 67.80 11.00  27.00 2965.25
   02:35:52.470.09-May-2021 4482.51 6726.81 67.80 11.00  27.20 2965.25
   02:35:52.670.09-May-2021 4482.51 6726.57 67.80 11.00  27.40 2965.25
   02:35:52.870.09-May-2021 4482.51 6726.35 67.80 11.00  27.60 2965.25
   02:35:53.070.09-May-2021 4482.51 6725.93 67.80 11.00  27.80 2965.25
   02:35:53.270.09-May-2021 4482.51 6726.05 67.80 11.00  28.00 2965.25
   02:35:53.470.09-May-2021 4482.51 6726.05 67.80 11.00  28.20 2965.25
   02:35:53.670.09-May-2021 4482.51 6737.56 67.80 11.00  28.40 2965.25
   02:35:53.870.09-May-2021 4482.51 6735.23 67.80 11.00  28.60 2965.25
   02:35:54.070.09-May-2021 4482.51 6729.97 67.80 11.00  28.80 2965.25
   02:35:54.270.09-May-2021 4482.51 6738.27 67.80 11.00  29.00 2965.25
   02:35:54.471.09-May-2021 4482.51 6738.27 67.80 11.00  29.20 2965.25
   02:35:54.671.09-May-2021 4482.51 6794.79 67.80 11.00  29.40 2965.25
   02:35:54.871.09-May-2021 4482.51 6957.31 67.80 11.00  29.60 2965.25
   02:35:55.071.09-May-2021 4482.51 7028.21 67.80 11.00  29.80 2965.25
   02:35:55.271.09-May-2021 4482.51 7056.46 67.80 11.00  30.01 2965.25
   02:35:55.471.09-May-2021 4482.51 7056.46 67.80 11.00  30.21 2965.25
   02:35:55.671.09-May-2021 4482.51 7059.97 67.80 11.00  30.41 2965.25
   02:35:55.871.09-May-2021 4482.51 7051.29 67.80 11.00  30.61 2965.25
   02:35:56.071.09-May-2021 4482.51 7051.70 67.80 11.00  30.81 2965.25
   02:35:56.271.09-May-2021 4482.51 7050.47 67.80 11.00  31.01 2965.25
   02:35:56.471.09-May-2021 4482.51 7050.47 67.80 11.00  31.21 2965.25
   02:35:56.671.09-May-2021 4482.51 7048.62 67.80 11.00  31.41 2965.25
   02:35:56.871.09-May-2021 4482.51 7046.02 67.80 11.00  31.61 2965.25
   02:35:57.071.09-May-2021 4482.51 7047.93 67.80 11.00  31.81 2965.25
   02:35:57.271.09-May-2021 4482.51 7047.57 67.80 11.00  32.01 2965.25
   02:35:57.471.09-May-2021 4482.51 7047.57 67.80 11.00  32.21 2965.25
   02:35:57.671.09-May-2021 4482.51 7049.45 67.80 11.00  32.41 2965.25
   02:35:57.871.09-May-2021 4482.51 7048.74 67.80 11.00  32.61 2965.25
   02:35:58.071.09-May-2021 4482.51 7040.82 67.80 11.00  32.81 2965.25
   02:35:58.271.09-May-2021 4482.51 7026.22 67.80 11.00  33.01 2965.25
   02:35:58.471.09-May-2021 4482.51 7026.22 67.80 11.00  33.21 2965.25
   02:35:58.671.09-May-2021 4482.51 7022.97 67.80 11.00  33.41 2965.25
   02:35:58.871.09-May-2021 4482.51 7004.63 67.80 11.00  33.61 2965.25
   02:35:59.071.09-May-2021 4482.51 7016.64 67.80 11.00  33.81 2965.25
   02:35:59.271.09-May-2021 4482.51 6979.78 67.80 11.00  34.01 2965.25
   02:35:59.471.09-May-2021 4482.51 6979.78 67.80 11.00  34.21 2965.25
   02:35:59.671.09-May-2021 4482.51 6945.52 67.80 11.00  34.41 2965.25
   02:35:59.871.09-May-2021 4482.51 6911.53 67.80 11.00  34.61 2965.25
   02:36:00.071.09-May-2021 4482.51 6903.87 67.80 11.00  34.81 2965.25
   02:36:00.271.09-May-2021 4482.51 6899.18 67.80 11.00  35.01 2965.25
   02:36:00.472.09-May-2021 4482.51 6899.18 67.80 11.00  35.21 2965.25
   02:36:00.672.09-May-2021 4482.51 6959.24 67.80 11.00  35.41 2965.25
   02:36:00.872.09-May-2021 4482.51 6945.83 67.80 11.00  35.61 2965.25
   02:36:01.072.09-May-2021 4482.51 6958.53 67.80 11.00  35.81 2965.25
   02:36:01.272.09-May-2021 4482.51 7043.33 67.80 11.00  36.01 2965.25
   02:36:01.472.09-May-2021 4482.51 7043.33 67.80 11.00  36.21 2965.25
   02:36:01.672.09-May-2021 4482.51 7051.34 67.80 11.00  36.41 2965.25
   02:36:01.872.09-May-2021 4482.51 7049.12 67.80 11.00  36.61 2965.25
   02:36:02.072.09-May-2021 4482.51 7041.40 67.80 11.00  36.81 2965.25
   02:36:02.272.09-May-2021 4482.51 7030.59 67.80 11.00  37.01 2965.25
   02:36:02.472.09-May-2021 4482.51 7030.59 67.80 11.00  37.21 2965.25
   02:36:02.672.09-May-2021 4482.51 6997.92 67.80 11.00  37.41 2965.25
   02:36:02.872.09-May-2021 4482.51 6986.23 67.80 11.00  37.61 2965.25
   02:36:03.072.09-May-2021 4482.51 6977.54 67.80 11.00  37.81 2965.25
   02:36:03.272.09-May-2021 4482.51 6967.18 67.80 11.00  38.01 2965.25
   02:36:03.472.09-May-2021 4482.51 6967.18 67.80 11.00  38.21 2965.25
   02:36:03.672.09-May-2021 4482.51 6946.57 67.80 11.00  38.41 2965.25
   02:36:03.872.09-May-2021 4482.51 6937.99 67.80 11.00  38.61 2965.25
   02:36:04.072.09-May-2021 4482.51 6934.87 67.80 11.00  38.81 2965.25
   02:36:04.272.09-May-2021 4482.51 6928.94 67.80 11.00  39.01 2965.25
   02:36:04.472.09-May-2021 4482.51 6928.94 67.80 11.00  39.21 2965.25
   02:36:04.672.09-May-2021 4482.51 6739.20 67.80 11.00  39.41 2965.25
   02:36:04.872.09-May-2021 4482.51 6591.71 67.80 11.00  39.61 2965.25
   02:36:05.072.09-May-2021 4482.51 6444.61 67.80 11.00  39.81 2965.25
   02:36:05.272.09-May-2021 4482.51 6185.43 67.80 11.00  40.01 2965.25
   02:36:05.472.09-May-2021 4482.51 6185.43 67.80 11.00  40.21 2965.25
   02:36:05.672.09-May-2021 4482.51 5696.33 67.80 11.00  40.41 2965.25
   02:36:05.872.09-May-2021 4482.51 4803.08 67.80 11.00  40.61 2965.25
   02:36:06.072.09-May-2021 4482.51 4121.21 67.80 11.00  40.81 2965.25
   02:36:06.273.09-May-2021 4482.51 3771.15 67.80 11.00  41.01 2965.25
   02:36:06.473.09-May-2021 4482.51 3771.15 67.80 11.00  41.21 2965.25
   02:36:06.673.09-May-2021 4482.51 2389.29 67.80 11.00  41.41 2965.25
   02:36:06.873.09-May-2021 4482.51 1693.01 67.79 11.00  41.61 2965.25
   02:36:07.073.09-May-2021 4482.51 1155.45 67.79 11.00  41.81 2965.25
   02:36:07.273.09-May-2021 4482.51  812.19 67.79 11.00  42.01 2965.25
   02:36:07.473.09-May-2021 4482.51  812.19 67.79 11.00  42.21 2965.25
   02:36:07.673.09-May-2021 4482.51  655.85 67.78 11.00  42.41 2965.25
   02:36:07.873.09-May-2021 4482.51  627.38 67.78 11.00  42.61 2965.25
   02:36:08.073.09-May-2021 4482.51  618.43 67.78 11.00  42.81 2965.25
   02:36:08.273.09-May-2021 4482.51  615.34 67.77 11.00  43.01 2965.25
   02:36:08.473.09-May-2021 4482.51  615.34 67.77 11.00  43.21 2965.25
   02:36:08.673.09-May-2021 4482.51  610.28 67.77 11.00  43.41 2965.25
   02:36:08.873.09-May-2021 4482.51  603.97 67.76 11.00  43.61 2965.25
   02:36:09.073.09-May-2021 4482.51  603.99 67.76 11.00  43.81 2965.25
   02:36:09.273.09-May-2021 4482.51  609.56 67.75 11.00  44.01 2965.25
   02:36:09.473.09-May-2021 4482.51  609.56 67.75 11.00  44.21 2965.25
   02:36:09.673.09-May-2021 4482.51  613.44 67.75 11.00  44.41 2965.25
   02:36:09.873.09-May-2021 4482.51  608.27 67.74 11.00  44.61 2965.25
   02:36:10.073.09-May-2021 4482.51  597.56 67.74 11.00  44.81 2965.25
   02:36:10.273.09-May-2021 4482.51  588.91 67.73 11.00  45.01 2965.25
