~Version Information
 VERS.                  2.0:   CWLS log ASCII Standard -VERSION 2.0
 WRAP.                   NO:   One line per depth step
~Well Information Block
#MNEM.UNIT     VALUE/NAME     DESCRIPTION
#---------     -----------    ---------------------------
 STRT.S             00:47:21 09-May-21: START TIME 00:47:21 09-May-21
 STOP.S             00:54:19 09-May-21: STOP TIME  00:54:19 09-May-21
 STEP.S                   0.00: STEP TIME
 NULL.                 -999.25: NULL VALUE
 PROV.                    Baku:  PROVINCE
 STAT.                    Baku:  STATE NAME
 SON .        AZ-XX-0906571588:  JOB NUMBER
 WTYP.                Deviated:  WELL TYPE
 COMP.     BP Exploration (Caspian Sea) ltd:  COMPANY
 BASE.              Azerbaijan:  LOGGING EQUIPMENT BASE LOCATION
 REGN.                   EESSA:  REGION
 CTRY.              Azerbaijan:  COUNTRY NAME
 FLD .                     ACG:  FIELD NAME
 WELL.                     J28:  WELL NAME
 RIG .             West Chirag:  RIG NAME
 DMF .             Drill Floor:  DRILL MEAS FROM
 PDAT.       Caspian Sea Level:  PERMANENT DATUM
 HPTY.       Minimum Curvature:  HOLE POS TYPE
 MDS .        Operator Entered:  MAG DATA SOURCE
 NREF.                    Grid:  NORTH REFERENCE
 SRVC.          TURAN DRILLING:  CONTRACTOR
 JOBN.        AZ-XX-0906571588:  JOB TICKET NUMB
 DCON.     Halliburton Sperry Drilling:  DIRECTNL CONTR
 STIM.      00.44.00 11-Feb-21:  START TIME
 DATE.      00.00.00 05-May-21:  END TIME
 SPUD.               13-Feb-21:  SPUD DATE
 MWDS.                    Baku:  MWD SHOP
 DOE .                     N/A:  DOE NUMBER
 UNIT.                     N/A:  LOGGING EQUIPMENT ID
 UWI .                     N/A:  UNIQUE WELL IDENTIFIER
 API .                     N/A:  API NUMBER
 CNTY.                        :  COUNTY
 LOC .                        :  LOCATION
 LMF .             Drill Floor:  LOG MEASURED FROM
 TVDS.m                  43.00:  TVDSS CORRECTN
 SDEP.m                 341.00:  START DEPTH
 EGL .m                   0.00:  GROUND ELEVATION
 WDMS.m                 169.80:  WD ELEV
 AGAP.m                  43.00:  AIR GAP
 EPD .m                   0.00:  ELEVATION
 APD .m                  43.00:  DEPTH ABOVE PD
 LATI.deg                40.13:  LATITUDE
 LONG.deg                51.22:  LONGITUDE
 UTMY.m             4443793.85:  UTM Y
 UTMX.m              519005.06:  UTM X
 WHEW.m                 -11.57:  WELL HEAD E/W
 WHNS.m                   8.57:  WELL HEAD N/S
 VSEW.m                 -11.57:  VERT SEC E/W
 VSNS.m                   8.57:  VERT SEC N/S
 DFWL.m                   0.00:  DISTANCE FWL
 DFSL.m                   0.00:  DISTANCE FSL
 VSDR.deg               299.34:  VERT SEC DIRECT
 GVFD.g                   1.00:  GRAVITY FIELD
 AZTC.deg                 6.36:  AZM TOTAL CORR
 MFLD.nT              50391.00:  MAGNETIC FIELD
 MDIP.deg                59.65:  MAGNETIC DIP
 MDEC.deg                 6.48:  MAGNETIC DECL
 GRDC.deg                 0.12:  GRID CORRECTION
 DEP .m                 334.96:  DEPTH
 TDD .m                1407.26:  TOTAL DEPTH (DRILLER)
 EKB .m                  43.00:  KB ELEVATION
 EDF .m                  43.00:  DF ELEVATION
 TDL .m                 228.00:  TOTAL DEPTH (LOGGER)
 VSC .                       0:  VS TO CLOSURE
 MAGU.                 1854484:  MAGUTM CHECKSUM
~Parameter Information Block
#MNEM.UNIT       Value        Description
#---------     -----------    ---------------------------
 AV  .mps                 4.00:  Ann Velocity 
 AVMX.mps                 4.73:  Max Ann Veloc 
 AZIF.deg               304.48:  Azm, Final 
 BHAT.        Rotary Steerable:  BHA Type 
 BREV.rev            257300.00:  Rev Bit Total 
 BROT.°/30m               0.00:  Build Rotating 
 BS  .in                  8.50:  Bit Size 
 BSZ .in                  8.50:  Bit Size 
 BTPL.psig              589.00:  Bit Press Loss 
 CABU.                      No:  Customer Abuse 
 CGEO.          Mubariz ghayev:  Customer Geo 
 COMM.                     ­R:  Run Comments 1 
 TCS .hr                 64.25:  Time Ciculation Ended 
 CV  .mps                 3.50:  Crit Velocity 
 CVMX.mps                 4.52:  Max Crit Veloc 
 DD1 .             Aziz Aliyev:  Direct Drillr 1 
 DD2 .         Intigam Rahimov:  Direct Drillr 2 
 DD3 .          Rashad Habibov:  Direct Drillr 3 
 DDSV.               Geo-Pilot:  DD Service 
 DEFF.%                  98.00:  % Det Eff 
 DLRX.°/30m               0.00:  Dogleg Rot Max 
 DLSO.°/30m               0.00:  Dogleg Oriented 
 DLSX.°/30m               0.00:  Dogleg Str Max 
 DRET.      10.45.04 08-May-21:  Drill End Time 
 DRST.      03.30.04 04-May-21:  Drill Start Tim 
 DTIM.hr                 14.97:  Time Drilling 
 EDEP.m                4640.01:  End Depth 
 ENG1.         Dail Mahammadov:  Engineer 1 
 ENG2.           Eldar Hajiyev:  Engineer 2 
 ENG3.       Bakhtiar Jabbarli:  Engineer 3 
 ENG4.       Natik Hasanagayev:  Engineer 4 
 ETIM.      09.30.04 14-May-21:  End Time 
 FLOI.gpm               460.00:  Flow In 
 FLON.gpm               200.00:  Flow In Min 
 FLOS.cptm                0.00:  Fluid Loss 
 FLOX.gpm               505.00:  Flow In Max 
 HFLO.                      No:  High Flow 
 HPRE.                      No:  High Pressure 
 HTEM.                      No:  High Temp 
 HYDO.m                   1.80:  Hydro Offset 
 IFIN.deg                66.71:  Inc, Final 
 IMAX.deg                67.03:  Inc Max 
 IMIN.deg                66.63:  Inc Min 
 IMND.m                4550.58:  Inc Min Depth 
 IMXD.m                4439.01:  Inc Max Depth 
 JARR.                      No:  Jarring 
 LETM.      10.45.04 08-May-21:  Log End Time 
 LOST.hr                     0:  Lost Rig Time 
 LSTM.      03.30.04 04-May-21:  Log Start Time 
 MDCL.ppm             37000.00:  Mud Chlorides 
 MDES.     Inversion Oil/Synthetic:  Mud Desc 
 DFD .sg                  1.38:  Mud Density 
 MDMN.sg                  1.35:  Dens Mud Min 
 MDMX.sg                  1.40:  Dens Mud Max 
 MOIL.                   57.40:  Run Mud Oil % 
 MOWR.                   70:30:  Run Mud OWR 
 MSND.                    0.00:  Run Mud Sand % 
 MSOL.                   18.00:  Run Mud Solids% 
 DFV .spqt               71.00:  Mud Viscosity 
 MWOD.in                  6.75:  MWD Tool OD 
 MWSI.                      No:  Serv Intrp, MWD 
 OTIM.hr                242.76:  Time Operating 
 PCON.           Look Like New:  Pad Condition 
 PMAX.psia            12183.92:  Press Op, Max 
 PV  .cP                 27.00:  Mud PV 
 RUN .                    1300:  Run Number 
 ROPA.m/hr               15.00:  ROP Avg 
 ROPN.m/hr                9.00:  ROP Min 
 ROPX.m/hr               19.00:  ROP Max 
 RPMA.rpm               120.00:  RPM Surface Avg 
 RPMN.rpm               100.00:  RPM Surface Min 
 RPMX.rpm               120.00:  RPM Surface Max 
 RRUN.                    1300:  Rig Run Number 
 RTIM.hr                  5.00:  Time Reaming 
 SAZI.deg               304.73:  Azm, Start 
 SDEP.m                4412.01:  Start Depth 
 SIDD.                      No:  Serv Intrp, DD 
 SINC.deg                66.82:  Inc, Start 
 SPPA.psig             2800.00:  SPP Avg 
 SPPN.psig             2610.00:  SPP Min 
 SPPX.psig             3100.00:  SPP Max 
 STIM.      03.30.00 04-May-21:  Start Time 
 SVCS.                 DD, MWD:  Services 
 SVER.                    9.20:  Sperry Version 
 TDAT.m                 228.00:  Tot Depth Attmp 
 TDDF.                      No:  Trip for DD 
 TDLG.m                 228.00:  Tot Depth Loggd 
 TFF .                      No:  Trip for Fail 
 TQAA.f-kp               15.00:  Torque Abs Avg 
 TQAN.f-kp               12.00:  Torque Abs Min 
 TQAX.f-kp               22.00:  Torque Abs Max 
 TRRT.°/30m               0.00:  Turn Rotating 
 MRT .                    HCIM:  Maximum Recorded Temperature 
 TTMX.degC               90.20:  Max Tool Temp 
 VS01.                90627813:  Virtual Str1 SN 
 VS02.                90634712:  Virtual Str2 SN 
 VS03.                90643410:  Virtual Str3 SN 
 VS04.                90634712:  Virtual Str4 SN 
 WBMN.klb                 9.00:  WOB Min 
 WITN.        Elmaddin Rahimov:  Customer Rep 
 WITN.         Haytham Mostafa:  Customer Rep 2 
 WOBA.klb                15.00:  WOB Avg 
 WOBX.klb                23.00:  WOB Max 
 YP  .lhf2               29.00:  Yield Point 
~Curve Information Block
#MNEM.UNIT                 API CODE     Curve Description
#---------               -----------    ---------------------------
 TIME.HHMMSS            00 000 000 000:  GT Time & Date
 GTDEPTH.m              00 000 000 000:  GT Depth
 GTPQH.psia             00 000 000 000:  GT HR Quartz Pressure
 GTTQ.degC              00 000 000 000:  GT Quartz Temperature
 GTTN.NONE              00 000 000 000:  GT Test Number
 GTET.sec               00 000 000 000:  GT Elapsed Test Time
 GTTVD.m                00 000 000 000:  GT True Vertical Depth
#Other Information
#
#WARRANTY: Halliburton will use its best efforts to furnish customers with 
#accurate information and interpretations that are part of, and incident to, the services 
#provided.  However, Halliburton cannot and does not warrant the accuracy 
#or correctness of such information and interpretations.  Under no circumstances should any 
#such information or interpretation be relied upon as the sole basis for any drilling, 
#completion, production, or financial decision or any procedure involving any risk to the 
#safety of any drilling venture, drilling rig or its crew or any other third party.  The 
#Customer has full responsibility for all drilling, completion and production operation.  
#Halliburton makes no representations or warranties, either expressed or 
#implied, including, but not limited to, the implied warranties of merchantability or fitness 
#for a particular purpose, with respect to the services rendered.  In no event will 
#Halliburton be liable for failure to obtain any particular results or for 
#any damages, including, but not limited to, indirect, special or consequential damages, 
#resulting from the use of any information or interpretation provided by Halliburton.
#
~A           TIME           GTDEPTH  GTPQH  GTTQ  GTTN  GTET   GTTVD  
# ...
   00:47:44.235.09-May-2021 4512.01 6723.63 67.65 8.00  23.01 2976.83
   00:47:44.435.09-May-2021 4512.01 6723.63 67.65 8.00  23.21 2976.83
   00:47:44.635.09-May-2021 4512.01 6723.96 67.64 8.00  23.41 2976.83
   00:47:44.835.09-May-2021 4512.01 6724.42 67.64 8.00  23.61 2976.83
   00:47:45.035.09-May-2021 4512.01 6724.37 67.64 8.00  23.81 2976.83
   00:47:45.235.09-May-2021 4512.01 6724.73 67.64 8.00  24.01 2976.83
   00:47:45.436.09-May-2021 4512.01 6724.73 67.64 8.00  24.21 2976.83
   00:47:45.636.09-May-2021 4512.01 6730.88 67.64 8.00  24.41 2976.83
   00:47:45.836.09-May-2021 4512.01 6731.30 67.64 8.00  24.61 2976.83
   00:47:46.036.09-May-2021 4512.01 6733.56 67.64 8.00  24.81 2976.83
   00:47:46.236.09-May-2021 4512.01 6732.21 67.64 8.00  25.01 2976.83
   00:47:46.436.09-May-2021 4512.01 6732.21 67.64 8.00  25.21 2976.83
   00:47:46.636.09-May-2021 4512.01 6727.73 67.64 8.00  25.41 2976.83
   00:47:46.836.09-May-2021 4512.01 6728.32 67.64 8.00  25.61 2976.83
   00:47:47.036.09-May-2021 4512.01 6727.90 67.64 8.00  25.81 2976.83
   00:47:47.236.09-May-2021 4512.01 6727.96 67.64 8.00  26.01 2976.83
   00:47:47.436.09-May-2021 4512.01 6727.96 67.64 8.00  26.21 2976.83
   00:47:47.636.09-May-2021 4512.01 6728.01 67.64 8.00  26.41 2976.83
   00:47:47.836.09-May-2021 4512.01 6728.57 67.64 8.00  26.61 2976.83
   00:47:48.036.09-May-2021 4512.01 6728.45 67.64 8.00  26.81 2976.83
   00:47:48.237.09-May-2021 4512.01 6728.96 67.64 8.00  27.01 2976.83
   00:47:48.437.09-May-2021 4512.01 6728.96 67.64 8.00  27.21 2976.83
   00:47:48.637.09-May-2021 4512.01 6737.21 67.64 8.00  27.41 2976.83
   00:47:48.837.09-May-2021 4512.01 6736.68 67.64 8.00  27.61 2976.83
   00:47:49.037.09-May-2021 4512.01 6741.39 67.64 8.00  27.81 2976.83
   00:47:49.237.09-May-2021 4512.01 6736.45 67.64 8.00  28.01 2976.83
   00:47:49.437.09-May-2021 4512.01 6736.45 67.64 8.00  28.21 2976.83
   00:47:49.637.09-May-2021 4512.01 6734.70 67.64 8.00  28.41 2976.83
   00:47:49.837.09-May-2021 4512.01 6735.40 67.64 8.00  28.61 2976.83
   00:47:50.037.09-May-2021 4512.01 6742.69 67.64 8.00  28.81 2976.83
   00:47:50.237.09-May-2021 4512.01 6740.95 67.64 8.00  29.01 2976.83
   00:47:50.437.09-May-2021 4512.01 6740.95 67.64 8.00  29.21 2976.83
   00:47:50.637.09-May-2021 4512.01 6732.26 67.64 8.00  29.41 2976.83
   00:47:50.837.09-May-2021 4512.01 6734.55 67.64 8.00  29.61 2976.83
   00:47:51.038.09-May-2021 4512.01 6742.49 67.64 8.00  29.81 2976.83
   00:47:51.238.09-May-2021 4512.01 6737.68 67.64 8.00  30.01 2976.83
   00:47:51.438.09-May-2021 4512.01 6737.68 67.64 8.00  30.21 2976.83
   00:47:51.638.09-May-2021 4512.01 6739.01 67.64 8.00  30.41 2976.83
   00:47:51.838.09-May-2021 4512.01 6737.94 67.64 8.00  30.61 2976.83
   00:47:52.038.09-May-2021 4512.01 6736.60 67.64 8.00  30.81 2976.83
   00:47:52.238.09-May-2021 4512.01 6736.21 67.64 8.00  31.01 2976.83
   00:47:52.438.09-May-2021 4512.01 6736.21 67.64 8.00  31.21 2976.83
   00:47:52.638.09-May-2021 4512.01 6736.47 67.64 8.00  31.41 2976.83
   00:47:52.838.09-May-2021 4512.01 6737.07 67.64 8.00  31.61 2976.83
   00:47:53.038.09-May-2021 4512.01 6736.95 67.64 8.00  31.81 2976.83
   00:47:53.238.09-May-2021 4512.01 6737.46 67.64 8.00  32.01 2976.83
   00:47:53.438.09-May-2021 4512.01 6737.46 67.64 8.00  32.21 2976.83
   00:47:53.639.09-May-2021 4512.01 6743.43 67.64 8.00  32.41 2976.83
   00:47:53.839.09-May-2021 4512.01 6741.71 67.64 8.00  32.61 2976.83
   00:47:54.039.09-May-2021 4512.01 6807.03 67.64 8.00  32.81 2976.83
   00:47:54.239.09-May-2021 4512.01 6913.52 67.64 8.00  33.01 2976.83
   00:47:54.439.09-May-2021 4512.01 6913.52 67.64 8.00  33.21 2976.83
   00:47:54.639.09-May-2021 4512.01 6974.06 67.64 8.00  33.41 2976.83
   00:47:54.839.09-May-2021 4512.01 6994.79 67.64 8.00  33.61 2976.83
   00:47:55.039.09-May-2021 4512.01 6995.30 67.64 8.00  33.81 2976.83
   00:47:55.239.09-May-2021 4512.01 6997.70 67.64 8.00  34.01 2976.83
   00:47:55.439.09-May-2021 4512.01 6997.70 67.64 8.00  34.21 2976.83
   00:47:55.639.09-May-2021 4512.01 7003.16 67.64 8.00  34.41 2976.83
   00:47:55.839.09-May-2021 4512.01 7006.77 67.64 8.00  34.61 2976.83
   00:47:56.039.09-May-2021 4512.01 7010.36 67.64 8.00  34.81 2976.83
   00:47:56.239.09-May-2021 4512.01 7015.16 67.64 8.00  35.01 2976.83
   00:47:56.440.09-May-2021 4512.01 7015.16 67.64 8.00  35.21 2976.83
   00:47:56.640.09-May-2021 4512.01 7023.56 67.64 8.00  35.41 2976.83
   00:47:56.840.09-May-2021 4512.01 7028.56 67.64 8.00  35.61 2976.83
   00:47:57.040.09-May-2021 4512.01 7031.26 67.64 8.00  35.81 2976.83
   00:47:57.240.09-May-2021 4512.01 7029.57 67.64 8.00  36.01 2976.83
   00:47:57.440.09-May-2021 4512.01 7029.57 67.64 8.00  36.21 2976.83
   00:47:57.640.09-May-2021 4512.01 7035.65 67.64 8.00  36.41 2976.83
   00:47:57.840.09-May-2021 4512.01 7040.83 67.64 8.00  36.61 2976.83
   00:47:58.040.09-May-2021 4512.01 7053.50 67.64 8.00  36.81 2976.83
   00:47:58.240.09-May-2021 4512.01 7057.87 67.64 8.00  37.01 2976.83
   00:47:58.440.09-May-2021 4512.01 7057.87 67.64 8.00  37.21 2976.83
   00:47:58.640.09-May-2021 4512.01 7071.17 67.64 8.00  37.41 2976.83
   00:47:58.840.09-May-2021 4512.01 7072.70 67.64 8.00  37.61 2976.83
   00:47:59.040.09-May-2021 4512.01 7063.85 67.64 8.00  37.81 2976.83
   00:47:59.241.09-May-2021 4512.01 7057.05 67.64 8.00  38.01 2976.83
   00:47:59.441.09-May-2021 4512.01 7057.05 67.64 8.00  38.21 2976.83
   00:47:59.641.09-May-2021 4512.01 7019.10 67.64 8.00  38.41 2976.83
   00:47:59.841.09-May-2021 4512.01 6994.06 67.64 8.00  38.61 2976.83
   00:48:00.041.09-May-2021 4512.01 6968.56 67.64 8.00  38.81 2976.83
   00:48:00.241.09-May-2021 4512.01 6944.69 67.64 8.00  39.01 2976.83
   00:48:00.441.09-May-2021 4512.01 6944.69 67.64 8.00  39.21 2976.83
   00:48:00.641.09-May-2021 4512.01 6914.55 67.64 8.00  39.41 2976.83
   00:48:00.841.09-May-2021 4512.01 6905.27 67.64 8.00  39.61 2976.83
   00:48:01.041.09-May-2021 4512.01 6895.08 67.64 8.00  39.81 2976.83
   00:48:01.241.09-May-2021 4512.01 6886.30 67.64 8.00  40.01 2976.83
   00:48:01.441.09-May-2021 4512.01 6886.30 67.64 8.00  40.21 2976.83
   00:48:01.641.09-May-2021 4512.01 6874.88 67.64 8.00  40.41 2976.83
   00:48:01.841.09-May-2021 4512.01 6871.08 67.64 8.00  40.61 2976.83
   00:48:02.042.09-May-2021 4512.01 6867.07 67.64 8.00  40.81 2976.83
   00:48:02.242.09-May-2021 4512.01 6860.45 67.64 8.00  41.01 2976.83
   00:48:02.442.09-May-2021 4512.01 6860.45 67.64 8.00  41.21 2976.83
   00:48:02.642.09-May-2021 4512.01 6651.21 67.64 8.00  41.42 2976.83
   00:48:02.842.09-May-2021 4512.01 6517.57 67.64 8.00  41.62 2976.83
   00:48:03.042.09-May-2021 4512.01 6261.43 67.64 8.00  41.82 2976.83
   00:48:03.242.09-May-2021 4512.01 5734.35 67.64 8.00  42.02 2976.83
   00:48:03.442.09-May-2021 4512.01 5734.35 67.64 8.00  42.22 2976.83
   00:48:03.642.09-May-2021 4512.01 4624.56 67.64 8.00  42.42 2976.83
   00:48:03.842.09-May-2021 4512.01 4445.40 67.64 8.00  42.62 2976.83
   00:48:04.042.09-May-2021 4512.01 3789.17 67.64 8.00  42.82 2976.83
   00:48:04.242.09-May-2021 4512.01 3225.70 67.64 8.00  43.02 2976.83
   00:48:04.442.09-May-2021 4512.01 3225.70 67.64 8.00  43.22 2976.83
   00:48:04.642.09-May-2021 4512.01 3095.78 67.63 8.00  43.42 2976.83
   00:48:04.843.09-May-2021 4512.01 3112.25 67.63 8.00  43.62 2976.83
   00:48:05.043.09-May-2021 4512.01 3075.02 67.63 8.00  43.82 2976.83
   00:48:05.243.09-May-2021 4512.01 3061.87 67.63 8.00  44.02 2976.83
   00:48:05.443.09-May-2021 4512.01 3061.87 67.63 8.00  44.22 2976.83
   00:48:05.643.09-May-2021 4512.01 3059.94 67.62 8.00  44.42 2976.83
   00:48:05.843.09-May-2021 4512.01 3077.59 67.62 8.00  44.62 2976.83
   00:48:06.043.09-May-2021 4512.01 3047.25 67.62 8.00  44.82 2976.83
   00:48:06.243.09-May-2021 4512.01 3058.99 67.61 8.00  45.02 2976.83
   00:48:06.443.09-May-2021 4512.01 3058.99 67.61 8.00  45.22 2976.83
   00:48:06.643.09-May-2021 4512.01 3061.31 67.61 8.00  45.42 2976.83
   00:48:06.843.09-May-2021 4512.01 3008.10 67.61 8.00  45.62 2976.83
   00:48:07.043.09-May-2021 4512.01 3038.08 67.60 8.00  45.82 2976.83
