~Version Information
 VERS.                  2.0:   CWLS log ASCII Standard -VERSION 2.0
 WRAP.                   NO:   One line per depth step
~Well Information Block
#MNEM.UNIT     VALUE/NAME     DESCRIPTION
#---------     -----------    ---------------------------
 STRT.S             20:58:23 08-May-21: START TIME 20:58:23 08-May-21
 STOP.S             21:05:15 08-May-21: STOP TIME  21:05:15 08-May-21
 STEP.S                   0.00: STEP TIME
 NULL.                 -999.25: NULL VALUE
 PROV.                    Baku:  PROVINCE
 STAT.                    Baku:  STATE NAME
 SON .        AZ-XX-0906571588:  JOB NUMBER
 WTYP.                Deviated:  WELL TYPE
 COMP.     BP Exploration (Caspian Sea) ltd:  COMPANY
 BASE.              Azerbaijan:  LOGGING EQUIPMENT BASE LOCATION
 REGN.                   EESSA:  REGION
 CTRY.              Azerbaijan:  COUNTRY NAME
 FLD .                     ACG:  FIELD NAME
 WELL.                     J28:  WELL NAME
 RIG .             West Chirag:  RIG NAME
 DMF .             Drill Floor:  DRILL MEAS FROM
 PDAT.       Caspian Sea Level:  PERMANENT DATUM
 HPTY.       Minimum Curvature:  HOLE POS TYPE
 MDS .        Operator Entered:  MAG DATA SOURCE
 NREF.                    Grid:  NORTH REFERENCE
 SRVC.          TURAN DRILLING:  CONTRACTOR
 JOBN.        AZ-XX-0906571588:  JOB TICKET NUMB
 DCON.     Halliburton Sperry Drilling:  DIRECTNL CONTR
 STIM.      00.44.00 11-Feb-21:  START TIME
 DATE.      00.00.00 05-May-21:  END TIME
 SPUD.               13-Feb-21:  SPUD DATE
 MWDS.                    Baku:  MWD SHOP
 DOE .                     N/A:  DOE NUMBER
 UNIT.                     N/A:  LOGGING EQUIPMENT ID
 UWI .                     N/A:  UNIQUE WELL IDENTIFIER
 API .                     N/A:  API NUMBER
 CNTY.                        :  COUNTY
 LOC .                        :  LOCATION
 LMF .             Drill Floor:  LOG MEASURED FROM
 TVDS.m                  43.00:  TVDSS CORRECTN
 SDEP.m                 341.00:  START DEPTH
 EGL .m                   0.00:  GROUND ELEVATION
 WDMS.m                 169.80:  WD ELEV
 AGAP.m                  43.00:  AIR GAP
 EPD .m                   0.00:  ELEVATION
 APD .m                  43.00:  DEPTH ABOVE PD
 LATI.deg                40.13:  LATITUDE
 LONG.deg                51.22:  LONGITUDE
 UTMY.m             4443793.85:  UTM Y
 UTMX.m              519005.06:  UTM X
 WHEW.m                 -11.57:  WELL HEAD E/W
 WHNS.m                   8.57:  WELL HEAD N/S
 VSEW.m                 -11.57:  VERT SEC E/W
 VSNS.m                   8.57:  VERT SEC N/S
 DFWL.m                   0.00:  DISTANCE FWL
 DFSL.m                   0.00:  DISTANCE FSL
 VSDR.deg               299.34:  VERT SEC DIRECT
 GVFD.g                   1.00:  GRAVITY FIELD
 AZTC.deg                 6.36:  AZM TOTAL CORR
 MFLD.nT              50391.00:  MAGNETIC FIELD
 MDIP.deg                59.65:  MAGNETIC DIP
 MDEC.deg                 6.48:  MAGNETIC DECL
 GRDC.deg                 0.12:  GRID CORRECTION
 DEP .m                 334.96:  DEPTH
 TDD .m                1407.26:  TOTAL DEPTH (DRILLER)
 EKB .m                  43.00:  KB ELEVATION
 EDF .m                  43.00:  DF ELEVATION
 TDL .m                 228.00:  TOTAL DEPTH (LOGGER)
 VSC .                       0:  VS TO CLOSURE
 MAGU.                 1854484:  MAGUTM CHECKSUM
~Parameter Information Block
#MNEM.UNIT       Value        Description
#---------     -----------    ---------------------------
 AV  .mps                 4.00:  Ann Velocity 
 AVMX.mps                 4.73:  Max Ann Veloc 
 AZIF.deg               304.48:  Azm, Final 
 BHAT.        Rotary Steerable:  BHA Type 
 BREV.rev            257300.00:  Rev Bit Total 
 BROT.°/30m               0.00:  Build Rotating 
 BS  .in                  8.50:  Bit Size 
 BSZ .in                  8.50:  Bit Size 
 BTPL.psig              589.00:  Bit Press Loss 
 CABU.                      No:  Customer Abuse 
 CGEO.          Mubariz ghayev:  Customer Geo 
 COMM.                     ”<v:  Run Comments 1 
 TCS .hr                 64.25:  Time Ciculation Ended 
 CV  .mps                 3.50:  Crit Velocity 
 CVMX.mps                 4.52:  Max Crit Veloc 
 DD1 .             Aziz Aliyev:  Direct Drillr 1 
 DD2 .         Intigam Rahimov:  Direct Drillr 2 
 DD3 .          Rashad Habibov:  Direct Drillr 3 
 DDSV.               Geo-Pilot:  DD Service 
 DEFF.%                  98.00:  % Det Eff 
 DLRX.°/30m               0.00:  Dogleg Rot Max 
 DLSO.°/30m               0.00:  Dogleg Oriented 
 DLSX.°/30m               0.00:  Dogleg Str Max 
 DRET.      10.45.04 08-May-21:  Drill End Time 
 DRST.      03.30.04 04-May-21:  Drill Start Tim 
 DTIM.hr                 14.97:  Time Drilling 
 EDEP.m                4640.01:  End Depth 
 ENG1.         Dail Mahammadov:  Engineer 1 
 ENG2.           Eldar Hajiyev:  Engineer 2 
 ENG3.       Bakhtiar Jabbarli:  Engineer 3 
 ENG4.       Natik Hasanagayev:  Engineer 4 
 ETIM.      09.30.04 14-May-21:  End Time 
 FLOI.gpm               460.00:  Flow In 
 FLON.gpm               200.00:  Flow In Min 
 FLOS.cptm                0.00:  Fluid Loss 
 FLOX.gpm               505.00:  Flow In Max 
 HFLO.                      No:  High Flow 
 HPRE.                      No:  High Pressure 
 HTEM.                      No:  High Temp 
 HYDO.m                   1.80:  Hydro Offset 
 IFIN.deg                66.71:  Inc, Final 
 IMAX.deg                67.03:  Inc Max 
 IMIN.deg                66.63:  Inc Min 
 IMND.m                4550.58:  Inc Min Depth 
 IMXD.m                4439.01:  Inc Max Depth 
 JARR.                      No:  Jarring 
 LETM.      10.45.04 08-May-21:  Log End Time 
 LOST.hr                     0:  Lost Rig Time 
 LSTM.      03.30.04 04-May-21:  Log Start Time 
 MDCL.ppm             37000.00:  Mud Chlorides 
 MDES.     Inversion Oil/Synthetic:  Mud Desc 
 DFD .sg                  1.38:  Mud Density 
 MDMN.sg                  1.35:  Dens Mud Min 
 MDMX.sg                  1.40:  Dens Mud Max 
 MOIL.                   57.40:  Run Mud Oil % 
 MOWR.                   70:30:  Run Mud OWR 
 MSND.                    0.00:  Run Mud Sand % 
 MSOL.                   18.00:  Run Mud Solids% 
 DFV .spqt               71.00:  Mud Viscosity 
 MWOD.in                  6.75:  MWD Tool OD 
 MWSI.                      No:  Serv Intrp, MWD 
 OTIM.hr                242.76:  Time Operating 
 PCON.           Look Like New:  Pad Condition 
 PMAX.psia            12183.92:  Press Op, Max 
 PV  .cP                 27.00:  Mud PV 
 RUN .                    1300:  Run Number 
 ROPA.m/hr               15.00:  ROP Avg 
 ROPN.m/hr                9.00:  ROP Min 
 ROPX.m/hr               19.00:  ROP Max 
 RPMA.rpm               120.00:  RPM Surface Avg 
 RPMN.rpm               100.00:  RPM Surface Min 
 RPMX.rpm               120.00:  RPM Surface Max 
 RRUN.                    1300:  Rig Run Number 
 RTIM.hr                  5.00:  Time Reaming 
 SAZI.deg               304.73:  Azm, Start 
 SDEP.m                4412.01:  Start Depth 
 SIDD.                      No:  Serv Intrp, DD 
 SINC.deg                66.82:  Inc, Start 
 SPPA.psig             2800.00:  SPP Avg 
 SPPN.psig             2610.00:  SPP Min 
 SPPX.psig             3100.00:  SPP Max 
 STIM.      03.30.00 04-May-21:  Start Time 
 SVCS.                 DD, MWD:  Services 
 SVER.                    9.20:  Sperry Version 
 TDAT.m                 228.00:  Tot Depth Attmp 
 TDDF.                      No:  Trip for DD 
 TDLG.m                 228.00:  Tot Depth Loggd 
 TFF .                      No:  Trip for Fail 
 TQAA.f-kp               15.00:  Torque Abs Avg 
 TQAN.f-kp               12.00:  Torque Abs Min 
 TQAX.f-kp               22.00:  Torque Abs Max 
 TRRT.°/30m               0.00:  Turn Rotating 
 MRT .                    HCIM:  Maximum Recorded Temperature 
 TTMX.degC               90.20:  Max Tool Temp 
 VS01.                90627813:  Virtual Str1 SN 
 VS02.                90634712:  Virtual Str2 SN 
 VS03.                90643410:  Virtual Str3 SN 
 VS04.                90634712:  Virtual Str4 SN 
 WBMN.klb                 9.00:  WOB Min 
 WITN.        Elmaddin Rahimov:  Customer Rep 
 WITN.         Haytham Mostafa:  Customer Rep 2 
 WOBA.klb                15.00:  WOB Avg 
 WOBX.klb                23.00:  WOB Max 
 YP  .lhf2               29.00:  Yield Point 
~Curve Information Block
#MNEM.UNIT                 API CODE     Curve Description
#---------               -----------    ---------------------------
 TIME.HHMMSS            00 000 000 000:  GT Time & Date
 GTDEPTH.m              00 000 000 000:  GT Depth
 GTPQH.psia             00 000 000 000:  GT HR Quartz Pressure
 GTTQ.degC              00 000 000 000:  GT Quartz Temperature
 GTTN.NONE              00 000 000 000:  GT Test Number
 GTET.sec               00 000 000 000:  GT Elapsed Test Time
 GTTVD.m                00 000 000 000:  GT True Vertical Depth
#Other Information
#
#WARRANTY: Halliburton will use its best efforts to furnish customers with 
#accurate information and interpretations that are part of, and incident to, the services 
#provided.  However, Halliburton cannot and does not warrant the accuracy 
#or correctness of such information and interpretations.  Under no circumstances should any 
#such information or interpretation be relied upon as the sole basis for any drilling, 
#completion, production, or financial decision or any procedure involving any risk to the 
#safety of any drilling venture, drilling rig or its crew or any other third party.  The 
#Customer has full responsibility for all drilling, completion and production operation.  
#Halliburton makes no representations or warranties, either expressed or 
#implied, including, but not limited to, the implied warranties of merchantability or fitness 
#for a particular purpose, with respect to the services rendered.  In no event will 
#Halliburton be liable for failure to obtain any particular results or for 
#any damages, including, but not limited to, indirect, special or consequential damages, 
#resulting from the use of any information or interpretation provided by Halliburton.
#
~A           TIME           GTDEPTH  GTPQH  GTTQ  GTTN  GTET   GTTVD  
# ...
   21:00:41.794.08-May-2021 4593.01 3777.71 69.01 2.00 138.01 3008.90
   21:00:41.994.08-May-2021 4593.01 3777.71 69.01 2.00 138.21 3008.90
   21:00:42.194.08-May-2021 4593.01 3777.65 69.01 2.00 138.41 3008.90
   21:00:42.394.08-May-2021 4593.01 3777.72 69.01 2.00 138.61 3008.90
   21:00:42.594.08-May-2021 4593.01 3777.49 69.01 2.00 138.81 3008.90
   21:00:42.794.08-May-2021 4593.01 3777.90 69.01 2.00 139.01 3008.90
   21:00:42.994.08-May-2021 4593.01 3777.90 69.01 2.00 139.21 3008.90
   21:00:43.194.08-May-2021 4593.01 3777.67 69.01 2.00 139.41 3008.90
   21:00:43.394.08-May-2021 4593.01 3777.56 69.01 2.00 139.61 3008.90
   21:00:43.594.08-May-2021 4593.01 3777.70 69.01 2.00 139.81 3008.90
   21:00:43.794.08-May-2021 4593.01 3777.60 69.01 2.00 140.01 3008.90
   21:00:43.994.08-May-2021 4593.01 3777.60 69.01 2.00 140.21 3008.90
   21:00:44.194.08-May-2021 4593.01 3777.72 69.01 2.00 140.41 3008.90
   21:00:44.394.08-May-2021 4593.01 3777.57 69.01 2.00 140.61 3008.90
   21:00:44.594.08-May-2021 4593.01 3777.57 69.01 2.00 140.81 3008.90
   21:00:44.794.08-May-2021 4593.01 3777.78 69.01 2.00 141.01 3008.90
   21:00:44.994.08-May-2021 4593.01 3777.78 69.01 2.00 141.21 3008.90
   21:00:45.194.08-May-2021 4593.01 3777.52 69.01 2.00 141.41 3008.90
   21:00:45.394.08-May-2021 4593.01 3778.00 69.01 2.00 141.61 3008.90
   21:00:45.594.08-May-2021 4593.01 3777.42 69.01 2.00 141.81 3008.90
   21:00:45.794.08-May-2021 4593.01 3777.68 69.01 2.00 142.01 3008.90
   21:00:45.994.08-May-2021 4593.01 3777.68 69.01 2.00 142.21 3008.90
   21:00:46.194.08-May-2021 4593.01 3777.76 69.01 2.00 142.41 3008.90
   21:00:46.394.08-May-2021 4593.01 3777.52 69.01 2.00 142.61 3008.90
   21:00:46.594.08-May-2021 4593.01 3777.57 69.01 2.00 142.81 3008.90
   21:00:46.794.08-May-2021 4593.01 3777.70 69.01 2.00 143.01 3008.90
   21:00:46.994.08-May-2021 4593.01 3777.70 69.01 2.00 143.21 3008.90
   21:00:47.194.08-May-2021 4593.01 3758.42 69.01 2.00 143.41 3008.90
   21:00:47.395.08-May-2021 4593.01 3514.69 69.01 2.00 143.61 3008.90
   21:00:47.595.08-May-2021 4593.01 3342.73 69.01 2.00 143.81 3008.90
   21:00:47.795.08-May-2021 4593.01 3266.57 69.01 2.00 144.01 3008.90
   21:00:47.995.08-May-2021 4593.01 3266.57 69.01 2.00 144.21 3008.90
   21:00:48.195.08-May-2021 4593.01 3185.96 69.01 2.00 144.41 3008.90
   21:00:48.395.08-May-2021 4593.01 3138.84 69.01 2.00 144.61 3008.90
   21:00:48.595.08-May-2021 4593.01 3082.47 69.01 2.00 144.81 3008.90
   21:00:48.795.08-May-2021 4593.01 3040.00 69.01 2.00 145.01 3008.90
   21:00:48.995.08-May-2021 4593.01 3040.00 69.01 2.00 145.22 3008.90
   21:00:49.195.08-May-2021 4593.01 2960.06 69.01 2.00 145.42 3008.90
   21:00:49.395.08-May-2021 4593.01 2916.14 69.01 2.00 145.62 3008.90
   21:00:49.595.08-May-2021 4593.01 2875.31 69.01 2.00 145.82 3008.90
   21:00:49.795.08-May-2021 4593.01 2837.89 69.01 2.00 146.02 3008.90
   21:00:49.995.08-May-2021 4593.01 2837.89 69.01 2.00 146.22 3008.90
   21:00:50.195.08-May-2021 4593.01 2774.84 69.01 2.00 146.42 3008.90
   21:00:50.395.08-May-2021 4593.01 2743.84 69.01 2.00 146.62 3008.90
   21:00:50.595.08-May-2021 4593.01 2714.18 69.01 2.00 146.82 3008.90
   21:00:50.795.08-May-2021 4593.01 2670.89 69.01 2.00 147.02 3008.90
   21:00:50.995.08-May-2021 4593.01 2670.89 69.01 2.00 147.22 3008.90
   21:00:51.195.08-May-2021 4593.01 2587.99 69.00 2.00 147.42 3008.90
   21:00:51.395.08-May-2021 4593.01 2564.43 69.00 2.00 147.62 3008.90
   21:00:51.595.08-May-2021 4593.01 2538.04 69.00 2.00 147.82 3008.90
   21:00:51.795.08-May-2021 4593.01 2517.86 69.00 2.00 148.02 3008.90
   21:00:51.995.08-May-2021 4593.01 2517.86 69.00 2.00 148.22 3008.90
   21:00:52.195.08-May-2021 4593.01 2498.39 69.00 2.00 148.42 3008.90
   21:00:52.395.08-May-2021 4593.01 2484.69 69.00 2.00 148.62 3008.90
   21:00:52.595.08-May-2021 4593.01 2477.58 69.00 2.00 148.82 3008.90
   21:00:52.795.08-May-2021 4593.01 2467.61 69.00 2.00 149.02 3008.90
   21:00:52.995.08-May-2021 4593.01 2467.61 69.00 2.00 149.22 3008.90
   21:00:53.195.08-May-2021 4593.01 2446.12 69.00 2.00 149.42 3008.90
   21:00:53.395.08-May-2021 4593.01 2439.62 69.00 2.00 149.62 3008.90
   21:00:53.595.08-May-2021 4593.01 2422.11 69.00 2.00 149.82 3008.90
   21:00:53.795.08-May-2021 4593.01 2407.78 68.99 2.00 150.02 3008.90
   21:00:53.995.08-May-2021 4593.01 2407.78 68.99 2.00 150.22 3008.90
   21:00:54.195.08-May-2021 4593.01 2360.59 68.99 2.00 150.42 3008.90
   21:00:54.395.08-May-2021 4593.01 2301.10 68.99 2.00 150.62 3008.90
   21:00:54.595.08-May-2021 4593.01 2242.91 68.99 2.00 150.82 3008.90
   21:00:54.795.08-May-2021 4593.01 2196.44 68.99 2.00 151.02 3008.90
   21:00:54.995.08-May-2021 4593.01 2196.44 68.99 2.00 151.22 3008.90
   21:00:55.195.08-May-2021 4593.01 2128.65 68.99 2.00 151.42 3008.90
   21:00:55.395.08-May-2021 4593.01 2091.91 68.99 2.00 151.62 3008.90
   21:00:55.595.08-May-2021 4593.01 2038.30 68.99 2.00 151.82 3008.90
   21:00:55.795.08-May-2021 4593.01 2009.52 68.99 2.00 152.02 3008.90
   21:00:55.995.08-May-2021 4593.01 2009.52 68.99 2.00 152.22 3008.90
   21:00:56.195.08-May-2021 4593.01 1968.91 68.99 2.00 152.42 3008.90
   21:00:56.395.08-May-2021 4593.01 1951.31 68.99 2.00 152.62 3008.90
   21:00:56.595.08-May-2021 4593.01 1914.76 68.98 2.00 152.82 3008.90
   21:00:56.795.08-May-2021 4593.01 1891.71 68.98 2.00 153.02 3008.90
   21:00:56.996.08-May-2021 4593.01 1891.71 68.98 2.00 153.22 3008.90
   21:00:57.196.08-May-2021 4593.01 1849.96 68.98 2.00 153.42 3008.90
   21:00:57.396.08-May-2021 4593.01 1956.15 68.98 2.00 153.62 3008.90
   21:00:57.596.08-May-2021 4593.01 2367.84 68.98 2.00 153.82 3008.90
   21:00:57.796.08-May-2021 4593.01 2719.13 68.98 2.00 154.02 3008.90
   21:00:57.996.08-May-2021 4593.01 2719.13 68.98 2.00 154.22 3008.90
   21:00:58.196.08-May-2021 4593.01 3217.82 68.98 2.00 154.42 3008.90
   21:00:58.396.08-May-2021 4593.01 3374.63 68.98 2.00 154.62 3008.90
   21:00:58.596.08-May-2021 4593.01 3490.77 68.98 2.00 154.82 3008.90
   21:00:58.796.08-May-2021 4593.01 3575.67 68.98 2.00 155.02 3008.90
   21:00:58.996.08-May-2021 4593.01 3575.67 68.98 2.00 155.22 3008.90
   21:00:59.196.08-May-2021 4593.01 3680.26 68.98 2.00 155.42 3008.90
   21:00:59.396.08-May-2021 4593.01 3711.10 68.98 2.00 155.62 3008.90
   21:00:59.596.08-May-2021 4593.01 3732.15 68.98 2.00 155.82 3008.90
   21:00:59.796.08-May-2021 4593.01 3746.47 68.98 2.00 156.02 3008.90
   21:00:59.996.08-May-2021 4593.01 3746.47 68.98 2.00 156.22 3008.90
   21:01:00.196.08-May-2021 4593.01 3762.53 68.98 2.00 156.42 3008.90
   21:01:00.396.08-May-2021 4593.01 3766.65 68.98 2.00 156.62 3008.90
   21:01:00.596.08-May-2021 4593.01 3769.38 68.98 2.00 156.82 3008.90
   21:01:00.796.08-May-2021 4593.01 3770.99 68.98 2.00 157.02 3008.90
   21:01:00.996.08-May-2021 4593.01 3770.99 68.98 2.00 157.22 3008.90
   21:01:01.196.08-May-2021 4593.01 3773.14 68.98 2.00 157.42 3008.90
   21:01:01.396.08-May-2021 4593.01 3773.22 68.98 2.00 157.62 3008.90
   21:01:01.596.08-May-2021 4593.01 3774.34 68.99 2.00 157.82 3008.90
   21:01:01.796.08-May-2021 4593.01 3774.20 68.99 2.00 158.02 3008.90
   21:01:01.996.08-May-2021 4593.01 3774.20 68.99 2.00 158.22 3008.90
   21:01:02.196.08-May-2021 4593.01 3774.85 68.99 2.00 158.42 3008.90
   21:01:02.396.08-May-2021 4593.01 3775.32 68.99 2.00 158.62 3008.90
   21:01:02.596.08-May-2021 4593.01 3775.42 68.99 2.00 158.82 3008.90
   21:01:02.796.08-May-2021 4593.01 3775.54 68.99 2.00 159.02 3008.90
   21:01:02.996.08-May-2021 4593.01 3775.54 68.99 2.00 159.22 3008.90
   21:01:03.196.08-May-2021 4593.01 3775.71 68.99 2.00 159.42 3008.90
   21:01:03.396.08-May-2021 4593.01 3775.97 68.99 2.00 159.62 3008.90
   21:01:03.596.08-May-2021 4593.01 3776.19 68.99 2.00 159.82 3008.90
   21:01:03.796.08-May-2021 4593.01 3776.20 69.00 2.00 160.02 3008.90
   21:01:03.996.08-May-2021 4593.01 3776.20 69.00 2.00 160.22 3008.90
   21:01:04.196.08-May-2021 4593.01 3776.85 69.00 2.00 160.42 3008.90
   21:01:04.396.08-May-2021 4593.01 3776.40 69.00 2.00 160.62 3008.90
   21:01:04.596.08-May-2021 4593.01 3776.70 69.00 2.00 160.82 3008.90
