~Version Information
 VERS.                  2.0:   CWLS log ASCII Standard -VERSION 2.0
 WRAP.                   NO:   One line per depth step
~Well Information Block
#MNEM.UNIT     VALUE/NAME     DESCRIPTION
#---------     -----------    ---------------------------
 STRT.S             23:07:02 09-May-21: START TIME 23:07:02 09-May-21
 STOP.S             23:13:42 09-May-21: STOP TIME  23:13:42 09-May-21
 STEP.S                   0.00: STEP TIME
 NULL.                 -999.25: NULL VALUE
 PROV.                    Baku:  PROVINCE
 STAT.                    Baku:  STATE NAME
 SON .        AZ-XX-0906571588:  JOB NUMBER
 WTYP.                Deviated:  WELL TYPE
 COMP.     BP Exploration (Caspian Sea) ltd:  COMPANY
 BASE.              Azerbaijan:  LOGGING EQUIPMENT BASE LOCATION
 REGN.                   EESSA:  REGION
 CTRY.              Azerbaijan:  COUNTRY NAME
 FLD .                     ACG:  FIELD NAME
 WELL.                     J28:  WELL NAME
 RIG .             West Chirag:  RIG NAME
 DMF .             Drill Floor:  DRILL MEAS FROM
 PDAT.       Caspian Sea Level:  PERMANENT DATUM
 HPTY.       Minimum Curvature:  HOLE POS TYPE
 MDS .        Operator Entered:  MAG DATA SOURCE
 NREF.                    Grid:  NORTH REFERENCE
 SRVC.          TURAN DRILLING:  CONTRACTOR
 JOBN.        AZ-XX-0906571588:  JOB TICKET NUMB
 DCON.     Halliburton Sperry Drilling:  DIRECTNL CONTR
 STIM.      00.44.00 11-Feb-21:  START TIME
 DATE.      00.00.00 05-May-21:  END TIME
 SPUD.               13-Feb-21:  SPUD DATE
 MWDS.                    Baku:  MWD SHOP
 DOE .                     N/A:  DOE NUMBER
 UNIT.                     N/A:  LOGGING EQUIPMENT ID
 UWI .                     N/A:  UNIQUE WELL IDENTIFIER
 API .                     N/A:  API NUMBER
 CNTY.                        :  COUNTY
 LOC .                        :  LOCATION
 LMF .             Drill Floor:  LOG MEASURED FROM
 TVDS.m                  43.00:  TVDSS CORRECTN
 SDEP.m                 341.00:  START DEPTH
 EGL .m                   0.00:  GROUND ELEVATION
 WDMS.m                 169.80:  WD ELEV
 AGAP.m                  43.00:  AIR GAP
 EPD .m                   0.00:  ELEVATION
 APD .m                  43.00:  DEPTH ABOVE PD
 LATI.deg                40.13:  LATITUDE
 LONG.deg                51.22:  LONGITUDE
 UTMY.m             4443793.85:  UTM Y
 UTMX.m              519005.06:  UTM X
 WHEW.m                 -11.57:  WELL HEAD E/W
 WHNS.m                   8.57:  WELL HEAD N/S
 VSEW.m                 -11.57:  VERT SEC E/W
 VSNS.m                   8.57:  VERT SEC N/S
 DFWL.m                   0.00:  DISTANCE FWL
 DFSL.m                   0.00:  DISTANCE FSL
 VSDR.deg               299.34:  VERT SEC DIRECT
 GVFD.g                   1.00:  GRAVITY FIELD
 AZTC.deg                 6.36:  AZM TOTAL CORR
 MFLD.nT              50391.00:  MAGNETIC FIELD
 MDIP.deg                59.65:  MAGNETIC DIP
 MDEC.deg                 6.48:  MAGNETIC DECL
 GRDC.deg                 0.12:  GRID CORRECTION
 DEP .m                 334.96:  DEPTH
 TDD .m                1407.26:  TOTAL DEPTH (DRILLER)
 EKB .m                  43.00:  KB ELEVATION
 EDF .m                  43.00:  DF ELEVATION
 TDL .m                 228.00:  TOTAL DEPTH (LOGGER)
 VSC .                       0:  VS TO CLOSURE
 MAGU.                 1854484:  MAGUTM CHECKSUM
~Parameter Information Block
#MNEM.UNIT       Value        Description
#---------     -----------    ---------------------------
 AV  .mps                 4.00:  Ann Velocity 
 AVMX.mps                 4.73:  Max Ann Veloc 
 AZIF.deg               304.48:  Azm, Final 
 BHAT.        Rotary Steerable:  BHA Type 
 BREV.rev            257300.00:  Rev Bit Total 
 BROT.°/30m               0.00:  Build Rotating 
 BS  .in                  8.50:  Bit Size 
 BSZ .in                  8.50:  Bit Size 
 BTPL.psig              589.00:  Bit Press Loss 
 CABU.                      No:  Customer Abuse 
 CGEO.          Mubariz ghayev:  Customer Geo 
 COMM.                     d:  Run Comments 1 
 TCS .hr                 64.25:  Time Ciculation Ended 
 CV  .mps                 3.50:  Crit Velocity 
 CVMX.mps                 4.52:  Max Crit Veloc 
 DD1 .             Aziz Aliyev:  Direct Drillr 1 
 DD2 .         Intigam Rahimov:  Direct Drillr 2 
 DD3 .          Rashad Habibov:  Direct Drillr 3 
 DDSV.               Geo-Pilot:  DD Service 
 DEFF.%                  98.00:  % Det Eff 
 DLRX.°/30m               0.00:  Dogleg Rot Max 
 DLSO.°/30m               0.00:  Dogleg Oriented 
 DLSX.°/30m               0.00:  Dogleg Str Max 
 DRET.      10.45.04 08-May-21:  Drill End Time 
 DRST.      03.30.04 04-May-21:  Drill Start Tim 
 DTIM.hr                 14.97:  Time Drilling 
 EDEP.m                4640.01:  End Depth 
 ENG1.         Dail Mahammadov:  Engineer 1 
 ENG2.           Eldar Hajiyev:  Engineer 2 
 ENG3.       Bakhtiar Jabbarli:  Engineer 3 
 ENG4.       Natik Hasanagayev:  Engineer 4 
 ETIM.      09.30.04 14-May-21:  End Time 
 FLOI.gpm               460.00:  Flow In 
 FLON.gpm               200.00:  Flow In Min 
 FLOS.cptm                0.00:  Fluid Loss 
 FLOX.gpm               505.00:  Flow In Max 
 HFLO.                      No:  High Flow 
 HPRE.                      No:  High Pressure 
 HTEM.                      No:  High Temp 
 HYDO.m                   1.80:  Hydro Offset 
 IFIN.deg                66.71:  Inc, Final 
 IMAX.deg                67.03:  Inc Max 
 IMIN.deg                66.63:  Inc Min 
 IMND.m                4550.58:  Inc Min Depth 
 IMXD.m                4439.01:  Inc Max Depth 
 JARR.                      No:  Jarring 
 LETM.      10.45.04 08-May-21:  Log End Time 
 LOST.hr                     0:  Lost Rig Time 
 LSTM.      03.30.04 04-May-21:  Log Start Time 
 MDCL.ppm             37000.00:  Mud Chlorides 
 MDES.     Inversion Oil/Synthetic:  Mud Desc 
 DFD .sg                  1.38:  Mud Density 
 MDMN.sg                  1.35:  Dens Mud Min 
 MDMX.sg                  1.40:  Dens Mud Max 
 MOIL.                   57.40:  Run Mud Oil % 
 MOWR.                   70:30:  Run Mud OWR 
 MSND.                    0.00:  Run Mud Sand % 
 MSOL.                   18.00:  Run Mud Solids% 
 DFV .spqt               71.00:  Mud Viscosity 
 MWOD.in                  6.75:  MWD Tool OD 
 MWSI.                      No:  Serv Intrp, MWD 
 OTIM.hr                242.76:  Time Operating 
 PCON.           Look Like New:  Pad Condition 
 PMAX.psia            12183.92:  Press Op, Max 
 PV  .cP                 27.00:  Mud PV 
 RUN .                    1300:  Run Number 
 ROPA.m/hr               15.00:  ROP Avg 
 ROPN.m/hr                9.00:  ROP Min 
 ROPX.m/hr               19.00:  ROP Max 
 RPMA.rpm               120.00:  RPM Surface Avg 
 RPMN.rpm               100.00:  RPM Surface Min 
 RPMX.rpm               120.00:  RPM Surface Max 
 RRUN.                    1300:  Rig Run Number 
 RTIM.hr                  5.00:  Time Reaming 
 SAZI.deg               304.73:  Azm, Start 
 SDEP.m                4412.01:  Start Depth 
 SIDD.                      No:  Serv Intrp, DD 
 SINC.deg                66.82:  Inc, Start 
 SPPA.psig             2800.00:  SPP Avg 
 SPPN.psig             2610.00:  SPP Min 
 SPPX.psig             3100.00:  SPP Max 
 STIM.      03.30.00 04-May-21:  Start Time 
 SVCS.                 DD, MWD:  Services 
 SVER.                    9.20:  Sperry Version 
 TDAT.m                 228.00:  Tot Depth Attmp 
 TDDF.                      No:  Trip for DD 
 TDLG.m                 228.00:  Tot Depth Loggd 
 TFF .                      No:  Trip for Fail 
 TQAA.f-kp               15.00:  Torque Abs Avg 
 TQAN.f-kp               12.00:  Torque Abs Min 
 TQAX.f-kp               22.00:  Torque Abs Max 
 TRRT.°/30m               0.00:  Turn Rotating 
 MRT .                    HCIM:  Maximum Recorded Temperature 
 TTMX.degC               90.20:  Max Tool Temp 
 VS01.                90627813:  Virtual Str1 SN 
 VS02.                90634712:  Virtual Str2 SN 
 VS03.                90643410:  Virtual Str3 SN 
 VS04.                90634712:  Virtual Str4 SN 
 WBMN.klb                 9.00:  WOB Min 
 WITN.        Elmaddin Rahimov:  Customer Rep 
 WITN.         Haytham Mostafa:  Customer Rep 2 
 WOBA.klb                15.00:  WOB Avg 
 WOBX.klb                23.00:  WOB Max 
 YP  .lhf2               29.00:  Yield Point 
~Curve Information Block
#MNEM.UNIT                 API CODE     Curve Description
#---------               -----------    ---------------------------
 TIME.HHMMSS            00 000 000 000:  GT Time & Date
 GTDEPTH.m              00 000 000 000:  GT Depth
 GTPQH.psia             00 000 000 000:  GT HR Quartz Pressure
 GTTQ.degC              00 000 000 000:  GT Quartz Temperature
 GTTN.NONE              00 000 000 000:  GT Test Number
 GTET.sec               00 000 000 000:  GT Elapsed Test Time
 GTTVD.m                00 000 000 000:  GT True Vertical Depth
#Other Information
#
#WARRANTY: Halliburton will use its best efforts to furnish customers with 
#accurate information and interpretations that are part of, and incident to, the services 
#provided.  However, Halliburton cannot and does not warrant the accuracy 
#or correctness of such information and interpretations.  Under no circumstances should any 
#such information or interpretation be relied upon as the sole basis for any drilling, 
#completion, production, or financial decision or any procedure involving any risk to the 
#safety of any drilling venture, drilling rig or its crew or any other third party.  The 
#Customer has full responsibility for all drilling, completion and production operation.  
#Halliburton makes no representations or warranties, either expressed or 
#implied, including, but not limited to, the implied warranties of merchantability or fitness 
#for a particular purpose, with respect to the services rendered.  In no event will 
#Halliburton be liable for failure to obtain any particular results or for 
#any damages, including, but not limited to, indirect, special or consequential damages, 
#resulting from the use of any information or interpretation provided by Halliburton.
#
~A           TIME           GTDEPTH  GTPQH  GTTQ  GTTN   GTET   GTTVD  
# ...
   23:13:26.936.09-May-2021 4503.01 6549.34 60.50 17.00 384.10 2973.29
   23:13:27.136.09-May-2021 4503.01 6548.80 60.50 17.00 384.30 2973.29
   23:13:27.336.09-May-2021 4503.01 6548.65 60.49 17.00 384.50 2973.29
   23:13:27.536.09-May-2021 4503.01 6548.34 60.49 17.00 384.70 2973.29
   23:13:27.736.09-May-2021 4503.01 6548.43 60.49 17.00 384.90 2973.29
   23:13:27.936.09-May-2021 4503.01 6548.43 60.49 17.00 385.10 2973.29
   23:13:28.136.09-May-2021 4503.01 6551.18 60.49 17.00 385.30 2973.29
   23:13:28.336.09-May-2021 4503.01 6553.00 60.49 17.00 385.50 2973.29
   23:13:28.536.09-May-2021 4503.01 6551.23 60.49 17.00 385.70 2973.29
   23:13:28.736.09-May-2021 4503.01 6550.27 60.49 17.00 385.90 2973.29
   23:13:28.936.09-May-2021 4503.01 6550.27 60.49 17.00 386.10 2973.29
   23:13:29.136.09-May-2021 4503.01 6553.24 60.49 17.00 386.30 2973.29
   23:13:29.336.09-May-2021 4503.01 6552.50 60.49 17.00 386.50 2973.29
   23:13:29.536.09-May-2021 4503.01 6553.96 60.49 17.00 386.70 2973.29
   23:13:29.736.09-May-2021 4503.01 6559.28 60.49 17.00 386.90 2973.29
   23:13:29.936.09-May-2021 4503.01 6559.28 60.49 17.00 387.10 2973.29
   23:13:30.136.09-May-2021 4503.01 6553.20 60.49 17.00 387.30 2973.29
   23:13:30.336.09-May-2021 4503.01 6551.64 60.49 17.00 387.50 2973.29
   23:13:30.536.09-May-2021 4503.01 6554.18 60.49 17.00 387.70 2973.29
   23:13:30.735.09-May-2021 4503.01 6555.36 60.49 17.00 387.90 2973.29
   23:13:30.935.09-May-2021 4503.01 6555.36 60.49 17.00 388.10 2973.29
   23:13:31.135.09-May-2021 4503.01 6554.13 60.49 17.00 388.30 2973.29
   23:13:31.335.09-May-2021 4503.01 6549.62 60.49 17.00 388.50 2973.29
   23:13:31.535.09-May-2021 4503.01 6549.12 60.49 17.00 388.70 2973.29
   23:13:31.735.09-May-2021 4503.01 6549.03 60.49 17.00 388.90 2973.29
   23:13:31.935.09-May-2021 4503.01 6549.03 60.49 17.00 389.10 2973.29
   23:13:32.135.09-May-2021 4503.01 6548.65 60.49 17.00 389.30 2973.29
   23:13:32.335.09-May-2021 4503.01 6548.55 60.49 17.00 389.50 2973.29
   23:13:32.535.09-May-2021 4503.01 6548.31 60.49 17.00 389.70 2973.29
   23:13:32.735.09-May-2021 4503.01 6548.31 60.48 17.00 389.90 2973.29
   23:13:32.935.09-May-2021 4503.01 6548.31 60.48 17.00 390.10 2973.29
   23:13:33.135.09-May-2021 4503.01 6552.33 60.48 17.00 390.30 2973.29
   23:13:33.335.09-May-2021 4503.01 6553.90 60.48 17.00 390.50 2973.29
   23:13:33.535.09-May-2021 4503.01 6553.19 60.48 17.00 390.70 2973.29
   23:13:33.735.09-May-2021 4503.01 6554.14 60.48 17.00 390.90 2973.29
   23:13:33.935.09-May-2021 4503.01 6554.14 60.48 17.00 391.10 2973.29
   23:13:34.135.09-May-2021 4503.01 6549.40 60.48 17.00 391.30 2973.29
   23:13:34.335.09-May-2021 4503.01 6549.76 60.48 17.00 391.50 2973.29
   23:13:34.534.09-May-2021 4503.01 6549.39 60.48 17.00 391.70 2973.29
   23:13:34.734.09-May-2021 4503.01 6549.37 60.48 17.00 391.90 2973.29
   23:13:34.934.09-May-2021 4503.01 6549.37 60.48 17.00 392.10 2973.29
   23:13:35.134.09-May-2021 4503.01 6550.36 60.48 17.00 392.30 2973.29
   23:13:35.334.09-May-2021 4503.01 6549.73 60.48 17.00 392.50 2973.29
   23:13:35.534.09-May-2021 4503.01 6549.29 60.48 17.00 392.70 2973.29
   23:13:35.734.09-May-2021 4503.01 6549.85 60.48 17.00 392.90 2973.29
   23:13:35.934.09-May-2021 4503.01 6549.85 60.48 17.00 393.10 2973.29
   23:13:36.134.09-May-2021 4503.01 6551.67 60.48 17.00 393.30 2973.29
   23:13:36.334.09-May-2021 4503.01 6553.17 60.48 17.00 393.50 2973.29
   23:13:36.534.09-May-2021 4503.01 6551.44 60.48 17.00 393.70 2973.29
   23:13:36.734.09-May-2021 4503.01 6551.27 60.48 17.00 393.90 2973.29
   23:13:36.934.09-May-2021 4503.01 6551.27 60.48 17.00 394.10 2973.29
   23:13:37.134.09-May-2021 4503.01 6553.56 60.48 17.00 394.30 2973.29
   23:13:37.334.09-May-2021 4503.01 6553.03 60.48 17.00 394.50 2973.29
   23:13:37.534.09-May-2021 4503.01 6554.39 60.48 17.00 394.70 2973.29
   23:13:37.734.09-May-2021 4503.01 6560.34 60.48 17.00 394.90 2973.29
   23:13:37.934.09-May-2021 4503.01 6560.34 60.48 17.00 395.10 2973.29
   23:13:38.134.09-May-2021 4503.01 6553.79 60.48 17.00 395.30 2973.29
   23:13:38.333.09-May-2021 4503.01 6551.85 60.47 17.00 395.50 2973.29
   23:13:38.533.09-May-2021 4503.01 6555.35 60.47 17.00 395.70 2973.29
   23:13:38.733.09-May-2021 4503.01 6556.28 60.47 17.00 395.90 2973.29
   23:13:38.933.09-May-2021 4503.01 6556.28 60.47 17.00 396.10 2973.29
   23:13:39.133.09-May-2021 4503.01 6554.86 60.47 17.00 396.30 2973.29
   23:13:39.333.09-May-2021 4503.01 6550.44 60.47 17.00 396.50 2973.29
   23:13:39.533.09-May-2021 4503.01 6548.93 60.47 17.00 396.70 2973.29
   23:13:39.733.09-May-2021 4503.01 6549.06 60.47 17.00 396.90 2973.29
   23:13:39.933.09-May-2021 4503.01 6549.06 60.47 17.00 397.10 2973.29
   23:13:40.133.09-May-2021 4503.01 6548.68 60.47 17.00 397.30 2973.29
   23:13:40.333.09-May-2021 4503.01 6548.56 60.47 17.00 397.50 2973.29
   23:13:40.533.09-May-2021 4503.01 6548.25 60.47 17.00 397.70 2973.29
   23:13:40.733.09-May-2021 4503.01 6548.28 60.47 17.00 397.90 2973.29
   23:13:40.933.09-May-2021 4503.01 6548.28 60.47 17.00 398.10 2973.29
   23:13:41.133.09-May-2021 4503.01 6552.44 60.47 17.00 398.30 2973.29
   23:13:41.333.09-May-2021 4503.01 6553.92 60.47 17.00 398.50 2973.29
   23:13:41.533.09-May-2021 4503.01 6553.19 60.47 17.00 398.70 2973.29
   23:13:41.733.09-May-2021 4503.01 6553.87 60.47 17.00 398.90 2973.29
   23:13:41.933.09-May-2021 4503.01 6553.87 60.47 17.00 399.10 2973.29
   23:13:42.132.09-May-2021 4503.01 6548.89 60.47 17.00 399.30 2973.29
   23:13:42.332.09-May-2021 4503.01 6549.37 60.47 17.00 399.50 2973.29
   23:13:42.532.09-May-2021 4503.01 6548.92 60.47 17.00 399.70 2973.29
