~Version Information
 VERS.                  2.0:   CWLS log ASCII Standard -VERSION 2.0
 WRAP.                   NO:   One line per depth step
~Well Information Block
#MNEM.UNIT     VALUE/NAME     DESCRIPTION
#---------     -----------    ---------------------------
 STRT.S             20:19:26 08-May-21: START TIME 20:19:26 08-May-21
 STOP.S             20:26:06 08-May-21: STOP TIME  20:26:06 08-May-21
 STEP.S                   0.00: STEP TIME
 NULL.                 -999.25: NULL VALUE
 PROV.                    Baku:  PROVINCE
 STAT.                    Baku:  STATE NAME
 SON .        AZ-XX-0906571588:  JOB NUMBER
 WTYP.                Deviated:  WELL TYPE
 COMP.     BP Exploration (Caspian Sea) ltd:  COMPANY
 BASE.              Azerbaijan:  LOGGING EQUIPMENT BASE LOCATION
 REGN.                   EESSA:  REGION
 CTRY.              Azerbaijan:  COUNTRY NAME
 FLD .                     ACG:  FIELD NAME
 WELL.                     J28:  WELL NAME
 RIG .             West Chirag:  RIG NAME
 DMF .             Drill Floor:  DRILL MEAS FROM
 PDAT.       Caspian Sea Level:  PERMANENT DATUM
 HPTY.       Minimum Curvature:  HOLE POS TYPE
 MDS .        Operator Entered:  MAG DATA SOURCE
 NREF.                    Grid:  NORTH REFERENCE
 SRVC.          TURAN DRILLING:  CONTRACTOR
 JOBN.        AZ-XX-0906571588:  JOB TICKET NUMB
 DCON.     Halliburton Sperry Drilling:  DIRECTNL CONTR
 STIM.      00.44.00 11-Feb-21:  START TIME
 DATE.      00.00.00 05-May-21:  END TIME
 SPUD.               13-Feb-21:  SPUD DATE
 MWDS.                    Baku:  MWD SHOP
 DOE .                     N/A:  DOE NUMBER
 UNIT.                     N/A:  LOGGING EQUIPMENT ID
 UWI .                     N/A:  UNIQUE WELL IDENTIFIER
 API .                     N/A:  API NUMBER
 CNTY.                        :  COUNTY
 LOC .                        :  LOCATION
 LMF .             Drill Floor:  LOG MEASURED FROM
 TVDS.m                  43.00:  TVDSS CORRECTN
 SDEP.m                 341.00:  START DEPTH
 EGL .m                   0.00:  GROUND ELEVATION
 WDMS.m                 169.80:  WD ELEV
 AGAP.m                  43.00:  AIR GAP
 EPD .m                   0.00:  ELEVATION
 APD .m                  43.00:  DEPTH ABOVE PD
 LATI.deg                40.13:  LATITUDE
 LONG.deg                51.22:  LONGITUDE
 UTMY.m             4443793.85:  UTM Y
 UTMX.m              519005.06:  UTM X
 WHEW.m                 -11.57:  WELL HEAD E/W
 WHNS.m                   8.57:  WELL HEAD N/S
 VSEW.m                 -11.57:  VERT SEC E/W
 VSNS.m                   8.57:  VERT SEC N/S
 DFWL.m                   0.00:  DISTANCE FWL
 DFSL.m                   0.00:  DISTANCE FSL
 VSDR.deg               299.34:  VERT SEC DIRECT
 GVFD.g                   1.00:  GRAVITY FIELD
 AZTC.deg                 6.36:  AZM TOTAL CORR
 MFLD.nT              50391.00:  MAGNETIC FIELD
 MDIP.deg                59.65:  MAGNETIC DIP
 MDEC.deg                 6.48:  MAGNETIC DECL
 GRDC.deg                 0.12:  GRID CORRECTION
 DEP .m                 334.96:  DEPTH
 TDD .m                1407.26:  TOTAL DEPTH (DRILLER)
 EKB .m                  43.00:  KB ELEVATION
 EDF .m                  43.00:  DF ELEVATION
 TDL .m                 228.00:  TOTAL DEPTH (LOGGER)
 VSC .                       0:  VS TO CLOSURE
 MAGU.                 1854484:  MAGUTM CHECKSUM
~Parameter Information Block
#MNEM.UNIT       Value        Description
#---------     -----------    ---------------------------
 AV  .mps                 4.00:  Ann Velocity 
 AVMX.mps                 4.73:  Max Ann Veloc 
 AZIF.deg               304.48:  Azm, Final 
 BHAT.        Rotary Steerable:  BHA Type 
 BREV.rev            257300.00:  Rev Bit Total 
 BROT.°/30m               0.00:  Build Rotating 
 BS  .in                  8.50:  Bit Size 
 BSZ .in                  8.50:  Bit Size 
 BTPL.psig              589.00:  Bit Press Loss 
 CABU.                      No:  Customer Abuse 
 CGEO.          Mubariz ghayev:  Customer Geo 
 COMM.                     $w`:  Run Comments 1 
 TCS .hr                 64.25:  Time Ciculation Ended 
 CV  .mps                 3.50:  Crit Velocity 
 CVMX.mps                 4.52:  Max Crit Veloc 
 DD1 .             Aziz Aliyev:  Direct Drillr 1 
 DD2 .         Intigam Rahimov:  Direct Drillr 2 
 DD3 .          Rashad Habibov:  Direct Drillr 3 
 DDSV.               Geo-Pilot:  DD Service 
 DEFF.%                  98.00:  % Det Eff 
 DLRX.°/30m               0.00:  Dogleg Rot Max 
 DLSO.°/30m               0.00:  Dogleg Oriented 
 DLSX.°/30m               0.00:  Dogleg Str Max 
 DRET.      10.45.04 08-May-21:  Drill End Time 
 DRST.      03.30.04 04-May-21:  Drill Start Tim 
 DTIM.hr                 14.97:  Time Drilling 
 EDEP.m                4640.01:  End Depth 
 ENG1.         Dail Mahammadov:  Engineer 1 
 ENG2.           Eldar Hajiyev:  Engineer 2 
 ENG3.       Bakhtiar Jabbarli:  Engineer 3 
 ENG4.       Natik Hasanagayev:  Engineer 4 
 ETIM.      09.30.04 14-May-21:  End Time 
 FLOI.gpm               460.00:  Flow In 
 FLON.gpm               200.00:  Flow In Min 
 FLOS.cptm                0.00:  Fluid Loss 
 FLOX.gpm               505.00:  Flow In Max 
 HFLO.                      No:  High Flow 
 HPRE.                      No:  High Pressure 
 HTEM.                      No:  High Temp 
 HYDO.m                   1.80:  Hydro Offset 
 IFIN.deg                66.71:  Inc, Final 
 IMAX.deg                67.03:  Inc Max 
 IMIN.deg                66.63:  Inc Min 
 IMND.m                4550.58:  Inc Min Depth 
 IMXD.m                4439.01:  Inc Max Depth 
 JARR.                      No:  Jarring 
 LETM.      10.45.04 08-May-21:  Log End Time 
 LOST.hr                     0:  Lost Rig Time 
 LSTM.      03.30.04 04-May-21:  Log Start Time 
 MDCL.ppm             37000.00:  Mud Chlorides 
 MDES.     Inversion Oil/Synthetic:  Mud Desc 
 DFD .sg                  1.38:  Mud Density 
 MDMN.sg                  1.35:  Dens Mud Min 
 MDMX.sg                  1.40:  Dens Mud Max 
 MOIL.                   57.40:  Run Mud Oil % 
 MOWR.                   70:30:  Run Mud OWR 
 MSND.                    0.00:  Run Mud Sand % 
 MSOL.                   18.00:  Run Mud Solids% 
 DFV .spqt               71.00:  Mud Viscosity 
 MWOD.in                  6.75:  MWD Tool OD 
 MWSI.                      No:  Serv Intrp, MWD 
 OTIM.hr                242.76:  Time Operating 
 PCON.           Look Like New:  Pad Condition 
 PMAX.psia            12183.92:  Press Op, Max 
 PV  .cP                 27.00:  Mud PV 
 RUN .                    1300:  Run Number 
 ROPA.m/hr               15.00:  ROP Avg 
 ROPN.m/hr                9.00:  ROP Min 
 ROPX.m/hr               19.00:  ROP Max 
 RPMA.rpm               120.00:  RPM Surface Avg 
 RPMN.rpm               100.00:  RPM Surface Min 
 RPMX.rpm               120.00:  RPM Surface Max 
 RRUN.                    1300:  Rig Run Number 
 RTIM.hr                  5.00:  Time Reaming 
 SAZI.deg               304.73:  Azm, Start 
 SDEP.m                4412.01:  Start Depth 
 SIDD.                      No:  Serv Intrp, DD 
 SINC.deg                66.82:  Inc, Start 
 SPPA.psig             2800.00:  SPP Avg 
 SPPN.psig             2610.00:  SPP Min 
 SPPX.psig             3100.00:  SPP Max 
 STIM.      03.30.00 04-May-21:  Start Time 
 SVCS.                 DD, MWD:  Services 
 SVER.                    9.20:  Sperry Version 
 TDAT.m                 228.00:  Tot Depth Attmp 
 TDDF.                      No:  Trip for DD 
 TDLG.m                 228.00:  Tot Depth Loggd 
 TFF .                      No:  Trip for Fail 
 TQAA.f-kp               15.00:  Torque Abs Avg 
 TQAN.f-kp               12.00:  Torque Abs Min 
 TQAX.f-kp               22.00:  Torque Abs Max 
 TRRT.°/30m               0.00:  Turn Rotating 
 MRT .                    HCIM:  Maximum Recorded Temperature 
 TTMX.degC               90.20:  Max Tool Temp 
 VS01.                90627813:  Virtual Str1 SN 
 VS02.                90634712:  Virtual Str2 SN 
 VS03.                90643410:  Virtual Str3 SN 
 VS04.                90634712:  Virtual Str4 SN 
 WBMN.klb                 9.00:  WOB Min 
 WITN.        Elmaddin Rahimov:  Customer Rep 
 WITN.         Haytham Mostafa:  Customer Rep 2 
 WOBA.klb                15.00:  WOB Avg 
 WOBX.klb                23.00:  WOB Max 
 YP  .lhf2               29.00:  Yield Point 
~Curve Information Block
#MNEM.UNIT                 API CODE     Curve Description
#---------               -----------    ---------------------------
 TIME.HHMMSS            00 000 000 000:  GT Time & Date
 GTDEPTH.m              00 000 000 000:  GT Depth
 GTPQH.psia             00 000 000 000:  GT HR Quartz Pressure
 GTTQ.degC              00 000 000 000:  GT Quartz Temperature
 GTTN.NONE              00 000 000 000:  GT Test Number
 GTET.sec               00 000 000 000:  GT Elapsed Test Time
 GTTVD.m                00 000 000 000:  GT True Vertical Depth
#Other Information
#
#WARRANTY: Halliburton will use its best efforts to furnish customers with 
#accurate information and interpretations that are part of, and incident to, the services 
#provided.  However, Halliburton cannot and does not warrant the accuracy 
#or correctness of such information and interpretations.  Under no circumstances should any 
#such information or interpretation be relied upon as the sole basis for any drilling, 
#completion, production, or financial decision or any procedure involving any risk to the 
#safety of any drilling venture, drilling rig or its crew or any other third party.  The 
#Customer has full responsibility for all drilling, completion and production operation.  
#Halliburton makes no representations or warranties, either expressed or 
#implied, including, but not limited to, the implied warranties of merchantability or fitness 
#for a particular purpose, with respect to the services rendered.  In no event will 
#Halliburton be liable for failure to obtain any particular results or for 
#any damages, including, but not limited to, indirect, special or consequential damages, 
#resulting from the use of any information or interpretation provided by Halliburton.
#
~A           TIME           GTDEPTH  GTPQH  GTTQ  GTTN  GTET   GTTVD  
# ...
   20:23:39.564.08-May-2021 4592.01 2225.92 69.10 1.00 253.03 3008.50
   20:23:39.764.08-May-2021 4592.01 2225.92 69.10 1.00 253.23 3008.50
   20:23:39.964.08-May-2021 4592.01 2080.87 69.10 1.00 253.43 3008.50
   20:23:40.164.08-May-2021 4592.01 2060.33 69.10 1.00 253.63 3008.50
   20:23:40.364.08-May-2021 4592.01 3265.41 69.10 1.00 253.83 3008.50
   20:23:40.564.08-May-2021 4592.01 3141.73 69.10 1.00 254.03 3008.50
   20:23:40.764.08-May-2021 4592.01 3141.73 69.10 1.00 254.23 3008.50
   20:23:40.964.08-May-2021 4592.01 2929.01 69.10 1.00 254.43 3008.50
   20:23:41.164.08-May-2021 4592.01 3466.68 69.10 1.00 254.63 3008.50
   20:23:41.364.08-May-2021 4592.01 3574.60 69.10 1.00 254.83 3008.50
   20:23:41.564.08-May-2021 4592.01 3578.72 69.10 1.00 255.03 3008.50
   20:23:41.764.08-May-2021 4592.01 3578.72 69.10 1.00 255.23 3008.50
   20:23:41.964.08-May-2021 4592.01 3574.90 69.10 1.00 255.43 3008.50
   20:23:42.164.08-May-2021 4592.01 3576.94 69.10 1.00 255.63 3008.50
   20:23:42.364.08-May-2021 4592.01 3578.12 69.10 1.00 255.83 3008.50
   20:23:42.564.08-May-2021 4592.01 3577.64 69.10 1.00 256.03 3008.50
   20:23:42.765.08-May-2021 4592.01 3577.64 69.10 1.00 256.23 3008.50
   20:23:42.965.08-May-2021 4592.01 3581.09 69.11 1.00 256.43 3008.50
   20:23:43.165.08-May-2021 4592.01 3580.60 69.11 1.00 256.63 3008.50
   20:23:43.365.08-May-2021 4592.01 3580.29 69.11 1.00 256.83 3008.50
   20:23:43.565.08-May-2021 4592.01 3580.95 69.11 1.00 257.03 3008.50
   20:23:43.765.08-May-2021 4592.01 3580.95 69.11 1.00 257.23 3008.50
   20:23:43.965.08-May-2021 4592.01 3581.00 69.11 1.00 257.43 3008.50
   20:23:44.165.08-May-2021 4592.01 3580.72 69.11 1.00 257.63 3008.50
   20:23:44.365.08-May-2021 4592.01 3580.59 69.12 1.00 257.83 3008.50
   20:23:44.565.08-May-2021 4592.01 3580.10 69.12 1.00 258.03 3008.50
   20:23:44.765.08-May-2021 4592.01 3580.10 69.12 1.00 258.23 3008.50
   20:23:44.965.08-May-2021 4592.01 3580.95 69.12 1.00 258.43 3008.50
   20:23:45.165.08-May-2021 4592.01 3579.57 69.12 1.00 258.63 3008.50
   20:23:45.365.08-May-2021 4592.01 3580.65 69.12 1.00 258.83 3008.50
   20:23:45.565.08-May-2021 4592.01 3580.55 69.12 1.00 259.03 3008.50
   20:23:45.765.08-May-2021 4592.01 3580.55 69.12 1.00 259.23 3008.50
   20:23:45.965.08-May-2021 4592.01 3580.20 69.13 1.00 259.43 3008.50
   20:23:46.165.08-May-2021 4592.01 3580.08 69.13 1.00 259.63 3008.50
   20:23:46.365.08-May-2021 4592.01 3579.95 69.13 1.00 259.83 3008.50
   20:23:46.565.08-May-2021 4592.01 3597.61 69.13 1.00 260.03 3008.50
   20:23:46.765.08-May-2021 4592.01 3597.61 69.13 1.00 260.23 3008.50
   20:23:46.965.08-May-2021 4592.01 3772.98 69.13 1.00 260.43 3008.50
   20:23:47.165.08-May-2021 4592.01 3774.00 69.13 1.00 260.63 3008.50
   20:23:47.365.08-May-2021 4592.01 3774.24 69.13 1.00 260.83 3008.50
   20:23:47.565.08-May-2021 4592.01 3774.83 69.13 1.00 261.03 3008.50
   20:23:47.765.08-May-2021 4592.01 3774.83 69.13 1.00 261.23 3008.50
   20:23:47.965.08-May-2021 4592.01 3775.07 69.14 1.00 261.43 3008.50
   20:23:48.165.08-May-2021 4592.01 3775.11 69.14 1.00 261.63 3008.50
   20:23:48.365.08-May-2021 4592.01 3775.50 69.14 1.00 261.83 3008.50
   20:23:48.565.08-May-2021 4592.01 3775.44 69.14 1.00 262.03 3008.50
   20:23:48.765.08-May-2021 4592.01 3775.44 69.14 1.00 262.23 3008.50
   20:23:48.965.08-May-2021 4592.01 3775.37 69.14 1.00 262.43 3008.50
   20:23:49.165.08-May-2021 4592.01 3775.51 69.14 1.00 262.63 3008.50
   20:23:49.365.08-May-2021 4592.01 3776.00 69.14 1.00 262.83 3008.50
   20:23:49.565.08-May-2021 4592.01 3775.62 69.14 1.00 263.03 3008.50
   20:23:49.765.08-May-2021 4592.01 3775.62 69.14 1.00 263.23 3008.50
   20:23:49.965.08-May-2021 4592.01 3775.75 69.14 1.00 263.43 3008.50
   20:23:50.165.08-May-2021 4592.01 3776.27 69.14 1.00 263.63 3008.50
   20:23:50.365.08-May-2021 4592.01 3775.83 69.15 1.00 263.83 3008.50
   20:23:50.565.08-May-2021 4592.01 3776.23 69.15 1.00 264.03 3008.50
   20:23:50.765.08-May-2021 4592.01 3776.23 69.15 1.00 264.23 3008.50
   20:23:50.965.08-May-2021 4592.01 3776.10 69.15 1.00 264.43 3008.50
   20:23:51.165.08-May-2021 4592.01 3776.34 69.15 1.00 264.63 3008.50
   20:23:51.365.08-May-2021 4592.01 3776.12 69.15 1.00 264.83 3008.50
   20:23:51.565.08-May-2021 4592.01 3776.30 69.15 1.00 265.03 3008.50
   20:23:51.765.08-May-2021 4592.01 3776.30 69.15 1.00 265.23 3008.50
   20:23:51.965.08-May-2021 4592.01 3776.26 69.15 1.00 265.43 3008.50
   20:23:52.165.08-May-2021 4592.01 3776.27 69.15 1.00 265.63 3008.50
   20:23:52.366.08-May-2021 4592.01 3776.64 69.15 1.00 265.83 3008.50
   20:23:52.566.08-May-2021 4592.01 3776.11 69.15 1.00 266.03 3008.50
   20:23:52.766.08-May-2021 4592.01 3776.11 69.15 1.00 266.23 3008.50
   20:23:52.966.08-May-2021 4592.01 3776.49 69.15 1.00 266.43 3008.50
   20:23:53.166.08-May-2021 4592.01 3776.43 69.15 1.00 266.63 3008.50
   20:23:53.366.08-May-2021 4592.01 3776.40 69.15 1.00 266.83 3008.50
   20:23:53.566.08-May-2021 4592.01 3776.39 69.15 1.00 267.03 3008.50
   20:23:53.766.08-May-2021 4592.01 3776.39 69.15 1.00 267.23 3008.50
   20:23:53.966.08-May-2021 4592.01 3776.41 69.15 1.00 267.43 3008.50
   20:23:54.166.08-May-2021 4592.01 3776.41 69.15 1.00 267.63 3008.50
   20:23:54.366.08-May-2021 4592.01 3776.46 69.15 1.00 267.83 3008.50
   20:23:54.566.08-May-2021 4592.01 3776.41 69.15 1.00 268.03 3008.50
   20:23:54.766.08-May-2021 4592.01 3776.41 69.15 1.00 268.23 3008.50
   20:23:54.966.08-May-2021 4592.01 3776.99 69.15 1.00 268.43 3008.50
   20:23:55.166.08-May-2021 4592.01 3776.06 69.15 1.00 268.63 3008.50
   20:23:55.366.08-May-2021 4592.01 3776.73 69.15 1.00 268.83 3008.50
   20:23:55.566.08-May-2021 4592.01 3776.33 69.15 1.00 269.03 3008.50
   20:23:55.766.08-May-2021 4592.01 3776.33 69.15 1.00 269.23 3008.50
   20:23:55.966.08-May-2021 4592.01 3776.40 69.15 1.00 269.43 3008.50
   20:23:56.166.08-May-2021 4592.01 3776.80 69.15 1.00 269.63 3008.50
   20:23:56.366.08-May-2021 4592.01 3776.25 69.15 1.00 269.83 3008.50
   20:23:56.566.08-May-2021 4592.01 3776.59 69.15 1.00 270.03 3008.50
   20:23:56.766.08-May-2021 4592.01 3776.59 69.15 1.00 270.23 3008.50
   20:23:56.966.08-May-2021 4592.01 3776.26 69.15 1.00 270.43 3008.50
   20:23:57.166.08-May-2021 4592.01 3776.24 69.15 1.00 270.63 3008.50
   20:23:57.366.08-May-2021 4592.01 3776.80 69.15 1.00 270.83 3008.50
   20:23:57.566.08-May-2021 4592.01 3776.49 69.15 1.00 271.03 3008.50
   20:23:57.766.08-May-2021 4592.01 3776.49 69.15 1.00 271.23 3008.50
   20:23:57.966.08-May-2021 4592.01 3776.57 69.15 1.00 271.43 3008.50
   20:23:58.166.08-May-2021 4592.01 3776.40 69.15 1.00 271.63 3008.50
   20:23:58.366.08-May-2021 4592.01 3776.61 69.15 1.00 271.83 3008.50
   20:23:58.566.08-May-2021 4592.01 3776.37 69.15 1.00 272.03 3008.50
   20:23:58.766.08-May-2021 4592.01 3776.37 69.15 1.00 272.23 3008.50
   20:23:58.966.08-May-2021 4592.01 3776.48 69.15 1.00 272.43 3008.50
   20:23:59.166.08-May-2021 4592.01 3776.51 69.15 1.00 272.63 3008.50
   20:23:59.366.08-May-2021 4592.01 3776.51 69.15 1.00 272.83 3008.50
   20:23:59.566.08-May-2021 4592.01 3776.42 69.15 1.00 273.03 3008.50
   20:23:59.766.08-May-2021 4592.01 3776.42 69.15 1.00 273.23 3008.50
   20:23:59.966.08-May-2021 4592.01 3776.51 69.15 1.00 273.43 3008.50
   20:24:00.166.08-May-2021 4592.01 3776.50 69.15 1.00 273.63 3008.50
   20:24:00.366.08-May-2021 4592.01 3776.56 69.15 1.00 273.83 3008.50
   20:24:00.566.08-May-2021 4592.01 3776.30 69.15 1.00 274.03 3008.50
   20:24:00.766.08-May-2021 4592.01 3776.30 69.15 1.00 274.23 3008.50
   20:24:00.966.08-May-2021 4592.01 3776.80 69.15 1.00 274.43 3008.50
   20:24:01.166.08-May-2021 4592.01 3776.59 69.15 1.00 274.63 3008.50
   20:24:01.366.08-May-2021 4592.01 3776.30 69.15 1.00 274.83 3008.50
   20:24:01.566.08-May-2021 4592.01 3776.56 69.15 1.00 275.03 3008.50
   20:24:01.766.08-May-2021 4592.01 3776.56 69.15 1.00 275.23 3008.50
   20:24:01.966.08-May-2021 4592.01 3776.50 69.15 1.00 275.43 3008.50
   20:24:02.167.08-May-2021 4592.01 3776.51 69.15 1.00 275.63 3008.50
   20:24:02.367.08-May-2021 4592.01 3776.40 69.15 1.00 275.83 3008.50
