~Version Information
 VERS.                  2.0:   CWLS log ASCII Standard -VERSION 2.0
 WRAP.                   NO:   One line per depth step
~Well Information Block
#MNEM.UNIT     VALUE/NAME     DESCRIPTION
#---------     -----------    ---------------------------
 STRT.S             21:53:52 08-May-21: START TIME 21:53:52 08-May-21
 STOP.S             22:00:27 08-May-21: STOP TIME  22:00:27 08-May-21
 STEP.S                   0.00: STEP TIME
 NULL.                 -999.25: NULL VALUE
 PROV.                    Baku:  PROVINCE
 STAT.                    Baku:  STATE NAME
 SON .        AZ-XX-0906571588:  JOB NUMBER
 WTYP.                Deviated:  WELL TYPE
 COMP.     BP Exploration (Caspian Sea) ltd:  COMPANY
 BASE.              Azerbaijan:  LOGGING EQUIPMENT BASE LOCATION
 REGN.                   EESSA:  REGION
 CTRY.              Azerbaijan:  COUNTRY NAME
 FLD .                     ACG:  FIELD NAME
 WELL.                     J28:  WELL NAME
 RIG .             West Chirag:  RIG NAME
 DMF .             Drill Floor:  DRILL MEAS FROM
 PDAT.       Caspian Sea Level:  PERMANENT DATUM
 HPTY.       Minimum Curvature:  HOLE POS TYPE
 MDS .        Operator Entered:  MAG DATA SOURCE
 NREF.                    Grid:  NORTH REFERENCE
 SRVC.          TURAN DRILLING:  CONTRACTOR
 JOBN.        AZ-XX-0906571588:  JOB TICKET NUMB
 DCON.     Halliburton Sperry Drilling:  DIRECTNL CONTR
 STIM.      00.44.00 11-Feb-21:  START TIME
 DATE.      00.00.00 05-May-21:  END TIME
 SPUD.               13-Feb-21:  SPUD DATE
 MWDS.                    Baku:  MWD SHOP
 DOE .                     N/A:  DOE NUMBER
 UNIT.                     N/A:  LOGGING EQUIPMENT ID
 UWI .                     N/A:  UNIQUE WELL IDENTIFIER
 API .                     N/A:  API NUMBER
 CNTY.                        :  COUNTY
 LOC .                        :  LOCATION
 LMF .             Drill Floor:  LOG MEASURED FROM
 TVDS.m                  43.00:  TVDSS CORRECTN
 SDEP.m                 341.00:  START DEPTH
 EGL .m                   0.00:  GROUND ELEVATION
 WDMS.m                 169.80:  WD ELEV
 AGAP.m                  43.00:  AIR GAP
 EPD .m                   0.00:  ELEVATION
 APD .m                  43.00:  DEPTH ABOVE PD
 LATI.deg                40.13:  LATITUDE
 LONG.deg                51.22:  LONGITUDE
 UTMY.m             4443793.85:  UTM Y
 UTMX.m              519005.06:  UTM X
 WHEW.m                 -11.57:  WELL HEAD E/W
 WHNS.m                   8.57:  WELL HEAD N/S
 VSEW.m                 -11.57:  VERT SEC E/W
 VSNS.m                   8.57:  VERT SEC N/S
 DFWL.m                   0.00:  DISTANCE FWL
 DFSL.m                   0.00:  DISTANCE FSL
 VSDR.deg               299.34:  VERT SEC DIRECT
 GVFD.g                   1.00:  GRAVITY FIELD
 AZTC.deg                 6.36:  AZM TOTAL CORR
 MFLD.nT              50391.00:  MAGNETIC FIELD
 MDIP.deg                59.65:  MAGNETIC DIP
 MDEC.deg                 6.48:  MAGNETIC DECL
 GRDC.deg                 0.12:  GRID CORRECTION
 DEP .m                 334.96:  DEPTH
 TDD .m                1407.26:  TOTAL DEPTH (DRILLER)
 EKB .m                  43.00:  KB ELEVATION
 EDF .m                  43.00:  DF ELEVATION
 TDL .m                 228.00:  TOTAL DEPTH (LOGGER)
 VSC .                       0:  VS TO CLOSURE
 MAGU.                 1854484:  MAGUTM CHECKSUM
~Parameter Information Block
#MNEM.UNIT       Value        Description
#---------     -----------    ---------------------------
 AV  .mps                 4.00:  Ann Velocity 
 AVMX.mps                 4.73:  Max Ann Veloc 
 AZIF.deg               304.48:  Azm, Final 
 BHAT.        Rotary Steerable:  BHA Type 
 BREV.rev            257300.00:  Rev Bit Total 
 BROT.°/30m               0.00:  Build Rotating 
 BS  .in                  8.50:  Bit Size 
 BSZ .in                  8.50:  Bit Size 
 BTPL.psig              589.00:  Bit Press Loss 
 CABU.                      No:  Customer Abuse 
 CGEO.          Mubariz ghayev:  Customer Geo 
 COMM.                     ¤=s:  Run Comments 1 
 TCS .hr                 64.25:  Time Ciculation Ended 
 CV  .mps                 3.50:  Crit Velocity 
 CVMX.mps                 4.52:  Max Crit Veloc 
 DD1 .             Aziz Aliyev:  Direct Drillr 1 
 DD2 .         Intigam Rahimov:  Direct Drillr 2 
 DD3 .          Rashad Habibov:  Direct Drillr 3 
 DDSV.               Geo-Pilot:  DD Service 
 DEFF.%                  98.00:  % Det Eff 
 DLRX.°/30m               0.00:  Dogleg Rot Max 
 DLSO.°/30m               0.00:  Dogleg Oriented 
 DLSX.°/30m               0.00:  Dogleg Str Max 
 DRET.      10.45.04 08-May-21:  Drill End Time 
 DRST.      03.30.04 04-May-21:  Drill Start Tim 
 DTIM.hr                 14.97:  Time Drilling 
 EDEP.m                4640.01:  End Depth 
 ENG1.         Dail Mahammadov:  Engineer 1 
 ENG2.           Eldar Hajiyev:  Engineer 2 
 ENG3.       Bakhtiar Jabbarli:  Engineer 3 
 ENG4.       Natik Hasanagayev:  Engineer 4 
 ETIM.      09.30.04 14-May-21:  End Time 
 FLOI.gpm               460.00:  Flow In 
 FLON.gpm               200.00:  Flow In Min 
 FLOS.cptm                0.00:  Fluid Loss 
 FLOX.gpm               505.00:  Flow In Max 
 HFLO.                      No:  High Flow 
 HPRE.                      No:  High Pressure 
 HTEM.                      No:  High Temp 
 HYDO.m                   1.80:  Hydro Offset 
 IFIN.deg                66.71:  Inc, Final 
 IMAX.deg                67.03:  Inc Max 
 IMIN.deg                66.63:  Inc Min 
 IMND.m                4550.58:  Inc Min Depth 
 IMXD.m                4439.01:  Inc Max Depth 
 JARR.                      No:  Jarring 
 LETM.      10.45.04 08-May-21:  Log End Time 
 LOST.hr                     0:  Lost Rig Time 
 LSTM.      03.30.04 04-May-21:  Log Start Time 
 MDCL.ppm             37000.00:  Mud Chlorides 
 MDES.     Inversion Oil/Synthetic:  Mud Desc 
 DFD .sg                  1.38:  Mud Density 
 MDMN.sg                  1.35:  Dens Mud Min 
 MDMX.sg                  1.40:  Dens Mud Max 
 MOIL.                   57.40:  Run Mud Oil % 
 MOWR.                   70:30:  Run Mud OWR 
 MSND.                    0.00:  Run Mud Sand % 
 MSOL.                   18.00:  Run Mud Solids% 
 DFV .spqt               71.00:  Mud Viscosity 
 MWOD.in                  6.75:  MWD Tool OD 
 MWSI.                      No:  Serv Intrp, MWD 
 OTIM.hr                242.76:  Time Operating 
 PCON.           Look Like New:  Pad Condition 
 PMAX.psia            12183.92:  Press Op, Max 
 PV  .cP                 27.00:  Mud PV 
 RUN .                    1300:  Run Number 
 ROPA.m/hr               15.00:  ROP Avg 
 ROPN.m/hr                9.00:  ROP Min 
 ROPX.m/hr               19.00:  ROP Max 
 RPMA.rpm               120.00:  RPM Surface Avg 
 RPMN.rpm               100.00:  RPM Surface Min 
 RPMX.rpm               120.00:  RPM Surface Max 
 RRUN.                    1300:  Rig Run Number 
 RTIM.hr                  5.00:  Time Reaming 
 SAZI.deg               304.73:  Azm, Start 
 SDEP.m                4412.01:  Start Depth 
 SIDD.                      No:  Serv Intrp, DD 
 SINC.deg                66.82:  Inc, Start 
 SPPA.psig             2800.00:  SPP Avg 
 SPPN.psig             2610.00:  SPP Min 
 SPPX.psig             3100.00:  SPP Max 
 STIM.      03.30.00 04-May-21:  Start Time 
 SVCS.                 DD, MWD:  Services 
 SVER.                    9.20:  Sperry Version 
 TDAT.m                 228.00:  Tot Depth Attmp 
 TDDF.                      No:  Trip for DD 
 TDLG.m                 228.00:  Tot Depth Loggd 
 TFF .                      No:  Trip for Fail 
 TQAA.f-kp               15.00:  Torque Abs Avg 
 TQAN.f-kp               12.00:  Torque Abs Min 
 TQAX.f-kp               22.00:  Torque Abs Max 
 TRRT.°/30m               0.00:  Turn Rotating 
 MRT .                    HCIM:  Maximum Recorded Temperature 
 TTMX.degC               90.20:  Max Tool Temp 
 VS01.                90627813:  Virtual Str1 SN 
 VS02.                90634712:  Virtual Str2 SN 
 VS03.                90643410:  Virtual Str3 SN 
 VS04.                90634712:  Virtual Str4 SN 
 WBMN.klb                 9.00:  WOB Min 
 WITN.        Elmaddin Rahimov:  Customer Rep 
 WITN.         Haytham Mostafa:  Customer Rep 2 
 WOBA.klb                15.00:  WOB Avg 
 WOBX.klb                23.00:  WOB Max 
 YP  .lhf2               29.00:  Yield Point 
~Curve Information Block
#MNEM.UNIT                 API CODE     Curve Description
#---------               -----------    ---------------------------
 TIME.HHMMSS            00 000 000 000:  GT Time & Date
 GTDEPTH.m              00 000 000 000:  GT Depth
 GTPQH.psia             00 000 000 000:  GT HR Quartz Pressure
 GTTQ.degC              00 000 000 000:  GT Quartz Temperature
 GTTN.NONE              00 000 000 000:  GT Test Number
 GTET.sec               00 000 000 000:  GT Elapsed Test Time
 GTTVD.m                00 000 000 000:  GT True Vertical Depth
#Other Information
#
#WARRANTY: Halliburton will use its best efforts to furnish customers with 
#accurate information and interpretations that are part of, and incident to, the services 
#provided.  However, Halliburton cannot and does not warrant the accuracy 
#or correctness of such information and interpretations.  Under no circumstances should any 
#such information or interpretation be relied upon as the sole basis for any drilling, 
#completion, production, or financial decision or any procedure involving any risk to the 
#safety of any drilling venture, drilling rig or its crew or any other third party.  The 
#Customer has full responsibility for all drilling, completion and production operation.  
#Halliburton makes no representations or warranties, either expressed or 
#implied, including, but not limited to, the implied warranties of merchantability or fitness 
#for a particular purpose, with respect to the services rendered.  In no event will 
#Halliburton be liable for failure to obtain any particular results or for 
#any damages, including, but not limited to, indirect, special or consequential damages, 
#resulting from the use of any information or interpretation provided by Halliburton.
#
~A           TIME           GTDEPTH  GTPQH  GTTQ  GTTN  GTET   GTTVD  
# ...
   21:58:51.000.08-May-2021 4568.51  731.16 68.94 3.00 299.00 2999.18
   21:58:51.200.08-May-2021 4568.51  731.16 68.94 3.00 299.20 2999.18
   21:58:51.400.08-May-2021 4568.51  731.07 68.94 3.00 299.40 2999.18
   21:58:51.600.08-May-2021 4568.51  731.27 68.94 3.00 299.60 2999.18
   21:58:51.800.08-May-2021 4568.51  731.18 68.94 3.00 299.80 2999.18
   21:58:52.000.08-May-2021 4568.51  731.18 68.94 3.00 300.00 2999.18
   21:58:52.200.08-May-2021 4568.51  731.18 68.94 3.00 300.20 2999.18
   21:58:52.400.08-May-2021 4568.51  730.61 68.94 3.00 300.40 2999.18
   21:58:52.600.08-May-2021 4568.51  731.62 68.94 3.00 300.60 2999.18
   21:58:52.800.08-May-2021 4568.51  731.18 68.94 3.00 300.80 2999.18
   21:58:53.000.08-May-2021 4568.51  731.49 68.94 3.00 301.00 2999.18
   21:58:53.200.08-May-2021 4568.51  731.49 68.94 3.00 301.20 2999.18
   21:58:53.400.08-May-2021 4568.51  731.00 68.94 3.00 301.40 2999.18
   21:58:53.600.08-May-2021 4568.51  731.65 68.94 3.00 301.60 2999.18
   21:58:53.800.08-May-2021 4568.51  731.38 68.94 3.00 301.80 2999.18
   21:58:54.000.08-May-2021 4568.51  731.51 68.94 3.00 302.00 2999.18
   21:58:54.200.08-May-2021 4568.51  731.51 68.94 3.00 302.20 2999.18
   21:58:54.400.08-May-2021 4568.51  731.54 68.94 3.00 302.40 2999.18
   21:58:54.600.08-May-2021 4568.51  731.59 68.94 3.00 302.60 2999.18
   21:58:54.800.08-May-2021 4568.51  731.61 68.94 3.00 302.80 2999.18
   21:58:55.000.08-May-2021 4568.51  731.63 68.94 3.00 303.00 2999.18
   21:58:55.200.08-May-2021 4568.51  731.63 68.94 3.00 303.20 2999.18
   21:58:55.400.08-May-2021 4568.51  731.73 68.94 3.00 303.40 2999.18
   21:58:55.600.08-May-2021 4568.51  731.78 68.94 3.00 303.60 2999.18
   21:58:55.800.08-May-2021 4568.51  731.79 68.94 3.00 303.80 2999.18
   21:58:56.000.08-May-2021 4568.51  731.32 68.94 3.00 304.00 2999.18
   21:58:56.200.08-May-2021 4568.51  731.32 68.94 3.00 304.20 2999.18
   21:58:56.400.08-May-2021 4568.51  731.88 68.94 3.00 304.40 2999.18
   21:58:56.600.08-May-2021 4568.51  731.88 68.94 3.00 304.60 2999.18
   21:58:56.800.08-May-2021 4568.51  731.91 68.94 3.00 304.80 2999.18
   21:58:57.000.08-May-2021 4568.51  731.89 68.94 3.00 305.00 2999.18
   21:58:57.200.08-May-2021 4568.51  731.89 68.94 3.00 305.20 2999.18
   21:58:57.400.08-May-2021 4568.51  731.95 68.94 3.00 305.40 2999.18
   21:58:57.600.08-May-2021 4568.51  731.95 68.94 3.00 305.60 2999.18
   21:58:57.800.08-May-2021 4568.51  731.99 68.94 3.00 305.80 2999.18
   21:58:58.000.08-May-2021 4568.51  732.05 68.94 3.00 306.00 2999.18
   21:58:58.200.08-May-2021 4568.51  732.05 68.94 3.00 306.20 2999.18
   21:58:58.400.08-May-2021 4568.51  731.71 68.94 3.00 306.40 2999.18
   21:58:58.600.08-May-2021 4568.51  732.25 68.94 3.00 306.60 2999.18
   21:58:58.800.08-May-2021 4568.51  732.09 68.94 3.00 306.80 2999.18
   21:58:59.000.08-May-2021 4568.51  732.35 68.94 3.00 307.00 2999.18
   21:58:59.200.08-May-2021 4568.51  732.35 68.94 3.00 307.20 2999.18
   21:58:59.400.08-May-2021 4568.51  731.91 68.94 3.00 307.40 2999.18
   21:58:59.600.08-May-2021 4568.51  732.16 68.94 3.00 307.60 2999.18
   21:58:59.800.08-May-2021 4568.51  732.39 68.94 3.00 307.80 2999.18
   21:59:00.000.08-May-2021 4568.51  732.31 68.94 3.00 308.00 2999.18
   21:59:00.200.08-May-2021 4568.51  732.31 68.94 3.00 308.20 2999.18
   21:59:00.400.08-May-2021 4568.51  732.30 68.94 3.00 308.40 2999.18
   21:59:00.600.08-May-2021 4568.51  731.91 68.94 3.00 308.60 2999.18
   21:59:00.800.08-May-2021 4568.51  732.56 68.94 3.00 308.80 2999.18
   21:59:01.000.08-May-2021 4568.51  732.29 68.94 3.00 309.00 2999.18
   21:59:01.200.08-May-2021 4568.51  732.29 68.94 3.00 309.20 2999.18
   21:59:01.400.08-May-2021 4568.51  732.51 68.94 3.00 309.40 2999.18
   21:59:01.600.08-May-2021 4568.51  732.39 68.94 3.00 309.60 2999.18
   21:59:01.800.08-May-2021 4568.51  732.08 68.94 3.00 309.80 2999.18
   21:59:02.000.08-May-2021 4568.51  732.79 68.94 3.00 310.00 2999.18
   21:59:02.200.08-May-2021 4568.51  732.79 68.94 3.00 310.20 2999.18
   21:59:02.400.08-May-2021 4568.51  732.62 68.94 3.00 310.40 2999.18
   21:59:02.600.08-May-2021 4568.51  732.65 68.94 3.00 310.60 2999.18
   21:59:02.800.08-May-2021 4568.51  732.61 68.94 3.00 310.80 2999.18
   21:59:03.000.08-May-2021 4568.51  732.65 68.94 3.00 311.00 2999.18
   21:59:03.200.08-May-2021 4568.51  732.65 68.94 3.00 311.20 2999.18
   21:59:03.400.08-May-2021 4568.51  732.73 68.94 3.00 311.40 2999.18
   21:59:03.600.08-May-2021 4568.51  732.75 68.94 3.00 311.60 2999.18
   21:59:03.800.08-May-2021 4568.51  732.81 68.94 3.00 311.80 2999.18
   21:59:04.000.08-May-2021 4568.51  732.82 68.94 3.00 312.00 2999.18
   21:59:04.200.08-May-2021 4568.51  732.82 68.94 3.00 312.20 2999.18
   21:59:04.400.08-May-2021 4568.51  732.40 68.94 3.00 312.40 2999.18
   21:59:04.600.08-May-2021 4568.51  733.25 68.94 3.00 312.60 2999.18
   21:59:04.800.08-May-2021 4568.51  732.97 68.94 3.00 312.80 2999.18
   21:59:05.000.08-May-2021 4568.51  732.94 68.94 3.00 313.00 2999.18
   21:59:05.200.08-May-2021 4568.51  732.94 68.94 3.00 313.20 2999.18
   21:59:05.400.08-May-2021 4568.51  732.97 68.94 3.00 313.40 2999.18
   21:59:05.600.08-May-2021 4568.51  732.97 68.94 3.00 313.60 2999.18
   21:59:05.800.08-May-2021 4568.51  733.01 68.94 3.00 313.80 2999.18
   21:59:06.000.08-May-2021 4568.51  733.01 68.94 3.00 314.00 2999.18
   21:59:06.200.08-May-2021 4568.51  733.01 68.94 3.00 314.20 2999.18
   21:59:06.400.08-May-2021 4568.51  733.12 68.94 3.00 314.40 2999.18
   21:59:06.600.08-May-2021 4568.51  733.10 68.94 3.00 314.60 2999.18
   21:59:06.800.08-May-2021 4568.51  732.66 68.94 3.00 314.80 2999.18
   21:59:07.000.08-May-2021 4568.51  733.33 68.94 3.00 315.00 2999.18
   21:59:07.200.08-May-2021 4568.51  733.33 68.94 3.00 315.20 2999.18
   21:59:07.400.08-May-2021 4568.51  733.45 68.94 3.00 315.40 2999.18
   21:59:07.600.08-May-2021 4568.51  733.27 68.94 3.00 315.60 2999.18
   21:59:07.800.08-May-2021 4568.51  732.87 68.94 3.00 315.80 2999.18
   21:59:08.000.08-May-2021 4568.51  733.23 68.94 3.00 316.00 2999.18
   21:59:08.200.08-May-2021 4568.51  733.23 68.94 3.00 316.20 2999.18
   21:59:08.400.08-May-2021 4568.51  733.45 68.94 3.00 316.40 2999.18
   21:59:08.600.08-May-2021 4568.51  733.37 68.94 3.00 316.60 2999.18
   21:59:08.800.08-May-2021 4568.51  733.30 68.94 3.00 316.80 2999.18
   21:59:09.000.08-May-2021 4568.51  732.70 68.94 3.00 317.00 2999.18
   21:59:09.200.08-May-2021 4568.51  732.70 68.94 3.00 317.20 2999.18
   21:59:09.400.08-May-2021 4568.51  733.35 68.94 3.00 317.40 2999.18
   21:59:09.600.08-May-2021 4568.51  733.62 68.94 3.00 317.60 2999.18
   21:59:09.800.08-May-2021 4568.51  733.54 68.94 3.00 317.80 2999.18
   21:59:10.000.08-May-2021 4568.51  733.42 68.94 3.00 318.00 2999.18
   21:59:10.200.08-May-2021 4568.51  733.42 68.94 3.00 318.20 2999.18
   21:59:10.400.08-May-2021 4568.51  733.90 68.94 3.00 318.40 2999.18
   21:59:10.600.08-May-2021 4568.51  733.62 68.93 3.00 318.60 2999.18
   21:59:10.800.08-May-2021 4568.51  733.63 68.94 3.00 318.80 2999.18
   21:59:11.000.08-May-2021 4568.51  733.66 68.93 3.00 319.00 2999.18
   21:59:11.200.08-May-2021 4568.51  733.66 68.93 3.00 319.20 2999.18
   21:59:11.400.08-May-2021 4568.51  733.67 68.93 3.00 319.40 2999.18
   21:59:11.600.08-May-2021 4568.51  733.68 68.93 3.00 319.60 2999.18
   21:59:11.800.08-May-2021 4568.51  733.72 68.93 3.00 319.80 2999.18
   21:59:12.000.08-May-2021 4568.51  733.75 68.93 3.00 320.00 2999.18
   21:59:12.200.08-May-2021 4568.51  733.75 68.93 3.00 320.20 2999.18
   21:59:12.400.08-May-2021 4568.51  733.83 68.93 3.00 320.40 2999.18
   21:59:12.600.08-May-2021 4568.51  733.40 68.93 3.00 320.60 2999.18
   21:59:12.800.08-May-2021 4568.51  733.84 68.93 3.00 320.80 2999.18
   21:59:13.000.08-May-2021 4568.51  734.09 68.93 3.00 321.00 2999.18
   21:59:13.200.08-May-2021 4568.51  734.09 68.93 3.00 321.20 2999.18
   21:59:13.400.08-May-2021 4568.51  733.96 68.93 3.00 321.40 2999.18
   21:59:13.600.08-May-2021 4568.51  733.97 68.93 3.00 321.60 2999.18
   21:59:13.800.08-May-2021 4568.51  733.98 68.93 3.00 321.80 2999.18
