~Version Information
 VERS.                  2.0:   CWLS log ASCII Standard -VERSION 2.0
 WRAP.                   NO:   One line per depth step
~Well Information Block
#MNEM.UNIT     VALUE/NAME     DESCRIPTION
#---------     -----------    ---------------------------
 STRT.S             07:52:13 09-May-21: START TIME 07:52:13 09-May-21
 STOP.S             07:59:09 09-May-21: STOP TIME  07:59:09 09-May-21
 STEP.S                   0.00: STEP TIME
 NULL.                 -999.25: NULL VALUE
 PROV.                    Baku:  PROVINCE
 STAT.                    Baku:  STATE NAME
 SON .        AZ-XX-0906571588:  JOB NUMBER
 WTYP.                Deviated:  WELL TYPE
 COMP.     BP Exploration (Caspian Sea) ltd:  COMPANY
 BASE.              Azerbaijan:  LOGGING EQUIPMENT BASE LOCATION
 REGN.                   EESSA:  REGION
 CTRY.              Azerbaijan:  COUNTRY NAME
 FLD .                     ACG:  FIELD NAME
 WELL.                     J28:  WELL NAME
 RIG .             West Chirag:  RIG NAME
 DMF .             Drill Floor:  DRILL MEAS FROM
 PDAT.       Caspian Sea Level:  PERMANENT DATUM
 HPTY.       Minimum Curvature:  HOLE POS TYPE
 MDS .        Operator Entered:  MAG DATA SOURCE
 NREF.                    Grid:  NORTH REFERENCE
 SRVC.          TURAN DRILLING:  CONTRACTOR
 JOBN.        AZ-XX-0906571588:  JOB TICKET NUMB
 DCON.     Halliburton Sperry Drilling:  DIRECTNL CONTR
 STIM.      00.44.00 11-Feb-21:  START TIME
 DATE.      00.00.00 05-May-21:  END TIME
 SPUD.               13-Feb-21:  SPUD DATE
 MWDS.                    Baku:  MWD SHOP
 DOE .                     N/A:  DOE NUMBER
 UNIT.                     N/A:  LOGGING EQUIPMENT ID
 UWI .                     N/A:  UNIQUE WELL IDENTIFIER
 API .                     N/A:  API NUMBER
 CNTY.                        :  COUNTY
 LOC .                        :  LOCATION
 LMF .             Drill Floor:  LOG MEASURED FROM
 TVDS.m                  43.00:  TVDSS CORRECTN
 SDEP.m                 341.00:  START DEPTH
 EGL .m                   0.00:  GROUND ELEVATION
 WDMS.m                 169.80:  WD ELEV
 AGAP.m                  43.00:  AIR GAP
 EPD .m                   0.00:  ELEVATION
 APD .m                  43.00:  DEPTH ABOVE PD
 LATI.deg                40.13:  LATITUDE
 LONG.deg                51.22:  LONGITUDE
 UTMY.m             4443793.85:  UTM Y
 UTMX.m              519005.06:  UTM X
 WHEW.m                 -11.57:  WELL HEAD E/W
 WHNS.m                   8.57:  WELL HEAD N/S
 VSEW.m                 -11.57:  VERT SEC E/W
 VSNS.m                   8.57:  VERT SEC N/S
 DFWL.m                   0.00:  DISTANCE FWL
 DFSL.m                   0.00:  DISTANCE FSL
 VSDR.deg               299.34:  VERT SEC DIRECT
 GVFD.g                   1.00:  GRAVITY FIELD
 AZTC.deg                 6.36:  AZM TOTAL CORR
 MFLD.nT              50391.00:  MAGNETIC FIELD
 MDIP.deg                59.65:  MAGNETIC DIP
 MDEC.deg                 6.48:  MAGNETIC DECL
 GRDC.deg                 0.12:  GRID CORRECTION
 DEP .m                 334.96:  DEPTH
 TDD .m                1407.26:  TOTAL DEPTH (DRILLER)
 EKB .m                  43.00:  KB ELEVATION
 EDF .m                  43.00:  DF ELEVATION
 TDL .m                 228.00:  TOTAL DEPTH (LOGGER)
 VSC .                       0:  VS TO CLOSURE
 MAGU.                 1854484:  MAGUTM CHECKSUM
~Parameter Information Block
#MNEM.UNIT       Value        Description
#---------     -----------    ---------------------------
 AV  .mps                 4.00:  Ann Velocity 
 AVMX.mps                 4.73:  Max Ann Veloc 
 AZIF.deg               304.48:  Azm, Final 
 BHAT.        Rotary Steerable:  BHA Type 
 BREV.rev            257300.00:  Rev Bit Total 
 BROT.°/30m               0.00:  Build Rotating 
 BS  .in                  8.50:  Bit Size 
 BSZ .in                  8.50:  Bit Size 
 BTPL.psig              589.00:  Bit Press Loss 
 CABU.                      No:  Customer Abuse 
 CGEO.          Mubariz ghayev:  Customer Geo 
 TCS .hr                 64.25:  Time Ciculation Ended 
 CV  .mps                 3.50:  Crit Velocity 
 CVMX.mps                 4.52:  Max Crit Veloc 
 DD1 .             Aziz Aliyev:  Direct Drillr 1 
 DD2 .         Intigam Rahimov:  Direct Drillr 2 
 DD3 .          Rashad Habibov:  Direct Drillr 3 
 DDSV.               Geo-Pilot:  DD Service 
 DEFF.%                  98.00:  % Det Eff 
 DLRX.°/30m               0.00:  Dogleg Rot Max 
 DLSO.°/30m               0.00:  Dogleg Oriented 
 DLSX.°/30m               0.00:  Dogleg Str Max 
 DRET.      10.45.04 08-May-21:  Drill End Time 
 DRST.      03.30.04 04-May-21:  Drill Start Tim 
 DTIM.hr                 14.97:  Time Drilling 
 EDEP.m                4640.01:  End Depth 
 ENG1.         Dail Mahammadov:  Engineer 1 
 ENG2.           Eldar Hajiyev:  Engineer 2 
 ENG3.       Bakhtiar Jabbarli:  Engineer 3 
 ENG4.       Natik Hasanagayev:  Engineer 4 
 ETIM.      09.30.04 14-May-21:  End Time 
 FLOI.gpm               460.00:  Flow In 
 FLON.gpm               200.00:  Flow In Min 
 FLOS.cptm                0.00:  Fluid Loss 
 FLOX.gpm               505.00:  Flow In Max 
 HFLO.                      No:  High Flow 
 HPRE.                      No:  High Pressure 
 HTEM.                      No:  High Temp 
 HYDO.m                   1.80:  Hydro Offset 
 IFIN.deg                66.71:  Inc, Final 
 IMAX.deg                67.03:  Inc Max 
 IMIN.deg                66.63:  Inc Min 
 IMND.m                4550.58:  Inc Min Depth 
 IMXD.m                4439.01:  Inc Max Depth 
 JARR.                      No:  Jarring 
 LETM.      10.45.04 08-May-21:  Log End Time 
 LOST.hr                     0:  Lost Rig Time 
 LSTM.      03.30.04 04-May-21:  Log Start Time 
 MDCL.ppm             37000.00:  Mud Chlorides 
 MDES.     Inversion Oil/Synthetic:  Mud Desc 
 DFD .sg                  1.38:  Mud Density 
 MDMN.sg                  1.35:  Dens Mud Min 
 MDMX.sg                  1.40:  Dens Mud Max 
 MOIL.                   57.40:  Run Mud Oil % 
 MOWR.                   70:30:  Run Mud OWR 
 MSND.                    0.00:  Run Mud Sand % 
 MSOL.                   18.00:  Run Mud Solids% 
 DFV .spqt               71.00:  Mud Viscosity 
 MWOD.in                  6.75:  MWD Tool OD 
 MWSI.                      No:  Serv Intrp, MWD 
 OTIM.hr                242.76:  Time Operating 
 PCON.           Look Like New:  Pad Condition 
 PMAX.psia            12183.92:  Press Op, Max 
 PV  .cP                 27.00:  Mud PV 
 RUN .                    1300:  Run Number 
 ROPA.m/hr               15.00:  ROP Avg 
 ROPN.m/hr                9.00:  ROP Min 
 ROPX.m/hr               19.00:  ROP Max 
 RPMA.rpm               120.00:  RPM Surface Avg 
 RPMN.rpm               100.00:  RPM Surface Min 
 RPMX.rpm               120.00:  RPM Surface Max 
 RRUN.                    1300:  Rig Run Number 
 RTIM.hr                  5.00:  Time Reaming 
 SAZI.deg               304.73:  Azm, Start 
 SDEP.m                4412.01:  Start Depth 
 SIDD.                      No:  Serv Intrp, DD 
 SINC.deg                66.82:  Inc, Start 
 SPPA.psig             2800.00:  SPP Avg 
 SPPN.psig             2610.00:  SPP Min 
 SPPX.psig             3100.00:  SPP Max 
 STIM.      03.30.00 04-May-21:  Start Time 
 SVCS.                 DD, MWD:  Services 
 SVER.                    9.20:  Sperry Version 
 TDAT.m                 228.00:  Tot Depth Attmp 
 TDDF.                      No:  Trip for DD 
 TDLG.m                 228.00:  Tot Depth Loggd 
 TFF .                      No:  Trip for Fail 
 TQAA.f-kp               15.00:  Torque Abs Avg 
 TQAN.f-kp               12.00:  Torque Abs Min 
 TQAX.f-kp               22.00:  Torque Abs Max 
 TRRT.°/30m               0.00:  Turn Rotating 
 MRT .                    HCIM:  Maximum Recorded Temperature 
 TTMX.degC               90.20:  Max Tool Temp 
 VS01.                90627813:  Virtual Str1 SN 
 VS02.                90634712:  Virtual Str2 SN 
 VS03.                90643410:  Virtual Str3 SN 
 VS04.                90634712:  Virtual Str4 SN 
 WBMN.klb                 9.00:  WOB Min 
 WITN.        Elmaddin Rahimov:  Customer Rep 
 WITN.         Haytham Mostafa:  Customer Rep 2 
 WOBA.klb                15.00:  WOB Avg 
 WOBX.klb                23.00:  WOB Max 
 YP  .lhf2               29.00:  Yield Point 
~Curve Information Block
#MNEM.UNIT                 API CODE     Curve Description
#---------               -----------    ---------------------------
 TIME.HHMMSS            00 000 000 000:  GT Time & Date
 GTDEPTH.m              00 000 000 000:  GT Depth
 GTPQH.psia             00 000 000 000:  GT HR Quartz Pressure
 GTTQ.degC              00 000 000 000:  GT Quartz Temperature
 GTTN.NONE              00 000 000 000:  GT Test Number
 GTET.sec               00 000 000 000:  GT Elapsed Test Time
 GTTVD.m                00 000 000 000:  GT True Vertical Depth
#Other Information
#
#WARRANTY: Halliburton will use its best efforts to furnish customers with 
#accurate information and interpretations that are part of, and incident to, the services 
#provided.  However, Halliburton cannot and does not warrant the accuracy 
#or correctness of such information and interpretations.  Under no circumstances should any 
#such information or interpretation be relied upon as the sole basis for any drilling, 
#completion, production, or financial decision or any procedure involving any risk to the 
#safety of any drilling venture, drilling rig or its crew or any other third party.  The 
#Customer has full responsibility for all drilling, completion and production operation.  
#Halliburton makes no representations or warranties, either expressed or 
#implied, including, but not limited to, the implied warranties of merchantability or fitness 
#for a particular purpose, with respect to the services rendered.  In no event will 
#Halliburton be liable for failure to obtain any particular results or for 
#any damages, including, but not limited to, indirect, special or consequential damages, 
#resulting from the use of any information or interpretation provided by Halliburton.
#
~A           TIME           GTDEPTH  GTPQH  GTTQ  GTTN   GTET   GTTVD  
# ...
   07:55:14.020.09-May-2021 4413.51 4428.24 65.54 16.00 180.83 2938.18
   07:55:14.220.09-May-2021 4413.51 4428.16 65.54 16.00 181.03 2938.18
   07:55:14.421.09-May-2021 4413.51 4428.16 65.54 16.00 181.23 2938.18
   07:55:14.621.09-May-2021 4413.51 4428.24 65.54 16.00 181.43 2938.18
   07:55:14.821.09-May-2021 4413.51 4428.55 65.54 16.00 181.63 2938.18
   07:55:15.021.09-May-2021 4413.51 4428.12 65.54 16.00 181.83 2938.18
   07:55:15.221.09-May-2021 4413.51 4428.48 65.54 16.00 182.03 2938.18
   07:55:15.421.09-May-2021 4413.51 4428.48 65.54 16.00 182.23 2938.18
   07:55:15.621.09-May-2021 4413.51 4428.49 65.54 16.00 182.43 2938.18
   07:55:15.821.09-May-2021 4413.51 4428.62 65.54 16.00 182.63 2938.18
   07:55:16.021.09-May-2021 4413.51 4428.38 65.54 16.00 182.83 2938.18
   07:55:16.221.09-May-2021 4413.51 4428.67 65.54 16.00 183.03 2938.18
   07:55:16.421.09-May-2021 4413.51 4428.67 65.54 16.00 183.23 2938.18
   07:55:16.621.09-May-2021 4413.51 4428.46 65.54 16.00 183.43 2938.18
   07:55:16.821.09-May-2021 4413.51 4428.73 65.54 16.00 183.63 2938.18
   07:55:17.021.09-May-2021 4413.51 4428.76 65.54 16.00 183.83 2938.18
   07:55:17.221.09-May-2021 4413.51 4428.94 65.54 16.00 184.03 2938.18
   07:55:17.421.09-May-2021 4413.51 4428.94 65.54 16.00 184.23 2938.18
   07:55:17.621.09-May-2021 4413.51 4428.83 65.54 16.00 184.43 2938.18
   07:55:17.821.09-May-2021 4413.51 4428.81 65.54 16.00 184.63 2938.18
   07:55:18.021.09-May-2021 4413.51 4428.89 65.54 16.00 184.83 2938.18
   07:55:18.221.09-May-2021 4413.51 4428.87 65.54 16.00 185.03 2938.18
   07:55:18.421.09-May-2021 4413.51 4428.87 65.54 16.00 185.23 2938.18
   07:55:18.621.09-May-2021 4413.51 4428.89 65.54 16.00 185.43 2938.18
   07:55:18.821.09-May-2021 4413.51 4428.91 65.54 16.00 185.63 2938.18
   07:55:19.021.09-May-2021 4413.51 4428.90 65.54 16.00 185.83 2938.18
   07:55:19.221.09-May-2021 4413.51 4429.10 65.54 16.00 186.03 2938.18
   07:55:19.421.09-May-2021 4413.51 4429.10 65.54 16.00 186.23 2938.18
   07:55:19.621.09-May-2021 4413.51 4429.10 65.54 16.00 186.43 2938.18
   07:55:19.821.09-May-2021 4413.51 4428.82 65.54 16.00 186.63 2938.18
   07:55:20.021.09-May-2021 4413.51 4428.89 65.54 16.00 186.83 2938.18
   07:55:20.221.09-May-2021 4413.51 4428.90 65.54 16.00 187.03 2938.18
   07:55:20.421.09-May-2021 4413.51 4428.90 65.54 16.00 187.23 2938.18
   07:55:20.621.09-May-2021 4413.51 4428.92 65.54 16.00 187.43 2938.18
   07:55:20.821.09-May-2021 4413.51 4428.88 65.54 16.00 187.63 2938.18
   07:55:21.021.09-May-2021 4413.51 4428.90 65.54 16.00 187.83 2938.18
   07:55:21.221.09-May-2021 4413.51 4428.89 65.54 16.00 188.03 2938.18
   07:55:21.421.09-May-2021 4413.51 4428.89 65.54 16.00 188.23 2938.18
   07:55:21.622.09-May-2021 4413.51 4428.89 65.54 16.00 188.43 2938.18
   07:55:21.822.09-May-2021 4413.51 4428.90 65.54 16.00 188.63 2938.18
   07:55:22.022.09-May-2021 4413.51 4429.03 65.54 16.00 188.83 2938.18
   07:55:22.222.09-May-2021 4413.51 4428.84 65.54 16.00 189.03 2938.18
   07:55:22.422.09-May-2021 4413.51 4428.84 65.54 16.00 189.23 2938.18
   07:55:22.622.09-May-2021 4413.51 4429.14 65.54 16.00 189.43 2938.18
   07:55:22.822.09-May-2021 4413.51 4428.76 65.54 16.00 189.63 2938.18
   07:55:23.022.09-May-2021 4413.51 4428.88 65.54 16.00 189.83 2938.18
   07:55:23.222.09-May-2021 4413.51 4428.86 65.54 16.00 190.03 2938.18
   07:55:23.422.09-May-2021 4413.51 4428.86 65.54 16.00 190.23 2938.18
   07:55:23.622.09-May-2021 4413.51 4429.08 65.54 16.00 190.43 2938.18
   07:55:23.822.09-May-2021 4413.51 4428.72 65.54 16.00 190.63 2938.18
   07:55:24.022.09-May-2021 4413.51 4429.07 65.54 16.00 190.83 2938.18
   07:55:24.222.09-May-2021 4413.51 4428.79 65.54 16.00 191.03 2938.18
   07:55:24.422.09-May-2021 4413.51 4428.79 65.54 16.00 191.23 2938.18
   07:55:24.622.09-May-2021 4413.51 4428.98 65.54 16.00 191.43 2938.18
   07:55:24.822.09-May-2021 4413.51 4428.83 65.54 16.00 191.63 2938.18
   07:55:25.022.09-May-2021 4413.51 4428.81 65.54 16.00 191.83 2938.18
   07:55:25.222.09-May-2021 4413.51 4428.94 65.54 16.00 192.03 2938.18
   07:55:25.422.09-May-2021 4413.51 4428.94 65.54 16.00 192.23 2938.18
   07:55:25.622.09-May-2021 4413.51 4428.90 65.54 16.00 192.43 2938.18
   07:55:25.822.09-May-2021 4413.51 4428.84 65.54 16.00 192.63 2938.18
   07:55:26.022.09-May-2021 4413.51 4428.87 65.53 16.00 192.83 2938.18
   07:55:26.222.09-May-2021 4413.51 4428.85 65.53 16.00 193.03 2938.18
   07:55:26.422.09-May-2021 4413.51 4428.85 65.53 16.00 193.23 2938.18
   07:55:26.622.09-May-2021 4413.51 4428.85 65.53 16.00 193.43 2938.18
   07:55:26.822.09-May-2021 4413.51 4428.87 65.53 16.00 193.63 2938.18
   07:55:27.022.09-May-2021 4413.51 4428.87 65.53 16.00 193.83 2938.18
   07:55:27.222.09-May-2021 4413.51 4429.07 65.53 16.00 194.03 2938.18
   07:55:27.422.09-May-2021 4413.51 4429.07 65.53 16.00 194.23 2938.18
   07:55:27.622.09-May-2021 4413.51 4429.04 65.53 16.00 194.43 2938.18
   07:55:27.822.09-May-2021 4413.51 4428.77 65.53 16.00 194.63 2938.18
   07:55:28.022.09-May-2021 4413.51 4428.84 65.53 16.00 194.83 2938.18
   07:55:28.222.09-May-2021 4413.51 4428.86 65.53 16.00 195.03 2938.18
   07:55:28.422.09-May-2021 4413.51 4428.86 65.53 16.00 195.23 2938.18
   07:55:28.622.09-May-2021 4413.51 4428.86 65.53 16.00 195.43 2938.18
   07:55:28.823.09-May-2021 4413.51 4428.84 65.53 16.00 195.63 2938.18
   07:55:29.023.09-May-2021 4413.51 4428.86 65.53 16.00 195.83 2938.18
   07:55:29.223.09-May-2021 4413.51 4428.84 65.53 16.00 196.03 2938.18
   07:55:29.423.09-May-2021 4413.51 4428.84 65.53 16.00 196.23 2938.18
   07:55:29.623.09-May-2021 4413.51 4428.86 65.53 16.00 196.43 2938.18
   07:55:29.823.09-May-2021 4413.51 4428.87 65.53 16.00 196.63 2938.18
   07:55:30.023.09-May-2021 4413.51 4428.98 65.53 16.00 196.83 2938.18
   07:55:30.223.09-May-2021 4413.51 4428.79 65.53 16.00 197.03 2938.18
   07:55:30.423.09-May-2021 4413.51 4428.79 65.53 16.00 197.23 2938.18
   07:55:30.623.09-May-2021 4413.51 4428.98 65.53 16.00 197.43 2938.18
   07:55:30.823.09-May-2021 4413.51 4428.75 65.53 16.00 197.63 2938.18
   07:55:31.023.09-May-2021 4413.51 4428.96 65.53 16.00 197.83 2938.18
   07:55:31.223.09-May-2021 4413.51 4428.75 65.53 16.00 198.03 2938.18
   07:55:31.423.09-May-2021 4413.51 4428.75 65.53 16.00 198.23 2938.18
   07:55:31.623.09-May-2021 4413.51 4429.01 65.53 16.00 198.43 2938.18
   07:55:31.823.09-May-2021 4413.51 4428.68 65.53 16.00 198.63 2938.18
   07:55:32.023.09-May-2021 4413.51 4429.00 65.53 16.00 198.83 2938.18
   07:55:32.223.09-May-2021 4413.51 4428.72 65.53 16.00 199.03 2938.18
   07:55:32.423.09-May-2021 4413.51 4428.72 65.53 16.00 199.23 2938.18
   07:55:32.623.09-May-2021 4413.51 4428.72 65.53 16.00 199.43 2938.18
   07:55:32.823.09-May-2021 4413.51 4428.96 65.53 16.00 199.63 2938.18
   07:55:33.023.09-May-2021 4413.51 4428.79 65.53 16.00 199.83 2938.18
   07:55:33.223.09-May-2021 4413.51 4428.97 65.53 16.00 200.03 2938.18
   07:55:33.423.09-May-2021 4413.51 4428.97 65.53 16.00 200.23 2938.18
   07:55:33.623.09-May-2021 4413.51 4428.83 65.53 16.00 200.43 2938.18
   07:55:33.823.09-May-2021 4413.51 4428.82 65.53 16.00 200.63 2938.18
   07:55:34.023.09-May-2021 4413.51 4428.82 65.53 16.00 200.83 2938.18
   07:55:34.223.09-May-2021 4413.51 4428.82 65.53 16.00 201.03 2938.18
   07:55:34.423.09-May-2021 4413.51 4428.82 65.53 16.00 201.23 2938.18
   07:55:34.623.09-May-2021 4413.51 4428.83 65.53 16.00 201.43 2938.18
   07:55:34.823.09-May-2021 4413.51 4428.84 65.53 16.00 201.63 2938.18
   07:55:35.023.09-May-2021 4413.51 4428.84 65.53 16.00 201.83 2938.18
   07:55:35.223.09-May-2021 4413.51 4428.96 65.53 16.00 202.03 2938.18
   07:55:35.423.09-May-2021 4413.51 4428.96 65.53 16.00 202.23 2938.18
   07:55:35.623.09-May-2021 4413.51 4428.77 65.53 16.00 202.43 2938.18
   07:55:35.823.09-May-2021 4413.51 4428.89 65.53 16.00 202.63 2938.18
   07:55:36.024.09-May-2021 4413.51 4428.80 65.53 16.00 202.83 2938.18
   07:55:36.224.09-May-2021 4413.51 4428.84 65.53 16.00 203.03 2938.18
   07:55:36.424.09-May-2021 4413.51 4428.84 65.53 16.00 203.23 2938.18
