~Version Information
 VERS.                  2.0:   CWLS log ASCII Standard -VERSION 2.0
 WRAP.                   NO:   One line per depth step
~Well Information Block
#MNEM.UNIT     VALUE/NAME     DESCRIPTION
#---------     -----------    ---------------------------
 STRT.S             00:30:13 09-May-21: START TIME 00:30:13 09-May-21
 STOP.S             00:37:03 09-May-21: STOP TIME  00:37:03 09-May-21
 STEP.S                   0.00: STEP TIME
 NULL.                 -999.25: NULL VALUE
 PROV.                    Baku:  PROVINCE
 STAT.                    Baku:  STATE NAME
 SON .        AZ-XX-0906571588:  JOB NUMBER
 WTYP.                Deviated:  WELL TYPE
 COMP.     BP Exploration (Caspian Sea) ltd:  COMPANY
 BASE.              Azerbaijan:  LOGGING EQUIPMENT BASE LOCATION
 REGN.                   EESSA:  REGION
 CTRY.              Azerbaijan:  COUNTRY NAME
 FLD .                     ACG:  FIELD NAME
 WELL.                     J28:  WELL NAME
 RIG .             West Chirag:  RIG NAME
 DMF .             Drill Floor:  DRILL MEAS FROM
 PDAT.       Caspian Sea Level:  PERMANENT DATUM
 HPTY.       Minimum Curvature:  HOLE POS TYPE
 MDS .        Operator Entered:  MAG DATA SOURCE
 NREF.                    Grid:  NORTH REFERENCE
 SRVC.          TURAN DRILLING:  CONTRACTOR
 JOBN.        AZ-XX-0906571588:  JOB TICKET NUMB
 DCON.     Halliburton Sperry Drilling:  DIRECTNL CONTR
 STIM.      00.44.00 11-Feb-21:  START TIME
 DATE.      00.00.00 05-May-21:  END TIME
 SPUD.               13-Feb-21:  SPUD DATE
 MWDS.                    Baku:  MWD SHOP
 DOE .                     N/A:  DOE NUMBER
 UNIT.                     N/A:  LOGGING EQUIPMENT ID
 UWI .                     N/A:  UNIQUE WELL IDENTIFIER
 API .                     N/A:  API NUMBER
 CNTY.                        :  COUNTY
 LOC .                        :  LOCATION
 LMF .             Drill Floor:  LOG MEASURED FROM
 TVDS.m                  43.00:  TVDSS CORRECTN
 SDEP.m                 341.00:  START DEPTH
 EGL .m                   0.00:  GROUND ELEVATION
 WDMS.m                 169.80:  WD ELEV
 AGAP.m                  43.00:  AIR GAP
 EPD .m                   0.00:  ELEVATION
 APD .m                  43.00:  DEPTH ABOVE PD
 LATI.deg                40.13:  LATITUDE
 LONG.deg                51.22:  LONGITUDE
 UTMY.m             4443793.85:  UTM Y
 UTMX.m              519005.06:  UTM X
 WHEW.m                 -11.57:  WELL HEAD E/W
 WHNS.m                   8.57:  WELL HEAD N/S
 VSEW.m                 -11.57:  VERT SEC E/W
 VSNS.m                   8.57:  VERT SEC N/S
 DFWL.m                   0.00:  DISTANCE FWL
 DFSL.m                   0.00:  DISTANCE FSL
 VSDR.deg               299.34:  VERT SEC DIRECT
 GVFD.g                   1.00:  GRAVITY FIELD
 AZTC.deg                 6.36:  AZM TOTAL CORR
 MFLD.nT              50391.00:  MAGNETIC FIELD
 MDIP.deg                59.65:  MAGNETIC DIP
 MDEC.deg                 6.48:  MAGNETIC DECL
 GRDC.deg                 0.12:  GRID CORRECTION
 DEP .m                 334.96:  DEPTH
 TDD .m                1407.26:  TOTAL DEPTH (DRILLER)
 EKB .m                  43.00:  KB ELEVATION
 EDF .m                  43.00:  DF ELEVATION
 TDL .m                 228.00:  TOTAL DEPTH (LOGGER)
 VSC .                       0:  VS TO CLOSURE
 MAGU.                 1854484:  MAGUTM CHECKSUM
~Parameter Information Block
#MNEM.UNIT       Value        Description
#---------     -----------    ---------------------------
 AV  .mps                 4.00:  Ann Velocity 
 AVMX.mps                 4.73:  Max Ann Veloc 
 AZIF.deg               304.48:  Azm, Final 
 BHAT.        Rotary Steerable:  BHA Type 
 BREV.rev            257300.00:  Rev Bit Total 
 BROT.°/30m               0.00:  Build Rotating 
 BS  .in                  8.50:  Bit Size 
 BSZ .in                  8.50:  Bit Size 
 BTPL.psig              589.00:  Bit Press Loss 
 CABU.                      No:  Customer Abuse 
 CGEO.          Mubariz ghayev:  Customer Geo 
 TCS .hr                 64.25:  Time Ciculation Ended 
 CV  .mps                 3.50:  Crit Velocity 
 CVMX.mps                 4.52:  Max Crit Veloc 
 DD1 .             Aziz Aliyev:  Direct Drillr 1 
 DD2 .         Intigam Rahimov:  Direct Drillr 2 
 DD3 .          Rashad Habibov:  Direct Drillr 3 
 DDSV.               Geo-Pilot:  DD Service 
 DEFF.%                  98.00:  % Det Eff 
 DLRX.°/30m               0.00:  Dogleg Rot Max 
 DLSO.°/30m               0.00:  Dogleg Oriented 
 DLSX.°/30m               0.00:  Dogleg Str Max 
 DRET.      10.45.04 08-May-21:  Drill End Time 
 DRST.      03.30.04 04-May-21:  Drill Start Tim 
 DTIM.hr                 14.97:  Time Drilling 
 EDEP.m                4640.01:  End Depth 
 ENG1.         Dail Mahammadov:  Engineer 1 
 ENG2.           Eldar Hajiyev:  Engineer 2 
 ENG3.       Bakhtiar Jabbarli:  Engineer 3 
 ENG4.       Natik Hasanagayev:  Engineer 4 
 ETIM.      09.30.04 14-May-21:  End Time 
 FLOI.gpm               460.00:  Flow In 
 FLON.gpm               200.00:  Flow In Min 
 FLOS.cptm                0.00:  Fluid Loss 
 FLOX.gpm               505.00:  Flow In Max 
 HFLO.                      No:  High Flow 
 HPRE.                      No:  High Pressure 
 HTEM.                      No:  High Temp 
 HYDO.m                   1.80:  Hydro Offset 
 IFIN.deg                66.71:  Inc, Final 
 IMAX.deg                67.03:  Inc Max 
 IMIN.deg                66.63:  Inc Min 
 IMND.m                4550.58:  Inc Min Depth 
 IMXD.m                4439.01:  Inc Max Depth 
 JARR.                      No:  Jarring 
 LETM.      10.45.04 08-May-21:  Log End Time 
 LOST.hr                     0:  Lost Rig Time 
 LSTM.      03.30.04 04-May-21:  Log Start Time 
 MDCL.ppm             37000.00:  Mud Chlorides 
 MDES.     Inversion Oil/Synthetic:  Mud Desc 
 DFD .sg                  1.38:  Mud Density 
 MDMN.sg                  1.35:  Dens Mud Min 
 MDMX.sg                  1.40:  Dens Mud Max 
 MOIL.                   57.40:  Run Mud Oil % 
 MOWR.                   70:30:  Run Mud OWR 
 MSND.                    0.00:  Run Mud Sand % 
 MSOL.                   18.00:  Run Mud Solids% 
 DFV .spqt               71.00:  Mud Viscosity 
 MWOD.in                  6.75:  MWD Tool OD 
 MWSI.                      No:  Serv Intrp, MWD 
 OTIM.hr                242.76:  Time Operating 
 PCON.           Look Like New:  Pad Condition 
 PMAX.psia            12183.92:  Press Op, Max 
 PV  .cP                 27.00:  Mud PV 
 RUN .                    1300:  Run Number 
 ROPA.m/hr               15.00:  ROP Avg 
 ROPN.m/hr                9.00:  ROP Min 
 ROPX.m/hr               19.00:  ROP Max 
 RPMA.rpm               120.00:  RPM Surface Avg 
 RPMN.rpm               100.00:  RPM Surface Min 
 RPMX.rpm               120.00:  RPM Surface Max 
 RRUN.                    1300:  Rig Run Number 
 RTIM.hr                  5.00:  Time Reaming 
 SAZI.deg               304.73:  Azm, Start 
 SDEP.m                4412.01:  Start Depth 
 SIDD.                      No:  Serv Intrp, DD 
 SINC.deg                66.82:  Inc, Start 
 SPPA.psig             2800.00:  SPP Avg 
 SPPN.psig             2610.00:  SPP Min 
 SPPX.psig             3100.00:  SPP Max 
 STIM.      03.30.00 04-May-21:  Start Time 
 SVCS.                 DD, MWD:  Services 
 SVER.                    9.20:  Sperry Version 
 TDAT.m                 228.00:  Tot Depth Attmp 
 TDDF.                      No:  Trip for DD 
 TDLG.m                 228.00:  Tot Depth Loggd 
 TFF .                      No:  Trip for Fail 
 TQAA.f-kp               15.00:  Torque Abs Avg 
 TQAN.f-kp               12.00:  Torque Abs Min 
 TQAX.f-kp               22.00:  Torque Abs Max 
 TRRT.°/30m               0.00:  Turn Rotating 
 MRT .                    HCIM:  Maximum Recorded Temperature 
 TTMX.degC               90.20:  Max Tool Temp 
 VS01.                90627813:  Virtual Str1 SN 
 VS02.                90634712:  Virtual Str2 SN 
 VS03.                90643410:  Virtual Str3 SN 
 VS04.                90634712:  Virtual Str4 SN 
 WBMN.klb                 9.00:  WOB Min 
 WITN.        Elmaddin Rahimov:  Customer Rep 
 WITN.         Haytham Mostafa:  Customer Rep 2 
 WOBA.klb                15.00:  WOB Avg 
 WOBX.klb                23.00:  WOB Max 
 YP  .lhf2               29.00:  Yield Point 
~Curve Information Block
#MNEM.UNIT                 API CODE     Curve Description
#---------               -----------    ---------------------------
 TIME.HHMMSS            00 000 000 000:  GT Time & Date
 GTDEPTH.m              00 000 000 000:  GT Depth
 GTPQH.psia             00 000 000 000:  GT HR Quartz Pressure
 GTTQ.degC              00 000 000 000:  GT Quartz Temperature
 GTTN.NONE              00 000 000 000:  GT Test Number
 GTET.sec               00 000 000 000:  GT Elapsed Test Time
 GTTVD.m                00 000 000 000:  GT True Vertical Depth
#Other Information
#
#WARRANTY: Halliburton will use its best efforts to furnish customers with 
#accurate information and interpretations that are part of, and incident to, the services 
#provided.  However, Halliburton cannot and does not warrant the accuracy 
#or correctness of such information and interpretations.  Under no circumstances should any 
#such information or interpretation be relied upon as the sole basis for any drilling, 
#completion, production, or financial decision or any procedure involving any risk to the 
#safety of any drilling venture, drilling rig or its crew or any other third party.  The 
#Customer has full responsibility for all drilling, completion and production operation.  
#Halliburton makes no representations or warranties, either expressed or 
#implied, including, but not limited to, the implied warranties of merchantability or fitness 
#for a particular purpose, with respect to the services rendered.  In no event will 
#Halliburton be liable for failure to obtain any particular results or for 
#any damages, including, but not limited to, indirect, special or consequential damages, 
#resulting from the use of any information or interpretation provided by Halliburton.
#
~A           TIME           GTDEPTH  GTPQH  GTTQ  GTTN  GTET   GTTVD  
# ...
   00:34:26.946.09-May-2021 4516.51 3298.95 67.75 7.00 253.09 2978.60
   00:34:27.146.09-May-2021 4516.51 3298.95 67.75 7.00 253.29 2978.60
   00:34:27.346.09-May-2021 4516.51 3299.55 67.75 7.00 253.49 2978.60
   00:34:27.546.09-May-2021 4516.51 3299.54 67.75 7.00 253.69 2978.60
   00:34:27.747.09-May-2021 4516.51 3299.34 67.75 7.00 253.89 2978.60
   00:34:27.947.09-May-2021 4516.51 3299.34 67.75 7.00 254.09 2978.60
   00:34:28.147.09-May-2021 4516.51 3299.34 67.75 7.00 254.29 2978.60
   00:34:28.347.09-May-2021 4516.51 3299.36 67.75 7.00 254.49 2978.60
   00:34:28.547.09-May-2021 4516.51 3299.38 67.75 7.00 254.69 2978.60
   00:34:28.747.09-May-2021 4516.51 3299.40 67.75 7.00 254.89 2978.60
   00:34:28.947.09-May-2021 4516.51 3299.42 67.75 7.00 255.09 2978.60
   00:34:29.147.09-May-2021 4516.51 3299.42 67.75 7.00 255.29 2978.60
   00:34:29.347.09-May-2021 4516.51 3299.41 67.75 7.00 255.49 2978.60
   00:34:29.547.09-May-2021 4516.51 3149.76 67.75 7.00 255.69 2978.60
   00:34:29.747.09-May-2021 4516.51 2610.34 67.75 7.00 255.89 2978.60
   00:34:29.947.09-May-2021 4516.51 2123.63 67.76 7.00 256.09 2978.60
   00:34:30.147.09-May-2021 4516.51 2123.63 67.76 7.00 256.29 2978.60
   00:34:30.347.09-May-2021 4516.51 1396.24 67.75 7.00 256.49 2978.60
   00:34:30.548.09-May-2021 4516.51 1099.07 67.75 7.00 256.69 2978.60
   00:34:30.748.09-May-2021 4516.51  973.48 67.75 7.00 256.89 2978.60
   00:34:30.948.09-May-2021 4516.51  942.43 67.75 7.00 257.09 2978.60
   00:34:31.148.09-May-2021 4516.51  942.43 67.75 7.00 257.29 2978.60
   00:34:31.348.09-May-2021 4516.51  939.77 67.75 7.00 257.49 2978.60
   00:34:31.548.09-May-2021 4516.51  916.64 67.75 7.00 257.69 2978.60
   00:34:31.748.09-May-2021 4516.51  907.05 67.75 7.00 257.89 2978.60
   00:34:31.948.09-May-2021 4516.51  899.99 67.75 7.00 258.09 2978.60
   00:34:32.148.09-May-2021 4516.51  899.99 67.75 7.00 258.29 2978.60
   00:34:32.348.09-May-2021 4516.51  910.21 67.74 7.00 258.49 2978.60
   00:34:32.548.09-May-2021 4516.51  905.16 67.74 7.00 258.69 2978.60
   00:34:32.748.09-May-2021 4516.51  902.95 67.74 7.00 258.89 2978.60
   00:34:32.948.09-May-2021 4516.51  896.11 67.74 7.00 259.09 2978.60
   00:34:33.148.09-May-2021 4516.51  896.11 67.74 7.00 259.29 2978.60
   00:34:33.349.09-May-2021 4516.51  884.10 67.74 7.00 259.49 2978.60
   00:34:33.549.09-May-2021 4516.51  893.13 67.73 7.00 259.69 2978.60
   00:34:33.749.09-May-2021 4516.51  900.79 67.73 7.00 259.89 2978.60
   00:34:33.949.09-May-2021 4516.51  904.33 67.73 7.00 260.09 2978.60
   00:34:34.149.09-May-2021 4516.51  904.33 67.73 7.00 260.29 2978.60
   00:34:34.349.09-May-2021 4516.51  895.85 67.73 7.00 260.49 2978.60
   00:34:34.549.09-May-2021 4516.51  890.27 67.73 7.00 260.69 2978.60
   00:34:34.749.09-May-2021 4516.51  879.98 67.72 7.00 260.89 2978.60
   00:34:34.949.09-May-2021 4516.51  875.16 67.72 7.00 261.09 2978.60
   00:34:35.149.09-May-2021 4516.51  875.16 67.72 7.00 261.29 2978.60
   00:34:35.349.09-May-2021 4516.51  861.16 67.72 7.00 261.49 2978.60
   00:34:35.549.09-May-2021 4516.51  867.29 67.72 7.00 261.69 2978.60
   00:34:35.749.09-May-2021 4516.51  878.15 67.72 7.00 261.89 2978.60
   00:34:35.949.09-May-2021 4516.51  886.14 67.72 7.00 262.09 2978.60
   00:34:36.150.09-May-2021 4516.51  886.14 67.72 7.00 262.30 2978.60
   00:34:36.350.09-May-2021 4516.51  883.98 67.71 7.00 262.50 2978.60
   00:34:36.550.09-May-2021 4516.51  877.27 67.71 7.00 262.70 2978.60
   00:34:36.750.09-May-2021 4516.51  872.40 67.71 7.00 262.90 2978.60
   00:34:36.950.09-May-2021 4516.51  869.34 67.71 7.00 263.10 2978.60
   00:34:37.150.09-May-2021 4516.51  869.34 67.71 7.00 263.30 2978.60
   00:34:37.350.09-May-2021 4516.51  852.20 67.71 7.00 263.50 2978.60
   00:34:37.550.09-May-2021 4516.51  851.51 67.71 7.00 263.70 2978.60
   00:34:37.750.09-May-2021 4516.51  850.22 67.71 7.00 263.90 2978.60
   00:34:37.950.09-May-2021 4516.51  854.34 67.71 7.00 264.10 2978.60
   00:34:38.150.09-May-2021 4516.51  854.34 67.71 7.00 264.30 2978.60
   00:34:38.350.09-May-2021 4516.51  864.63 67.70 7.00 264.50 2978.60
   00:34:38.550.09-May-2021 4516.51  862.12 67.70 7.00 264.70 2978.60
   00:34:38.750.09-May-2021 4516.51  853.46 67.70 7.00 264.90 2978.60
   00:34:38.951.09-May-2021 4516.51  849.35 67.70 7.00 265.10 2978.60
   00:34:39.151.09-May-2021 4516.51  849.35 67.70 7.00 265.30 2978.60
   00:34:39.351.09-May-2021 4516.51  837.51 67.70 7.00 265.50 2978.60
   00:34:39.551.09-May-2021 4516.51  833.59 67.70 7.00 265.70 2978.60
   00:34:39.751.09-May-2021 4516.51  915.44 67.70 7.00 265.90 2978.60
   00:34:39.951.09-May-2021 4516.51 1082.24 67.70 7.00 266.10 2978.60
   00:34:40.151.09-May-2021 4516.51 1082.24 67.70 7.00 266.30 2978.60
   00:34:40.351.09-May-2021 4516.51 1398.85 67.70 7.00 266.50 2978.60
   00:34:40.551.09-May-2021 4516.51 1538.09 67.70 7.00 266.70 2978.60
   00:34:40.751.09-May-2021 4516.51 1666.43 67.70 7.00 266.90 2978.60
   00:34:40.951.09-May-2021 4516.51 1785.05 67.70 7.00 267.10 2978.60
   00:34:41.151.09-May-2021 4516.51 1785.05 67.70 7.00 267.30 2978.60
   00:34:41.351.09-May-2021 4516.51 1995.31 67.70 7.00 267.50 2978.60
   00:34:41.552.09-May-2021 4516.51 2088.32 67.70 7.00 267.70 2978.60
   00:34:41.752.09-May-2021 4516.51 2175.00 67.70 7.00 267.90 2978.60
   00:34:41.952.09-May-2021 4516.51 2255.80 67.70 7.00 268.10 2978.60
   00:34:42.152.09-May-2021 4516.51 2255.80 67.70 7.00 268.30 2978.60
   00:34:42.352.09-May-2021 4516.51 2400.05 67.70 7.00 268.50 2978.60
   00:34:42.552.09-May-2021 4516.51 2464.05 67.70 7.00 268.70 2978.60
   00:34:42.752.09-May-2021 4516.51 2523.90 67.70 7.00 268.90 2978.60
   00:34:42.952.09-May-2021 4516.51 2580.03 67.70 7.00 269.10 2978.60
   00:34:43.152.09-May-2021 4516.51 2580.03 67.70 7.00 269.30 2978.60
   00:34:43.352.09-May-2021 4516.51 2679.67 67.70 7.00 269.50 2978.60
   00:34:43.552.09-May-2021 4516.51 2724.31 67.70 7.00 269.70 2978.60
   00:34:43.752.09-May-2021 4516.51 2765.23 67.70 7.00 269.90 2978.60
   00:34:43.952.09-May-2021 4516.51 2804.41 67.70 7.00 270.10 2978.60
   00:34:44.152.09-May-2021 4516.51 2804.41 67.70 7.00 270.30 2978.60
   00:34:44.353.09-May-2021 4516.51 2873.62 67.70 7.00 270.50 2978.60
   00:34:44.553.09-May-2021 4516.51 2904.54 67.71 7.00 270.70 2978.60
   00:34:44.753.09-May-2021 4516.51 2933.20 67.71 7.00 270.90 2978.60
   00:34:44.953.09-May-2021 4516.51 2959.99 67.71 7.00 271.10 2978.60
   00:34:45.153.09-May-2021 4516.51 2959.99 67.71 7.00 271.30 2978.60
   00:34:45.353.09-May-2021 4516.51 3007.98 67.71 7.00 271.50 2978.60
   00:34:45.553.09-May-2021 4516.51 3029.53 67.71 7.00 271.70 2978.60
   00:34:45.753.09-May-2021 4516.51 3049.76 67.71 7.00 271.90 2978.60
   00:34:45.953.09-May-2021 4516.51 3068.58 67.71 7.00 272.10 2978.60
   00:34:46.153.09-May-2021 4516.51 3068.58 67.71 7.00 272.30 2978.60
   00:34:46.353.09-May-2021 4516.51 3101.81 67.72 7.00 272.50 2978.60
   00:34:46.553.09-May-2021 4516.51 3116.96 67.72 7.00 272.70 2978.60
   00:34:46.753.09-May-2021 4516.51 3131.12 67.72 7.00 272.90 2978.60
   00:34:46.953.09-May-2021 4516.51 3144.30 67.72 7.00 273.10 2978.60
   00:34:47.154.09-May-2021 4516.51 3144.30 67.72 7.00 273.30 2978.60
   00:34:47.354.09-May-2021 4516.51 3167.21 67.72 7.00 273.50 2978.60
   00:34:47.554.09-May-2021 4516.51 3177.70 67.72 7.00 273.70 2978.60
   00:34:47.754.09-May-2021 4516.51 3187.28 67.73 7.00 273.90 2978.60
   00:34:47.954.09-May-2021 4516.51 3196.03 67.73 7.00 274.10 2978.60
   00:34:48.154.09-May-2021 4516.51 3196.03 67.73 7.00 274.30 2978.60
   00:34:48.354.09-May-2021 4516.51 3211.44 67.73 7.00 274.50 2978.60
   00:34:48.554.09-May-2021 4516.51 3218.47 67.73 7.00 274.70 2978.60
   00:34:48.754.09-May-2021 4516.51 3224.92 67.73 7.00 274.90 2978.60
   00:34:48.954.09-May-2021 4516.51 3230.34 67.73 7.00 275.10 2978.60
   00:34:49.154.09-May-2021 4516.51 3230.34 67.73 7.00 275.30 2978.60
   00:34:49.354.09-May-2021 4516.51 3241.46 67.73 7.00 275.50 2978.60
   00:34:49.554.09-May-2021 4516.51 3245.47 67.74 7.00 275.70 2978.60
   00:34:49.754.09-May-2021 4516.51 3250.04 67.74 7.00 275.90 2978.60
