~Version Information
 VERS.                  2.0:   CWLS log ASCII Standard -VERSION 2.0
 WRAP.                   NO:   One line per depth step
~Well Information Block
#MNEM.UNIT     VALUE/NAME     DESCRIPTION
#---------     -----------    ---------------------------
 STRT.S             23:15:39 08-May-21: START TIME 23:15:39 08-May-21
 STOP.S             23:22:30 08-May-21: STOP TIME  23:22:30 08-May-21
 STEP.S                   0.00: STEP TIME
 NULL.                 -999.25: NULL VALUE
 PROV.                    Baku:  PROVINCE
 STAT.                    Baku:  STATE NAME
 SON .        AZ-XX-0906571588:  JOB NUMBER
 WTYP.                Deviated:  WELL TYPE
 COMP.     BP Exploration (Caspian Sea) ltd:  COMPANY
 BASE.              Azerbaijan:  LOGGING EQUIPMENT BASE LOCATION
 REGN.                   EESSA:  REGION
 CTRY.              Azerbaijan:  COUNTRY NAME
 FLD .                     ACG:  FIELD NAME
 WELL.                     J28:  WELL NAME
 RIG .             West Chirag:  RIG NAME
 DMF .             Drill Floor:  DRILL MEAS FROM
 PDAT.       Caspian Sea Level:  PERMANENT DATUM
 HPTY.       Minimum Curvature:  HOLE POS TYPE
 MDS .        Operator Entered:  MAG DATA SOURCE
 NREF.                    Grid:  NORTH REFERENCE
 SRVC.          TURAN DRILLING:  CONTRACTOR
 JOBN.        AZ-XX-0906571588:  JOB TICKET NUMB
 DCON.     Halliburton Sperry Drilling:  DIRECTNL CONTR
 STIM.      00.44.00 11-Feb-21:  START TIME
 DATE.      00.00.00 05-May-21:  END TIME
 SPUD.               13-Feb-21:  SPUD DATE
 MWDS.                    Baku:  MWD SHOP
 DOE .                     N/A:  DOE NUMBER
 UNIT.                     N/A:  LOGGING EQUIPMENT ID
 UWI .                     N/A:  UNIQUE WELL IDENTIFIER
 API .                     N/A:  API NUMBER
 CNTY.                        :  COUNTY
 LOC .                        :  LOCATION
 LMF .             Drill Floor:  LOG MEASURED FROM
 TVDS.m                  43.00:  TVDSS CORRECTN
 SDEP.m                 341.00:  START DEPTH
 EGL .m                   0.00:  GROUND ELEVATION
 WDMS.m                 169.80:  WD ELEV
 AGAP.m                  43.00:  AIR GAP
 EPD .m                   0.00:  ELEVATION
 APD .m                  43.00:  DEPTH ABOVE PD
 LATI.deg                40.13:  LATITUDE
 LONG.deg                51.22:  LONGITUDE
 UTMY.m             4443793.85:  UTM Y
 UTMX.m              519005.06:  UTM X
 WHEW.m                 -11.57:  WELL HEAD E/W
 WHNS.m                   8.57:  WELL HEAD N/S
 VSEW.m                 -11.57:  VERT SEC E/W
 VSNS.m                   8.57:  VERT SEC N/S
 DFWL.m                   0.00:  DISTANCE FWL
 DFSL.m                   0.00:  DISTANCE FSL
 VSDR.deg               299.34:  VERT SEC DIRECT
 GVFD.g                   1.00:  GRAVITY FIELD
 AZTC.deg                 6.36:  AZM TOTAL CORR
 MFLD.nT              50391.00:  MAGNETIC FIELD
 MDIP.deg                59.65:  MAGNETIC DIP
 MDEC.deg                 6.48:  MAGNETIC DECL
 GRDC.deg                 0.12:  GRID CORRECTION
 DEP .m                 334.96:  DEPTH
 TDD .m                1407.26:  TOTAL DEPTH (DRILLER)
 EKB .m                  43.00:  KB ELEVATION
 EDF .m                  43.00:  DF ELEVATION
 TDL .m                 228.00:  TOTAL DEPTH (LOGGER)
 VSC .                       0:  VS TO CLOSURE
 MAGU.                 1854484:  MAGUTM CHECKSUM
~Parameter Information Block
#MNEM.UNIT       Value        Description
#---------     -----------    ---------------------------
 AV  .mps                 4.00:  Ann Velocity 
 AVMX.mps                 4.73:  Max Ann Veloc 
 AZIF.deg               304.48:  Azm, Final 
 BHAT.        Rotary Steerable:  BHA Type 
 BREV.rev            257300.00:  Rev Bit Total 
 BROT.°/30m               0.00:  Build Rotating 
 BS  .in                  8.50:  Bit Size 
 BSZ .in                  8.50:  Bit Size 
 BTPL.psig              589.00:  Bit Press Loss 
 CABU.                      No:  Customer Abuse 
 CGEO.          Mubariz ghayev:  Customer Geo 
 COMM.                     dˆ[:  Run Comments 1 
 TCS .hr                 64.25:  Time Ciculation Ended 
 CV  .mps                 3.50:  Crit Velocity 
 CVMX.mps                 4.52:  Max Crit Veloc 
 DD1 .             Aziz Aliyev:  Direct Drillr 1 
 DD2 .         Intigam Rahimov:  Direct Drillr 2 
 DD3 .          Rashad Habibov:  Direct Drillr 3 
 DDSV.               Geo-Pilot:  DD Service 
 DEFF.%                  98.00:  % Det Eff 
 DLRX.°/30m               0.00:  Dogleg Rot Max 
 DLSO.°/30m               0.00:  Dogleg Oriented 
 DLSX.°/30m               0.00:  Dogleg Str Max 
 DRET.      10.45.04 08-May-21:  Drill End Time 
 DRST.      03.30.04 04-May-21:  Drill Start Tim 
 DTIM.hr                 14.97:  Time Drilling 
 EDEP.m                4640.01:  End Depth 
 ENG1.         Dail Mahammadov:  Engineer 1 
 ENG2.           Eldar Hajiyev:  Engineer 2 
 ENG3.       Bakhtiar Jabbarli:  Engineer 3 
 ENG4.       Natik Hasanagayev:  Engineer 4 
 ETIM.      09.30.04 14-May-21:  End Time 
 FLOI.gpm               460.00:  Flow In 
 FLON.gpm               200.00:  Flow In Min 
 FLOS.cptm                0.00:  Fluid Loss 
 FLOX.gpm               505.00:  Flow In Max 
 HFLO.                      No:  High Flow 
 HPRE.                      No:  High Pressure 
 HTEM.                      No:  High Temp 
 HYDO.m                   1.80:  Hydro Offset 
 IFIN.deg                66.71:  Inc, Final 
 IMAX.deg                67.03:  Inc Max 
 IMIN.deg                66.63:  Inc Min 
 IMND.m                4550.58:  Inc Min Depth 
 IMXD.m                4439.01:  Inc Max Depth 
 JARR.                      No:  Jarring 
 LETM.      10.45.04 08-May-21:  Log End Time 
 LOST.hr                     0:  Lost Rig Time 
 LSTM.      03.30.04 04-May-21:  Log Start Time 
 MDCL.ppm             37000.00:  Mud Chlorides 
 MDES.     Inversion Oil/Synthetic:  Mud Desc 
 DFD .sg                  1.38:  Mud Density 
 MDMN.sg                  1.35:  Dens Mud Min 
 MDMX.sg                  1.40:  Dens Mud Max 
 MOIL.                   57.40:  Run Mud Oil % 
 MOWR.                   70:30:  Run Mud OWR 
 MSND.                    0.00:  Run Mud Sand % 
 MSOL.                   18.00:  Run Mud Solids% 
 DFV .spqt               71.00:  Mud Viscosity 
 MWOD.in                  6.75:  MWD Tool OD 
 MWSI.                      No:  Serv Intrp, MWD 
 OTIM.hr                242.76:  Time Operating 
 PCON.           Look Like New:  Pad Condition 
 PMAX.psia            12183.92:  Press Op, Max 
 PV  .cP                 27.00:  Mud PV 
 RUN .                    1300:  Run Number 
 ROPA.m/hr               15.00:  ROP Avg 
 ROPN.m/hr                9.00:  ROP Min 
 ROPX.m/hr               19.00:  ROP Max 
 RPMA.rpm               120.00:  RPM Surface Avg 
 RPMN.rpm               100.00:  RPM Surface Min 
 RPMX.rpm               120.00:  RPM Surface Max 
 RRUN.                    1300:  Rig Run Number 
 RTIM.hr                  5.00:  Time Reaming 
 SAZI.deg               304.73:  Azm, Start 
 SDEP.m                4412.01:  Start Depth 
 SIDD.                      No:  Serv Intrp, DD 
 SINC.deg                66.82:  Inc, Start 
 SPPA.psig             2800.00:  SPP Avg 
 SPPN.psig             2610.00:  SPP Min 
 SPPX.psig             3100.00:  SPP Max 
 STIM.      03.30.00 04-May-21:  Start Time 
 SVCS.                 DD, MWD:  Services 
 SVER.                    9.20:  Sperry Version 
 TDAT.m                 228.00:  Tot Depth Attmp 
 TDDF.                      No:  Trip for DD 
 TDLG.m                 228.00:  Tot Depth Loggd 
 TFF .                      No:  Trip for Fail 
 TQAA.f-kp               15.00:  Torque Abs Avg 
 TQAN.f-kp               12.00:  Torque Abs Min 
 TQAX.f-kp               22.00:  Torque Abs Max 
 TRRT.°/30m               0.00:  Turn Rotating 
 MRT .                    HCIM:  Maximum Recorded Temperature 
 TTMX.degC               90.20:  Max Tool Temp 
 VS01.                90627813:  Virtual Str1 SN 
 VS02.                90634712:  Virtual Str2 SN 
 VS03.                90643410:  Virtual Str3 SN 
 VS04.                90634712:  Virtual Str4 SN 
 WBMN.klb                 9.00:  WOB Min 
 WITN.        Elmaddin Rahimov:  Customer Rep 
 WITN.         Haytham Mostafa:  Customer Rep 2 
 WOBA.klb                15.00:  WOB Avg 
 WOBX.klb                23.00:  WOB Max 
 YP  .lhf2               29.00:  Yield Point 
~Curve Information Block
#MNEM.UNIT                 API CODE     Curve Description
#---------               -----------    ---------------------------
 TIME.HHMMSS            00 000 000 000:  GT Time & Date
 GTDEPTH.m              00 000 000 000:  GT Depth
 GTPQH.psia             00 000 000 000:  GT HR Quartz Pressure
 GTTQ.degC              00 000 000 000:  GT Quartz Temperature
 GTTN.NONE              00 000 000 000:  GT Test Number
 GTET.sec               00 000 000 000:  GT Elapsed Test Time
 GTTVD.m                00 000 000 000:  GT True Vertical Depth
#Other Information
#
#WARRANTY: Halliburton will use its best efforts to furnish customers with 
#accurate information and interpretations that are part of, and incident to, the services 
#provided.  However, Halliburton cannot and does not warrant the accuracy 
#or correctness of such information and interpretations.  Under no circumstances should any 
#such information or interpretation be relied upon as the sole basis for any drilling, 
#completion, production, or financial decision or any procedure involving any risk to the 
#safety of any drilling venture, drilling rig or its crew or any other third party.  The 
#Customer has full responsibility for all drilling, completion and production operation.  
#Halliburton makes no representations or warranties, either expressed or 
#implied, including, but not limited to, the implied warranties of merchantability or fitness 
#for a particular purpose, with respect to the services rendered.  In no event will 
#Halliburton be liable for failure to obtain any particular results or for 
#any damages, including, but not limited to, indirect, special or consequential damages, 
#resulting from the use of any information or interpretation provided by Halliburton.
#
~A           TIME           GTDEPTH  GTPQH  GTTQ  GTTN  GTET   GTTVD  
# ...
   23:22:10.537.08-May-2021 4549.51 6848.89 68.60 5.00 390.88 2991.64
   23:22:10.737.08-May-2021 4549.51 6848.89 68.60 5.00 391.08 2991.64
   23:22:10.936.08-May-2021 4549.51 6841.89 68.60 5.00 391.28 2991.64
   23:22:11.136.08-May-2021 4549.51 6838.90 68.60 5.00 391.48 2991.64
   23:22:11.336.08-May-2021 4549.51 6839.51 68.60 5.00 391.68 2991.64
   23:22:11.536.08-May-2021 4549.51 6837.93 68.60 5.00 391.88 2991.64
   23:22:11.736.08-May-2021 4549.51 6837.93 68.60 5.00 392.08 2991.64
   23:22:11.936.08-May-2021 4549.51 6836.75 68.60 5.00 392.28 2991.64
   23:22:12.136.08-May-2021 4549.51 6836.47 68.60 5.00 392.48 2991.64
   23:22:12.336.08-May-2021 4549.51 6836.44 68.60 5.00 392.68 2991.64
   23:22:12.536.08-May-2021 4549.51 6836.58 68.60 5.00 392.88 2991.64
   23:22:12.736.08-May-2021 4549.51 6836.58 68.60 5.00 393.08 2991.64
   23:22:12.936.08-May-2021 4549.51 6836.80 68.60 5.00 393.28 2991.64
   23:22:13.136.08-May-2021 4549.51 6841.91 68.60 5.00 393.48 2991.64
   23:22:13.336.08-May-2021 4549.51 6840.10 68.60 5.00 393.68 2991.64
   23:22:13.536.08-May-2021 4549.51 6844.70 68.60 5.00 393.88 2991.64
   23:22:13.736.08-May-2021 4549.51 6844.70 68.60 5.00 394.08 2991.64
   23:22:13.936.08-May-2021 4549.51 6839.88 68.60 5.00 394.28 2991.64
   23:22:14.135.08-May-2021 4549.51 6837.88 68.60 5.00 394.48 2991.64
   23:22:14.335.08-May-2021 4549.51 6841.93 68.60 5.00 394.68 2991.64
   23:22:14.535.08-May-2021 4549.51 6839.72 68.60 5.00 394.88 2991.64
   23:22:14.735.08-May-2021 4549.51 6839.72 68.60 5.00 395.08 2991.64
   23:22:14.935.08-May-2021 4549.51 6838.73 68.60 5.00 395.28 2991.64
   23:22:15.135.08-May-2021 4549.51 6844.96 68.60 5.00 395.48 2991.64
   23:22:15.335.08-May-2021 4549.51 6840.70 68.60 5.00 395.68 2991.64
   23:22:15.535.08-May-2021 4549.51 6845.78 68.60 5.00 395.88 2991.64
   23:22:15.735.08-May-2021 4549.51 6845.78 68.60 5.00 396.08 2991.64
   23:22:15.935.08-May-2021 4549.51 6840.53 68.60 5.00 396.28 2991.64
   23:22:16.135.08-May-2021 4549.51 6837.13 68.60 5.00 396.48 2991.64
   23:22:16.335.08-May-2021 4549.51 6848.07 68.60 5.00 396.68 2991.64
   23:22:16.535.08-May-2021 4549.51 6842.69 68.60 5.00 396.88 2991.64
   23:22:16.735.08-May-2021 4549.51 6842.69 68.60 5.00 397.08 2991.64
   23:22:16.935.08-May-2021 4549.51 6838.37 68.60 5.00 397.28 2991.64
   23:22:17.135.08-May-2021 4549.51 6839.46 68.60 5.00 397.48 2991.64
   23:22:17.334.08-May-2021 4549.51 6838.22 68.60 5.00 397.68 2991.64
   23:22:17.534.08-May-2021 4549.51 6837.49 68.60 5.00 397.88 2991.64
   23:22:17.734.08-May-2021 4549.51 6837.49 68.60 5.00 398.08 2991.64
   23:22:17.934.08-May-2021 4549.51 6837.98 68.60 5.00 398.28 2991.64
   23:22:18.134.08-May-2021 4549.51 6838.08 68.60 5.00 398.48 2991.64
   23:22:18.334.08-May-2021 4549.51 6839.15 68.60 5.00 398.68 2991.64
   23:22:18.534.08-May-2021 4549.51 6839.27 68.60 5.00 398.88 2991.64
   23:22:18.734.08-May-2021 4549.51 6839.27 68.60 5.00 399.08 2991.64
   23:22:18.934.08-May-2021 4549.51 6846.18 68.59 5.00 399.28 2991.64
   23:22:19.134.08-May-2021 4549.51 6843.80 68.59 5.00 399.48 2991.64
   23:22:19.334.08-May-2021 4549.51 6843.10 68.59 5.00 399.68 2991.64
   23:22:19.534.08-May-2021 4549.51 6840.55 68.59 5.00 399.88 2991.64
   23:22:19.734.08-May-2021 4549.51 6840.55 68.59 5.00 400.08 2991.64
   23:22:19.934.08-May-2021 4549.51 6839.01 68.59 5.00 400.28 2991.64
   23:22:20.134.08-May-2021 4549.51 6837.60 68.59 5.00 400.48 2991.64
   23:22:20.334.08-May-2021 4549.51 6837.76 68.59 5.00 400.68 2991.64
   23:22:20.533.08-May-2021 4549.51 6837.45 68.59 5.00 400.88 2991.64
   23:22:20.733.08-May-2021 4549.51 6837.45 68.59 5.00 401.08 2991.64
   23:22:20.933.08-May-2021 4549.51 6837.55 68.59 5.00 401.27 2991.64
   23:22:21.133.08-May-2021 4549.51 6838.33 68.59 5.00 401.47 2991.64
   23:22:21.333.08-May-2021 4549.51 6837.17 68.59 5.00 401.67 2991.64
   23:22:21.533.08-May-2021 4549.51 6836.08 68.59 5.00 401.87 2991.64
   23:22:21.733.08-May-2021 4549.51 6836.08 68.59 5.00 402.07 2991.64
   23:22:21.933.08-May-2021 4549.51 6846.87 68.59 5.00 402.27 2991.64
   23:22:22.133.08-May-2021 4549.51 6841.31 68.59 5.00 402.47 2991.64
   23:22:22.333.08-May-2021 4549.51 6838.95 68.59 5.00 402.67 2991.64
   23:22:22.533.08-May-2021 4549.51 6837.82 68.59 5.00 402.87 2991.64
   23:22:22.733.08-May-2021 4549.51 6837.82 68.59 5.00 403.07 2991.64
   23:22:22.933.08-May-2021 4549.51 6841.13 68.59 5.00 403.27 2991.64
   23:22:23.133.08-May-2021 4549.51 6846.25 68.59 5.00 403.47 2991.64
   23:22:23.333.08-May-2021 4549.51 6838.85 68.59 5.00 403.67 2991.64
   23:22:23.533.08-May-2021 4549.51 6845.08 68.59 5.00 403.87 2991.64
   23:22:23.732.08-May-2021 4549.51 6845.08 68.59 5.00 404.07 2991.64
   23:22:23.932.08-May-2021 4549.51 6845.54 68.59 5.00 404.27 2991.64
   23:22:24.132.08-May-2021 4549.51 6839.75 68.59 5.00 404.47 2991.64
   23:22:24.332.08-May-2021 4549.51 6841.36 68.59 5.00 404.67 2991.64
   23:22:24.532.08-May-2021 4549.51 6847.28 68.59 5.00 404.87 2991.64
   23:22:24.732.08-May-2021 4549.51 6847.28 68.59 5.00 405.07 2991.64
   23:22:24.932.08-May-2021 4549.51 6842.40 68.59 5.00 405.27 2991.64
   23:22:25.132.08-May-2021 4549.51 6840.34 68.59 5.00 405.47 2991.64
   23:22:25.332.08-May-2021 4549.51 6841.60 68.59 5.00 405.67 2991.64
   23:22:25.532.08-May-2021 4549.51 6839.61 68.59 5.00 405.87 2991.64
   23:22:25.732.08-May-2021 4549.51 6839.61 68.59 5.00 406.07 2991.64
   23:22:25.932.08-May-2021 4549.51 6838.72 68.59 5.00 406.27 2991.64
   23:22:26.132.08-May-2021 4549.51 6838.92 68.59 5.00 406.47 2991.64
   23:22:26.332.08-May-2021 4549.51 6838.88 68.59 5.00 406.67 2991.64
   23:22:26.532.08-May-2021 4549.51 6839.03 68.59 5.00 406.87 2991.64
   23:22:26.732.08-May-2021 4549.51 6839.03 68.59 5.00 407.07 2991.64
   23:22:26.931.08-May-2021 4549.51 6840.08 68.59 5.00 407.27 2991.64
   23:22:27.131.08-May-2021 4549.51 6845.55 68.59 5.00 407.47 2991.64
   23:22:27.331.08-May-2021 4549.51 6842.31 68.59 5.00 407.67 2991.64
   23:22:27.531.08-May-2021 4549.51 6846.45 68.59 5.00 407.87 2991.64
   23:22:27.731.08-May-2021 4549.51 6846.45 68.59 5.00 408.07 2991.64
   23:22:27.931.08-May-2021 4549.51 6840.64 68.59 5.00 408.27 2991.64
   23:22:28.131.08-May-2021 4549.51 6838.85 68.59 5.00 408.47 2991.64
   23:22:28.331.08-May-2021 4549.51 6837.97 68.59 5.00 408.67 2991.64
   23:22:28.531.08-May-2021 4549.51 6837.24 68.59 5.00 408.87 2991.64
   23:22:28.731.08-May-2021 4549.51 6837.24 68.59 5.00 409.07 2991.64
   23:22:28.931.08-May-2021 4549.51 6836.85 68.58 5.00 409.27 2991.64
   23:22:29.131.08-May-2021 4549.51 6837.14 68.58 5.00 409.47 2991.64
   23:22:29.331.08-May-2021 4549.51 6837.68 68.58 5.00 409.67 2991.64
   23:22:29.531.08-May-2021 4549.51 6837.87 68.58 5.00 409.87 2991.64
   23:22:29.731.08-May-2021 4549.51 6837.87 68.58 5.00 410.07 2991.64
   23:22:29.931.08-May-2021 4549.51 6843.88 68.58 5.00 410.27 2991.64
   23:22:30.130.08-May-2021 4549.51 6846.95 68.58 5.00 410.47 2991.64
   23:22:30.330.08-May-2021 4549.51 6841.01 68.58 5.00 410.67 2991.64
