~Version Information
 VERS.                  2.0:   CWLS log ASCII Standard -VERSION 2.0
 WRAP.                   NO:   One line per depth step
~Well Information Block
#MNEM.UNIT     VALUE/NAME     DESCRIPTION
#---------     -----------    ---------------------------
 STRT.S             23:15:39 08-May-21: START TIME 23:15:39 08-May-21
 STOP.S             23:22:30 08-May-21: STOP TIME  23:22:30 08-May-21
 STEP.S                   0.00: STEP TIME
 NULL.                 -999.25: NULL VALUE
 PROV.                    Baku:  PROVINCE
 STAT.                    Baku:  STATE NAME
 SON .        AZ-XX-0906571588:  JOB NUMBER
 WTYP.                Deviated:  WELL TYPE
 COMP.     BP Exploration (Caspian Sea) ltd:  COMPANY
 BASE.              Azerbaijan:  LOGGING EQUIPMENT BASE LOCATION
 REGN.                   EESSA:  REGION
 CTRY.              Azerbaijan:  COUNTRY NAME
 FLD .                     ACG:  FIELD NAME
 WELL.                     J28:  WELL NAME
 RIG .             West Chirag:  RIG NAME
 DMF .             Drill Floor:  DRILL MEAS FROM
 PDAT.       Caspian Sea Level:  PERMANENT DATUM
 HPTY.       Minimum Curvature:  HOLE POS TYPE
 MDS .        Operator Entered:  MAG DATA SOURCE
 NREF.                    Grid:  NORTH REFERENCE
 SRVC.          TURAN DRILLING:  CONTRACTOR
 JOBN.        AZ-XX-0906571588:  JOB TICKET NUMB
 DCON.     Halliburton Sperry Drilling:  DIRECTNL CONTR
 STIM.      00.44.00 11-Feb-21:  START TIME
 DATE.      00.00.00 05-May-21:  END TIME
 SPUD.               13-Feb-21:  SPUD DATE
 MWDS.                    Baku:  MWD SHOP
 DOE .                     N/A:  DOE NUMBER
 UNIT.                     N/A:  LOGGING EQUIPMENT ID
 UWI .                     N/A:  UNIQUE WELL IDENTIFIER
 API .                     N/A:  API NUMBER
 CNTY.                        :  COUNTY
 LOC .                        :  LOCATION
 LMF .             Drill Floor:  LOG MEASURED FROM
 TVDS.m                  43.00:  TVDSS CORRECTN
 SDEP.m                 341.00:  START DEPTH
 EGL .m                   0.00:  GROUND ELEVATION
 WDMS.m                 169.80:  WD ELEV
 AGAP.m                  43.00:  AIR GAP
 EPD .m                   0.00:  ELEVATION
 APD .m                  43.00:  DEPTH ABOVE PD
 LATI.deg                40.13:  LATITUDE
 LONG.deg                51.22:  LONGITUDE
 UTMY.m             4443793.85:  UTM Y
 UTMX.m              519005.06:  UTM X
 WHEW.m                 -11.57:  WELL HEAD E/W
 WHNS.m                   8.57:  WELL HEAD N/S
 VSEW.m                 -11.57:  VERT SEC E/W
 VSNS.m                   8.57:  VERT SEC N/S
 DFWL.m                   0.00:  DISTANCE FWL
 DFSL.m                   0.00:  DISTANCE FSL
 VSDR.deg               299.34:  VERT SEC DIRECT
 GVFD.g                   1.00:  GRAVITY FIELD
 AZTC.deg                 6.36:  AZM TOTAL CORR
 MFLD.nT              50391.00:  MAGNETIC FIELD
 MDIP.deg                59.65:  MAGNETIC DIP
 MDEC.deg                 6.48:  MAGNETIC DECL
 GRDC.deg                 0.12:  GRID CORRECTION
 DEP .m                 334.96:  DEPTH
 TDD .m                1407.26:  TOTAL DEPTH (DRILLER)
 EKB .m                  43.00:  KB ELEVATION
 EDF .m                  43.00:  DF ELEVATION
 TDL .m                 228.00:  TOTAL DEPTH (LOGGER)
 VSC .                       0:  VS TO CLOSURE
 MAGU.                 1854484:  MAGUTM CHECKSUM
~Parameter Information Block
#MNEM.UNIT       Value        Description
#---------     -----------    ---------------------------
 AV  .mps                 4.00:  Ann Velocity 
 AVMX.mps                 4.73:  Max Ann Veloc 
 AZIF.deg               304.48:  Azm, Final 
 BHAT.        Rotary Steerable:  BHA Type 
 BREV.rev            257300.00:  Rev Bit Total 
 BROT.°/30m               0.00:  Build Rotating 
 BS  .in                  8.50:  Bit Size 
 BSZ .in                  8.50:  Bit Size 
 BTPL.psig              589.00:  Bit Press Loss 
 CABU.                      No:  Customer Abuse 
 CGEO.          Mubariz ghayev:  Customer Geo 
 COMM.                     dˆ[:  Run Comments 1 
 TCS .hr                 64.25:  Time Ciculation Ended 
 CV  .mps                 3.50:  Crit Velocity 
 CVMX.mps                 4.52:  Max Crit Veloc 
 DD1 .             Aziz Aliyev:  Direct Drillr 1 
 DD2 .         Intigam Rahimov:  Direct Drillr 2 
 DD3 .          Rashad Habibov:  Direct Drillr 3 
 DDSV.               Geo-Pilot:  DD Service 
 DEFF.%                  98.00:  % Det Eff 
 DLRX.°/30m               0.00:  Dogleg Rot Max 
 DLSO.°/30m               0.00:  Dogleg Oriented 
 DLSX.°/30m               0.00:  Dogleg Str Max 
 DRET.      10.45.04 08-May-21:  Drill End Time 
 DRST.      03.30.04 04-May-21:  Drill Start Tim 
 DTIM.hr                 14.97:  Time Drilling 
 EDEP.m                4640.01:  End Depth 
 ENG1.         Dail Mahammadov:  Engineer 1 
 ENG2.           Eldar Hajiyev:  Engineer 2 
 ENG3.       Bakhtiar Jabbarli:  Engineer 3 
 ENG4.       Natik Hasanagayev:  Engineer 4 
 ETIM.      09.30.04 14-May-21:  End Time 
 FLOI.gpm               460.00:  Flow In 
 FLON.gpm               200.00:  Flow In Min 
 FLOS.cptm                0.00:  Fluid Loss 
 FLOX.gpm               505.00:  Flow In Max 
 HFLO.                      No:  High Flow 
 HPRE.                      No:  High Pressure 
 HTEM.                      No:  High Temp 
 HYDO.m                   1.80:  Hydro Offset 
 IFIN.deg                66.71:  Inc, Final 
 IMAX.deg                67.03:  Inc Max 
 IMIN.deg                66.63:  Inc Min 
 IMND.m                4550.58:  Inc Min Depth 
 IMXD.m                4439.01:  Inc Max Depth 
 JARR.                      No:  Jarring 
 LETM.      10.45.04 08-May-21:  Log End Time 
 LOST.hr                     0:  Lost Rig Time 
 LSTM.      03.30.04 04-May-21:  Log Start Time 
 MDCL.ppm             37000.00:  Mud Chlorides 
 MDES.     Inversion Oil/Synthetic:  Mud Desc 
 DFD .sg                  1.38:  Mud Density 
 MDMN.sg                  1.35:  Dens Mud Min 
 MDMX.sg                  1.40:  Dens Mud Max 
 MOIL.                   57.40:  Run Mud Oil % 
 MOWR.                   70:30:  Run Mud OWR 
 MSND.                    0.00:  Run Mud Sand % 
 MSOL.                   18.00:  Run Mud Solids% 
 DFV .spqt               71.00:  Mud Viscosity 
 MWOD.in                  6.75:  MWD Tool OD 
 MWSI.                      No:  Serv Intrp, MWD 
 OTIM.hr                242.76:  Time Operating 
 PCON.           Look Like New:  Pad Condition 
 PMAX.psia            12183.92:  Press Op, Max 
 PV  .cP                 27.00:  Mud PV 
 RUN .                    1300:  Run Number 
 ROPA.m/hr               15.00:  ROP Avg 
 ROPN.m/hr                9.00:  ROP Min 
 ROPX.m/hr               19.00:  ROP Max 
 RPMA.rpm               120.00:  RPM Surface Avg 
 RPMN.rpm               100.00:  RPM Surface Min 
 RPMX.rpm               120.00:  RPM Surface Max 
 RRUN.                    1300:  Rig Run Number 
 RTIM.hr                  5.00:  Time Reaming 
 SAZI.deg               304.73:  Azm, Start 
 SDEP.m                4412.01:  Start Depth 
 SIDD.                      No:  Serv Intrp, DD 
 SINC.deg                66.82:  Inc, Start 
 SPPA.psig             2800.00:  SPP Avg 
 SPPN.psig             2610.00:  SPP Min 
 SPPX.psig             3100.00:  SPP Max 
 STIM.      03.30.00 04-May-21:  Start Time 
 SVCS.                 DD, MWD:  Services 
 SVER.                    9.20:  Sperry Version 
 TDAT.m                 228.00:  Tot Depth Attmp 
 TDDF.                      No:  Trip for DD 
 TDLG.m                 228.00:  Tot Depth Loggd 
 TFF .                      No:  Trip for Fail 
 TQAA.f-kp               15.00:  Torque Abs Avg 
 TQAN.f-kp               12.00:  Torque Abs Min 
 TQAX.f-kp               22.00:  Torque Abs Max 
 TRRT.°/30m               0.00:  Turn Rotating 
 MRT .                    HCIM:  Maximum Recorded Temperature 
 TTMX.degC               90.20:  Max Tool Temp 
 VS01.                90627813:  Virtual Str1 SN 
 VS02.                90634712:  Virtual Str2 SN 
 VS03.                90643410:  Virtual Str3 SN 
 VS04.                90634712:  Virtual Str4 SN 
 WBMN.klb                 9.00:  WOB Min 
 WITN.        Elmaddin Rahimov:  Customer Rep 
 WITN.         Haytham Mostafa:  Customer Rep 2 
 WOBA.klb                15.00:  WOB Avg 
 WOBX.klb                23.00:  WOB Max 
 YP  .lhf2               29.00:  Yield Point 
~Curve Information Block
#MNEM.UNIT                 API CODE     Curve Description
#---------               -----------    ---------------------------
 TIME.HHMMSS            00 000 000 000:  GT Time & Date
 GTDEPTH.m              00 000 000 000:  GT Depth
 GTPQH.psia             00 000 000 000:  GT HR Quartz Pressure
 GTTQ.degC              00 000 000 000:  GT Quartz Temperature
 GTTN.NONE              00 000 000 000:  GT Test Number
 GTET.sec               00 000 000 000:  GT Elapsed Test Time
 GTTVD.m                00 000 000 000:  GT True Vertical Depth
#Other Information
#
#WARRANTY: Halliburton will use its best efforts to furnish customers with 
#accurate information and interpretations that are part of, and incident to, the services 
#provided.  However, Halliburton cannot and does not warrant the accuracy 
#or correctness of such information and interpretations.  Under no circumstances should any 
#such information or interpretation be relied upon as the sole basis for any drilling, 
#completion, production, or financial decision or any procedure involving any risk to the 
#safety of any drilling venture, drilling rig or its crew or any other third party.  The 
#Customer has full responsibility for all drilling, completion and production operation.  
#Halliburton makes no representations or warranties, either expressed or 
#implied, including, but not limited to, the implied warranties of merchantability or fitness 
#for a particular purpose, with respect to the services rendered.  In no event will 
#Halliburton be liable for failure to obtain any particular results or for 
#any damages, including, but not limited to, indirect, special or consequential damages, 
#resulting from the use of any information or interpretation provided by Halliburton.
#
~A           TIME           GTDEPTH  GTPQH  GTTQ  GTTN  GTET   GTTVD  
# ...
   23:16:02.651.08-May-2021 4549.51 6757.84 68.67 5.00  22.99 2991.64
   23:16:02.851.08-May-2021 4549.51 6757.84 68.67 5.00  23.19 2991.64
   23:16:03.051.08-May-2021 4549.51 6758.54 68.67 5.00  23.39 2991.64
   23:16:03.251.08-May-2021 4549.51 6758.81 68.67 5.00  23.59 2991.64
   23:16:03.451.08-May-2021 4549.51 6758.82 68.67 5.00  23.79 2991.64
   23:16:03.651.08-May-2021 4549.51 6759.44 68.67 5.00  23.99 2991.64
   23:16:03.851.08-May-2021 4549.51 6759.44 68.67 5.00  24.19 2991.64
   23:16:04.051.08-May-2021 4549.51 6760.86 68.67 5.00  24.39 2991.64
   23:16:04.251.08-May-2021 4549.51 6770.16 68.67 5.00  24.59 2991.64
   23:16:04.451.08-May-2021 4549.51 6772.36 68.67 5.00  24.79 2991.64
   23:16:04.651.08-May-2021 4549.51 6765.49 68.67 5.00  24.99 2991.64
   23:16:04.851.08-May-2021 4549.51 6765.49 68.67 5.00  25.19 2991.64
   23:16:05.050.08-May-2021 4549.51 6763.48 68.67 5.00  25.39 2991.64
   23:16:05.250.08-May-2021 4549.51 6763.77 68.67 5.00  25.59 2991.64
   23:16:05.450.08-May-2021 4549.51 6763.77 68.67 5.00  25.79 2991.64
   23:16:05.650.08-May-2021 4549.51 6763.60 68.67 5.00  25.99 2991.64
   23:16:05.850.08-May-2021 4549.51 6763.60 68.67 5.00  26.19 2991.64
   23:16:06.050.08-May-2021 4549.51 6763.26 68.67 5.00  26.39 2991.64
   23:16:06.250.08-May-2021 4549.51 6763.34 68.67 5.00  26.59 2991.64
   23:16:06.450.08-May-2021 4549.51 6763.86 68.67 5.00  26.79 2991.64
   23:16:06.650.08-May-2021 4549.51 6764.11 68.67 5.00  26.99 2991.64
   23:16:06.850.08-May-2021 4549.51 6764.11 68.67 5.00  27.19 2991.64
   23:16:07.050.08-May-2021 4549.51 6771.91 68.67 5.00  27.39 2991.64
   23:16:07.250.08-May-2021 4549.51 6769.66 68.67 5.00  27.59 2991.64
   23:16:07.450.08-May-2021 4549.51 6767.45 68.67 5.00  27.79 2991.64
   23:16:07.650.08-May-2021 4549.51 6777.55 68.67 5.00  27.99 2991.64
   23:16:07.850.08-May-2021 4549.51 6777.55 68.67 5.00  28.19 2991.64
   23:16:08.050.08-May-2021 4549.51 6770.56 68.67 5.00  28.39 2991.64
   23:16:08.249.08-May-2021 4549.51 6768.23 68.67 5.00  28.59 2991.64
   23:16:08.449.08-May-2021 4549.51 6768.41 68.67 5.00  28.79 2991.64
   23:16:08.649.08-May-2021 4549.51 6775.05 68.67 5.00  28.99 2991.64
   23:16:08.849.08-May-2021 4549.51 6775.05 68.67 5.00  29.19 2991.64
   23:16:09.049.08-May-2021 4549.51 6776.46 68.67 5.00  29.39 2991.64
   23:16:09.249.08-May-2021 4549.51 6769.95 68.67 5.00  29.59 2991.64
   23:16:09.449.08-May-2021 4549.51 6772.40 68.67 5.00  29.79 2991.64
   23:16:09.649.08-May-2021 4549.51 6779.85 68.67 5.00  29.99 2991.64
   23:16:09.849.08-May-2021 4549.51 6779.85 68.67 5.00  30.19 2991.64
   23:16:10.049.08-May-2021 4549.51 6775.65 68.67 5.00  30.39 2991.64
   23:16:10.249.08-May-2021 4549.51 6773.19 68.67 5.00  30.59 2991.64
   23:16:10.449.08-May-2021 4549.51 6774.62 68.67 5.00  30.79 2991.64
   23:16:10.649.08-May-2021 4549.51 6773.07 68.67 5.00  30.99 2991.64
   23:16:10.849.08-May-2021 4549.51 6773.07 68.67 5.00  31.19 2991.64
   23:16:11.049.08-May-2021 4549.51 6772.94 68.67 5.00  31.39 2991.64
   23:16:11.249.08-May-2021 4549.51 6772.92 68.67 5.00  31.59 2991.64
   23:16:11.448.08-May-2021 4549.51 6773.21 68.67 5.00  31.79 2991.64
   23:16:11.648.08-May-2021 4549.51 6773.60 68.67 5.00  31.99 2991.64
   23:16:11.848.08-May-2021 4549.51 6773.60 68.67 5.00  32.19 2991.64
   23:16:12.048.08-May-2021 4549.51 6774.75 68.67 5.00  32.39 2991.64
   23:16:12.248.08-May-2021 4549.51 6781.16 68.67 5.00  32.59 2991.64
   23:16:12.448.08-May-2021 4549.51 6779.23 68.67 5.00  32.79 2991.64
   23:16:12.648.08-May-2021 4549.51 6782.43 68.67 5.00  32.99 2991.64
   23:16:12.848.08-May-2021 4549.51 6782.43 68.67 5.00  33.19 2991.64
   23:16:13.048.08-May-2021 4549.51 6777.53 68.67 5.00  33.39 2991.64
   23:16:13.248.08-May-2021 4549.51 6775.77 68.67 5.00  33.59 2991.64
   23:16:13.448.08-May-2021 4549.51 6775.69 68.67 5.00  33.79 2991.64
   23:16:13.648.08-May-2021 4549.51 6775.12 68.67 5.00  33.99 2991.64
   23:16:13.848.08-May-2021 4549.51 6775.12 68.67 5.00  34.19 2991.64
   23:16:14.048.08-May-2021 4549.51 6775.21 68.67 5.00  34.39 2991.64
   23:16:14.248.08-May-2021 4549.51 6775.33 68.67 5.00  34.59 2991.64
   23:16:14.448.08-May-2021 4549.51 6775.43 68.67 5.00  34.79 2991.64
   23:16:14.647.08-May-2021 4549.51 6776.36 68.67 5.00  34.99 2991.64
   23:16:14.847.08-May-2021 4549.51 6776.36 68.67 5.00  35.19 2991.64
   23:16:15.047.08-May-2021 4549.51 6784.32 68.67 5.00  35.39 2991.64
   23:16:15.247.08-May-2021 4549.51 6786.21 68.67 5.00  35.59 2991.64
   23:16:15.447.08-May-2021 4549.51 6781.15 68.67 5.00  35.79 2991.64
   23:16:15.647.08-May-2021 4549.51 6778.76 68.67 5.00  35.99 2991.64
   23:16:15.847.08-May-2021 4549.51 6778.76 68.67 5.00  36.19 2991.64
   23:16:16.047.08-May-2021 4549.51 6782.59 68.67 5.00  36.39 2991.64
   23:16:16.247.08-May-2021 4549.51 6781.60 68.67 5.00  36.59 2991.64
   23:16:16.447.08-May-2021 4549.51 6779.06 68.67 5.00  36.79 2991.64
   23:16:16.647.08-May-2021 4549.51 6780.32 68.66 5.00  36.99 2991.64
   23:16:16.847.08-May-2021 4549.51 6780.32 68.66 5.00  37.19 2991.64
   23:16:17.047.08-May-2021 4549.51 6846.24 68.66 5.00  37.39 2991.64
   23:16:17.247.08-May-2021 4549.51 7076.69 68.66 5.00  37.59 2991.64
   23:16:17.447.08-May-2021 4549.51 7125.09 68.66 5.00  37.79 2991.64
   23:16:17.647.08-May-2021 4549.51 7136.89 68.66 5.00  37.99 2991.64
   23:16:17.846.08-May-2021 4549.51 7136.89 68.66 5.00  38.19 2991.64
   23:16:18.046.08-May-2021 4549.51 7146.52 68.66 5.00  38.39 2991.64
   23:16:18.246.08-May-2021 4549.51 7140.31 68.66 5.00  38.59 2991.64
   23:16:18.446.08-May-2021 4549.51 7153.92 68.66 5.00  38.79 2991.64
   23:16:18.646.08-May-2021 4549.51 7178.79 68.66 5.00  38.99 2991.64
   23:16:18.846.08-May-2021 4549.51 7178.79 68.66 5.00  39.19 2991.64
   23:16:19.046.08-May-2021 4549.51 7180.55 68.66 5.00  39.39 2991.64
   23:16:19.246.08-May-2021 4549.51 7152.56 68.66 5.00  39.59 2991.64
   23:16:19.446.08-May-2021 4549.51 7115.48 68.66 5.00  39.79 2991.64
   23:16:19.646.08-May-2021 4549.51 7077.51 68.66 5.00  39.99 2991.64
   23:16:19.846.08-May-2021 4549.51 7077.51 68.66 5.00  40.19 2991.64
   23:16:20.046.08-May-2021 4549.51 7017.99 68.67 5.00  40.39 2991.64
   23:16:20.246.08-May-2021 4549.51 6996.79 68.67 5.00  40.59 2991.64
   23:16:20.446.08-May-2021 4549.51 6972.02 68.67 5.00  40.79 2991.64
   23:16:20.646.08-May-2021 4549.51 6951.92 68.67 5.00  40.99 2991.64
   23:16:20.846.08-May-2021 4549.51 6951.92 68.67 5.00  41.19 2991.64
   23:16:21.045.08-May-2021 4549.51 6915.68 68.67 5.00  41.39 2991.64
   23:16:21.245.08-May-2021 4549.51 6897.69 68.67 5.00  41.59 2991.64
   23:16:21.445.08-May-2021 4549.51 6884.81 68.67 5.00  41.79 2991.64
   23:16:21.645.08-May-2021 4549.51 6872.53 68.67 5.00  41.99 2991.64
   23:16:21.845.08-May-2021 4549.51 6872.53 68.67 5.00  42.19 2991.64
   23:16:22.045.08-May-2021 4549.51 6850.56 68.67 5.00  42.39 2991.64
   23:16:22.245.08-May-2021 4549.51 6848.91 68.67 5.00  42.59 2991.64
   23:16:22.445.08-May-2021 4549.51 6861.61 68.67 5.00  42.79 2991.64
   23:16:22.645.08-May-2021 4549.51 6871.93 68.66 5.00  42.99 2991.64
   23:16:22.845.08-May-2021 4549.51 6871.93 68.66 5.00  43.19 2991.64
   23:16:23.045.08-May-2021 4549.51 6885.70 68.66 5.00  43.39 2991.64
   23:16:23.245.08-May-2021 4549.51 6856.37 68.66 5.00  43.59 2991.64
   23:16:23.445.08-May-2021 4549.51 6690.71 68.66 5.00  43.79 2991.64
   23:16:23.645.08-May-2021 4549.51 6556.54 68.66 5.00  43.99 2991.64
   23:16:23.845.08-May-2021 4549.51 6556.54 68.66 5.00  44.19 2991.64
   23:16:24.045.08-May-2021 4549.51 5887.44 68.66 5.00  44.39 2991.64
   23:16:24.244.08-May-2021 4549.51 5281.03 68.66 5.00  44.59 2991.64
   23:16:24.444.08-May-2021 4549.51 4821.44 68.66 5.00  44.79 2991.64
   23:16:24.644.08-May-2021 4549.51 4550.44 68.66 5.00  44.99 2991.64
   23:16:24.844.08-May-2021 4549.51 4550.44 68.66 5.00  45.19 2991.64
   23:16:25.044.08-May-2021 4549.51 4017.95 68.66 5.00  45.39 2991.64
   23:16:25.244.08-May-2021 4549.51 3685.61 68.66 5.00  45.59 2991.64
   23:16:25.444.08-May-2021 4549.51 3217.16 68.66 5.00  45.79 2991.64
