~Version Information
 VERS.                  2.0:   CWLS log ASCII Standard -VERSION 2.0
 WRAP.                   NO:   One line per depth step
~Well Information Block
#MNEM.UNIT     VALUE/NAME     DESCRIPTION
#---------     -----------    ---------------------------
 STRT.S             00:47:21 09-May-21: START TIME 00:47:21 09-May-21
 STOP.S             00:54:19 09-May-21: STOP TIME  00:54:19 09-May-21
 STEP.S                   0.00: STEP TIME
 NULL.                 -999.25: NULL VALUE
 PROV.                    Baku:  PROVINCE
 STAT.                    Baku:  STATE NAME
 SON .        AZ-XX-0906571588:  JOB NUMBER
 WTYP.                Deviated:  WELL TYPE
 COMP.     BP Exploration (Caspian Sea) ltd:  COMPANY
 BASE.              Azerbaijan:  LOGGING EQUIPMENT BASE LOCATION
 REGN.                   EESSA:  REGION
 CTRY.              Azerbaijan:  COUNTRY NAME
 FLD .                     ACG:  FIELD NAME
 WELL.                     J28:  WELL NAME
 RIG .             West Chirag:  RIG NAME
 DMF .             Drill Floor:  DRILL MEAS FROM
 PDAT.       Caspian Sea Level:  PERMANENT DATUM
 HPTY.       Minimum Curvature:  HOLE POS TYPE
 MDS .        Operator Entered:  MAG DATA SOURCE
 NREF.                    Grid:  NORTH REFERENCE
 SRVC.          TURAN DRILLING:  CONTRACTOR
 JOBN.        AZ-XX-0906571588:  JOB TICKET NUMB
 DCON.     Halliburton Sperry Drilling:  DIRECTNL CONTR
 STIM.      00.44.00 11-Feb-21:  START TIME
 DATE.      00.00.00 05-May-21:  END TIME
 SPUD.               13-Feb-21:  SPUD DATE
 MWDS.                    Baku:  MWD SHOP
 DOE .                     N/A:  DOE NUMBER
 UNIT.                     N/A:  LOGGING EQUIPMENT ID
 UWI .                     N/A:  UNIQUE WELL IDENTIFIER
 API .                     N/A:  API NUMBER
 CNTY.                        :  COUNTY
 LOC .                        :  LOCATION
 LMF .             Drill Floor:  LOG MEASURED FROM
 TVDS.m                  43.00:  TVDSS CORRECTN
 SDEP.m                 341.00:  START DEPTH
 EGL .m                   0.00:  GROUND ELEVATION
 WDMS.m                 169.80:  WD ELEV
 AGAP.m                  43.00:  AIR GAP
 EPD .m                   0.00:  ELEVATION
 APD .m                  43.00:  DEPTH ABOVE PD
 LATI.deg                40.13:  LATITUDE
 LONG.deg                51.22:  LONGITUDE
 UTMY.m             4443793.85:  UTM Y
 UTMX.m              519005.06:  UTM X
 WHEW.m                 -11.57:  WELL HEAD E/W
 WHNS.m                   8.57:  WELL HEAD N/S
 VSEW.m                 -11.57:  VERT SEC E/W
 VSNS.m                   8.57:  VERT SEC N/S
 DFWL.m                   0.00:  DISTANCE FWL
 DFSL.m                   0.00:  DISTANCE FSL
 VSDR.deg               299.34:  VERT SEC DIRECT
 GVFD.g                   1.00:  GRAVITY FIELD
 AZTC.deg                 6.36:  AZM TOTAL CORR
 MFLD.nT              50391.00:  MAGNETIC FIELD
 MDIP.deg                59.65:  MAGNETIC DIP
 MDEC.deg                 6.48:  MAGNETIC DECL
 GRDC.deg                 0.12:  GRID CORRECTION
 DEP .m                 334.96:  DEPTH
 TDD .m                1407.26:  TOTAL DEPTH (DRILLER)
 EKB .m                  43.00:  KB ELEVATION
 EDF .m                  43.00:  DF ELEVATION
 TDL .m                 228.00:  TOTAL DEPTH (LOGGER)
 VSC .                       0:  VS TO CLOSURE
 MAGU.                 1854484:  MAGUTM CHECKSUM
~Parameter Information Block
#MNEM.UNIT       Value        Description
#---------     -----------    ---------------------------
 AV  .mps                 4.00:  Ann Velocity 
 AVMX.mps                 4.73:  Max Ann Veloc 
 AZIF.deg               304.48:  Azm, Final 
 BHAT.        Rotary Steerable:  BHA Type 
 BREV.rev            257300.00:  Rev Bit Total 
 BROT.°/30m               0.00:  Build Rotating 
 BS  .in                  8.50:  Bit Size 
 BSZ .in                  8.50:  Bit Size 
 BTPL.psig              589.00:  Bit Press Loss 
 CABU.                      No:  Customer Abuse 
 CGEO.          Mubariz ghayev:  Customer Geo 
 COMM.                     ­R:  Run Comments 1 
 TCS .hr                 64.25:  Time Ciculation Ended 
 CV  .mps                 3.50:  Crit Velocity 
 CVMX.mps                 4.52:  Max Crit Veloc 
 DD1 .             Aziz Aliyev:  Direct Drillr 1 
 DD2 .         Intigam Rahimov:  Direct Drillr 2 
 DD3 .          Rashad Habibov:  Direct Drillr 3 
 DDSV.               Geo-Pilot:  DD Service 
 DEFF.%                  98.00:  % Det Eff 
 DLRX.°/30m               0.00:  Dogleg Rot Max 
 DLSO.°/30m               0.00:  Dogleg Oriented 
 DLSX.°/30m               0.00:  Dogleg Str Max 
 DRET.      10.45.04 08-May-21:  Drill End Time 
 DRST.      03.30.04 04-May-21:  Drill Start Tim 
 DTIM.hr                 14.97:  Time Drilling 
 EDEP.m                4640.01:  End Depth 
 ENG1.         Dail Mahammadov:  Engineer 1 
 ENG2.           Eldar Hajiyev:  Engineer 2 
 ENG3.       Bakhtiar Jabbarli:  Engineer 3 
 ENG4.       Natik Hasanagayev:  Engineer 4 
 ETIM.      09.30.04 14-May-21:  End Time 
 FLOI.gpm               460.00:  Flow In 
 FLON.gpm               200.00:  Flow In Min 
 FLOS.cptm                0.00:  Fluid Loss 
 FLOX.gpm               505.00:  Flow In Max 
 HFLO.                      No:  High Flow 
 HPRE.                      No:  High Pressure 
 HTEM.                      No:  High Temp 
 HYDO.m                   1.80:  Hydro Offset 
 IFIN.deg                66.71:  Inc, Final 
 IMAX.deg                67.03:  Inc Max 
 IMIN.deg                66.63:  Inc Min 
 IMND.m                4550.58:  Inc Min Depth 
 IMXD.m                4439.01:  Inc Max Depth 
 JARR.                      No:  Jarring 
 LETM.      10.45.04 08-May-21:  Log End Time 
 LOST.hr                     0:  Lost Rig Time 
 LSTM.      03.30.04 04-May-21:  Log Start Time 
 MDCL.ppm             37000.00:  Mud Chlorides 
 MDES.     Inversion Oil/Synthetic:  Mud Desc 
 DFD .sg                  1.38:  Mud Density 
 MDMN.sg                  1.35:  Dens Mud Min 
 MDMX.sg                  1.40:  Dens Mud Max 
 MOIL.                   57.40:  Run Mud Oil % 
 MOWR.                   70:30:  Run Mud OWR 
 MSND.                    0.00:  Run Mud Sand % 
 MSOL.                   18.00:  Run Mud Solids% 
 DFV .spqt               71.00:  Mud Viscosity 
 MWOD.in                  6.75:  MWD Tool OD 
 MWSI.                      No:  Serv Intrp, MWD 
 OTIM.hr                242.76:  Time Operating 
 PCON.           Look Like New:  Pad Condition 
 PMAX.psia            12183.92:  Press Op, Max 
 PV  .cP                 27.00:  Mud PV 
 RUN .                    1300:  Run Number 
 ROPA.m/hr               15.00:  ROP Avg 
 ROPN.m/hr                9.00:  ROP Min 
 ROPX.m/hr               19.00:  ROP Max 
 RPMA.rpm               120.00:  RPM Surface Avg 
 RPMN.rpm               100.00:  RPM Surface Min 
 RPMX.rpm               120.00:  RPM Surface Max 
 RRUN.                    1300:  Rig Run Number 
 RTIM.hr                  5.00:  Time Reaming 
 SAZI.deg               304.73:  Azm, Start 
 SDEP.m                4412.01:  Start Depth 
 SIDD.                      No:  Serv Intrp, DD 
 SINC.deg                66.82:  Inc, Start 
 SPPA.psig             2800.00:  SPP Avg 
 SPPN.psig             2610.00:  SPP Min 
 SPPX.psig             3100.00:  SPP Max 
 STIM.      03.30.00 04-May-21:  Start Time 
 SVCS.                 DD, MWD:  Services 
 SVER.                    9.20:  Sperry Version 
 TDAT.m                 228.00:  Tot Depth Attmp 
 TDDF.                      No:  Trip for DD 
 TDLG.m                 228.00:  Tot Depth Loggd 
 TFF .                      No:  Trip for Fail 
 TQAA.f-kp               15.00:  Torque Abs Avg 
 TQAN.f-kp               12.00:  Torque Abs Min 
 TQAX.f-kp               22.00:  Torque Abs Max 
 TRRT.°/30m               0.00:  Turn Rotating 
 MRT .                    HCIM:  Maximum Recorded Temperature 
 TTMX.degC               90.20:  Max Tool Temp 
 VS01.                90627813:  Virtual Str1 SN 
 VS02.                90634712:  Virtual Str2 SN 
 VS03.                90643410:  Virtual Str3 SN 
 VS04.                90634712:  Virtual Str4 SN 
 WBMN.klb                 9.00:  WOB Min 
 WITN.        Elmaddin Rahimov:  Customer Rep 
 WITN.         Haytham Mostafa:  Customer Rep 2 
 WOBA.klb                15.00:  WOB Avg 
 WOBX.klb                23.00:  WOB Max 
 YP  .lhf2               29.00:  Yield Point 
~Curve Information Block
#MNEM.UNIT                 API CODE     Curve Description
#---------               -----------    ---------------------------
 TIME.HHMMSS            00 000 000 000:  GT Time & Date
 GTDEPTH.m              00 000 000 000:  GT Depth
 GTPQH.psia             00 000 000 000:  GT HR Quartz Pressure
 GTTQ.degC              00 000 000 000:  GT Quartz Temperature
 GTTN.NONE              00 000 000 000:  GT Test Number
 GTET.sec               00 000 000 000:  GT Elapsed Test Time
 GTTVD.m                00 000 000 000:  GT True Vertical Depth
#Other Information
#
#WARRANTY: Halliburton will use its best efforts to furnish customers with 
#accurate information and interpretations that are part of, and incident to, the services 
#provided.  However, Halliburton cannot and does not warrant the accuracy 
#or correctness of such information and interpretations.  Under no circumstances should any 
#such information or interpretation be relied upon as the sole basis for any drilling, 
#completion, production, or financial decision or any procedure involving any risk to the 
#safety of any drilling venture, drilling rig or its crew or any other third party.  The 
#Customer has full responsibility for all drilling, completion and production operation.  
#Halliburton makes no representations or warranties, either expressed or 
#implied, including, but not limited to, the implied warranties of merchantability or fitness 
#for a particular purpose, with respect to the services rendered.  In no event will 
#Halliburton be liable for failure to obtain any particular results or for 
#any damages, including, but not limited to, indirect, special or consequential damages, 
#resulting from the use of any information or interpretation provided by Halliburton.
#
~A           TIME           GTDEPTH  GTPQH  GTTQ  GTTN  GTET   GTTVD  
   00:47:21.227.09-May-2021 4512.01 6689.76 67.66 8.00   0.00 2976.83
   00:47:21.427.09-May-2021 4512.01 6689.76 67.66 8.00   0.20 2976.83
   00:47:21.627.09-May-2021 4512.01 6682.26 67.66 8.00   0.40 2976.83
   00:47:21.827.09-May-2021 4512.01 6678.78 67.66 8.00   0.60 2976.83
   00:47:22.027.09-May-2021 4512.01 6687.15 67.66 8.00   0.80 2976.83
   00:47:22.227.09-May-2021 4512.01 6685.30 67.66 8.00   1.00 2976.83
   00:47:22.427.09-May-2021 4512.01 6685.30 67.66 8.00   1.20 2976.83
   00:47:22.627.09-May-2021 4512.01 6685.23 67.66 8.00   1.40 2976.83
   00:47:22.827.09-May-2021 4512.01 6686.24 67.66 8.00   1.60 2976.83
   00:47:23.027.09-May-2021 4512.01 6684.61 67.66 8.00   1.80 2976.83
   00:47:23.227.09-May-2021 4512.01 6686.33 67.66 8.00   2.00 2976.83
   00:47:23.428.09-May-2021 4512.01 6686.33 67.66 8.00   2.20 2976.83
   00:47:23.628.09-May-2021 4512.01 6686.53 67.66 8.00   2.40 2976.83
   00:47:23.828.09-May-2021 4512.01 6680.81 67.66 8.00   2.60 2976.83
   00:47:24.028.09-May-2021 4512.01 6682.43 67.66 8.00   2.80 2976.83
   00:47:24.228.09-May-2021 4512.01 6689.91 67.66 8.00   3.00 2976.83
   00:47:24.428.09-May-2021 4512.01 6689.91 67.66 8.00   3.20 2976.83
   00:47:24.628.09-May-2021 4512.01 6689.87 67.66 8.00   3.40 2976.83
   00:47:24.828.09-May-2021 4512.01 6688.62 67.66 8.00   3.60 2976.83
   00:47:25.028.09-May-2021 4512.01 6689.46 67.66 8.00   3.80 2976.83
   00:47:25.228.09-May-2021 4512.01 6693.00 67.66 8.00   4.00 2976.83
   00:47:25.428.09-May-2021 4512.01 6693.00 67.66 8.00   4.20 2976.83
   00:47:25.628.09-May-2021 4512.01 6690.28 67.66 8.00   4.40 2976.83
   00:47:25.828.09-May-2021 4512.01 6689.11 67.66 8.00   4.60 2976.83
   00:47:26.028.09-May-2021 4512.01 6688.59 67.66 8.00   4.80 2976.83
   00:47:26.229.09-May-2021 4512.01 6688.24 67.66 8.00   5.00 2976.83
   00:47:26.429.09-May-2021 4512.01 6688.24 67.66 8.00   5.20 2976.83
   00:47:26.629.09-May-2021 4512.01 6689.04 67.66 8.00   5.40 2976.83
   00:47:26.829.09-May-2021 4512.01 6688.97 67.66 8.00   5.60 2976.83
   00:47:27.029.09-May-2021 4512.01 6688.99 67.66 8.00   5.80 2976.83
   00:47:27.229.09-May-2021 4512.01 6689.01 67.65 8.00   6.00 2976.83
   00:47:27.429.09-May-2021 4512.01 6689.01 67.65 8.00   6.20 2976.83
   00:47:27.629.09-May-2021 4512.01 6689.35 67.65 8.00   6.40 2976.83
   00:47:27.829.09-May-2021 4512.01 6697.61 67.65 8.00   6.60 2976.83
   00:47:28.029.09-May-2021 4512.01 6697.92 67.65 8.00   6.80 2976.83
   00:47:28.229.09-May-2021 4512.01 6698.51 67.65 8.00   7.00 2976.83
   00:47:28.429.09-May-2021 4512.01 6698.51 67.65 8.00   7.20 2976.83
   00:47:28.629.09-May-2021 4512.01 6693.97 67.65 8.00   7.40 2976.83
   00:47:28.830.09-May-2021 4512.01 6694.03 67.65 8.00   7.60 2976.83
   00:47:29.030.09-May-2021 4512.01 6694.76 67.65 8.00   7.80 2976.83
   00:47:29.230.09-May-2021 4512.01 6695.82 67.65 8.00   8.00 2976.83
   00:47:29.430.09-May-2021 4512.01 6695.82 67.65 8.00   8.20 2976.83
   00:47:29.630.09-May-2021 4512.01 6695.48 67.65 8.00   8.40 2976.83
   00:47:29.830.09-May-2021 4512.01 6695.53 67.65 8.00   8.60 2976.83
   00:47:30.030.09-May-2021 4512.01 6695.85 67.65 8.00   8.80 2976.83
   00:47:30.230.09-May-2021 4512.01 6695.23 67.65 8.00   9.00 2976.83
   00:47:30.430.09-May-2021 4512.01 6695.23 67.65 8.00   9.20 2976.83
   00:47:30.630.09-May-2021 4512.01 6699.84 67.65 8.00   9.40 2976.83
   00:47:30.830.09-May-2021 4512.01 6701.80 67.65 8.00   9.60 2976.83
   00:47:31.030.09-May-2021 4512.01 6701.05 67.65 8.00   9.80 2976.83
   00:47:31.230.09-May-2021 4512.01 6697.81 67.65 8.00  10.00 2976.83
   00:47:31.430.09-May-2021 4512.01 6697.81 67.65 8.00  10.20 2976.83
   00:47:31.631.09-May-2021 4512.01 6699.84 67.65 8.00  10.40 2976.83
   00:47:31.831.09-May-2021 4512.01 6703.02 67.65 8.00  10.60 2976.83
   00:47:32.031.09-May-2021 4512.01 6703.59 67.65 8.00  10.80 2976.83
   00:47:32.231.09-May-2021 4512.01 6700.61 67.65 8.00  11.00 2976.83
   00:47:32.431.09-May-2021 4512.01 6700.61 67.65 8.00  11.20 2976.83
   00:47:32.631.09-May-2021 4512.01 6702.33 67.65 8.00  11.40 2976.83
   00:47:32.831.09-May-2021 4512.01 6704.76 67.65 8.00  11.60 2976.83
   00:47:33.031.09-May-2021 4512.01 6705.74 67.65 8.00  11.80 2976.83
   00:47:33.231.09-May-2021 4512.01 6703.58 67.65 8.00  12.00 2976.83
   00:47:33.431.09-May-2021 4512.01 6703.58 67.65 8.00  12.20 2976.83
   00:47:33.631.09-May-2021 4512.01 6703.58 67.65 8.00  12.40 2976.83
   00:47:33.831.09-May-2021 4512.01 6709.58 67.65 8.00  12.60 2976.83
   00:47:34.031.09-May-2021 4512.01 6714.82 67.65 8.00  12.80 2976.83
   00:47:34.231.09-May-2021 4512.01 6709.20 67.65 8.00  13.00 2976.83
   00:47:34.432.09-May-2021 4512.01 6709.20 67.65 8.00  13.20 2976.83
   00:47:34.632.09-May-2021 4512.01 6711.22 67.65 8.00  13.40 2976.83
   00:47:34.832.09-May-2021 4512.01 6709.21 67.65 8.00  13.60 2976.83
   00:47:35.032.09-May-2021 4512.01 6708.70 67.65 8.00  13.81 2976.83
   00:47:35.232.09-May-2021 4512.01 6716.15 67.65 8.00  14.01 2976.83
   00:47:35.432.09-May-2021 4512.01 6716.15 67.65 8.00  14.21 2976.83
   00:47:35.632.09-May-2021 4512.01 6715.84 67.65 8.00  14.41 2976.83
   00:47:35.832.09-May-2021 4512.01 6710.35 67.65 8.00  14.61 2976.83
   00:47:36.032.09-May-2021 4512.01 6711.46 67.65 8.00  14.81 2976.83
   00:47:36.232.09-May-2021 4512.01 6710.41 67.65 8.00  15.01 2976.83
   00:47:36.432.09-May-2021 4512.01 6710.41 67.65 8.00  15.21 2976.83
   00:47:36.632.09-May-2021 4512.01 6710.92 67.65 8.00  15.41 2976.83
   00:47:36.832.09-May-2021 4512.01 6711.16 67.65 8.00  15.61 2976.83
   00:47:37.032.09-May-2021 4512.01 6710.94 67.65 8.00  15.81 2976.83
   00:47:37.233.09-May-2021 4512.01 6710.99 67.65 8.00  16.01 2976.83
   00:47:37.433.09-May-2021 4512.01 6710.99 67.65 8.00  16.21 2976.83
   00:47:37.633.09-May-2021 4512.01 6711.47 67.65 8.00  16.41 2976.83
   00:47:37.833.09-May-2021 4512.01 6722.37 67.65 8.00  16.61 2976.83
   00:47:38.033.09-May-2021 4512.01 6715.09 67.65 8.00  16.81 2976.83
   00:47:38.233.09-May-2021 4512.01 6718.04 67.65 8.00  17.01 2976.83
   00:47:38.433.09-May-2021 4512.01 6718.04 67.65 8.00  17.21 2976.83
   00:47:38.633.09-May-2021 4512.01 6716.90 67.65 8.00  17.41 2976.83
   00:47:38.833.09-May-2021 4512.01 6715.49 67.65 8.00  17.61 2976.83
   00:47:39.033.09-May-2021 4512.01 6714.74 67.65 8.00  17.81 2976.83
   00:47:39.233.09-May-2021 4512.01 6715.11 67.65 8.00  18.01 2976.83
   00:47:39.433.09-May-2021 4512.01 6715.11 67.65 8.00  18.21 2976.83
   00:47:39.633.09-May-2021 4512.01 6715.88 67.65 8.00  18.41 2976.83
   00:47:39.833.09-May-2021 4512.01 6715.40 67.65 8.00  18.61 2976.83
   00:47:40.034.09-May-2021 4512.01 6715.01 67.65 8.00  18.81 2976.83
   00:47:40.234.09-May-2021 4512.01 6715.60 67.65 8.00  19.01 2976.83
   00:47:40.434.09-May-2021 4512.01 6715.60 67.65 8.00  19.21 2976.83
   00:47:40.634.09-May-2021 4512.01 6720.31 67.65 8.00  19.41 2976.83
   00:47:40.834.09-May-2021 4512.01 6722.79 67.65 8.00  19.61 2976.83
   00:47:41.034.09-May-2021 4512.01 6722.04 67.65 8.00  19.81 2976.83
   00:47:41.234.09-May-2021 4512.01 6724.03 67.65 8.00  20.01 2976.83
   00:47:41.434.09-May-2021 4512.01 6724.03 67.65 8.00  20.21 2976.83
   00:47:41.634.09-May-2021 4512.01 6725.21 67.65 8.00  20.41 2976.83
   00:47:41.834.09-May-2021 4512.01 6724.31 67.65 8.00  20.61 2976.83
   00:47:42.034.09-May-2021 4512.01 6732.04 67.65 8.00  20.81 2976.83
   00:47:42.234.09-May-2021 4512.01 6722.35 67.65 8.00  21.01 2976.83
   00:47:42.434.09-May-2021 4512.01 6722.35 67.65 8.00  21.21 2976.83
   00:47:42.635.09-May-2021 4512.01 6721.68 67.65 8.00  21.41 2976.83
   00:47:42.835.09-May-2021 4512.01 6723.54 67.65 8.00  21.61 2976.83
   00:47:43.035.09-May-2021 4512.01 6730.95 67.65 8.00  21.81 2976.83
   00:47:43.235.09-May-2021 4512.01 6726.18 67.65 8.00  22.01 2976.83
   00:47:43.435.09-May-2021 4512.01 6726.18 67.65 8.00  22.21 2976.83
   00:47:43.635.09-May-2021 4512.01 6726.64 67.65 8.00  22.41 2976.83
   00:47:43.835.09-May-2021 4512.01 6725.39 67.65 8.00  22.61 2976.83
   00:47:44.035.09-May-2021 4512.01 6724.30 67.65 8.00  22.81 2976.83
