~Version Information
 VERS.                  2.0:   CWLS log ASCII Standard -VERSION 2.0
 WRAP.                   NO:   One line per depth step
~Well Information Block
#MNEM.UNIT     VALUE/NAME     DESCRIPTION
#---------     -----------    ---------------------------
 STRT.S             06:41:26 09-May-21: START TIME 06:41:26 09-May-21
 STOP.S             06:48:05 09-May-21: STOP TIME  06:48:05 09-May-21
 STEP.S                   0.00: STEP TIME
 NULL.                 -999.25: NULL VALUE
 PROV.                    Baku:  PROVINCE
 STAT.                    Baku:  STATE NAME
 SON .        AZ-XX-0906571588:  JOB NUMBER
 WTYP.                Deviated:  WELL TYPE
 COMP.     BP Exploration (Caspian Sea) ltd:  COMPANY
 BASE.              Azerbaijan:  LOGGING EQUIPMENT BASE LOCATION
 REGN.                   EESSA:  REGION
 CTRY.              Azerbaijan:  COUNTRY NAME
 FLD .                     ACG:  FIELD NAME
 WELL.                     J28:  WELL NAME
 RIG .             West Chirag:  RIG NAME
 DMF .             Drill Floor:  DRILL MEAS FROM
 PDAT.       Caspian Sea Level:  PERMANENT DATUM
 HPTY.       Minimum Curvature:  HOLE POS TYPE
 MDS .        Operator Entered:  MAG DATA SOURCE
 NREF.                    Grid:  NORTH REFERENCE
 SRVC.          TURAN DRILLING:  CONTRACTOR
 JOBN.        AZ-XX-0906571588:  JOB TICKET NUMB
 DCON.     Halliburton Sperry Drilling:  DIRECTNL CONTR
 STIM.      00.44.00 11-Feb-21:  START TIME
 DATE.      00.00.00 05-May-21:  END TIME
 SPUD.               13-Feb-21:  SPUD DATE
 MWDS.                    Baku:  MWD SHOP
 DOE .                     N/A:  DOE NUMBER
 UNIT.                     N/A:  LOGGING EQUIPMENT ID
 UWI .                     N/A:  UNIQUE WELL IDENTIFIER
 API .                     N/A:  API NUMBER
 CNTY.                        :  COUNTY
 LOC .                        :  LOCATION
 LMF .             Drill Floor:  LOG MEASURED FROM
 TVDS.m                  43.00:  TVDSS CORRECTN
 SDEP.m                 341.00:  START DEPTH
 EGL .m                   0.00:  GROUND ELEVATION
 WDMS.m                 169.80:  WD ELEV
 AGAP.m                  43.00:  AIR GAP
 EPD .m                   0.00:  ELEVATION
 APD .m                  43.00:  DEPTH ABOVE PD
 LATI.deg                40.13:  LATITUDE
 LONG.deg                51.22:  LONGITUDE
 UTMY.m             4443793.85:  UTM Y
 UTMX.m              519005.06:  UTM X
 WHEW.m                 -11.57:  WELL HEAD E/W
 WHNS.m                   8.57:  WELL HEAD N/S
 VSEW.m                 -11.57:  VERT SEC E/W
 VSNS.m                   8.57:  VERT SEC N/S
 DFWL.m                   0.00:  DISTANCE FWL
 DFSL.m                   0.00:  DISTANCE FSL
 VSDR.deg               299.34:  VERT SEC DIRECT
 GVFD.g                   1.00:  GRAVITY FIELD
 AZTC.deg                 6.36:  AZM TOTAL CORR
 MFLD.nT              50391.00:  MAGNETIC FIELD
 MDIP.deg                59.65:  MAGNETIC DIP
 MDEC.deg                 6.48:  MAGNETIC DECL
 GRDC.deg                 0.12:  GRID CORRECTION
 DEP .m                 334.96:  DEPTH
 TDD .m                1407.26:  TOTAL DEPTH (DRILLER)
 EKB .m                  43.00:  KB ELEVATION
 EDF .m                  43.00:  DF ELEVATION
 TDL .m                 228.00:  TOTAL DEPTH (LOGGER)
 VSC .                       0:  VS TO CLOSURE
 MAGU.                 1854484:  MAGUTM CHECKSUM
~Parameter Information Block
#MNEM.UNIT       Value        Description
#---------     -----------    ---------------------------
 AV  .mps                 4.00:  Ann Velocity 
 AVMX.mps                 4.73:  Max Ann Veloc 
 AZIF.deg               304.48:  Azm, Final 
 BHAT.        Rotary Steerable:  BHA Type 
 BREV.rev            257300.00:  Rev Bit Total 
 BROT.°/30m               0.00:  Build Rotating 
 BS  .in                  8.50:  Bit Size 
 BSZ .in                  8.50:  Bit Size 
 BTPL.psig              589.00:  Bit Press Loss 
 CABU.                      No:  Customer Abuse 
 CGEO.          Mubariz ghayev:  Customer Geo 
 COMM.                     ì
‚:  Run Comments 1 
 TCS .hr                 64.25:  Time Ciculation Ended 
 CV  .mps                 3.50:  Crit Velocity 
 CVMX.mps                 4.52:  Max Crit Veloc 
 DD1 .             Aziz Aliyev:  Direct Drillr 1 
 DD2 .         Intigam Rahimov:  Direct Drillr 2 
 DD3 .          Rashad Habibov:  Direct Drillr 3 
 DDSV.               Geo-Pilot:  DD Service 
 DEFF.%                  98.00:  % Det Eff 
 DLRX.°/30m               0.00:  Dogleg Rot Max 
 DLSO.°/30m               0.00:  Dogleg Oriented 
 DLSX.°/30m               0.00:  Dogleg Str Max 
 DRET.      10.45.04 08-May-21:  Drill End Time 
 DRST.      03.30.04 04-May-21:  Drill Start Tim 
 DTIM.hr                 14.97:  Time Drilling 
 EDEP.m                4640.01:  End Depth 
 ENG1.         Dail Mahammadov:  Engineer 1 
 ENG2.           Eldar Hajiyev:  Engineer 2 
 ENG3.       Bakhtiar Jabbarli:  Engineer 3 
 ENG4.       Natik Hasanagayev:  Engineer 4 
 ETIM.      09.30.04 14-May-21:  End Time 
 FLOI.gpm               460.00:  Flow In 
 FLON.gpm               200.00:  Flow In Min 
 FLOS.cptm                0.00:  Fluid Loss 
 FLOX.gpm               505.00:  Flow In Max 
 HFLO.                      No:  High Flow 
 HPRE.                      No:  High Pressure 
 HTEM.                      No:  High Temp 
 HYDO.m                   1.80:  Hydro Offset 
 IFIN.deg                66.71:  Inc, Final 
 IMAX.deg                67.03:  Inc Max 
 IMIN.deg                66.63:  Inc Min 
 IMND.m                4550.58:  Inc Min Depth 
 IMXD.m                4439.01:  Inc Max Depth 
 JARR.                      No:  Jarring 
 LETM.      10.45.04 08-May-21:  Log End Time 
 LOST.hr                     0:  Lost Rig Time 
 LSTM.      03.30.04 04-May-21:  Log Start Time 
 MDCL.ppm             37000.00:  Mud Chlorides 
 MDES.     Inversion Oil/Synthetic:  Mud Desc 
 DFD .sg                  1.38:  Mud Density 
 MDMN.sg                  1.35:  Dens Mud Min 
 MDMX.sg                  1.40:  Dens Mud Max 
 MOIL.                   57.40:  Run Mud Oil % 
 MOWR.                   70:30:  Run Mud OWR 
 MSND.                    0.00:  Run Mud Sand % 
 MSOL.                   18.00:  Run Mud Solids% 
 DFV .spqt               71.00:  Mud Viscosity 
 MWOD.in                  6.75:  MWD Tool OD 
 MWSI.                      No:  Serv Intrp, MWD 
 OTIM.hr                242.76:  Time Operating 
 PCON.           Look Like New:  Pad Condition 
 PMAX.psia            12183.92:  Press Op, Max 
 PV  .cP                 27.00:  Mud PV 
 RUN .                    1300:  Run Number 
 ROPA.m/hr               15.00:  ROP Avg 
 ROPN.m/hr                9.00:  ROP Min 
 ROPX.m/hr               19.00:  ROP Max 
 RPMA.rpm               120.00:  RPM Surface Avg 
 RPMN.rpm               100.00:  RPM Surface Min 
 RPMX.rpm               120.00:  RPM Surface Max 
 RRUN.                    1300:  Rig Run Number 
 RTIM.hr                  5.00:  Time Reaming 
 SAZI.deg               304.73:  Azm, Start 
 SDEP.m                4412.01:  Start Depth 
 SIDD.                      No:  Serv Intrp, DD 
 SINC.deg                66.82:  Inc, Start 
 SPPA.psig             2800.00:  SPP Avg 
 SPPN.psig             2610.00:  SPP Min 
 SPPX.psig             3100.00:  SPP Max 
 STIM.      03.30.00 04-May-21:  Start Time 
 SVCS.                 DD, MWD:  Services 
 SVER.                    9.20:  Sperry Version 
 TDAT.m                 228.00:  Tot Depth Attmp 
 TDDF.                      No:  Trip for DD 
 TDLG.m                 228.00:  Tot Depth Loggd 
 TFF .                      No:  Trip for Fail 
 TQAA.f-kp               15.00:  Torque Abs Avg 
 TQAN.f-kp               12.00:  Torque Abs Min 
 TQAX.f-kp               22.00:  Torque Abs Max 
 TRRT.°/30m               0.00:  Turn Rotating 
 MRT .                    HCIM:  Maximum Recorded Temperature 
 TTMX.degC               90.20:  Max Tool Temp 
 VS01.                90627813:  Virtual Str1 SN 
 VS02.                90634712:  Virtual Str2 SN 
 VS03.                90643410:  Virtual Str3 SN 
 VS04.                90634712:  Virtual Str4 SN 
 WBMN.klb                 9.00:  WOB Min 
 WITN.        Elmaddin Rahimov:  Customer Rep 
 WITN.         Haytham Mostafa:  Customer Rep 2 
 WOBA.klb                15.00:  WOB Avg 
 WOBX.klb                23.00:  WOB Max 
 YP  .lhf2               29.00:  Yield Point 
~Curve Information Block
#MNEM.UNIT                 API CODE     Curve Description
#---------               -----------    ---------------------------
 TIME.HHMMSS            00 000 000 000:  GT Time & Date
 GTDEPTH.m              00 000 000 000:  GT Depth
 GTPQH.psia             00 000 000 000:  GT HR Quartz Pressure
 GTTQ.degC              00 000 000 000:  GT Quartz Temperature
 GTTN.NONE              00 000 000 000:  GT Test Number
 GTET.sec               00 000 000 000:  GT Elapsed Test Time
 GTTVD.m                00 000 000 000:  GT True Vertical Depth
#Other Information
#
#WARRANTY: Halliburton will use its best efforts to furnish customers with 
#accurate information and interpretations that are part of, and incident to, the services 
#provided.  However, Halliburton cannot and does not warrant the accuracy 
#or correctness of such information and interpretations.  Under no circumstances should any 
#such information or interpretation be relied upon as the sole basis for any drilling, 
#completion, production, or financial decision or any procedure involving any risk to the 
#safety of any drilling venture, drilling rig or its crew or any other third party.  The 
#Customer has full responsibility for all drilling, completion and production operation.  
#Halliburton makes no representations or warranties, either expressed or 
#implied, including, but not limited to, the implied warranties of merchantability or fitness 
#for a particular purpose, with respect to the services rendered.  In no event will 
#Halliburton be liable for failure to obtain any particular results or for 
#any damages, including, but not limited to, indirect, special or consequential damages, 
#resulting from the use of any information or interpretation provided by Halliburton.
#
~A           TIME           GTDEPTH  GTPQH  GTTQ  GTTN   GTET   GTTVD  
# ...
   06:44:49.400.09-May-2021 4440.01  694.75 65.66 15.00 203.40 2948.57
   06:44:49.600.09-May-2021 4440.01  695.00 65.66 15.00 203.60 2948.57
   06:44:49.800.09-May-2021 4440.01  695.91 65.66 15.00 203.80 2948.57
   06:44:50.000.09-May-2021 4440.01  697.06 65.66 15.00 204.00 2948.57
   06:44:50.200.09-May-2021 4440.01  697.06 65.66 15.00 204.20 2948.57
   06:44:50.400.09-May-2021 4440.01  699.48 65.66 15.00 204.40 2948.57
   06:44:50.600.09-May-2021 4440.01  701.04 65.66 15.00 204.60 2948.57
   06:44:50.800.09-May-2021 4440.01  702.43 65.66 15.00 204.80 2948.57
   06:44:51.000.09-May-2021 4440.01  703.96 65.66 15.00 205.00 2948.57
   06:44:51.200.09-May-2021 4440.01  703.96 65.66 15.00 205.20 2948.57
   06:44:51.400.09-May-2021 4440.01  706.60 65.66 15.00 205.40 2948.57
   06:44:51.600.09-May-2021 4440.01  707.43 65.66 15.00 205.60 2948.57
   06:44:51.800.09-May-2021 4440.01  709.39 65.66 15.00 205.80 2948.57
   06:44:52.000.09-May-2021 4440.01  710.48 65.66 15.00 206.00 2948.57
   06:44:52.200.09-May-2021 4440.01  710.48 65.66 15.00 206.20 2948.57
   06:44:52.400.09-May-2021 4440.01  712.94 65.66 15.00 206.40 2948.57
   06:44:52.600.09-May-2021 4440.01  714.75 65.66 15.00 206.60 2948.57
   06:44:52.800.09-May-2021 4440.01  715.91 65.66 15.00 206.80 2948.57
   06:44:53.000.09-May-2021 4440.01  717.54 65.66 15.00 207.00 2948.57
   06:44:53.200.09-May-2021 4440.01  717.54 65.66 15.00 207.20 2948.57
   06:44:53.400.09-May-2021 4440.01  720.11 65.66 15.00 207.40 2948.57
   06:44:53.600.09-May-2021 4440.01  721.44 65.66 15.00 207.60 2948.57
   06:44:53.800.09-May-2021 4440.01  722.79 65.66 15.00 207.80 2948.57
   06:44:54.000.09-May-2021 4440.01  724.18 65.66 15.00 208.00 2948.57
   06:44:54.200.09-May-2021 4440.01  724.18 65.66 15.00 208.20 2948.57
   06:44:54.400.09-May-2021 4440.01  726.91 65.66 15.00 208.40 2948.57
   06:44:54.600.09-May-2021 4440.01  728.26 65.66 15.00 208.60 2948.57
   06:44:54.800.09-May-2021 4440.01  729.63 65.66 15.00 208.80 2948.57
   06:44:55.000.09-May-2021 4440.01  730.55 65.66 15.00 209.00 2948.57
   06:44:55.200.09-May-2021 4440.01  730.55 65.66 15.00 209.20 2948.57
   06:44:55.400.09-May-2021 4440.01  733.57 65.66 15.00 209.40 2948.57
   06:44:55.600.09-May-2021 4440.01  735.13 65.66 15.00 209.60 2948.57
   06:44:55.800.09-May-2021 4440.01  736.32 65.66 15.00 209.80 2948.57
   06:44:56.000.09-May-2021 4440.01  737.70 65.66 15.00 210.00 2948.57
   06:44:56.200.09-May-2021 4440.01  737.70 65.66 15.00 210.20 2948.57
   06:44:56.400.09-May-2021 4440.01  739.04 65.66 15.00 210.40 2948.57
   06:44:56.600.09-May-2021 4440.01  741.73 65.66 15.00 210.60 2948.57
   06:44:56.800.09-May-2021 4440.01  743.04 65.66 15.00 210.80 2948.57
   06:44:57.000.09-May-2021 4440.01  744.40 65.66 15.00 211.00 2948.57
   06:44:57.200.09-May-2021 4440.01  744.40 65.66 15.00 211.20 2948.57
   06:44:57.400.09-May-2021 4440.01  747.09 65.66 15.00 211.40 2948.57
   06:44:57.600.09-May-2021 4440.01  748.07 65.66 15.00 211.60 2948.57
   06:44:57.800.09-May-2021 4440.01  749.76 65.66 15.00 211.80 2948.57
   06:44:58.000.09-May-2021 4440.01  751.09 65.66 15.00 212.00 2948.57
   06:44:58.200.09-May-2021 4440.01  751.09 65.66 15.00 212.20 2948.57
   06:44:58.400.09-May-2021 4440.01  753.73 65.66 15.00 212.40 2948.57
   06:44:58.600.09-May-2021 4440.01  754.95 65.66 15.00 212.60 2948.57
   06:44:58.800.09-May-2021 4440.01  755.93 65.66 15.00 212.80 2948.57
   06:44:59.000.09-May-2021 4440.01  757.59 65.66 15.00 213.00 2948.57
   06:44:59.200.09-May-2021 4440.01  757.59 65.66 15.00 213.20 2948.57
   06:44:59.400.09-May-2021 4440.01  759.83 65.66 15.00 213.40 2948.57
   06:44:59.600.09-May-2021 4440.01  761.75 65.66 15.00 213.60 2948.57
   06:44:59.800.09-May-2021 4440.01  762.77 65.66 15.00 213.80 2948.57
   06:45:00.000.09-May-2021 4440.01  764.15 65.66 15.00 214.00 2948.57
   06:45:00.200.09-May-2021 4440.01  764.15 65.66 15.00 214.20 2948.57
   06:45:00.400.09-May-2021 4440.01  766.81 65.66 15.00 214.40 2948.57
   06:45:00.600.09-May-2021 4440.01  767.98 65.66 15.00 214.60 2948.57
   06:45:00.800.09-May-2021 4440.01  769.28 65.66 15.00 214.80 2948.57
   06:45:01.000.09-May-2021 4440.01  770.55 65.66 15.00 215.00 2948.57
   06:45:01.200.09-May-2021 4440.01  770.55 65.66 15.00 215.20 2948.57
   06:45:01.400.09-May-2021 4440.01  773.10 65.66 15.00 215.40 2948.57
   06:45:01.600.09-May-2021 4440.01  774.10 65.66 15.00 215.60 2948.57
   06:45:01.800.09-May-2021 4440.01  774.73 65.66 15.00 215.80 2948.57
   06:45:02.000.09-May-2021 4440.01  775.55 65.66 15.00 216.00 2948.57
   06:45:02.200.09-May-2021 4440.01  775.55 65.66 15.00 216.20 2948.57
   06:45:02.400.09-May-2021 4440.01  777.68 65.66 15.00 216.40 2948.57
   06:45:02.600.09-May-2021 4440.01  778.98 65.66 15.00 216.60 2948.57
   06:45:02.800.09-May-2021 4440.01  779.96 65.66 15.00 216.80 2948.57
   06:45:03.000.09-May-2021 4440.01  781.65 65.66 15.00 217.00 2948.57
   06:45:03.200.09-May-2021 4440.01  781.65 65.66 15.00 217.20 2948.57
   06:45:03.400.09-May-2021 4440.01  784.10 65.66 15.00 217.40 2948.57
   06:45:03.600.09-May-2021 4440.01  785.51 65.66 15.00 217.60 2948.57
   06:45:03.800.09-May-2021 4440.01  786.74 65.66 15.00 217.80 2948.57
   06:45:04.000.09-May-2021 4440.01  788.10 65.66 15.00 218.00 2948.57
   06:45:04.200.09-May-2021 4440.01  788.10 65.66 15.00 218.20 2948.57
   06:45:04.400.09-May-2021 4440.01  790.71 65.66 15.00 218.40 2948.57
   06:45:04.600.09-May-2021 4440.01  792.03 65.66 15.00 218.60 2948.57
   06:45:04.800.09-May-2021 4440.01  793.33 65.66 15.00 218.80 2948.57
   06:45:05.000.09-May-2021 4440.01  794.63 65.66 15.00 219.00 2948.57
   06:45:05.200.09-May-2021 4440.01  794.63 65.66 15.00 219.20 2948.57
   06:45:05.400.09-May-2021 4440.01  797.29 65.66 15.00 219.40 2948.57
   06:45:05.600.09-May-2021 4440.01  798.46 65.66 15.00 219.60 2948.57
   06:45:05.800.09-May-2021 4440.01  799.99 65.66 15.00 219.80 2948.57
   06:45:06.000.09-May-2021 4440.01  801.04 65.66 15.00 220.00 2948.57
   06:45:06.200.09-May-2021 4440.01  801.04 65.66 15.00 220.20 2948.57
   06:45:06.400.09-May-2021 4440.01  803.51 65.66 15.00 220.40 2948.57
   06:45:06.600.09-May-2021 4440.01  804.95 65.66 15.00 220.60 2948.57
   06:45:06.800.09-May-2021 4440.01  806.41 65.66 15.00 220.80 2948.57
   06:45:07.000.09-May-2021 4440.01  807.44 65.66 15.00 221.00 2948.57
   06:45:07.200.09-May-2021 4440.01  807.44 65.66 15.00 221.20 2948.57
   06:45:07.400.09-May-2021 4440.01  809.87 65.66 15.00 221.40 2948.57
   06:45:07.600.09-May-2021 4440.01  811.13 65.66 15.00 221.60 2948.57
   06:45:07.800.09-May-2021 4440.01  812.57 65.66 15.00 221.80 2948.57
   06:45:08.000.09-May-2021 4440.01  814.01 65.66 15.00 222.00 2948.57
   06:45:08.200.09-May-2021 4440.01  814.01 65.66 15.00 222.20 2948.57
   06:45:08.400.09-May-2021 4440.01  816.11 65.66 15.00 222.40 2948.57
   06:45:08.600.09-May-2021 4440.01  817.67 65.66 15.00 222.60 2948.57
   06:45:08.800.09-May-2021 4440.01  818.81 65.66 15.00 222.80 2948.57
   06:45:09.000.09-May-2021 4440.01  820.37 65.66 15.00 223.00 2948.57
   06:45:09.200.09-May-2021 4440.01  820.37 65.66 15.00 223.20 2948.57
   06:45:09.400.09-May-2021 4440.01  822.73 65.66 15.00 223.40 2948.57
   06:45:09.600.09-May-2021 4440.01  823.97 65.66 15.00 223.60 2948.57
   06:45:09.800.09-May-2021 4440.01  825.24 65.66 15.00 223.80 2948.57
   06:45:10.000.09-May-2021 4440.01  826.53 65.66 15.00 224.00 2948.57
   06:45:10.200.09-May-2021 4440.01  826.53 65.66 15.00 224.20 2948.57
   06:45:10.400.09-May-2021 4440.01  829.10 65.66 15.00 224.40 2948.57
   06:45:10.600.09-May-2021 4440.01  830.37 65.66 15.00 224.60 2948.57
   06:45:10.800.09-May-2021 4440.01  831.65 65.66 15.00 224.80 2948.57
   06:45:11.000.09-May-2021 4440.01  832.43 65.66 15.00 225.00 2948.57
   06:45:11.200.09-May-2021 4440.01  832.43 65.66 15.00 225.20 2948.57
   06:45:11.400.09-May-2021 4440.01  835.34 65.66 15.00 225.40 2948.57
   06:45:11.600.09-May-2021 4440.01  836.85 65.66 15.00 225.60 2948.57
   06:45:11.800.09-May-2021 4440.01  837.94 65.66 15.00 225.80 2948.57
