~Version Information
 VERS.                  2.0:   CWLS log ASCII Standard -VERSION 2.0
 WRAP.                   NO:   One line per depth step
~Well Information Block
#MNEM.UNIT     VALUE/NAME     DESCRIPTION
#---------     -----------    ---------------------------
 STRT.S             00:30:13 09-May-21: START TIME 00:30:13 09-May-21
 STOP.S             00:37:03 09-May-21: STOP TIME  00:37:03 09-May-21
 STEP.S                   0.00: STEP TIME
 NULL.                 -999.25: NULL VALUE
 PROV.                    Baku:  PROVINCE
 STAT.                    Baku:  STATE NAME
 SON .        AZ-XX-0906571588:  JOB NUMBER
 WTYP.                Deviated:  WELL TYPE
 COMP.     BP Exploration (Caspian Sea) ltd:  COMPANY
 BASE.              Azerbaijan:  LOGGING EQUIPMENT BASE LOCATION
 REGN.                   EESSA:  REGION
 CTRY.              Azerbaijan:  COUNTRY NAME
 FLD .                     ACG:  FIELD NAME
 WELL.                     J28:  WELL NAME
 RIG .             West Chirag:  RIG NAME
 DMF .             Drill Floor:  DRILL MEAS FROM
 PDAT.       Caspian Sea Level:  PERMANENT DATUM
 HPTY.       Minimum Curvature:  HOLE POS TYPE
 MDS .        Operator Entered:  MAG DATA SOURCE
 NREF.                    Grid:  NORTH REFERENCE
 SRVC.          TURAN DRILLING:  CONTRACTOR
 JOBN.        AZ-XX-0906571588:  JOB TICKET NUMB
 DCON.     Halliburton Sperry Drilling:  DIRECTNL CONTR
 STIM.      00.44.00 11-Feb-21:  START TIME
 DATE.      00.00.00 05-May-21:  END TIME
 SPUD.               13-Feb-21:  SPUD DATE
 MWDS.                    Baku:  MWD SHOP
 DOE .                     N/A:  DOE NUMBER
 UNIT.                     N/A:  LOGGING EQUIPMENT ID
 UWI .                     N/A:  UNIQUE WELL IDENTIFIER
 API .                     N/A:  API NUMBER
 CNTY.                        :  COUNTY
 LOC .                        :  LOCATION
 LMF .             Drill Floor:  LOG MEASURED FROM
 TVDS.m                  43.00:  TVDSS CORRECTN
 SDEP.m                 341.00:  START DEPTH
 EGL .m                   0.00:  GROUND ELEVATION
 WDMS.m                 169.80:  WD ELEV
 AGAP.m                  43.00:  AIR GAP
 EPD .m                   0.00:  ELEVATION
 APD .m                  43.00:  DEPTH ABOVE PD
 LATI.deg                40.13:  LATITUDE
 LONG.deg                51.22:  LONGITUDE
 UTMY.m             4443793.85:  UTM Y
 UTMX.m              519005.06:  UTM X
 WHEW.m                 -11.57:  WELL HEAD E/W
 WHNS.m                   8.57:  WELL HEAD N/S
 VSEW.m                 -11.57:  VERT SEC E/W
 VSNS.m                   8.57:  VERT SEC N/S
 DFWL.m                   0.00:  DISTANCE FWL
 DFSL.m                   0.00:  DISTANCE FSL
 VSDR.deg               299.34:  VERT SEC DIRECT
 GVFD.g                   1.00:  GRAVITY FIELD
 AZTC.deg                 6.36:  AZM TOTAL CORR
 MFLD.nT              50391.00:  MAGNETIC FIELD
 MDIP.deg                59.65:  MAGNETIC DIP
 MDEC.deg                 6.48:  MAGNETIC DECL
 GRDC.deg                 0.12:  GRID CORRECTION
 DEP .m                 334.96:  DEPTH
 TDD .m                1407.26:  TOTAL DEPTH (DRILLER)
 EKB .m                  43.00:  KB ELEVATION
 EDF .m                  43.00:  DF ELEVATION
 TDL .m                 228.00:  TOTAL DEPTH (LOGGER)
 VSC .                       0:  VS TO CLOSURE
 MAGU.                 1854484:  MAGUTM CHECKSUM
~Parameter Information Block
#MNEM.UNIT       Value        Description
#---------     -----------    ---------------------------
 AV  .mps                 4.00:  Ann Velocity 
 AVMX.mps                 4.73:  Max Ann Veloc 
 AZIF.deg               304.48:  Azm, Final 
 BHAT.        Rotary Steerable:  BHA Type 
 BREV.rev            257300.00:  Rev Bit Total 
 BROT.°/30m               0.00:  Build Rotating 
 BS  .in                  8.50:  Bit Size 
 BSZ .in                  8.50:  Bit Size 
 BTPL.psig              589.00:  Bit Press Loss 
 CABU.                      No:  Customer Abuse 
 CGEO.          Mubariz ghayev:  Customer Geo 
 TCS .hr                 64.25:  Time Ciculation Ended 
 CV  .mps                 3.50:  Crit Velocity 
 CVMX.mps                 4.52:  Max Crit Veloc 
 DD1 .             Aziz Aliyev:  Direct Drillr 1 
 DD2 .         Intigam Rahimov:  Direct Drillr 2 
 DD3 .          Rashad Habibov:  Direct Drillr 3 
 DDSV.               Geo-Pilot:  DD Service 
 DEFF.%                  98.00:  % Det Eff 
 DLRX.°/30m               0.00:  Dogleg Rot Max 
 DLSO.°/30m               0.00:  Dogleg Oriented 
 DLSX.°/30m               0.00:  Dogleg Str Max 
 DRET.      10.45.04 08-May-21:  Drill End Time 
 DRST.      03.30.04 04-May-21:  Drill Start Tim 
 DTIM.hr                 14.97:  Time Drilling 
 EDEP.m                4640.01:  End Depth 
 ENG1.         Dail Mahammadov:  Engineer 1 
 ENG2.           Eldar Hajiyev:  Engineer 2 
 ENG3.       Bakhtiar Jabbarli:  Engineer 3 
 ENG4.       Natik Hasanagayev:  Engineer 4 
 ETIM.      09.30.04 14-May-21:  End Time 
 FLOI.gpm               460.00:  Flow In 
 FLON.gpm               200.00:  Flow In Min 
 FLOS.cptm                0.00:  Fluid Loss 
 FLOX.gpm               505.00:  Flow In Max 
 HFLO.                      No:  High Flow 
 HPRE.                      No:  High Pressure 
 HTEM.                      No:  High Temp 
 HYDO.m                   1.80:  Hydro Offset 
 IFIN.deg                66.71:  Inc, Final 
 IMAX.deg                67.03:  Inc Max 
 IMIN.deg                66.63:  Inc Min 
 IMND.m                4550.58:  Inc Min Depth 
 IMXD.m                4439.01:  Inc Max Depth 
 JARR.                      No:  Jarring 
 LETM.      10.45.04 08-May-21:  Log End Time 
 LOST.hr                     0:  Lost Rig Time 
 LSTM.      03.30.04 04-May-21:  Log Start Time 
 MDCL.ppm             37000.00:  Mud Chlorides 
 MDES.     Inversion Oil/Synthetic:  Mud Desc 
 DFD .sg                  1.38:  Mud Density 
 MDMN.sg                  1.35:  Dens Mud Min 
 MDMX.sg                  1.40:  Dens Mud Max 
 MOIL.                   57.40:  Run Mud Oil % 
 MOWR.                   70:30:  Run Mud OWR 
 MSND.                    0.00:  Run Mud Sand % 
 MSOL.                   18.00:  Run Mud Solids% 
 DFV .spqt               71.00:  Mud Viscosity 
 MWOD.in                  6.75:  MWD Tool OD 
 MWSI.                      No:  Serv Intrp, MWD 
 OTIM.hr                242.76:  Time Operating 
 PCON.           Look Like New:  Pad Condition 
 PMAX.psia            12183.92:  Press Op, Max 
 PV  .cP                 27.00:  Mud PV 
 RUN .                    1300:  Run Number 
 ROPA.m/hr               15.00:  ROP Avg 
 ROPN.m/hr                9.00:  ROP Min 
 ROPX.m/hr               19.00:  ROP Max 
 RPMA.rpm               120.00:  RPM Surface Avg 
 RPMN.rpm               100.00:  RPM Surface Min 
 RPMX.rpm               120.00:  RPM Surface Max 
 RRUN.                    1300:  Rig Run Number 
 RTIM.hr                  5.00:  Time Reaming 
 SAZI.deg               304.73:  Azm, Start 
 SDEP.m                4412.01:  Start Depth 
 SIDD.                      No:  Serv Intrp, DD 
 SINC.deg                66.82:  Inc, Start 
 SPPA.psig             2800.00:  SPP Avg 
 SPPN.psig             2610.00:  SPP Min 
 SPPX.psig             3100.00:  SPP Max 
 STIM.      03.30.00 04-May-21:  Start Time 
 SVCS.                 DD, MWD:  Services 
 SVER.                    9.20:  Sperry Version 
 TDAT.m                 228.00:  Tot Depth Attmp 
 TDDF.                      No:  Trip for DD 
 TDLG.m                 228.00:  Tot Depth Loggd 
 TFF .                      No:  Trip for Fail 
 TQAA.f-kp               15.00:  Torque Abs Avg 
 TQAN.f-kp               12.00:  Torque Abs Min 
 TQAX.f-kp               22.00:  Torque Abs Max 
 TRRT.°/30m               0.00:  Turn Rotating 
 MRT .                    HCIM:  Maximum Recorded Temperature 
 TTMX.degC               90.20:  Max Tool Temp 
 VS01.                90627813:  Virtual Str1 SN 
 VS02.                90634712:  Virtual Str2 SN 
 VS03.                90643410:  Virtual Str3 SN 
 VS04.                90634712:  Virtual Str4 SN 
 WBMN.klb                 9.00:  WOB Min 
 WITN.        Elmaddin Rahimov:  Customer Rep 
 WITN.         Haytham Mostafa:  Customer Rep 2 
 WOBA.klb                15.00:  WOB Avg 
 WOBX.klb                23.00:  WOB Max 
 YP  .lhf2               29.00:  Yield Point 
~Curve Information Block
#MNEM.UNIT                 API CODE     Curve Description
#---------               -----------    ---------------------------
 TIME.HHMMSS            00 000 000 000:  GT Time & Date
 GTDEPTH.m              00 000 000 000:  GT Depth
 GTPQH.psia             00 000 000 000:  GT HR Quartz Pressure
 GTTQ.degC              00 000 000 000:  GT Quartz Temperature
 GTTN.NONE              00 000 000 000:  GT Test Number
 GTET.sec               00 000 000 000:  GT Elapsed Test Time
 GTTVD.m                00 000 000 000:  GT True Vertical Depth
#Other Information
#
#WARRANTY: Halliburton will use its best efforts to furnish customers with 
#accurate information and interpretations that are part of, and incident to, the services 
#provided.  However, Halliburton cannot and does not warrant the accuracy 
#or correctness of such information and interpretations.  Under no circumstances should any 
#such information or interpretation be relied upon as the sole basis for any drilling, 
#completion, production, or financial decision or any procedure involving any risk to the 
#safety of any drilling venture, drilling rig or its crew or any other third party.  The 
#Customer has full responsibility for all drilling, completion and production operation.  
#Halliburton makes no representations or warranties, either expressed or 
#implied, including, but not limited to, the implied warranties of merchantability or fitness 
#for a particular purpose, with respect to the services rendered.  In no event will 
#Halliburton be liable for failure to obtain any particular results or for 
#any damages, including, but not limited to, indirect, special or consequential damages, 
#resulting from the use of any information or interpretation provided by Halliburton.
#
~A           TIME           GTDEPTH  GTPQH  GTTQ  GTTN  GTET   GTTVD  
# ...
   00:34:49.955.09-May-2021 4516.51 3254.39 67.74 7.00 276.10 2978.60
   00:34:50.155.09-May-2021 4516.51 3254.39 67.74 7.00 276.30 2978.60
   00:34:50.355.09-May-2021 4516.51 3261.46 67.74 7.00 276.50 2978.60
   00:34:50.555.09-May-2021 4516.51 3264.08 67.74 7.00 276.70 2978.60
   00:34:50.755.09-May-2021 4516.51 3267.79 67.74 7.00 276.90 2978.60
   00:34:50.955.09-May-2021 4516.51 3270.09 67.74 7.00 277.10 2978.60
   00:34:51.155.09-May-2021 4516.51 3270.09 67.74 7.00 277.30 2978.60
   00:34:51.355.09-May-2021 4516.51 3275.41 67.74 7.00 277.50 2978.60
   00:34:51.555.09-May-2021 4516.51 3277.15 67.74 7.00 277.70 2978.60
   00:34:51.755.09-May-2021 4516.51 3279.18 67.74 7.00 277.90 2978.60
   00:34:51.955.09-May-2021 4516.51 3280.67 67.75 7.00 278.10 2978.60
   00:34:52.155.09-May-2021 4516.51 3280.67 67.75 7.00 278.30 2978.60
   00:34:52.355.09-May-2021 4516.51 3283.42 67.75 7.00 278.50 2978.60
   00:34:52.555.09-May-2021 4516.51 3284.54 67.75 7.00 278.70 2978.60
   00:34:52.756.09-May-2021 4516.51 3285.57 67.75 7.00 278.90 2978.60
   00:34:52.956.09-May-2021 4516.51 3286.48 67.75 7.00 279.10 2978.60
   00:34:53.156.09-May-2021 4516.51 3286.48 67.75 7.00 279.30 2978.60
   00:34:53.356.09-May-2021 4516.51 3288.02 67.75 7.00 279.50 2978.60
   00:34:53.556.09-May-2021 4516.51 3288.65 67.75 7.00 279.70 2978.60
   00:34:53.756.09-May-2021 4516.51 3288.95 67.75 7.00 279.90 2978.60
   00:34:53.956.09-May-2021 4516.51 3290.54 67.75 7.00 280.10 2978.60
   00:34:54.156.09-May-2021 4516.51 3290.54 67.75 7.00 280.30 2978.60
   00:34:54.356.09-May-2021 4516.51 3292.73 67.75 7.00 280.50 2978.60
   00:34:54.556.09-May-2021 4516.51 3293.05 67.75 7.00 280.70 2978.60
   00:34:54.756.09-May-2021 4516.51 3293.60 67.75 7.00 280.90 2978.60
   00:34:54.956.09-May-2021 4516.51 3293.99 67.75 7.00 281.10 2978.60
   00:34:55.156.09-May-2021 4516.51 3293.99 67.75 7.00 281.30 2978.60
   00:34:55.357.09-May-2021 4516.51 3294.55 67.75 7.00 281.50 2978.60
   00:34:55.557.09-May-2021 4516.51 3294.74 67.75 7.00 281.70 2978.60
   00:34:55.757.09-May-2021 4516.51 3294.93 67.75 7.00 281.90 2978.60
   00:34:55.957.09-May-2021 4516.51 3295.08 67.75 7.00 282.10 2978.60
   00:34:56.157.09-May-2021 4516.51 3295.08 67.75 7.00 282.30 2978.60
   00:34:56.357.09-May-2021 4516.51 3294.87 67.76 7.00 282.50 2978.60
   00:34:56.557.09-May-2021 4516.51 3295.94 67.76 7.00 282.70 2978.60
   00:34:56.757.09-May-2021 4516.51 3295.64 67.76 7.00 282.90 2978.60
   00:34:56.957.09-May-2021 4516.51 3295.80 67.76 7.00 283.10 2978.60
   00:34:57.157.09-May-2021 4516.51 3295.80 67.76 7.00 283.30 2978.60
   00:34:57.357.09-May-2021 4516.51 3295.61 67.76 7.00 283.50 2978.60
   00:34:57.557.09-May-2021 4516.51 3296.32 67.76 7.00 283.70 2978.60
   00:34:57.757.09-May-2021 4516.51 3296.13 67.76 7.00 283.90 2978.60
   00:34:57.957.09-May-2021 4516.51 3295.94 67.76 7.00 284.10 2978.60
   00:34:58.158.09-May-2021 4516.51 3295.94 67.76 7.00 284.30 2978.60
   00:34:58.358.09-May-2021 4516.51 3296.16 67.76 7.00 284.50 2978.60
   00:34:58.558.09-May-2021 4516.51 3295.91 67.76 7.00 284.70 2978.60
   00:34:58.758.09-May-2021 4516.51 3296.60 67.76 7.00 284.90 2978.60
   00:34:58.958.09-May-2021 4516.51 3296.45 67.76 7.00 285.10 2978.60
   00:34:59.158.09-May-2021 4516.51 3296.45 67.76 7.00 285.30 2978.60
   00:34:59.358.09-May-2021 4516.51 3296.38 67.76 7.00 285.50 2978.60
   00:34:59.558.09-May-2021 4516.51 3296.40 67.76 7.00 285.70 2978.60
   00:34:59.758.09-May-2021 4516.51 3296.23 67.76 7.00 285.90 2978.60
   00:34:59.958.09-May-2021 4516.51 3296.93 67.76 7.00 286.10 2978.60
   00:35:00.158.09-May-2021 4516.51 3296.93 67.76 7.00 286.30 2978.60
   00:35:00.358.09-May-2021 4516.51 3296.60 67.76 7.00 286.50 2978.60
   00:35:00.558.09-May-2021 4516.51 3296.71 67.76 7.00 286.70 2978.60
   00:35:00.758.09-May-2021 4516.51 3296.74 67.76 7.00 286.90 2978.60
   00:35:00.959.09-May-2021 4516.51 3296.76 67.76 7.00 287.10 2978.60
   00:35:01.159.09-May-2021 4516.51 3296.76 67.76 7.00 287.30 2978.60
   00:35:01.359.09-May-2021 4516.51 3296.86 67.76 7.00 287.50 2978.60
   00:35:01.559.09-May-2021 4516.51 3296.91 67.76 7.00 287.70 2978.60
   00:35:01.759.09-May-2021 4516.51 3296.98 67.76 7.00 287.90 2978.60
   00:35:01.959.09-May-2021 4516.51 3296.94 67.76 7.00 288.10 2978.60
   00:35:02.159.09-May-2021 4516.51 3296.94 67.76 7.00 288.30 2978.60
   00:35:02.359.09-May-2021 4516.51 3296.75 67.76 7.00 288.50 2978.60
   00:35:02.559.09-May-2021 4516.51 3297.44 67.76 7.00 288.70 2978.60
   00:35:02.759.09-May-2021 4516.51 3297.26 67.76 7.00 288.90 2978.60
   00:35:02.959.09-May-2021 4516.51 3297.06 67.76 7.00 289.10 2978.60
   00:35:03.159.09-May-2021 4516.51 3297.06 67.76 7.00 289.30 2978.60
   00:35:03.359.09-May-2021 4516.51 3297.16 67.76 7.00 289.50 2978.60
   00:35:03.559.09-May-2021 4516.51 3297.17 67.76 7.00 289.70 2978.60
   00:35:03.760.09-May-2021 4516.51 3297.22 67.76 7.00 289.91 2978.60
   00:35:03.960.09-May-2021 4516.51 3297.25 67.76 7.00 290.11 2978.60
   00:35:04.160.09-May-2021 4516.51 3297.25 67.76 7.00 290.31 2978.60
   00:35:04.360.09-May-2021 4516.51 3297.34 67.76 7.00 290.51 2978.60
   00:35:04.560.09-May-2021 4516.51 3297.29 67.76 7.00 290.71 2978.60
   00:35:04.760.09-May-2021 4516.51 3297.37 67.76 7.00 290.91 2978.60
   00:35:04.960.09-May-2021 4516.51 3297.11 67.76 7.00 291.11 2978.60
   00:35:05.160.09-May-2021 4516.51 3297.11 67.76 7.00 291.31 2978.60
   00:35:05.360.09-May-2021 4516.51 3297.59 67.76 7.00 291.51 2978.60
   00:35:05.560.09-May-2021 4516.51 3297.36 67.76 7.00 291.71 2978.60
   00:35:05.760.09-May-2021 4516.51 3297.52 67.76 7.00 291.91 2978.60
   00:35:05.960.09-May-2021 4516.51 3297.18 67.76 7.00 292.11 2978.60
   00:35:06.160.09-May-2021 4516.51 3297.18 67.76 7.00 292.31 2978.60
   00:35:06.361.09-May-2021 4516.51 3297.70 67.76 7.00 292.51 2978.60
   00:35:06.561.09-May-2021 4516.51 3297.45 67.76 7.00 292.71 2978.60
   00:35:06.761.09-May-2021 4516.51 3297.56 67.76 7.00 292.91 2978.60
   00:35:06.961.09-May-2021 4516.51 3297.25 67.76 7.00 293.11 2978.60
   00:35:07.161.09-May-2021 4516.51 3297.25 67.76 7.00 293.31 2978.60
   00:35:07.361.09-May-2021 4516.51 3297.88 67.76 7.00 293.51 2978.60
   00:35:07.561.09-May-2021 4516.51 3297.89 67.76 7.00 293.71 2978.60
   00:35:07.761.09-May-2021 4516.51 3297.68 67.76 7.00 293.91 2978.60
   00:35:07.961.09-May-2021 4516.51 3297.68 67.76 7.00 294.11 2978.60
   00:35:08.161.09-May-2021 4516.51 3297.68 67.76 7.00 294.31 2978.60
   00:35:08.361.09-May-2021 4516.51 3298.25 67.76 7.00 294.51 2978.60
   00:35:08.561.09-May-2021 4516.51 3297.77 67.76 7.00 294.71 2978.60
   00:35:08.761.09-May-2021 4516.51 3297.91 67.76 7.00 294.91 2978.60
   00:35:08.961.09-May-2021 4516.51 3297.83 67.76 7.00 295.11 2978.60
   00:35:09.162.09-May-2021 4516.51 3297.83 67.76 7.00 295.31 2978.60
   00:35:09.362.09-May-2021 4516.51 3297.85 67.76 7.00 295.51 2978.60
   00:35:09.562.09-May-2021 4516.51 3297.87 67.76 7.00 295.71 2978.60
   00:35:09.762.09-May-2021 4516.51 3297.92 67.76 7.00 295.91 2978.60
   00:35:09.962.09-May-2021 4516.51 3297.95 67.76 7.00 296.11 2978.60
   00:35:10.162.09-May-2021 4516.51 3297.95 67.76 7.00 296.31 2978.60
   00:35:10.362.09-May-2021 4516.51 3297.96 67.76 7.00 296.51 2978.60
   00:35:10.562.09-May-2021 4516.51 3297.97 67.76 7.00 296.71 2978.60
   00:35:10.762.09-May-2021 4516.51 3297.58 67.76 7.00 296.91 2978.60
   00:35:10.962.09-May-2021 4516.51 3298.53 67.76 7.00 297.11 2978.60
   00:35:11.162.09-May-2021 4516.51 3298.53 67.76 7.00 297.31 2978.60
   00:35:11.362.09-May-2021 4516.51 3298.18 67.76 7.00 297.51 2978.60
   00:35:11.562.09-May-2021 4516.51 3298.09 67.76 7.00 297.71 2978.60
   00:35:11.762.09-May-2021 4516.51 3298.09 67.76 7.00 297.91 2978.60
   00:35:11.963.09-May-2021 4516.51 3298.08 67.76 7.00 298.11 2978.60
   00:35:12.163.09-May-2021 4516.51 3298.08 67.76 7.00 298.31 2978.60
   00:35:12.363.09-May-2021 4516.51 3298.12 67.76 7.00 298.51 2978.60
   00:35:12.563.09-May-2021 4516.51 3298.17 67.76 7.00 298.71 2978.60
   00:35:12.763.09-May-2021 4516.51 3298.19 67.76 7.00 298.91 2978.60
