~Version Information
 VERS.                  2.0:   CWLS log ASCII Standard -VERSION 2.0
 WRAP.                   NO:   One line per depth step
~Well Information Block
#MNEM.UNIT     VALUE/NAME     DESCRIPTION
#---------     -----------    ---------------------------
 STRT.S             01:50:25 10-May-21: START TIME 01:50:25 10-May-21
 STOP.S             01:58:33 10-May-21: STOP TIME  01:58:33 10-May-21
 STEP.S                   0.00: STEP TIME
 NULL.                 -999.25: NULL VALUE
 PROV.                    Baku:  PROVINCE
 STAT.                    Baku:  STATE NAME
 SON .        AZ-XX-0906571588:  JOB NUMBER
 WTYP.                Deviated:  WELL TYPE
 COMP.     BP Exploration (Caspian Sea) ltd:  COMPANY
 BASE.              Azerbaijan:  LOGGING EQUIPMENT BASE LOCATION
 REGN.                   EESSA:  REGION
 CTRY.              Azerbaijan:  COUNTRY NAME
 FLD .                     ACG:  FIELD NAME
 WELL.                     J28:  WELL NAME
 RIG .             West Chirag:  RIG NAME
 DMF .             Drill Floor:  DRILL MEAS FROM
 PDAT.       Caspian Sea Level:  PERMANENT DATUM
 HPTY.       Minimum Curvature:  HOLE POS TYPE
 MDS .        Operator Entered:  MAG DATA SOURCE
 NREF.                    Grid:  NORTH REFERENCE
 SRVC.          TURAN DRILLING:  CONTRACTOR
 JOBN.        AZ-XX-0906571588:  JOB TICKET NUMB
 DCON.     Halliburton Sperry Drilling:  DIRECTNL CONTR
 STIM.      00.44.00 11-Feb-21:  START TIME
 DATE.      00.00.00 05-May-21:  END TIME
 SPUD.               13-Feb-21:  SPUD DATE
 MWDS.                    Baku:  MWD SHOP
 DOE .                     N/A:  DOE NUMBER
 UNIT.                     N/A:  LOGGING EQUIPMENT ID
 UWI .                     N/A:  UNIQUE WELL IDENTIFIER
 API .                     N/A:  API NUMBER
 CNTY.                        :  COUNTY
 LOC .                        :  LOCATION
 LMF .             Drill Floor:  LOG MEASURED FROM
 TVDS.m                  43.00:  TVDSS CORRECTN
 SDEP.m                 341.00:  START DEPTH
 EGL .m                   0.00:  GROUND ELEVATION
 WDMS.m                 169.80:  WD ELEV
 AGAP.m                  43.00:  AIR GAP
 EPD .m                   0.00:  ELEVATION
 APD .m                  43.00:  DEPTH ABOVE PD
 LATI.deg                40.13:  LATITUDE
 LONG.deg                51.22:  LONGITUDE
 UTMY.m             4443793.85:  UTM Y
 UTMX.m              519005.06:  UTM X
 WHEW.m                 -11.57:  WELL HEAD E/W
 WHNS.m                   8.57:  WELL HEAD N/S
 VSEW.m                 -11.57:  VERT SEC E/W
 VSNS.m                   8.57:  VERT SEC N/S
 DFWL.m                   0.00:  DISTANCE FWL
 DFSL.m                   0.00:  DISTANCE FSL
 VSDR.deg               299.34:  VERT SEC DIRECT
 GVFD.g                   1.00:  GRAVITY FIELD
 AZTC.deg                 6.36:  AZM TOTAL CORR
 MFLD.nT              50391.00:  MAGNETIC FIELD
 MDIP.deg                59.65:  MAGNETIC DIP
 MDEC.deg                 6.48:  MAGNETIC DECL
 GRDC.deg                 0.12:  GRID CORRECTION
 DEP .m                 334.96:  DEPTH
 TDD .m                1407.26:  TOTAL DEPTH (DRILLER)
 EKB .m                  43.00:  KB ELEVATION
 EDF .m                  43.00:  DF ELEVATION
 TDL .m                 228.00:  TOTAL DEPTH (LOGGER)
 VSC .                       0:  VS TO CLOSURE
 MAGU.                 1854484:  MAGUTM CHECKSUM
~Parameter Information Block
#MNEM.UNIT       Value        Description
#---------     -----------    ---------------------------
 AV  .mps                 4.00:  Ann Velocity 
 AVMX.mps                 4.73:  Max Ann Veloc 
 AZIF.deg               304.48:  Azm, Final 
 BHAT.        Rotary Steerable:  BHA Type 
 BREV.rev            257300.00:  Rev Bit Total 
 BROT.°/30m               0.00:  Build Rotating 
 BS  .in                  8.50:  Bit Size 
 BSZ .in                  8.50:  Bit Size 
 BTPL.psig              589.00:  Bit Press Loss 
 CABU.                      No:  Customer Abuse 
 CGEO.          Mubariz ghayev:  Customer Geo 
 COMM.                     Í‚:  Run Comments 1 
 TCS .hr                 64.25:  Time Ciculation Ended 
 CV  .mps                 3.50:  Crit Velocity 
 CVMX.mps                 4.52:  Max Crit Veloc 
 DD1 .             Aziz Aliyev:  Direct Drillr 1 
 DD2 .         Intigam Rahimov:  Direct Drillr 2 
 DD3 .          Rashad Habibov:  Direct Drillr 3 
 DDSV.               Geo-Pilot:  DD Service 
 DEFF.%                  98.00:  % Det Eff 
 DLRX.°/30m               0.00:  Dogleg Rot Max 
 DLSO.°/30m               0.00:  Dogleg Oriented 
 DLSX.°/30m               0.00:  Dogleg Str Max 
 DRET.      10.45.04 08-May-21:  Drill End Time 
 DRST.      03.30.04 04-May-21:  Drill Start Tim 
 DTIM.hr                 14.97:  Time Drilling 
 EDEP.m                4640.01:  End Depth 
 ENG1.         Dail Mahammadov:  Engineer 1 
 ENG2.           Eldar Hajiyev:  Engineer 2 
 ENG3.       Bakhtiar Jabbarli:  Engineer 3 
 ENG4.       Natik Hasanagayev:  Engineer 4 
 ETIM.      09.30.04 14-May-21:  End Time 
 FLOI.gpm               460.00:  Flow In 
 FLON.gpm               200.00:  Flow In Min 
 FLOS.cptm                0.00:  Fluid Loss 
 FLOX.gpm               505.00:  Flow In Max 
 HFLO.                      No:  High Flow 
 HPRE.                      No:  High Pressure 
 HTEM.                      No:  High Temp 
 HYDO.m                   1.80:  Hydro Offset 
 IFIN.deg                66.71:  Inc, Final 
 IMAX.deg                67.03:  Inc Max 
 IMIN.deg                66.63:  Inc Min 
 IMND.m                4550.58:  Inc Min Depth 
 IMXD.m                4439.01:  Inc Max Depth 
 JARR.                      No:  Jarring 
 LETM.      10.45.04 08-May-21:  Log End Time 
 LOST.hr                     0:  Lost Rig Time 
 LSTM.      03.30.04 04-May-21:  Log Start Time 
 MDCL.ppm             37000.00:  Mud Chlorides 
 MDES.     Inversion Oil/Synthetic:  Mud Desc 
 DFD .sg                  1.38:  Mud Density 
 MDMN.sg                  1.35:  Dens Mud Min 
 MDMX.sg                  1.40:  Dens Mud Max 
 MOIL.                   57.40:  Run Mud Oil % 
 MOWR.                   70:30:  Run Mud OWR 
 MSND.                    0.00:  Run Mud Sand % 
 MSOL.                   18.00:  Run Mud Solids% 
 DFV .spqt               71.00:  Mud Viscosity 
 MWOD.in                  6.75:  MWD Tool OD 
 MWSI.                      No:  Serv Intrp, MWD 
 OTIM.hr                242.76:  Time Operating 
 PCON.           Look Like New:  Pad Condition 
 PMAX.psia            12183.92:  Press Op, Max 
 PV  .cP                 27.00:  Mud PV 
 RUN .                    1300:  Run Number 
 ROPA.m/hr               15.00:  ROP Avg 
 ROPN.m/hr                9.00:  ROP Min 
 ROPX.m/hr               19.00:  ROP Max 
 RPMA.rpm               120.00:  RPM Surface Avg 
 RPMN.rpm               100.00:  RPM Surface Min 
 RPMX.rpm               120.00:  RPM Surface Max 
 RRUN.                    1300:  Rig Run Number 
 RTIM.hr                  5.00:  Time Reaming 
 SAZI.deg               304.73:  Azm, Start 
 SDEP.m                4412.01:  Start Depth 
 SIDD.                      No:  Serv Intrp, DD 
 SINC.deg                66.82:  Inc, Start 
 SPPA.psig             2800.00:  SPP Avg 
 SPPN.psig             2610.00:  SPP Min 
 SPPX.psig             3100.00:  SPP Max 
 STIM.      03.30.00 04-May-21:  Start Time 
 SVCS.                 DD, MWD:  Services 
 SVER.                    9.20:  Sperry Version 
 TDAT.m                 228.00:  Tot Depth Attmp 
 TDDF.                      No:  Trip for DD 
 TDLG.m                 228.00:  Tot Depth Loggd 
 TFF .                      No:  Trip for Fail 
 TQAA.f-kp               15.00:  Torque Abs Avg 
 TQAN.f-kp               12.00:  Torque Abs Min 
 TQAX.f-kp               22.00:  Torque Abs Max 
 TRRT.°/30m               0.00:  Turn Rotating 
 MRT .                    HCIM:  Maximum Recorded Temperature 
 TTMX.degC               90.20:  Max Tool Temp 
 VS01.                90627813:  Virtual Str1 SN 
 VS02.                90634712:  Virtual Str2 SN 
 VS03.                90643410:  Virtual Str3 SN 
 VS04.                90634712:  Virtual Str4 SN 
 WBMN.klb                 9.00:  WOB Min 
 WITN.        Elmaddin Rahimov:  Customer Rep 
 WITN.         Haytham Mostafa:  Customer Rep 2 
 WOBA.klb                15.00:  WOB Avg 
 WOBX.klb                23.00:  WOB Max 
 YP  .lhf2               29.00:  Yield Point 
~Curve Information Block
#MNEM.UNIT                 API CODE     Curve Description
#---------               -----------    ---------------------------
 TIME.HHMMSS            00 000 000 000:  GT Time & Date
 GTDEPTH.m              00 000 000 000:  GT Depth
 GTPQH.psia             00 000 000 000:  GT HR Quartz Pressure
 GTTQ.degC              00 000 000 000:  GT Quartz Temperature
 GTTN.NONE              00 000 000 000:  GT Test Number
 GTET.sec               00 000 000 000:  GT Elapsed Test Time
 GTTVD.m                00 000 000 000:  GT True Vertical Depth
#Other Information
#
#WARRANTY: Halliburton will use its best efforts to furnish customers with 
#accurate information and interpretations that are part of, and incident to, the services 
#provided.  However, Halliburton cannot and does not warrant the accuracy 
#or correctness of such information and interpretations.  Under no circumstances should any 
#such information or interpretation be relied upon as the sole basis for any drilling, 
#completion, production, or financial decision or any procedure involving any risk to the 
#safety of any drilling venture, drilling rig or its crew or any other third party.  The 
#Customer has full responsibility for all drilling, completion and production operation.  
#Halliburton makes no representations or warranties, either expressed or 
#implied, including, but not limited to, the implied warranties of merchantability or fitness 
#for a particular purpose, with respect to the services rendered.  In no event will 
#Halliburton be liable for failure to obtain any particular results or for 
#any damages, including, but not limited to, indirect, special or consequential damages, 
#resulting from the use of any information or interpretation provided by Halliburton.
#
~A           TIME           GTDEPTH  GTPQH  GTTQ  GTTN   GTET   GTTVD  
# ...
   01:57:57.422.10-May-2021 4567.51  492.89 60.85 19.00 452.08 2998.78
   01:57:57.622.10-May-2021 4567.51  492.89 60.85 19.00 452.28 2998.78
   01:57:57.822.10-May-2021 4567.51  493.22 60.85 19.00 452.48 2998.78
   01:57:58.022.10-May-2021 4567.51  493.42 60.85 19.00 452.68 2998.78
   01:57:58.222.10-May-2021 4567.51  531.21 60.85 19.00 452.88 2998.78
   01:57:58.422.10-May-2021 4567.51  656.78 60.85 19.00 453.08 2998.78
   01:57:58.622.10-May-2021 4567.51  656.78 60.85 19.00 453.28 2998.78
   01:57:58.822.10-May-2021 4567.51 5445.00 60.85 19.00 453.48 2998.78
   01:57:59.022.10-May-2021 4567.51 6593.95 60.85 19.00 453.68 2998.78
   01:57:59.222.10-May-2021 4567.51 6592.11 60.85 19.00 453.88 2998.78
   01:57:59.422.10-May-2021 4567.51 6592.63 60.85 19.00 454.08 2998.78
   01:57:59.622.10-May-2021 4567.51 6592.63 60.85 19.00 454.28 2998.78
   01:57:59.822.10-May-2021 4567.51 6596.04 60.86 19.00 454.48 2998.78
   01:58:00.022.10-May-2021 4567.51 6602.74 60.86 19.00 454.68 2998.78
   01:58:00.222.10-May-2021 4567.51 6604.80 60.86 19.00 454.88 2998.78
   01:58:00.422.10-May-2021 4567.51 6602.43 60.87 19.00 455.08 2998.78
   01:58:00.622.10-May-2021 4567.51 6602.43 60.87 19.00 455.28 2998.78
   01:58:00.822.10-May-2021 4567.51 6602.70 60.87 19.00 455.48 2998.78
   01:58:01.022.10-May-2021 4567.51 6603.39 60.88 19.00 455.68 2998.78
   01:58:01.222.10-May-2021 4567.51 6603.96 60.88 19.00 455.88 2998.78
   01:58:01.422.10-May-2021 4567.51 6604.07 60.89 19.00 456.08 2998.78
   01:58:01.622.10-May-2021 4567.51 6604.07 60.89 19.00 456.28 2998.78
   01:58:01.822.10-May-2021 4567.51 6604.72 60.89 19.00 456.48 2998.78
   01:58:02.022.10-May-2021 4567.51 6605.88 60.90 19.00 456.68 2998.78
   01:58:02.222.10-May-2021 4567.51 6606.40 60.90 19.00 456.88 2998.78
   01:58:02.422.10-May-2021 4567.51 6607.58 60.91 19.00 457.08 2998.78
   01:58:02.622.10-May-2021 4567.51 6607.58 60.91 19.00 457.28 2998.78
   01:58:02.822.10-May-2021 4567.51 6612.72 60.91 19.00 457.48 2998.78
   01:58:03.023.10-May-2021 4567.51 6607.94 60.92 19.00 457.68 2998.78
   01:58:03.223.10-May-2021 4567.51 6609.36 60.92 19.00 457.88 2998.78
   01:58:03.423.10-May-2021 4567.51 6608.46 60.93 19.00 458.08 2998.78
   01:58:03.623.10-May-2021 4567.51 6608.46 60.93 19.00 458.28 2998.78
   01:58:03.823.10-May-2021 4567.51 6610.87 60.93 19.00 458.48 2998.78
   01:58:04.023.10-May-2021 4567.51 6612.60 60.94 19.00 458.68 2998.78
   01:58:04.223.10-May-2021 4567.51 6608.45 60.94 19.00 458.88 2998.78
   01:58:04.423.10-May-2021 4567.51 6610.87 60.94 19.00 459.08 2998.78
   01:58:04.623.10-May-2021 4567.51 6610.87 60.94 19.00 459.28 2998.78
   01:58:04.823.10-May-2021 4567.51 6609.90 60.95 19.00 459.48 2998.78
   01:58:05.023.10-May-2021 4567.51 6614.23 60.95 19.00 459.68 2998.78
   01:58:05.223.10-May-2021 4567.51 6609.36 60.96 19.00 459.88 2998.78
   01:58:05.423.10-May-2021 4567.51 6610.43 60.96 19.00 460.08 2998.78
   01:58:05.623.10-May-2021 4567.51 6610.43 60.96 19.00 460.28 2998.78
   01:58:05.823.10-May-2021 4567.51 6616.55 60.96 19.00 460.48 2998.78
   01:58:06.023.10-May-2021 4567.51 6611.43 60.97 19.00 460.68 2998.78
   01:58:06.223.10-May-2021 4567.51 6610.07 60.97 19.00 460.88 2998.78
   01:58:06.423.10-May-2021 4567.51 6609.38 60.97 19.00 461.08 2998.78
   01:58:06.623.10-May-2021 4567.51 6609.38 60.97 19.00 461.28 2998.78
   01:58:06.823.10-May-2021 4567.51 6608.62 60.97 19.00 461.48 2998.78
   01:58:07.023.10-May-2021 4567.51 6608.07 60.98 19.00 461.68 2998.78
   01:58:07.223.10-May-2021 4567.51 6607.84 60.98 19.00 461.88 2998.78
   01:58:07.423.10-May-2021 4567.51 6607.73 60.98 19.00 462.08 2998.78
   01:58:07.623.10-May-2021 4567.51 6607.73 60.98 19.00 462.28 2998.78
   01:58:07.823.10-May-2021 4567.51 6608.49 60.98 19.00 462.48 2998.78
   01:58:08.023.10-May-2021 4567.51 6608.95 60.98 19.00 462.68 2998.78
   01:58:08.223.10-May-2021 4567.51 6608.75 60.98 19.00 462.88 2998.78
   01:58:08.423.10-May-2021 4567.51 6615.70 60.99 19.00 463.08 2998.78
   01:58:08.624.10-May-2021 4567.51 6615.70 60.99 19.00 463.28 2998.78
   01:58:08.824.10-May-2021 4567.51 6610.41 60.99 19.00 463.48 2998.78
   01:58:09.024.10-May-2021 4567.51 6610.14 60.99 19.00 463.68 2998.78
   01:58:09.224.10-May-2021 4567.51 6610.17 60.99 19.00 463.88 2998.78
   01:58:09.424.10-May-2021 4567.51 6609.34 60.99 19.00 464.08 2998.78
   01:58:09.624.10-May-2021 4567.51 6609.34 60.99 19.00 464.28 2998.78
   01:58:09.824.10-May-2021 4567.51 6608.42 60.99 19.00 464.48 2998.78
   01:58:10.024.10-May-2021 4567.51 6608.01 60.99 19.00 464.68 2998.78
   01:58:10.224.10-May-2021 4567.51 6607.96 60.99 19.00 464.88 2998.78
   01:58:10.424.10-May-2021 4567.51 6608.71 60.99 19.00 465.08 2998.78
   01:58:10.624.10-May-2021 4567.51 6608.71 60.99 19.00 465.28 2998.78
   01:58:10.824.10-May-2021 4567.51 6608.39 60.99 19.00 465.48 2998.78
   01:58:11.024.10-May-2021 4567.51 6606.96 60.99 19.00 465.68 2998.78
   01:58:11.224.10-May-2021 4567.51 6613.59 61.00 19.00 465.88 2998.78
   01:58:11.424.10-May-2021 4567.51 6614.38 61.00 19.00 466.08 2998.78
   01:58:11.624.10-May-2021 4567.51 6614.38 61.00 19.00 466.28 2998.78
   01:58:11.824.10-May-2021 4567.51 6610.99 61.00 19.00 466.48 2998.78
   01:58:12.024.10-May-2021 4567.51 6609.15 61.00 19.00 466.68 2998.78
   01:58:12.224.10-May-2021 4567.51 6616.16 61.00 19.00 466.88 2998.78
   01:58:12.424.10-May-2021 4567.51 6610.99 61.00 19.00 467.08 2998.78
   01:58:12.624.10-May-2021 4567.51 6610.99 61.00 19.00 467.28 2998.78
   01:58:12.824.10-May-2021 4567.51 6611.19 61.00 19.00 467.48 2998.78
   01:58:13.024.10-May-2021 4567.51 6611.03 61.00 19.00 467.68 2998.78
   01:58:13.224.10-May-2021 4567.51 6614.15 61.00 19.00 467.88 2998.78
   01:58:13.424.10-May-2021 4567.51 6614.37 61.00 19.00 468.08 2998.78
   01:58:13.624.10-May-2021 4567.51 6614.37 61.00 19.00 468.28 2998.78
   01:58:13.824.10-May-2021 4567.51 6610.52 61.00 19.00 468.48 2998.78
   01:58:14.024.10-May-2021 4567.51 6609.91 61.00 19.00 468.68 2998.78
   01:58:14.225.10-May-2021 4567.51 6613.99 61.00 19.00 468.88 2998.78
   01:58:14.425.10-May-2021 4567.51 6611.78 61.00 19.00 469.08 2998.78
   01:58:14.625.10-May-2021 4567.51 6611.78 61.00 19.00 469.28 2998.78
   01:58:14.825.10-May-2021 4567.51 6608.50 61.00 19.00 469.48 2998.78
   01:58:15.025.10-May-2021 4567.51 6610.23 61.00 19.00 469.68 2998.78
   01:58:15.225.10-May-2021 4567.51 6608.36 61.00 19.00 469.88 2998.78
   01:58:15.425.10-May-2021 4567.51 6608.33 61.00 19.00 470.08 2998.78
   01:58:15.625.10-May-2021 4567.51 6608.33 61.00 19.00 470.28 2998.78
   01:58:15.825.10-May-2021 4567.51 6607.79 61.00 19.00 470.48 2998.78
   01:58:16.025.10-May-2021 4567.51 6607.61 61.00 19.00 470.68 2998.78
   01:58:16.225.10-May-2021 4567.51 6607.95 60.99 19.00 470.88 2998.78
   01:58:16.425.10-May-2021 4567.51 6608.54 60.99 19.00 471.08 2998.78
   01:58:16.625.10-May-2021 4567.51 6608.54 60.99 19.00 471.28 2998.78
   01:58:16.825.10-May-2021 4567.51 6613.07 60.99 19.00 471.48 2998.78
   01:58:17.025.10-May-2021 4567.51 6611.20 60.99 19.00 471.68 2998.78
   01:58:17.225.10-May-2021 4567.51 6613.10 60.99 19.00 471.88 2998.78
   01:58:17.425.10-May-2021 4567.51 6608.42 60.99 19.00 472.08 2998.78
   01:58:17.625.10-May-2021 4567.51 6608.42 60.99 19.00 472.28 2998.78
   01:58:17.825.10-May-2021 4567.51 6608.62 60.99 19.00 472.48 2998.78
   01:58:18.025.10-May-2021 4567.51 6608.10 60.99 19.00 472.68 2998.78
   01:58:18.225.10-May-2021 4567.51 6607.79 60.99 19.00 472.88 2998.78
   01:58:18.425.10-May-2021 4567.51 6607.21 60.99 19.00 473.08 2998.78
   01:58:18.625.10-May-2021 4567.51 6607.21 60.99 19.00 473.28 2998.78
   01:58:18.825.10-May-2021 4567.51 6607.06 60.99 19.00 473.48 2998.78
   01:58:19.025.10-May-2021 4567.51 6607.72 60.99 19.00 473.68 2998.78
   01:58:19.225.10-May-2021 4567.51 6608.16 60.99 19.00 473.88 2998.78
   01:58:19.425.10-May-2021 4567.51 6607.61 60.99 19.00 474.08 2998.78
   01:58:19.625.10-May-2021 4567.51 6607.61 60.99 19.00 474.28 2998.78
   01:58:19.826.10-May-2021 4567.51 6609.83 60.99 19.00 474.48 2998.78
