~Version Information
 VERS.                  2.0:   CWLS log ASCII Standard -VERSION 2.0
 WRAP.                   NO:   One line per depth step
~Well Information Block
#MNEM.UNIT     VALUE/NAME     DESCRIPTION
#---------     -----------    ---------------------------
 STRT.S             06:07:29 09-May-21: START TIME 06:07:29 09-May-21
 STOP.S             06:14:06 09-May-21: STOP TIME  06:14:06 09-May-21
 STEP.S                   0.00: STEP TIME
 NULL.                 -999.25: NULL VALUE
 PROV.                    Baku:  PROVINCE
 STAT.                    Baku:  STATE NAME
 SON .        AZ-XX-0906571588:  JOB NUMBER
 WTYP.                Deviated:  WELL TYPE
 COMP.     BP Exploration (Caspian Sea) ltd:  COMPANY
 BASE.              Azerbaijan:  LOGGING EQUIPMENT BASE LOCATION
 REGN.                   EESSA:  REGION
 CTRY.              Azerbaijan:  COUNTRY NAME
 FLD .                     ACG:  FIELD NAME
 WELL.                     J28:  WELL NAME
 RIG .             West Chirag:  RIG NAME
 DMF .             Drill Floor:  DRILL MEAS FROM
 PDAT.       Caspian Sea Level:  PERMANENT DATUM
 HPTY.       Minimum Curvature:  HOLE POS TYPE
 MDS .        Operator Entered:  MAG DATA SOURCE
 NREF.                    Grid:  NORTH REFERENCE
 SRVC.          TURAN DRILLING:  CONTRACTOR
 JOBN.        AZ-XX-0906571588:  JOB TICKET NUMB
 DCON.     Halliburton Sperry Drilling:  DIRECTNL CONTR
 STIM.      00.44.00 11-Feb-21:  START TIME
 DATE.      00.00.00 05-May-21:  END TIME
 SPUD.               13-Feb-21:  SPUD DATE
 MWDS.                    Baku:  MWD SHOP
 DOE .                     N/A:  DOE NUMBER
 UNIT.                     N/A:  LOGGING EQUIPMENT ID
 UWI .                     N/A:  UNIQUE WELL IDENTIFIER
 API .                     N/A:  API NUMBER
 CNTY.                        :  COUNTY
 LOC .                        :  LOCATION
 LMF .             Drill Floor:  LOG MEASURED FROM
 TVDS.m                  43.00:  TVDSS CORRECTN
 SDEP.m                 341.00:  START DEPTH
 EGL .m                   0.00:  GROUND ELEVATION
 WDMS.m                 169.80:  WD ELEV
 AGAP.m                  43.00:  AIR GAP
 EPD .m                   0.00:  ELEVATION
 APD .m                  43.00:  DEPTH ABOVE PD
 LATI.deg                40.13:  LATITUDE
 LONG.deg                51.22:  LONGITUDE
 UTMY.m             4443793.85:  UTM Y
 UTMX.m              519005.06:  UTM X
 WHEW.m                 -11.57:  WELL HEAD E/W
 WHNS.m                   8.57:  WELL HEAD N/S
 VSEW.m                 -11.57:  VERT SEC E/W
 VSNS.m                   8.57:  VERT SEC N/S
 DFWL.m                   0.00:  DISTANCE FWL
 DFSL.m                   0.00:  DISTANCE FSL
 VSDR.deg               299.34:  VERT SEC DIRECT
 GVFD.g                   1.00:  GRAVITY FIELD
 AZTC.deg                 6.36:  AZM TOTAL CORR
 MFLD.nT              50391.00:  MAGNETIC FIELD
 MDIP.deg                59.65:  MAGNETIC DIP
 MDEC.deg                 6.48:  MAGNETIC DECL
 GRDC.deg                 0.12:  GRID CORRECTION
 DEP .m                 334.96:  DEPTH
 TDD .m                1407.26:  TOTAL DEPTH (DRILLER)
 EKB .m                  43.00:  KB ELEVATION
 EDF .m                  43.00:  DF ELEVATION
 TDL .m                 228.00:  TOTAL DEPTH (LOGGER)
 VSC .                       0:  VS TO CLOSURE
 MAGU.                 1854484:  MAGUTM CHECKSUM
~Parameter Information Block
#MNEM.UNIT       Value        Description
#---------     -----------    ---------------------------
 AV  .mps                 4.00:  Ann Velocity 
 AVMX.mps                 4.73:  Max Ann Veloc 
 AZIF.deg               304.48:  Azm, Final 
 BHAT.        Rotary Steerable:  BHA Type 
 BREV.rev            257300.00:  Rev Bit Total 
 BROT.°/30m               0.00:  Build Rotating 
 BS  .in                  8.50:  Bit Size 
 BSZ .in                  8.50:  Bit Size 
 BTPL.psig              589.00:  Bit Press Loss 
 CABU.                      No:  Customer Abuse 
 CGEO.          Mubariz ghayev:  Customer Geo 
 TCS .hr                 64.25:  Time Ciculation Ended 
 CV  .mps                 3.50:  Crit Velocity 
 CVMX.mps                 4.52:  Max Crit Veloc 
 DD1 .             Aziz Aliyev:  Direct Drillr 1 
 DD2 .         Intigam Rahimov:  Direct Drillr 2 
 DD3 .          Rashad Habibov:  Direct Drillr 3 
 DDSV.               Geo-Pilot:  DD Service 
 DEFF.%                  98.00:  % Det Eff 
 DLRX.°/30m               0.00:  Dogleg Rot Max 
 DLSO.°/30m               0.00:  Dogleg Oriented 
 DLSX.°/30m               0.00:  Dogleg Str Max 
 DRET.      10.45.04 08-May-21:  Drill End Time 
 DRST.      03.30.04 04-May-21:  Drill Start Tim 
 DTIM.hr                 14.97:  Time Drilling 
 EDEP.m                4640.01:  End Depth 
 ENG1.         Dail Mahammadov:  Engineer 1 
 ENG2.           Eldar Hajiyev:  Engineer 2 
 ENG3.       Bakhtiar Jabbarli:  Engineer 3 
 ENG4.       Natik Hasanagayev:  Engineer 4 
 ETIM.      09.30.04 14-May-21:  End Time 
 FLOI.gpm               460.00:  Flow In 
 FLON.gpm               200.00:  Flow In Min 
 FLOS.cptm                0.00:  Fluid Loss 
 FLOX.gpm               505.00:  Flow In Max 
 HFLO.                      No:  High Flow 
 HPRE.                      No:  High Pressure 
 HTEM.                      No:  High Temp 
 HYDO.m                   1.80:  Hydro Offset 
 IFIN.deg                66.71:  Inc, Final 
 IMAX.deg                67.03:  Inc Max 
 IMIN.deg                66.63:  Inc Min 
 IMND.m                4550.58:  Inc Min Depth 
 IMXD.m                4439.01:  Inc Max Depth 
 JARR.                      No:  Jarring 
 LETM.      10.45.04 08-May-21:  Log End Time 
 LOST.hr                     0:  Lost Rig Time 
 LSTM.      03.30.04 04-May-21:  Log Start Time 
 MDCL.ppm             37000.00:  Mud Chlorides 
 MDES.     Inversion Oil/Synthetic:  Mud Desc 
 DFD .sg                  1.38:  Mud Density 
 MDMN.sg                  1.35:  Dens Mud Min 
 MDMX.sg                  1.40:  Dens Mud Max 
 MOIL.                   57.40:  Run Mud Oil % 
 MOWR.                   70:30:  Run Mud OWR 
 MSND.                    0.00:  Run Mud Sand % 
 MSOL.                   18.00:  Run Mud Solids% 
 DFV .spqt               71.00:  Mud Viscosity 
 MWOD.in                  6.75:  MWD Tool OD 
 MWSI.                      No:  Serv Intrp, MWD 
 OTIM.hr                242.76:  Time Operating 
 PCON.           Look Like New:  Pad Condition 
 PMAX.psia            12183.92:  Press Op, Max 
 PV  .cP                 27.00:  Mud PV 
 RUN .                    1300:  Run Number 
 ROPA.m/hr               15.00:  ROP Avg 
 ROPN.m/hr                9.00:  ROP Min 
 ROPX.m/hr               19.00:  ROP Max 
 RPMA.rpm               120.00:  RPM Surface Avg 
 RPMN.rpm               100.00:  RPM Surface Min 
 RPMX.rpm               120.00:  RPM Surface Max 
 RRUN.                    1300:  Rig Run Number 
 RTIM.hr                  5.00:  Time Reaming 
 SAZI.deg               304.73:  Azm, Start 
 SDEP.m                4412.01:  Start Depth 
 SIDD.                      No:  Serv Intrp, DD 
 SINC.deg                66.82:  Inc, Start 
 SPPA.psig             2800.00:  SPP Avg 
 SPPN.psig             2610.00:  SPP Min 
 SPPX.psig             3100.00:  SPP Max 
 STIM.      03.30.00 04-May-21:  Start Time 
 SVCS.                 DD, MWD:  Services 
 SVER.                    9.20:  Sperry Version 
 TDAT.m                 228.00:  Tot Depth Attmp 
 TDDF.                      No:  Trip for DD 
 TDLG.m                 228.00:  Tot Depth Loggd 
 TFF .                      No:  Trip for Fail 
 TQAA.f-kp               15.00:  Torque Abs Avg 
 TQAN.f-kp               12.00:  Torque Abs Min 
 TQAX.f-kp               22.00:  Torque Abs Max 
 TRRT.°/30m               0.00:  Turn Rotating 
 MRT .                    HCIM:  Maximum Recorded Temperature 
 TTMX.degC               90.20:  Max Tool Temp 
 VS01.                90627813:  Virtual Str1 SN 
 VS02.                90634712:  Virtual Str2 SN 
 VS03.                90643410:  Virtual Str3 SN 
 VS04.                90634712:  Virtual Str4 SN 
 WBMN.klb                 9.00:  WOB Min 
 WITN.        Elmaddin Rahimov:  Customer Rep 
 WITN.         Haytham Mostafa:  Customer Rep 2 
 WOBA.klb                15.00:  WOB Avg 
 WOBX.klb                23.00:  WOB Max 
 YP  .lhf2               29.00:  Yield Point 
~Curve Information Block
#MNEM.UNIT                 API CODE     Curve Description
#---------               -----------    ---------------------------
 TIME.HHMMSS            00 000 000 000:  GT Time & Date
 GTDEPTH.m              00 000 000 000:  GT Depth
 GTPQH.psia             00 000 000 000:  GT HR Quartz Pressure
 GTTQ.degC              00 000 000 000:  GT Quartz Temperature
 GTTN.NONE              00 000 000 000:  GT Test Number
 GTET.sec               00 000 000 000:  GT Elapsed Test Time
 GTTVD.m                00 000 000 000:  GT True Vertical Depth
#Other Information
#
#WARRANTY: Halliburton will use its best efforts to furnish customers with 
#accurate information and interpretations that are part of, and incident to, the services 
#provided.  However, Halliburton cannot and does not warrant the accuracy 
#or correctness of such information and interpretations.  Under no circumstances should any 
#such information or interpretation be relied upon as the sole basis for any drilling, 
#completion, production, or financial decision or any procedure involving any risk to the 
#safety of any drilling venture, drilling rig or its crew or any other third party.  The 
#Customer has full responsibility for all drilling, completion and production operation.  
#Halliburton makes no representations or warranties, either expressed or 
#implied, including, but not limited to, the implied warranties of merchantability or fitness 
#for a particular purpose, with respect to the services rendered.  In no event will 
#Halliburton be liable for failure to obtain any particular results or for 
#any damages, including, but not limited to, indirect, special or consequential damages, 
#resulting from the use of any information or interpretation provided by Halliburton.
#
~A           TIME           GTDEPTH  GTPQH  GTTQ  GTTN   GTET   GTTVD  
# ...
   06:13:08.000.09-May-2021 4439.51 4416.89 66.28 14.00 339.00 2948.38
   06:13:08.200.09-May-2021 4439.51 4416.89 66.28 14.00 339.20 2948.38
   06:13:08.400.09-May-2021 4439.51 4417.01 66.28 14.00 339.40 2948.38
   06:13:08.600.09-May-2021 4439.51 4416.98 66.28 14.00 339.60 2948.38
   06:13:08.800.09-May-2021 4439.51 4417.05 66.28 14.00 339.80 2948.38
   06:13:09.000.09-May-2021 4439.51 4417.03 66.28 14.00 340.00 2948.38
   06:13:09.200.09-May-2021 4439.51 4417.03 66.28 14.00 340.20 2948.38
   06:13:09.400.09-May-2021 4439.51 4417.05 66.28 14.00 340.40 2948.38
   06:13:09.600.09-May-2021 4439.51 4417.07 66.28 14.00 340.60 2948.38
   06:13:09.800.09-May-2021 4439.51 4417.06 66.28 14.00 340.80 2948.38
   06:13:10.000.09-May-2021 4439.51 4417.08 66.28 14.00 341.00 2948.38
   06:13:10.200.09-May-2021 4439.51 4417.08 66.28 14.00 341.20 2948.38
   06:13:10.400.09-May-2021 4439.51 4416.89 66.28 14.00 341.40 2948.38
   06:13:10.600.09-May-2021 4439.51 4416.95 66.28 14.00 341.60 2948.38
   06:13:10.800.09-May-2021 4439.51 4417.28 66.28 14.00 341.80 2948.38
   06:13:11.000.09-May-2021 4439.51 4416.93 66.28 14.00 342.00 2948.38
   06:13:11.200.09-May-2021 4439.51 4416.93 66.28 14.00 342.20 2948.38
   06:13:11.400.09-May-2021 4439.51 4417.08 66.28 14.00 342.40 2948.38
   06:13:11.600.09-May-2021 4439.51 4417.10 66.28 14.00 342.60 2948.38
   06:13:11.800.09-May-2021 4439.51 4417.12 66.28 14.00 342.80 2948.38
   06:13:12.000.09-May-2021 4439.51 4417.10 66.28 14.00 343.00 2948.38
   06:13:12.200.09-May-2021 4439.51 4417.10 66.28 14.00 343.20 2948.38
   06:13:12.400.09-May-2021 4439.51 4417.10 66.28 14.00 343.40 2948.38
   06:13:12.600.09-May-2021 4439.51 4417.13 66.28 14.00 343.60 2948.38
   06:13:12.800.09-May-2021 4439.51 4417.12 66.28 14.00 343.80 2948.38
   06:13:13.000.09-May-2021 4439.51 4416.81 66.28 14.00 344.00 2948.38
   06:13:13.200.09-May-2021 4439.51 4416.81 66.28 14.00 344.20 2948.38
   06:13:13.400.09-May-2021 4439.51 4416.92 66.27 14.00 344.40 2948.38
   06:13:13.600.09-May-2021 4439.51 4416.91 66.27 14.00 344.60 2948.38
   06:13:13.800.09-May-2021 4439.51 4417.06 66.27 14.00 344.80 2948.38
   06:13:14.000.09-May-2021 4439.51 4417.01 66.27 14.00 345.00 2948.38
   06:13:14.200.09-May-2021 4439.51 4417.01 66.27 14.00 345.20 2948.38
   06:13:14.400.09-May-2021 4439.51 4416.99 66.27 14.00 345.40 2948.38
   06:13:14.600.09-May-2021 4439.51 4416.96 66.27 14.00 345.60 2948.38
   06:13:14.800.09-May-2021 4439.51 4416.86 66.27 14.00 345.80 2948.38
   06:13:15.000.09-May-2021 4439.51 4417.30 66.27 14.00 346.00 2948.38
   06:13:15.200.09-May-2021 4439.51 4417.30 66.27 14.00 346.20 2948.38
   06:13:15.400.09-May-2021 4439.51 4417.14 66.27 14.00 346.40 2948.38
   06:13:15.600.09-May-2021 4439.51 4416.93 66.27 14.00 346.60 2948.38
   06:13:15.800.09-May-2021 4439.51 4417.26 66.27 14.00 346.80 2948.38
   06:13:16.000.09-May-2021 4439.51 4416.98 66.27 14.00 347.00 2948.38
   06:13:16.200.09-May-2021 4439.51 4416.98 66.27 14.00 347.20 2948.38
   06:13:16.400.09-May-2021 4439.51 4417.08 66.27 14.00 347.40 2948.38
   06:13:16.600.09-May-2021 4439.51 4417.13 66.27 14.00 347.60 2948.38
   06:13:16.800.09-May-2021 4439.51 4417.13 66.27 14.00 347.80 2948.38
   06:13:17.000.09-May-2021 4439.51 4417.15 66.27 14.00 348.00 2948.38
   06:13:17.200.09-May-2021 4439.51 4417.15 66.27 14.00 348.20 2948.38
   06:13:17.400.09-May-2021 4439.51 4417.16 66.27 14.00 348.40 2948.38
   06:13:17.600.09-May-2021 4439.51 4417.14 66.27 14.00 348.60 2948.38
   06:13:17.800.09-May-2021 4439.51 4416.96 66.27 14.00 348.80 2948.38
   06:13:18.000.09-May-2021 4439.51 4416.91 66.27 14.00 349.00 2948.38
   06:13:18.200.09-May-2021 4439.51 4416.91 66.27 14.00 349.20 2948.38
   06:13:18.400.09-May-2021 4439.51 4416.92 66.27 14.00 349.40 2948.38
   06:13:18.600.09-May-2021 4439.51 4417.19 66.27 14.00 349.60 2948.38
   06:13:18.800.09-May-2021 4439.51 4417.12 66.27 14.00 349.80 2948.38
   06:13:19.000.09-May-2021 4439.51 4417.18 66.27 14.00 350.00 2948.38
   06:13:19.200.09-May-2021 4439.51 4417.18 66.27 14.00 350.20 2948.38
   06:13:19.400.09-May-2021 4439.51 4417.18 66.27 14.00 350.40 2948.38
   06:13:19.600.09-May-2021 4439.51 4417.18 66.27 14.00 350.60 2948.38
   06:13:19.800.09-May-2021 4439.51 4417.17 66.27 14.00 350.80 2948.38
   06:13:20.000.09-May-2021 4439.51 4417.18 66.27 14.00 351.00 2948.38
   06:13:20.200.09-May-2021 4439.51 4417.18 66.27 14.00 351.20 2948.38
   06:13:20.400.09-May-2021 4439.51 4416.85 66.27 14.00 351.40 2948.38
   06:13:20.600.09-May-2021 4439.51 4417.19 66.27 14.00 351.60 2948.38
   06:13:20.800.09-May-2021 4439.51 4417.03 66.27 14.00 351.80 2948.38
   06:13:21.000.09-May-2021 4439.51 4417.10 66.27 14.00 352.00 2948.38
   06:13:21.200.09-May-2021 4439.51 4417.10 66.27 14.00 352.20 2948.38
   06:13:21.400.09-May-2021 4439.51 4417.04 66.27 14.00 352.40 2948.38
   06:13:21.600.09-May-2021 4439.51 4417.31 66.27 14.00 352.60 2948.38
   06:13:21.800.09-May-2021 4439.51 4417.00 66.27 14.00 352.80 2948.38
   06:13:22.000.09-May-2021 4439.51 4417.04 66.27 14.00 353.00 2948.38
   06:13:22.200.09-May-2021 4439.51 4417.04 66.27 14.00 353.20 2948.38
   06:13:22.400.09-May-2021 4439.51 4417.19 66.27 14.00 353.40 2948.38
   06:13:22.600.09-May-2021 4439.51 4416.76 66.27 14.00 353.60 2948.38
   06:13:22.800.09-May-2021 4439.51 4417.22 66.27 14.00 353.80 2948.38
   06:13:23.000.09-May-2021 4439.51 4417.02 66.27 14.00 354.00 2948.38
   06:13:23.200.09-May-2021 4439.51 4417.02 66.27 14.00 354.20 2948.38
   06:13:23.400.09-May-2021 4439.51 4417.00 66.27 14.00 354.40 2948.38
   06:13:23.600.09-May-2021 4439.51 4417.19 66.27 14.00 354.60 2948.38
   06:13:23.800.09-May-2021 4439.51 4417.11 66.27 14.00 354.80 2948.38
   06:13:24.000.09-May-2021 4439.51 4417.16 66.27 14.00 355.00 2948.38
   06:13:24.200.09-May-2021 4439.51 4417.16 66.27 14.00 355.20 2948.38
   06:13:24.400.09-May-2021 4439.51 4417.17 66.27 14.00 355.40 2948.38
   06:13:24.600.09-May-2021 4439.51 4417.17 66.27 14.00 355.60 2948.38
   06:13:24.800.09-May-2021 4439.51 4417.17 66.27 14.00 355.80 2948.38
   06:13:25.000.09-May-2021 4439.51 4417.17 66.27 14.00 356.00 2948.38
   06:13:25.200.09-May-2021 4439.51 4417.17 66.27 14.00 356.20 2948.38
   06:13:25.400.09-May-2021 4439.51 4417.06 66.27 14.00 356.40 2948.38
   06:13:25.600.09-May-2021 4439.51 4417.28 66.27 14.00 356.60 2948.38
   06:13:25.800.09-May-2021 4439.51 4417.08 66.27 14.00 356.80 2948.38
   06:13:26.000.09-May-2021 4439.51 4417.14 66.27 14.00 357.00 2948.38
   06:13:26.200.09-May-2021 4439.51 4417.14 66.27 14.00 357.20 2948.38
   06:13:26.400.09-May-2021 4439.51 4417.15 66.27 14.00 357.40 2948.38
   06:13:26.600.09-May-2021 4439.51 4417.18 66.27 14.00 357.60 2948.38
   06:13:26.800.09-May-2021 4439.51 4417.17 66.27 14.00 357.80 2948.38
   06:13:27.000.09-May-2021 4439.51 4417.18 66.26 14.00 358.00 2948.38
   06:13:27.200.09-May-2021 4439.51 4417.18 66.26 14.00 358.20 2948.38
   06:13:27.400.09-May-2021 4439.51 4417.18 66.26 14.00 358.40 2948.38
   06:13:27.600.09-May-2021 4439.51 4417.18 66.26 14.00 358.60 2948.38
   06:13:27.800.09-May-2021 4439.51 4417.03 66.26 14.00 358.80 2948.38
   06:13:28.000.09-May-2021 4439.51 4417.05 66.26 14.00 359.00 2948.38
   06:13:28.200.09-May-2021 4439.51 4417.05 66.26 14.00 359.20 2948.38
   06:13:28.400.09-May-2021 4439.51 4417.30 66.26 14.00 359.40 2948.38
   06:13:28.600.09-May-2021 4439.51 4417.01 66.26 14.00 359.60 2948.38
   06:13:28.800.09-May-2021 4439.51 4402.49 66.26 14.00 359.80 2948.38
   06:13:29.000.09-May-2021 4439.51 4374.92 66.26 14.00 360.00 2948.38
   06:13:29.200.09-May-2021 4439.51 4374.92 66.26 14.00 360.20 2948.38
   06:13:29.400.09-May-2021 4439.51 6531.59 66.26 14.00 360.40 2948.38
   06:13:29.600.09-May-2021 4439.51 6523.23 66.26 14.00 360.60 2948.38
   06:13:29.800.09-May-2021 4439.51 6522.91 66.26 14.00 360.80 2948.38
   06:13:30.000.09-May-2021 4439.51 6533.61 66.26 14.00 361.00 2948.38
   06:13:30.200.09-May-2021 4439.51 6533.61 66.26 14.00 361.20 2948.38
   06:13:30.400.09-May-2021 4439.51 6528.13 66.27 14.00 361.40 2948.38
