~Version Information
 VERS.                  2.0:   CWLS log ASCII Standard -VERSION 2.0
 WRAP.                   NO:   One line per depth step
~Well Information Block
#MNEM.UNIT     VALUE/NAME     DESCRIPTION
#---------     -----------    ---------------------------
 STRT.S             01:12:50 09-May-21: START TIME 01:12:50 09-May-21
 STOP.S             01:19:27 09-May-21: STOP TIME  01:19:27 09-May-21
 STEP.S                   0.00: STEP TIME
 NULL.                 -999.25: NULL VALUE
 PROV.                    Baku:  PROVINCE
 STAT.                    Baku:  STATE NAME
 SON .        AZ-XX-0906571588:  JOB NUMBER
 WTYP.                Deviated:  WELL TYPE
 COMP.     BP Exploration (Caspian Sea) ltd:  COMPANY
 BASE.              Azerbaijan:  LOGGING EQUIPMENT BASE LOCATION
 REGN.                   EESSA:  REGION
 CTRY.              Azerbaijan:  COUNTRY NAME
 FLD .                     ACG:  FIELD NAME
 WELL.                     J28:  WELL NAME
 RIG .             West Chirag:  RIG NAME
 DMF .             Drill Floor:  DRILL MEAS FROM
 PDAT.       Caspian Sea Level:  PERMANENT DATUM
 HPTY.       Minimum Curvature:  HOLE POS TYPE
 MDS .        Operator Entered:  MAG DATA SOURCE
 NREF.                    Grid:  NORTH REFERENCE
 SRVC.          TURAN DRILLING:  CONTRACTOR
 JOBN.        AZ-XX-0906571588:  JOB TICKET NUMB
 DCON.     Halliburton Sperry Drilling:  DIRECTNL CONTR
 STIM.      00.44.00 11-Feb-21:  START TIME
 DATE.      00.00.00 05-May-21:  END TIME
 SPUD.               13-Feb-21:  SPUD DATE
 MWDS.                    Baku:  MWD SHOP
 DOE .                     N/A:  DOE NUMBER
 UNIT.                     N/A:  LOGGING EQUIPMENT ID
 UWI .                     N/A:  UNIQUE WELL IDENTIFIER
 API .                     N/A:  API NUMBER
 CNTY.                        :  COUNTY
 LOC .                        :  LOCATION
 LMF .             Drill Floor:  LOG MEASURED FROM
 TVDS.m                  43.00:  TVDSS CORRECTN
 SDEP.m                 341.00:  START DEPTH
 EGL .m                   0.00:  GROUND ELEVATION
 WDMS.m                 169.80:  WD ELEV
 AGAP.m                  43.00:  AIR GAP
 EPD .m                   0.00:  ELEVATION
 APD .m                  43.00:  DEPTH ABOVE PD
 LATI.deg                40.13:  LATITUDE
 LONG.deg                51.22:  LONGITUDE
 UTMY.m             4443793.85:  UTM Y
 UTMX.m              519005.06:  UTM X
 WHEW.m                 -11.57:  WELL HEAD E/W
 WHNS.m                   8.57:  WELL HEAD N/S
 VSEW.m                 -11.57:  VERT SEC E/W
 VSNS.m                   8.57:  VERT SEC N/S
 DFWL.m                   0.00:  DISTANCE FWL
 DFSL.m                   0.00:  DISTANCE FSL
 VSDR.deg               299.34:  VERT SEC DIRECT
 GVFD.g                   1.00:  GRAVITY FIELD
 AZTC.deg                 6.36:  AZM TOTAL CORR
 MFLD.nT              50391.00:  MAGNETIC FIELD
 MDIP.deg                59.65:  MAGNETIC DIP
 MDEC.deg                 6.48:  MAGNETIC DECL
 GRDC.deg                 0.12:  GRID CORRECTION
 DEP .m                 334.96:  DEPTH
 TDD .m                1407.26:  TOTAL DEPTH (DRILLER)
 EKB .m                  43.00:  KB ELEVATION
 EDF .m                  43.00:  DF ELEVATION
 TDL .m                 228.00:  TOTAL DEPTH (LOGGER)
 VSC .                       0:  VS TO CLOSURE
 MAGU.                 1854484:  MAGUTM CHECKSUM
~Parameter Information Block
#MNEM.UNIT       Value        Description
#---------     -----------    ---------------------------
 AV  .mps                 4.00:  Ann Velocity 
 AVMX.mps                 4.73:  Max Ann Veloc 
 AZIF.deg               304.48:  Azm, Final 
 BHAT.        Rotary Steerable:  BHA Type 
 BREV.rev            257300.00:  Rev Bit Total 
 BROT.°/30m               0.00:  Build Rotating 
 BS  .in                  8.50:  Bit Size 
 BSZ .in                  8.50:  Bit Size 
 BTPL.psig              589.00:  Bit Press Loss 
 CABU.                      No:  Customer Abuse 
 CGEO.          Mubariz ghayev:  Customer Geo 
 COMM.                     ÌğZ:  Run Comments 1 
 TCS .hr                 64.25:  Time Ciculation Ended 
 CV  .mps                 3.50:  Crit Velocity 
 CVMX.mps                 4.52:  Max Crit Veloc 
 DD1 .             Aziz Aliyev:  Direct Drillr 1 
 DD2 .         Intigam Rahimov:  Direct Drillr 2 
 DD3 .          Rashad Habibov:  Direct Drillr 3 
 DDSV.               Geo-Pilot:  DD Service 
 DEFF.%                  98.00:  % Det Eff 
 DLRX.°/30m               0.00:  Dogleg Rot Max 
 DLSO.°/30m               0.00:  Dogleg Oriented 
 DLSX.°/30m               0.00:  Dogleg Str Max 
 DRET.      10.45.04 08-May-21:  Drill End Time 
 DRST.      03.30.04 04-May-21:  Drill Start Tim 
 DTIM.hr                 14.97:  Time Drilling 
 EDEP.m                4640.01:  End Depth 
 ENG1.         Dail Mahammadov:  Engineer 1 
 ENG2.           Eldar Hajiyev:  Engineer 2 
 ENG3.       Bakhtiar Jabbarli:  Engineer 3 
 ENG4.       Natik Hasanagayev:  Engineer 4 
 ETIM.      09.30.04 14-May-21:  End Time 
 FLOI.gpm               460.00:  Flow In 
 FLON.gpm               200.00:  Flow In Min 
 FLOS.cptm                0.00:  Fluid Loss 
 FLOX.gpm               505.00:  Flow In Max 
 HFLO.                      No:  High Flow 
 HPRE.                      No:  High Pressure 
 HTEM.                      No:  High Temp 
 HYDO.m                   1.80:  Hydro Offset 
 IFIN.deg                66.71:  Inc, Final 
 IMAX.deg                67.03:  Inc Max 
 IMIN.deg                66.63:  Inc Min 
 IMND.m                4550.58:  Inc Min Depth 
 IMXD.m                4439.01:  Inc Max Depth 
 JARR.                      No:  Jarring 
 LETM.      10.45.04 08-May-21:  Log End Time 
 LOST.hr                     0:  Lost Rig Time 
 LSTM.      03.30.04 04-May-21:  Log Start Time 
 MDCL.ppm             37000.00:  Mud Chlorides 
 MDES.     Inversion Oil/Synthetic:  Mud Desc 
 DFD .sg                  1.38:  Mud Density 
 MDMN.sg                  1.35:  Dens Mud Min 
 MDMX.sg                  1.40:  Dens Mud Max 
 MOIL.                   57.40:  Run Mud Oil % 
 MOWR.                   70:30:  Run Mud OWR 
 MSND.                    0.00:  Run Mud Sand % 
 MSOL.                   18.00:  Run Mud Solids% 
 DFV .spqt               71.00:  Mud Viscosity 
 MWOD.in                  6.75:  MWD Tool OD 
 MWSI.                      No:  Serv Intrp, MWD 
 OTIM.hr                242.76:  Time Operating 
 PCON.           Look Like New:  Pad Condition 
 PMAX.psia            12183.92:  Press Op, Max 
 PV  .cP                 27.00:  Mud PV 
 RUN .                    1300:  Run Number 
 ROPA.m/hr               15.00:  ROP Avg 
 ROPN.m/hr                9.00:  ROP Min 
 ROPX.m/hr               19.00:  ROP Max 
 RPMA.rpm               120.00:  RPM Surface Avg 
 RPMN.rpm               100.00:  RPM Surface Min 
 RPMX.rpm               120.00:  RPM Surface Max 
 RRUN.                    1300:  Rig Run Number 
 RTIM.hr                  5.00:  Time Reaming 
 SAZI.deg               304.73:  Azm, Start 
 SDEP.m                4412.01:  Start Depth 
 SIDD.                      No:  Serv Intrp, DD 
 SINC.deg                66.82:  Inc, Start 
 SPPA.psig             2800.00:  SPP Avg 
 SPPN.psig             2610.00:  SPP Min 
 SPPX.psig             3100.00:  SPP Max 
 STIM.      03.30.00 04-May-21:  Start Time 
 SVCS.                 DD, MWD:  Services 
 SVER.                    9.20:  Sperry Version 
 TDAT.m                 228.00:  Tot Depth Attmp 
 TDDF.                      No:  Trip for DD 
 TDLG.m                 228.00:  Tot Depth Loggd 
 TFF .                      No:  Trip for Fail 
 TQAA.f-kp               15.00:  Torque Abs Avg 
 TQAN.f-kp               12.00:  Torque Abs Min 
 TQAX.f-kp               22.00:  Torque Abs Max 
 TRRT.°/30m               0.00:  Turn Rotating 
 MRT .                    HCIM:  Maximum Recorded Temperature 
 TTMX.degC               90.20:  Max Tool Temp 
 VS01.                90627813:  Virtual Str1 SN 
 VS02.                90634712:  Virtual Str2 SN 
 VS03.                90643410:  Virtual Str3 SN 
 VS04.                90634712:  Virtual Str4 SN 
 WBMN.klb                 9.00:  WOB Min 
 WITN.        Elmaddin Rahimov:  Customer Rep 
 WITN.         Haytham Mostafa:  Customer Rep 2 
 WOBA.klb                15.00:  WOB Avg 
 WOBX.klb                23.00:  WOB Max 
 YP  .lhf2               29.00:  Yield Point 
~Curve Information Block
#MNEM.UNIT                 API CODE     Curve Description
#---------               -----------    ---------------------------
 TIME.HHMMSS            00 000 000 000:  GT Time & Date
 GTDEPTH.m              00 000 000 000:  GT Depth
 GTPQH.psia             00 000 000 000:  GT HR Quartz Pressure
 GTTQ.degC              00 000 000 000:  GT Quartz Temperature
 GTTN.NONE              00 000 000 000:  GT Test Number
 GTET.sec               00 000 000 000:  GT Elapsed Test Time
 GTTVD.m                00 000 000 000:  GT True Vertical Depth
#Other Information
#
#WARRANTY: Halliburton will use its best efforts to furnish customers with 
#accurate information and interpretations that are part of, and incident to, the services 
#provided.  However, Halliburton cannot and does not warrant the accuracy 
#or correctness of such information and interpretations.  Under no circumstances should any 
#such information or interpretation be relied upon as the sole basis for any drilling, 
#completion, production, or financial decision or any procedure involving any risk to the 
#safety of any drilling venture, drilling rig or its crew or any other third party.  The 
#Customer has full responsibility for all drilling, completion and production operation.  
#Halliburton makes no representations or warranties, either expressed or 
#implied, including, but not limited to, the implied warranties of merchantability or fitness 
#for a particular purpose, with respect to the services rendered.  In no event will 
#Halliburton be liable for failure to obtain any particular results or for 
#any damages, including, but not limited to, indirect, special or consequential damages, 
#resulting from the use of any information or interpretation provided by Halliburton.
#
~A           TIME           GTDEPTH  GTPQH  GTTQ  GTTN  GTET   GTTVD  
# ...
   01:18:35.906.09-May-2021 4503.51 2754.75 67.55 9.00 345.13 2973.49
   01:18:36.106.09-May-2021 4503.51 2754.75 67.55 9.00 345.33 2973.49
   01:18:36.306.09-May-2021 4503.51 2758.57 67.55 9.00 345.53 2973.49
   01:18:36.506.09-May-2021 4503.51 2759.91 67.55 9.00 345.73 2973.49
   01:18:36.706.09-May-2021 4503.51 2761.98 67.55 9.00 345.93 2973.49
   01:18:36.906.09-May-2021 4503.51 2763.83 67.55 9.00 346.13 2973.49
   01:18:37.106.09-May-2021 4503.51 2763.83 67.55 9.00 346.33 2973.49
   01:18:37.306.09-May-2021 4503.51 2766.71 67.55 9.00 346.53 2973.49
   01:18:37.507.09-May-2021 4503.51 2769.33 67.55 9.00 346.73 2973.49
   01:18:37.707.09-May-2021 4503.51 2770.75 67.55 9.00 346.93 2973.49
   01:18:37.907.09-May-2021 4503.51 2772.12 67.55 9.00 347.13 2973.49
   01:18:38.107.09-May-2021 4503.51 2772.12 67.55 9.00 347.33 2973.49
   01:18:38.307.09-May-2021 4503.51 2776.23 67.55 9.00 347.53 2973.49
   01:18:38.507.09-May-2021 4503.51 2778.28 67.55 9.00 347.73 2973.49
   01:18:38.707.09-May-2021 4503.51 2779.92 67.55 9.00 347.93 2973.49
   01:18:38.907.09-May-2021 4503.51 2781.80 67.55 9.00 348.13 2973.49
   01:18:39.107.09-May-2021 4503.51 2781.80 67.55 9.00 348.33 2973.49
   01:18:39.307.09-May-2021 4503.51 2785.41 67.55 9.00 348.53 2973.49
   01:18:39.507.09-May-2021 4503.51 2787.18 67.55 9.00 348.73 2973.49
   01:18:39.707.09-May-2021 4503.51 2788.97 67.55 9.00 348.93 2973.49
   01:18:39.907.09-May-2021 4503.51 2790.76 67.55 9.00 349.13 2973.49
   01:18:40.108.09-May-2021 4503.51 2790.76 67.55 9.00 349.33 2973.49
   01:18:40.308.09-May-2021 4503.51 2794.32 67.55 9.00 349.53 2973.49
   01:18:40.508.09-May-2021 4503.51 2795.61 67.55 9.00 349.73 2973.49
   01:18:40.708.09-May-2021 4503.51 2797.71 67.55 9.00 349.93 2973.49
   01:18:40.908.09-May-2021 4503.51 2799.47 67.55 9.00 350.13 2973.49
   01:18:41.108.09-May-2021 4503.51 2799.47 67.55 9.00 350.33 2973.49
   01:18:41.308.09-May-2021 4503.51 2802.74 67.55 9.00 350.53 2973.49
   01:18:41.508.09-May-2021 4503.51 2804.45 67.55 9.00 350.73 2973.49
   01:18:41.708.09-May-2021 4503.51 2806.19 67.55 9.00 350.93 2973.49
   01:18:41.908.09-May-2021 4503.51 2807.84 67.55 9.00 351.13 2973.49
   01:18:42.108.09-May-2021 4503.51 2807.84 67.55 9.00 351.33 2973.49
   01:18:42.308.09-May-2021 4503.51 2811.12 67.55 9.00 351.53 2973.49
   01:18:42.508.09-May-2021 4503.51 2812.73 67.55 9.00 351.73 2973.49
   01:18:42.708.09-May-2021 4503.51 2814.38 67.55 9.00 351.93 2973.49
   01:18:42.909.09-May-2021 4503.51 2816.02 67.55 9.00 352.13 2973.49
   01:18:43.109.09-May-2021 4503.51 2816.02 67.55 9.00 352.33 2973.49
   01:18:43.309.09-May-2021 4503.51 2819.59 67.55 9.00 352.53 2973.49
   01:18:43.509.09-May-2021 4503.51 2820.78 67.55 9.00 352.73 2973.49
   01:18:43.709.09-May-2021 4503.51 2822.49 67.55 9.00 352.93 2973.49
   01:18:43.909.09-May-2021 4503.51 2824.14 67.55 9.00 353.13 2973.49
   01:18:44.109.09-May-2021 4503.51 2824.14 67.55 9.00 353.33 2973.49
   01:18:44.309.09-May-2021 4503.51 2826.61 67.55 9.00 353.53 2973.49
   01:18:44.509.09-May-2021 4503.51 2828.97 67.55 9.00 353.73 2973.49
   01:18:44.709.09-May-2021 4503.51 2830.18 67.55 9.00 353.93 2973.49
   01:18:44.909.09-May-2021 4503.51 2831.28 67.55 9.00 354.13 2973.49
   01:18:45.109.09-May-2021 4503.51 2831.28 67.55 9.00 354.33 2973.49
   01:18:45.309.09-May-2021 4503.51 2834.88 67.55 9.00 354.53 2973.49
   01:18:45.509.09-May-2021 4503.51 2836.50 67.55 9.00 354.73 2973.49
   01:18:45.710.09-May-2021 4503.51 2837.54 67.55 9.00 354.93 2973.49
   01:18:45.910.09-May-2021 4503.51 2839.92 67.55 9.00 355.13 2973.49
   01:18:46.110.09-May-2021 4503.51 2839.92 67.55 9.00 355.33 2973.49
   01:18:46.310.09-May-2021 4503.51 2842.76 67.55 9.00 355.53 2973.49
   01:18:46.510.09-May-2021 4503.51 2844.34 67.55 9.00 355.73 2973.49
   01:18:46.710.09-May-2021 4503.51 2845.93 67.55 9.00 355.93 2973.49
   01:18:46.910.09-May-2021 4503.51 2847.54 67.55 9.00 356.13 2973.49
   01:18:47.110.09-May-2021 4503.51 2847.54 67.55 9.00 356.33 2973.49
   01:18:47.310.09-May-2021 4503.51 2850.68 67.55 9.00 356.53 2973.49
   01:18:47.510.09-May-2021 4503.51 2852.21 67.55 9.00 356.73 2973.49
   01:18:47.710.09-May-2021 4503.51 2853.76 67.55 9.00 356.93 2973.49
   01:18:47.910.09-May-2021 4503.51 2855.26 67.55 9.00 357.13 2973.49
   01:18:48.110.09-May-2021 4503.51 2855.26 67.55 9.00 357.33 2973.49
   01:18:48.310.09-May-2021 4503.51 2857.73 67.55 9.00 357.53 2973.49
   01:18:48.511.09-May-2021 4503.51 2859.94 67.55 9.00 357.73 2973.49
   01:18:48.711.09-May-2021 4503.51 2861.05 67.55 9.00 357.93 2973.49
   01:18:48.911.09-May-2021 4503.51 2862.81 67.55 9.00 358.13 2973.49
   01:18:49.111.09-May-2021 4503.51 2862.81 67.55 9.00 358.33 2973.49
   01:18:49.311.09-May-2021 4503.51 2865.56 67.55 9.00 358.53 2973.49
   01:18:49.511.09-May-2021 4503.51 2866.95 67.55 9.00 358.73 2973.49
   01:18:49.711.09-May-2021 4503.51 2868.17 67.55 9.00 358.93 2973.49
   01:18:49.911.09-May-2021 4503.51 2869.52 67.55 9.00 359.13 2973.49
   01:18:50.111.09-May-2021 4503.51 2869.52 67.55 9.00 359.33 2973.49
   01:18:50.311.09-May-2021 4503.51 2872.42 67.55 9.00 359.53 2973.49
   01:18:50.511.09-May-2021 4503.51 2873.91 67.55 9.00 359.73 2973.49
   01:18:50.711.09-May-2021 4503.51 2875.40 67.55 9.00 359.93 2973.49
   01:18:50.911.09-May-2021 4503.51 2878.81 67.55 9.00 360.13 2973.49
   01:18:51.111.09-May-2021 4503.51 2878.81 67.55 9.00 360.33 2973.49
   01:18:51.312.09-May-2021 4503.51 2970.96 67.55 9.00 360.53 2973.49
   01:18:51.512.09-May-2021 4503.51 5433.73 67.55 9.00 360.73 2973.49
   01:18:51.712.09-May-2021 4503.51 6781.37 67.55 9.00 360.93 2973.49
   01:18:51.912.09-May-2021 4503.51 6779.27 67.55 9.00 361.13 2973.49
   01:18:52.112.09-May-2021 4503.51 6779.27 67.55 9.00 361.33 2973.49
   01:18:52.312.09-May-2021 4503.51 6786.21 67.55 9.00 361.53 2973.49
   01:18:52.512.09-May-2021 4503.51 6788.00 67.55 9.00 361.73 2973.49
   01:18:52.712.09-May-2021 4503.51 6780.42 67.56 9.00 361.93 2973.49
   01:18:52.912.09-May-2021 4503.51 6784.41 67.56 9.00 362.13 2973.49
   01:18:53.112.09-May-2021 4503.51 6784.41 67.56 9.00 362.33 2973.49
   01:18:53.312.09-May-2021 4503.51 6790.85 67.56 9.00 362.53 2973.49
   01:18:53.512.09-May-2021 4503.51 6790.74 67.56 9.00 362.73 2973.49
   01:18:53.712.09-May-2021 4503.51 6785.00 67.57 9.00 362.93 2973.49
   01:18:53.913.09-May-2021 4503.51 6793.58 67.57 9.00 363.13 2973.49
   01:18:54.113.09-May-2021 4503.51 6793.58 67.57 9.00 363.33 2973.49
   01:18:54.313.09-May-2021 4503.51 6793.16 67.58 9.00 363.53 2973.49
   01:18:54.513.09-May-2021 4503.51 6786.15 67.58 9.00 363.73 2973.49
   01:18:54.713.09-May-2021 4503.51 6788.19 67.58 9.00 363.93 2973.49
   01:18:54.913.09-May-2021 4503.51 6787.81 67.58 9.00 364.13 2973.49
   01:18:55.113.09-May-2021 4503.51 6787.81 67.58 9.00 364.33 2973.49
   01:18:55.313.09-May-2021 4503.51 6787.76 67.59 9.00 364.53 2973.49
   01:18:55.513.09-May-2021 4503.51 6788.60 67.59 9.00 364.73 2973.49
   01:18:55.713.09-May-2021 4503.51 6788.63 67.60 9.00 364.93 2973.49
   01:18:55.913.09-May-2021 4503.51 6789.38 67.60 9.00 365.13 2973.49
   01:18:56.113.09-May-2021 4503.51 6789.38 67.60 9.00 365.33 2973.49
   01:18:56.313.09-May-2021 4503.51 6790.62 67.60 9.00 365.53 2973.49
   01:18:56.513.09-May-2021 4503.51 6801.20 67.61 9.00 365.73 2973.49
   01:18:56.714.09-May-2021 4503.51 6792.40 67.61 9.00 365.93 2973.49
   01:18:56.914.09-May-2021 4503.51 6795.69 67.61 9.00 366.13 2973.49
   01:18:57.114.09-May-2021 4503.51 6795.69 67.61 9.00 366.33 2973.49
   01:18:57.314.09-May-2021 4503.51 6792.38 67.61 9.00 366.53 2973.49
   01:18:57.514.09-May-2021 4503.51 6791.11 67.62 9.00 366.73 2973.49
   01:18:57.714.09-May-2021 4503.51 6789.84 67.62 9.00 366.93 2973.49
   01:18:57.914.09-May-2021 4503.51 6789.28 67.62 9.00 367.13 2973.49
   01:18:58.114.09-May-2021 4503.51 6789.28 67.62 9.00 367.33 2973.49
   01:18:58.314.09-May-2021 4503.51 6788.36 67.62 9.00 367.53 2973.49
   01:18:58.514.09-May-2021 4503.51 6788.79 67.62 9.00 367.73 2973.49
   01:18:58.714.09-May-2021 4503.51 6788.43 67.63 9.00 367.93 2973.49
