~Version Information
 VERS.                  2.0:   CWLS log ASCII Standard -VERSION 2.0
 WRAP.                   NO:   One line per depth step
~Well Information Block
#MNEM.UNIT     VALUE/NAME     DESCRIPTION
#---------     -----------    ---------------------------
 STRT.S             01:12:50 09-May-21: START TIME 01:12:50 09-May-21
 STOP.S             01:19:27 09-May-21: STOP TIME  01:19:27 09-May-21
 STEP.S                   0.00: STEP TIME
 NULL.                 -999.25: NULL VALUE
 PROV.                    Baku:  PROVINCE
 STAT.                    Baku:  STATE NAME
 SON .        AZ-XX-0906571588:  JOB NUMBER
 WTYP.                Deviated:  WELL TYPE
 COMP.     BP Exploration (Caspian Sea) ltd:  COMPANY
 BASE.              Azerbaijan:  LOGGING EQUIPMENT BASE LOCATION
 REGN.                   EESSA:  REGION
 CTRY.              Azerbaijan:  COUNTRY NAME
 FLD .                     ACG:  FIELD NAME
 WELL.                     J28:  WELL NAME
 RIG .             West Chirag:  RIG NAME
 DMF .             Drill Floor:  DRILL MEAS FROM
 PDAT.       Caspian Sea Level:  PERMANENT DATUM
 HPTY.       Minimum Curvature:  HOLE POS TYPE
 MDS .        Operator Entered:  MAG DATA SOURCE
 NREF.                    Grid:  NORTH REFERENCE
 SRVC.          TURAN DRILLING:  CONTRACTOR
 JOBN.        AZ-XX-0906571588:  JOB TICKET NUMB
 DCON.     Halliburton Sperry Drilling:  DIRECTNL CONTR
 STIM.      00.44.00 11-Feb-21:  START TIME
 DATE.      00.00.00 05-May-21:  END TIME
 SPUD.               13-Feb-21:  SPUD DATE
 MWDS.                    Baku:  MWD SHOP
 DOE .                     N/A:  DOE NUMBER
 UNIT.                     N/A:  LOGGING EQUIPMENT ID
 UWI .                     N/A:  UNIQUE WELL IDENTIFIER
 API .                     N/A:  API NUMBER
 CNTY.                        :  COUNTY
 LOC .                        :  LOCATION
 LMF .             Drill Floor:  LOG MEASURED FROM
 TVDS.m                  43.00:  TVDSS CORRECTN
 SDEP.m                 341.00:  START DEPTH
 EGL .m                   0.00:  GROUND ELEVATION
 WDMS.m                 169.80:  WD ELEV
 AGAP.m                  43.00:  AIR GAP
 EPD .m                   0.00:  ELEVATION
 APD .m                  43.00:  DEPTH ABOVE PD
 LATI.deg                40.13:  LATITUDE
 LONG.deg                51.22:  LONGITUDE
 UTMY.m             4443793.85:  UTM Y
 UTMX.m              519005.06:  UTM X
 WHEW.m                 -11.57:  WELL HEAD E/W
 WHNS.m                   8.57:  WELL HEAD N/S
 VSEW.m                 -11.57:  VERT SEC E/W
 VSNS.m                   8.57:  VERT SEC N/S
 DFWL.m                   0.00:  DISTANCE FWL
 DFSL.m                   0.00:  DISTANCE FSL
 VSDR.deg               299.34:  VERT SEC DIRECT
 GVFD.g                   1.00:  GRAVITY FIELD
 AZTC.deg                 6.36:  AZM TOTAL CORR
 MFLD.nT              50391.00:  MAGNETIC FIELD
 MDIP.deg                59.65:  MAGNETIC DIP
 MDEC.deg                 6.48:  MAGNETIC DECL
 GRDC.deg                 0.12:  GRID CORRECTION
 DEP .m                 334.96:  DEPTH
 TDD .m                1407.26:  TOTAL DEPTH (DRILLER)
 EKB .m                  43.00:  KB ELEVATION
 EDF .m                  43.00:  DF ELEVATION
 TDL .m                 228.00:  TOTAL DEPTH (LOGGER)
 VSC .                       0:  VS TO CLOSURE
 MAGU.                 1854484:  MAGUTM CHECKSUM
~Parameter Information Block
#MNEM.UNIT       Value        Description
#---------     -----------    ---------------------------
 AV  .mps                 4.00:  Ann Velocity 
 AVMX.mps                 4.73:  Max Ann Veloc 
 AZIF.deg               304.48:  Azm, Final 
 BHAT.        Rotary Steerable:  BHA Type 
 BREV.rev            257300.00:  Rev Bit Total 
 BROT.°/30m               0.00:  Build Rotating 
 BS  .in                  8.50:  Bit Size 
 BSZ .in                  8.50:  Bit Size 
 BTPL.psig              589.00:  Bit Press Loss 
 CABU.                      No:  Customer Abuse 
 CGEO.          Mubariz ghayev:  Customer Geo 
 COMM.                     ÌğZ:  Run Comments 1 
 TCS .hr                 64.25:  Time Ciculation Ended 
 CV  .mps                 3.50:  Crit Velocity 
 CVMX.mps                 4.52:  Max Crit Veloc 
 DD1 .             Aziz Aliyev:  Direct Drillr 1 
 DD2 .         Intigam Rahimov:  Direct Drillr 2 
 DD3 .          Rashad Habibov:  Direct Drillr 3 
 DDSV.               Geo-Pilot:  DD Service 
 DEFF.%                  98.00:  % Det Eff 
 DLRX.°/30m               0.00:  Dogleg Rot Max 
 DLSO.°/30m               0.00:  Dogleg Oriented 
 DLSX.°/30m               0.00:  Dogleg Str Max 
 DRET.      10.45.04 08-May-21:  Drill End Time 
 DRST.      03.30.04 04-May-21:  Drill Start Tim 
 DTIM.hr                 14.97:  Time Drilling 
 EDEP.m                4640.01:  End Depth 
 ENG1.         Dail Mahammadov:  Engineer 1 
 ENG2.           Eldar Hajiyev:  Engineer 2 
 ENG3.       Bakhtiar Jabbarli:  Engineer 3 
 ENG4.       Natik Hasanagayev:  Engineer 4 
 ETIM.      09.30.04 14-May-21:  End Time 
 FLOI.gpm               460.00:  Flow In 
 FLON.gpm               200.00:  Flow In Min 
 FLOS.cptm                0.00:  Fluid Loss 
 FLOX.gpm               505.00:  Flow In Max 
 HFLO.                      No:  High Flow 
 HPRE.                      No:  High Pressure 
 HTEM.                      No:  High Temp 
 HYDO.m                   1.80:  Hydro Offset 
 IFIN.deg                66.71:  Inc, Final 
 IMAX.deg                67.03:  Inc Max 
 IMIN.deg                66.63:  Inc Min 
 IMND.m                4550.58:  Inc Min Depth 
 IMXD.m                4439.01:  Inc Max Depth 
 JARR.                      No:  Jarring 
 LETM.      10.45.04 08-May-21:  Log End Time 
 LOST.hr                     0:  Lost Rig Time 
 LSTM.      03.30.04 04-May-21:  Log Start Time 
 MDCL.ppm             37000.00:  Mud Chlorides 
 MDES.     Inversion Oil/Synthetic:  Mud Desc 
 DFD .sg                  1.38:  Mud Density 
 MDMN.sg                  1.35:  Dens Mud Min 
 MDMX.sg                  1.40:  Dens Mud Max 
 MOIL.                   57.40:  Run Mud Oil % 
 MOWR.                   70:30:  Run Mud OWR 
 MSND.                    0.00:  Run Mud Sand % 
 MSOL.                   18.00:  Run Mud Solids% 
 DFV .spqt               71.00:  Mud Viscosity 
 MWOD.in                  6.75:  MWD Tool OD 
 MWSI.                      No:  Serv Intrp, MWD 
 OTIM.hr                242.76:  Time Operating 
 PCON.           Look Like New:  Pad Condition 
 PMAX.psia            12183.92:  Press Op, Max 
 PV  .cP                 27.00:  Mud PV 
 RUN .                    1300:  Run Number 
 ROPA.m/hr               15.00:  ROP Avg 
 ROPN.m/hr                9.00:  ROP Min 
 ROPX.m/hr               19.00:  ROP Max 
 RPMA.rpm               120.00:  RPM Surface Avg 
 RPMN.rpm               100.00:  RPM Surface Min 
 RPMX.rpm               120.00:  RPM Surface Max 
 RRUN.                    1300:  Rig Run Number 
 RTIM.hr                  5.00:  Time Reaming 
 SAZI.deg               304.73:  Azm, Start 
 SDEP.m                4412.01:  Start Depth 
 SIDD.                      No:  Serv Intrp, DD 
 SINC.deg                66.82:  Inc, Start 
 SPPA.psig             2800.00:  SPP Avg 
 SPPN.psig             2610.00:  SPP Min 
 SPPX.psig             3100.00:  SPP Max 
 STIM.      03.30.00 04-May-21:  Start Time 
 SVCS.                 DD, MWD:  Services 
 SVER.                    9.20:  Sperry Version 
 TDAT.m                 228.00:  Tot Depth Attmp 
 TDDF.                      No:  Trip for DD 
 TDLG.m                 228.00:  Tot Depth Loggd 
 TFF .                      No:  Trip for Fail 
 TQAA.f-kp               15.00:  Torque Abs Avg 
 TQAN.f-kp               12.00:  Torque Abs Min 
 TQAX.f-kp               22.00:  Torque Abs Max 
 TRRT.°/30m               0.00:  Turn Rotating 
 MRT .                    HCIM:  Maximum Recorded Temperature 
 TTMX.degC               90.20:  Max Tool Temp 
 VS01.                90627813:  Virtual Str1 SN 
 VS02.                90634712:  Virtual Str2 SN 
 VS03.                90643410:  Virtual Str3 SN 
 VS04.                90634712:  Virtual Str4 SN 
 WBMN.klb                 9.00:  WOB Min 
 WITN.        Elmaddin Rahimov:  Customer Rep 
 WITN.         Haytham Mostafa:  Customer Rep 2 
 WOBA.klb                15.00:  WOB Avg 
 WOBX.klb                23.00:  WOB Max 
 YP  .lhf2               29.00:  Yield Point 
~Curve Information Block
#MNEM.UNIT                 API CODE     Curve Description
#---------               -----------    ---------------------------
 TIME.HHMMSS            00 000 000 000:  GT Time & Date
 GTDEPTH.m              00 000 000 000:  GT Depth
 GTPQH.psia             00 000 000 000:  GT HR Quartz Pressure
 GTTQ.degC              00 000 000 000:  GT Quartz Temperature
 GTTN.NONE              00 000 000 000:  GT Test Number
 GTET.sec               00 000 000 000:  GT Elapsed Test Time
 GTTVD.m                00 000 000 000:  GT True Vertical Depth
#Other Information
#
#WARRANTY: Halliburton will use its best efforts to furnish customers with 
#accurate information and interpretations that are part of, and incident to, the services 
#provided.  However, Halliburton cannot and does not warrant the accuracy 
#or correctness of such information and interpretations.  Under no circumstances should any 
#such information or interpretation be relied upon as the sole basis for any drilling, 
#completion, production, or financial decision or any procedure involving any risk to the 
#safety of any drilling venture, drilling rig or its crew or any other third party.  The 
#Customer has full responsibility for all drilling, completion and production operation.  
#Halliburton makes no representations or warranties, either expressed or 
#implied, including, but not limited to, the implied warranties of merchantability or fitness 
#for a particular purpose, with respect to the services rendered.  In no event will 
#Halliburton be liable for failure to obtain any particular results or for 
#any damages, including, but not limited to, indirect, special or consequential damages, 
#resulting from the use of any information or interpretation provided by Halliburton.
#
~A           TIME           GTDEPTH  GTPQH  GTTQ  GTTN  GTET   GTTVD  
# ...
   01:13:13.789.09-May-2021 4503.51 6717.60 67.60 9.00  23.01 2973.49
   01:13:13.989.09-May-2021 4503.51 6717.60 67.60 9.00  23.21 2973.49
   01:13:14.189.09-May-2021 4503.51 6719.18 67.60 9.00  23.41 2973.49
   01:13:14.389.09-May-2021 4503.51 6718.77 67.60 9.00  23.61 2973.49
   01:13:14.590.09-May-2021 4503.51 6718.56 67.60 9.00  23.81 2973.49
   01:13:14.790.09-May-2021 4503.51 6711.24 67.60 9.00  24.01 2973.49
   01:13:14.990.09-May-2021 4503.51 6711.24 67.60 9.00  24.21 2973.49
   01:13:15.190.09-May-2021 4503.51 6722.17 67.60 9.00  24.41 2973.49
   01:13:15.390.09-May-2021 4503.51 6717.18 67.60 9.00  24.61 2973.49
   01:13:15.590.09-May-2021 4503.51 6718.22 67.60 9.00  24.81 2973.49
   01:13:15.790.09-May-2021 4503.51 6718.13 67.60 9.00  25.01 2973.49
   01:13:15.990.09-May-2021 4503.51 6718.13 67.60 9.00  25.21 2973.49
   01:13:16.190.09-May-2021 4503.51 6715.92 67.60 9.00  25.41 2973.49
   01:13:16.390.09-May-2021 4503.51 6715.69 67.60 9.00  25.61 2973.49
   01:13:16.590.09-May-2021 4503.51 6716.29 67.60 9.00  25.81 2973.49
   01:13:16.790.09-May-2021 4503.51 6716.29 67.60 9.00  26.01 2973.49
   01:13:16.990.09-May-2021 4503.51 6716.29 67.60 9.00  26.21 2973.49
   01:13:17.191.09-May-2021 4503.51 6716.87 67.60 9.00  26.41 2973.49
   01:13:17.391.09-May-2021 4503.51 6717.10 67.60 9.00  26.61 2973.49
   01:13:17.591.09-May-2021 4503.51 6717.46 67.60 9.00  26.81 2973.49
   01:13:17.791.09-May-2021 4503.51 6723.68 67.60 9.00  27.01 2973.49
   01:13:17.991.09-May-2021 4503.51 6723.68 67.60 9.00  27.21 2973.49
   01:13:18.191.09-May-2021 4503.51 6724.56 67.60 9.00  27.41 2973.49
   01:13:18.391.09-May-2021 4503.51 6724.65 67.60 9.00  27.61 2973.49
   01:13:18.591.09-May-2021 4503.51 6720.71 67.60 9.00  27.81 2973.49
   01:13:18.791.09-May-2021 4503.51 6720.03 67.60 9.00  28.01 2973.49
   01:13:18.991.09-May-2021 4503.51 6720.03 67.60 9.00  28.21 2973.49
   01:13:19.191.09-May-2021 4503.51 6719.99 67.60 9.00  28.41 2973.49
   01:13:19.391.09-May-2021 4503.51 6720.05 67.60 9.00  28.61 2973.49
   01:13:19.591.09-May-2021 4503.51 6720.05 67.60 9.00  28.81 2973.49
   01:13:19.791.09-May-2021 4503.51 6719.96 67.60 9.00  29.01 2973.49
   01:13:19.992.09-May-2021 4503.51 6719.96 67.60 9.00  29.21 2973.49
   01:13:20.192.09-May-2021 4503.51 6720.17 67.60 9.00  29.41 2973.49
   01:13:20.392.09-May-2021 4503.51 6720.55 67.60 9.00  29.61 2973.49
   01:13:20.592.09-May-2021 4503.51 6729.75 67.60 9.00  29.81 2973.49
   01:13:20.792.09-May-2021 4503.51 6727.15 67.60 9.00  30.01 2973.49
   01:13:20.992.09-May-2021 4503.51 6727.15 67.60 9.00  30.21 2973.49
   01:13:21.192.09-May-2021 4503.51 6720.97 67.60 9.00  30.41 2973.49
   01:13:21.392.09-May-2021 4503.51 6732.06 67.60 9.00  30.61 2973.49
   01:13:21.592.09-May-2021 4503.51 6729.18 67.60 9.00  30.81 2973.49
   01:13:21.792.09-May-2021 4503.51 6730.48 67.60 9.00  31.01 2973.49
   01:13:21.992.09-May-2021 4503.51 6730.48 67.60 9.00  31.21 2973.49
   01:13:22.192.09-May-2021 4503.51 6733.25 67.60 9.00  31.41 2973.49
   01:13:22.392.09-May-2021 4503.51 6726.12 67.60 9.00  31.61 2973.49
   01:13:22.592.09-May-2021 4503.51 6727.63 67.60 9.00  31.81 2973.49
   01:13:22.793.09-May-2021 4503.51 6726.87 67.60 9.00  32.01 2973.49
   01:13:22.993.09-May-2021 4503.51 6726.87 67.60 9.00  32.21 2973.49
   01:13:23.193.09-May-2021 4503.51 6731.04 67.59 9.00  32.41 2973.49
   01:13:23.393.09-May-2021 4503.51 6745.83 67.60 9.00  32.61 2973.49
   01:13:23.593.09-May-2021 4503.51 6904.10 67.59 9.00  32.81 2973.49
   01:13:23.793.09-May-2021 4503.51 6994.43 67.59 9.00  33.01 2973.49
   01:13:23.993.09-May-2021 4503.51 6994.43 67.59 9.00  33.21 2973.49
   01:13:24.193.09-May-2021 4503.51 7015.07 67.59 9.00  33.41 2973.49
   01:13:24.393.09-May-2021 4503.51 7012.52 67.59 9.00  33.61 2973.49
   01:13:24.593.09-May-2021 4503.51 7012.03 67.59 9.00  33.81 2973.49
   01:13:24.793.09-May-2021 4503.51 7009.28 67.59 9.00  34.01 2973.49
   01:13:24.993.09-May-2021 4503.51 7009.28 67.59 9.00  34.21 2973.49
   01:13:25.193.09-May-2021 4503.51 7011.70 67.59 9.00  34.41 2973.49
   01:13:25.393.09-May-2021 4503.51 7015.61 67.59 9.00  34.61 2973.49
   01:13:25.594.09-May-2021 4503.51 7015.97 67.59 9.00  34.81 2973.49
   01:13:25.794.09-May-2021 4503.51 7027.59 67.60 9.00  35.01 2973.49
   01:13:25.994.09-May-2021 4503.51 7027.59 67.60 9.00  35.21 2973.49
   01:13:26.194.09-May-2021 4503.51 7032.73 67.60 9.00  35.41 2973.49
   01:13:26.394.09-May-2021 4503.51 7035.90 67.60 9.00  35.61 2973.49
   01:13:26.594.09-May-2021 4503.51 7041.58 67.60 9.00  35.81 2973.49
   01:13:26.794.09-May-2021 4503.51 7042.54 67.60 9.00  36.01 2973.49
   01:13:26.994.09-May-2021 4503.51 7042.54 67.60 9.00  36.21 2973.49
   01:13:27.194.09-May-2021 4503.51 7046.92 67.60 9.00  36.41 2973.49
   01:13:27.394.09-May-2021 4503.51 7040.64 67.60 9.00  36.61 2973.49
   01:13:27.594.09-May-2021 4503.51 7034.95 67.60 9.00  36.81 2973.49
   01:13:27.794.09-May-2021 4503.51 7030.15 67.60 9.00  37.01 2973.49
   01:13:27.994.09-May-2021 4503.51 7030.15 67.60 9.00  37.21 2973.49
   01:13:28.194.09-May-2021 4503.51 7015.52 67.60 9.00  37.41 2973.49
   01:13:28.395.09-May-2021 4503.51 7003.78 67.60 9.00  37.61 2973.49
   01:13:28.595.09-May-2021 4503.51 6997.24 67.60 9.00  37.81 2973.49
   01:13:28.795.09-May-2021 4503.51 6988.25 67.60 9.00  38.01 2973.49
   01:13:28.995.09-May-2021 4503.51 6988.25 67.60 9.00  38.21 2973.49
   01:13:29.195.09-May-2021 4503.51 6962.44 67.60 9.00  38.41 2973.49
   01:13:29.395.09-May-2021 4503.51 6955.41 67.60 9.00  38.61 2973.49
   01:13:29.595.09-May-2021 4503.51 6953.10 67.60 9.00  38.81 2973.49
   01:13:29.795.09-May-2021 4503.51 6950.01 67.60 9.00  39.01 2973.49
   01:13:29.995.09-May-2021 4503.51 6950.01 67.60 9.00  39.21 2973.49
   01:13:30.195.09-May-2021 4503.51 6771.58 67.60 9.00  39.41 2973.49
   01:13:30.395.09-May-2021 4503.51 6655.21 67.60 9.00  39.61 2973.49
   01:13:30.595.09-May-2021 4503.51 6548.70 67.60 9.00  39.81 2973.49
   01:13:30.795.09-May-2021 4503.51 6374.34 67.60 9.00  40.01 2973.49
   01:13:30.996.09-May-2021 4503.51 6374.34 67.60 9.00  40.21 2973.49
   01:13:31.196.09-May-2021 4503.51 5495.96 67.60 9.00  40.41 2973.49
   01:13:31.396.09-May-2021 4503.51 5168.83 67.60 9.00  40.61 2973.49
   01:13:31.596.09-May-2021 4503.51 4449.05 67.60 9.00  40.81 2973.49
   01:13:31.796.09-May-2021 4503.51 3586.91 67.60 9.00  41.01 2973.49
   01:13:31.996.09-May-2021 4503.51 3586.91 67.60 9.00  41.21 2973.49
   01:13:32.196.09-May-2021 4503.51 2487.70 67.59 9.00  41.42 2973.49
   01:13:32.396.09-May-2021 4503.51 1933.90 67.59 9.00  41.62 2973.49
   01:13:32.596.09-May-2021 4503.51 1615.23 67.59 9.00  41.82 2973.49
   01:13:32.796.09-May-2021 4503.51 1302.70 67.59 9.00  42.02 2973.49
   01:13:32.996.09-May-2021 4503.51 1302.70 67.59 9.00  42.22 2973.49
   01:13:33.196.09-May-2021 4503.51  828.29 67.58 9.00  42.42 2973.49
   01:13:33.396.09-May-2021 4503.51  752.00 67.58 9.00  42.62 2973.49
   01:13:33.596.09-May-2021 4503.51  722.43 67.58 9.00  42.82 2973.49
   01:13:33.797.09-May-2021 4503.51  701.09 67.57 9.00  43.02 2973.49
   01:13:33.997.09-May-2021 4503.51  701.09 67.57 9.00  43.22 2973.49
   01:13:34.197.09-May-2021 4503.51  654.34 67.56 9.00  43.42 2973.49
   01:13:34.397.09-May-2021 4503.51  643.38 67.56 9.00  43.62 2973.49
   01:13:34.597.09-May-2021 4503.51  633.55 67.56 9.00  43.82 2973.49
   01:13:34.797.09-May-2021 4503.51  625.53 67.55 9.00  44.02 2973.49
   01:13:34.997.09-May-2021 4503.51  625.53 67.55 9.00  44.22 2973.49
   01:13:35.197.09-May-2021 4503.51  614.46 67.54 9.00  44.42 2973.49
   01:13:35.397.09-May-2021 4503.51  610.29 67.54 9.00  44.62 2973.49
   01:13:35.597.09-May-2021 4503.51  606.27 67.54 9.00  44.82 2973.49
   01:13:35.797.09-May-2021 4503.51  603.24 67.53 9.00  45.02 2973.49
   01:13:35.997.09-May-2021 4503.51  603.24 67.53 9.00  45.22 2973.49
   01:13:36.197.09-May-2021 4503.51  597.83 67.52 9.00  45.42 2973.49
   01:13:36.397.09-May-2021 4503.51  596.79 67.52 9.00  45.62 2973.49
   01:13:36.598.09-May-2021 4503.51  594.84 67.52 9.00  45.82 2973.49
