~Version Information
 VERS.                  2.0:   CWLS log ASCII Standard -VERSION 2.0
 WRAP.                   NO:   One line per depth step
~Well Information Block
#MNEM.UNIT     VALUE/NAME     DESCRIPTION
#---------     -----------    ---------------------------
 STRT.S             01:38:21 09-May-21: START TIME 01:38:21 09-May-21
 STOP.S             01:44:59 09-May-21: STOP TIME  01:44:59 09-May-21
 STEP.S                   0.00: STEP TIME
 NULL.                 -999.25: NULL VALUE
 PROV.                    Baku:  PROVINCE
 STAT.                    Baku:  STATE NAME
 SON .        AZ-XX-0906571588:  JOB NUMBER
 WTYP.                Deviated:  WELL TYPE
 COMP.     BP Exploration (Caspian Sea) ltd:  COMPANY
 BASE.              Azerbaijan:  LOGGING EQUIPMENT BASE LOCATION
 REGN.                   EESSA:  REGION
 CTRY.              Azerbaijan:  COUNTRY NAME
 FLD .                     ACG:  FIELD NAME
 WELL.                     J28:  WELL NAME
 RIG .             West Chirag:  RIG NAME
 DMF .             Drill Floor:  DRILL MEAS FROM
 PDAT.       Caspian Sea Level:  PERMANENT DATUM
 HPTY.       Minimum Curvature:  HOLE POS TYPE
 MDS .        Operator Entered:  MAG DATA SOURCE
 NREF.                    Grid:  NORTH REFERENCE
 SRVC.          TURAN DRILLING:  CONTRACTOR
 JOBN.        AZ-XX-0906571588:  JOB TICKET NUMB
 DCON.     Halliburton Sperry Drilling:  DIRECTNL CONTR
 STIM.      00.44.00 11-Feb-21:  START TIME
 DATE.      00.00.00 05-May-21:  END TIME
 SPUD.               13-Feb-21:  SPUD DATE
 MWDS.                    Baku:  MWD SHOP
 DOE .                     N/A:  DOE NUMBER
 UNIT.                     N/A:  LOGGING EQUIPMENT ID
 UWI .                     N/A:  UNIQUE WELL IDENTIFIER
 API .                     N/A:  API NUMBER
 CNTY.                        :  COUNTY
 LOC .                        :  LOCATION
 LMF .             Drill Floor:  LOG MEASURED FROM
 TVDS.m                  43.00:  TVDSS CORRECTN
 SDEP.m                 341.00:  START DEPTH
 EGL .m                   0.00:  GROUND ELEVATION
 WDMS.m                 169.80:  WD ELEV
 AGAP.m                  43.00:  AIR GAP
 EPD .m                   0.00:  ELEVATION
 APD .m                  43.00:  DEPTH ABOVE PD
 LATI.deg                40.13:  LATITUDE
 LONG.deg                51.22:  LONGITUDE
 UTMY.m             4443793.85:  UTM Y
 UTMX.m              519005.06:  UTM X
 WHEW.m                 -11.57:  WELL HEAD E/W
 WHNS.m                   8.57:  WELL HEAD N/S
 VSEW.m                 -11.57:  VERT SEC E/W
 VSNS.m                   8.57:  VERT SEC N/S
 DFWL.m                   0.00:  DISTANCE FWL
 DFSL.m                   0.00:  DISTANCE FSL
 VSDR.deg               299.34:  VERT SEC DIRECT
 GVFD.g                   1.00:  GRAVITY FIELD
 AZTC.deg                 6.36:  AZM TOTAL CORR
 MFLD.nT              50391.00:  MAGNETIC FIELD
 MDIP.deg                59.65:  MAGNETIC DIP
 MDEC.deg                 6.48:  MAGNETIC DECL
 GRDC.deg                 0.12:  GRID CORRECTION
 DEP .m                 334.96:  DEPTH
 TDD .m                1407.26:  TOTAL DEPTH (DRILLER)
 EKB .m                  43.00:  KB ELEVATION
 EDF .m                  43.00:  DF ELEVATION
 TDL .m                 228.00:  TOTAL DEPTH (LOGGER)
 VSC .                       0:  VS TO CLOSURE
 MAGU.                 1854484:  MAGUTM CHECKSUM
~Parameter Information Block
#MNEM.UNIT       Value        Description
#---------     -----------    ---------------------------
 AV  .mps                 4.00:  Ann Velocity 
 AVMX.mps                 4.73:  Max Ann Veloc 
 AZIF.deg               304.48:  Azm, Final 
 BHAT.        Rotary Steerable:  BHA Type 
 BREV.rev            257300.00:  Rev Bit Total 
 BROT.°/30m               0.00:  Build Rotating 
 BS  .in                  8.50:  Bit Size 
 BSZ .in                  8.50:  Bit Size 
 BTPL.psig              589.00:  Bit Press Loss 
 CABU.                      No:  Customer Abuse 
 CGEO.          Mubariz ghayev:  Customer Geo 
 TCS .hr                 64.25:  Time Ciculation Ended 
 CV  .mps                 3.50:  Crit Velocity 
 CVMX.mps                 4.52:  Max Crit Veloc 
 DD1 .             Aziz Aliyev:  Direct Drillr 1 
 DD2 .         Intigam Rahimov:  Direct Drillr 2 
 DD3 .          Rashad Habibov:  Direct Drillr 3 
 DDSV.               Geo-Pilot:  DD Service 
 DEFF.%                  98.00:  % Det Eff 
 DLRX.°/30m               0.00:  Dogleg Rot Max 
 DLSO.°/30m               0.00:  Dogleg Oriented 
 DLSX.°/30m               0.00:  Dogleg Str Max 
 DRET.      10.45.04 08-May-21:  Drill End Time 
 DRST.      03.30.04 04-May-21:  Drill Start Tim 
 DTIM.hr                 14.97:  Time Drilling 
 EDEP.m                4640.01:  End Depth 
 ENG1.         Dail Mahammadov:  Engineer 1 
 ENG2.           Eldar Hajiyev:  Engineer 2 
 ENG3.       Bakhtiar Jabbarli:  Engineer 3 
 ENG4.       Natik Hasanagayev:  Engineer 4 
 ETIM.      09.30.04 14-May-21:  End Time 
 FLOI.gpm               460.00:  Flow In 
 FLON.gpm               200.00:  Flow In Min 
 FLOS.cptm                0.00:  Fluid Loss 
 FLOX.gpm               505.00:  Flow In Max 
 HFLO.                      No:  High Flow 
 HPRE.                      No:  High Pressure 
 HTEM.                      No:  High Temp 
 HYDO.m                   1.80:  Hydro Offset 
 IFIN.deg                66.71:  Inc, Final 
 IMAX.deg                67.03:  Inc Max 
 IMIN.deg                66.63:  Inc Min 
 IMND.m                4550.58:  Inc Min Depth 
 IMXD.m                4439.01:  Inc Max Depth 
 JARR.                      No:  Jarring 
 LETM.      10.45.04 08-May-21:  Log End Time 
 LOST.hr                     0:  Lost Rig Time 
 LSTM.      03.30.04 04-May-21:  Log Start Time 
 MDCL.ppm             37000.00:  Mud Chlorides 
 MDES.     Inversion Oil/Synthetic:  Mud Desc 
 DFD .sg                  1.38:  Mud Density 
 MDMN.sg                  1.35:  Dens Mud Min 
 MDMX.sg                  1.40:  Dens Mud Max 
 MOIL.                   57.40:  Run Mud Oil % 
 MOWR.                   70:30:  Run Mud OWR 
 MSND.                    0.00:  Run Mud Sand % 
 MSOL.                   18.00:  Run Mud Solids% 
 DFV .spqt               71.00:  Mud Viscosity 
 MWOD.in                  6.75:  MWD Tool OD 
 MWSI.                      No:  Serv Intrp, MWD 
 OTIM.hr                242.76:  Time Operating 
 PCON.           Look Like New:  Pad Condition 
 PMAX.psia            12183.92:  Press Op, Max 
 PV  .cP                 27.00:  Mud PV 
 RUN .                    1300:  Run Number 
 ROPA.m/hr               15.00:  ROP Avg 
 ROPN.m/hr                9.00:  ROP Min 
 ROPX.m/hr               19.00:  ROP Max 
 RPMA.rpm               120.00:  RPM Surface Avg 
 RPMN.rpm               100.00:  RPM Surface Min 
 RPMX.rpm               120.00:  RPM Surface Max 
 RRUN.                    1300:  Rig Run Number 
 RTIM.hr                  5.00:  Time Reaming 
 SAZI.deg               304.73:  Azm, Start 
 SDEP.m                4412.01:  Start Depth 
 SIDD.                      No:  Serv Intrp, DD 
 SINC.deg                66.82:  Inc, Start 
 SPPA.psig             2800.00:  SPP Avg 
 SPPN.psig             2610.00:  SPP Min 
 SPPX.psig             3100.00:  SPP Max 
 STIM.      03.30.00 04-May-21:  Start Time 
 SVCS.                 DD, MWD:  Services 
 SVER.                    9.20:  Sperry Version 
 TDAT.m                 228.00:  Tot Depth Attmp 
 TDDF.                      No:  Trip for DD 
 TDLG.m                 228.00:  Tot Depth Loggd 
 TFF .                      No:  Trip for Fail 
 TQAA.f-kp               15.00:  Torque Abs Avg 
 TQAN.f-kp               12.00:  Torque Abs Min 
 TQAX.f-kp               22.00:  Torque Abs Max 
 TRRT.°/30m               0.00:  Turn Rotating 
 MRT .                    HCIM:  Maximum Recorded Temperature 
 TTMX.degC               90.20:  Max Tool Temp 
 VS01.                90627813:  Virtual Str1 SN 
 VS02.                90634712:  Virtual Str2 SN 
 VS03.                90643410:  Virtual Str3 SN 
 VS04.                90634712:  Virtual Str4 SN 
 WBMN.klb                 9.00:  WOB Min 
 WITN.        Elmaddin Rahimov:  Customer Rep 
 WITN.         Haytham Mostafa:  Customer Rep 2 
 WOBA.klb                15.00:  WOB Avg 
 WOBX.klb                23.00:  WOB Max 
 YP  .lhf2               29.00:  Yield Point 
~Curve Information Block
#MNEM.UNIT                 API CODE     Curve Description
#---------               -----------    ---------------------------
 TIME.HHMMSS            00 000 000 000:  GT Time & Date
 GTDEPTH.m              00 000 000 000:  GT Depth
 GTPQH.psia             00 000 000 000:  GT HR Quartz Pressure
 GTTQ.degC              00 000 000 000:  GT Quartz Temperature
 GTTN.NONE              00 000 000 000:  GT Test Number
 GTET.sec               00 000 000 000:  GT Elapsed Test Time
 GTTVD.m                00 000 000 000:  GT True Vertical Depth
#Other Information
#
#WARRANTY: Halliburton will use its best efforts to furnish customers with 
#accurate information and interpretations that are part of, and incident to, the services 
#provided.  However, Halliburton cannot and does not warrant the accuracy 
#or correctness of such information and interpretations.  Under no circumstances should any 
#such information or interpretation be relied upon as the sole basis for any drilling, 
#completion, production, or financial decision or any procedure involving any risk to the 
#safety of any drilling venture, drilling rig or its crew or any other third party.  The 
#Customer has full responsibility for all drilling, completion and production operation.  
#Halliburton makes no representations or warranties, either expressed or 
#implied, including, but not limited to, the implied warranties of merchantability or fitness 
#for a particular purpose, with respect to the services rendered.  In no event will 
#Halliburton be liable for failure to obtain any particular results or for 
#any damages, including, but not limited to, indirect, special or consequential damages, 
#resulting from the use of any information or interpretation provided by Halliburton.
#
~A           TIME           GTDEPTH  GTPQH  GTTQ  GTTN   GTET   GTTVD  
# ...
   01:40:59.593.09-May-2021 4502.51  631.57 67.48 10.00 158.26 2973.10
   01:40:59.793.09-May-2021 4502.51  633.22 67.48 10.00 158.46 2973.10
   01:40:59.993.09-May-2021 4502.51  633.86 67.48 10.00 158.66 2973.10
   01:41:00.193.09-May-2021 4502.51  634.50 67.48 10.00 158.86 2973.10
   01:41:00.393.09-May-2021 4502.51  634.98 67.48 10.00 159.06 2973.10
   01:41:00.593.09-May-2021 4502.51  634.98 67.48 10.00 159.26 2973.10
   01:41:00.793.09-May-2021 4502.51  636.88 67.48 10.00 159.46 2973.10
   01:41:00.993.09-May-2021 4502.51  637.73 67.48 10.00 159.66 2973.10
   01:41:01.193.09-May-2021 4502.51  638.21 67.48 10.00 159.86 2973.10
   01:41:01.393.09-May-2021 4502.51  638.89 67.48 10.00 160.06 2973.10
   01:41:01.594.09-May-2021 4502.51  638.89 67.48 10.00 160.26 2973.10
   01:41:01.794.09-May-2021 4502.51  640.08 67.48 10.00 160.46 2973.10
   01:41:01.994.09-May-2021 4502.51  640.60 67.48 10.00 160.66 2973.10
   01:41:02.194.09-May-2021 4502.51  641.16 67.48 10.00 160.86 2973.10
   01:41:02.394.09-May-2021 4502.51  641.80 67.48 10.00 161.06 2973.10
   01:41:02.594.09-May-2021 4502.51  641.80 67.48 10.00 161.26 2973.10
   01:41:02.794.09-May-2021 4502.51  643.00 67.48 10.00 161.46 2973.10
   01:41:02.994.09-May-2021 4502.51  642.86 67.48 10.00 161.66 2973.10
   01:41:03.194.09-May-2021 4502.51  643.55 67.48 10.00 161.86 2973.10
   01:41:03.394.09-May-2021 4502.51  643.99 67.48 10.00 162.06 2973.10
   01:41:03.594.09-May-2021 4502.51  643.99 67.48 10.00 162.26 2973.10
   01:41:03.794.09-May-2021 4502.51  644.55 67.48 10.00 162.46 2973.10
   01:41:03.994.09-May-2021 4502.51  645.37 67.48 10.00 162.66 2973.10
   01:41:04.194.09-May-2021 4502.51  645.75 67.48 10.00 162.86 2973.10
   01:41:04.395.09-May-2021 4502.51  646.12 67.48 10.00 163.06 2973.10
   01:41:04.595.09-May-2021 4502.51  646.12 67.48 10.00 163.26 2973.10
   01:41:04.795.09-May-2021 4502.51  646.84 67.48 10.00 163.46 2973.10
   01:41:04.995.09-May-2021 4502.51  647.34 67.48 10.00 163.66 2973.10
   01:41:05.195.09-May-2021 4502.51  647.67 67.48 10.00 163.86 2973.10
   01:41:05.395.09-May-2021 4502.51  648.39 67.48 10.00 164.06 2973.10
   01:41:05.595.09-May-2021 4502.51  648.39 67.48 10.00 164.26 2973.10
   01:41:05.795.09-May-2021 4502.51  648.79 67.48 10.00 164.46 2973.10
   01:41:05.995.09-May-2021 4502.51  649.32 67.48 10.00 164.66 2973.10
   01:41:06.195.09-May-2021 4502.51  649.78 67.48 10.00 164.86 2973.10
   01:41:06.395.09-May-2021 4502.51  650.07 67.48 10.00 165.06 2973.10
   01:41:06.595.09-May-2021 4502.51  650.07 67.48 10.00 165.26 2973.10
   01:41:06.795.09-May-2021 4502.51  651.12 67.48 10.00 165.46 2973.10
   01:41:06.996.09-May-2021 4502.51  651.58 67.48 10.00 165.66 2973.10
   01:41:07.196.09-May-2021 4502.51  652.06 67.48 10.00 165.86 2973.10
   01:41:07.396.09-May-2021 4502.51  652.53 67.48 10.00 166.06 2973.10
   01:41:07.596.09-May-2021 4502.51  652.53 67.48 10.00 166.26 2973.10
   01:41:07.796.09-May-2021 4502.51  653.44 67.48 10.00 166.46 2973.10
   01:41:07.996.09-May-2021 4502.51  653.84 67.48 10.00 166.66 2973.10
   01:41:08.196.09-May-2021 4502.51  653.94 67.48 10.00 166.86 2973.10
   01:41:08.396.09-May-2021 4502.51  654.37 67.48 10.00 167.06 2973.10
   01:41:08.596.09-May-2021 4502.51  654.37 67.48 10.00 167.26 2973.10
   01:41:08.796.09-May-2021 4502.51  655.13 67.48 10.00 167.46 2973.10
   01:41:08.996.09-May-2021 4502.51  655.27 67.48 10.00 167.66 2973.10
   01:41:09.196.09-May-2021 4502.51  655.75 67.48 10.00 167.86 2973.10
   01:41:09.396.09-May-2021 4502.51  656.13 67.48 10.00 168.06 2973.10
   01:41:09.596.09-May-2021 4502.51  656.13 67.48 10.00 168.26 2973.10
   01:41:09.797.09-May-2021 4502.51  656.96 67.48 10.00 168.46 2973.10
   01:41:09.997.09-May-2021 4502.51  657.33 67.48 10.00 168.66 2973.10
   01:41:10.197.09-May-2021 4502.51  657.76 67.48 10.00 168.86 2973.10
   01:41:10.397.09-May-2021 4502.51  658.14 67.48 10.00 169.06 2973.10
   01:41:10.597.09-May-2021 4502.51  658.14 67.48 10.00 169.26 2973.10
   01:41:10.797.09-May-2021 4502.51  658.43 67.48 10.00 169.46 2973.10
   01:41:10.997.09-May-2021 4502.51  658.93 67.48 10.00 169.66 2973.10
   01:41:11.197.09-May-2021 4502.51  659.00 67.48 10.00 169.86 2973.10
   01:41:11.397.09-May-2021 4502.51  659.42 67.48 10.00 170.06 2973.10
   01:41:11.597.09-May-2021 4502.51  659.42 67.48 10.00 170.26 2973.10
   01:41:11.797.09-May-2021 4502.51  660.14 67.48 10.00 170.46 2973.10
   01:41:11.997.09-May-2021 4502.51  660.06 67.48 10.00 170.66 2973.10
   01:41:12.197.09-May-2021 4502.51  660.69 67.48 10.00 170.86 2973.10
   01:41:12.397.09-May-2021 4502.51  660.85 67.48 10.00 171.06 2973.10
   01:41:12.598.09-May-2021 4502.51  660.85 67.48 10.00 171.26 2973.10
   01:41:12.798.09-May-2021 4502.51  661.12 67.48 10.00 171.46 2973.10
   01:41:12.998.09-May-2021 4502.51  661.80 67.48 10.00 171.66 2973.10
   01:41:13.198.09-May-2021 4502.51  661.82 67.48 10.00 171.86 2973.10
   01:41:13.398.09-May-2021 4502.51  662.43 67.48 10.00 172.06 2973.10
   01:41:13.598.09-May-2021 4502.51  662.43 67.48 10.00 172.26 2973.10
   01:41:13.798.09-May-2021 4502.51  662.97 67.48 10.00 172.46 2973.10
   01:41:13.998.09-May-2021 4502.51  662.76 67.48 10.00 172.66 2973.10
   01:41:14.198.09-May-2021 4502.51  663.44 67.48 10.00 172.86 2973.10
   01:41:14.398.09-May-2021 4502.51  663.56 67.48 10.00 173.06 2973.10
   01:41:14.598.09-May-2021 4502.51  663.56 67.48 10.00 173.26 2973.10
   01:41:14.798.09-May-2021 4502.51  664.33 67.48 10.00 173.46 2973.10
   01:41:14.998.09-May-2021 4502.51  664.59 67.48 10.00 173.66 2973.10
   01:41:15.198.09-May-2021 4502.51  664.99 67.48 10.00 173.86 2973.10
   01:41:15.399.09-May-2021 4502.51  665.29 67.48 10.00 174.06 2973.10
   01:41:15.599.09-May-2021 4502.51  665.29 67.48 10.00 174.26 2973.10
   01:41:15.799.09-May-2021 4502.51  666.01 67.48 10.00 174.46 2973.10
   01:41:15.999.09-May-2021 4502.51  666.39 67.48 10.00 174.66 2973.10
   01:41:16.199.09-May-2021 4502.51  667.04 67.48 10.00 174.86 2973.10
   01:41:16.399.09-May-2021 4502.51  667.30 67.48 10.00 175.06 2973.10
   01:41:16.599.09-May-2021 4502.51  667.30 67.48 10.00 175.26 2973.10
   01:41:16.799.09-May-2021 4502.51  667.79 67.48 10.00 175.46 2973.10
   01:41:16.999.09-May-2021 4502.51  667.98 67.48 10.00 175.66 2973.10
   01:41:17.199.09-May-2021 4502.51  668.15 67.48 10.00 175.86 2973.10
   01:41:17.399.09-May-2021 4502.51  668.57 67.48 10.00 176.06 2973.10
   01:41:17.599.09-May-2021 4502.51  668.57 67.48 10.00 176.26 2973.10
   01:41:17.799.09-May-2021 4502.51  669.18 67.48 10.00 176.46 2973.10
   01:41:18.000.09-May-2021 4502.51  669.47 67.48 10.00 176.66 2973.10
   01:41:18.200.09-May-2021 4502.51  669.82 67.48 10.00 176.86 2973.10
   01:41:18.400.09-May-2021 4502.51  670.14 67.48 10.00 177.06 2973.10
   01:41:18.600.09-May-2021 4502.51  670.14 67.48 10.00 177.26 2973.10
   01:41:18.800.09-May-2021 4502.51  670.80 67.48 10.00 177.46 2973.10
   01:41:19.000.09-May-2021 4502.51  670.65 67.48 10.00 177.66 2973.10
   01:41:19.200.09-May-2021 4502.51  671.09 67.48 10.00 177.86 2973.10
   01:41:19.400.09-May-2021 4502.51  671.24 67.48 10.00 178.06 2973.10
   01:41:19.600.09-May-2021 4502.51  671.24 67.48 10.00 178.26 2973.10
   01:41:19.800.09-May-2021 4502.51  671.74 67.48 10.00 178.46 2973.10
   01:41:20.000.09-May-2021 4502.51  671.86 67.48 10.00 178.66 2973.10
   01:41:20.200.09-May-2021 4502.51  671.93 67.48 10.00 178.86 2973.10
   01:41:20.400.09-May-2021 4502.51  672.47 67.48 10.00 179.06 2973.10
   01:41:20.600.09-May-2021 4502.51  672.47 67.48 10.00 179.26 2973.10
   01:41:20.801.09-May-2021 4502.51  672.37 67.48 10.00 179.47 2973.10
   01:41:21.001.09-May-2021 4502.51  673.16 67.48 10.00 179.67 2973.10
   01:41:21.201.09-May-2021 4502.51  673.07 67.48 10.00 179.87 2973.10
   01:41:21.401.09-May-2021 4502.51  673.04 67.48 10.00 180.07 2973.10
   01:41:21.601.09-May-2021 4502.51  673.04 67.48 10.00 180.27 2973.10
   01:41:21.801.09-May-2021 4502.51  698.92 67.48 10.00 180.47 2973.10
   01:41:22.001.09-May-2021 4502.51  699.42 67.48 10.00 180.67 2973.10
