~Version Information
 VERS.                  2.0:   CWLS log ASCII Standard -VERSION 2.0
 WRAP.                   NO:   One line per depth step
~Well Information Block
#MNEM.UNIT     VALUE/NAME     DESCRIPTION
#---------     -----------    ---------------------------
 STRT.S             23:15:39 08-May-21: START TIME 23:15:39 08-May-21
 STOP.S             23:22:30 08-May-21: STOP TIME  23:22:30 08-May-21
 STEP.S                   0.00: STEP TIME
 NULL.                 -999.25: NULL VALUE
 PROV.                    Baku:  PROVINCE
 STAT.                    Baku:  STATE NAME
 SON .        AZ-XX-0906571588:  JOB NUMBER
 WTYP.                Deviated:  WELL TYPE
 COMP.     BP Exploration (Caspian Sea) ltd:  COMPANY
 BASE.              Azerbaijan:  LOGGING EQUIPMENT BASE LOCATION
 REGN.                   EESSA:  REGION
 CTRY.              Azerbaijan:  COUNTRY NAME
 FLD .                     ACG:  FIELD NAME
 WELL.                     J28:  WELL NAME
 RIG .             West Chirag:  RIG NAME
 DMF .             Drill Floor:  DRILL MEAS FROM
 PDAT.       Caspian Sea Level:  PERMANENT DATUM
 HPTY.       Minimum Curvature:  HOLE POS TYPE
 MDS .        Operator Entered:  MAG DATA SOURCE
 NREF.                    Grid:  NORTH REFERENCE
 SRVC.          TURAN DRILLING:  CONTRACTOR
 JOBN.        AZ-XX-0906571588:  JOB TICKET NUMB
 DCON.     Halliburton Sperry Drilling:  DIRECTNL CONTR
 STIM.      00.44.00 11-Feb-21:  START TIME
 DATE.      00.00.00 05-May-21:  END TIME
 SPUD.               13-Feb-21:  SPUD DATE
 MWDS.                    Baku:  MWD SHOP
 DOE .                     N/A:  DOE NUMBER
 UNIT.                     N/A:  LOGGING EQUIPMENT ID
 UWI .                     N/A:  UNIQUE WELL IDENTIFIER
 API .                     N/A:  API NUMBER
 CNTY.                        :  COUNTY
 LOC .                        :  LOCATION
 LMF .             Drill Floor:  LOG MEASURED FROM
 TVDS.m                  43.00:  TVDSS CORRECTN
 SDEP.m                 341.00:  START DEPTH
 EGL .m                   0.00:  GROUND ELEVATION
 WDMS.m                 169.80:  WD ELEV
 AGAP.m                  43.00:  AIR GAP
 EPD .m                   0.00:  ELEVATION
 APD .m                  43.00:  DEPTH ABOVE PD
 LATI.deg                40.13:  LATITUDE
 LONG.deg                51.22:  LONGITUDE
 UTMY.m             4443793.85:  UTM Y
 UTMX.m              519005.06:  UTM X
 WHEW.m                 -11.57:  WELL HEAD E/W
 WHNS.m                   8.57:  WELL HEAD N/S
 VSEW.m                 -11.57:  VERT SEC E/W
 VSNS.m                   8.57:  VERT SEC N/S
 DFWL.m                   0.00:  DISTANCE FWL
 DFSL.m                   0.00:  DISTANCE FSL
 VSDR.deg               299.34:  VERT SEC DIRECT
 GVFD.g                   1.00:  GRAVITY FIELD
 AZTC.deg                 6.36:  AZM TOTAL CORR
 MFLD.nT              50391.00:  MAGNETIC FIELD
 MDIP.deg                59.65:  MAGNETIC DIP
 MDEC.deg                 6.48:  MAGNETIC DECL
 GRDC.deg                 0.12:  GRID CORRECTION
 DEP .m                 334.96:  DEPTH
 TDD .m                1407.26:  TOTAL DEPTH (DRILLER)
 EKB .m                  43.00:  KB ELEVATION
 EDF .m                  43.00:  DF ELEVATION
 TDL .m                 228.00:  TOTAL DEPTH (LOGGER)
 VSC .                       0:  VS TO CLOSURE
 MAGU.                 1854484:  MAGUTM CHECKSUM
~Parameter Information Block
#MNEM.UNIT       Value        Description
#---------     -----------    ---------------------------
 AV  .mps                 4.00:  Ann Velocity 
 AVMX.mps                 4.73:  Max Ann Veloc 
 AZIF.deg               304.48:  Azm, Final 
 BHAT.        Rotary Steerable:  BHA Type 
 BREV.rev            257300.00:  Rev Bit Total 
 BROT.°/30m               0.00:  Build Rotating 
 BS  .in                  8.50:  Bit Size 
 BSZ .in                  8.50:  Bit Size 
 BTPL.psig              589.00:  Bit Press Loss 
 CABU.                      No:  Customer Abuse 
 CGEO.          Mubariz ghayev:  Customer Geo 
 COMM.                     dˆ[:  Run Comments 1 
 TCS .hr                 64.25:  Time Ciculation Ended 
 CV  .mps                 3.50:  Crit Velocity 
 CVMX.mps                 4.52:  Max Crit Veloc 
 DD1 .             Aziz Aliyev:  Direct Drillr 1 
 DD2 .         Intigam Rahimov:  Direct Drillr 2 
 DD3 .          Rashad Habibov:  Direct Drillr 3 
 DDSV.               Geo-Pilot:  DD Service 
 DEFF.%                  98.00:  % Det Eff 
 DLRX.°/30m               0.00:  Dogleg Rot Max 
 DLSO.°/30m               0.00:  Dogleg Oriented 
 DLSX.°/30m               0.00:  Dogleg Str Max 
 DRET.      10.45.04 08-May-21:  Drill End Time 
 DRST.      03.30.04 04-May-21:  Drill Start Tim 
 DTIM.hr                 14.97:  Time Drilling 
 EDEP.m                4640.01:  End Depth 
 ENG1.         Dail Mahammadov:  Engineer 1 
 ENG2.           Eldar Hajiyev:  Engineer 2 
 ENG3.       Bakhtiar Jabbarli:  Engineer 3 
 ENG4.       Natik Hasanagayev:  Engineer 4 
 ETIM.      09.30.04 14-May-21:  End Time 
 FLOI.gpm               460.00:  Flow In 
 FLON.gpm               200.00:  Flow In Min 
 FLOS.cptm                0.00:  Fluid Loss 
 FLOX.gpm               505.00:  Flow In Max 
 HFLO.                      No:  High Flow 
 HPRE.                      No:  High Pressure 
 HTEM.                      No:  High Temp 
 HYDO.m                   1.80:  Hydro Offset 
 IFIN.deg                66.71:  Inc, Final 
 IMAX.deg                67.03:  Inc Max 
 IMIN.deg                66.63:  Inc Min 
 IMND.m                4550.58:  Inc Min Depth 
 IMXD.m                4439.01:  Inc Max Depth 
 JARR.                      No:  Jarring 
 LETM.      10.45.04 08-May-21:  Log End Time 
 LOST.hr                     0:  Lost Rig Time 
 LSTM.      03.30.04 04-May-21:  Log Start Time 
 MDCL.ppm             37000.00:  Mud Chlorides 
 MDES.     Inversion Oil/Synthetic:  Mud Desc 
 DFD .sg                  1.38:  Mud Density 
 MDMN.sg                  1.35:  Dens Mud Min 
 MDMX.sg                  1.40:  Dens Mud Max 
 MOIL.                   57.40:  Run Mud Oil % 
 MOWR.                   70:30:  Run Mud OWR 
 MSND.                    0.00:  Run Mud Sand % 
 MSOL.                   18.00:  Run Mud Solids% 
 DFV .spqt               71.00:  Mud Viscosity 
 MWOD.in                  6.75:  MWD Tool OD 
 MWSI.                      No:  Serv Intrp, MWD 
 OTIM.hr                242.76:  Time Operating 
 PCON.           Look Like New:  Pad Condition 
 PMAX.psia            12183.92:  Press Op, Max 
 PV  .cP                 27.00:  Mud PV 
 RUN .                    1300:  Run Number 
 ROPA.m/hr               15.00:  ROP Avg 
 ROPN.m/hr                9.00:  ROP Min 
 ROPX.m/hr               19.00:  ROP Max 
 RPMA.rpm               120.00:  RPM Surface Avg 
 RPMN.rpm               100.00:  RPM Surface Min 
 RPMX.rpm               120.00:  RPM Surface Max 
 RRUN.                    1300:  Rig Run Number 
 RTIM.hr                  5.00:  Time Reaming 
 SAZI.deg               304.73:  Azm, Start 
 SDEP.m                4412.01:  Start Depth 
 SIDD.                      No:  Serv Intrp, DD 
 SINC.deg                66.82:  Inc, Start 
 SPPA.psig             2800.00:  SPP Avg 
 SPPN.psig             2610.00:  SPP Min 
 SPPX.psig             3100.00:  SPP Max 
 STIM.      03.30.00 04-May-21:  Start Time 
 SVCS.                 DD, MWD:  Services 
 SVER.                    9.20:  Sperry Version 
 TDAT.m                 228.00:  Tot Depth Attmp 
 TDDF.                      No:  Trip for DD 
 TDLG.m                 228.00:  Tot Depth Loggd 
 TFF .                      No:  Trip for Fail 
 TQAA.f-kp               15.00:  Torque Abs Avg 
 TQAN.f-kp               12.00:  Torque Abs Min 
 TQAX.f-kp               22.00:  Torque Abs Max 
 TRRT.°/30m               0.00:  Turn Rotating 
 MRT .                    HCIM:  Maximum Recorded Temperature 
 TTMX.degC               90.20:  Max Tool Temp 
 VS01.                90627813:  Virtual Str1 SN 
 VS02.                90634712:  Virtual Str2 SN 
 VS03.                90643410:  Virtual Str3 SN 
 VS04.                90634712:  Virtual Str4 SN 
 WBMN.klb                 9.00:  WOB Min 
 WITN.        Elmaddin Rahimov:  Customer Rep 
 WITN.         Haytham Mostafa:  Customer Rep 2 
 WOBA.klb                15.00:  WOB Avg 
 WOBX.klb                23.00:  WOB Max 
 YP  .lhf2               29.00:  Yield Point 
~Curve Information Block
#MNEM.UNIT                 API CODE     Curve Description
#---------               -----------    ---------------------------
 TIME.HHMMSS            00 000 000 000:  GT Time & Date
 GTDEPTH.m              00 000 000 000:  GT Depth
 GTPQH.psia             00 000 000 000:  GT HR Quartz Pressure
 GTTQ.degC              00 000 000 000:  GT Quartz Temperature
 GTTN.NONE              00 000 000 000:  GT Test Number
 GTET.sec               00 000 000 000:  GT Elapsed Test Time
 GTTVD.m                00 000 000 000:  GT True Vertical Depth
#Other Information
#
#WARRANTY: Halliburton will use its best efforts to furnish customers with 
#accurate information and interpretations that are part of, and incident to, the services 
#provided.  However, Halliburton cannot and does not warrant the accuracy 
#or correctness of such information and interpretations.  Under no circumstances should any 
#such information or interpretation be relied upon as the sole basis for any drilling, 
#completion, production, or financial decision or any procedure involving any risk to the 
#safety of any drilling venture, drilling rig or its crew or any other third party.  The 
#Customer has full responsibility for all drilling, completion and production operation.  
#Halliburton makes no representations or warranties, either expressed or 
#implied, including, but not limited to, the implied warranties of merchantability or fitness 
#for a particular purpose, with respect to the services rendered.  In no event will 
#Halliburton be liable for failure to obtain any particular results or for 
#any damages, including, but not limited to, indirect, special or consequential damages, 
#resulting from the use of any information or interpretation provided by Halliburton.
#
~A           TIME           GTDEPTH  GTPQH  GTTQ  GTTN  GTET   GTTVD  
# ...
   23:19:06.594.08-May-2021 4549.51 3248.71 68.56 5.00 206.94 2991.64
   23:19:06.794.08-May-2021 4549.51 3248.71 68.56 5.00 207.14 2991.64
   23:19:06.994.08-May-2021 4549.51 3248.71 68.56 5.00 207.34 2991.64
   23:19:07.194.08-May-2021 4549.51 3248.70 68.56 5.00 207.54 2991.64
   23:19:07.394.08-May-2021 4549.51 3248.70 68.56 5.00 207.74 2991.64
   23:19:07.594.08-May-2021 4549.51 3248.71 68.56 5.00 207.94 2991.64
   23:19:07.794.08-May-2021 4549.51 3248.71 68.56 5.00 208.14 2991.64
   23:19:07.993.08-May-2021 4549.51 3248.77 68.56 5.00 208.34 2991.64
   23:19:08.193.08-May-2021 4549.51 3248.67 68.56 5.00 208.54 2991.64
   23:19:08.393.08-May-2021 4549.51 3248.70 68.56 5.00 208.73 2991.64
   23:19:08.593.08-May-2021 4549.51 3248.67 68.56 5.00 208.93 2991.64
   23:19:08.793.08-May-2021 4549.51 3248.67 68.56 5.00 209.13 2991.64
   23:19:08.993.08-May-2021 4549.51 3248.68 68.56 5.00 209.33 2991.64
   23:19:09.193.08-May-2021 4549.51 3248.75 68.56 5.00 209.53 2991.64
   23:19:09.393.08-May-2021 4549.51 3248.68 68.56 5.00 209.73 2991.64
   23:19:09.593.08-May-2021 4549.51 3248.69 68.56 5.00 209.93 2991.64
   23:19:09.793.08-May-2021 4549.51 3248.69 68.56 5.00 210.13 2991.64
   23:19:09.993.08-May-2021 4549.51 3248.75 68.56 5.00 210.33 2991.64
   23:19:10.193.08-May-2021 4549.51 3248.67 68.56 5.00 210.53 2991.64
   23:19:10.393.08-May-2021 4549.51 3248.67 68.56 5.00 210.73 2991.64
   23:19:10.593.08-May-2021 4549.51 3248.75 68.56 5.00 210.93 2991.64
   23:19:10.793.08-May-2021 4549.51 3248.75 68.56 5.00 211.13 2991.64
   23:19:10.993.08-May-2021 4549.51 3248.68 68.56 5.00 211.33 2991.64
   23:19:11.192.08-May-2021 4549.51 3248.68 68.56 5.00 211.53 2991.64
   23:19:11.392.08-May-2021 4549.51 3248.69 68.56 5.00 211.73 2991.64
   23:19:11.592.08-May-2021 4549.51 3248.69 68.56 5.00 211.93 2991.64
   23:19:11.792.08-May-2021 4549.51 3248.69 68.56 5.00 212.13 2991.64
   23:19:11.992.08-May-2021 4549.51 3248.69 68.56 5.00 212.33 2991.64
   23:19:12.192.08-May-2021 4549.51 3248.69 68.56 5.00 212.53 2991.64
   23:19:12.392.08-May-2021 4549.51 3248.69 68.56 5.00 212.73 2991.64
   23:19:12.592.08-May-2021 4549.51 3248.68 68.56 5.00 212.93 2991.64
   23:19:12.792.08-May-2021 4549.51 3248.68 68.56 5.00 213.13 2991.64
   23:19:12.992.08-May-2021 4549.51 3248.67 68.56 5.00 213.33 2991.64
   23:19:13.192.08-May-2021 4549.51 3248.74 68.56 5.00 213.53 2991.64
   23:19:13.392.08-May-2021 4549.51 3248.67 68.56 5.00 213.73 2991.64
   23:19:13.592.08-May-2021 4549.51 3248.68 68.56 5.00 213.93 2991.64
   23:19:13.792.08-May-2021 4549.51 3248.68 68.56 5.00 214.13 2991.64
   23:19:13.992.08-May-2021 4549.51 3248.68 68.56 5.00 214.33 2991.64
   23:19:14.192.08-May-2021 4549.51 3248.69 68.56 5.00 214.53 2991.64
   23:19:14.391.08-May-2021 4549.51 3248.68 68.56 5.00 214.73 2991.64
   23:19:14.591.08-May-2021 4549.51 3248.67 68.56 5.00 214.93 2991.64
   23:19:14.791.08-May-2021 4549.51 3248.67 68.56 5.00 215.13 2991.64
   23:19:14.991.08-May-2021 4549.51 3248.68 68.56 5.00 215.33 2991.64
   23:19:15.191.08-May-2021 4549.51 3248.68 68.56 5.00 215.53 2991.64
   23:19:15.391.08-May-2021 4549.51 3248.67 68.56 5.00 215.73 2991.64
   23:19:15.591.08-May-2021 4549.51 3248.66 68.56 5.00 215.93 2991.64
   23:19:15.791.08-May-2021 4549.51 3248.66 68.56 5.00 216.13 2991.64
   23:19:15.991.08-May-2021 4549.51 3248.65 68.56 5.00 216.33 2991.64
   23:19:16.191.08-May-2021 4549.51 3248.67 68.56 5.00 216.53 2991.64
   23:19:16.391.08-May-2021 4549.51 3248.67 68.56 5.00 216.73 2991.64
   23:19:16.591.08-May-2021 4549.51 3248.67 68.56 5.00 216.93 2991.64
   23:19:16.791.08-May-2021 4549.51 3248.67 68.56 5.00 217.13 2991.64
   23:19:16.991.08-May-2021 4549.51 3248.69 68.56 5.00 217.33 2991.64
   23:19:17.191.08-May-2021 4549.51 3248.68 68.56 5.00 217.53 2991.64
   23:19:17.391.08-May-2021 4549.51 3248.58 68.56 5.00 217.73 2991.64
   23:19:17.590.08-May-2021 4549.51 3248.75 68.56 5.00 217.93 2991.64
   23:19:17.790.08-May-2021 4549.51 3248.75 68.56 5.00 218.13 2991.64
   23:19:17.990.08-May-2021 4549.51 3248.67 68.56 5.00 218.33 2991.64
   23:19:18.190.08-May-2021 4549.51 3248.67 68.56 5.00 218.53 2991.64
   23:19:18.390.08-May-2021 4549.51 3248.68 68.56 5.00 218.73 2991.64
   23:19:18.590.08-May-2021 4549.51 3248.69 68.56 5.00 218.93 2991.64
   23:19:18.790.08-May-2021 4549.51 3248.69 68.56 5.00 219.13 2991.64
   23:19:18.990.08-May-2021 4549.51 3248.66 68.56 5.00 219.33 2991.64
   23:19:19.190.08-May-2021 4549.51 3248.67 68.56 5.00 219.53 2991.64
   23:19:19.390.08-May-2021 4549.51 3248.67 68.56 5.00 219.73 2991.64
   23:19:19.590.08-May-2021 4549.51 3248.66 68.56 5.00 219.93 2991.64
   23:19:19.790.08-May-2021 4549.51 3248.66 68.56 5.00 220.13 2991.64
   23:19:19.990.08-May-2021 4549.51 3248.67 68.56 5.00 220.33 2991.64
   23:19:20.190.08-May-2021 4549.51 3248.67 68.56 5.00 220.53 2991.64
   23:19:20.390.08-May-2021 4549.51 3248.66 68.56 5.00 220.73 2991.64
   23:19:20.590.08-May-2021 4549.51 3248.66 68.56 5.00 220.93 2991.64
   23:19:20.789.08-May-2021 4549.51 3248.66 68.56 5.00 221.13 2991.64
   23:19:20.989.08-May-2021 4549.51 3248.69 68.56 5.00 221.33 2991.64
   23:19:21.189.08-May-2021 4549.51 3248.67 68.56 5.00 221.53 2991.64
   23:19:21.389.08-May-2021 4549.51 3248.65 68.56 5.00 221.73 2991.64
   23:19:21.589.08-May-2021 4549.51 3248.65 68.56 5.00 221.93 2991.64
   23:19:21.789.08-May-2021 4549.51 3248.65 68.56 5.00 222.13 2991.64
   23:19:21.989.08-May-2021 4549.51 3248.65 68.56 5.00 222.33 2991.64
   23:19:22.189.08-May-2021 4549.51 3248.66 68.56 5.00 222.53 2991.64
   23:19:22.389.08-May-2021 4549.51 3248.65 68.56 5.00 222.73 2991.64
   23:19:22.589.08-May-2021 4549.51 3248.65 68.56 5.00 222.93 2991.64
   23:19:22.789.08-May-2021 4549.51 3248.65 68.56 5.00 223.13 2991.64
   23:19:22.989.08-May-2021 4549.51 3248.65 68.56 5.00 223.33 2991.64
   23:19:23.189.08-May-2021 4549.51 3248.66 68.56 5.00 223.53 2991.64
   23:19:23.389.08-May-2021 4549.51 3248.65 68.56 5.00 223.73 2991.64
   23:19:23.589.08-May-2021 4549.51 3248.68 68.56 5.00 223.93 2991.64
   23:19:23.789.08-May-2021 4549.51 3248.68 68.56 5.00 224.13 2991.64
   23:19:23.988.08-May-2021 4549.51 3248.64 68.56 5.00 224.33 2991.64
   23:19:24.188.08-May-2021 4549.51 3248.65 68.56 5.00 224.53 2991.64
   23:19:24.388.08-May-2021 4549.51 3248.64 68.56 5.00 224.73 2991.64
   23:19:24.588.08-May-2021 4549.51 3248.72 68.56 5.00 224.93 2991.64
   23:19:24.788.08-May-2021 4549.51 3248.72 68.56 5.00 225.13 2991.64
   23:19:24.988.08-May-2021 4549.51 3248.65 68.56 5.00 225.33 2991.64
   23:19:25.188.08-May-2021 4549.51 3248.73 68.56 5.00 225.53 2991.64
   23:19:25.388.08-May-2021 4549.51 3248.61 68.56 5.00 225.73 2991.64
   23:19:25.588.08-May-2021 4549.51 3248.65 68.56 5.00 225.93 2991.64
   23:19:25.788.08-May-2021 4549.51 3248.65 68.56 5.00 226.13 2991.64
   23:19:25.988.08-May-2021 4549.51 3248.71 68.56 5.00 226.33 2991.64
   23:19:26.188.08-May-2021 4549.51 3248.62 68.56 5.00 226.53 2991.64
   23:19:26.388.08-May-2021 4549.51 3248.63 68.56 5.00 226.73 2991.64
   23:19:26.588.08-May-2021 4549.51 3248.66 68.56 5.00 226.93 2991.64
   23:19:26.788.08-May-2021 4549.51 3248.66 68.56 5.00 227.13 2991.64
   23:19:26.988.08-May-2021 4549.51 3248.64 68.56 5.00 227.33 2991.64
   23:19:27.187.08-May-2021 4549.51 3248.65 68.56 5.00 227.53 2991.64
   23:19:27.387.08-May-2021 4549.51 3248.65 68.56 5.00 227.73 2991.64
   23:19:27.587.08-May-2021 4549.51 3248.64 68.56 5.00 227.93 2991.64
   23:19:27.787.08-May-2021 4549.51 3248.64 68.56 5.00 228.13 2991.64
   23:19:27.987.08-May-2021 4549.51 3248.65 68.56 5.00 228.33 2991.64
   23:19:28.187.08-May-2021 4549.51 3248.64 68.56 5.00 228.53 2991.64
   23:19:28.387.08-May-2021 4549.51 3248.64 68.56 5.00 228.73 2991.64
   23:19:28.587.08-May-2021 4549.51 3248.71 68.56 5.00 228.93 2991.64
   23:19:28.787.08-May-2021 4549.51 3248.71 68.56 5.00 229.13 2991.64
   23:19:28.987.08-May-2021 4549.51 3248.64 68.56 5.00 229.33 2991.64
   23:19:29.187.08-May-2021 4549.51 3248.66 68.56 5.00 229.53 2991.64
   23:19:29.387.08-May-2021 4549.51 3248.64 68.56 5.00 229.73 2991.64
