~Version Information
 VERS.                  2.0:   CWLS log ASCII Standard -VERSION 2.0
 WRAP.                   NO:   One line per depth step
~Well Information Block
#MNEM.UNIT     VALUE/NAME     DESCRIPTION
#---------     -----------    ---------------------------
 STRT.S             23:15:39 08-May-21: START TIME 23:15:39 08-May-21
 STOP.S             23:22:30 08-May-21: STOP TIME  23:22:30 08-May-21
 STEP.S                   0.00: STEP TIME
 NULL.                 -999.25: NULL VALUE
 PROV.                    Baku:  PROVINCE
 STAT.                    Baku:  STATE NAME
 SON .        AZ-XX-0906571588:  JOB NUMBER
 WTYP.                Deviated:  WELL TYPE
 COMP.     BP Exploration (Caspian Sea) ltd:  COMPANY
 BASE.              Azerbaijan:  LOGGING EQUIPMENT BASE LOCATION
 REGN.                   EESSA:  REGION
 CTRY.              Azerbaijan:  COUNTRY NAME
 FLD .                     ACG:  FIELD NAME
 WELL.                     J28:  WELL NAME
 RIG .             West Chirag:  RIG NAME
 DMF .             Drill Floor:  DRILL MEAS FROM
 PDAT.       Caspian Sea Level:  PERMANENT DATUM
 HPTY.       Minimum Curvature:  HOLE POS TYPE
 MDS .        Operator Entered:  MAG DATA SOURCE
 NREF.                    Grid:  NORTH REFERENCE
 SRVC.          TURAN DRILLING:  CONTRACTOR
 JOBN.        AZ-XX-0906571588:  JOB TICKET NUMB
 DCON.     Halliburton Sperry Drilling:  DIRECTNL CONTR
 STIM.      00.44.00 11-Feb-21:  START TIME
 DATE.      00.00.00 05-May-21:  END TIME
 SPUD.               13-Feb-21:  SPUD DATE
 MWDS.                    Baku:  MWD SHOP
 DOE .                     N/A:  DOE NUMBER
 UNIT.                     N/A:  LOGGING EQUIPMENT ID
 UWI .                     N/A:  UNIQUE WELL IDENTIFIER
 API .                     N/A:  API NUMBER
 CNTY.                        :  COUNTY
 LOC .                        :  LOCATION
 LMF .             Drill Floor:  LOG MEASURED FROM
 TVDS.m                  43.00:  TVDSS CORRECTN
 SDEP.m                 341.00:  START DEPTH
 EGL .m                   0.00:  GROUND ELEVATION
 WDMS.m                 169.80:  WD ELEV
 AGAP.m                  43.00:  AIR GAP
 EPD .m                   0.00:  ELEVATION
 APD .m                  43.00:  DEPTH ABOVE PD
 LATI.deg                40.13:  LATITUDE
 LONG.deg                51.22:  LONGITUDE
 UTMY.m             4443793.85:  UTM Y
 UTMX.m              519005.06:  UTM X
 WHEW.m                 -11.57:  WELL HEAD E/W
 WHNS.m                   8.57:  WELL HEAD N/S
 VSEW.m                 -11.57:  VERT SEC E/W
 VSNS.m                   8.57:  VERT SEC N/S
 DFWL.m                   0.00:  DISTANCE FWL
 DFSL.m                   0.00:  DISTANCE FSL
 VSDR.deg               299.34:  VERT SEC DIRECT
 GVFD.g                   1.00:  GRAVITY FIELD
 AZTC.deg                 6.36:  AZM TOTAL CORR
 MFLD.nT              50391.00:  MAGNETIC FIELD
 MDIP.deg                59.65:  MAGNETIC DIP
 MDEC.deg                 6.48:  MAGNETIC DECL
 GRDC.deg                 0.12:  GRID CORRECTION
 DEP .m                 334.96:  DEPTH
 TDD .m                1407.26:  TOTAL DEPTH (DRILLER)
 EKB .m                  43.00:  KB ELEVATION
 EDF .m                  43.00:  DF ELEVATION
 TDL .m                 228.00:  TOTAL DEPTH (LOGGER)
 VSC .                       0:  VS TO CLOSURE
 MAGU.                 1854484:  MAGUTM CHECKSUM
~Parameter Information Block
#MNEM.UNIT       Value        Description
#---------     -----------    ---------------------------
 AV  .mps                 4.00:  Ann Velocity 
 AVMX.mps                 4.73:  Max Ann Veloc 
 AZIF.deg               304.48:  Azm, Final 
 BHAT.        Rotary Steerable:  BHA Type 
 BREV.rev            257300.00:  Rev Bit Total 
 BROT.°/30m               0.00:  Build Rotating 
 BS  .in                  8.50:  Bit Size 
 BSZ .in                  8.50:  Bit Size 
 BTPL.psig              589.00:  Bit Press Loss 
 CABU.                      No:  Customer Abuse 
 CGEO.          Mubariz ghayev:  Customer Geo 
 COMM.                     dˆ[:  Run Comments 1 
 TCS .hr                 64.25:  Time Ciculation Ended 
 CV  .mps                 3.50:  Crit Velocity 
 CVMX.mps                 4.52:  Max Crit Veloc 
 DD1 .             Aziz Aliyev:  Direct Drillr 1 
 DD2 .         Intigam Rahimov:  Direct Drillr 2 
 DD3 .          Rashad Habibov:  Direct Drillr 3 
 DDSV.               Geo-Pilot:  DD Service 
 DEFF.%                  98.00:  % Det Eff 
 DLRX.°/30m               0.00:  Dogleg Rot Max 
 DLSO.°/30m               0.00:  Dogleg Oriented 
 DLSX.°/30m               0.00:  Dogleg Str Max 
 DRET.      10.45.04 08-May-21:  Drill End Time 
 DRST.      03.30.04 04-May-21:  Drill Start Tim 
 DTIM.hr                 14.97:  Time Drilling 
 EDEP.m                4640.01:  End Depth 
 ENG1.         Dail Mahammadov:  Engineer 1 
 ENG2.           Eldar Hajiyev:  Engineer 2 
 ENG3.       Bakhtiar Jabbarli:  Engineer 3 
 ENG4.       Natik Hasanagayev:  Engineer 4 
 ETIM.      09.30.04 14-May-21:  End Time 
 FLOI.gpm               460.00:  Flow In 
 FLON.gpm               200.00:  Flow In Min 
 FLOS.cptm                0.00:  Fluid Loss 
 FLOX.gpm               505.00:  Flow In Max 
 HFLO.                      No:  High Flow 
 HPRE.                      No:  High Pressure 
 HTEM.                      No:  High Temp 
 HYDO.m                   1.80:  Hydro Offset 
 IFIN.deg                66.71:  Inc, Final 
 IMAX.deg                67.03:  Inc Max 
 IMIN.deg                66.63:  Inc Min 
 IMND.m                4550.58:  Inc Min Depth 
 IMXD.m                4439.01:  Inc Max Depth 
 JARR.                      No:  Jarring 
 LETM.      10.45.04 08-May-21:  Log End Time 
 LOST.hr                     0:  Lost Rig Time 
 LSTM.      03.30.04 04-May-21:  Log Start Time 
 MDCL.ppm             37000.00:  Mud Chlorides 
 MDES.     Inversion Oil/Synthetic:  Mud Desc 
 DFD .sg                  1.38:  Mud Density 
 MDMN.sg                  1.35:  Dens Mud Min 
 MDMX.sg                  1.40:  Dens Mud Max 
 MOIL.                   57.40:  Run Mud Oil % 
 MOWR.                   70:30:  Run Mud OWR 
 MSND.                    0.00:  Run Mud Sand % 
 MSOL.                   18.00:  Run Mud Solids% 
 DFV .spqt               71.00:  Mud Viscosity 
 MWOD.in                  6.75:  MWD Tool OD 
 MWSI.                      No:  Serv Intrp, MWD 
 OTIM.hr                242.76:  Time Operating 
 PCON.           Look Like New:  Pad Condition 
 PMAX.psia            12183.92:  Press Op, Max 
 PV  .cP                 27.00:  Mud PV 
 RUN .                    1300:  Run Number 
 ROPA.m/hr               15.00:  ROP Avg 
 ROPN.m/hr                9.00:  ROP Min 
 ROPX.m/hr               19.00:  ROP Max 
 RPMA.rpm               120.00:  RPM Surface Avg 
 RPMN.rpm               100.00:  RPM Surface Min 
 RPMX.rpm               120.00:  RPM Surface Max 
 RRUN.                    1300:  Rig Run Number 
 RTIM.hr                  5.00:  Time Reaming 
 SAZI.deg               304.73:  Azm, Start 
 SDEP.m                4412.01:  Start Depth 
 SIDD.                      No:  Serv Intrp, DD 
 SINC.deg                66.82:  Inc, Start 
 SPPA.psig             2800.00:  SPP Avg 
 SPPN.psig             2610.00:  SPP Min 
 SPPX.psig             3100.00:  SPP Max 
 STIM.      03.30.00 04-May-21:  Start Time 
 SVCS.                 DD, MWD:  Services 
 SVER.                    9.20:  Sperry Version 
 TDAT.m                 228.00:  Tot Depth Attmp 
 TDDF.                      No:  Trip for DD 
 TDLG.m                 228.00:  Tot Depth Loggd 
 TFF .                      No:  Trip for Fail 
 TQAA.f-kp               15.00:  Torque Abs Avg 
 TQAN.f-kp               12.00:  Torque Abs Min 
 TQAX.f-kp               22.00:  Torque Abs Max 
 TRRT.°/30m               0.00:  Turn Rotating 
 MRT .                    HCIM:  Maximum Recorded Temperature 
 TTMX.degC               90.20:  Max Tool Temp 
 VS01.                90627813:  Virtual Str1 SN 
 VS02.                90634712:  Virtual Str2 SN 
 VS03.                90643410:  Virtual Str3 SN 
 VS04.                90634712:  Virtual Str4 SN 
 WBMN.klb                 9.00:  WOB Min 
 WITN.        Elmaddin Rahimov:  Customer Rep 
 WITN.         Haytham Mostafa:  Customer Rep 2 
 WOBA.klb                15.00:  WOB Avg 
 WOBX.klb                23.00:  WOB Max 
 YP  .lhf2               29.00:  Yield Point 
~Curve Information Block
#MNEM.UNIT                 API CODE     Curve Description
#---------               -----------    ---------------------------
 TIME.HHMMSS            00 000 000 000:  GT Time & Date
 GTDEPTH.m              00 000 000 000:  GT Depth
 GTPQH.psia             00 000 000 000:  GT HR Quartz Pressure
 GTTQ.degC              00 000 000 000:  GT Quartz Temperature
 GTTN.NONE              00 000 000 000:  GT Test Number
 GTET.sec               00 000 000 000:  GT Elapsed Test Time
 GTTVD.m                00 000 000 000:  GT True Vertical Depth
#Other Information
#
#WARRANTY: Halliburton will use its best efforts to furnish customers with 
#accurate information and interpretations that are part of, and incident to, the services 
#provided.  However, Halliburton cannot and does not warrant the accuracy 
#or correctness of such information and interpretations.  Under no circumstances should any 
#such information or interpretation be relied upon as the sole basis for any drilling, 
#completion, production, or financial decision or any procedure involving any risk to the 
#safety of any drilling venture, drilling rig or its crew or any other third party.  The 
#Customer has full responsibility for all drilling, completion and production operation.  
#Halliburton makes no representations or warranties, either expressed or 
#implied, including, but not limited to, the implied warranties of merchantability or fitness 
#for a particular purpose, with respect to the services rendered.  In no event will 
#Halliburton be liable for failure to obtain any particular results or for 
#any damages, including, but not limited to, indirect, special or consequential damages, 
#resulting from the use of any information or interpretation provided by Halliburton.
#
~A           TIME           GTDEPTH  GTPQH  GTTQ  GTTN  GTET   GTTVD  
# ...
   23:19:52.580.08-May-2021 4549.51 3248.60 68.55 5.00 252.92 2991.64
   23:19:52.780.08-May-2021 4549.51 3248.60 68.55 5.00 253.12 2991.64
   23:19:52.979.08-May-2021 4549.51 3248.60 68.55 5.00 253.32 2991.64
   23:19:53.179.08-May-2021 4549.51 3248.60 68.55 5.00 253.52 2991.64
   23:19:53.379.08-May-2021 4549.51 3248.61 68.55 5.00 253.72 2991.64
   23:19:53.579.08-May-2021 4549.51 3248.60 68.55 5.00 253.92 2991.64
   23:19:53.779.08-May-2021 4549.51 3248.60 68.55 5.00 254.12 2991.64
   23:19:53.979.08-May-2021 4549.51 3248.59 68.55 5.00 254.32 2991.64
   23:19:54.179.08-May-2021 4549.51 3248.66 68.55 5.00 254.52 2991.64
   23:19:54.379.08-May-2021 4549.51 3248.59 68.55 5.00 254.72 2991.64
   23:19:54.579.08-May-2021 4549.51 3248.59 68.55 5.00 254.92 2991.64
   23:19:54.779.08-May-2021 4549.51 3248.59 68.55 5.00 255.12 2991.64
   23:19:54.979.08-May-2021 4549.51 3248.60 68.55 5.00 255.32 2991.64
   23:19:55.179.08-May-2021 4549.51 3248.59 68.55 5.00 255.52 2991.64
   23:19:55.379.08-May-2021 4549.51 3248.64 68.55 5.00 255.72 2991.64
   23:19:55.579.08-May-2021 4549.51 3248.61 68.55 5.00 255.92 2991.64
   23:19:55.779.08-May-2021 4549.51 3248.61 68.55 5.00 256.12 2991.64
   23:19:55.979.08-May-2021 4549.51 3248.68 68.55 5.00 256.32 2991.64
   23:19:56.178.08-May-2021 4549.51 3248.59 68.55 5.00 256.52 2991.64
   23:19:56.378.08-May-2021 4549.51 3248.61 68.55 5.00 256.72 2991.64
   23:19:56.578.08-May-2021 4549.51 3248.60 68.55 5.00 256.92 2991.64
   23:19:56.778.08-May-2021 4549.51 3248.60 68.55 5.00 257.12 2991.64
   23:19:56.978.08-May-2021 4549.51 3091.03 68.55 5.00 257.32 2991.64
   23:19:57.178.08-May-2021 4549.51 2652.55 68.55 5.00 257.52 2991.64
   23:19:57.378.08-May-2021 4549.51 2309.17 68.55 5.00 257.72 2991.64
   23:19:57.578.08-May-2021 4549.51 2017.30 68.55 5.00 257.92 2991.64
   23:19:57.778.08-May-2021 4549.51 2017.30 68.55 5.00 258.12 2991.64
   23:19:57.978.08-May-2021 4549.51 1558.89 68.55 5.00 258.32 2991.64
   23:19:58.178.08-May-2021 4549.51 1387.62 68.55 5.00 258.52 2991.64
   23:19:58.378.08-May-2021 4549.51 1229.87 68.55 5.00 258.72 2991.64
   23:19:58.578.08-May-2021 4549.51 1067.26 68.55 5.00 258.92 2991.64
   23:19:58.778.08-May-2021 4549.51 1067.26 68.55 5.00 259.12 2991.64
   23:19:58.978.08-May-2021 4549.51  976.37 68.55 5.00 259.32 2991.64
   23:19:59.178.08-May-2021 4549.51  982.39 68.54 5.00 259.52 2991.64
   23:19:59.377.08-May-2021 4549.51 1006.77 68.54 5.00 259.72 2991.64
   23:19:59.577.08-May-2021 4549.51 1013.72 68.54 5.00 259.92 2991.64
   23:19:59.777.08-May-2021 4549.51 1013.72 68.54 5.00 260.12 2991.64
   23:19:59.977.08-May-2021 4549.51  993.77 68.54 5.00 260.32 2991.64
   23:20:00.177.08-May-2021 4549.51  972.92 68.54 5.00 260.52 2991.64
   23:20:00.377.08-May-2021 4549.51  959.39 68.54 5.00 260.72 2991.64
   23:20:00.577.08-May-2021 4549.51  945.45 68.53 5.00 260.92 2991.64
   23:20:00.777.08-May-2021 4549.51  945.45 68.53 5.00 261.12 2991.64
   23:20:00.977.08-May-2021 4549.51  932.66 68.53 5.00 261.32 2991.64
   23:20:01.177.08-May-2021 4549.51  927.17 68.53 5.00 261.52 2991.64
   23:20:01.377.08-May-2021 4549.51  923.25 68.53 5.00 261.72 2991.64
   23:20:01.577.08-May-2021 4549.51  920.37 68.53 5.00 261.92 2991.64
   23:20:01.777.08-May-2021 4549.51  920.37 68.53 5.00 262.12 2991.64
   23:20:01.977.08-May-2021 4549.51  990.04 68.52 5.00 262.32 2991.64
   23:20:02.177.08-May-2021 4549.51  997.06 68.52 5.00 262.52 2991.64
   23:20:02.377.08-May-2021 4549.51  976.29 68.52 5.00 262.72 2991.64
   23:20:02.576.08-May-2021 4549.51  952.35 68.52 5.00 262.92 2991.64
   23:20:02.776.08-May-2021 4549.51  952.35 68.52 5.00 263.12 2991.64
   23:20:02.976.08-May-2021 4549.51  922.92 68.52 5.00 263.32 2991.64
   23:20:03.176.08-May-2021 4549.51  940.21 68.51 5.00 263.52 2991.64
   23:20:03.376.08-May-2021 4549.51  944.90 68.51 5.00 263.72 2991.64
   23:20:03.576.08-May-2021 4549.51  943.44 68.51 5.00 263.92 2991.64
   23:20:03.776.08-May-2021 4549.51  943.44 68.51 5.00 264.12 2991.64
   23:20:03.976.08-May-2021 4549.51  921.82 68.51 5.00 264.32 2991.64
   23:20:04.176.08-May-2021 4549.51  907.58 68.51 5.00 264.52 2991.64
   23:20:04.376.08-May-2021 4549.51  904.53 68.51 5.00 264.72 2991.64
   23:20:04.576.08-May-2021 4549.51  899.40 68.51 5.00 264.92 2991.64
   23:20:04.776.08-May-2021 4549.51  899.40 68.51 5.00 265.12 2991.64
   23:20:04.976.08-May-2021 4549.51  877.69 68.50 5.00 265.32 2991.64
   23:20:05.176.08-May-2021 4549.51  873.51 68.50 5.00 265.52 2991.64
   23:20:05.376.08-May-2021 4549.51  874.16 68.50 5.00 265.72 2991.64
   23:20:05.576.08-May-2021 4549.51  878.00 68.50 5.00 265.92 2991.64
   23:20:05.775.08-May-2021 4549.51  878.00 68.50 5.00 266.12 2991.64
   23:20:05.975.08-May-2021 4549.51  878.38 68.50 5.00 266.32 2991.64
   23:20:06.175.08-May-2021 4549.51  879.35 68.50 5.00 266.52 2991.64
   23:20:06.375.08-May-2021 4549.51  879.22 68.50 5.00 266.72 2991.64
   23:20:06.575.08-May-2021 4549.51  875.48 68.50 5.00 266.92 2991.64
   23:20:06.775.08-May-2021 4549.51  875.48 68.50 5.00 267.12 2991.64
   23:20:06.975.08-May-2021 4549.51  898.85 68.50 5.00 267.32 2991.64
   23:20:07.175.08-May-2021 4549.51 1063.11 68.49 5.00 267.52 2991.64
   23:20:07.375.08-May-2021 4549.51 1280.13 68.49 5.00 267.72 2991.64
   23:20:07.575.08-May-2021 4549.51 1485.61 68.49 5.00 267.92 2991.64
   23:20:07.775.08-May-2021 4549.51 1485.61 68.49 5.00 268.12 2991.64
   23:20:07.975.08-May-2021 4549.51 1829.39 68.49 5.00 268.32 2991.64
   23:20:08.175.08-May-2021 4549.51 1974.49 68.49 5.00 268.52 2991.64
   23:20:08.375.08-May-2021 4549.51 2104.75 68.49 5.00 268.72 2991.64
   23:20:08.575.08-May-2021 4549.51 2221.63 68.49 5.00 268.92 2991.64
   23:20:08.775.08-May-2021 4549.51 2221.63 68.49 5.00 269.12 2991.64
   23:20:08.974.08-May-2021 4549.51 2423.93 68.49 5.00 269.32 2991.64
   23:20:09.174.08-May-2021 4549.51 2511.52 68.49 5.00 269.52 2991.64
   23:20:09.374.08-May-2021 4549.51 2590.51 68.49 5.00 269.72 2991.64
   23:20:09.574.08-May-2021 4549.51 2664.26 68.49 5.00 269.92 2991.64
   23:20:09.774.08-May-2021 4549.51 2664.26 68.49 5.00 270.12 2991.64
   23:20:09.974.08-May-2021 4549.51 2786.51 68.49 5.00 270.32 2991.64
   23:20:10.174.08-May-2021 4549.51 2838.42 68.50 5.00 270.52 2991.64
   23:20:10.374.08-May-2021 4549.51 2887.19 68.50 5.00 270.72 2991.64
   23:20:10.574.08-May-2021 4549.51 2931.18 68.50 5.00 270.92 2991.64
   23:20:10.774.08-May-2021 4549.51 2931.18 68.50 5.00 271.12 2991.64
   23:20:10.974.08-May-2021 4549.51 3006.08 68.50 5.00 271.32 2991.64
   23:20:11.174.08-May-2021 4549.51 3039.29 68.50 5.00 271.52 2991.64
   23:20:11.374.08-May-2021 4549.51 3067.82 68.50 5.00 271.72 2991.64
   23:20:11.574.08-May-2021 4549.51 3092.84 68.50 5.00 271.92 2991.64
   23:20:11.774.08-May-2021 4549.51 3092.84 68.50 5.00 272.12 2991.64
   23:20:11.974.08-May-2021 4549.51 3136.03 68.50 5.00 272.32 2991.64
   23:20:12.173.08-May-2021 4549.51 3153.94 68.51 5.00 272.52 2991.64
   23:20:12.373.08-May-2021 4549.51 3168.92 68.51 5.00 272.72 2991.64
   23:20:12.573.08-May-2021 4549.51 3182.12 68.51 5.00 272.91 2991.64
   23:20:12.773.08-May-2021 4549.51 3182.12 68.51 5.00 273.11 2991.64
   23:20:12.973.08-May-2021 4549.51 3203.50 68.51 5.00 273.31 2991.64
   23:20:13.173.08-May-2021 4549.51 3211.57 68.51 5.00 273.51 2991.64
   23:20:13.373.08-May-2021 4549.51 3218.27 68.51 5.00 273.71 2991.64
   23:20:13.573.08-May-2021 4549.51 3224.14 68.52 5.00 273.91 2991.64
   23:20:13.773.08-May-2021 4549.51 3224.14 68.52 5.00 274.11 2991.64
   23:20:13.973.08-May-2021 4549.51 3232.99 68.52 5.00 274.31 2991.64
   23:20:14.173.08-May-2021 4549.51 3235.77 68.52 5.00 274.51 2991.64
   23:20:14.373.08-May-2021 4549.51 3238.48 68.52 5.00 274.71 2991.64
   23:20:14.573.08-May-2021 4549.51 3240.76 68.52 5.00 274.91 2991.64
   23:20:14.773.08-May-2021 4549.51 3240.76 68.52 5.00 275.11 2991.64
   23:20:14.973.08-May-2021 4549.51 3243.28 68.52 5.00 275.31 2991.64
   23:20:15.173.08-May-2021 4549.51 3244.13 68.52 5.00 275.51 2991.64
   23:20:15.372.08-May-2021 4549.51 3244.73 68.53 5.00 275.71 2991.64
