~Version Information
 VERS.                  2.0:   CWLS log ASCII Standard -VERSION 2.0
 WRAP.                   NO:   One line per depth step
~Well Information Block
#MNEM.UNIT     VALUE/NAME     DESCRIPTION
#---------     -----------    ---------------------------
 STRT.S             07:52:13 09-May-21: START TIME 07:52:13 09-May-21
 STOP.S             07:59:09 09-May-21: STOP TIME  07:59:09 09-May-21
 STEP.S                   0.00: STEP TIME
 NULL.                 -999.25: NULL VALUE
 PROV.                    Baku:  PROVINCE
 STAT.                    Baku:  STATE NAME
 SON .        AZ-XX-0906571588:  JOB NUMBER
 WTYP.                Deviated:  WELL TYPE
 COMP.     BP Exploration (Caspian Sea) ltd:  COMPANY
 BASE.              Azerbaijan:  LOGGING EQUIPMENT BASE LOCATION
 REGN.                   EESSA:  REGION
 CTRY.              Azerbaijan:  COUNTRY NAME
 FLD .                     ACG:  FIELD NAME
 WELL.                     J28:  WELL NAME
 RIG .             West Chirag:  RIG NAME
 DMF .             Drill Floor:  DRILL MEAS FROM
 PDAT.       Caspian Sea Level:  PERMANENT DATUM
 HPTY.       Minimum Curvature:  HOLE POS TYPE
 MDS .        Operator Entered:  MAG DATA SOURCE
 NREF.                    Grid:  NORTH REFERENCE
 SRVC.          TURAN DRILLING:  CONTRACTOR
 JOBN.        AZ-XX-0906571588:  JOB TICKET NUMB
 DCON.     Halliburton Sperry Drilling:  DIRECTNL CONTR
 STIM.      00.44.00 11-Feb-21:  START TIME
 DATE.      00.00.00 05-May-21:  END TIME
 SPUD.               13-Feb-21:  SPUD DATE
 MWDS.                    Baku:  MWD SHOP
 DOE .                     N/A:  DOE NUMBER
 UNIT.                     N/A:  LOGGING EQUIPMENT ID
 UWI .                     N/A:  UNIQUE WELL IDENTIFIER
 API .                     N/A:  API NUMBER
 CNTY.                        :  COUNTY
 LOC .                        :  LOCATION
 LMF .             Drill Floor:  LOG MEASURED FROM
 TVDS.m                  43.00:  TVDSS CORRECTN
 SDEP.m                 341.00:  START DEPTH
 EGL .m                   0.00:  GROUND ELEVATION
 WDMS.m                 169.80:  WD ELEV
 AGAP.m                  43.00:  AIR GAP
 EPD .m                   0.00:  ELEVATION
 APD .m                  43.00:  DEPTH ABOVE PD
 LATI.deg                40.13:  LATITUDE
 LONG.deg                51.22:  LONGITUDE
 UTMY.m             4443793.85:  UTM Y
 UTMX.m              519005.06:  UTM X
 WHEW.m                 -11.57:  WELL HEAD E/W
 WHNS.m                   8.57:  WELL HEAD N/S
 VSEW.m                 -11.57:  VERT SEC E/W
 VSNS.m                   8.57:  VERT SEC N/S
 DFWL.m                   0.00:  DISTANCE FWL
 DFSL.m                   0.00:  DISTANCE FSL
 VSDR.deg               299.34:  VERT SEC DIRECT
 GVFD.g                   1.00:  GRAVITY FIELD
 AZTC.deg                 6.36:  AZM TOTAL CORR
 MFLD.nT              50391.00:  MAGNETIC FIELD
 MDIP.deg                59.65:  MAGNETIC DIP
 MDEC.deg                 6.48:  MAGNETIC DECL
 GRDC.deg                 0.12:  GRID CORRECTION
 DEP .m                 334.96:  DEPTH
 TDD .m                1407.26:  TOTAL DEPTH (DRILLER)
 EKB .m                  43.00:  KB ELEVATION
 EDF .m                  43.00:  DF ELEVATION
 TDL .m                 228.00:  TOTAL DEPTH (LOGGER)
 VSC .                       0:  VS TO CLOSURE
 MAGU.                 1854484:  MAGUTM CHECKSUM
~Parameter Information Block
#MNEM.UNIT       Value        Description
#---------     -----------    ---------------------------
 AV  .mps                 4.00:  Ann Velocity 
 AVMX.mps                 4.73:  Max Ann Veloc 
 AZIF.deg               304.48:  Azm, Final 
 BHAT.        Rotary Steerable:  BHA Type 
 BREV.rev            257300.00:  Rev Bit Total 
 BROT.°/30m               0.00:  Build Rotating 
 BS  .in                  8.50:  Bit Size 
 BSZ .in                  8.50:  Bit Size 
 BTPL.psig              589.00:  Bit Press Loss 
 CABU.                      No:  Customer Abuse 
 CGEO.          Mubariz ghayev:  Customer Geo 
 TCS .hr                 64.25:  Time Ciculation Ended 
 CV  .mps                 3.50:  Crit Velocity 
 CVMX.mps                 4.52:  Max Crit Veloc 
 DD1 .             Aziz Aliyev:  Direct Drillr 1 
 DD2 .         Intigam Rahimov:  Direct Drillr 2 
 DD3 .          Rashad Habibov:  Direct Drillr 3 
 DDSV.               Geo-Pilot:  DD Service 
 DEFF.%                  98.00:  % Det Eff 
 DLRX.°/30m               0.00:  Dogleg Rot Max 
 DLSO.°/30m               0.00:  Dogleg Oriented 
 DLSX.°/30m               0.00:  Dogleg Str Max 
 DRET.      10.45.04 08-May-21:  Drill End Time 
 DRST.      03.30.04 04-May-21:  Drill Start Tim 
 DTIM.hr                 14.97:  Time Drilling 
 EDEP.m                4640.01:  End Depth 
 ENG1.         Dail Mahammadov:  Engineer 1 
 ENG2.           Eldar Hajiyev:  Engineer 2 
 ENG3.       Bakhtiar Jabbarli:  Engineer 3 
 ENG4.       Natik Hasanagayev:  Engineer 4 
 ETIM.      09.30.04 14-May-21:  End Time 
 FLOI.gpm               460.00:  Flow In 
 FLON.gpm               200.00:  Flow In Min 
 FLOS.cptm                0.00:  Fluid Loss 
 FLOX.gpm               505.00:  Flow In Max 
 HFLO.                      No:  High Flow 
 HPRE.                      No:  High Pressure 
 HTEM.                      No:  High Temp 
 HYDO.m                   1.80:  Hydro Offset 
 IFIN.deg                66.71:  Inc, Final 
 IMAX.deg                67.03:  Inc Max 
 IMIN.deg                66.63:  Inc Min 
 IMND.m                4550.58:  Inc Min Depth 
 IMXD.m                4439.01:  Inc Max Depth 
 JARR.                      No:  Jarring 
 LETM.      10.45.04 08-May-21:  Log End Time 
 LOST.hr                     0:  Lost Rig Time 
 LSTM.      03.30.04 04-May-21:  Log Start Time 
 MDCL.ppm             37000.00:  Mud Chlorides 
 MDES.     Inversion Oil/Synthetic:  Mud Desc 
 DFD .sg                  1.38:  Mud Density 
 MDMN.sg                  1.35:  Dens Mud Min 
 MDMX.sg                  1.40:  Dens Mud Max 
 MOIL.                   57.40:  Run Mud Oil % 
 MOWR.                   70:30:  Run Mud OWR 
 MSND.                    0.00:  Run Mud Sand % 
 MSOL.                   18.00:  Run Mud Solids% 
 DFV .spqt               71.00:  Mud Viscosity 
 MWOD.in                  6.75:  MWD Tool OD 
 MWSI.                      No:  Serv Intrp, MWD 
 OTIM.hr                242.76:  Time Operating 
 PCON.           Look Like New:  Pad Condition 
 PMAX.psia            12183.92:  Press Op, Max 
 PV  .cP                 27.00:  Mud PV 
 RUN .                    1300:  Run Number 
 ROPA.m/hr               15.00:  ROP Avg 
 ROPN.m/hr                9.00:  ROP Min 
 ROPX.m/hr               19.00:  ROP Max 
 RPMA.rpm               120.00:  RPM Surface Avg 
 RPMN.rpm               100.00:  RPM Surface Min 
 RPMX.rpm               120.00:  RPM Surface Max 
 RRUN.                    1300:  Rig Run Number 
 RTIM.hr                  5.00:  Time Reaming 
 SAZI.deg               304.73:  Azm, Start 
 SDEP.m                4412.01:  Start Depth 
 SIDD.                      No:  Serv Intrp, DD 
 SINC.deg                66.82:  Inc, Start 
 SPPA.psig             2800.00:  SPP Avg 
 SPPN.psig             2610.00:  SPP Min 
 SPPX.psig             3100.00:  SPP Max 
 STIM.      03.30.00 04-May-21:  Start Time 
 SVCS.                 DD, MWD:  Services 
 SVER.                    9.20:  Sperry Version 
 TDAT.m                 228.00:  Tot Depth Attmp 
 TDDF.                      No:  Trip for DD 
 TDLG.m                 228.00:  Tot Depth Loggd 
 TFF .                      No:  Trip for Fail 
 TQAA.f-kp               15.00:  Torque Abs Avg 
 TQAN.f-kp               12.00:  Torque Abs Min 
 TQAX.f-kp               22.00:  Torque Abs Max 
 TRRT.°/30m               0.00:  Turn Rotating 
 MRT .                    HCIM:  Maximum Recorded Temperature 
 TTMX.degC               90.20:  Max Tool Temp 
 VS01.                90627813:  Virtual Str1 SN 
 VS02.                90634712:  Virtual Str2 SN 
 VS03.                90643410:  Virtual Str3 SN 
 VS04.                90634712:  Virtual Str4 SN 
 WBMN.klb                 9.00:  WOB Min 
 WITN.        Elmaddin Rahimov:  Customer Rep 
 WITN.         Haytham Mostafa:  Customer Rep 2 
 WOBA.klb                15.00:  WOB Avg 
 WOBX.klb                23.00:  WOB Max 
 YP  .lhf2               29.00:  Yield Point 
~Curve Information Block
#MNEM.UNIT                 API CODE     Curve Description
#---------               -----------    ---------------------------
 TIME.HHMMSS            00 000 000 000:  GT Time & Date
 GTDEPTH.m              00 000 000 000:  GT Depth
 GTPQH.psia             00 000 000 000:  GT HR Quartz Pressure
 GTTQ.degC              00 000 000 000:  GT Quartz Temperature
 GTTN.NONE              00 000 000 000:  GT Test Number
 GTET.sec               00 000 000 000:  GT Elapsed Test Time
 GTTVD.m                00 000 000 000:  GT True Vertical Depth
#Other Information
#
#WARRANTY: Halliburton will use its best efforts to furnish customers with 
#accurate information and interpretations that are part of, and incident to, the services 
#provided.  However, Halliburton cannot and does not warrant the accuracy 
#or correctness of such information and interpretations.  Under no circumstances should any 
#such information or interpretation be relied upon as the sole basis for any drilling, 
#completion, production, or financial decision or any procedure involving any risk to the 
#safety of any drilling venture, drilling rig or its crew or any other third party.  The 
#Customer has full responsibility for all drilling, completion and production operation.  
#Halliburton makes no representations or warranties, either expressed or 
#implied, including, but not limited to, the implied warranties of merchantability or fitness 
#for a particular purpose, with respect to the services rendered.  In no event will 
#Halliburton be liable for failure to obtain any particular results or for 
#any damages, including, but not limited to, indirect, special or consequential damages, 
#resulting from the use of any information or interpretation provided by Halliburton.
#
~A           TIME           GTDEPTH  GTPQH  GTTQ  GTTN   GTET   GTTVD  
# ...
   07:54:51.417.09-May-2021 4413.51  613.07 65.46 16.00 158.22 2938.18
   07:54:51.617.09-May-2021 4413.51 1002.83 65.46 16.00 158.42 2938.18
   07:54:51.817.09-May-2021 4413.51 1278.45 65.46 16.00 158.62 2938.18
   07:54:52.017.09-May-2021 4413.51 1533.22 65.46 16.00 158.82 2938.18
   07:54:52.217.09-May-2021 4413.51 1766.18 65.46 16.00 159.02 2938.18
   07:54:52.417.09-May-2021 4413.51 1766.18 65.46 16.00 159.22 2938.18
   07:54:52.617.09-May-2021 4413.51 2180.03 65.45 16.00 159.42 2938.18
   07:54:52.818.09-May-2021 4413.51 2362.94 65.45 16.00 159.62 2938.18
   07:54:53.018.09-May-2021 4413.51 2531.51 65.45 16.00 159.82 2938.18
   07:54:53.218.09-May-2021 4413.51 2687.19 65.45 16.00 160.02 2938.18
   07:54:53.418.09-May-2021 4413.51 2687.19 65.45 16.00 160.22 2938.18
   07:54:53.618.09-May-2021 4413.51 2963.85 65.45 16.00 160.42 2938.18
   07:54:53.818.09-May-2021 4413.51 3086.60 65.45 16.00 160.62 2938.18
   07:54:54.018.09-May-2021 4413.51 3199.62 65.45 16.00 160.82 2938.18
   07:54:54.218.09-May-2021 4413.51 3304.17 65.45 16.00 161.02 2938.18
   07:54:54.418.09-May-2021 4413.51 3304.17 65.45 16.00 161.22 2938.18
   07:54:54.618.09-May-2021 4413.51 3489.32 65.46 16.00 161.42 2938.18
   07:54:54.818.09-May-2021 4413.51 3571.24 65.46 16.00 161.62 2938.18
   07:54:55.018.09-May-2021 4413.51 3646.57 65.46 16.00 161.82 2938.18
   07:54:55.218.09-May-2021 4413.51 3716.04 65.46 16.00 162.02 2938.18
   07:54:55.418.09-May-2021 4413.51 3716.04 65.46 16.00 162.22 2938.18
   07:54:55.618.09-May-2021 4413.51 3839.08 65.46 16.00 162.42 2938.18
   07:54:55.818.09-May-2021 4413.51 3893.12 65.46 16.00 162.62 2938.18
   07:54:56.018.09-May-2021 4413.51 3942.25 65.47 16.00 162.82 2938.18
   07:54:56.218.09-May-2021 4413.51 3988.92 65.47 16.00 163.02 2938.18
   07:54:56.418.09-May-2021 4413.51 3988.92 65.47 16.00 163.22 2938.18
   07:54:56.618.09-May-2021 4413.51 4070.25 65.47 16.00 163.42 2938.18
   07:54:56.818.09-May-2021 4413.51 4105.73 65.47 16.00 163.62 2938.18
   07:54:57.018.09-May-2021 4413.51 4137.80 65.47 16.00 163.82 2938.18
   07:54:57.218.09-May-2021 4413.51 4167.12 65.48 16.00 164.02 2938.18
   07:54:57.418.09-May-2021 4413.51 4167.12 65.48 16.00 164.22 2938.18
   07:54:57.618.09-May-2021 4413.51 4218.06 65.48 16.00 164.42 2938.18
   07:54:57.818.09-May-2021 4413.51 4240.16 65.48 16.00 164.62 2938.18
   07:54:58.018.09-May-2021 4413.51 4260.20 65.48 16.00 164.82 2938.18
   07:54:58.218.09-May-2021 4413.51 4278.39 65.49 16.00 165.02 2938.18
   07:54:58.418.09-May-2021 4413.51 4278.39 65.49 16.00 165.22 2938.18
   07:54:58.618.09-May-2021 4413.51 4309.37 65.49 16.00 165.42 2938.18
   07:54:58.818.09-May-2021 4413.51 4323.00 65.49 16.00 165.62 2938.18
   07:54:59.018.09-May-2021 4413.51 4335.75 65.49 16.00 165.82 2938.18
   07:54:59.218.09-May-2021 4413.51 4345.94 65.50 16.00 166.02 2938.18
   07:54:59.418.09-May-2021 4413.51 4345.94 65.50 16.00 166.22 2938.18
   07:54:59.618.09-May-2021 4413.51 4364.49 65.50 16.00 166.42 2938.18
   07:54:59.818.09-May-2021 4413.51 4372.74 65.50 16.00 166.62 2938.18
   07:55:00.019.09-May-2021 4413.51 4379.38 65.50 16.00 166.82 2938.18
   07:55:00.219.09-May-2021 4413.51 4385.05 65.50 16.00 167.02 2938.18
   07:55:00.419.09-May-2021 4413.51 4385.05 65.50 16.00 167.22 2938.18
   07:55:00.619.09-May-2021 4413.51 4395.02 65.51 16.00 167.42 2938.18
   07:55:00.819.09-May-2021 4413.51 4399.51 65.51 16.00 167.62 2938.18
   07:55:01.019.09-May-2021 4413.51 4402.56 65.51 16.00 167.82 2938.18
   07:55:01.219.09-May-2021 4413.51 4406.20 65.51 16.00 168.02 2938.18
   07:55:01.419.09-May-2021 4413.51 4406.20 65.51 16.00 168.22 2938.18
   07:55:01.619.09-May-2021 4413.51 4411.43 65.51 16.00 168.42 2938.18
   07:55:01.819.09-May-2021 4413.51 4413.19 65.52 16.00 168.62 2938.18
   07:55:02.019.09-May-2021 4413.51 4414.95 65.52 16.00 168.82 2938.18
   07:55:02.219.09-May-2021 4413.51 4416.36 65.52 16.00 169.02 2938.18
   07:55:02.419.09-May-2021 4413.51 4416.36 65.52 16.00 169.22 2938.18
   07:55:02.619.09-May-2021 4413.51 4418.64 65.52 16.00 169.42 2938.18
   07:55:02.819.09-May-2021 4413.51 4419.52 65.52 16.00 169.62 2938.18
   07:55:03.019.09-May-2021 4413.51 4420.27 65.52 16.00 169.82 2938.18
   07:55:03.219.09-May-2021 4413.51 4420.92 65.52 16.00 170.02 2938.18
   07:55:03.419.09-May-2021 4413.51 4420.92 65.52 16.00 170.22 2938.18
   07:55:03.619.09-May-2021 4413.51 4421.63 65.53 16.00 170.42 2938.18
   07:55:03.819.09-May-2021 4413.51 4422.29 65.53 16.00 170.62 2938.18
   07:55:04.019.09-May-2021 4413.51 4422.70 65.53 16.00 170.82 2938.18
   07:55:04.219.09-May-2021 4413.51 4423.52 65.53 16.00 171.02 2938.18
   07:55:04.419.09-May-2021 4413.51 4423.52 65.53 16.00 171.22 2938.18
   07:55:04.619.09-May-2021 4413.51 4424.17 65.53 16.00 171.42 2938.18
   07:55:04.819.09-May-2021 4413.51 4424.46 65.53 16.00 171.62 2938.18
   07:55:05.019.09-May-2021 4413.51 4424.69 65.53 16.00 171.82 2938.18
   07:55:05.219.09-May-2021 4413.51 4424.92 65.53 16.00 172.02 2938.18
   07:55:05.419.09-May-2021 4413.51 4424.92 65.53 16.00 172.22 2938.18
   07:55:05.619.09-May-2021 4413.51 4425.25 65.53 16.00 172.42 2938.18
   07:55:05.819.09-May-2021 4413.51 4425.37 65.53 16.00 172.62 2938.18
   07:55:06.019.09-May-2021 4413.51 4425.52 65.53 16.00 172.82 2938.18
   07:55:06.219.09-May-2021 4413.51 4425.53 65.53 16.00 173.02 2938.18
   07:55:06.419.09-May-2021 4413.51 4425.53 65.53 16.00 173.22 2938.18
   07:55:06.619.09-May-2021 4413.51 4425.80 65.54 16.00 173.42 2938.18
   07:55:06.819.09-May-2021 4413.51 4426.20 65.54 16.00 173.62 2938.18
   07:55:07.019.09-May-2021 4413.51 4426.19 65.54 16.00 173.82 2938.18
   07:55:07.220.09-May-2021 4413.51 4426.43 65.54 16.00 174.02 2938.18
   07:55:07.420.09-May-2021 4413.51 4426.43 65.54 16.00 174.22 2938.18
   07:55:07.620.09-May-2021 4413.51 4426.63 65.54 16.00 174.42 2938.18
   07:55:07.820.09-May-2021 4413.51 4426.52 65.54 16.00 174.62 2938.18
   07:55:08.020.09-May-2021 4413.51 4427.00 65.54 16.00 174.82 2938.18
   07:55:08.220.09-May-2021 4413.51 4426.88 65.54 16.00 175.02 2938.18
   07:55:08.420.09-May-2021 4413.51 4426.88 65.54 16.00 175.22 2938.18
   07:55:08.620.09-May-2021 4413.51 4427.16 65.54 16.00 175.42 2938.18
   07:55:08.820.09-May-2021 4413.51 4426.98 65.54 16.00 175.62 2938.18
   07:55:09.020.09-May-2021 4413.51 4427.18 65.54 16.00 175.82 2938.18
   07:55:09.220.09-May-2021 4413.51 4427.28 65.54 16.00 176.02 2938.18
   07:55:09.420.09-May-2021 4413.51 4427.28 65.54 16.00 176.22 2938.18
   07:55:09.620.09-May-2021 4413.51 4427.66 65.54 16.00 176.42 2938.18
   07:55:09.820.09-May-2021 4413.51 4427.50 65.54 16.00 176.62 2938.18
   07:55:10.020.09-May-2021 4413.51 4427.64 65.54 16.00 176.82 2938.18
   07:55:10.220.09-May-2021 4413.51 4427.60 65.54 16.00 177.02 2938.18
   07:55:10.420.09-May-2021 4413.51 4427.60 65.54 16.00 177.22 2938.18
   07:55:10.620.09-May-2021 4413.51 4427.68 65.54 16.00 177.42 2938.18
   07:55:10.820.09-May-2021 4413.51 4427.73 65.54 16.00 177.62 2938.18
   07:55:11.020.09-May-2021 4413.51 4427.74 65.54 16.00 177.82 2938.18
   07:55:11.220.09-May-2021 4413.51 4427.82 65.54 16.00 178.02 2938.18
   07:55:11.420.09-May-2021 4413.51 4427.82 65.54 16.00 178.22 2938.18
   07:55:11.620.09-May-2021 4413.51 4427.58 65.54 16.00 178.42 2938.18
   07:55:11.820.09-May-2021 4413.51 4427.92 65.54 16.00 178.62 2938.18
   07:55:12.020.09-May-2021 4413.51 4427.91 65.54 16.00 178.82 2938.18
   07:55:12.220.09-May-2021 4413.51 4428.12 65.54 16.00 179.02 2938.18
   07:55:12.420.09-May-2021 4413.51 4428.12 65.54 16.00 179.22 2938.18
   07:55:12.620.09-May-2021 4413.51 4428.13 65.54 16.00 179.42 2938.18
   07:55:12.820.09-May-2021 4413.51 4428.14 65.54 16.00 179.62 2938.18
   07:55:13.020.09-May-2021 4413.51 4428.17 65.54 16.00 179.82 2938.18
   07:55:13.220.09-May-2021 4413.51 4428.17 65.54 16.00 180.02 2938.18
   07:55:13.420.09-May-2021 4413.51 4428.17 65.54 16.00 180.23 2938.18
   07:55:13.620.09-May-2021 4413.51 4428.19 65.54 16.00 180.43 2938.18
   07:55:13.820.09-May-2021 4413.51 4428.23 65.54 16.00 180.63 2938.18
