~Version Information
 VERS.                  2.0:   CWLS log ASCII Standard -VERSION 2.0
 WRAP.                   NO:   One line per depth step
~Well Information Block
#MNEM.UNIT     VALUE/NAME     DESCRIPTION
#---------     -----------    ---------------------------
 STRT.S             20:58:23 08-May-21: START TIME 20:58:23 08-May-21
 STOP.S             21:05:15 08-May-21: STOP TIME  21:05:15 08-May-21
 STEP.S                   0.00: STEP TIME
 NULL.                 -999.25: NULL VALUE
 PROV.                    Baku:  PROVINCE
 STAT.                    Baku:  STATE NAME
 SON .        AZ-XX-0906571588:  JOB NUMBER
 WTYP.                Deviated:  WELL TYPE
 COMP.     BP Exploration (Caspian Sea) ltd:  COMPANY
 BASE.              Azerbaijan:  LOGGING EQUIPMENT BASE LOCATION
 REGN.                   EESSA:  REGION
 CTRY.              Azerbaijan:  COUNTRY NAME
 FLD .                     ACG:  FIELD NAME
 WELL.                     J28:  WELL NAME
 RIG .             West Chirag:  RIG NAME
 DMF .             Drill Floor:  DRILL MEAS FROM
 PDAT.       Caspian Sea Level:  PERMANENT DATUM
 HPTY.       Minimum Curvature:  HOLE POS TYPE
 MDS .        Operator Entered:  MAG DATA SOURCE
 NREF.                    Grid:  NORTH REFERENCE
 SRVC.          TURAN DRILLING:  CONTRACTOR
 JOBN.        AZ-XX-0906571588:  JOB TICKET NUMB
 DCON.     Halliburton Sperry Drilling:  DIRECTNL CONTR
 STIM.      00.44.00 11-Feb-21:  START TIME
 DATE.      00.00.00 05-May-21:  END TIME
 SPUD.               13-Feb-21:  SPUD DATE
 MWDS.                    Baku:  MWD SHOP
 DOE .                     N/A:  DOE NUMBER
 UNIT.                     N/A:  LOGGING EQUIPMENT ID
 UWI .                     N/A:  UNIQUE WELL IDENTIFIER
 API .                     N/A:  API NUMBER
 CNTY.                        :  COUNTY
 LOC .                        :  LOCATION
 LMF .             Drill Floor:  LOG MEASURED FROM
 TVDS.m                  43.00:  TVDSS CORRECTN
 SDEP.m                 341.00:  START DEPTH
 EGL .m                   0.00:  GROUND ELEVATION
 WDMS.m                 169.80:  WD ELEV
 AGAP.m                  43.00:  AIR GAP
 EPD .m                   0.00:  ELEVATION
 APD .m                  43.00:  DEPTH ABOVE PD
 LATI.deg                40.13:  LATITUDE
 LONG.deg                51.22:  LONGITUDE
 UTMY.m             4443793.85:  UTM Y
 UTMX.m              519005.06:  UTM X
 WHEW.m                 -11.57:  WELL HEAD E/W
 WHNS.m                   8.57:  WELL HEAD N/S
 VSEW.m                 -11.57:  VERT SEC E/W
 VSNS.m                   8.57:  VERT SEC N/S
 DFWL.m                   0.00:  DISTANCE FWL
 DFSL.m                   0.00:  DISTANCE FSL
 VSDR.deg               299.34:  VERT SEC DIRECT
 GVFD.g                   1.00:  GRAVITY FIELD
 AZTC.deg                 6.36:  AZM TOTAL CORR
 MFLD.nT              50391.00:  MAGNETIC FIELD
 MDIP.deg                59.65:  MAGNETIC DIP
 MDEC.deg                 6.48:  MAGNETIC DECL
 GRDC.deg                 0.12:  GRID CORRECTION
 DEP .m                 334.96:  DEPTH
 TDD .m                1407.26:  TOTAL DEPTH (DRILLER)
 EKB .m                  43.00:  KB ELEVATION
 EDF .m                  43.00:  DF ELEVATION
 TDL .m                 228.00:  TOTAL DEPTH (LOGGER)
 VSC .                       0:  VS TO CLOSURE
 MAGU.                 1854484:  MAGUTM CHECKSUM
~Parameter Information Block
#MNEM.UNIT       Value        Description
#---------     -----------    ---------------------------
 AV  .mps                 4.00:  Ann Velocity 
 AVMX.mps                 4.73:  Max Ann Veloc 
 AZIF.deg               304.48:  Azm, Final 
 BHAT.        Rotary Steerable:  BHA Type 
 BREV.rev            257300.00:  Rev Bit Total 
 BROT.°/30m               0.00:  Build Rotating 
 BS  .in                  8.50:  Bit Size 
 BSZ .in                  8.50:  Bit Size 
 BTPL.psig              589.00:  Bit Press Loss 
 CABU.                      No:  Customer Abuse 
 CGEO.          Mubariz ghayev:  Customer Geo 
 COMM.                     ”<v:  Run Comments 1 
 TCS .hr                 64.25:  Time Ciculation Ended 
 CV  .mps                 3.50:  Crit Velocity 
 CVMX.mps                 4.52:  Max Crit Veloc 
 DD1 .             Aziz Aliyev:  Direct Drillr 1 
 DD2 .         Intigam Rahimov:  Direct Drillr 2 
 DD3 .          Rashad Habibov:  Direct Drillr 3 
 DDSV.               Geo-Pilot:  DD Service 
 DEFF.%                  98.00:  % Det Eff 
 DLRX.°/30m               0.00:  Dogleg Rot Max 
 DLSO.°/30m               0.00:  Dogleg Oriented 
 DLSX.°/30m               0.00:  Dogleg Str Max 
 DRET.      10.45.04 08-May-21:  Drill End Time 
 DRST.      03.30.04 04-May-21:  Drill Start Tim 
 DTIM.hr                 14.97:  Time Drilling 
 EDEP.m                4640.01:  End Depth 
 ENG1.         Dail Mahammadov:  Engineer 1 
 ENG2.           Eldar Hajiyev:  Engineer 2 
 ENG3.       Bakhtiar Jabbarli:  Engineer 3 
 ENG4.       Natik Hasanagayev:  Engineer 4 
 ETIM.      09.30.04 14-May-21:  End Time 
 FLOI.gpm               460.00:  Flow In 
 FLON.gpm               200.00:  Flow In Min 
 FLOS.cptm                0.00:  Fluid Loss 
 FLOX.gpm               505.00:  Flow In Max 
 HFLO.                      No:  High Flow 
 HPRE.                      No:  High Pressure 
 HTEM.                      No:  High Temp 
 HYDO.m                   1.80:  Hydro Offset 
 IFIN.deg                66.71:  Inc, Final 
 IMAX.deg                67.03:  Inc Max 
 IMIN.deg                66.63:  Inc Min 
 IMND.m                4550.58:  Inc Min Depth 
 IMXD.m                4439.01:  Inc Max Depth 
 JARR.                      No:  Jarring 
 LETM.      10.45.04 08-May-21:  Log End Time 
 LOST.hr                     0:  Lost Rig Time 
 LSTM.      03.30.04 04-May-21:  Log Start Time 
 MDCL.ppm             37000.00:  Mud Chlorides 
 MDES.     Inversion Oil/Synthetic:  Mud Desc 
 DFD .sg                  1.38:  Mud Density 
 MDMN.sg                  1.35:  Dens Mud Min 
 MDMX.sg                  1.40:  Dens Mud Max 
 MOIL.                   57.40:  Run Mud Oil % 
 MOWR.                   70:30:  Run Mud OWR 
 MSND.                    0.00:  Run Mud Sand % 
 MSOL.                   18.00:  Run Mud Solids% 
 DFV .spqt               71.00:  Mud Viscosity 
 MWOD.in                  6.75:  MWD Tool OD 
 MWSI.                      No:  Serv Intrp, MWD 
 OTIM.hr                242.76:  Time Operating 
 PCON.           Look Like New:  Pad Condition 
 PMAX.psia            12183.92:  Press Op, Max 
 PV  .cP                 27.00:  Mud PV 
 RUN .                    1300:  Run Number 
 ROPA.m/hr               15.00:  ROP Avg 
 ROPN.m/hr                9.00:  ROP Min 
 ROPX.m/hr               19.00:  ROP Max 
 RPMA.rpm               120.00:  RPM Surface Avg 
 RPMN.rpm               100.00:  RPM Surface Min 
 RPMX.rpm               120.00:  RPM Surface Max 
 RRUN.                    1300:  Rig Run Number 
 RTIM.hr                  5.00:  Time Reaming 
 SAZI.deg               304.73:  Azm, Start 
 SDEP.m                4412.01:  Start Depth 
 SIDD.                      No:  Serv Intrp, DD 
 SINC.deg                66.82:  Inc, Start 
 SPPA.psig             2800.00:  SPP Avg 
 SPPN.psig             2610.00:  SPP Min 
 SPPX.psig             3100.00:  SPP Max 
 STIM.      03.30.00 04-May-21:  Start Time 
 SVCS.                 DD, MWD:  Services 
 SVER.                    9.20:  Sperry Version 
 TDAT.m                 228.00:  Tot Depth Attmp 
 TDDF.                      No:  Trip for DD 
 TDLG.m                 228.00:  Tot Depth Loggd 
 TFF .                      No:  Trip for Fail 
 TQAA.f-kp               15.00:  Torque Abs Avg 
 TQAN.f-kp               12.00:  Torque Abs Min 
 TQAX.f-kp               22.00:  Torque Abs Max 
 TRRT.°/30m               0.00:  Turn Rotating 
 MRT .                    HCIM:  Maximum Recorded Temperature 
 TTMX.degC               90.20:  Max Tool Temp 
 VS01.                90627813:  Virtual Str1 SN 
 VS02.                90634712:  Virtual Str2 SN 
 VS03.                90643410:  Virtual Str3 SN 
 VS04.                90634712:  Virtual Str4 SN 
 WBMN.klb                 9.00:  WOB Min 
 WITN.        Elmaddin Rahimov:  Customer Rep 
 WITN.         Haytham Mostafa:  Customer Rep 2 
 WOBA.klb                15.00:  WOB Avg 
 WOBX.klb                23.00:  WOB Max 
 YP  .lhf2               29.00:  Yield Point 
~Curve Information Block
#MNEM.UNIT                 API CODE     Curve Description
#---------               -----------    ---------------------------
 TIME.HHMMSS            00 000 000 000:  GT Time & Date
 GTDEPTH.m              00 000 000 000:  GT Depth
 GTPQH.psia             00 000 000 000:  GT HR Quartz Pressure
 GTTQ.degC              00 000 000 000:  GT Quartz Temperature
 GTTN.NONE              00 000 000 000:  GT Test Number
 GTET.sec               00 000 000 000:  GT Elapsed Test Time
 GTTVD.m                00 000 000 000:  GT True Vertical Depth
#Other Information
#
#WARRANTY: Halliburton will use its best efforts to furnish customers with 
#accurate information and interpretations that are part of, and incident to, the services 
#provided.  However, Halliburton cannot and does not warrant the accuracy 
#or correctness of such information and interpretations.  Under no circumstances should any 
#such information or interpretation be relied upon as the sole basis for any drilling, 
#completion, production, or financial decision or any procedure involving any risk to the 
#safety of any drilling venture, drilling rig or its crew or any other third party.  The 
#Customer has full responsibility for all drilling, completion and production operation.  
#Halliburton makes no representations or warranties, either expressed or 
#implied, including, but not limited to, the implied warranties of merchantability or fitness 
#for a particular purpose, with respect to the services rendered.  In no event will 
#Halliburton be liable for failure to obtain any particular results or for 
#any damages, including, but not limited to, indirect, special or consequential damages, 
#resulting from the use of any information or interpretation provided by Halliburton.
#
~A           TIME           GTDEPTH  GTPQH  GTTQ  GTTN  GTET   GTTVD  
# ...
   20:59:32.787.08-May-2021 4593.01 3777.57 69.01 2.00  69.01 3008.90
   20:59:32.987.08-May-2021 4593.01 3777.57 69.01 2.00  69.21 3008.90
   20:59:33.187.08-May-2021 4593.01 3777.63 69.01 2.00  69.41 3008.90
   20:59:33.387.08-May-2021 4593.01 3777.47 69.01 2.00  69.61 3008.90
   20:59:33.587.08-May-2021 4593.01 3777.60 69.01 2.00  69.81 3008.90
   20:59:33.787.08-May-2021 4593.01 3777.44 69.01 2.00  70.01 3008.90
   20:59:33.987.08-May-2021 4593.01 3777.44 69.01 2.00  70.21 3008.90
   20:59:34.187.08-May-2021 4593.01 3777.88 69.01 2.00  70.41 3008.90
   20:59:34.387.08-May-2021 4593.01 3777.22 69.01 2.00  70.61 3008.90
   20:59:34.587.08-May-2021 4593.01 3777.63 69.01 2.00  70.81 3008.90
   20:59:34.787.08-May-2021 4593.01 3777.55 69.01 2.00  71.01 3008.90
   20:59:34.987.08-May-2021 4593.01 3777.55 69.01 2.00  71.21 3008.90
   20:59:35.187.08-May-2021 4593.01 3777.75 69.01 2.00  71.41 3008.90
   20:59:35.387.08-May-2021 4593.01 3777.49 69.01 2.00  71.61 3008.90
   20:59:35.587.08-May-2021 4593.01 3777.61 69.01 2.00  71.81 3008.90
   20:59:35.787.08-May-2021 4593.01 3777.42 69.01 2.00  72.01 3008.90
   20:59:35.987.08-May-2021 4593.01 3777.42 69.01 2.00  72.21 3008.90
   20:59:36.187.08-May-2021 4593.01 3777.54 69.01 2.00  72.41 3008.90
   20:59:36.387.08-May-2021 4593.01 3777.51 69.01 2.00  72.61 3008.90
   20:59:36.587.08-May-2021 4593.01 3777.56 69.01 2.00  72.81 3008.90
   20:59:36.787.08-May-2021 4593.01 3777.56 69.01 2.00  73.01 3008.90
   20:59:36.987.08-May-2021 4593.01 3777.56 69.01 2.00  73.21 3008.90
   20:59:37.187.08-May-2021 4593.01 3777.66 69.01 2.00  73.41 3008.90
   20:59:37.387.08-May-2021 4593.01 3777.57 69.01 2.00  73.61 3008.90
   20:59:37.587.08-May-2021 4593.01 3777.42 69.01 2.00  73.81 3008.90
   20:59:37.787.08-May-2021 4593.01 3777.86 69.01 2.00  74.01 3008.90
   20:59:37.987.08-May-2021 4593.01 3777.86 69.01 2.00  74.21 3008.90
   20:59:38.187.08-May-2021 4593.01 3777.64 69.01 2.00  74.41 3008.90
   20:59:38.387.08-May-2021 4593.01 3777.53 69.01 2.00  74.61 3008.90
   20:59:38.587.08-May-2021 4593.01 3777.64 69.01 2.00  74.81 3008.90
   20:59:38.787.08-May-2021 4593.01 3777.55 69.01 2.00  75.01 3008.90
   20:59:38.987.08-May-2021 4593.01 3777.55 69.01 2.00  75.21 3008.90
   20:59:39.187.08-May-2021 4593.01 3777.66 69.01 2.00  75.41 3008.90
   20:59:39.387.08-May-2021 4593.01 3777.52 69.01 2.00  75.61 3008.90
   20:59:39.588.08-May-2021 4593.01 3777.50 69.01 2.00  75.81 3008.90
   20:59:39.788.08-May-2021 4593.01 3777.66 69.01 2.00  76.01 3008.90
   20:59:39.988.08-May-2021 4593.01 3777.66 69.01 2.00  76.21 3008.90
   20:59:40.188.08-May-2021 4593.01 3777.47 69.01 2.00  76.41 3008.90
   20:59:40.388.08-May-2021 4593.01 3777.82 69.01 2.00  76.61 3008.90
   20:59:40.588.08-May-2021 4593.01 3777.42 69.01 2.00  76.81 3008.90
   20:59:40.788.08-May-2021 4593.01 3777.70 69.01 2.00  77.01 3008.90
   20:59:40.988.08-May-2021 4593.01 3777.70 69.01 2.00  77.21 3008.90
   20:59:41.188.08-May-2021 4593.01 3777.52 69.01 2.00  77.41 3008.90
   20:59:41.388.08-May-2021 4593.01 3777.74 69.01 2.00  77.61 3008.90
   20:59:41.588.08-May-2021 4593.01 3777.50 69.01 2.00  77.81 3008.90
   20:59:41.788.08-May-2021 4593.01 3777.63 69.01 2.00  78.01 3008.90
   20:59:41.988.08-May-2021 4593.01 3777.63 69.01 2.00  78.21 3008.90
   20:59:42.188.08-May-2021 4593.01 3777.77 69.01 2.00  78.41 3008.90
   20:59:42.388.08-May-2021 4593.01 3777.57 69.01 2.00  78.61 3008.90
   20:59:42.588.08-May-2021 4593.01 3777.51 69.01 2.00  78.81 3008.90
   20:59:42.788.08-May-2021 4593.01 3777.66 69.01 2.00  79.01 3008.90
   20:59:42.988.08-May-2021 4593.01 3777.66 69.01 2.00  79.21 3008.90
   20:59:43.188.08-May-2021 4593.01 3777.67 69.01 2.00  79.41 3008.90
   20:59:43.388.08-May-2021 4593.01 3777.69 69.01 2.00  79.61 3008.90
   20:59:43.588.08-May-2021 4593.01 3777.51 69.01 2.00  79.81 3008.90
   20:59:43.788.08-May-2021 4593.01 3777.55 69.01 2.00  80.01 3008.90
   20:59:43.988.08-May-2021 4593.01 3777.55 69.01 2.00  80.21 3008.90
   20:59:44.188.08-May-2021 4593.01 3777.58 69.01 2.00  80.41 3008.90
   20:59:44.388.08-May-2021 4593.01 3777.55 69.01 2.00  80.61 3008.90
   20:59:44.588.08-May-2021 4593.01 3777.71 69.01 2.00  80.81 3008.90
   20:59:44.788.08-May-2021 4593.01 3777.56 69.01 2.00  81.01 3008.90
   20:59:44.988.08-May-2021 4593.01 3777.56 69.01 2.00  81.21 3008.90
   20:59:45.188.08-May-2021 4593.01 3777.70 69.01 2.00  81.41 3008.90
   20:59:45.388.08-May-2021 4593.01 3777.60 69.01 2.00  81.61 3008.90
   20:59:45.588.08-May-2021 4593.01 3777.57 69.01 2.00  81.81 3008.90
   20:59:45.788.08-May-2021 4593.01 3777.70 69.01 2.00  82.01 3008.90
   20:59:45.988.08-May-2021 4593.01 3777.70 69.01 2.00  82.21 3008.90
   20:59:46.188.08-May-2021 4593.01 3777.42 69.01 2.00  82.41 3008.90
   20:59:46.388.08-May-2021 4593.01 3777.76 69.01 2.00  82.61 3008.90
   20:59:46.588.08-May-2021 4593.01 3777.55 69.01 2.00  82.81 3008.90
   20:59:46.788.08-May-2021 4593.01 3777.55 69.01 2.00  83.01 3008.90
   20:59:46.988.08-May-2021 4593.01 3777.55 69.01 2.00  83.21 3008.90
   20:59:47.188.08-May-2021 4593.01 3777.58 69.01 2.00  83.41 3008.90
   20:59:47.388.08-May-2021 4593.01 3777.59 69.01 2.00  83.61 3008.90
   20:59:47.588.08-May-2021 4593.01 3777.64 69.01 2.00  83.81 3008.90
   20:59:47.788.08-May-2021 4593.01 3777.64 69.01 2.00  84.01 3008.90
   20:59:47.988.08-May-2021 4593.01 3777.64 69.01 2.00  84.21 3008.90
   20:59:48.188.08-May-2021 4593.01 3777.73 69.01 2.00  84.41 3008.90
   20:59:48.388.08-May-2021 4593.01 3777.59 69.01 2.00  84.61 3008.90
   20:59:48.588.08-May-2021 4593.01 3777.70 69.01 2.00  84.81 3008.90
   20:59:48.788.08-May-2021 4593.01 3777.64 69.01 2.00  85.01 3008.90
   20:59:48.988.08-May-2021 4593.01 3777.64 69.01 2.00  85.21 3008.90
   20:59:49.188.08-May-2021 4593.01 3777.52 69.01 2.00  85.41 3008.90
   20:59:49.389.08-May-2021 4593.01 3777.94 69.01 2.00  85.61 3008.90
   20:59:49.589.08-May-2021 4593.01 3777.47 69.01 2.00  85.81 3008.90
   20:59:49.789.08-May-2021 4593.01 3777.56 69.01 2.00  86.01 3008.90
   20:59:49.989.08-May-2021 4593.01 3777.56 69.01 2.00  86.21 3008.90
   20:59:50.189.08-May-2021 4593.01 3777.55 69.01 2.00  86.41 3008.90
   20:59:50.389.08-May-2021 4593.01 3777.74 69.01 2.00  86.61 3008.90
   20:59:50.589.08-May-2021 4593.01 3777.50 69.01 2.00  86.81 3008.90
   20:59:50.789.08-May-2021 4593.01 3777.81 69.01 2.00  87.01 3008.90
   20:59:50.989.08-May-2021 4593.01 3777.81 69.01 2.00  87.21 3008.90
   20:59:51.189.08-May-2021 4593.01 3777.58 69.01 2.00  87.41 3008.90
   20:59:51.389.08-May-2021 4593.01 3777.87 69.01 2.00  87.61 3008.90
   20:59:51.589.08-May-2021 4593.01 3777.42 69.01 2.00  87.81 3008.90
   20:59:51.789.08-May-2021 4593.01 3777.80 69.01 2.00  88.01 3008.90
   20:59:51.989.08-May-2021 4593.01 3777.80 69.01 2.00  88.21 3008.90
   20:59:52.189.08-May-2021 4593.01 3777.54 69.01 2.00  88.41 3008.90
   20:59:52.389.08-May-2021 4593.01 3777.72 69.01 2.00  88.61 3008.90
   20:59:52.589.08-May-2021 4593.01 3777.65 69.01 2.00  88.81 3008.90
   20:59:52.789.08-May-2021 4593.01 3777.57 69.01 2.00  89.01 3008.90
   20:59:52.989.08-May-2021 4593.01 3777.57 69.01 2.00  89.21 3008.90
   20:59:53.189.08-May-2021 4593.01 3777.68 69.01 2.00  89.41 3008.90
   20:59:53.389.08-May-2021 4593.01 3777.58 69.01 2.00  89.61 3008.90
   20:59:53.589.08-May-2021 4593.01 3777.67 69.01 2.00  89.81 3008.90
   20:59:53.789.08-May-2021 4593.01 3777.72 69.01 2.00  90.01 3008.90
   20:59:53.989.08-May-2021 4593.01 3777.72 69.01 2.00  90.21 3008.90
   20:59:54.189.08-May-2021 4593.01 3777.51 69.01 2.00  90.41 3008.90
   20:59:54.389.08-May-2021 4593.01 3777.81 69.01 2.00  90.61 3008.90
   20:59:54.589.08-May-2021 4593.01 3777.58 69.01 2.00  90.81 3008.90
   20:59:54.789.08-May-2021 4593.01 3777.59 69.01 2.00  91.01 3008.90
   20:59:54.989.08-May-2021 4593.01 3777.59 69.01 2.00  91.21 3008.90
   20:59:55.189.08-May-2021 4593.01 3777.59 69.01 2.00  91.41 3008.90
   20:59:55.389.08-May-2021 4593.01 3777.60 69.01 2.00  91.61 3008.90
   20:59:55.589.08-May-2021 4593.01 3777.69 69.01 2.00  91.81 3008.90
