~Version Information
 VERS.                  2.0:   CWLS log ASCII Standard -VERSION 2.0
 WRAP.                   NO:   One line per depth step
~Well Information Block
#MNEM.UNIT     VALUE/NAME     DESCRIPTION
#---------     -----------    ---------------------------
 STRT.S             02:35:25 09-May-21: START TIME 02:35:25 09-May-21
 STOP.S             02:42:01 09-May-21: STOP TIME  02:42:01 09-May-21
 STEP.S                   0.00: STEP TIME
 NULL.                 -999.25: NULL VALUE
 PROV.                    Baku:  PROVINCE
 STAT.                    Baku:  STATE NAME
 SON .        AZ-XX-0906571588:  JOB NUMBER
 WTYP.                Deviated:  WELL TYPE
 COMP.     BP Exploration (Caspian Sea) ltd:  COMPANY
 BASE.              Azerbaijan:  LOGGING EQUIPMENT BASE LOCATION
 REGN.                   EESSA:  REGION
 CTRY.              Azerbaijan:  COUNTRY NAME
 FLD .                     ACG:  FIELD NAME
 WELL.                     J28:  WELL NAME
 RIG .             West Chirag:  RIG NAME
 DMF .             Drill Floor:  DRILL MEAS FROM
 PDAT.       Caspian Sea Level:  PERMANENT DATUM
 HPTY.       Minimum Curvature:  HOLE POS TYPE
 MDS .        Operator Entered:  MAG DATA SOURCE
 NREF.                    Grid:  NORTH REFERENCE
 SRVC.          TURAN DRILLING:  CONTRACTOR
 JOBN.        AZ-XX-0906571588:  JOB TICKET NUMB
 DCON.     Halliburton Sperry Drilling:  DIRECTNL CONTR
 STIM.      00.44.00 11-Feb-21:  START TIME
 DATE.      00.00.00 05-May-21:  END TIME
 SPUD.               13-Feb-21:  SPUD DATE
 MWDS.                    Baku:  MWD SHOP
 DOE .                     N/A:  DOE NUMBER
 UNIT.                     N/A:  LOGGING EQUIPMENT ID
 UWI .                     N/A:  UNIQUE WELL IDENTIFIER
 API .                     N/A:  API NUMBER
 CNTY.                        :  COUNTY
 LOC .                        :  LOCATION
 LMF .             Drill Floor:  LOG MEASURED FROM
 TVDS.m                  43.00:  TVDSS CORRECTN
 SDEP.m                 341.00:  START DEPTH
 EGL .m                   0.00:  GROUND ELEVATION
 WDMS.m                 169.80:  WD ELEV
 AGAP.m                  43.00:  AIR GAP
 EPD .m                   0.00:  ELEVATION
 APD .m                  43.00:  DEPTH ABOVE PD
 LATI.deg                40.13:  LATITUDE
 LONG.deg                51.22:  LONGITUDE
 UTMY.m             4443793.85:  UTM Y
 UTMX.m              519005.06:  UTM X
 WHEW.m                 -11.57:  WELL HEAD E/W
 WHNS.m                   8.57:  WELL HEAD N/S
 VSEW.m                 -11.57:  VERT SEC E/W
 VSNS.m                   8.57:  VERT SEC N/S
 DFWL.m                   0.00:  DISTANCE FWL
 DFSL.m                   0.00:  DISTANCE FSL
 VSDR.deg               299.34:  VERT SEC DIRECT
 GVFD.g                   1.00:  GRAVITY FIELD
 AZTC.deg                 6.36:  AZM TOTAL CORR
 MFLD.nT              50391.00:  MAGNETIC FIELD
 MDIP.deg                59.65:  MAGNETIC DIP
 MDEC.deg                 6.48:  MAGNETIC DECL
 GRDC.deg                 0.12:  GRID CORRECTION
 DEP .m                 334.96:  DEPTH
 TDD .m                1407.26:  TOTAL DEPTH (DRILLER)
 EKB .m                  43.00:  KB ELEVATION
 EDF .m                  43.00:  DF ELEVATION
 TDL .m                 228.00:  TOTAL DEPTH (LOGGER)
 VSC .                       0:  VS TO CLOSURE
 MAGU.                 1854484:  MAGUTM CHECKSUM
~Parameter Information Block
#MNEM.UNIT       Value        Description
#---------     -----------    ---------------------------
 AV  .mps                 4.00:  Ann Velocity 
 AVMX.mps                 4.73:  Max Ann Veloc 
 AZIF.deg               304.48:  Azm, Final 
 BHAT.        Rotary Steerable:  BHA Type 
 BREV.rev            257300.00:  Rev Bit Total 
 BROT.°/30m               0.00:  Build Rotating 
 BS  .in                  8.50:  Bit Size 
 BSZ .in                  8.50:  Bit Size 
 BTPL.psig              589.00:  Bit Press Loss 
 CABU.                      No:  Customer Abuse 
 CGEO.          Mubariz ghayev:  Customer Geo 
 COMM.                     LÑz:  Run Comments 1 
 TCS .hr                 64.25:  Time Ciculation Ended 
 CV  .mps                 3.50:  Crit Velocity 
 CVMX.mps                 4.52:  Max Crit Veloc 
 DD1 .             Aziz Aliyev:  Direct Drillr 1 
 DD2 .         Intigam Rahimov:  Direct Drillr 2 
 DD3 .          Rashad Habibov:  Direct Drillr 3 
 DDSV.               Geo-Pilot:  DD Service 
 DEFF.%                  98.00:  % Det Eff 
 DLRX.°/30m               0.00:  Dogleg Rot Max 
 DLSO.°/30m               0.00:  Dogleg Oriented 
 DLSX.°/30m               0.00:  Dogleg Str Max 
 DRET.      10.45.04 08-May-21:  Drill End Time 
 DRST.      03.30.04 04-May-21:  Drill Start Tim 
 DTIM.hr                 14.97:  Time Drilling 
 EDEP.m                4640.01:  End Depth 
 ENG1.         Dail Mahammadov:  Engineer 1 
 ENG2.           Eldar Hajiyev:  Engineer 2 
 ENG3.       Bakhtiar Jabbarli:  Engineer 3 
 ENG4.       Natik Hasanagayev:  Engineer 4 
 ETIM.      09.30.04 14-May-21:  End Time 
 FLOI.gpm               460.00:  Flow In 
 FLON.gpm               200.00:  Flow In Min 
 FLOS.cptm                0.00:  Fluid Loss 
 FLOX.gpm               505.00:  Flow In Max 
 HFLO.                      No:  High Flow 
 HPRE.                      No:  High Pressure 
 HTEM.                      No:  High Temp 
 HYDO.m                   1.80:  Hydro Offset 
 IFIN.deg                66.71:  Inc, Final 
 IMAX.deg                67.03:  Inc Max 
 IMIN.deg                66.63:  Inc Min 
 IMND.m                4550.58:  Inc Min Depth 
 IMXD.m                4439.01:  Inc Max Depth 
 JARR.                      No:  Jarring 
 LETM.      10.45.04 08-May-21:  Log End Time 
 LOST.hr                     0:  Lost Rig Time 
 LSTM.      03.30.04 04-May-21:  Log Start Time 
 MDCL.ppm             37000.00:  Mud Chlorides 
 MDES.     Inversion Oil/Synthetic:  Mud Desc 
 DFD .sg                  1.38:  Mud Density 
 MDMN.sg                  1.35:  Dens Mud Min 
 MDMX.sg                  1.40:  Dens Mud Max 
 MOIL.                   57.40:  Run Mud Oil % 
 MOWR.                   70:30:  Run Mud OWR 
 MSND.                    0.00:  Run Mud Sand % 
 MSOL.                   18.00:  Run Mud Solids% 
 DFV .spqt               71.00:  Mud Viscosity 
 MWOD.in                  6.75:  MWD Tool OD 
 MWSI.                      No:  Serv Intrp, MWD 
 OTIM.hr                242.76:  Time Operating 
 PCON.           Look Like New:  Pad Condition 
 PMAX.psia            12183.92:  Press Op, Max 
 PV  .cP                 27.00:  Mud PV 
 RUN .                    1300:  Run Number 
 ROPA.m/hr               15.00:  ROP Avg 
 ROPN.m/hr                9.00:  ROP Min 
 ROPX.m/hr               19.00:  ROP Max 
 RPMA.rpm               120.00:  RPM Surface Avg 
 RPMN.rpm               100.00:  RPM Surface Min 
 RPMX.rpm               120.00:  RPM Surface Max 
 RRUN.                    1300:  Rig Run Number 
 RTIM.hr                  5.00:  Time Reaming 
 SAZI.deg               304.73:  Azm, Start 
 SDEP.m                4412.01:  Start Depth 
 SIDD.                      No:  Serv Intrp, DD 
 SINC.deg                66.82:  Inc, Start 
 SPPA.psig             2800.00:  SPP Avg 
 SPPN.psig             2610.00:  SPP Min 
 SPPX.psig             3100.00:  SPP Max 
 STIM.      03.30.00 04-May-21:  Start Time 
 SVCS.                 DD, MWD:  Services 
 SVER.                    9.20:  Sperry Version 
 TDAT.m                 228.00:  Tot Depth Attmp 
 TDDF.                      No:  Trip for DD 
 TDLG.m                 228.00:  Tot Depth Loggd 
 TFF .                      No:  Trip for Fail 
 TQAA.f-kp               15.00:  Torque Abs Avg 
 TQAN.f-kp               12.00:  Torque Abs Min 
 TQAX.f-kp               22.00:  Torque Abs Max 
 TRRT.°/30m               0.00:  Turn Rotating 
 MRT .                    HCIM:  Maximum Recorded Temperature 
 TTMX.degC               90.20:  Max Tool Temp 
 VS01.                90627813:  Virtual Str1 SN 
 VS02.                90634712:  Virtual Str2 SN 
 VS03.                90643410:  Virtual Str3 SN 
 VS04.                90634712:  Virtual Str4 SN 
 WBMN.klb                 9.00:  WOB Min 
 WITN.        Elmaddin Rahimov:  Customer Rep 
 WITN.         Haytham Mostafa:  Customer Rep 2 
 WOBA.klb                15.00:  WOB Avg 
 WOBX.klb                23.00:  WOB Max 
 YP  .lhf2               29.00:  Yield Point 
~Curve Information Block
#MNEM.UNIT                 API CODE     Curve Description
#---------               -----------    ---------------------------
 TIME.HHMMSS            00 000 000 000:  GT Time & Date
 GTDEPTH.m              00 000 000 000:  GT Depth
 GTPQH.psia             00 000 000 000:  GT HR Quartz Pressure
 GTTQ.degC              00 000 000 000:  GT Quartz Temperature
 GTTN.NONE              00 000 000 000:  GT Test Number
 GTET.sec               00 000 000 000:  GT Elapsed Test Time
 GTTVD.m                00 000 000 000:  GT True Vertical Depth
#Other Information
#
#WARRANTY: Halliburton will use its best efforts to furnish customers with 
#accurate information and interpretations that are part of, and incident to, the services 
#provided.  However, Halliburton cannot and does not warrant the accuracy 
#or correctness of such information and interpretations.  Under no circumstances should any 
#such information or interpretation be relied upon as the sole basis for any drilling, 
#completion, production, or financial decision or any procedure involving any risk to the 
#safety of any drilling venture, drilling rig or its crew or any other third party.  The 
#Customer has full responsibility for all drilling, completion and production operation.  
#Halliburton makes no representations or warranties, either expressed or 
#implied, including, but not limited to, the implied warranties of merchantability or fitness 
#for a particular purpose, with respect to the services rendered.  In no event will 
#Halliburton be liable for failure to obtain any particular results or for 
#any damages, including, but not limited to, indirect, special or consequential damages, 
#resulting from the use of any information or interpretation provided by Halliburton.
#
~A           TIME           GTDEPTH  GTPQH  GTTQ  GTTN   GTET   GTTVD  
# ...
   02:36:10.473.09-May-2021 4482.51  588.91 67.73 11.00  45.21 2965.25
   02:36:10.673.09-May-2021 4482.51  585.41 67.72 11.00  45.41 2965.25
   02:36:10.873.09-May-2021 4482.51  584.07 67.72 11.00  45.61 2965.25
   02:36:11.073.09-May-2021 4482.51  584.65 67.72 11.00  45.81 2965.25
   02:36:11.273.09-May-2021 4482.51  585.78 67.71 11.00  46.01 2965.25
   02:36:11.473.09-May-2021 4482.51  585.78 67.71 11.00  46.21 2965.25
   02:36:11.673.09-May-2021 4482.51  582.11 67.70 11.00  46.41 2965.25
   02:36:11.873.09-May-2021 4482.51  580.75 67.70 11.00  46.61 2965.25
   02:36:12.073.09-May-2021 4482.51  583.00 67.70 11.00  46.81 2965.25
   02:36:12.274.09-May-2021 4482.51  588.81 67.69 11.00  47.01 2965.25
   02:36:12.474.09-May-2021 4482.51  588.81 67.69 11.00  47.21 2965.25
   02:36:12.674.09-May-2021 4482.51  587.95 67.69 11.00  47.41 2965.25
   02:36:12.874.09-May-2021 4482.51  588.72 67.69 11.00  47.61 2965.25
   02:36:13.074.09-May-2021 4482.51  597.95 67.68 11.00  47.81 2965.25
   02:36:13.274.09-May-2021 4482.51  660.12 67.68 11.00  48.01 2965.25
   02:36:13.474.09-May-2021 4482.51  660.12 67.68 11.00  48.21 2965.25
   02:36:13.674.09-May-2021 4482.51  652.42 67.68 11.00  48.41 2965.25
   02:36:13.874.09-May-2021 4482.51  641.10 67.67 11.00  48.61 2965.25
   02:36:14.074.09-May-2021 4482.51  627.98 67.67 11.00  48.81 2965.25
   02:36:14.274.09-May-2021 4482.51  610.82 67.67 11.00  49.01 2965.25
   02:36:14.474.09-May-2021 4482.51  610.82 67.67 11.00  49.21 2965.25
   02:36:14.674.09-May-2021 4482.51  612.35 67.67 11.00  49.41 2965.25
   02:36:14.874.09-May-2021 4482.51  621.81 67.66 11.00  49.61 2965.25
   02:36:15.074.09-May-2021 4482.51  625.33 67.66 11.00  49.81 2965.25
   02:36:15.274.09-May-2021 4482.51  628.76 67.66 11.00  50.01 2965.25
   02:36:15.474.09-May-2021 4482.51  628.76 67.66 11.00  50.21 2965.25
   02:36:15.674.09-May-2021 4482.51  635.07 67.66 11.00  50.41 2965.25
   02:36:15.874.09-May-2021 4482.51  638.08 67.66 11.00  50.61 2965.25
   02:36:16.074.09-May-2021 4482.51  641.04 67.65 11.00  50.81 2965.25
   02:36:16.274.09-May-2021 4482.51  643.91 67.65 11.00  51.01 2965.25
   02:36:16.474.09-May-2021 4482.51  643.91 67.65 11.00  51.21 2965.25
   02:36:16.674.09-May-2021 4482.51  649.53 67.65 11.00  51.41 2965.25
   02:36:16.874.09-May-2021 4482.51  651.82 67.65 11.00  51.61 2965.25
   02:36:17.074.09-May-2021 4482.51  655.38 67.65 11.00  51.81 2965.25
   02:36:17.274.09-May-2021 4482.51  657.81 67.65 11.00  52.01 2965.25
   02:36:17.474.09-May-2021 4482.51  657.81 67.65 11.00  52.21 2965.25
   02:36:17.674.09-May-2021 4482.51  660.81 67.65 11.00  52.41 2965.25
   02:36:17.874.09-May-2021 4482.51  665.92 67.64 11.00  52.61 2965.25
   02:36:18.074.09-May-2021 4482.51  668.60 67.64 11.00  52.81 2965.25
   02:36:18.275.09-May-2021 4482.51  671.10 67.64 11.00  53.01 2965.25
   02:36:18.475.09-May-2021 4482.51  671.10 67.64 11.00  53.21 2965.25
   02:36:18.675.09-May-2021 4482.51  676.02 67.64 11.00  53.41 2965.25
   02:36:18.875.09-May-2021 4482.51  678.36 67.64 11.00  53.61 2965.25
   02:36:19.075.09-May-2021 4482.51  680.72 67.64 11.00  53.81 2965.25
   02:36:19.275.09-May-2021 4482.51  683.02 67.64 11.00  54.01 2965.25
   02:36:19.475.09-May-2021 4482.51  683.02 67.64 11.00  54.21 2965.25
   02:36:19.675.09-May-2021 4482.51  687.74 67.64 11.00  54.41 2965.25
   02:36:19.875.09-May-2021 4482.51  690.11 67.64 11.00  54.61 2965.25
   02:36:20.075.09-May-2021 4482.51  692.45 67.64 11.00  54.81 2965.25
   02:36:20.275.09-May-2021 4482.51  696.22 67.64 11.00  55.01 2965.25
   02:36:20.475.09-May-2021 4482.51  696.22 67.64 11.00  55.21 2965.25
   02:36:20.675.09-May-2021 4482.51  702.62 67.64 11.00  55.41 2965.25
   02:36:20.875.09-May-2021 4482.51  704.60 67.64 11.00  55.61 2965.25
   02:36:21.075.09-May-2021 4482.51  706.45 67.64 11.00  55.81 2965.25
   02:36:21.275.09-May-2021 4482.51  709.22 67.64 11.00  56.01 2965.25
   02:36:21.475.09-May-2021 4482.51  709.22 67.64 11.00  56.21 2965.25
   02:36:21.675.09-May-2021 4482.51  711.42 67.64 11.00  56.41 2965.25
   02:36:21.875.09-May-2021 4482.51  716.04 67.64 11.00  56.61 2965.25
   02:36:22.075.09-May-2021 4482.51  717.78 67.64 11.00  56.81 2965.25
   02:36:22.275.09-May-2021 4482.51  720.63 67.64 11.00  57.01 2965.25
   02:36:22.475.09-May-2021 4482.51  720.63 67.64 11.00  57.21 2965.25
   02:36:22.675.09-May-2021 4482.51  725.96 67.64 11.00  57.41 2965.25
   02:36:22.875.09-May-2021 4482.51  728.65 67.64 11.00  57.61 2965.25
   02:36:23.075.09-May-2021 4482.51  731.24 67.64 11.00  57.81 2965.25
   02:36:23.275.09-May-2021 4482.51  733.31 67.64 11.00  58.01 2965.25
   02:36:23.475.09-May-2021 4482.51  733.31 67.64 11.00  58.21 2965.25
   02:36:23.675.09-May-2021 4482.51  737.31 67.64 11.00  58.41 2965.25
   02:36:23.875.09-May-2021 4482.51  739.26 67.64 11.00  58.61 2965.25
   02:36:24.075.09-May-2021 4482.51  741.17 67.64 11.00  58.81 2965.25
   02:36:24.276.09-May-2021 4482.51  743.05 67.64 11.00  59.01 2965.25
   02:36:24.476.09-May-2021 4482.51  743.05 67.64 11.00  59.21 2965.25
   02:36:24.676.09-May-2021 4482.51  746.49 67.64 11.00  59.41 2965.25
   02:36:24.876.09-May-2021 4482.51  749.27 67.64 11.00  59.61 2965.25
   02:36:25.076.09-May-2021 4482.51  751.36 67.64 11.00  59.81 2965.25
   02:36:25.276.09-May-2021 4482.51  753.11 67.64 11.00  60.01 2965.25
   02:36:25.476.09-May-2021 4482.51  753.11 67.64 11.00  60.21 2965.25
   02:36:25.676.09-May-2021 4482.51  755.14 67.64 11.00  60.41 2965.25
   02:36:25.876.09-May-2021 4482.51  758.95 67.64 11.00  60.61 2965.25
   02:36:26.076.09-May-2021 4482.51  760.87 67.64 11.00  60.81 2965.25
   02:36:26.276.09-May-2021 4482.51  762.74 67.64 11.00  61.01 2965.25
   02:36:26.476.09-May-2021 4482.51  762.74 67.64 11.00  61.21 2965.25
   02:36:26.676.09-May-2021 4482.51  766.39 67.64 11.00  61.41 2965.25
   02:36:26.876.09-May-2021 4482.51  768.20 67.64 11.00  61.61 2965.25
   02:36:27.076.09-May-2021 4482.51  769.48 67.64 11.00  61.81 2965.25
   02:36:27.276.09-May-2021 4482.51  772.04 67.64 11.00  62.01 2965.25
   02:36:27.476.09-May-2021 4482.51  772.04 67.64 11.00  62.21 2965.25
   02:36:27.676.09-May-2021 4482.51  776.49 67.64 11.00  62.41 2965.25
   02:36:27.876.09-May-2021 4482.51  778.36 67.64 11.00  62.61 2965.25
   02:36:28.076.09-May-2021 4482.51  779.99 67.64 11.00  62.81 2965.25
   02:36:28.276.09-May-2021 4482.51  782.63 67.64 11.00  63.01 2965.25
   02:36:28.476.09-May-2021 4482.51  782.63 67.64 11.00  63.21 2965.25
   02:36:28.676.09-May-2021 4482.51  787.29 67.64 11.00  63.41 2965.25
   02:36:28.876.09-May-2021 4482.51  790.02 67.64 11.00  63.61 2965.25
   02:36:29.076.09-May-2021 4482.51  796.78 67.64 11.00  63.81 2965.25
   02:36:29.276.09-May-2021 4482.51  802.70 67.64 11.00  64.01 2965.25
   02:36:29.476.09-May-2021 4482.51  802.70 67.64 11.00  64.21 2965.25
   02:36:29.676.09-May-2021 4482.51  804.80 67.64 11.00  64.41 2965.25
   02:36:29.876.09-May-2021 4482.51  811.95 67.64 11.00  64.61 2965.25
   02:36:30.076.09-May-2021 4482.51  819.34 67.64 11.00  64.81 2965.25
   02:36:30.277.09-May-2021 4482.51  821.50 67.64 11.00  65.01 2965.25
   02:36:30.477.09-May-2021 4482.51  821.50 67.64 11.00  65.21 2965.25
   02:36:30.677.09-May-2021 4482.51  826.11 67.64 11.00  65.41 2965.25
   02:36:30.877.09-May-2021 4482.51  828.28 67.64 11.00  65.61 2965.25
   02:36:31.077.09-May-2021 4482.51  830.38 67.64 11.00  65.81 2965.25
   02:36:31.277.09-May-2021 4482.51  832.42 67.64 11.00  66.01 2965.25
   02:36:31.477.09-May-2021 4482.51  832.42 67.64 11.00  66.21 2965.25
   02:36:31.677.09-May-2021 4482.51  836.41 67.64 11.00  66.41 2965.25
   02:36:31.877.09-May-2021 4482.51  838.37 67.64 11.00  66.61 2965.25
   02:36:32.077.09-May-2021 4482.51  839.71 67.64 11.00  66.81 2965.25
   02:36:32.277.09-May-2021 4482.51  842.23 67.64 11.00  67.01 2965.25
   02:36:32.477.09-May-2021 4482.51  842.23 67.64 11.00  67.21 2965.25
   02:36:32.677.09-May-2021 4482.51  846.31 67.64 11.00  67.41 2965.25
   02:36:32.877.09-May-2021 4482.51  848.07 67.64 11.00  67.61 2965.25
