~Version Information
 VERS.                  2.0:   CWLS log ASCII Standard -VERSION 2.0
 WRAP.                   NO:   One line per depth step
~Well Information Block
#MNEM.UNIT     VALUE/NAME     DESCRIPTION
#---------     -----------    ---------------------------
 STRT.S             01:38:21 09-May-21: START TIME 01:38:21 09-May-21
 STOP.S             01:44:59 09-May-21: STOP TIME  01:44:59 09-May-21
 STEP.S                   0.00: STEP TIME
 NULL.                 -999.25: NULL VALUE
 PROV.                    Baku:  PROVINCE
 STAT.                    Baku:  STATE NAME
 SON .        AZ-XX-0906571588:  JOB NUMBER
 WTYP.                Deviated:  WELL TYPE
 COMP.     BP Exploration (Caspian Sea) ltd:  COMPANY
 BASE.              Azerbaijan:  LOGGING EQUIPMENT BASE LOCATION
 REGN.                   EESSA:  REGION
 CTRY.              Azerbaijan:  COUNTRY NAME
 FLD .                     ACG:  FIELD NAME
 WELL.                     J28:  WELL NAME
 RIG .             West Chirag:  RIG NAME
 DMF .             Drill Floor:  DRILL MEAS FROM
 PDAT.       Caspian Sea Level:  PERMANENT DATUM
 HPTY.       Minimum Curvature:  HOLE POS TYPE
 MDS .        Operator Entered:  MAG DATA SOURCE
 NREF.                    Grid:  NORTH REFERENCE
 SRVC.          TURAN DRILLING:  CONTRACTOR
 JOBN.        AZ-XX-0906571588:  JOB TICKET NUMB
 DCON.     Halliburton Sperry Drilling:  DIRECTNL CONTR
 STIM.      00.44.00 11-Feb-21:  START TIME
 DATE.      00.00.00 05-May-21:  END TIME
 SPUD.               13-Feb-21:  SPUD DATE
 MWDS.                    Baku:  MWD SHOP
 DOE .                     N/A:  DOE NUMBER
 UNIT.                     N/A:  LOGGING EQUIPMENT ID
 UWI .                     N/A:  UNIQUE WELL IDENTIFIER
 API .                     N/A:  API NUMBER
 CNTY.                        :  COUNTY
 LOC .                        :  LOCATION
 LMF .             Drill Floor:  LOG MEASURED FROM
 TVDS.m                  43.00:  TVDSS CORRECTN
 SDEP.m                 341.00:  START DEPTH
 EGL .m                   0.00:  GROUND ELEVATION
 WDMS.m                 169.80:  WD ELEV
 AGAP.m                  43.00:  AIR GAP
 EPD .m                   0.00:  ELEVATION
 APD .m                  43.00:  DEPTH ABOVE PD
 LATI.deg                40.13:  LATITUDE
 LONG.deg                51.22:  LONGITUDE
 UTMY.m             4443793.85:  UTM Y
 UTMX.m              519005.06:  UTM X
 WHEW.m                 -11.57:  WELL HEAD E/W
 WHNS.m                   8.57:  WELL HEAD N/S
 VSEW.m                 -11.57:  VERT SEC E/W
 VSNS.m                   8.57:  VERT SEC N/S
 DFWL.m                   0.00:  DISTANCE FWL
 DFSL.m                   0.00:  DISTANCE FSL
 VSDR.deg               299.34:  VERT SEC DIRECT
 GVFD.g                   1.00:  GRAVITY FIELD
 AZTC.deg                 6.36:  AZM TOTAL CORR
 MFLD.nT              50391.00:  MAGNETIC FIELD
 MDIP.deg                59.65:  MAGNETIC DIP
 MDEC.deg                 6.48:  MAGNETIC DECL
 GRDC.deg                 0.12:  GRID CORRECTION
 DEP .m                 334.96:  DEPTH
 TDD .m                1407.26:  TOTAL DEPTH (DRILLER)
 EKB .m                  43.00:  KB ELEVATION
 EDF .m                  43.00:  DF ELEVATION
 TDL .m                 228.00:  TOTAL DEPTH (LOGGER)
 VSC .                       0:  VS TO CLOSURE
 MAGU.                 1854484:  MAGUTM CHECKSUM
~Parameter Information Block
#MNEM.UNIT       Value        Description
#---------     -----------    ---------------------------
 AV  .mps                 4.00:  Ann Velocity 
 AVMX.mps                 4.73:  Max Ann Veloc 
 AZIF.deg               304.48:  Azm, Final 
 BHAT.        Rotary Steerable:  BHA Type 
 BREV.rev            257300.00:  Rev Bit Total 
 BROT.°/30m               0.00:  Build Rotating 
 BS  .in                  8.50:  Bit Size 
 BSZ .in                  8.50:  Bit Size 
 BTPL.psig              589.00:  Bit Press Loss 
 CABU.                      No:  Customer Abuse 
 CGEO.          Mubariz ghayev:  Customer Geo 
 TCS .hr                 64.25:  Time Ciculation Ended 
 CV  .mps                 3.50:  Crit Velocity 
 CVMX.mps                 4.52:  Max Crit Veloc 
 DD1 .             Aziz Aliyev:  Direct Drillr 1 
 DD2 .         Intigam Rahimov:  Direct Drillr 2 
 DD3 .          Rashad Habibov:  Direct Drillr 3 
 DDSV.               Geo-Pilot:  DD Service 
 DEFF.%                  98.00:  % Det Eff 
 DLRX.°/30m               0.00:  Dogleg Rot Max 
 DLSO.°/30m               0.00:  Dogleg Oriented 
 DLSX.°/30m               0.00:  Dogleg Str Max 
 DRET.      10.45.04 08-May-21:  Drill End Time 
 DRST.      03.30.04 04-May-21:  Drill Start Tim 
 DTIM.hr                 14.97:  Time Drilling 
 EDEP.m                4640.01:  End Depth 
 ENG1.         Dail Mahammadov:  Engineer 1 
 ENG2.           Eldar Hajiyev:  Engineer 2 
 ENG3.       Bakhtiar Jabbarli:  Engineer 3 
 ENG4.       Natik Hasanagayev:  Engineer 4 
 ETIM.      09.30.04 14-May-21:  End Time 
 FLOI.gpm               460.00:  Flow In 
 FLON.gpm               200.00:  Flow In Min 
 FLOS.cptm                0.00:  Fluid Loss 
 FLOX.gpm               505.00:  Flow In Max 
 HFLO.                      No:  High Flow 
 HPRE.                      No:  High Pressure 
 HTEM.                      No:  High Temp 
 HYDO.m                   1.80:  Hydro Offset 
 IFIN.deg                66.71:  Inc, Final 
 IMAX.deg                67.03:  Inc Max 
 IMIN.deg                66.63:  Inc Min 
 IMND.m                4550.58:  Inc Min Depth 
 IMXD.m                4439.01:  Inc Max Depth 
 JARR.                      No:  Jarring 
 LETM.      10.45.04 08-May-21:  Log End Time 
 LOST.hr                     0:  Lost Rig Time 
 LSTM.      03.30.04 04-May-21:  Log Start Time 
 MDCL.ppm             37000.00:  Mud Chlorides 
 MDES.     Inversion Oil/Synthetic:  Mud Desc 
 DFD .sg                  1.38:  Mud Density 
 MDMN.sg                  1.35:  Dens Mud Min 
 MDMX.sg                  1.40:  Dens Mud Max 
 MOIL.                   57.40:  Run Mud Oil % 
 MOWR.                   70:30:  Run Mud OWR 
 MSND.                    0.00:  Run Mud Sand % 
 MSOL.                   18.00:  Run Mud Solids% 
 DFV .spqt               71.00:  Mud Viscosity 
 MWOD.in                  6.75:  MWD Tool OD 
 MWSI.                      No:  Serv Intrp, MWD 
 OTIM.hr                242.76:  Time Operating 
 PCON.           Look Like New:  Pad Condition 
 PMAX.psia            12183.92:  Press Op, Max 
 PV  .cP                 27.00:  Mud PV 
 RUN .                    1300:  Run Number 
 ROPA.m/hr               15.00:  ROP Avg 
 ROPN.m/hr                9.00:  ROP Min 
 ROPX.m/hr               19.00:  ROP Max 
 RPMA.rpm               120.00:  RPM Surface Avg 
 RPMN.rpm               100.00:  RPM Surface Min 
 RPMX.rpm               120.00:  RPM Surface Max 
 RRUN.                    1300:  Rig Run Number 
 RTIM.hr                  5.00:  Time Reaming 
 SAZI.deg               304.73:  Azm, Start 
 SDEP.m                4412.01:  Start Depth 
 SIDD.                      No:  Serv Intrp, DD 
 SINC.deg                66.82:  Inc, Start 
 SPPA.psig             2800.00:  SPP Avg 
 SPPN.psig             2610.00:  SPP Min 
 SPPX.psig             3100.00:  SPP Max 
 STIM.      03.30.00 04-May-21:  Start Time 
 SVCS.                 DD, MWD:  Services 
 SVER.                    9.20:  Sperry Version 
 TDAT.m                 228.00:  Tot Depth Attmp 
 TDDF.                      No:  Trip for DD 
 TDLG.m                 228.00:  Tot Depth Loggd 
 TFF .                      No:  Trip for Fail 
 TQAA.f-kp               15.00:  Torque Abs Avg 
 TQAN.f-kp               12.00:  Torque Abs Min 
 TQAX.f-kp               22.00:  Torque Abs Max 
 TRRT.°/30m               0.00:  Turn Rotating 
 MRT .                    HCIM:  Maximum Recorded Temperature 
 TTMX.degC               90.20:  Max Tool Temp 
 VS01.                90627813:  Virtual Str1 SN 
 VS02.                90634712:  Virtual Str2 SN 
 VS03.                90643410:  Virtual Str3 SN 
 VS04.                90634712:  Virtual Str4 SN 
 WBMN.klb                 9.00:  WOB Min 
 WITN.        Elmaddin Rahimov:  Customer Rep 
 WITN.         Haytham Mostafa:  Customer Rep 2 
 WOBA.klb                15.00:  WOB Avg 
 WOBX.klb                23.00:  WOB Max 
 YP  .lhf2               29.00:  Yield Point 
~Curve Information Block
#MNEM.UNIT                 API CODE     Curve Description
#---------               -----------    ---------------------------
 TIME.HHMMSS            00 000 000 000:  GT Time & Date
 GTDEPTH.m              00 000 000 000:  GT Depth
 GTPQH.psia             00 000 000 000:  GT HR Quartz Pressure
 GTTQ.degC              00 000 000 000:  GT Quartz Temperature
 GTTN.NONE              00 000 000 000:  GT Test Number
 GTET.sec               00 000 000 000:  GT Elapsed Test Time
 GTTVD.m                00 000 000 000:  GT True Vertical Depth
#Other Information
#
#WARRANTY: Halliburton will use its best efforts to furnish customers with 
#accurate information and interpretations that are part of, and incident to, the services 
#provided.  However, Halliburton cannot and does not warrant the accuracy 
#or correctness of such information and interpretations.  Under no circumstances should any 
#such information or interpretation be relied upon as the sole basis for any drilling, 
#completion, production, or financial decision or any procedure involving any risk to the 
#safety of any drilling venture, drilling rig or its crew or any other third party.  The 
#Customer has full responsibility for all drilling, completion and production operation.  
#Halliburton makes no representations or warranties, either expressed or 
#implied, including, but not limited to, the implied warranties of merchantability or fitness 
#for a particular purpose, with respect to the services rendered.  In no event will 
#Halliburton be liable for failure to obtain any particular results or for 
#any damages, including, but not limited to, indirect, special or consequential damages, 
#resulting from the use of any information or interpretation provided by Halliburton.
#
~A           TIME           GTDEPTH  GTPQH  GTTQ  GTTN   GTET   GTTVD  
# ...
   01:43:37.850.09-May-2021 4502.51  790.28 67.51 10.00 316.51 2973.10
   01:43:38.050.09-May-2021 4502.51  789.83 67.51 10.00 316.71 2973.10
   01:43:38.250.09-May-2021 4502.51  790.55 67.51 10.00 316.91 2973.10
   01:43:38.450.09-May-2021 4502.51  790.69 67.51 10.00 317.11 2973.10
   01:43:38.650.09-May-2021 4502.51  790.69 67.51 10.00 317.31 2973.10
   01:43:38.851.09-May-2021 4502.51  791.18 67.51 10.00 317.52 2973.10
   01:43:39.051.09-May-2021 4502.51  791.13 67.51 10.00 317.72 2973.10
   01:43:39.251.09-May-2021 4502.51  791.32 67.51 10.00 317.92 2973.10
   01:43:39.451.09-May-2021 4502.51  791.51 67.51 10.00 318.12 2973.10
   01:43:39.651.09-May-2021 4502.51  791.51 67.51 10.00 318.32 2973.10
   01:43:39.851.09-May-2021 4502.51  791.38 67.51 10.00 318.52 2973.10
   01:43:40.051.09-May-2021 4502.51  792.16 67.51 10.00 318.72 2973.10
   01:43:40.251.09-May-2021 4502.51  792.16 67.51 10.00 318.92 2973.10
   01:43:40.451.09-May-2021 4502.51  792.19 67.51 10.00 319.12 2973.10
   01:43:40.651.09-May-2021 4502.51  792.19 67.51 10.00 319.32 2973.10
   01:43:40.851.09-May-2021 4502.51  792.71 67.51 10.00 319.52 2973.10
   01:43:41.051.09-May-2021 4502.51  792.96 67.51 10.00 319.72 2973.10
   01:43:41.251.09-May-2021 4502.51  793.15 67.51 10.00 319.92 2973.10
   01:43:41.451.09-May-2021 4502.51  793.40 67.51 10.00 320.12 2973.10
   01:43:41.652.09-May-2021 4502.51  793.40 67.51 10.00 320.32 2973.10
   01:43:41.852.09-May-2021 4502.51  793.86 67.51 10.00 320.52 2973.10
   01:43:42.052.09-May-2021 4502.51  794.09 67.51 10.00 320.72 2973.10
   01:43:42.252.09-May-2021 4502.51  794.11 67.51 10.00 320.92 2973.10
   01:43:42.452.09-May-2021 4502.51  794.21 67.51 10.00 321.12 2973.10
   01:43:42.652.09-May-2021 4502.51  794.21 67.51 10.00 321.32 2973.10
   01:43:42.852.09-May-2021 4502.51  794.87 67.51 10.00 321.52 2973.10
   01:43:43.052.09-May-2021 4502.51  794.87 67.51 10.00 321.72 2973.10
   01:43:43.252.09-May-2021 4502.51  795.14 67.51 10.00 321.92 2973.10
   01:43:43.452.09-May-2021 4502.51  795.36 67.51 10.00 322.12 2973.10
   01:43:43.652.09-May-2021 4502.51  795.36 67.51 10.00 322.32 2973.10
   01:43:43.852.09-May-2021 4502.51  795.78 67.51 10.00 322.52 2973.10
   01:43:44.052.09-May-2021 4502.51  795.99 67.51 10.00 322.72 2973.10
   01:43:44.252.09-May-2021 4502.51  796.21 67.51 10.00 322.92 2973.10
   01:43:44.453.09-May-2021 4502.51  796.43 67.51 10.00 323.12 2973.10
   01:43:44.653.09-May-2021 4502.51  796.43 67.51 10.00 323.32 2973.10
   01:43:44.853.09-May-2021 4502.51  796.49 67.51 10.00 323.52 2973.10
   01:43:45.053.09-May-2021 4502.51  796.93 67.51 10.00 323.72 2973.10
   01:43:45.253.09-May-2021 4502.51  797.07 67.51 10.00 323.92 2973.10
   01:43:45.453.09-May-2021 4502.51  797.22 67.51 10.00 324.12 2973.10
   01:43:45.653.09-May-2021 4502.51  797.22 67.51 10.00 324.32 2973.10
   01:43:45.853.09-May-2021 4502.51  797.77 67.51 10.00 324.52 2973.10
   01:43:46.053.09-May-2021 4502.51  797.90 67.51 10.00 324.72 2973.10
   01:43:46.253.09-May-2021 4502.51  797.49 67.51 10.00 324.92 2973.10
   01:43:46.453.09-May-2021 4502.51  798.08 67.51 10.00 325.12 2973.10
   01:43:46.653.09-May-2021 4502.51  798.08 67.51 10.00 325.32 2973.10
   01:43:46.853.09-May-2021 4502.51  798.51 67.51 10.00 325.52 2973.10
   01:43:47.054.09-May-2021 4502.51  798.47 67.51 10.00 325.72 2973.10
   01:43:47.254.09-May-2021 4502.51  798.70 67.51 10.00 325.92 2973.10
   01:43:47.454.09-May-2021 4502.51  798.43 67.51 10.00 326.12 2973.10
   01:43:47.654.09-May-2021 4502.51  798.43 67.51 10.00 326.32 2973.10
   01:43:47.854.09-May-2021 4502.51  799.28 67.51 10.00 326.52 2973.10
   01:43:48.054.09-May-2021 4502.51  799.25 67.51 10.00 326.72 2973.10
   01:43:48.254.09-May-2021 4502.51  799.59 67.51 10.00 326.92 2973.10
   01:43:48.454.09-May-2021 4502.51  799.75 67.51 10.00 327.12 2973.10
   01:43:48.654.09-May-2021 4502.51  799.75 67.51 10.00 327.32 2973.10
   01:43:48.854.09-May-2021 4502.51  800.21 67.51 10.00 327.52 2973.10
   01:43:49.054.09-May-2021 4502.51  800.41 67.51 10.00 327.72 2973.10
   01:43:49.254.09-May-2021 4502.51  800.65 67.51 10.00 327.92 2973.10
   01:43:49.454.09-May-2021 4502.51  800.88 67.51 10.00 328.12 2973.10
   01:43:49.654.09-May-2021 4502.51  800.88 67.51 10.00 328.32 2973.10
   01:43:49.855.09-May-2021 4502.51  801.14 67.51 10.00 328.52 2973.10
   01:43:50.055.09-May-2021 4502.51  801.21 67.51 10.00 328.72 2973.10
   01:43:50.255.09-May-2021 4502.51  801.79 67.51 10.00 328.92 2973.10
   01:43:50.455.09-May-2021 4502.51  801.94 67.51 10.00 329.12 2973.10
   01:43:50.655.09-May-2021 4502.51  801.94 67.51 10.00 329.32 2973.10
   01:43:50.855.09-May-2021 4502.51  802.19 67.51 10.00 329.52 2973.10
   01:43:51.055.09-May-2021 4502.51  802.39 67.51 10.00 329.72 2973.10
   01:43:51.255.09-May-2021 4502.51  802.60 67.51 10.00 329.92 2973.10
   01:43:51.455.09-May-2021 4502.51  802.81 67.51 10.00 330.12 2973.10
   01:43:51.655.09-May-2021 4502.51  802.81 67.51 10.00 330.32 2973.10
   01:43:51.855.09-May-2021 4502.51  803.24 67.51 10.00 330.52 2973.10
   01:43:52.055.09-May-2021 4502.51  803.46 67.51 10.00 330.72 2973.10
   01:43:52.255.09-May-2021 4502.51  803.68 67.51 10.00 330.92 2973.10
   01:43:52.455.09-May-2021 4502.51  803.51 67.51 10.00 331.12 2973.10
   01:43:52.656.09-May-2021 4502.51  803.51 67.51 10.00 331.32 2973.10
   01:43:52.856.09-May-2021 4502.51  812.56 67.51 10.00 331.52 2973.10
   01:43:53.056.09-May-2021 4502.51  818.69 67.51 10.00 331.72 2973.10
   01:43:53.256.09-May-2021 4502.51  818.31 67.51 10.00 331.92 2973.10
   01:43:53.456.09-May-2021 4502.51  819.20 67.51 10.00 332.12 2973.10
   01:43:53.656.09-May-2021 4502.51  819.20 67.51 10.00 332.32 2973.10
   01:43:53.856.09-May-2021 4502.51  819.37 67.51 10.00 332.52 2973.10
   01:43:54.056.09-May-2021 4502.51  819.25 67.51 10.00 332.72 2973.10
   01:43:54.256.09-May-2021 4502.51  820.03 67.51 10.00 332.92 2973.10
   01:43:54.456.09-May-2021 4502.51  820.07 67.51 10.00 333.12 2973.10
   01:43:54.656.09-May-2021 4502.51  820.07 67.51 10.00 333.32 2973.10
   01:43:54.856.09-May-2021 4502.51  820.15 67.51 10.00 333.52 2973.10
   01:43:55.056.09-May-2021 4502.51  820.72 67.51 10.00 333.72 2973.10
   01:43:55.256.09-May-2021 4502.51  820.97 67.51 10.00 333.92 2973.10
   01:43:55.457.09-May-2021 4502.51  820.96 67.51 10.00 334.12 2973.10
   01:43:55.657.09-May-2021 4502.51  820.96 67.51 10.00 334.32 2973.10
   01:43:55.857.09-May-2021 4502.51  823.43 67.51 10.00 334.52 2973.10
   01:43:56.057.09-May-2021 4502.51  826.32 67.51 10.00 334.72 2973.10
   01:43:56.257.09-May-2021 4502.51  826.74 67.51 10.00 334.92 2973.10
   01:43:56.457.09-May-2021 4502.51  827.10 67.51 10.00 335.12 2973.10
   01:43:56.657.09-May-2021 4502.51  827.10 67.51 10.00 335.32 2973.10
   01:43:56.857.09-May-2021 4502.51  827.79 67.51 10.00 335.52 2973.10
   01:43:57.057.09-May-2021 4502.51  828.13 67.51 10.00 335.72 2973.10
   01:43:57.257.09-May-2021 4502.51  828.09 67.51 10.00 335.92 2973.10
   01:43:57.457.09-May-2021 4502.51  828.70 67.51 10.00 336.12 2973.10
   01:43:57.657.09-May-2021 4502.51  828.70 67.51 10.00 336.32 2973.10
   01:43:57.857.09-May-2021 4502.51  829.53 67.51 10.00 336.52 2973.10
   01:43:58.057.09-May-2021 4502.51  829.56 67.51 10.00 336.72 2973.10
   01:43:58.258.09-May-2021 4502.51  829.86 67.51 10.00 336.92 2973.10
   01:43:58.458.09-May-2021 4502.51  830.14 67.51 10.00 337.12 2973.10
   01:43:58.658.09-May-2021 4502.51  830.14 67.51 10.00 337.32 2973.10
   01:43:58.858.09-May-2021 4502.51  830.76 67.51 10.00 337.52 2973.10
   01:43:59.058.09-May-2021 4502.51  831.06 67.51 10.00 337.72 2973.10
   01:43:59.258.09-May-2021 4502.51  831.37 67.51 10.00 337.92 2973.10
   01:43:59.458.09-May-2021 4502.51  831.65 67.51 10.00 338.12 2973.10
   01:43:59.658.09-May-2021 4502.51  831.65 67.51 10.00 338.32 2973.10
   01:43:59.858.09-May-2021 4502.51  831.82 67.51 10.00 338.52 2973.10
   01:44:00.058.09-May-2021 4502.51  832.76 67.51 10.00 338.72 2973.10
   01:44:00.258.09-May-2021 4502.51  832.76 67.51 10.00 338.92 2973.10
