~Version Information
 VERS.                  2.0:   CWLS log ASCII Standard -VERSION 2.0
 WRAP.                   NO:   One line per depth step
~Well Information Block
#MNEM.UNIT     VALUE/NAME     DESCRIPTION
#---------     -----------    ---------------------------
 STRT.S             01:50:25 10-May-21: START TIME 01:50:25 10-May-21
 STOP.S             01:58:33 10-May-21: STOP TIME  01:58:33 10-May-21
 STEP.S                   0.00: STEP TIME
 NULL.                 -999.25: NULL VALUE
 PROV.                    Baku:  PROVINCE
 STAT.                    Baku:  STATE NAME
 SON .        AZ-XX-0906571588:  JOB NUMBER
 WTYP.                Deviated:  WELL TYPE
 COMP.     BP Exploration (Caspian Sea) ltd:  COMPANY
 BASE.              Azerbaijan:  LOGGING EQUIPMENT BASE LOCATION
 REGN.                   EESSA:  REGION
 CTRY.              Azerbaijan:  COUNTRY NAME
 FLD .                     ACG:  FIELD NAME
 WELL.                     J28:  WELL NAME
 RIG .             West Chirag:  RIG NAME
 DMF .             Drill Floor:  DRILL MEAS FROM
 PDAT.       Caspian Sea Level:  PERMANENT DATUM
 HPTY.       Minimum Curvature:  HOLE POS TYPE
 MDS .        Operator Entered:  MAG DATA SOURCE
 NREF.                    Grid:  NORTH REFERENCE
 SRVC.          TURAN DRILLING:  CONTRACTOR
 JOBN.        AZ-XX-0906571588:  JOB TICKET NUMB
 DCON.     Halliburton Sperry Drilling:  DIRECTNL CONTR
 STIM.      00.44.00 11-Feb-21:  START TIME
 DATE.      00.00.00 05-May-21:  END TIME
 SPUD.               13-Feb-21:  SPUD DATE
 MWDS.                    Baku:  MWD SHOP
 DOE .                     N/A:  DOE NUMBER
 UNIT.                     N/A:  LOGGING EQUIPMENT ID
 UWI .                     N/A:  UNIQUE WELL IDENTIFIER
 API .                     N/A:  API NUMBER
 CNTY.                        :  COUNTY
 LOC .                        :  LOCATION
 LMF .             Drill Floor:  LOG MEASURED FROM
 TVDS.m                  43.00:  TVDSS CORRECTN
 SDEP.m                 341.00:  START DEPTH
 EGL .m                   0.00:  GROUND ELEVATION
 WDMS.m                 169.80:  WD ELEV
 AGAP.m                  43.00:  AIR GAP
 EPD .m                   0.00:  ELEVATION
 APD .m                  43.00:  DEPTH ABOVE PD
 LATI.deg                40.13:  LATITUDE
 LONG.deg                51.22:  LONGITUDE
 UTMY.m             4443793.85:  UTM Y
 UTMX.m              519005.06:  UTM X
 WHEW.m                 -11.57:  WELL HEAD E/W
 WHNS.m                   8.57:  WELL HEAD N/S
 VSEW.m                 -11.57:  VERT SEC E/W
 VSNS.m                   8.57:  VERT SEC N/S
 DFWL.m                   0.00:  DISTANCE FWL
 DFSL.m                   0.00:  DISTANCE FSL
 VSDR.deg               299.34:  VERT SEC DIRECT
 GVFD.g                   1.00:  GRAVITY FIELD
 AZTC.deg                 6.36:  AZM TOTAL CORR
 MFLD.nT              50391.00:  MAGNETIC FIELD
 MDIP.deg                59.65:  MAGNETIC DIP
 MDEC.deg                 6.48:  MAGNETIC DECL
 GRDC.deg                 0.12:  GRID CORRECTION
 DEP .m                 334.96:  DEPTH
 TDD .m                1407.26:  TOTAL DEPTH (DRILLER)
 EKB .m                  43.00:  KB ELEVATION
 EDF .m                  43.00:  DF ELEVATION
 TDL .m                 228.00:  TOTAL DEPTH (LOGGER)
 VSC .                       0:  VS TO CLOSURE
 MAGU.                 1854484:  MAGUTM CHECKSUM
~Parameter Information Block
#MNEM.UNIT       Value        Description
#---------     -----------    ---------------------------
 AV  .mps                 4.00:  Ann Velocity 
 AVMX.mps                 4.73:  Max Ann Veloc 
 AZIF.deg               304.48:  Azm, Final 
 BHAT.        Rotary Steerable:  BHA Type 
 BREV.rev            257300.00:  Rev Bit Total 
 BROT.°/30m               0.00:  Build Rotating 
 BS  .in                  8.50:  Bit Size 
 BSZ .in                  8.50:  Bit Size 
 BTPL.psig              589.00:  Bit Press Loss 
 CABU.                      No:  Customer Abuse 
 CGEO.          Mubariz ghayev:  Customer Geo 
 COMM.                     Í‚:  Run Comments 1 
 TCS .hr                 64.25:  Time Ciculation Ended 
 CV  .mps                 3.50:  Crit Velocity 
 CVMX.mps                 4.52:  Max Crit Veloc 
 DD1 .             Aziz Aliyev:  Direct Drillr 1 
 DD2 .         Intigam Rahimov:  Direct Drillr 2 
 DD3 .          Rashad Habibov:  Direct Drillr 3 
 DDSV.               Geo-Pilot:  DD Service 
 DEFF.%                  98.00:  % Det Eff 
 DLRX.°/30m               0.00:  Dogleg Rot Max 
 DLSO.°/30m               0.00:  Dogleg Oriented 
 DLSX.°/30m               0.00:  Dogleg Str Max 
 DRET.      10.45.04 08-May-21:  Drill End Time 
 DRST.      03.30.04 04-May-21:  Drill Start Tim 
 DTIM.hr                 14.97:  Time Drilling 
 EDEP.m                4640.01:  End Depth 
 ENG1.         Dail Mahammadov:  Engineer 1 
 ENG2.           Eldar Hajiyev:  Engineer 2 
 ENG3.       Bakhtiar Jabbarli:  Engineer 3 
 ENG4.       Natik Hasanagayev:  Engineer 4 
 ETIM.      09.30.04 14-May-21:  End Time 
 FLOI.gpm               460.00:  Flow In 
 FLON.gpm               200.00:  Flow In Min 
 FLOS.cptm                0.00:  Fluid Loss 
 FLOX.gpm               505.00:  Flow In Max 
 HFLO.                      No:  High Flow 
 HPRE.                      No:  High Pressure 
 HTEM.                      No:  High Temp 
 HYDO.m                   1.80:  Hydro Offset 
 IFIN.deg                66.71:  Inc, Final 
 IMAX.deg                67.03:  Inc Max 
 IMIN.deg                66.63:  Inc Min 
 IMND.m                4550.58:  Inc Min Depth 
 IMXD.m                4439.01:  Inc Max Depth 
 JARR.                      No:  Jarring 
 LETM.      10.45.04 08-May-21:  Log End Time 
 LOST.hr                     0:  Lost Rig Time 
 LSTM.      03.30.04 04-May-21:  Log Start Time 
 MDCL.ppm             37000.00:  Mud Chlorides 
 MDES.     Inversion Oil/Synthetic:  Mud Desc 
 DFD .sg                  1.38:  Mud Density 
 MDMN.sg                  1.35:  Dens Mud Min 
 MDMX.sg                  1.40:  Dens Mud Max 
 MOIL.                   57.40:  Run Mud Oil % 
 MOWR.                   70:30:  Run Mud OWR 
 MSND.                    0.00:  Run Mud Sand % 
 MSOL.                   18.00:  Run Mud Solids% 
 DFV .spqt               71.00:  Mud Viscosity 
 MWOD.in                  6.75:  MWD Tool OD 
 MWSI.                      No:  Serv Intrp, MWD 
 OTIM.hr                242.76:  Time Operating 
 PCON.           Look Like New:  Pad Condition 
 PMAX.psia            12183.92:  Press Op, Max 
 PV  .cP                 27.00:  Mud PV 
 RUN .                    1300:  Run Number 
 ROPA.m/hr               15.00:  ROP Avg 
 ROPN.m/hr                9.00:  ROP Min 
 ROPX.m/hr               19.00:  ROP Max 
 RPMA.rpm               120.00:  RPM Surface Avg 
 RPMN.rpm               100.00:  RPM Surface Min 
 RPMX.rpm               120.00:  RPM Surface Max 
 RRUN.                    1300:  Rig Run Number 
 RTIM.hr                  5.00:  Time Reaming 
 SAZI.deg               304.73:  Azm, Start 
 SDEP.m                4412.01:  Start Depth 
 SIDD.                      No:  Serv Intrp, DD 
 SINC.deg                66.82:  Inc, Start 
 SPPA.psig             2800.00:  SPP Avg 
 SPPN.psig             2610.00:  SPP Min 
 SPPX.psig             3100.00:  SPP Max 
 STIM.      03.30.00 04-May-21:  Start Time 
 SVCS.                 DD, MWD:  Services 
 SVER.                    9.20:  Sperry Version 
 TDAT.m                 228.00:  Tot Depth Attmp 
 TDDF.                      No:  Trip for DD 
 TDLG.m                 228.00:  Tot Depth Loggd 
 TFF .                      No:  Trip for Fail 
 TQAA.f-kp               15.00:  Torque Abs Avg 
 TQAN.f-kp               12.00:  Torque Abs Min 
 TQAX.f-kp               22.00:  Torque Abs Max 
 TRRT.°/30m               0.00:  Turn Rotating 
 MRT .                    HCIM:  Maximum Recorded Temperature 
 TTMX.degC               90.20:  Max Tool Temp 
 VS01.                90627813:  Virtual Str1 SN 
 VS02.                90634712:  Virtual Str2 SN 
 VS03.                90643410:  Virtual Str3 SN 
 VS04.                90634712:  Virtual Str4 SN 
 WBMN.klb                 9.00:  WOB Min 
 WITN.        Elmaddin Rahimov:  Customer Rep 
 WITN.         Haytham Mostafa:  Customer Rep 2 
 WOBA.klb                15.00:  WOB Avg 
 WOBX.klb                23.00:  WOB Max 
 YP  .lhf2               29.00:  Yield Point 
~Curve Information Block
#MNEM.UNIT                 API CODE     Curve Description
#---------               -----------    ---------------------------
 TIME.HHMMSS            00 000 000 000:  GT Time & Date
 GTDEPTH.m              00 000 000 000:  GT Depth
 GTPQH.psia             00 000 000 000:  GT HR Quartz Pressure
 GTTQ.degC              00 000 000 000:  GT Quartz Temperature
 GTTN.NONE              00 000 000 000:  GT Test Number
 GTET.sec               00 000 000 000:  GT Elapsed Test Time
 GTTVD.m                00 000 000 000:  GT True Vertical Depth
#Other Information
#
#WARRANTY: Halliburton will use its best efforts to furnish customers with 
#accurate information and interpretations that are part of, and incident to, the services 
#provided.  However, Halliburton cannot and does not warrant the accuracy 
#or correctness of such information and interpretations.  Under no circumstances should any 
#such information or interpretation be relied upon as the sole basis for any drilling, 
#completion, production, or financial decision or any procedure involving any risk to the 
#safety of any drilling venture, drilling rig or its crew or any other third party.  The 
#Customer has full responsibility for all drilling, completion and production operation.  
#Halliburton makes no representations or warranties, either expressed or 
#implied, including, but not limited to, the implied warranties of merchantability or fitness 
#for a particular purpose, with respect to the services rendered.  In no event will 
#Halliburton be liable for failure to obtain any particular results or for 
#any damages, including, but not limited to, indirect, special or consequential damages, 
#resulting from the use of any information or interpretation provided by Halliburton.
#
~A           TIME           GTDEPTH  GTPQH  GTTQ  GTTN   GTET   GTTVD  
# ...
   01:50:47.945.10-May-2021 4567.51 6595.14 61.20 19.00  22.60 2998.78
   01:50:48.145.10-May-2021 4567.51 6594.93 61.20 19.00  22.80 2998.78
   01:50:48.345.10-May-2021 4567.51 6595.37 61.20 19.00  23.00 2998.78
   01:50:48.545.10-May-2021 4567.51 6595.37 61.20 19.00  23.20 2998.78
   01:50:48.745.10-May-2021 4567.51 6595.22 61.20 19.00  23.40 2998.78
   01:50:48.945.10-May-2021 4567.51 6595.05 61.20 19.00  23.60 2998.78
   01:50:49.145.10-May-2021 4567.51 6601.70 61.20 19.00  23.80 2998.78
   01:50:49.345.10-May-2021 4567.51 6602.21 61.20 19.00  24.00 2998.78
   01:50:49.545.10-May-2021 4567.51 6602.21 61.20 19.00  24.20 2998.78
   01:50:49.745.10-May-2021 4567.51 6598.33 61.19 19.00  24.40 2998.78
   01:50:49.945.10-May-2021 4567.51 6598.05 61.19 19.00  24.60 2998.78
   01:50:50.145.10-May-2021 4567.51 6596.97 61.19 19.00  24.80 2998.78
   01:50:50.345.10-May-2021 4567.51 6596.01 61.19 19.00  25.00 2998.78
   01:50:50.546.10-May-2021 4567.51 6596.01 61.19 19.00  25.20 2998.78
   01:50:50.746.10-May-2021 4567.51 6596.59 61.19 19.00  25.40 2998.78
   01:50:50.946.10-May-2021 4567.51 6597.03 61.19 19.00  25.60 2998.78
   01:50:51.146.10-May-2021 4567.51 6596.60 61.19 19.00  25.80 2998.78
   01:50:51.346.10-May-2021 4567.51 6595.82 61.19 19.00  26.00 2998.78
   01:50:51.546.10-May-2021 4567.51 6595.82 61.19 19.00  26.20 2998.78
   01:50:51.746.10-May-2021 4567.51 6602.46 61.19 19.00  26.40 2998.78
   01:50:51.946.10-May-2021 4567.51 6601.26 61.19 19.00  26.60 2998.78
   01:50:52.146.10-May-2021 4567.51 6602.69 61.19 19.00  26.80 2998.78
   01:50:52.346.10-May-2021 4567.51 6596.62 61.19 19.00  27.00 2998.78
   01:50:52.546.10-May-2021 4567.51 6596.62 61.19 19.00  27.20 2998.78
   01:50:52.746.10-May-2021 4567.51 6597.39 61.19 19.00  27.40 2998.78
   01:50:52.946.10-May-2021 4567.51 6605.79 61.19 19.00  27.60 2998.78
   01:50:53.146.10-May-2021 4567.51 6600.91 61.19 19.00  27.80 2998.78
   01:50:53.346.10-May-2021 4567.51 6600.26 61.19 19.00  28.00 2998.78
   01:50:53.546.10-May-2021 4567.51 6600.26 61.19 19.00  28.21 2998.78
   01:50:53.746.10-May-2021 4567.51 6599.44 61.19 19.00  28.41 2998.78
   01:50:53.946.10-May-2021 4567.51 6603.45 61.19 19.00  28.61 2998.78
   01:50:54.146.10-May-2021 4567.51 6604.35 61.19 19.00  28.81 2998.78
   01:50:54.346.10-May-2021 4567.51 6599.90 61.19 19.00  29.01 2998.78
   01:50:54.546.10-May-2021 4567.51 6599.90 61.19 19.00  29.21 2998.78
   01:50:54.746.10-May-2021 4567.51 6603.23 61.19 19.00  29.41 2998.78
   01:50:54.946.10-May-2021 4567.51 6604.20 61.19 19.00  29.61 2998.78
   01:50:55.146.10-May-2021 4567.51 6599.05 61.19 19.00  29.81 2998.78
   01:50:55.346.10-May-2021 4567.51 6600.54 61.19 19.00  30.01 2998.78
   01:50:55.546.10-May-2021 4567.51 6600.54 61.19 19.00  30.21 2998.78
   01:50:55.746.10-May-2021 4567.51 6593.80 61.19 19.00  30.41 2998.78
   01:50:55.946.10-May-2021 4567.51 6631.68 61.19 19.00  30.61 2998.78
   01:50:56.147.10-May-2021 4567.51 6674.79 61.19 19.00  30.81 2998.78
   01:50:56.347.10-May-2021 4567.51 6496.28 61.19 19.00  31.01 2998.78
   01:50:56.547.10-May-2021 4567.51 6496.28 61.19 19.00  31.21 2998.78
   01:50:56.747.10-May-2021 4567.51 6150.20 61.19 19.00  31.41 2998.78
   01:50:56.947.10-May-2021 4567.51 6105.76 61.19 19.00  31.61 2998.78
   01:50:57.147.10-May-2021 4567.51 6066.35 61.19 19.00  31.81 2998.78
   01:50:57.347.10-May-2021 4567.51 6099.46 61.19 19.00  32.01 2998.78
   01:50:57.547.10-May-2021 4567.51 6099.46 61.19 19.00  32.21 2998.78
   01:50:57.747.10-May-2021 4567.51 6359.60 61.19 19.00  32.41 2998.78
   01:50:57.947.10-May-2021 4567.51 6424.27 61.19 19.00  32.61 2998.78
   01:50:58.147.10-May-2021 4567.51 6466.83 61.18 19.00  32.81 2998.78
   01:50:58.347.10-May-2021 4567.51 6510.28 61.18 19.00  33.01 2998.78
   01:50:58.547.10-May-2021 4567.51 6510.28 61.18 19.00  33.21 2998.78
   01:50:58.747.10-May-2021 4567.51 6620.66 61.18 19.00  33.41 2998.78
   01:50:58.947.10-May-2021 4567.51 6678.00 61.18 19.00  33.61 2998.78
   01:50:59.147.10-May-2021 4567.51 6726.19 61.18 19.00  33.81 2998.78
   01:50:59.347.10-May-2021 4567.51 6737.31 61.18 19.00  34.01 2998.78
   01:50:59.547.10-May-2021 4567.51 6737.31 61.18 19.00  34.21 2998.78
   01:50:59.747.10-May-2021 4567.51 6739.18 61.18 19.00  34.41 2998.78
   01:50:59.947.10-May-2021 4567.51 6749.04 61.18 19.00  34.61 2998.78
   01:51:00.147.10-May-2021 4567.51 6749.73 61.18 19.00  34.81 2998.78
   01:51:00.347.10-May-2021 4567.51 6751.10 61.18 19.00  35.01 2998.78
   01:51:00.547.10-May-2021 4567.51 6751.10 61.18 19.00  35.21 2998.78
   01:51:00.747.10-May-2021 4567.51 6744.96 61.18 19.00  35.41 2998.78
   01:51:00.947.10-May-2021 4567.51 6744.21 61.18 19.00  35.61 2998.78
   01:51:01.147.10-May-2021 4567.51 6730.35 61.18 19.00  35.81 2998.78
   01:51:01.347.10-May-2021 4567.51 6720.37 61.18 19.00  36.01 2998.78
   01:51:01.547.10-May-2021 4567.51 6720.37 61.18 19.00  36.21 2998.78
   01:51:01.748.10-May-2021 4567.51 6703.89 61.18 19.00  36.41 2998.78
   01:51:01.948.10-May-2021 4567.51 6691.12 61.18 19.00  36.61 2998.78
   01:51:02.148.10-May-2021 4567.51 6667.02 61.18 19.00  36.81 2998.78
   01:51:02.348.10-May-2021 4567.51 6649.57 61.18 19.00  37.01 2998.78
   01:51:02.548.10-May-2021 4567.51 6649.57 61.18 19.00  37.21 2998.78
   01:51:02.748.10-May-2021 4567.51 6583.69 61.18 19.00  37.41 2998.78
   01:51:02.948.10-May-2021 4567.51 6555.33 61.18 19.00  37.61 2998.78
   01:51:03.148.10-May-2021 4567.51 6503.91 61.18 19.00  37.81 2998.78
   01:51:03.348.10-May-2021 4567.51 6441.69 61.18 19.00  38.01 2998.78
   01:51:03.548.10-May-2021 4567.51 6441.69 61.18 19.00  38.21 2998.78
   01:51:03.748.10-May-2021 4567.51 6323.72 61.18 19.00  38.41 2998.78
   01:51:03.948.10-May-2021 4567.51 6273.72 61.18 19.00  38.61 2998.78
   01:51:04.148.10-May-2021 4567.51 6271.11 61.18 19.00  38.81 2998.78
   01:51:04.348.10-May-2021 4567.51 6333.50 61.18 19.00  39.01 2998.78
   01:51:04.548.10-May-2021 4567.51 6333.50 61.18 19.00  39.21 2998.78
   01:51:04.748.10-May-2021 4567.51 6505.88 61.18 19.00  39.41 2998.78
   01:51:04.948.10-May-2021 4567.51 6615.67 61.18 19.00  39.61 2998.78
   01:51:05.148.10-May-2021 4567.51 6685.39 61.18 19.00  39.81 2998.78
   01:51:05.348.10-May-2021 4567.51 6727.79 61.18 19.00  40.01 2998.78
   01:51:05.548.10-May-2021 4567.51 6727.79 61.18 19.00  40.21 2998.78
   01:51:05.748.10-May-2021 4567.51 6735.96 61.18 19.00  40.41 2998.78
   01:51:05.948.10-May-2021 4567.51 6737.00 61.18 19.00  40.61 2998.78
   01:51:06.148.10-May-2021 4567.51 6735.10 61.18 19.00  40.81 2998.78
   01:51:06.348.10-May-2021 4567.51 6732.25 61.18 19.00  41.01 2998.78
   01:51:06.548.10-May-2021 4567.51 6732.25 61.18 19.00  41.21 2998.78
   01:51:06.748.10-May-2021 4567.51 6726.90 61.18 19.00  41.41 2998.78
   01:51:06.948.10-May-2021 4567.51 6725.15 61.18 19.00  41.61 2998.78
   01:51:07.148.10-May-2021 4567.51 6723.06 61.18 19.00  41.81 2998.78
   01:51:07.349.10-May-2021 4567.51 6721.50 61.18 19.00  42.01 2998.78
   01:51:07.549.10-May-2021 4567.51 6721.50 61.18 19.00  42.21 2998.78
   01:51:07.749.10-May-2021 4567.51 6531.80 61.18 19.00  42.41 2998.78
   01:51:07.949.10-May-2021 4567.51 6386.49 61.18 19.00  42.61 2998.78
   01:51:08.149.10-May-2021 4567.51 6028.26 61.18 19.00  42.81 2998.78
   01:51:08.349.10-May-2021 4567.51 5342.64 61.18 19.00  43.01 2998.78
   01:51:08.549.10-May-2021 4567.51 5342.64 61.18 19.00  43.21 2998.78
   01:51:08.749.10-May-2021 4567.51 4171.88 61.18 19.00  43.41 2998.78
   01:51:08.949.10-May-2021 4567.51 3527.23 61.17 19.00  43.61 2998.78
   01:51:09.149.10-May-2021 4567.51 2969.29 61.17 19.00  43.81 2998.78
   01:51:09.349.10-May-2021 4567.51 2469.62 61.17 19.00  44.01 2998.78
   01:51:09.549.10-May-2021 4567.51 2469.62 61.17 19.00  44.21 2998.78
   01:51:09.749.10-May-2021 4567.51 1471.30 61.17 19.00  44.41 2998.78
   01:51:09.949.10-May-2021 4567.51 1042.17 61.17 19.00  44.61 2998.78
   01:51:10.149.10-May-2021 4567.51  773.72 61.17 19.00  44.81 2998.78
   01:51:10.349.10-May-2021 4567.51  665.73 61.16 19.00  45.01 2998.78
