~Version Information
 VERS.                  2.0:   CWLS log ASCII Standard -VERSION 2.0
 WRAP.                   NO:   One line per depth step
~Well Information Block
#MNEM.UNIT     VALUE/NAME     DESCRIPTION
#---------     -----------    ---------------------------
 STRT.S             00:47:21 09-May-21: START TIME 00:47:21 09-May-21
 STOP.S             00:54:19 09-May-21: STOP TIME  00:54:19 09-May-21
 STEP.S                   0.00: STEP TIME
 NULL.                 -999.25: NULL VALUE
 PROV.                    Baku:  PROVINCE
 STAT.                    Baku:  STATE NAME
 SON .        AZ-XX-0906571588:  JOB NUMBER
 WTYP.                Deviated:  WELL TYPE
 COMP.     BP Exploration (Caspian Sea) ltd:  COMPANY
 BASE.              Azerbaijan:  LOGGING EQUIPMENT BASE LOCATION
 REGN.                   EESSA:  REGION
 CTRY.              Azerbaijan:  COUNTRY NAME
 FLD .                     ACG:  FIELD NAME
 WELL.                     J28:  WELL NAME
 RIG .             West Chirag:  RIG NAME
 DMF .             Drill Floor:  DRILL MEAS FROM
 PDAT.       Caspian Sea Level:  PERMANENT DATUM
 HPTY.       Minimum Curvature:  HOLE POS TYPE
 MDS .        Operator Entered:  MAG DATA SOURCE
 NREF.                    Grid:  NORTH REFERENCE
 SRVC.          TURAN DRILLING:  CONTRACTOR
 JOBN.        AZ-XX-0906571588:  JOB TICKET NUMB
 DCON.     Halliburton Sperry Drilling:  DIRECTNL CONTR
 STIM.      00.44.00 11-Feb-21:  START TIME
 DATE.      00.00.00 05-May-21:  END TIME
 SPUD.               13-Feb-21:  SPUD DATE
 MWDS.                    Baku:  MWD SHOP
 DOE .                     N/A:  DOE NUMBER
 UNIT.                     N/A:  LOGGING EQUIPMENT ID
 UWI .                     N/A:  UNIQUE WELL IDENTIFIER
 API .                     N/A:  API NUMBER
 CNTY.                        :  COUNTY
 LOC .                        :  LOCATION
 LMF .             Drill Floor:  LOG MEASURED FROM
 TVDS.m                  43.00:  TVDSS CORRECTN
 SDEP.m                 341.00:  START DEPTH
 EGL .m                   0.00:  GROUND ELEVATION
 WDMS.m                 169.80:  WD ELEV
 AGAP.m                  43.00:  AIR GAP
 EPD .m                   0.00:  ELEVATION
 APD .m                  43.00:  DEPTH ABOVE PD
 LATI.deg                40.13:  LATITUDE
 LONG.deg                51.22:  LONGITUDE
 UTMY.m             4443793.85:  UTM Y
 UTMX.m              519005.06:  UTM X
 WHEW.m                 -11.57:  WELL HEAD E/W
 WHNS.m                   8.57:  WELL HEAD N/S
 VSEW.m                 -11.57:  VERT SEC E/W
 VSNS.m                   8.57:  VERT SEC N/S
 DFWL.m                   0.00:  DISTANCE FWL
 DFSL.m                   0.00:  DISTANCE FSL
 VSDR.deg               299.34:  VERT SEC DIRECT
 GVFD.g                   1.00:  GRAVITY FIELD
 AZTC.deg                 6.36:  AZM TOTAL CORR
 MFLD.nT              50391.00:  MAGNETIC FIELD
 MDIP.deg                59.65:  MAGNETIC DIP
 MDEC.deg                 6.48:  MAGNETIC DECL
 GRDC.deg                 0.12:  GRID CORRECTION
 DEP .m                 334.96:  DEPTH
 TDD .m                1407.26:  TOTAL DEPTH (DRILLER)
 EKB .m                  43.00:  KB ELEVATION
 EDF .m                  43.00:  DF ELEVATION
 TDL .m                 228.00:  TOTAL DEPTH (LOGGER)
 VSC .                       0:  VS TO CLOSURE
 MAGU.                 1854484:  MAGUTM CHECKSUM
~Parameter Information Block
#MNEM.UNIT       Value        Description
#---------     -----------    ---------------------------
 AV  .mps                 4.00:  Ann Velocity 
 AVMX.mps                 4.73:  Max Ann Veloc 
 AZIF.deg               304.48:  Azm, Final 
 BHAT.        Rotary Steerable:  BHA Type 
 BREV.rev            257300.00:  Rev Bit Total 
 BROT.°/30m               0.00:  Build Rotating 
 BS  .in                  8.50:  Bit Size 
 BSZ .in                  8.50:  Bit Size 
 BTPL.psig              589.00:  Bit Press Loss 
 CABU.                      No:  Customer Abuse 
 CGEO.          Mubariz ghayev:  Customer Geo 
 COMM.                     ­R:  Run Comments 1 
 TCS .hr                 64.25:  Time Ciculation Ended 
 CV  .mps                 3.50:  Crit Velocity 
 CVMX.mps                 4.52:  Max Crit Veloc 
 DD1 .             Aziz Aliyev:  Direct Drillr 1 
 DD2 .         Intigam Rahimov:  Direct Drillr 2 
 DD3 .          Rashad Habibov:  Direct Drillr 3 
 DDSV.               Geo-Pilot:  DD Service 
 DEFF.%                  98.00:  % Det Eff 
 DLRX.°/30m               0.00:  Dogleg Rot Max 
 DLSO.°/30m               0.00:  Dogleg Oriented 
 DLSX.°/30m               0.00:  Dogleg Str Max 
 DRET.      10.45.04 08-May-21:  Drill End Time 
 DRST.      03.30.04 04-May-21:  Drill Start Tim 
 DTIM.hr                 14.97:  Time Drilling 
 EDEP.m                4640.01:  End Depth 
 ENG1.         Dail Mahammadov:  Engineer 1 
 ENG2.           Eldar Hajiyev:  Engineer 2 
 ENG3.       Bakhtiar Jabbarli:  Engineer 3 
 ENG4.       Natik Hasanagayev:  Engineer 4 
 ETIM.      09.30.04 14-May-21:  End Time 
 FLOI.gpm               460.00:  Flow In 
 FLON.gpm               200.00:  Flow In Min 
 FLOS.cptm                0.00:  Fluid Loss 
 FLOX.gpm               505.00:  Flow In Max 
 HFLO.                      No:  High Flow 
 HPRE.                      No:  High Pressure 
 HTEM.                      No:  High Temp 
 HYDO.m                   1.80:  Hydro Offset 
 IFIN.deg                66.71:  Inc, Final 
 IMAX.deg                67.03:  Inc Max 
 IMIN.deg                66.63:  Inc Min 
 IMND.m                4550.58:  Inc Min Depth 
 IMXD.m                4439.01:  Inc Max Depth 
 JARR.                      No:  Jarring 
 LETM.      10.45.04 08-May-21:  Log End Time 
 LOST.hr                     0:  Lost Rig Time 
 LSTM.      03.30.04 04-May-21:  Log Start Time 
 MDCL.ppm             37000.00:  Mud Chlorides 
 MDES.     Inversion Oil/Synthetic:  Mud Desc 
 DFD .sg                  1.38:  Mud Density 
 MDMN.sg                  1.35:  Dens Mud Min 
 MDMX.sg                  1.40:  Dens Mud Max 
 MOIL.                   57.40:  Run Mud Oil % 
 MOWR.                   70:30:  Run Mud OWR 
 MSND.                    0.00:  Run Mud Sand % 
 MSOL.                   18.00:  Run Mud Solids% 
 DFV .spqt               71.00:  Mud Viscosity 
 MWOD.in                  6.75:  MWD Tool OD 
 MWSI.                      No:  Serv Intrp, MWD 
 OTIM.hr                242.76:  Time Operating 
 PCON.           Look Like New:  Pad Condition 
 PMAX.psia            12183.92:  Press Op, Max 
 PV  .cP                 27.00:  Mud PV 
 RUN .                    1300:  Run Number 
 ROPA.m/hr               15.00:  ROP Avg 
 ROPN.m/hr                9.00:  ROP Min 
 ROPX.m/hr               19.00:  ROP Max 
 RPMA.rpm               120.00:  RPM Surface Avg 
 RPMN.rpm               100.00:  RPM Surface Min 
 RPMX.rpm               120.00:  RPM Surface Max 
 RRUN.                    1300:  Rig Run Number 
 RTIM.hr                  5.00:  Time Reaming 
 SAZI.deg               304.73:  Azm, Start 
 SDEP.m                4412.01:  Start Depth 
 SIDD.                      No:  Serv Intrp, DD 
 SINC.deg                66.82:  Inc, Start 
 SPPA.psig             2800.00:  SPP Avg 
 SPPN.psig             2610.00:  SPP Min 
 SPPX.psig             3100.00:  SPP Max 
 STIM.      03.30.00 04-May-21:  Start Time 
 SVCS.                 DD, MWD:  Services 
 SVER.                    9.20:  Sperry Version 
 TDAT.m                 228.00:  Tot Depth Attmp 
 TDDF.                      No:  Trip for DD 
 TDLG.m                 228.00:  Tot Depth Loggd 
 TFF .                      No:  Trip for Fail 
 TQAA.f-kp               15.00:  Torque Abs Avg 
 TQAN.f-kp               12.00:  Torque Abs Min 
 TQAX.f-kp               22.00:  Torque Abs Max 
 TRRT.°/30m               0.00:  Turn Rotating 
 MRT .                    HCIM:  Maximum Recorded Temperature 
 TTMX.degC               90.20:  Max Tool Temp 
 VS01.                90627813:  Virtual Str1 SN 
 VS02.                90634712:  Virtual Str2 SN 
 VS03.                90643410:  Virtual Str3 SN 
 VS04.                90634712:  Virtual Str4 SN 
 WBMN.klb                 9.00:  WOB Min 
 WITN.        Elmaddin Rahimov:  Customer Rep 
 WITN.         Haytham Mostafa:  Customer Rep 2 
 WOBA.klb                15.00:  WOB Avg 
 WOBX.klb                23.00:  WOB Max 
 YP  .lhf2               29.00:  Yield Point 
~Curve Information Block
#MNEM.UNIT                 API CODE     Curve Description
#---------               -----------    ---------------------------
 TIME.HHMMSS            00 000 000 000:  GT Time & Date
 GTDEPTH.m              00 000 000 000:  GT Depth
 GTPQH.psia             00 000 000 000:  GT HR Quartz Pressure
 GTTQ.degC              00 000 000 000:  GT Quartz Temperature
 GTTN.NONE              00 000 000 000:  GT Test Number
 GTET.sec               00 000 000 000:  GT Elapsed Test Time
 GTTVD.m                00 000 000 000:  GT True Vertical Depth
#Other Information
#
#WARRANTY: Halliburton will use its best efforts to furnish customers with 
#accurate information and interpretations that are part of, and incident to, the services 
#provided.  However, Halliburton cannot and does not warrant the accuracy 
#or correctness of such information and interpretations.  Under no circumstances should any 
#such information or interpretation be relied upon as the sole basis for any drilling, 
#completion, production, or financial decision or any procedure involving any risk to the 
#safety of any drilling venture, drilling rig or its crew or any other third party.  The 
#Customer has full responsibility for all drilling, completion and production operation.  
#Halliburton makes no representations or warranties, either expressed or 
#implied, including, but not limited to, the implied warranties of merchantability or fitness 
#for a particular purpose, with respect to the services rendered.  In no event will 
#Halliburton be liable for failure to obtain any particular results or for 
#any damages, including, but not limited to, indirect, special or consequential damages, 
#resulting from the use of any information or interpretation provided by Halliburton.
#
~A           TIME           GTDEPTH  GTPQH  GTTQ  GTTN  GTET   GTTVD  
# ...
   00:51:57.327.09-May-2021 4512.01 3259.51 67.55 8.00 276.10 2976.83
   00:51:57.527.09-May-2021 4512.01 3259.51 67.55 8.00 276.30 2976.83
   00:51:57.727.09-May-2021 4512.01 3259.53 67.55 8.00 276.50 2976.83
   00:51:57.927.09-May-2021 4512.01 3259.56 67.55 8.00 276.70 2976.83
   00:51:58.127.09-May-2021 4512.01 3259.55 67.55 8.00 276.90 2976.83
   00:51:58.327.09-May-2021 4512.01 3259.57 67.55 8.00 277.10 2976.83
   00:51:58.527.09-May-2021 4512.01 3259.57 67.55 8.00 277.30 2976.83
   00:51:58.727.09-May-2021 4512.01 3259.60 67.55 8.00 277.50 2976.83
   00:51:58.927.09-May-2021 4512.01 3259.55 67.55 8.00 277.70 2976.83
   00:51:59.127.09-May-2021 4512.01 3259.77 67.55 8.00 277.90 2976.83
   00:51:59.328.09-May-2021 4512.01 3259.54 67.55 8.00 278.10 2976.83
   00:51:59.528.09-May-2021 4512.01 3259.54 67.55 8.00 278.30 2976.83
   00:51:59.728.09-May-2021 4512.01 3259.70 67.55 8.00 278.50 2976.83
   00:51:59.928.09-May-2021 4512.01 3259.61 67.55 8.00 278.70 2976.83
   00:52:00.128.09-May-2021 4512.01 3259.82 67.55 8.00 278.90 2976.83
   00:52:00.328.09-May-2021 4512.01 3259.60 67.56 8.00 279.10 2976.83
   00:52:00.528.09-May-2021 4512.01 3259.60 67.56 8.00 279.30 2976.83
   00:52:00.728.09-May-2021 4512.01 3259.72 67.56 8.00 279.50 2976.83
   00:52:00.928.09-May-2021 4512.01 3259.59 67.56 8.00 279.70 2976.83
   00:52:01.128.09-May-2021 4512.01 3259.86 67.56 8.00 279.90 2976.83
   00:52:01.328.09-May-2021 4512.01 3259.57 67.56 8.00 280.10 2976.83
   00:52:01.528.09-May-2021 4512.01 3259.57 67.56 8.00 280.30 2976.83
   00:52:01.728.09-May-2021 4512.01 3259.73 67.56 8.00 280.50 2976.83
   00:52:01.928.09-May-2021 4512.01 3259.70 67.56 8.00 280.70 2976.83
   00:52:02.129.09-May-2021 4512.01 3259.65 67.56 8.00 280.90 2976.83
   00:52:02.329.09-May-2021 4512.01 3259.90 67.56 8.00 281.10 2976.83
   00:52:02.529.09-May-2021 4512.01 3259.90 67.56 8.00 281.30 2976.83
   00:52:02.729.09-May-2021 4512.01 3259.76 67.56 8.00 281.50 2976.83
   00:52:02.929.09-May-2021 4512.01 3259.75 67.56 8.00 281.70 2976.83
   00:52:03.129.09-May-2021 4512.01 3259.74 67.56 8.00 281.90 2976.83
   00:52:03.329.09-May-2021 4512.01 3259.75 67.56 8.00 282.10 2976.83
   00:52:03.529.09-May-2021 4512.01 3259.75 67.56 8.00 282.30 2976.83
   00:52:03.729.09-May-2021 4512.01 3259.76 67.56 8.00 282.50 2976.83
   00:52:03.929.09-May-2021 4512.01 3259.76 67.56 8.00 282.70 2976.83
   00:52:04.129.09-May-2021 4512.01 3259.74 67.56 8.00 282.90 2976.83
   00:52:04.329.09-May-2021 4512.01 3259.76 67.56 8.00 283.10 2976.83
   00:52:04.529.09-May-2021 4512.01 3259.76 67.56 8.00 283.30 2976.83
   00:52:04.729.09-May-2021 4512.01 3259.72 67.56 8.00 283.50 2976.83
   00:52:04.930.09-May-2021 4512.01 3259.95 67.56 8.00 283.70 2976.83
   00:52:05.130.09-May-2021 4512.01 3259.60 67.56 8.00 283.90 2976.83
   00:52:05.330.09-May-2021 4512.01 3259.79 67.56 8.00 284.10 2976.83
   00:52:05.530.09-May-2021 4512.01 3259.79 67.56 8.00 284.30 2976.83
   00:52:05.730.09-May-2021 4512.01 3259.76 67.56 8.00 284.50 2976.83
   00:52:05.930.09-May-2021 4512.01 3259.76 67.56 8.00 284.70 2976.83
   00:52:06.130.09-May-2021 4512.01 3259.75 67.56 8.00 284.90 2976.83
   00:52:06.330.09-May-2021 4512.01 3259.78 67.56 8.00 285.10 2976.83
   00:52:06.530.09-May-2021 4512.01 3259.78 67.56 8.00 285.30 2976.83
   00:52:06.730.09-May-2021 4512.01 3259.77 67.56 8.00 285.50 2976.83
   00:52:06.930.09-May-2021 4512.01 3259.76 67.56 8.00 285.70 2976.83
   00:52:07.130.09-May-2021 4512.01 3259.75 67.56 8.00 285.90 2976.83
   00:52:07.330.09-May-2021 4512.01 3259.74 67.56 8.00 286.10 2976.83
   00:52:07.530.09-May-2021 4512.01 3259.74 67.56 8.00 286.30 2976.83
   00:52:07.731.09-May-2021 4512.01 3259.64 67.56 8.00 286.50 2976.83
   00:52:07.931.09-May-2021 4512.01 3259.80 67.56 8.00 286.70 2976.83
   00:52:08.131.09-May-2021 4512.01 3259.76 67.56 8.00 286.90 2976.83
   00:52:08.331.09-May-2021 4512.01 3259.78 67.56 8.00 287.10 2976.83
   00:52:08.531.09-May-2021 4512.01 3259.78 67.56 8.00 287.30 2976.83
   00:52:08.731.09-May-2021 4512.01 3259.96 67.56 8.00 287.50 2976.83
   00:52:08.931.09-May-2021 4512.01 3259.62 67.56 8.00 287.70 2976.83
   00:52:09.131.09-May-2021 4512.01 3259.78 67.56 8.00 287.90 2976.83
   00:52:09.331.09-May-2021 4512.01 3259.76 67.56 8.00 288.10 2976.83
   00:52:09.531.09-May-2021 4512.01 3259.76 67.56 8.00 288.30 2976.83
   00:52:09.731.09-May-2021 4512.01 3259.65 67.56 8.00 288.50 2976.83
   00:52:09.931.09-May-2021 4512.01 3259.80 67.56 8.00 288.70 2976.83
   00:52:10.131.09-May-2021 4512.01 3259.79 67.56 8.00 288.90 2976.83
   00:52:10.332.09-May-2021 4512.01 3259.77 67.56 8.00 289.10 2976.83
   00:52:10.532.09-May-2021 4512.01 3259.77 67.56 8.00 289.30 2976.83
   00:52:10.732.09-May-2021 4512.01 3259.95 67.56 8.00 289.50 2976.83
   00:52:10.932.09-May-2021 4512.01 3259.62 67.56 8.00 289.70 2976.83
   00:52:11.132.09-May-2021 4512.01 3259.81 67.56 8.00 289.91 2976.83
   00:52:11.332.09-May-2021 4512.01 3259.82 67.56 8.00 290.11 2976.83
   00:52:11.532.09-May-2021 4512.01 3259.82 67.56 8.00 290.31 2976.83
   00:52:11.732.09-May-2021 4512.01 3259.79 67.56 8.00 290.51 2976.83
   00:52:11.932.09-May-2021 4512.01 3259.77 67.56 8.00 290.71 2976.83
   00:52:12.132.09-May-2021 4512.01 3259.79 67.56 8.00 290.91 2976.83
   00:52:12.332.09-May-2021 4512.01 3259.81 67.56 8.00 291.11 2976.83
   00:52:12.532.09-May-2021 4512.01 3259.81 67.56 8.00 291.31 2976.83
   00:52:12.732.09-May-2021 4512.01 3259.79 67.56 8.00 291.51 2976.83
   00:52:12.932.09-May-2021 4512.01 3259.76 67.56 8.00 291.71 2976.83
   00:52:13.133.09-May-2021 4512.01 3259.76 67.56 8.00 291.91 2976.83
   00:52:13.333.09-May-2021 4512.01 3259.96 67.56 8.00 292.11 2976.83
   00:52:13.533.09-May-2021 4512.01 3259.96 67.56 8.00 292.31 2976.83
   00:52:13.733.09-May-2021 4512.01 3259.82 67.56 8.00 292.51 2976.83
   00:52:13.933.09-May-2021 4512.01 3259.79 67.56 8.00 292.71 2976.83
   00:52:14.133.09-May-2021 4512.01 3259.79 67.56 8.00 292.91 2976.83
   00:52:14.333.09-May-2021 4512.01 3259.79 67.56 8.00 293.11 2976.83
   00:52:14.533.09-May-2021 4512.01 3259.79 67.56 8.00 293.31 2976.83
   00:52:14.733.09-May-2021 4512.01 3259.79 67.56 8.00 293.51 2976.83
   00:52:14.933.09-May-2021 4512.01 3259.78 67.56 8.00 293.71 2976.83
   00:52:15.133.09-May-2021 4512.01 3259.79 67.56 8.00 293.91 2976.83
   00:52:15.333.09-May-2021 4512.01 3259.79 67.56 8.00 294.11 2976.83
   00:52:15.533.09-May-2021 4512.01 3259.79 67.56 8.00 294.31 2976.83
   00:52:15.733.09-May-2021 4512.01 3259.74 67.56 8.00 294.51 2976.83
   00:52:15.934.09-May-2021 4512.01 3259.94 67.56 8.00 294.71 2976.83
   00:52:16.134.09-May-2021 4512.01 3259.65 67.56 8.00 294.91 2976.83
   00:52:16.334.09-May-2021 4512.01 3259.81 67.56 8.00 295.11 2976.83
   00:52:16.534.09-May-2021 4512.01 3259.81 67.56 8.00 295.31 2976.83
   00:52:16.734.09-May-2021 4512.01 3259.77 67.56 8.00 295.51 2976.83
   00:52:16.934.09-May-2021 4512.01 3259.74 67.56 8.00 295.71 2976.83
   00:52:17.134.09-May-2021 4512.01 3259.96 67.56 8.00 295.91 2976.83
   00:52:17.334.09-May-2021 4512.01 3259.64 67.56 8.00 296.11 2976.83
   00:52:17.534.09-May-2021 4512.01 3259.64 67.56 8.00 296.31 2976.83
   00:52:17.734.09-May-2021 4512.01 3259.78 67.56 8.00 296.51 2976.83
   00:52:17.934.09-May-2021 4512.01 3259.94 67.56 8.00 296.71 2976.83
   00:52:18.134.09-May-2021 4512.01 3259.65 67.56 8.00 296.91 2976.83
   00:52:18.334.09-May-2021 4512.01 3259.79 67.56 8.00 297.11 2976.83
   00:52:18.534.09-May-2021 4512.01 3259.79 67.56 8.00 297.31 2976.83
   00:52:18.735.09-May-2021 4512.01 3259.78 67.56 8.00 297.51 2976.83
   00:52:18.935.09-May-2021 4512.01 3259.73 67.56 8.00 297.71 2976.83
   00:52:19.135.09-May-2021 4512.01 3259.93 67.56 8.00 297.91 2976.83
   00:52:19.335.09-May-2021 4512.01 3259.65 67.56 8.00 298.11 2976.83
   00:52:19.535.09-May-2021 4512.01 3259.65 67.56 8.00 298.31 2976.83
   00:52:19.735.09-May-2021 4512.01 3259.81 67.56 8.00 298.51 2976.83
   00:52:19.935.09-May-2021 4512.01 3259.78 67.56 8.00 298.71 2976.83
   00:52:20.135.09-May-2021 4512.01 3259.80 67.56 8.00 298.91 2976.83
