~Version Information
 VERS.                  2.0:   CWLS log ASCII Standard -VERSION 2.0
 WRAP.                   NO:   One line per depth step
~Well Information Block
#MNEM.UNIT     VALUE/NAME     DESCRIPTION
#---------     -----------    ---------------------------
 STRT.S             02:35:25 09-May-21: START TIME 02:35:25 09-May-21
 STOP.S             02:42:01 09-May-21: STOP TIME  02:42:01 09-May-21
 STEP.S                   0.00: STEP TIME
 NULL.                 -999.25: NULL VALUE
 PROV.                    Baku:  PROVINCE
 STAT.                    Baku:  STATE NAME
 SON .        AZ-XX-0906571588:  JOB NUMBER
 WTYP.                Deviated:  WELL TYPE
 COMP.     BP Exploration (Caspian Sea) ltd:  COMPANY
 BASE.              Azerbaijan:  LOGGING EQUIPMENT BASE LOCATION
 REGN.                   EESSA:  REGION
 CTRY.              Azerbaijan:  COUNTRY NAME
 FLD .                     ACG:  FIELD NAME
 WELL.                     J28:  WELL NAME
 RIG .             West Chirag:  RIG NAME
 DMF .             Drill Floor:  DRILL MEAS FROM
 PDAT.       Caspian Sea Level:  PERMANENT DATUM
 HPTY.       Minimum Curvature:  HOLE POS TYPE
 MDS .        Operator Entered:  MAG DATA SOURCE
 NREF.                    Grid:  NORTH REFERENCE
 SRVC.          TURAN DRILLING:  CONTRACTOR
 JOBN.        AZ-XX-0906571588:  JOB TICKET NUMB
 DCON.     Halliburton Sperry Drilling:  DIRECTNL CONTR
 STIM.      00.44.00 11-Feb-21:  START TIME
 DATE.      00.00.00 05-May-21:  END TIME
 SPUD.               13-Feb-21:  SPUD DATE
 MWDS.                    Baku:  MWD SHOP
 DOE .                     N/A:  DOE NUMBER
 UNIT.                     N/A:  LOGGING EQUIPMENT ID
 UWI .                     N/A:  UNIQUE WELL IDENTIFIER
 API .                     N/A:  API NUMBER
 CNTY.                        :  COUNTY
 LOC .                        :  LOCATION
 LMF .             Drill Floor:  LOG MEASURED FROM
 TVDS.m                  43.00:  TVDSS CORRECTN
 SDEP.m                 341.00:  START DEPTH
 EGL .m                   0.00:  GROUND ELEVATION
 WDMS.m                 169.80:  WD ELEV
 AGAP.m                  43.00:  AIR GAP
 EPD .m                   0.00:  ELEVATION
 APD .m                  43.00:  DEPTH ABOVE PD
 LATI.deg                40.13:  LATITUDE
 LONG.deg                51.22:  LONGITUDE
 UTMY.m             4443793.85:  UTM Y
 UTMX.m              519005.06:  UTM X
 WHEW.m                 -11.57:  WELL HEAD E/W
 WHNS.m                   8.57:  WELL HEAD N/S
 VSEW.m                 -11.57:  VERT SEC E/W
 VSNS.m                   8.57:  VERT SEC N/S
 DFWL.m                   0.00:  DISTANCE FWL
 DFSL.m                   0.00:  DISTANCE FSL
 VSDR.deg               299.34:  VERT SEC DIRECT
 GVFD.g                   1.00:  GRAVITY FIELD
 AZTC.deg                 6.36:  AZM TOTAL CORR
 MFLD.nT              50391.00:  MAGNETIC FIELD
 MDIP.deg                59.65:  MAGNETIC DIP
 MDEC.deg                 6.48:  MAGNETIC DECL
 GRDC.deg                 0.12:  GRID CORRECTION
 DEP .m                 334.96:  DEPTH
 TDD .m                1407.26:  TOTAL DEPTH (DRILLER)
 EKB .m                  43.00:  KB ELEVATION
 EDF .m                  43.00:  DF ELEVATION
 TDL .m                 228.00:  TOTAL DEPTH (LOGGER)
 VSC .                       0:  VS TO CLOSURE
 MAGU.                 1854484:  MAGUTM CHECKSUM
~Parameter Information Block
#MNEM.UNIT       Value        Description
#---------     -----------    ---------------------------
 AV  .mps                 4.00:  Ann Velocity 
 AVMX.mps                 4.73:  Max Ann Veloc 
 AZIF.deg               304.48:  Azm, Final 
 BHAT.        Rotary Steerable:  BHA Type 
 BREV.rev            257300.00:  Rev Bit Total 
 BROT.°/30m               0.00:  Build Rotating 
 BS  .in                  8.50:  Bit Size 
 BSZ .in                  8.50:  Bit Size 
 BTPL.psig              589.00:  Bit Press Loss 
 CABU.                      No:  Customer Abuse 
 CGEO.          Mubariz ghayev:  Customer Geo 
 COMM.                     LÑz:  Run Comments 1 
 TCS .hr                 64.25:  Time Ciculation Ended 
 CV  .mps                 3.50:  Crit Velocity 
 CVMX.mps                 4.52:  Max Crit Veloc 
 DD1 .             Aziz Aliyev:  Direct Drillr 1 
 DD2 .         Intigam Rahimov:  Direct Drillr 2 
 DD3 .          Rashad Habibov:  Direct Drillr 3 
 DDSV.               Geo-Pilot:  DD Service 
 DEFF.%                  98.00:  % Det Eff 
 DLRX.°/30m               0.00:  Dogleg Rot Max 
 DLSO.°/30m               0.00:  Dogleg Oriented 
 DLSX.°/30m               0.00:  Dogleg Str Max 
 DRET.      10.45.04 08-May-21:  Drill End Time 
 DRST.      03.30.04 04-May-21:  Drill Start Tim 
 DTIM.hr                 14.97:  Time Drilling 
 EDEP.m                4640.01:  End Depth 
 ENG1.         Dail Mahammadov:  Engineer 1 
 ENG2.           Eldar Hajiyev:  Engineer 2 
 ENG3.       Bakhtiar Jabbarli:  Engineer 3 
 ENG4.       Natik Hasanagayev:  Engineer 4 
 ETIM.      09.30.04 14-May-21:  End Time 
 FLOI.gpm               460.00:  Flow In 
 FLON.gpm               200.00:  Flow In Min 
 FLOS.cptm                0.00:  Fluid Loss 
 FLOX.gpm               505.00:  Flow In Max 
 HFLO.                      No:  High Flow 
 HPRE.                      No:  High Pressure 
 HTEM.                      No:  High Temp 
 HYDO.m                   1.80:  Hydro Offset 
 IFIN.deg                66.71:  Inc, Final 
 IMAX.deg                67.03:  Inc Max 
 IMIN.deg                66.63:  Inc Min 
 IMND.m                4550.58:  Inc Min Depth 
 IMXD.m                4439.01:  Inc Max Depth 
 JARR.                      No:  Jarring 
 LETM.      10.45.04 08-May-21:  Log End Time 
 LOST.hr                     0:  Lost Rig Time 
 LSTM.      03.30.04 04-May-21:  Log Start Time 
 MDCL.ppm             37000.00:  Mud Chlorides 
 MDES.     Inversion Oil/Synthetic:  Mud Desc 
 DFD .sg                  1.38:  Mud Density 
 MDMN.sg                  1.35:  Dens Mud Min 
 MDMX.sg                  1.40:  Dens Mud Max 
 MOIL.                   57.40:  Run Mud Oil % 
 MOWR.                   70:30:  Run Mud OWR 
 MSND.                    0.00:  Run Mud Sand % 
 MSOL.                   18.00:  Run Mud Solids% 
 DFV .spqt               71.00:  Mud Viscosity 
 MWOD.in                  6.75:  MWD Tool OD 
 MWSI.                      No:  Serv Intrp, MWD 
 OTIM.hr                242.76:  Time Operating 
 PCON.           Look Like New:  Pad Condition 
 PMAX.psia            12183.92:  Press Op, Max 
 PV  .cP                 27.00:  Mud PV 
 RUN .                    1300:  Run Number 
 ROPA.m/hr               15.00:  ROP Avg 
 ROPN.m/hr                9.00:  ROP Min 
 ROPX.m/hr               19.00:  ROP Max 
 RPMA.rpm               120.00:  RPM Surface Avg 
 RPMN.rpm               100.00:  RPM Surface Min 
 RPMX.rpm               120.00:  RPM Surface Max 
 RRUN.                    1300:  Rig Run Number 
 RTIM.hr                  5.00:  Time Reaming 
 SAZI.deg               304.73:  Azm, Start 
 SDEP.m                4412.01:  Start Depth 
 SIDD.                      No:  Serv Intrp, DD 
 SINC.deg                66.82:  Inc, Start 
 SPPA.psig             2800.00:  SPP Avg 
 SPPN.psig             2610.00:  SPP Min 
 SPPX.psig             3100.00:  SPP Max 
 STIM.      03.30.00 04-May-21:  Start Time 
 SVCS.                 DD, MWD:  Services 
 SVER.                    9.20:  Sperry Version 
 TDAT.m                 228.00:  Tot Depth Attmp 
 TDDF.                      No:  Trip for DD 
 TDLG.m                 228.00:  Tot Depth Loggd 
 TFF .                      No:  Trip for Fail 
 TQAA.f-kp               15.00:  Torque Abs Avg 
 TQAN.f-kp               12.00:  Torque Abs Min 
 TQAX.f-kp               22.00:  Torque Abs Max 
 TRRT.°/30m               0.00:  Turn Rotating 
 MRT .                    HCIM:  Maximum Recorded Temperature 
 TTMX.degC               90.20:  Max Tool Temp 
 VS01.                90627813:  Virtual Str1 SN 
 VS02.                90634712:  Virtual Str2 SN 
 VS03.                90643410:  Virtual Str3 SN 
 VS04.                90634712:  Virtual Str4 SN 
 WBMN.klb                 9.00:  WOB Min 
 WITN.        Elmaddin Rahimov:  Customer Rep 
 WITN.         Haytham Mostafa:  Customer Rep 2 
 WOBA.klb                15.00:  WOB Avg 
 WOBX.klb                23.00:  WOB Max 
 YP  .lhf2               29.00:  Yield Point 
~Curve Information Block
#MNEM.UNIT                 API CODE     Curve Description
#---------               -----------    ---------------------------
 TIME.HHMMSS            00 000 000 000:  GT Time & Date
 GTDEPTH.m              00 000 000 000:  GT Depth
 GTPQH.psia             00 000 000 000:  GT HR Quartz Pressure
 GTTQ.degC              00 000 000 000:  GT Quartz Temperature
 GTTN.NONE              00 000 000 000:  GT Test Number
 GTET.sec               00 000 000 000:  GT Elapsed Test Time
 GTTVD.m                00 000 000 000:  GT True Vertical Depth
#Other Information
#
#WARRANTY: Halliburton will use its best efforts to furnish customers with 
#accurate information and interpretations that are part of, and incident to, the services 
#provided.  However, Halliburton cannot and does not warrant the accuracy 
#or correctness of such information and interpretations.  Under no circumstances should any 
#such information or interpretation be relied upon as the sole basis for any drilling, 
#completion, production, or financial decision or any procedure involving any risk to the 
#safety of any drilling venture, drilling rig or its crew or any other third party.  The 
#Customer has full responsibility for all drilling, completion and production operation.  
#Halliburton makes no representations or warranties, either expressed or 
#implied, including, but not limited to, the implied warranties of merchantability or fitness 
#for a particular purpose, with respect to the services rendered.  In no event will 
#Halliburton be liable for failure to obtain any particular results or for 
#any damages, including, but not limited to, indirect, special or consequential damages, 
#resulting from the use of any information or interpretation provided by Halliburton.
#
~A           TIME           GTDEPTH  GTPQH  GTTQ  GTTN   GTET   GTTVD  
# ...
   02:38:26.096.09-May-2021 4482.51  923.98 67.67 11.00 180.83 2965.25
   02:38:26.296.09-May-2021 4482.51  926.18 67.67 11.00 181.03 2965.25
   02:38:26.496.09-May-2021 4482.51  926.18 67.67 11.00 181.23 2965.25
   02:38:26.696.09-May-2021 4482.51  931.51 67.67 11.00 181.43 2965.25
   02:38:26.896.09-May-2021 4482.51  933.68 67.67 11.00 181.63 2965.25
   02:38:27.096.09-May-2021 4482.51  936.20 67.67 11.00 181.83 2965.25
   02:38:27.296.09-May-2021 4482.51  938.51 67.67 11.00 182.03 2965.25
   02:38:27.496.09-May-2021 4482.51  938.51 67.67 11.00 182.23 2965.25
   02:38:27.696.09-May-2021 4482.51  943.26 67.67 11.00 182.43 2965.25
   02:38:27.896.09-May-2021 4482.51  945.68 67.67 11.00 182.63 2965.25
   02:38:28.096.09-May-2021 4482.51  948.05 67.67 11.00 182.83 2965.25
   02:38:28.296.09-May-2021 4482.51  950.36 67.67 11.00 183.03 2965.25
   02:38:28.496.09-May-2021 4482.51  950.36 67.67 11.00 183.23 2965.25
   02:38:28.696.09-May-2021 4482.51  952.66 67.67 11.00 183.43 2965.25
   02:38:28.896.09-May-2021 4482.51  957.19 67.67 11.00 183.63 2965.25
   02:38:29.096.09-May-2021 4482.51  959.45 67.67 11.00 183.83 2965.25
   02:38:29.296.09-May-2021 4482.51  961.64 67.67 11.00 184.03 2965.25
   02:38:29.496.09-May-2021 4482.51  961.64 67.67 11.00 184.23 2965.25
   02:38:29.696.09-May-2021 4482.51  965.14 67.67 11.00 184.43 2965.25
   02:38:29.897.09-May-2021 4482.51  966.99 67.67 11.00 184.63 2965.25
   02:38:30.097.09-May-2021 4482.51  968.99 67.67 11.00 184.83 2965.25
   02:38:30.297.09-May-2021 4482.51  971.16 67.67 11.00 185.03 2965.25
   02:38:30.497.09-May-2021 4482.51  971.16 67.67 11.00 185.23 2965.25
   02:38:30.697.09-May-2021 4482.51  975.47 67.67 11.00 185.43 2965.25
   02:38:30.897.09-May-2021 4482.51  977.66 67.67 11.00 185.63 2965.25
   02:38:31.097.09-May-2021 4482.51  979.80 67.67 11.00 185.83 2965.25
   02:38:31.297.09-May-2021 4482.51  981.50 67.67 11.00 186.03 2965.25
   02:38:31.497.09-May-2021 4482.51  981.50 67.67 11.00 186.23 2965.25
   02:38:31.697.09-May-2021 4482.51  986.23 67.67 11.00 186.43 2965.25
   02:38:31.897.09-May-2021 4482.51  988.63 67.67 11.00 186.63 2965.25
   02:38:32.097.09-May-2021 4482.51  990.16 67.67 11.00 186.83 2965.25
   02:38:32.297.09-May-2021 4482.51  992.71 67.67 11.00 187.03 2965.25
   02:38:32.497.09-May-2021 4482.51  992.71 67.67 11.00 187.23 2965.25
   02:38:32.697.09-May-2021 4482.51  996.93 67.67 11.00 187.43 2965.25
   02:38:32.897.09-May-2021 4482.51  998.81 67.67 11.00 187.63 2965.25
   02:38:33.097.09-May-2021 4482.51 1000.33 67.67 11.00 187.83 2965.25
   02:38:33.297.09-May-2021 4482.51 1003.08 67.67 11.00 188.03 2965.25
   02:38:33.497.09-May-2021 4482.51 1003.08 67.67 11.00 188.23 2965.25
   02:38:33.697.09-May-2021 4482.51 1006.91 67.67 11.00 188.43 2965.25
   02:38:33.897.09-May-2021 4482.51 1008.77 67.67 11.00 188.63 2965.25
   02:38:34.097.09-May-2021 4482.51 1010.51 67.67 11.00 188.83 2965.25
   02:38:34.297.09-May-2021 4482.51 1012.94 67.67 11.00 189.03 2965.25
   02:38:34.497.09-May-2021 4482.51 1012.94 67.67 11.00 189.23 2965.25
   02:38:34.697.09-May-2021 4482.51 1016.61 67.67 11.00 189.43 2965.25
   02:38:34.897.09-May-2021 4482.51 1018.70 67.67 11.00 189.63 2965.25
   02:38:35.097.09-May-2021 4482.51 1020.51 67.67 11.00 189.83 2965.25
   02:38:35.297.09-May-2021 4482.51 1022.44 67.67 11.00 190.03 2965.25
   02:38:35.497.09-May-2021 4482.51 1022.44 67.67 11.00 190.23 2965.25
   02:38:35.697.09-May-2021 4482.51 1026.13 67.67 11.00 190.43 2965.25
   02:38:35.898.09-May-2021 4482.51 1027.88 67.67 11.00 190.63 2965.25
   02:38:36.098.09-May-2021 4482.51 1029.35 67.67 11.00 190.83 2965.25
   02:38:36.298.09-May-2021 4482.51 1030.99 67.67 11.00 191.03 2965.25
   02:38:36.498.09-May-2021 4482.51 1030.99 67.67 11.00 191.23 2965.25
   02:38:36.698.09-May-2021 4482.51 1034.28 67.67 11.00 191.43 2965.25
   02:38:36.898.09-May-2021 4482.51 1036.00 67.67 11.00 191.63 2965.25
   02:38:37.098.09-May-2021 4482.51 1038.01 67.67 11.00 191.83 2965.25
   02:38:37.298.09-May-2021 4482.51 1039.62 67.67 11.00 192.03 2965.25
   02:38:37.498.09-May-2021 4482.51 1039.62 67.67 11.00 192.23 2965.25
   02:38:37.698.09-May-2021 4482.51 1043.30 67.67 11.00 192.43 2965.25
   02:38:37.898.09-May-2021 4482.51 1045.15 67.67 11.00 192.63 2965.25
   02:38:38.098.09-May-2021 4482.51 1046.94 67.67 11.00 192.83 2965.25
   02:38:38.298.09-May-2021 4482.51 1048.77 67.67 11.00 193.03 2965.25
   02:38:38.498.09-May-2021 4482.51 1048.77 67.67 11.00 193.23 2965.25
   02:38:38.698.09-May-2021 4482.51 1052.36 67.67 11.00 193.43 2965.25
   02:38:38.898.09-May-2021 4482.51 1054.22 67.67 11.00 193.63 2965.25
   02:38:39.098.09-May-2021 4482.51 1055.49 67.67 11.00 193.83 2965.25
   02:38:39.298.09-May-2021 4482.51 1058.00 67.67 11.00 194.03 2965.25
   02:38:39.498.09-May-2021 4482.51 1058.00 67.67 11.00 194.23 2965.25
   02:38:39.698.09-May-2021 4482.51 1061.47 67.67 11.00 194.43 2965.25
   02:38:39.898.09-May-2021 4482.51 1063.02 67.67 11.00 194.63 2965.25
   02:38:40.098.09-May-2021 4482.51 1064.74 67.67 11.00 194.83 2965.25
   02:38:40.298.09-May-2021 4482.51 1065.89 67.67 11.00 195.03 2965.25
   02:38:40.498.09-May-2021 4482.51 1065.89 67.67 11.00 195.23 2965.25
   02:38:40.698.09-May-2021 4482.51 1069.92 67.67 11.00 195.43 2965.25
   02:38:40.898.09-May-2021 4482.51 1071.75 67.67 11.00 195.63 2965.25
   02:38:41.098.09-May-2021 4482.51 1072.94 67.67 11.00 195.83 2965.25
   02:38:41.298.09-May-2021 4482.51 1075.15 67.67 11.00 196.03 2965.25
   02:38:41.498.09-May-2021 4482.51 1075.15 67.67 11.00 196.23 2965.25
   02:38:41.698.09-May-2021 4482.51 1078.02 67.67 11.00 196.43 2965.25
   02:38:41.899.09-May-2021 4482.51 1080.31 67.67 11.00 196.63 2965.25
   02:38:42.099.09-May-2021 4482.51 1081.88 67.67 11.00 196.83 2965.25
   02:38:42.299.09-May-2021 4482.51 1083.82 67.67 11.00 197.03 2965.25
   02:38:42.499.09-May-2021 4482.51 1083.82 67.67 11.00 197.23 2965.25
   02:38:42.699.09-May-2021 4482.51 1087.04 67.67 11.00 197.43 2965.25
   02:38:42.899.09-May-2021 4482.51 1088.74 67.67 11.00 197.63 2965.25
   02:38:43.099.09-May-2021 4482.51 1090.41 67.67 11.00 197.83 2965.25
   02:38:43.299.09-May-2021 4482.51 1092.11 67.67 11.00 198.03 2965.25
   02:38:43.499.09-May-2021 4482.51 1092.11 67.67 11.00 198.23 2965.25
   02:38:43.699.09-May-2021 4482.51 1094.80 67.67 11.00 198.43 2965.25
   02:38:43.899.09-May-2021 4482.51 1096.21 67.67 11.00 198.63 2965.25
   02:38:44.099.09-May-2021 4482.51 1097.66 67.67 11.00 198.83 2965.25
   02:38:44.299.09-May-2021 4482.51 1098.56 67.67 11.00 199.03 2965.25
   02:38:44.499.09-May-2021 4482.51 1098.56 67.67 11.00 199.23 2965.25
   02:38:44.699.09-May-2021 4482.51 1102.36 67.67 11.00 199.43 2965.25
   02:38:44.899.09-May-2021 4482.51 1104.16 67.67 11.00 199.63 2965.25
   02:38:45.099.09-May-2021 4482.51 1105.76 67.67 11.00 199.83 2965.25
   02:38:45.299.09-May-2021 4482.51 1107.45 67.67 11.00 200.03 2965.25
   02:38:45.499.09-May-2021 4482.51 1107.45 67.67 11.00 200.23 2965.25
   02:38:45.699.09-May-2021 4482.51 1110.82 67.67 11.00 200.43 2965.25
   02:38:45.899.09-May-2021 4482.51 1112.48 67.67 11.00 200.63 2965.25
   02:38:46.099.09-May-2021 4482.51 1114.16 67.67 11.00 200.83 2965.25
   02:38:46.299.09-May-2021 4482.51 1115.83 67.67 11.00 201.03 2965.25
   02:38:46.499.09-May-2021 4482.51 1115.83 67.67 11.00 201.23 2965.25
   02:38:46.699.09-May-2021 4482.51 1119.14 67.67 11.00 201.43 2965.25
   02:38:46.899.09-May-2021 4482.51 1120.27 67.67 11.00 201.63 2965.25
   02:38:47.099.09-May-2021 4482.51 1122.71 67.67 11.00 201.83 2965.25
   02:38:47.299.09-May-2021 4482.51 1124.03 67.67 11.00 202.03 2965.25
   02:38:47.499.09-May-2021 4482.51 1124.03 67.67 11.00 202.23 2965.25
   02:38:47.700.09-May-2021 4482.51 1126.93 67.67 11.00 202.43 2965.25
   02:38:47.900.09-May-2021 4482.51 1129.03 67.67 11.00 202.63 2965.25
   02:38:48.100.09-May-2021 4482.51 1130.67 67.67 11.00 202.83 2965.25
   02:38:48.300.09-May-2021 4482.51 1131.56 67.67 11.00 203.03 2965.25
   02:38:48.500.09-May-2021 4482.51 1131.56 67.67 11.00 203.23 2965.25
