~Version Information
 VERS.                  2.0:   CWLS log ASCII Standard -VERSION 2.0
 WRAP.                   NO:   One line per depth step
~Well Information Block
#MNEM.UNIT     VALUE/NAME     DESCRIPTION
#---------     -----------    ---------------------------
 STRT.S             02:35:25 09-May-21: START TIME 02:35:25 09-May-21
 STOP.S             02:42:01 09-May-21: STOP TIME  02:42:01 09-May-21
 STEP.S                   0.00: STEP TIME
 NULL.                 -999.25: NULL VALUE
 PROV.                    Baku:  PROVINCE
 STAT.                    Baku:  STATE NAME
 SON .        AZ-XX-0906571588:  JOB NUMBER
 WTYP.                Deviated:  WELL TYPE
 COMP.     BP Exploration (Caspian Sea) ltd:  COMPANY
 BASE.              Azerbaijan:  LOGGING EQUIPMENT BASE LOCATION
 REGN.                   EESSA:  REGION
 CTRY.              Azerbaijan:  COUNTRY NAME
 FLD .                     ACG:  FIELD NAME
 WELL.                     J28:  WELL NAME
 RIG .             West Chirag:  RIG NAME
 DMF .             Drill Floor:  DRILL MEAS FROM
 PDAT.       Caspian Sea Level:  PERMANENT DATUM
 HPTY.       Minimum Curvature:  HOLE POS TYPE
 MDS .        Operator Entered:  MAG DATA SOURCE
 NREF.                    Grid:  NORTH REFERENCE
 SRVC.          TURAN DRILLING:  CONTRACTOR
 JOBN.        AZ-XX-0906571588:  JOB TICKET NUMB
 DCON.     Halliburton Sperry Drilling:  DIRECTNL CONTR
 STIM.      00.44.00 11-Feb-21:  START TIME
 DATE.      00.00.00 05-May-21:  END TIME
 SPUD.               13-Feb-21:  SPUD DATE
 MWDS.                    Baku:  MWD SHOP
 DOE .                     N/A:  DOE NUMBER
 UNIT.                     N/A:  LOGGING EQUIPMENT ID
 UWI .                     N/A:  UNIQUE WELL IDENTIFIER
 API .                     N/A:  API NUMBER
 CNTY.                        :  COUNTY
 LOC .                        :  LOCATION
 LMF .             Drill Floor:  LOG MEASURED FROM
 TVDS.m                  43.00:  TVDSS CORRECTN
 SDEP.m                 341.00:  START DEPTH
 EGL .m                   0.00:  GROUND ELEVATION
 WDMS.m                 169.80:  WD ELEV
 AGAP.m                  43.00:  AIR GAP
 EPD .m                   0.00:  ELEVATION
 APD .m                  43.00:  DEPTH ABOVE PD
 LATI.deg                40.13:  LATITUDE
 LONG.deg                51.22:  LONGITUDE
 UTMY.m             4443793.85:  UTM Y
 UTMX.m              519005.06:  UTM X
 WHEW.m                 -11.57:  WELL HEAD E/W
 WHNS.m                   8.57:  WELL HEAD N/S
 VSEW.m                 -11.57:  VERT SEC E/W
 VSNS.m                   8.57:  VERT SEC N/S
 DFWL.m                   0.00:  DISTANCE FWL
 DFSL.m                   0.00:  DISTANCE FSL
 VSDR.deg               299.34:  VERT SEC DIRECT
 GVFD.g                   1.00:  GRAVITY FIELD
 AZTC.deg                 6.36:  AZM TOTAL CORR
 MFLD.nT              50391.00:  MAGNETIC FIELD
 MDIP.deg                59.65:  MAGNETIC DIP
 MDEC.deg                 6.48:  MAGNETIC DECL
 GRDC.deg                 0.12:  GRID CORRECTION
 DEP .m                 334.96:  DEPTH
 TDD .m                1407.26:  TOTAL DEPTH (DRILLER)
 EKB .m                  43.00:  KB ELEVATION
 EDF .m                  43.00:  DF ELEVATION
 TDL .m                 228.00:  TOTAL DEPTH (LOGGER)
 VSC .                       0:  VS TO CLOSURE
 MAGU.                 1854484:  MAGUTM CHECKSUM
~Parameter Information Block
#MNEM.UNIT       Value        Description
#---------     -----------    ---------------------------
 AV  .mps                 4.00:  Ann Velocity 
 AVMX.mps                 4.73:  Max Ann Veloc 
 AZIF.deg               304.48:  Azm, Final 
 BHAT.        Rotary Steerable:  BHA Type 
 BREV.rev            257300.00:  Rev Bit Total 
 BROT.°/30m               0.00:  Build Rotating 
 BS  .in                  8.50:  Bit Size 
 BSZ .in                  8.50:  Bit Size 
 BTPL.psig              589.00:  Bit Press Loss 
 CABU.                      No:  Customer Abuse 
 CGEO.          Mubariz ghayev:  Customer Geo 
 COMM.                     LÑz:  Run Comments 1 
 TCS .hr                 64.25:  Time Ciculation Ended 
 CV  .mps                 3.50:  Crit Velocity 
 CVMX.mps                 4.52:  Max Crit Veloc 
 DD1 .             Aziz Aliyev:  Direct Drillr 1 
 DD2 .         Intigam Rahimov:  Direct Drillr 2 
 DD3 .          Rashad Habibov:  Direct Drillr 3 
 DDSV.               Geo-Pilot:  DD Service 
 DEFF.%                  98.00:  % Det Eff 
 DLRX.°/30m               0.00:  Dogleg Rot Max 
 DLSO.°/30m               0.00:  Dogleg Oriented 
 DLSX.°/30m               0.00:  Dogleg Str Max 
 DRET.      10.45.04 08-May-21:  Drill End Time 
 DRST.      03.30.04 04-May-21:  Drill Start Tim 
 DTIM.hr                 14.97:  Time Drilling 
 EDEP.m                4640.01:  End Depth 
 ENG1.         Dail Mahammadov:  Engineer 1 
 ENG2.           Eldar Hajiyev:  Engineer 2 
 ENG3.       Bakhtiar Jabbarli:  Engineer 3 
 ENG4.       Natik Hasanagayev:  Engineer 4 
 ETIM.      09.30.04 14-May-21:  End Time 
 FLOI.gpm               460.00:  Flow In 
 FLON.gpm               200.00:  Flow In Min 
 FLOS.cptm                0.00:  Fluid Loss 
 FLOX.gpm               505.00:  Flow In Max 
 HFLO.                      No:  High Flow 
 HPRE.                      No:  High Pressure 
 HTEM.                      No:  High Temp 
 HYDO.m                   1.80:  Hydro Offset 
 IFIN.deg                66.71:  Inc, Final 
 IMAX.deg                67.03:  Inc Max 
 IMIN.deg                66.63:  Inc Min 
 IMND.m                4550.58:  Inc Min Depth 
 IMXD.m                4439.01:  Inc Max Depth 
 JARR.                      No:  Jarring 
 LETM.      10.45.04 08-May-21:  Log End Time 
 LOST.hr                     0:  Lost Rig Time 
 LSTM.      03.30.04 04-May-21:  Log Start Time 
 MDCL.ppm             37000.00:  Mud Chlorides 
 MDES.     Inversion Oil/Synthetic:  Mud Desc 
 DFD .sg                  1.38:  Mud Density 
 MDMN.sg                  1.35:  Dens Mud Min 
 MDMX.sg                  1.40:  Dens Mud Max 
 MOIL.                   57.40:  Run Mud Oil % 
 MOWR.                   70:30:  Run Mud OWR 
 MSND.                    0.00:  Run Mud Sand % 
 MSOL.                   18.00:  Run Mud Solids% 
 DFV .spqt               71.00:  Mud Viscosity 
 MWOD.in                  6.75:  MWD Tool OD 
 MWSI.                      No:  Serv Intrp, MWD 
 OTIM.hr                242.76:  Time Operating 
 PCON.           Look Like New:  Pad Condition 
 PMAX.psia            12183.92:  Press Op, Max 
 PV  .cP                 27.00:  Mud PV 
 RUN .                    1300:  Run Number 
 ROPA.m/hr               15.00:  ROP Avg 
 ROPN.m/hr                9.00:  ROP Min 
 ROPX.m/hr               19.00:  ROP Max 
 RPMA.rpm               120.00:  RPM Surface Avg 
 RPMN.rpm               100.00:  RPM Surface Min 
 RPMX.rpm               120.00:  RPM Surface Max 
 RRUN.                    1300:  Rig Run Number 
 RTIM.hr                  5.00:  Time Reaming 
 SAZI.deg               304.73:  Azm, Start 
 SDEP.m                4412.01:  Start Depth 
 SIDD.                      No:  Serv Intrp, DD 
 SINC.deg                66.82:  Inc, Start 
 SPPA.psig             2800.00:  SPP Avg 
 SPPN.psig             2610.00:  SPP Min 
 SPPX.psig             3100.00:  SPP Max 
 STIM.      03.30.00 04-May-21:  Start Time 
 SVCS.                 DD, MWD:  Services 
 SVER.                    9.20:  Sperry Version 
 TDAT.m                 228.00:  Tot Depth Attmp 
 TDDF.                      No:  Trip for DD 
 TDLG.m                 228.00:  Tot Depth Loggd 
 TFF .                      No:  Trip for Fail 
 TQAA.f-kp               15.00:  Torque Abs Avg 
 TQAN.f-kp               12.00:  Torque Abs Min 
 TQAX.f-kp               22.00:  Torque Abs Max 
 TRRT.°/30m               0.00:  Turn Rotating 
 MRT .                    HCIM:  Maximum Recorded Temperature 
 TTMX.degC               90.20:  Max Tool Temp 
 VS01.                90627813:  Virtual Str1 SN 
 VS02.                90634712:  Virtual Str2 SN 
 VS03.                90643410:  Virtual Str3 SN 
 VS04.                90634712:  Virtual Str4 SN 
 WBMN.klb                 9.00:  WOB Min 
 WITN.        Elmaddin Rahimov:  Customer Rep 
 WITN.         Haytham Mostafa:  Customer Rep 2 
 WOBA.klb                15.00:  WOB Avg 
 WOBX.klb                23.00:  WOB Max 
 YP  .lhf2               29.00:  Yield Point 
~Curve Information Block
#MNEM.UNIT                 API CODE     Curve Description
#---------               -----------    ---------------------------
 TIME.HHMMSS            00 000 000 000:  GT Time & Date
 GTDEPTH.m              00 000 000 000:  GT Depth
 GTPQH.psia             00 000 000 000:  GT HR Quartz Pressure
 GTTQ.degC              00 000 000 000:  GT Quartz Temperature
 GTTN.NONE              00 000 000 000:  GT Test Number
 GTET.sec               00 000 000 000:  GT Elapsed Test Time
 GTTVD.m                00 000 000 000:  GT True Vertical Depth
#Other Information
#
#WARRANTY: Halliburton will use its best efforts to furnish customers with 
#accurate information and interpretations that are part of, and incident to, the services 
#provided.  However, Halliburton cannot and does not warrant the accuracy 
#or correctness of such information and interpretations.  Under no circumstances should any 
#such information or interpretation be relied upon as the sole basis for any drilling, 
#completion, production, or financial decision or any procedure involving any risk to the 
#safety of any drilling venture, drilling rig or its crew or any other third party.  The 
#Customer has full responsibility for all drilling, completion and production operation.  
#Halliburton makes no representations or warranties, either expressed or 
#implied, including, but not limited to, the implied warranties of merchantability or fitness 
#for a particular purpose, with respect to the services rendered.  In no event will 
#Halliburton be liable for failure to obtain any particular results or for 
#any damages, including, but not limited to, indirect, special or consequential damages, 
#resulting from the use of any information or interpretation provided by Halliburton.
#
~A           TIME           GTDEPTH  GTPQH  GTTQ  GTTN   GTET   GTTVD  
# ...
   02:39:56.511.09-May-2021 4482.51  710.56 67.64 11.00 271.25 2965.25
   02:39:56.711.09-May-2021 4482.51  713.59 67.64 11.00 271.45 2965.25
   02:39:56.911.09-May-2021 4482.51  715.14 67.64 11.00 271.65 2965.25
   02:39:57.111.09-May-2021 4482.51  716.14 67.64 11.00 271.85 2965.25
   02:39:57.311.09-May-2021 4482.51  717.28 67.64 11.00 272.05 2965.25
   02:39:57.511.09-May-2021 4482.51  717.28 67.64 11.00 272.25 2965.25
   02:39:57.711.09-May-2021 4482.51  720.00 67.64 11.00 272.45 2965.25
   02:39:57.911.09-May-2021 4482.51  720.99 67.64 11.00 272.65 2965.25
   02:39:58.111.09-May-2021 4482.51  722.41 67.64 11.00 272.85 2965.25
   02:39:58.311.09-May-2021 4482.51  723.09 67.64 11.00 273.05 2965.25
   02:39:58.511.09-May-2021 4482.51  723.09 67.64 11.00 273.25 2965.25
   02:39:58.711.09-May-2021 4482.51  725.84 67.64 11.00 273.45 2965.25
   02:39:58.911.09-May-2021 4482.51  727.24 67.64 11.00 273.65 2965.25
   02:39:59.111.09-May-2021 4482.51  728.19 67.64 11.00 273.85 2965.25
   02:39:59.311.09-May-2021 4482.51  729.47 67.64 11.00 274.05 2965.25
   02:39:59.512.09-May-2021 4482.51  729.47 67.64 11.00 274.25 2965.25
   02:39:59.712.09-May-2021 4482.51  731.83 67.64 11.00 274.45 2965.25
   02:39:59.912.09-May-2021 4482.51  733.06 67.64 11.00 274.65 2965.25
   02:40:00.112.09-May-2021 4482.51  734.23 67.64 11.00 274.85 2965.25
   02:40:00.312.09-May-2021 4482.51  735.45 67.64 11.00 275.05 2965.25
   02:40:00.512.09-May-2021 4482.51  735.45 67.64 11.00 275.25 2965.25
   02:40:00.712.09-May-2021 4482.51  737.87 67.64 11.00 275.45 2965.25
   02:40:00.912.09-May-2021 4482.51  738.57 67.64 11.00 275.65 2965.25
   02:40:01.112.09-May-2021 4482.51  740.41 67.64 11.00 275.85 2965.25
   02:40:01.312.09-May-2021 4482.51  741.33 67.64 11.00 276.05 2965.25
   02:40:01.512.09-May-2021 4482.51  741.33 67.64 11.00 276.25 2965.25
   02:40:01.712.09-May-2021 4482.51  743.69 67.64 11.00 276.45 2965.25
   02:40:01.912.09-May-2021 4482.51  744.87 67.64 11.00 276.65 2965.25
   02:40:02.112.09-May-2021 4482.51  745.98 67.64 11.00 276.85 2965.25
   02:40:02.312.09-May-2021 4482.51  747.13 67.64 11.00 277.05 2965.25
   02:40:02.512.09-May-2021 4482.51  747.13 67.64 11.00 277.25 2965.25
   02:40:02.712.09-May-2021 4482.51  749.38 67.64 11.00 277.45 2965.25
   02:40:02.912.09-May-2021 4482.51  750.52 67.64 11.00 277.65 2965.25
   02:40:03.112.09-May-2021 4482.51  751.64 67.64 11.00 277.85 2965.25
   02:40:03.312.09-May-2021 4482.51  752.81 67.64 11.00 278.05 2965.25
   02:40:03.512.09-May-2021 4482.51  752.81 67.64 11.00 278.25 2965.25
   02:40:03.712.09-May-2021 4482.51  755.13 67.64 11.00 278.45 2965.25
   02:40:03.912.09-May-2021 4482.51  756.25 67.64 11.00 278.65 2965.25
   02:40:04.112.09-May-2021 4482.51  757.22 67.64 11.00 278.85 2965.25
   02:40:04.312.09-May-2021 4482.51  758.44 67.64 11.00 279.05 2965.25
   02:40:04.512.09-May-2021 4482.51  758.44 67.64 11.00 279.25 2965.25
   02:40:04.712.09-May-2021 4482.51  760.22 67.64 11.00 279.45 2965.25
   02:40:04.912.09-May-2021 4482.51  761.80 67.64 11.00 279.65 2965.25
   02:40:05.112.09-May-2021 4482.51  762.96 67.64 11.00 279.85 2965.25
   02:40:05.312.09-May-2021 4482.51  763.49 67.64 11.00 280.05 2965.25
   02:40:05.513.09-May-2021 4482.51  763.49 67.64 11.00 280.25 2965.25
   02:40:05.713.09-May-2021 4482.51  766.09 67.64 11.00 280.45 2965.25
   02:40:05.913.09-May-2021 4482.51  767.37 67.64 11.00 280.65 2965.25
   02:40:06.113.09-May-2021 4482.51  768.25 67.64 11.00 280.85 2965.25
   02:40:06.313.09-May-2021 4482.51  769.25 67.64 11.00 281.05 2965.25
   02:40:06.513.09-May-2021 4482.51  769.25 67.64 11.00 281.25 2965.25
   02:40:06.713.09-May-2021 4482.51  771.70 67.64 11.00 281.45 2965.25
   02:40:06.913.09-May-2021 4482.51  772.82 67.64 11.00 281.65 2965.25
   02:40:07.113.09-May-2021 4482.51  773.68 67.64 11.00 281.85 2965.25
   02:40:07.313.09-May-2021 4482.51  774.91 67.64 11.00 282.05 2965.25
   02:40:07.513.09-May-2021 4482.51  774.91 67.64 11.00 282.25 2965.25
   02:40:07.713.09-May-2021 4482.51  777.03 67.64 11.00 282.45 2965.25
   02:40:07.913.09-May-2021 4482.51  778.09 67.64 11.00 282.65 2965.25
   02:40:08.113.09-May-2021 4482.51  779.17 67.64 11.00 282.85 2965.25
   02:40:08.313.09-May-2021 4482.51  780.26 67.64 11.00 283.05 2965.25
   02:40:08.513.09-May-2021 4482.51  780.26 67.64 11.00 283.25 2965.25
   02:40:08.713.09-May-2021 4482.51  782.45 67.64 11.00 283.45 2965.25
   02:40:08.913.09-May-2021 4482.51  783.13 67.64 11.00 283.65 2965.25
   02:40:09.113.09-May-2021 4482.51  784.56 67.64 11.00 283.85 2965.25
   02:40:09.313.09-May-2021 4482.51  785.65 67.64 11.00 284.05 2965.25
   02:40:09.513.09-May-2021 4482.51  785.65 67.64 11.00 284.25 2965.25
   02:40:09.713.09-May-2021 4482.51  787.73 67.64 11.00 284.45 2965.25
   02:40:09.913.09-May-2021 4482.51  788.82 67.64 11.00 284.65 2965.25
   02:40:10.113.09-May-2021 4482.51  789.86 67.64 11.00 284.85 2965.25
   02:40:10.313.09-May-2021 4482.51  790.89 67.64 11.00 285.05 2965.25
   02:40:10.513.09-May-2021 4482.51  790.89 67.64 11.00 285.25 2965.25
   02:40:10.713.09-May-2021 4482.51  792.99 67.64 11.00 285.45 2965.25
   02:40:10.913.09-May-2021 4482.51  794.01 67.64 11.00 285.65 2965.25
   02:40:11.113.09-May-2021 4482.51  795.12 67.64 11.00 285.85 2965.25
   02:40:11.313.09-May-2021 4482.51  796.16 67.64 11.00 286.05 2965.25
   02:40:11.514.09-May-2021 4482.51  796.16 67.64 11.00 286.25 2965.25
   02:40:11.714.09-May-2021 4482.51  798.47 67.64 11.00 286.45 2965.25
   02:40:11.914.09-May-2021 4482.51  799.28 67.64 11.00 286.65 2965.25
   02:40:12.114.09-May-2021 4482.51  800.44 67.64 11.00 286.85 2965.25
   02:40:12.314.09-May-2021 4482.51  801.42 67.64 11.00 287.05 2965.25
   02:40:12.514.09-May-2021 4482.51  801.42 67.64 11.00 287.25 2965.25
   02:40:12.714.09-May-2021 4482.51  803.01 67.64 11.00 287.45 2965.25
   02:40:12.914.09-May-2021 4482.51  804.60 67.64 11.00 287.65 2965.25
   02:40:13.114.09-May-2021 4482.51  805.65 67.64 11.00 287.85 2965.25
   02:40:13.314.09-May-2021 4482.51  806.47 67.64 11.00 288.05 2965.25
   02:40:13.514.09-May-2021 4482.51  806.47 67.64 11.00 288.25 2965.25
   02:40:13.714.09-May-2021 4482.51  808.55 67.64 11.00 288.45 2965.25
   02:40:13.914.09-May-2021 4482.51  809.58 67.64 11.00 288.65 2965.25
   02:40:14.114.09-May-2021 4482.51  810.82 67.64 11.00 288.85 2965.25
   02:40:14.314.09-May-2021 4482.51  811.18 67.64 11.00 289.05 2965.25
   02:40:14.514.09-May-2021 4482.51  811.18 67.64 11.00 289.25 2965.25
   02:40:14.714.09-May-2021 4482.51  813.72 67.64 11.00 289.45 2965.25
   02:40:14.914.09-May-2021 4482.51  814.53 67.64 11.00 289.65 2965.25
   02:40:15.114.09-May-2021 4482.51  815.68 67.64 11.00 289.85 2965.25
   02:40:15.314.09-May-2021 4482.51  816.60 67.64 11.00 290.05 2965.25
   02:40:15.514.09-May-2021 4482.51  816.60 67.64 11.00 290.25 2965.25
   02:40:15.714.09-May-2021 4482.51  818.65 67.64 11.00 290.45 2965.25
   02:40:15.914.09-May-2021 4482.51  819.63 67.64 11.00 290.65 2965.25
   02:40:16.114.09-May-2021 4482.51  820.68 67.64 11.00 290.85 2965.25
   02:40:16.314.09-May-2021 4482.51  821.66 67.64 11.00 291.05 2965.25
   02:40:16.514.09-May-2021 4482.51  821.66 67.64 11.00 291.25 2965.25
   02:40:16.714.09-May-2021 4482.51  823.59 67.64 11.00 291.45 2965.25
   02:40:16.914.09-May-2021 4482.51  824.35 67.64 11.00 291.65 2965.25
   02:40:17.114.09-May-2021 4482.51  825.80 67.64 11.00 291.85 2965.25
   02:40:17.314.09-May-2021 4482.51  826.82 67.64 11.00 292.05 2965.25
   02:40:17.515.09-May-2021 4482.51  826.82 67.64 11.00 292.25 2965.25
   02:40:17.715.09-May-2021 4482.51  828.72 67.64 11.00 292.45 2965.25
   02:40:17.915.09-May-2021 4482.51  829.62 67.64 11.00 292.65 2965.25
   02:40:18.115.09-May-2021 4482.51  830.63 67.64 11.00 292.85 2965.25
   02:40:18.315.09-May-2021 4482.51  831.56 67.64 11.00 293.05 2965.25
   02:40:18.515.09-May-2021 4482.51  831.56 67.64 11.00 293.25 2965.25
   02:40:18.715.09-May-2021 4482.51  833.53 67.64 11.00 293.45 2965.25
   02:40:18.915.09-May-2021 4482.51  834.49 67.64 11.00 293.65 2965.25
