~Version Information
 VERS.                  2.0:   CWLS log ASCII Standard -VERSION 2.0
 WRAP.                   NO:   One line per depth step
~Well Information Block
#MNEM.UNIT     VALUE/NAME     DESCRIPTION
#---------     -----------    ---------------------------
 STRT.S             06:41:26 09-May-21: START TIME 06:41:26 09-May-21
 STOP.S             06:48:05 09-May-21: STOP TIME  06:48:05 09-May-21
 STEP.S                   0.00: STEP TIME
 NULL.                 -999.25: NULL VALUE
 PROV.                    Baku:  PROVINCE
 STAT.                    Baku:  STATE NAME
 SON .        AZ-XX-0906571588:  JOB NUMBER
 WTYP.                Deviated:  WELL TYPE
 COMP.     BP Exploration (Caspian Sea) ltd:  COMPANY
 BASE.              Azerbaijan:  LOGGING EQUIPMENT BASE LOCATION
 REGN.                   EESSA:  REGION
 CTRY.              Azerbaijan:  COUNTRY NAME
 FLD .                     ACG:  FIELD NAME
 WELL.                     J28:  WELL NAME
 RIG .             West Chirag:  RIG NAME
 DMF .             Drill Floor:  DRILL MEAS FROM
 PDAT.       Caspian Sea Level:  PERMANENT DATUM
 HPTY.       Minimum Curvature:  HOLE POS TYPE
 MDS .        Operator Entered:  MAG DATA SOURCE
 NREF.                    Grid:  NORTH REFERENCE
 SRVC.          TURAN DRILLING:  CONTRACTOR
 JOBN.        AZ-XX-0906571588:  JOB TICKET NUMB
 DCON.     Halliburton Sperry Drilling:  DIRECTNL CONTR
 STIM.      00.44.00 11-Feb-21:  START TIME
 DATE.      00.00.00 05-May-21:  END TIME
 SPUD.               13-Feb-21:  SPUD DATE
 MWDS.                    Baku:  MWD SHOP
 DOE .                     N/A:  DOE NUMBER
 UNIT.                     N/A:  LOGGING EQUIPMENT ID
 UWI .                     N/A:  UNIQUE WELL IDENTIFIER
 API .                     N/A:  API NUMBER
 CNTY.                        :  COUNTY
 LOC .                        :  LOCATION
 LMF .             Drill Floor:  LOG MEASURED FROM
 TVDS.m                  43.00:  TVDSS CORRECTN
 SDEP.m                 341.00:  START DEPTH
 EGL .m                   0.00:  GROUND ELEVATION
 WDMS.m                 169.80:  WD ELEV
 AGAP.m                  43.00:  AIR GAP
 EPD .m                   0.00:  ELEVATION
 APD .m                  43.00:  DEPTH ABOVE PD
 LATI.deg                40.13:  LATITUDE
 LONG.deg                51.22:  LONGITUDE
 UTMY.m             4443793.85:  UTM Y
 UTMX.m              519005.06:  UTM X
 WHEW.m                 -11.57:  WELL HEAD E/W
 WHNS.m                   8.57:  WELL HEAD N/S
 VSEW.m                 -11.57:  VERT SEC E/W
 VSNS.m                   8.57:  VERT SEC N/S
 DFWL.m                   0.00:  DISTANCE FWL
 DFSL.m                   0.00:  DISTANCE FSL
 VSDR.deg               299.34:  VERT SEC DIRECT
 GVFD.g                   1.00:  GRAVITY FIELD
 AZTC.deg                 6.36:  AZM TOTAL CORR
 MFLD.nT              50391.00:  MAGNETIC FIELD
 MDIP.deg                59.65:  MAGNETIC DIP
 MDEC.deg                 6.48:  MAGNETIC DECL
 GRDC.deg                 0.12:  GRID CORRECTION
 DEP .m                 334.96:  DEPTH
 TDD .m                1407.26:  TOTAL DEPTH (DRILLER)
 EKB .m                  43.00:  KB ELEVATION
 EDF .m                  43.00:  DF ELEVATION
 TDL .m                 228.00:  TOTAL DEPTH (LOGGER)
 VSC .                       0:  VS TO CLOSURE
 MAGU.                 1854484:  MAGUTM CHECKSUM
~Parameter Information Block
#MNEM.UNIT       Value        Description
#---------     -----------    ---------------------------
 AV  .mps                 4.00:  Ann Velocity 
 AVMX.mps                 4.73:  Max Ann Veloc 
 AZIF.deg               304.48:  Azm, Final 
 BHAT.        Rotary Steerable:  BHA Type 
 BREV.rev            257300.00:  Rev Bit Total 
 BROT.°/30m               0.00:  Build Rotating 
 BS  .in                  8.50:  Bit Size 
 BSZ .in                  8.50:  Bit Size 
 BTPL.psig              589.00:  Bit Press Loss 
 CABU.                      No:  Customer Abuse 
 CGEO.          Mubariz ghayev:  Customer Geo 
 COMM.                     ì
‚:  Run Comments 1 
 TCS .hr                 64.25:  Time Ciculation Ended 
 CV  .mps                 3.50:  Crit Velocity 
 CVMX.mps                 4.52:  Max Crit Veloc 
 DD1 .             Aziz Aliyev:  Direct Drillr 1 
 DD2 .         Intigam Rahimov:  Direct Drillr 2 
 DD3 .          Rashad Habibov:  Direct Drillr 3 
 DDSV.               Geo-Pilot:  DD Service 
 DEFF.%                  98.00:  % Det Eff 
 DLRX.°/30m               0.00:  Dogleg Rot Max 
 DLSO.°/30m               0.00:  Dogleg Oriented 
 DLSX.°/30m               0.00:  Dogleg Str Max 
 DRET.      10.45.04 08-May-21:  Drill End Time 
 DRST.      03.30.04 04-May-21:  Drill Start Tim 
 DTIM.hr                 14.97:  Time Drilling 
 EDEP.m                4640.01:  End Depth 
 ENG1.         Dail Mahammadov:  Engineer 1 
 ENG2.           Eldar Hajiyev:  Engineer 2 
 ENG3.       Bakhtiar Jabbarli:  Engineer 3 
 ENG4.       Natik Hasanagayev:  Engineer 4 
 ETIM.      09.30.04 14-May-21:  End Time 
 FLOI.gpm               460.00:  Flow In 
 FLON.gpm               200.00:  Flow In Min 
 FLOS.cptm                0.00:  Fluid Loss 
 FLOX.gpm               505.00:  Flow In Max 
 HFLO.                      No:  High Flow 
 HPRE.                      No:  High Pressure 
 HTEM.                      No:  High Temp 
 HYDO.m                   1.80:  Hydro Offset 
 IFIN.deg                66.71:  Inc, Final 
 IMAX.deg                67.03:  Inc Max 
 IMIN.deg                66.63:  Inc Min 
 IMND.m                4550.58:  Inc Min Depth 
 IMXD.m                4439.01:  Inc Max Depth 
 JARR.                      No:  Jarring 
 LETM.      10.45.04 08-May-21:  Log End Time 
 LOST.hr                     0:  Lost Rig Time 
 LSTM.      03.30.04 04-May-21:  Log Start Time 
 MDCL.ppm             37000.00:  Mud Chlorides 
 MDES.     Inversion Oil/Synthetic:  Mud Desc 
 DFD .sg                  1.38:  Mud Density 
 MDMN.sg                  1.35:  Dens Mud Min 
 MDMX.sg                  1.40:  Dens Mud Max 
 MOIL.                   57.40:  Run Mud Oil % 
 MOWR.                   70:30:  Run Mud OWR 
 MSND.                    0.00:  Run Mud Sand % 
 MSOL.                   18.00:  Run Mud Solids% 
 DFV .spqt               71.00:  Mud Viscosity 
 MWOD.in                  6.75:  MWD Tool OD 
 MWSI.                      No:  Serv Intrp, MWD 
 OTIM.hr                242.76:  Time Operating 
 PCON.           Look Like New:  Pad Condition 
 PMAX.psia            12183.92:  Press Op, Max 
 PV  .cP                 27.00:  Mud PV 
 RUN .                    1300:  Run Number 
 ROPA.m/hr               15.00:  ROP Avg 
 ROPN.m/hr                9.00:  ROP Min 
 ROPX.m/hr               19.00:  ROP Max 
 RPMA.rpm               120.00:  RPM Surface Avg 
 RPMN.rpm               100.00:  RPM Surface Min 
 RPMX.rpm               120.00:  RPM Surface Max 
 RRUN.                    1300:  Rig Run Number 
 RTIM.hr                  5.00:  Time Reaming 
 SAZI.deg               304.73:  Azm, Start 
 SDEP.m                4412.01:  Start Depth 
 SIDD.                      No:  Serv Intrp, DD 
 SINC.deg                66.82:  Inc, Start 
 SPPA.psig             2800.00:  SPP Avg 
 SPPN.psig             2610.00:  SPP Min 
 SPPX.psig             3100.00:  SPP Max 
 STIM.      03.30.00 04-May-21:  Start Time 
 SVCS.                 DD, MWD:  Services 
 SVER.                    9.20:  Sperry Version 
 TDAT.m                 228.00:  Tot Depth Attmp 
 TDDF.                      No:  Trip for DD 
 TDLG.m                 228.00:  Tot Depth Loggd 
 TFF .                      No:  Trip for Fail 
 TQAA.f-kp               15.00:  Torque Abs Avg 
 TQAN.f-kp               12.00:  Torque Abs Min 
 TQAX.f-kp               22.00:  Torque Abs Max 
 TRRT.°/30m               0.00:  Turn Rotating 
 MRT .                    HCIM:  Maximum Recorded Temperature 
 TTMX.degC               90.20:  Max Tool Temp 
 VS01.                90627813:  Virtual Str1 SN 
 VS02.                90634712:  Virtual Str2 SN 
 VS03.                90643410:  Virtual Str3 SN 
 VS04.                90634712:  Virtual Str4 SN 
 WBMN.klb                 9.00:  WOB Min 
 WITN.        Elmaddin Rahimov:  Customer Rep 
 WITN.         Haytham Mostafa:  Customer Rep 2 
 WOBA.klb                15.00:  WOB Avg 
 WOBX.klb                23.00:  WOB Max 
 YP  .lhf2               29.00:  Yield Point 
~Curve Information Block
#MNEM.UNIT                 API CODE     Curve Description
#---------               -----------    ---------------------------
 TIME.HHMMSS            00 000 000 000:  GT Time & Date
 GTDEPTH.m              00 000 000 000:  GT Depth
 GTPQH.psia             00 000 000 000:  GT HR Quartz Pressure
 GTTQ.degC              00 000 000 000:  GT Quartz Temperature
 GTTN.NONE              00 000 000 000:  GT Test Number
 GTET.sec               00 000 000 000:  GT Elapsed Test Time
 GTTVD.m                00 000 000 000:  GT True Vertical Depth
#Other Information
#
#WARRANTY: Halliburton will use its best efforts to furnish customers with 
#accurate information and interpretations that are part of, and incident to, the services 
#provided.  However, Halliburton cannot and does not warrant the accuracy 
#or correctness of such information and interpretations.  Under no circumstances should any 
#such information or interpretation be relied upon as the sole basis for any drilling, 
#completion, production, or financial decision or any procedure involving any risk to the 
#safety of any drilling venture, drilling rig or its crew or any other third party.  The 
#Customer has full responsibility for all drilling, completion and production operation.  
#Halliburton makes no representations or warranties, either expressed or 
#implied, including, but not limited to, the implied warranties of merchantability or fitness 
#for a particular purpose, with respect to the services rendered.  In no event will 
#Halliburton be liable for failure to obtain any particular results or for 
#any damages, including, but not limited to, indirect, special or consequential damages, 
#resulting from the use of any information or interpretation provided by Halliburton.
#
~A           TIME           GTDEPTH  GTPQH  GTTQ  GTTN   GTET   GTTVD  
# ...
   06:47:05.000.09-May-2021 4440.01  770.72 65.65 15.00 339.00 2948.57
   06:47:05.200.09-May-2021 4440.01  770.72 65.65 15.00 339.20 2948.57
   06:47:05.400.09-May-2021 4440.01  772.65 65.65 15.00 339.40 2948.57
   06:47:05.600.09-May-2021 4440.01  773.74 65.65 15.00 339.60 2948.57
   06:47:05.800.09-May-2021 4440.01  774.94 65.65 15.00 339.80 2948.57
   06:47:06.000.09-May-2021 4440.01  776.18 65.65 15.00 340.00 2948.57
   06:47:06.200.09-May-2021 4440.01  776.18 65.65 15.00 340.20 2948.57
   06:47:06.400.09-May-2021 4440.01  778.25 65.65 15.00 340.40 2948.57
   06:47:06.600.09-May-2021 4440.01  779.27 65.65 15.00 340.60 2948.57
   06:47:06.800.09-May-2021 4440.01  780.35 65.65 15.00 340.80 2948.57
   06:47:07.000.09-May-2021 4440.01  781.45 65.65 15.00 341.00 2948.57
   06:47:07.200.09-May-2021 4440.01  781.45 65.65 15.00 341.20 2948.57
   06:47:07.400.09-May-2021 4440.01  783.62 65.65 15.00 341.40 2948.57
   06:47:07.600.09-May-2021 4440.01  784.69 65.65 15.00 341.60 2948.57
   06:47:07.800.09-May-2021 4440.01  785.82 65.65 15.00 341.80 2948.57
   06:47:08.000.09-May-2021 4440.01  786.55 65.65 15.00 342.00 2948.57
   06:47:08.200.09-May-2021 4440.01  786.55 65.65 15.00 342.20 2948.57
   06:47:08.400.09-May-2021 4440.01  788.92 65.65 15.00 342.40 2948.57
   06:47:08.600.09-May-2021 4440.01  790.31 65.65 15.00 342.60 2948.57
   06:47:08.800.09-May-2021 4440.01  791.11 65.65 15.00 342.80 2948.57
   06:47:09.000.09-May-2021 4440.01  792.30 65.65 15.00 343.00 2948.57
   06:47:09.200.09-May-2021 4440.01  792.30 65.65 15.00 343.20 2948.57
   06:47:09.400.09-May-2021 4440.01  794.41 65.65 15.00 343.40 2948.57
   06:47:09.600.09-May-2021 4440.01  795.50 65.65 15.00 343.60 2948.57
   06:47:09.800.09-May-2021 4440.01  796.55 65.65 15.00 343.80 2948.57
   06:47:10.000.09-May-2021 4440.01  797.65 65.65 15.00 344.00 2948.57
   06:47:10.200.09-May-2021 4440.01  797.65 65.65 15.00 344.20 2948.57
   06:47:10.400.09-May-2021 4440.01  799.82 65.65 15.00 344.40 2948.57
   06:47:10.600.09-May-2021 4440.01  800.53 65.65 15.00 344.60 2948.57
   06:47:10.800.09-May-2021 4440.01  802.04 65.65 15.00 344.80 2948.57
   06:47:11.000.09-May-2021 4440.01  802.97 65.65 15.00 345.00 2948.57
   06:47:11.200.09-May-2021 4440.01  802.97 65.65 15.00 345.20 2948.57
   06:47:11.400.09-May-2021 4440.01  805.14 65.65 15.00 345.40 2948.57
   06:47:11.600.09-May-2021 4440.01  806.21 65.65 15.00 345.60 2948.57
   06:47:11.800.09-May-2021 4440.01  806.88 65.65 15.00 345.80 2948.57
   06:47:12.000.09-May-2021 4440.01  808.41 65.65 15.00 346.00 2948.57
   06:47:12.200.09-May-2021 4440.01  808.41 65.65 15.00 346.20 2948.57
   06:47:12.400.09-May-2021 4440.01  810.47 65.65 15.00 346.40 2948.57
   06:47:12.600.09-May-2021 4440.01  811.54 65.65 15.00 346.60 2948.57
   06:47:12.800.09-May-2021 4440.01  812.18 65.65 15.00 346.80 2948.57
   06:47:13.000.09-May-2021 4440.01  813.66 65.65 15.00 347.00 2948.57
   06:47:13.200.09-May-2021 4440.01  813.66 65.65 15.00 347.20 2948.57
   06:47:13.400.09-May-2021 4440.01  815.52 65.65 15.00 347.40 2948.57
   06:47:13.600.09-May-2021 4440.01  816.73 65.65 15.00 347.60 2948.57
   06:47:13.800.09-May-2021 4440.01  817.84 65.65 15.00 347.80 2948.57
   06:47:14.000.09-May-2021 4440.01  819.07 65.65 15.00 348.00 2948.57
   06:47:14.200.09-May-2021 4440.01  819.07 65.65 15.00 348.20 2948.57
   06:47:14.400.09-May-2021 4440.01  821.08 65.65 15.00 348.40 2948.57
   06:47:14.600.09-May-2021 4440.01  822.09 65.65 15.00 348.60 2948.57
   06:47:14.800.09-May-2021 4440.01  823.15 65.65 15.00 348.80 2948.57
   06:47:15.000.09-May-2021 4440.01  824.24 65.65 15.00 349.00 2948.57
   06:47:15.200.09-May-2021 4440.01  824.24 65.65 15.00 349.20 2948.57
   06:47:15.400.09-May-2021 4440.01  826.36 65.65 15.00 349.40 2948.57
   06:47:15.600.09-May-2021 4440.01  827.41 65.65 15.00 349.60 2948.57
   06:47:15.800.09-May-2021 4440.01  828.49 65.65 15.00 349.80 2948.57
   06:47:16.000.09-May-2021 4440.01  829.24 65.65 15.00 350.00 2948.57
   06:47:16.200.09-May-2021 4440.01  829.24 65.65 15.00 350.20 2948.57
   06:47:16.400.09-May-2021 4440.01  831.53 65.65 15.00 350.40 2948.57
   06:47:16.600.09-May-2021 4440.01  832.84 65.65 15.00 350.60 2948.57
   06:47:16.800.09-May-2021 4440.01  833.65 65.65 15.00 350.80 2948.57
   06:47:17.000.09-May-2021 4440.01  834.76 65.65 15.00 351.00 2948.57
   06:47:17.200.09-May-2021 4440.01  834.76 65.65 15.00 351.20 2948.57
   06:47:17.400.09-May-2021 4440.01  836.80 65.65 15.00 351.40 2948.57
   06:47:17.600.09-May-2021 4440.01  837.85 65.65 15.00 351.60 2948.57
   06:47:17.800.09-May-2021 4440.01  838.82 65.65 15.00 351.80 2948.57
   06:47:18.000.09-May-2021 4440.01  839.51 65.65 15.00 352.00 2948.57
   06:47:18.200.09-May-2021 4440.01  839.51 65.65 15.00 352.20 2948.57
   06:47:18.400.09-May-2021 4440.01  840.65 65.65 15.00 352.40 2948.57
   06:47:18.600.09-May-2021 4440.01  840.96 65.65 15.00 352.60 2948.57
   06:47:18.800.09-May-2021 4440.01  842.47 65.65 15.00 352.80 2948.57
   06:47:19.000.09-May-2021 4440.01  843.20 65.65 15.00 353.00 2948.57
   06:47:19.200.09-May-2021 4440.01  843.20 65.65 15.00 353.20 2948.57
   06:47:19.400.09-May-2021 4440.01  845.40 65.65 15.00 353.40 2948.57
   06:47:19.600.09-May-2021 4440.01  846.37 65.65 15.00 353.60 2948.57
   06:47:19.800.09-May-2021 4440.01  847.71 65.65 15.00 353.80 2948.57
   06:47:20.000.09-May-2021 4440.01  848.22 65.65 15.00 354.00 2948.57
   06:47:20.200.09-May-2021 4440.01  848.22 65.65 15.00 354.20 2948.57
   06:47:20.400.09-May-2021 4440.01  850.55 65.65 15.00 354.40 2948.57
   06:47:20.600.09-May-2021 4440.01  851.82 65.65 15.00 354.60 2948.57
   06:47:20.800.09-May-2021 4440.01  852.64 65.65 15.00 354.80 2948.57
   06:47:21.000.09-May-2021 4440.01  853.32 65.65 15.00 355.00 2948.57
   06:47:21.200.09-May-2021 4440.01  853.32 65.65 15.00 355.20 2948.57
   06:47:21.400.09-May-2021 4440.01  855.76 65.65 15.00 355.40 2948.57
   06:47:21.600.09-May-2021 4440.01  857.01 65.65 15.00 355.60 2948.57
   06:47:21.800.09-May-2021 4440.01  857.83 65.65 15.00 355.80 2948.57
   06:47:22.000.09-May-2021 4440.01  858.93 65.65 15.00 356.00 2948.57
   06:47:22.200.09-May-2021 4440.01  858.93 65.65 15.00 356.20 2948.57
   06:47:22.400.09-May-2021 4440.01  860.99 65.65 15.00 356.40 2948.57
   06:47:22.600.09-May-2021 4440.01  862.05 65.65 15.00 356.60 2948.57
   06:47:22.800.09-May-2021 4440.01  863.10 65.65 15.00 356.80 2948.57
   06:47:23.000.09-May-2021 4440.01  864.14 65.65 15.00 357.00 2948.57
   06:47:23.200.09-May-2021 4440.01  864.14 65.65 15.00 357.20 2948.57
   06:47:23.400.09-May-2021 4440.01  866.22 65.65 15.00 357.40 2948.57
   06:47:23.600.09-May-2021 4440.01  866.93 65.65 15.00 357.60 2948.57
   06:47:23.800.09-May-2021 4440.01  868.44 65.65 15.00 357.80 2948.57
   06:47:24.000.09-May-2021 4440.01  869.43 65.65 15.00 358.00 2948.57
   06:47:24.200.09-May-2021 4440.01  869.43 65.65 15.00 358.20 2948.57
   06:47:24.400.09-May-2021 4440.01  871.46 65.65 15.00 358.40 2948.57
   06:47:24.600.09-May-2021 4440.01  872.43 65.65 15.00 358.60 2948.57
   06:47:24.800.09-May-2021 4440.01  873.51 65.65 15.00 358.80 2948.57
   06:47:25.000.09-May-2021 4440.01  874.54 65.65 15.00 359.00 2948.57
   06:47:25.200.09-May-2021 4440.01  874.54 65.65 15.00 359.20 2948.57
   06:47:25.400.09-May-2021 4440.01  876.61 65.65 15.00 359.40 2948.57
   06:47:25.600.09-May-2021 4440.01  877.65 65.65 15.00 359.60 2948.57
   06:47:25.800.09-May-2021 4440.01  878.69 65.65 15.00 359.80 2948.57
   06:47:26.000.09-May-2021 4440.01  879.70 65.65 15.00 360.00 2948.57
   06:47:26.200.09-May-2021 4440.01  879.70 65.65 15.00 360.20 2948.57
   06:47:26.400.09-May-2021 4440.01  881.82 65.65 15.00 360.40 2948.57
   06:47:26.600.09-May-2021 4440.01  882.93 65.65 15.00 360.60 2948.57
   06:47:26.800.09-May-2021 4440.01  883.71 65.65 15.00 360.80 2948.57
   06:47:27.000.09-May-2021 4440.01  884.56 65.65 15.00 361.00 2948.57
   06:47:27.200.09-May-2021 4440.01  884.56 65.65 15.00 361.20 2948.57
   06:47:27.400.09-May-2021 4440.01  886.86 65.65 15.00 361.40 2948.57
