~Version Information
 VERS.                  2.0:   CWLS log ASCII Standard -VERSION 2.0
 WRAP.                   NO:   One line per depth step
~Well Information Block
#MNEM.UNIT     VALUE/NAME     DESCRIPTION
#---------     -----------    ---------------------------
 STRT.S             22:20:35 08-May-21: START TIME 22:20:35 08-May-21
 STOP.S             22:27:08 08-May-21: STOP TIME  22:27:08 08-May-21
 STEP.S                   0.00: STEP TIME
 NULL.                 -999.25: NULL VALUE
 PROV.                    Baku:  PROVINCE
 STAT.                    Baku:  STATE NAME
 SON .        AZ-XX-0906571588:  JOB NUMBER
 WTYP.                Deviated:  WELL TYPE
 COMP.     BP Exploration (Caspian Sea) ltd:  COMPANY
 BASE.              Azerbaijan:  LOGGING EQUIPMENT BASE LOCATION
 REGN.                   EESSA:  REGION
 CTRY.              Azerbaijan:  COUNTRY NAME
 FLD .                     ACG:  FIELD NAME
 WELL.                     J28:  WELL NAME
 RIG .             West Chirag:  RIG NAME
 DMF .             Drill Floor:  DRILL MEAS FROM
 PDAT.       Caspian Sea Level:  PERMANENT DATUM
 HPTY.       Minimum Curvature:  HOLE POS TYPE
 MDS .        Operator Entered:  MAG DATA SOURCE
 NREF.                    Grid:  NORTH REFERENCE
 SRVC.          TURAN DRILLING:  CONTRACTOR
 JOBN.        AZ-XX-0906571588:  JOB TICKET NUMB
 DCON.     Halliburton Sperry Drilling:  DIRECTNL CONTR
 STIM.      00.44.00 11-Feb-21:  START TIME
 DATE.      00.00.00 05-May-21:  END TIME
 SPUD.               13-Feb-21:  SPUD DATE
 MWDS.                    Baku:  MWD SHOP
 DOE .                     N/A:  DOE NUMBER
 UNIT.                     N/A:  LOGGING EQUIPMENT ID
 UWI .                     N/A:  UNIQUE WELL IDENTIFIER
 API .                     N/A:  API NUMBER
 CNTY.                        :  COUNTY
 LOC .                        :  LOCATION
 LMF .             Drill Floor:  LOG MEASURED FROM
 TVDS.m                  43.00:  TVDSS CORRECTN
 SDEP.m                 341.00:  START DEPTH
 EGL .m                   0.00:  GROUND ELEVATION
 WDMS.m                 169.80:  WD ELEV
 AGAP.m                  43.00:  AIR GAP
 EPD .m                   0.00:  ELEVATION
 APD .m                  43.00:  DEPTH ABOVE PD
 LATI.deg                40.13:  LATITUDE
 LONG.deg                51.22:  LONGITUDE
 UTMY.m             4443793.85:  UTM Y
 UTMX.m              519005.06:  UTM X
 WHEW.m                 -11.57:  WELL HEAD E/W
 WHNS.m                   8.57:  WELL HEAD N/S
 VSEW.m                 -11.57:  VERT SEC E/W
 VSNS.m                   8.57:  VERT SEC N/S
 DFWL.m                   0.00:  DISTANCE FWL
 DFSL.m                   0.00:  DISTANCE FSL
 VSDR.deg               299.34:  VERT SEC DIRECT
 GVFD.g                   1.00:  GRAVITY FIELD
 AZTC.deg                 6.36:  AZM TOTAL CORR
 MFLD.nT              50391.00:  MAGNETIC FIELD
 MDIP.deg                59.65:  MAGNETIC DIP
 MDEC.deg                 6.48:  MAGNETIC DECL
 GRDC.deg                 0.12:  GRID CORRECTION
 DEP .m                 334.96:  DEPTH
 TDD .m                1407.26:  TOTAL DEPTH (DRILLER)
 EKB .m                  43.00:  KB ELEVATION
 EDF .m                  43.00:  DF ELEVATION
 TDL .m                 228.00:  TOTAL DEPTH (LOGGER)
 VSC .                       0:  VS TO CLOSURE
 MAGU.                 1854484:  MAGUTM CHECKSUM
~Parameter Information Block
#MNEM.UNIT       Value        Description
#---------     -----------    ---------------------------
 AV  .mps                 4.00:  Ann Velocity 
 AVMX.mps                 4.73:  Max Ann Veloc 
 AZIF.deg               304.48:  Azm, Final 
 BHAT.        Rotary Steerable:  BHA Type 
 BREV.rev            257300.00:  Rev Bit Total 
 BROT.°/30m               0.00:  Build Rotating 
 BS  .in                  8.50:  Bit Size 
 BSZ .in                  8.50:  Bit Size 
 BTPL.psig              589.00:  Bit Press Loss 
 CABU.                      No:  Customer Abuse 
 CGEO.          Mubariz ghayev:  Customer Geo 
 COMM.                     lÿM:  Run Comments 1 
 TCS .hr                 64.25:  Time Ciculation Ended 
 CV  .mps                 3.50:  Crit Velocity 
 CVMX.mps                 4.52:  Max Crit Veloc 
 DD1 .             Aziz Aliyev:  Direct Drillr 1 
 DD2 .         Intigam Rahimov:  Direct Drillr 2 
 DD3 .          Rashad Habibov:  Direct Drillr 3 
 DDSV.               Geo-Pilot:  DD Service 
 DEFF.%                  98.00:  % Det Eff 
 DLRX.°/30m               0.00:  Dogleg Rot Max 
 DLSO.°/30m               0.00:  Dogleg Oriented 
 DLSX.°/30m               0.00:  Dogleg Str Max 
 DRET.      10.45.04 08-May-21:  Drill End Time 
 DRST.      03.30.04 04-May-21:  Drill Start Tim 
 DTIM.hr                 14.97:  Time Drilling 
 EDEP.m                4640.01:  End Depth 
 ENG1.         Dail Mahammadov:  Engineer 1 
 ENG2.           Eldar Hajiyev:  Engineer 2 
 ENG3.       Bakhtiar Jabbarli:  Engineer 3 
 ENG4.       Natik Hasanagayev:  Engineer 4 
 ETIM.      09.30.04 14-May-21:  End Time 
 FLOI.gpm               460.00:  Flow In 
 FLON.gpm               200.00:  Flow In Min 
 FLOS.cptm                0.00:  Fluid Loss 
 FLOX.gpm               505.00:  Flow In Max 
 HFLO.                      No:  High Flow 
 HPRE.                      No:  High Pressure 
 HTEM.                      No:  High Temp 
 HYDO.m                   1.80:  Hydro Offset 
 IFIN.deg                66.71:  Inc, Final 
 IMAX.deg                67.03:  Inc Max 
 IMIN.deg                66.63:  Inc Min 
 IMND.m                4550.58:  Inc Min Depth 
 IMXD.m                4439.01:  Inc Max Depth 
 JARR.                      No:  Jarring 
 LETM.      10.45.04 08-May-21:  Log End Time 
 LOST.hr                     0:  Lost Rig Time 
 LSTM.      03.30.04 04-May-21:  Log Start Time 
 MDCL.ppm             37000.00:  Mud Chlorides 
 MDES.     Inversion Oil/Synthetic:  Mud Desc 
 DFD .sg                  1.38:  Mud Density 
 MDMN.sg                  1.35:  Dens Mud Min 
 MDMX.sg                  1.40:  Dens Mud Max 
 MOIL.                   57.40:  Run Mud Oil % 
 MOWR.                   70:30:  Run Mud OWR 
 MSND.                    0.00:  Run Mud Sand % 
 MSOL.                   18.00:  Run Mud Solids% 
 DFV .spqt               71.00:  Mud Viscosity 
 MWOD.in                  6.75:  MWD Tool OD 
 MWSI.                      No:  Serv Intrp, MWD 
 OTIM.hr                242.76:  Time Operating 
 PCON.           Look Like New:  Pad Condition 
 PMAX.psia            12183.92:  Press Op, Max 
 PV  .cP                 27.00:  Mud PV 
 RUN .                    1300:  Run Number 
 ROPA.m/hr               15.00:  ROP Avg 
 ROPN.m/hr                9.00:  ROP Min 
 ROPX.m/hr               19.00:  ROP Max 
 RPMA.rpm               120.00:  RPM Surface Avg 
 RPMN.rpm               100.00:  RPM Surface Min 
 RPMX.rpm               120.00:  RPM Surface Max 
 RRUN.                    1300:  Rig Run Number 
 RTIM.hr                  5.00:  Time Reaming 
 SAZI.deg               304.73:  Azm, Start 
 SDEP.m                4412.01:  Start Depth 
 SIDD.                      No:  Serv Intrp, DD 
 SINC.deg                66.82:  Inc, Start 
 SPPA.psig             2800.00:  SPP Avg 
 SPPN.psig             2610.00:  SPP Min 
 SPPX.psig             3100.00:  SPP Max 
 STIM.      03.30.00 04-May-21:  Start Time 
 SVCS.                 DD, MWD:  Services 
 SVER.                    9.20:  Sperry Version 
 TDAT.m                 228.00:  Tot Depth Attmp 
 TDDF.                      No:  Trip for DD 
 TDLG.m                 228.00:  Tot Depth Loggd 
 TFF .                      No:  Trip for Fail 
 TQAA.f-kp               15.00:  Torque Abs Avg 
 TQAN.f-kp               12.00:  Torque Abs Min 
 TQAX.f-kp               22.00:  Torque Abs Max 
 TRRT.°/30m               0.00:  Turn Rotating 
 MRT .                    HCIM:  Maximum Recorded Temperature 
 TTMX.degC               90.20:  Max Tool Temp 
 VS01.                90627813:  Virtual Str1 SN 
 VS02.                90634712:  Virtual Str2 SN 
 VS03.                90643410:  Virtual Str3 SN 
 VS04.                90634712:  Virtual Str4 SN 
 WBMN.klb                 9.00:  WOB Min 
 WITN.        Elmaddin Rahimov:  Customer Rep 
 WITN.         Haytham Mostafa:  Customer Rep 2 
 WOBA.klb                15.00:  WOB Avg 
 WOBX.klb                23.00:  WOB Max 
 YP  .lhf2               29.00:  Yield Point 
~Curve Information Block
#MNEM.UNIT                 API CODE     Curve Description
#---------               -----------    ---------------------------
 TIME.HHMMSS            00 000 000 000:  GT Time & Date
 GTDEPTH.m              00 000 000 000:  GT Depth
 GTPQH.psia             00 000 000 000:  GT HR Quartz Pressure
 GTTQ.degC              00 000 000 000:  GT Quartz Temperature
 GTTN.NONE              00 000 000 000:  GT Test Number
 GTET.sec               00 000 000 000:  GT Elapsed Test Time
 GTTVD.m                00 000 000 000:  GT True Vertical Depth
#Other Information
#
#WARRANTY: Halliburton will use its best efforts to furnish customers with 
#accurate information and interpretations that are part of, and incident to, the services 
#provided.  However, Halliburton cannot and does not warrant the accuracy 
#or correctness of such information and interpretations.  Under no circumstances should any 
#such information or interpretation be relied upon as the sole basis for any drilling, 
#completion, production, or financial decision or any procedure involving any risk to the 
#safety of any drilling venture, drilling rig or its crew or any other third party.  The 
#Customer has full responsibility for all drilling, completion and production operation.  
#Halliburton makes no representations or warranties, either expressed or 
#implied, including, but not limited to, the implied warranties of merchantability or fitness 
#for a particular purpose, with respect to the services rendered.  In no event will 
#Halliburton be liable for failure to obtain any particular results or for 
#any damages, including, but not limited to, indirect, special or consequential damages, 
#resulting from the use of any information or interpretation provided by Halliburton.
#
~A           TIME           GTDEPTH  GTPQH  GTTQ  GTTN  GTET   GTTVD  
# ...
   22:22:07.000.08-May-2021 4569.01  803.46 68.47 4.00  92.00 2999.38
   22:22:07.200.08-May-2021 4569.01  803.46 68.47 4.00  92.20 2999.38
   22:22:07.400.08-May-2021 4569.01  803.66 68.47 4.00  92.40 2999.38
   22:22:07.600.08-May-2021 4569.01  804.09 68.47 4.00  92.60 2999.38
   22:22:07.800.08-May-2021 4569.01  804.30 68.47 4.00  92.80 2999.38
   22:22:08.000.08-May-2021 4569.01  804.47 68.47 4.00  93.00 2999.38
   22:22:08.200.08-May-2021 4569.01  804.47 68.47 4.00  93.20 2999.38
   22:22:08.400.08-May-2021 4569.01  804.53 68.47 4.00  93.40 2999.38
   22:22:08.600.08-May-2021 4569.01  805.32 68.47 4.00  93.60 2999.38
   22:22:08.800.08-May-2021 4569.01  805.73 68.47 4.00  93.80 2999.38
   22:22:09.000.08-May-2021 4569.01  805.78 68.47 4.00  94.00 2999.38
   22:22:09.200.08-May-2021 4569.01  805.78 68.47 4.00  94.20 2999.38
   22:22:09.400.08-May-2021 4569.01  806.58 68.47 4.00  94.40 2999.38
   22:22:09.600.08-May-2021 4569.01  806.46 68.47 4.00  94.60 2999.38
   22:22:09.800.08-May-2021 4569.01  806.60 68.47 4.00  94.80 2999.38
   22:22:10.000.08-May-2021 4569.01  806.50 68.47 4.00  95.00 2999.38
   22:22:10.200.08-May-2021 4569.01  806.50 68.47 4.00  95.20 2999.38
   22:22:10.400.08-May-2021 4569.01  807.40 68.47 4.00  95.40 2999.38
   22:22:10.600.08-May-2021 4569.01  807.07 68.47 4.00  95.60 2999.38
   22:22:10.800.08-May-2021 4569.01  808.14 68.47 4.00  95.80 2999.38
   22:22:11.000.08-May-2021 4569.01  807.98 68.47 4.00  96.00 2999.38
   22:22:11.200.08-May-2021 4569.01  807.98 68.47 4.00  96.20 2999.38
   22:22:11.400.08-May-2021 4569.01  808.44 68.47 4.00  96.40 2999.38
   22:22:11.600.08-May-2021 4569.01  808.56 68.47 4.00  96.60 2999.38
   22:22:11.800.08-May-2021 4569.01  808.74 68.47 4.00  96.80 2999.38
   22:22:12.000.08-May-2021 4569.01  808.95 68.47 4.00  97.00 2999.38
   22:22:12.200.08-May-2021 4569.01  808.95 68.47 4.00  97.20 2999.38
   22:22:12.400.08-May-2021 4569.01  809.35 68.47 4.00  97.40 2999.38
   22:22:12.600.08-May-2021 4569.01  809.54 68.47 4.00  97.60 2999.38
   22:22:12.800.08-May-2021 4569.01  809.75 68.47 4.00  97.80 2999.38
   22:22:13.000.08-May-2021 4569.01  809.92 68.47 4.00  98.00 2999.38
   22:22:13.200.08-May-2021 4569.01  809.92 68.47 4.00  98.20 2999.38
   22:22:13.400.08-May-2021 4569.01  810.74 68.47 4.00  98.40 2999.38
   22:22:13.600.08-May-2021 4569.01  810.53 68.47 4.00  98.60 2999.38
   22:22:13.800.08-May-2021 4569.01  810.96 68.47 4.00  98.80 2999.38
   22:22:14.000.08-May-2021 4569.01  811.02 68.47 4.00  99.00 2999.38
   22:22:14.200.08-May-2021 4569.01  811.02 68.47 4.00  99.20 2999.38
   22:22:14.400.08-May-2021 4569.01  811.27 68.47 4.00  99.40 2999.38
   22:22:14.600.08-May-2021 4569.01  811.44 68.47 4.00  99.60 2999.38
   22:22:14.800.08-May-2021 4569.01  811.62 68.47 4.00  99.80 2999.38
   22:22:15.000.08-May-2021 4569.01  811.76 68.47 4.00 100.00 2999.38
   22:22:15.200.08-May-2021 4569.01  811.76 68.47 4.00 100.20 2999.38
   22:22:15.400.08-May-2021 4569.01  811.93 68.47 4.00 100.40 2999.38
   22:22:15.600.08-May-2021 4569.01  812.26 68.47 4.00 100.60 2999.38
   22:22:15.800.08-May-2021 4569.01  812.09 68.47 4.00 100.80 2999.38
   22:22:16.000.08-May-2021 4569.01  813.03 68.47 4.00 101.00 2999.38
   22:22:16.200.08-May-2021 4569.01  813.03 68.47 4.00 101.20 2999.38
   22:22:16.400.08-May-2021 4569.01  813.04 68.47 4.00 101.40 2999.38
   22:22:16.600.08-May-2021 4569.01  813.09 68.47 4.00 101.60 2999.38
   22:22:16.800.08-May-2021 4569.01  813.83 68.47 4.00 101.80 2999.38
   22:22:17.000.08-May-2021 4569.01  813.75 68.47 4.00 102.00 2999.38
   22:22:17.200.08-May-2021 4569.01  813.75 68.47 4.00 102.20 2999.38
   22:22:17.400.08-May-2021 4569.01  814.49 68.47 4.00 102.40 2999.38
   22:22:17.600.08-May-2021 4569.01  814.21 68.47 4.00 102.60 2999.38
   22:22:17.800.08-May-2021 4569.01  814.14 68.47 4.00 102.80 2999.38
   22:22:18.000.08-May-2021 4569.01  814.81 68.47 4.00 103.00 2999.38
   22:22:18.200.08-May-2021 4569.01  814.81 68.47 4.00 103.20 2999.38
   22:22:18.400.08-May-2021 4569.01  814.91 68.47 4.00 103.40 2999.38
   22:22:18.600.08-May-2021 4569.01  815.03 68.47 4.00 103.60 2999.38
   22:22:18.800.08-May-2021 4569.01  815.19 68.47 4.00 103.80 2999.38
   22:22:19.000.08-May-2021 4569.01  815.26 68.47 4.00 104.00 2999.38
   22:22:19.200.08-May-2021 4569.01  815.26 68.47 4.00 104.20 2999.38
   22:22:19.400.08-May-2021 4569.01  815.46 68.47 4.00 104.40 2999.38
   22:22:19.600.08-May-2021 4569.01  815.80 68.47 4.00 104.60 2999.38
   22:22:19.800.08-May-2021 4569.01  815.97 68.47 4.00 104.80 2999.38
   22:22:20.000.08-May-2021 4569.01  816.10 68.47 4.00 105.00 2999.38
   22:22:20.200.08-May-2021 4569.01  816.10 68.47 4.00 105.20 2999.38
   22:22:20.400.08-May-2021 4569.01  815.99 68.47 4.00 105.40 2999.38
   22:22:20.600.08-May-2021 4569.01  816.96 68.48 4.00 105.60 2999.38
   22:22:20.800.08-May-2021 4569.01  816.84 68.48 4.00 105.80 2999.38
   22:22:21.000.08-May-2021 4569.01  817.23 68.48 4.00 106.00 2999.38
   22:22:21.200.08-May-2021 4569.01  817.23 68.48 4.00 106.20 2999.38
   22:22:21.400.08-May-2021 4569.01  817.34 68.48 4.00 106.40 2999.38
   22:22:21.600.08-May-2021 4569.01  817.44 68.48 4.00 106.60 2999.38
   22:22:21.800.08-May-2021 4569.01  817.65 68.48 4.00 106.80 2999.38
   22:22:22.000.08-May-2021 4569.01  817.77 68.48 4.00 107.00 2999.38
   22:22:22.200.08-May-2021 4569.01  817.77 68.48 4.00 107.20 2999.38
   22:22:22.400.08-May-2021 4569.01  818.04 68.48 4.00 107.40 2999.38
   22:22:22.600.08-May-2021 4569.01  818.17 68.48 4.00 107.60 2999.38
   22:22:22.800.08-May-2021 4569.01  818.32 68.48 4.00 107.80 2999.38
   22:22:23.000.08-May-2021 4569.01  817.95 68.48 4.00 108.00 2999.38
   22:22:23.200.08-May-2021 4569.01  817.95 68.48 4.00 108.20 2999.38
   22:22:23.400.08-May-2021 4569.01  819.08 68.48 4.00 108.40 2999.38
   22:22:23.600.08-May-2021 4569.01  819.20 68.48 4.00 108.60 2999.38
   22:22:23.800.08-May-2021 4569.01  818.85 68.48 4.00 108.80 2999.38
   22:22:24.000.08-May-2021 4569.01  819.35 68.48 4.00 109.00 2999.38
   22:22:24.200.08-May-2021 4569.01  819.35 68.48 4.00 109.20 2999.38
   22:22:24.400.08-May-2021 4569.01  819.33 68.48 4.00 109.40 2999.38
   22:22:24.600.08-May-2021 4569.01  819.96 68.48 4.00 109.60 2999.38
   22:22:24.800.08-May-2021 4569.01  820.15 68.48 4.00 109.80 2999.38
   22:22:25.000.08-May-2021 4569.01  820.19 68.48 4.00 110.00 2999.38
   22:22:25.200.08-May-2021 4569.01  820.19 68.48 4.00 110.20 2999.38
   22:22:25.400.08-May-2021 4569.01  820.34 68.48 4.00 110.40 2999.38
   22:22:25.600.08-May-2021 4569.01  819.99 68.48 4.00 110.60 2999.38
   22:22:25.800.08-May-2021 4569.01  821.11 68.48 4.00 110.80 2999.38
   22:22:26.000.08-May-2021 4569.01  820.78 68.48 4.00 111.00 2999.38
   22:22:26.200.08-May-2021 4569.01  820.78 68.48 4.00 111.20 2999.38
   22:22:26.400.08-May-2021 4569.01  821.03 68.48 4.00 111.40 2999.38
   22:22:26.600.08-May-2021 4569.01  821.17 68.48 4.00 111.60 2999.38
   22:22:26.800.08-May-2021 4569.01  821.32 68.48 4.00 111.80 2999.38
   22:22:27.000.08-May-2021 4569.01  821.45 68.48 4.00 112.00 2999.38
   22:22:27.200.08-May-2021 4569.01  821.45 68.48 4.00 112.20 2999.38
   22:22:27.400.08-May-2021 4569.01  821.61 68.48 4.00 112.40 2999.38
   22:22:27.600.08-May-2021 4569.01  821.88 68.48 4.00 112.60 2999.38
   22:22:27.800.08-May-2021 4569.01  822.04 68.48 4.00 112.80 2999.38
   22:22:28.000.08-May-2021 4569.01  822.16 68.48 4.00 113.00 2999.38
   22:22:28.200.08-May-2021 4569.01  822.16 68.48 4.00 113.20 2999.38
   22:22:28.400.08-May-2021 4569.01  822.96 68.48 4.00 113.40 2999.38
   22:22:28.600.08-May-2021 4569.01  822.73 68.48 4.00 113.60 2999.38
   22:22:28.800.08-May-2021 4569.01  822.85 68.48 4.00 113.80 2999.38
   22:22:29.000.08-May-2021 4569.01  823.00 68.48 4.00 114.00 2999.38
   22:22:29.200.08-May-2021 4569.01  823.00 68.48 4.00 114.20 2999.38
   22:22:29.400.08-May-2021 4569.01  823.24 68.48 4.00 114.40 2999.38
   22:22:29.600.08-May-2021 4569.01  823.35 68.48 4.00 114.60 2999.38
   22:22:29.800.08-May-2021 4569.01  823.47 68.48 4.00 114.80 2999.38
