~Version Information
 VERS.                  2.0:   CWLS log ASCII Standard -VERSION 2.0
 WRAP.                   NO:   One line per depth step
~Well Information Block
#MNEM.UNIT     VALUE/NAME     DESCRIPTION
#---------     -----------    ---------------------------
 STRT.S             03:18:48 09-May-21: START TIME 03:18:48 09-May-21
 STOP.S             03:25:48 09-May-21: STOP TIME  03:25:48 09-May-21
 STEP.S                   0.00: STEP TIME
 NULL.                 -999.25: NULL VALUE
 PROV.                    Baku:  PROVINCE
 STAT.                    Baku:  STATE NAME
 SON .        AZ-XX-0906571588:  JOB NUMBER
 WTYP.                Deviated:  WELL TYPE
 COMP.     BP Exploration (Caspian Sea) ltd:  COMPANY
 BASE.              Azerbaijan:  LOGGING EQUIPMENT BASE LOCATION
 REGN.                   EESSA:  REGION
 CTRY.              Azerbaijan:  COUNTRY NAME
 FLD .                     ACG:  FIELD NAME
 WELL.                     J28:  WELL NAME
 RIG .             West Chirag:  RIG NAME
 DMF .             Drill Floor:  DRILL MEAS FROM
 PDAT.       Caspian Sea Level:  PERMANENT DATUM
 HPTY.       Minimum Curvature:  HOLE POS TYPE
 MDS .        Operator Entered:  MAG DATA SOURCE
 NREF.                    Grid:  NORTH REFERENCE
 SRVC.          TURAN DRILLING:  CONTRACTOR
 JOBN.        AZ-XX-0906571588:  JOB TICKET NUMB
 DCON.     Halliburton Sperry Drilling:  DIRECTNL CONTR
 STIM.      00.44.00 11-Feb-21:  START TIME
 DATE.      00.00.00 05-May-21:  END TIME
 SPUD.               13-Feb-21:  SPUD DATE
 MWDS.                    Baku:  MWD SHOP
 DOE .                     N/A:  DOE NUMBER
 UNIT.                     N/A:  LOGGING EQUIPMENT ID
 UWI .                     N/A:  UNIQUE WELL IDENTIFIER
 API .                     N/A:  API NUMBER
 CNTY.                        :  COUNTY
 LOC .                        :  LOCATION
 LMF .             Drill Floor:  LOG MEASURED FROM
 TVDS.m                  43.00:  TVDSS CORRECTN
 SDEP.m                 341.00:  START DEPTH
 EGL .m                   0.00:  GROUND ELEVATION
 WDMS.m                 169.80:  WD ELEV
 AGAP.m                  43.00:  AIR GAP
 EPD .m                   0.00:  ELEVATION
 APD .m                  43.00:  DEPTH ABOVE PD
 LATI.deg                40.13:  LATITUDE
 LONG.deg                51.22:  LONGITUDE
 UTMY.m             4443793.85:  UTM Y
 UTMX.m              519005.06:  UTM X
 WHEW.m                 -11.57:  WELL HEAD E/W
 WHNS.m                   8.57:  WELL HEAD N/S
 VSEW.m                 -11.57:  VERT SEC E/W
 VSNS.m                   8.57:  VERT SEC N/S
 DFWL.m                   0.00:  DISTANCE FWL
 DFSL.m                   0.00:  DISTANCE FSL
 VSDR.deg               299.34:  VERT SEC DIRECT
 GVFD.g                   1.00:  GRAVITY FIELD
 AZTC.deg                 6.36:  AZM TOTAL CORR
 MFLD.nT              50391.00:  MAGNETIC FIELD
 MDIP.deg                59.65:  MAGNETIC DIP
 MDEC.deg                 6.48:  MAGNETIC DECL
 GRDC.deg                 0.12:  GRID CORRECTION
 DEP .m                 334.96:  DEPTH
 TDD .m                1407.26:  TOTAL DEPTH (DRILLER)
 EKB .m                  43.00:  KB ELEVATION
 EDF .m                  43.00:  DF ELEVATION
 TDL .m                 228.00:  TOTAL DEPTH (LOGGER)
 VSC .                       0:  VS TO CLOSURE
 MAGU.                 1854484:  MAGUTM CHECKSUM
~Parameter Information Block
#MNEM.UNIT       Value        Description
#---------     -----------    ---------------------------
 AV  .mps                 4.00:  Ann Velocity 
 AVMX.mps                 4.73:  Max Ann Veloc 
 AZIF.deg               304.48:  Azm, Final 
 BHAT.        Rotary Steerable:  BHA Type 
 BREV.rev            257300.00:  Rev Bit Total 
 BROT.°/30m               0.00:  Build Rotating 
 BS  .in                  8.50:  Bit Size 
 BSZ .in                  8.50:  Bit Size 
 BTPL.psig              589.00:  Bit Press Loss 
 CABU.                      No:  Customer Abuse 
 CGEO.          Mubariz ghayev:  Customer Geo 
 COMM.                     ü>:  Run Comments 1 
 TCS .hr                 64.25:  Time Ciculation Ended 
 CV  .mps                 3.50:  Crit Velocity 
 CVMX.mps                 4.52:  Max Crit Veloc 
 DD1 .             Aziz Aliyev:  Direct Drillr 1 
 DD2 .         Intigam Rahimov:  Direct Drillr 2 
 DD3 .          Rashad Habibov:  Direct Drillr 3 
 DDSV.               Geo-Pilot:  DD Service 
 DEFF.%                  98.00:  % Det Eff 
 DLRX.°/30m               0.00:  Dogleg Rot Max 
 DLSO.°/30m               0.00:  Dogleg Oriented 
 DLSX.°/30m               0.00:  Dogleg Str Max 
 DRET.      10.45.04 08-May-21:  Drill End Time 
 DRST.      03.30.04 04-May-21:  Drill Start Tim 
 DTIM.hr                 14.97:  Time Drilling 
 EDEP.m                4640.01:  End Depth 
 ENG1.         Dail Mahammadov:  Engineer 1 
 ENG2.           Eldar Hajiyev:  Engineer 2 
 ENG3.       Bakhtiar Jabbarli:  Engineer 3 
 ENG4.       Natik Hasanagayev:  Engineer 4 
 ETIM.      09.30.04 14-May-21:  End Time 
 FLOI.gpm               460.00:  Flow In 
 FLON.gpm               200.00:  Flow In Min 
 FLOS.cptm                0.00:  Fluid Loss 
 FLOX.gpm               505.00:  Flow In Max 
 HFLO.                      No:  High Flow 
 HPRE.                      No:  High Pressure 
 HTEM.                      No:  High Temp 
 HYDO.m                   1.80:  Hydro Offset 
 IFIN.deg                66.71:  Inc, Final 
 IMAX.deg                67.03:  Inc Max 
 IMIN.deg                66.63:  Inc Min 
 IMND.m                4550.58:  Inc Min Depth 
 IMXD.m                4439.01:  Inc Max Depth 
 JARR.                      No:  Jarring 
 LETM.      10.45.04 08-May-21:  Log End Time 
 LOST.hr                     0:  Lost Rig Time 
 LSTM.      03.30.04 04-May-21:  Log Start Time 
 MDCL.ppm             37000.00:  Mud Chlorides 
 MDES.     Inversion Oil/Synthetic:  Mud Desc 
 DFD .sg                  1.38:  Mud Density 
 MDMN.sg                  1.35:  Dens Mud Min 
 MDMX.sg                  1.40:  Dens Mud Max 
 MOIL.                   57.40:  Run Mud Oil % 
 MOWR.                   70:30:  Run Mud OWR 
 MSND.                    0.00:  Run Mud Sand % 
 MSOL.                   18.00:  Run Mud Solids% 
 DFV .spqt               71.00:  Mud Viscosity 
 MWOD.in                  6.75:  MWD Tool OD 
 MWSI.                      No:  Serv Intrp, MWD 
 OTIM.hr                242.76:  Time Operating 
 PCON.           Look Like New:  Pad Condition 
 PMAX.psia            12183.92:  Press Op, Max 
 PV  .cP                 27.00:  Mud PV 
 RUN .                    1300:  Run Number 
 ROPA.m/hr               15.00:  ROP Avg 
 ROPN.m/hr                9.00:  ROP Min 
 ROPX.m/hr               19.00:  ROP Max 
 RPMA.rpm               120.00:  RPM Surface Avg 
 RPMN.rpm               100.00:  RPM Surface Min 
 RPMX.rpm               120.00:  RPM Surface Max 
 RRUN.                    1300:  Rig Run Number 
 RTIM.hr                  5.00:  Time Reaming 
 SAZI.deg               304.73:  Azm, Start 
 SDEP.m                4412.01:  Start Depth 
 SIDD.                      No:  Serv Intrp, DD 
 SINC.deg                66.82:  Inc, Start 
 SPPA.psig             2800.00:  SPP Avg 
 SPPN.psig             2610.00:  SPP Min 
 SPPX.psig             3100.00:  SPP Max 
 STIM.      03.30.00 04-May-21:  Start Time 
 SVCS.                 DD, MWD:  Services 
 SVER.                    9.20:  Sperry Version 
 TDAT.m                 228.00:  Tot Depth Attmp 
 TDDF.                      No:  Trip for DD 
 TDLG.m                 228.00:  Tot Depth Loggd 
 TFF .                      No:  Trip for Fail 
 TQAA.f-kp               15.00:  Torque Abs Avg 
 TQAN.f-kp               12.00:  Torque Abs Min 
 TQAX.f-kp               22.00:  Torque Abs Max 
 TRRT.°/30m               0.00:  Turn Rotating 
 MRT .                    HCIM:  Maximum Recorded Temperature 
 TTMX.degC               90.20:  Max Tool Temp 
 VS01.                90627813:  Virtual Str1 SN 
 VS02.                90634712:  Virtual Str2 SN 
 VS03.                90643410:  Virtual Str3 SN 
 VS04.                90634712:  Virtual Str4 SN 
 WBMN.klb                 9.00:  WOB Min 
 WITN.        Elmaddin Rahimov:  Customer Rep 
 WITN.         Haytham Mostafa:  Customer Rep 2 
 WOBA.klb                15.00:  WOB Avg 
 WOBX.klb                23.00:  WOB Max 
 YP  .lhf2               29.00:  Yield Point 
~Curve Information Block
#MNEM.UNIT                 API CODE     Curve Description
#---------               -----------    ---------------------------
 TIME.HHMMSS            00 000 000 000:  GT Time & Date
 GTDEPTH.m              00 000 000 000:  GT Depth
 GTPQH.psia             00 000 000 000:  GT HR Quartz Pressure
 GTTQ.degC              00 000 000 000:  GT Quartz Temperature
 GTTN.NONE              00 000 000 000:  GT Test Number
 GTET.sec               00 000 000 000:  GT Elapsed Test Time
 GTTVD.m                00 000 000 000:  GT True Vertical Depth
#Other Information
#
#WARRANTY: Halliburton will use its best efforts to furnish customers with 
#accurate information and interpretations that are part of, and incident to, the services 
#provided.  However, Halliburton cannot and does not warrant the accuracy 
#or correctness of such information and interpretations.  Under no circumstances should any 
#such information or interpretation be relied upon as the sole basis for any drilling, 
#completion, production, or financial decision or any procedure involving any risk to the 
#safety of any drilling venture, drilling rig or its crew or any other third party.  The 
#Customer has full responsibility for all drilling, completion and production operation.  
#Halliburton makes no representations or warranties, either expressed or 
#implied, including, but not limited to, the implied warranties of merchantability or fitness 
#for a particular purpose, with respect to the services rendered.  In no event will 
#Halliburton be liable for failure to obtain any particular results or for 
#any damages, including, but not limited to, indirect, special or consequential damages, 
#resulting from the use of any information or interpretation provided by Halliburton.
#
~A           TIME           GTDEPTH  GTPQH  GTTQ  GTTN   GTET   GTTVD  
# ...
   03:24:50.362.09-May-2021 4480.01 4113.85 67.55 12.00 361.66 2964.27
   03:24:50.562.09-May-2021 4480.01 4113.68 67.55 12.00 361.86 2964.27
   03:24:50.762.09-May-2021 4480.01 4113.58 67.55 12.00 362.06 2964.27
   03:24:50.962.09-May-2021 4480.01 4113.58 67.55 12.00 362.26 2964.27
   03:24:51.162.09-May-2021 4480.01 4113.54 67.55 12.00 362.46 2964.27
   03:24:51.362.09-May-2021 4480.01 4113.78 67.55 12.00 362.66 2964.27
   03:24:51.562.09-May-2021 4480.01 4113.64 67.55 12.00 362.86 2964.27
   03:24:51.762.09-May-2021 4480.01 4064.03 67.55 12.00 363.06 2964.27
   03:24:51.962.09-May-2021 4480.01 4064.03 67.55 12.00 363.26 2964.27
   03:24:52.162.09-May-2021 4480.01 4706.65 67.55 12.00 363.46 2964.27
   03:24:52.362.09-May-2021 4480.01 6777.61 67.55 12.00 363.66 2964.27
   03:24:52.562.09-May-2021 4480.01 6774.64 67.55 12.00 363.86 2964.27
   03:24:52.762.09-May-2021 4480.01 6774.78 67.55 12.00 364.06 2964.27
   03:24:52.962.09-May-2021 4480.01 6774.78 67.55 12.00 364.26 2964.27
   03:24:53.162.09-May-2021 4480.01 6775.72 67.55 12.00 364.46 2964.27
   03:24:53.362.09-May-2021 4480.01 6787.74 67.55 12.00 364.66 2964.27
   03:24:53.562.09-May-2021 4480.01 6778.65 67.56 12.00 364.86 2964.27
   03:24:53.762.09-May-2021 4480.01 6788.50 67.56 12.00 365.06 2964.27
   03:24:53.962.09-May-2021 4480.01 6788.50 67.56 12.00 365.26 2964.27
   03:24:54.162.09-May-2021 4480.01 6782.53 67.56 12.00 365.46 2964.27
   03:24:54.362.09-May-2021 4480.01 6781.58 67.56 12.00 365.66 2964.27
   03:24:54.562.09-May-2021 4480.01 6780.47 67.56 12.00 365.86 2964.27
   03:24:54.762.09-May-2021 4480.01 6781.01 67.57 12.00 366.06 2964.27
   03:24:54.962.09-May-2021 4480.01 6781.01 67.57 12.00 366.26 2964.27
   03:24:55.162.09-May-2021 4480.01 6780.33 67.57 12.00 366.46 2964.27
   03:24:55.362.09-May-2021 4480.01 6780.24 67.57 12.00 366.66 2964.27
   03:24:55.562.09-May-2021 4480.01 6779.90 67.57 12.00 366.86 2964.27
   03:24:55.762.09-May-2021 4480.01 6779.95 67.58 12.00 367.06 2964.27
   03:24:55.962.09-May-2021 4480.01 6779.95 67.58 12.00 367.26 2964.27
   03:24:56.163.09-May-2021 4480.01 6784.60 67.58 12.00 367.46 2964.27
   03:24:56.363.09-May-2021 4480.01 6784.87 67.58 12.00 367.66 2964.27
   03:24:56.563.09-May-2021 4480.01 6794.35 67.58 12.00 367.86 2964.27
   03:24:56.763.09-May-2021 4480.01 6788.16 67.58 12.00 368.06 2964.27
   03:24:56.963.09-May-2021 4480.01 6788.16 67.58 12.00 368.26 2964.27
   03:24:57.163.09-May-2021 4480.01 6788.61 67.59 12.00 368.46 2964.27
   03:24:57.363.09-May-2021 4480.01 6791.95 67.59 12.00 368.66 2964.27
   03:24:57.563.09-May-2021 4480.01 6788.72 67.59 12.00 368.86 2964.27
   03:24:57.763.09-May-2021 4480.01 6787.70 67.59 12.00 369.06 2964.27
   03:24:57.963.09-May-2021 4480.01 6787.70 67.59 12.00 369.26 2964.27
   03:24:58.163.09-May-2021 4480.01 6793.86 67.60 12.00 369.46 2964.27
   03:24:58.363.09-May-2021 4480.01 6788.46 67.60 12.00 369.66 2964.27
   03:24:58.563.09-May-2021 4480.01 6790.63 67.60 12.00 369.86 2964.27
   03:24:58.763.09-May-2021 4480.01 6783.73 67.60 12.00 370.06 2964.27
   03:24:58.963.09-May-2021 4480.01 6783.73 67.60 12.00 370.26 2964.27
   03:24:59.163.09-May-2021 4480.01 6783.71 67.60 12.00 370.46 2964.27
   03:24:59.363.09-May-2021 4480.01 6782.75 67.60 12.00 370.66 2964.27
   03:24:59.563.09-May-2021 4480.01 6782.34 67.60 12.00 370.86 2964.27
   03:24:59.763.09-May-2021 4480.01 6782.71 67.60 12.00 371.06 2964.27
   03:24:59.963.09-May-2021 4480.01 6782.71 67.60 12.00 371.26 2964.27
   03:25:00.163.09-May-2021 4480.01 6782.30 67.61 12.00 371.46 2964.27
   03:25:00.363.09-May-2021 4480.01 6782.06 67.61 12.00 371.66 2964.27
   03:25:00.563.09-May-2021 4480.01 6782.23 67.61 12.00 371.86 2964.27
   03:25:00.763.09-May-2021 4480.01 6793.20 67.61 12.00 372.06 2964.27
   03:25:00.963.09-May-2021 4480.01 6793.20 67.61 12.00 372.26 2964.27
   03:25:01.163.09-May-2021 4480.01 6785.54 67.61 12.00 372.46 2964.27
   03:25:01.363.09-May-2021 4480.01 6783.58 67.61 12.00 372.66 2964.27
   03:25:01.563.09-May-2021 4480.01 6786.26 67.61 12.00 372.86 2964.27
   03:25:01.763.09-May-2021 4480.01 6784.37 67.61 12.00 373.06 2964.27
   03:25:01.964.09-May-2021 4480.01 6784.37 67.61 12.00 373.26 2964.27
   03:25:02.164.09-May-2021 4480.01 6783.54 67.61 12.00 373.46 2964.27
   03:25:02.364.09-May-2021 4480.01 6782.68 67.61 12.00 373.66 2964.27
   03:25:02.564.09-May-2021 4480.01 6782.47 67.61 12.00 373.86 2964.27
   03:25:02.764.09-May-2021 4480.01 6782.15 67.61 12.00 374.06 2964.27
   03:25:02.964.09-May-2021 4480.01 6782.15 67.61 12.00 374.26 2964.27
   03:25:03.164.09-May-2021 4480.01 6781.74 67.62 12.00 374.46 2964.27
   03:25:03.364.09-May-2021 4480.01 6791.62 67.62 12.00 374.66 2964.27
   03:25:03.564.09-May-2021 4480.01 6781.95 67.62 12.00 374.86 2964.27
   03:25:03.764.09-May-2021 4480.01 6789.11 67.62 12.00 375.06 2964.27
   03:25:03.964.09-May-2021 4480.01 6789.11 67.62 12.00 375.26 2964.27
   03:25:04.164.09-May-2021 4480.01 6783.80 67.62 12.00 375.46 2964.27
   03:25:04.364.09-May-2021 4480.01 6793.38 67.62 12.00 375.66 2964.27
   03:25:04.564.09-May-2021 4480.01 6782.55 67.62 12.00 375.86 2964.27
   03:25:04.764.09-May-2021 4480.01 6791.04 67.62 12.00 376.06 2964.27
   03:25:04.964.09-May-2021 4480.01 6791.04 67.62 12.00 376.26 2964.27
   03:25:05.164.09-May-2021 4480.01 6785.09 67.62 12.00 376.46 2964.27
   03:25:05.364.09-May-2021 4480.01 6790.51 67.62 12.00 376.66 2964.27
   03:25:05.564.09-May-2021 4480.01 6786.77 67.62 12.00 376.86 2964.27
   03:25:05.764.09-May-2021 4480.01 6784.73 67.62 12.00 377.06 2964.27
   03:25:05.964.09-May-2021 4480.01 6784.73 67.62 12.00 377.26 2964.27
   03:25:06.164.09-May-2021 4480.01 6790.93 67.62 12.00 377.46 2964.27
   03:25:06.364.09-May-2021 4480.01 6785.49 67.62 12.00 377.66 2964.27
   03:25:06.564.09-May-2021 4480.01 6788.75 67.62 12.00 377.86 2964.27
   03:25:06.764.09-May-2021 4480.01 6781.94 67.62 12.00 378.06 2964.27
   03:25:06.964.09-May-2021 4480.01 6781.94 67.62 12.00 378.26 2964.27
   03:25:07.164.09-May-2021 4480.01 6782.98 67.62 12.00 378.46 2964.27
   03:25:07.364.09-May-2021 4480.01 6782.23 67.62 12.00 378.66 2964.27
   03:25:07.564.09-May-2021 4480.01 6782.23 67.62 12.00 378.86 2964.27
   03:25:07.764.09-May-2021 4480.01 6782.49 67.62 12.00 379.06 2964.27
   03:25:07.965.09-May-2021 4480.01 6782.49 67.62 12.00 379.26 2964.27
   03:25:08.165.09-May-2021 4480.01 6782.87 67.62 12.00 379.46 2964.27
   03:25:08.365.09-May-2021 4480.01 6783.14 67.62 12.00 379.66 2964.27
   03:25:08.565.09-May-2021 4480.01 6783.65 67.62 12.00 379.86 2964.27
   03:25:08.765.09-May-2021 4480.01 6793.78 67.62 12.00 380.06 2964.27
   03:25:08.965.09-May-2021 4480.01 6793.78 67.62 12.00 380.26 2964.27
   03:25:09.165.09-May-2021 4480.01 6792.31 67.62 12.00 380.46 2964.27
   03:25:09.365.09-May-2021 4480.01 6782.35 67.62 12.00 380.66 2964.27
   03:25:09.565.09-May-2021 4480.01 6785.92 67.62 12.00 380.86 2964.27
   03:25:09.765.09-May-2021 4480.01 6783.85 67.62 12.00 381.06 2964.27
   03:25:09.965.09-May-2021 4480.01 6783.85 67.62 12.00 381.26 2964.27
   03:25:10.165.09-May-2021 4480.01 6782.59 67.62 12.00 381.46 2964.27
   03:25:10.365.09-May-2021 4480.01 6781.78 67.62 12.00 381.66 2964.27
   03:25:10.565.09-May-2021 4480.01 6781.72 67.62 12.00 381.86 2964.27
   03:25:10.765.09-May-2021 4480.01 6781.43 67.62 12.00 382.06 2964.27
   03:25:10.965.09-May-2021 4480.01 6781.43 67.62 12.00 382.26 2964.27
   03:25:11.165.09-May-2021 4480.01 6781.94 67.62 12.00 382.46 2964.27
   03:25:11.365.09-May-2021 4480.01 6791.81 67.62 12.00 382.66 2964.27
   03:25:11.565.09-May-2021 4480.01 6781.75 67.62 12.00 382.86 2964.27
   03:25:11.765.09-May-2021 4480.01 6787.94 67.62 12.00 383.06 2964.27
   03:25:11.965.09-May-2021 4480.01 6787.94 67.62 12.00 383.26 2964.27
   03:25:12.165.09-May-2021 4480.01 6783.75 67.62 12.00 383.46 2964.27
   03:25:12.365.09-May-2021 4480.01 6792.71 67.62 12.00 383.66 2964.27
   03:25:12.565.09-May-2021 4480.01 6782.02 67.62 12.00 383.86 2964.27
   03:25:12.765.09-May-2021 4480.01 6788.31 67.62 12.00 384.06 2964.27
