~Version Information
 VERS.                  2.0:   CWLS log ASCII Standard -VERSION 2.0
 WRAP.                   NO:   One line per depth step
~Well Information Block
#MNEM.UNIT     VALUE/NAME     DESCRIPTION
#---------     -----------    ---------------------------
 STRT.S             20:19:26 08-May-21: START TIME 20:19:26 08-May-21
 STOP.S             20:26:06 08-May-21: STOP TIME  20:26:06 08-May-21
 STEP.S                   0.00: STEP TIME
 NULL.                 -999.25: NULL VALUE
 PROV.                    Baku:  PROVINCE
 STAT.                    Baku:  STATE NAME
 SON .        AZ-XX-0906571588:  JOB NUMBER
 WTYP.                Deviated:  WELL TYPE
 COMP.     BP Exploration (Caspian Sea) ltd:  COMPANY
 BASE.              Azerbaijan:  LOGGING EQUIPMENT BASE LOCATION
 REGN.                   EESSA:  REGION
 CTRY.              Azerbaijan:  COUNTRY NAME
 FLD .                     ACG:  FIELD NAME
 WELL.                     J28:  WELL NAME
 RIG .             West Chirag:  RIG NAME
 DMF .             Drill Floor:  DRILL MEAS FROM
 PDAT.       Caspian Sea Level:  PERMANENT DATUM
 HPTY.       Minimum Curvature:  HOLE POS TYPE
 MDS .        Operator Entered:  MAG DATA SOURCE
 NREF.                    Grid:  NORTH REFERENCE
 SRVC.          TURAN DRILLING:  CONTRACTOR
 JOBN.        AZ-XX-0906571588:  JOB TICKET NUMB
 DCON.     Halliburton Sperry Drilling:  DIRECTNL CONTR
 STIM.      00.44.00 11-Feb-21:  START TIME
 DATE.      00.00.00 05-May-21:  END TIME
 SPUD.               13-Feb-21:  SPUD DATE
 MWDS.                    Baku:  MWD SHOP
 DOE .                     N/A:  DOE NUMBER
 UNIT.                     N/A:  LOGGING EQUIPMENT ID
 UWI .                     N/A:  UNIQUE WELL IDENTIFIER
 API .                     N/A:  API NUMBER
 CNTY.                        :  COUNTY
 LOC .                        :  LOCATION
 LMF .             Drill Floor:  LOG MEASURED FROM
 TVDS.m                  43.00:  TVDSS CORRECTN
 SDEP.m                 341.00:  START DEPTH
 EGL .m                   0.00:  GROUND ELEVATION
 WDMS.m                 169.80:  WD ELEV
 AGAP.m                  43.00:  AIR GAP
 EPD .m                   0.00:  ELEVATION
 APD .m                  43.00:  DEPTH ABOVE PD
 LATI.deg                40.13:  LATITUDE
 LONG.deg                51.22:  LONGITUDE
 UTMY.m             4443793.85:  UTM Y
 UTMX.m              519005.06:  UTM X
 WHEW.m                 -11.57:  WELL HEAD E/W
 WHNS.m                   8.57:  WELL HEAD N/S
 VSEW.m                 -11.57:  VERT SEC E/W
 VSNS.m                   8.57:  VERT SEC N/S
 DFWL.m                   0.00:  DISTANCE FWL
 DFSL.m                   0.00:  DISTANCE FSL
 VSDR.deg               299.34:  VERT SEC DIRECT
 GVFD.g                   1.00:  GRAVITY FIELD
 AZTC.deg                 6.36:  AZM TOTAL CORR
 MFLD.nT              50391.00:  MAGNETIC FIELD
 MDIP.deg                59.65:  MAGNETIC DIP
 MDEC.deg                 6.48:  MAGNETIC DECL
 GRDC.deg                 0.12:  GRID CORRECTION
 DEP .m                 334.96:  DEPTH
 TDD .m                1407.26:  TOTAL DEPTH (DRILLER)
 EKB .m                  43.00:  KB ELEVATION
 EDF .m                  43.00:  DF ELEVATION
 TDL .m                 228.00:  TOTAL DEPTH (LOGGER)
 VSC .                       0:  VS TO CLOSURE
 MAGU.                 1854484:  MAGUTM CHECKSUM
~Parameter Information Block
#MNEM.UNIT       Value        Description
#---------     -----------    ---------------------------
 AV  .mps                 4.00:  Ann Velocity 
 AVMX.mps                 4.73:  Max Ann Veloc 
 AZIF.deg               304.48:  Azm, Final 
 BHAT.        Rotary Steerable:  BHA Type 
 BREV.rev            257300.00:  Rev Bit Total 
 BROT.°/30m               0.00:  Build Rotating 
 BS  .in                  8.50:  Bit Size 
 BSZ .in                  8.50:  Bit Size 
 BTPL.psig              589.00:  Bit Press Loss 
 CABU.                      No:  Customer Abuse 
 CGEO.          Mubariz ghayev:  Customer Geo 
 COMM.                     $w`:  Run Comments 1 
 TCS .hr                 64.25:  Time Ciculation Ended 
 CV  .mps                 3.50:  Crit Velocity 
 CVMX.mps                 4.52:  Max Crit Veloc 
 DD1 .             Aziz Aliyev:  Direct Drillr 1 
 DD2 .         Intigam Rahimov:  Direct Drillr 2 
 DD3 .          Rashad Habibov:  Direct Drillr 3 
 DDSV.               Geo-Pilot:  DD Service 
 DEFF.%                  98.00:  % Det Eff 
 DLRX.°/30m               0.00:  Dogleg Rot Max 
 DLSO.°/30m               0.00:  Dogleg Oriented 
 DLSX.°/30m               0.00:  Dogleg Str Max 
 DRET.      10.45.04 08-May-21:  Drill End Time 
 DRST.      03.30.04 04-May-21:  Drill Start Tim 
 DTIM.hr                 14.97:  Time Drilling 
 EDEP.m                4640.01:  End Depth 
 ENG1.         Dail Mahammadov:  Engineer 1 
 ENG2.           Eldar Hajiyev:  Engineer 2 
 ENG3.       Bakhtiar Jabbarli:  Engineer 3 
 ENG4.       Natik Hasanagayev:  Engineer 4 
 ETIM.      09.30.04 14-May-21:  End Time 
 FLOI.gpm               460.00:  Flow In 
 FLON.gpm               200.00:  Flow In Min 
 FLOS.cptm                0.00:  Fluid Loss 
 FLOX.gpm               505.00:  Flow In Max 
 HFLO.                      No:  High Flow 
 HPRE.                      No:  High Pressure 
 HTEM.                      No:  High Temp 
 HYDO.m                   1.80:  Hydro Offset 
 IFIN.deg                66.71:  Inc, Final 
 IMAX.deg                67.03:  Inc Max 
 IMIN.deg                66.63:  Inc Min 
 IMND.m                4550.58:  Inc Min Depth 
 IMXD.m                4439.01:  Inc Max Depth 
 JARR.                      No:  Jarring 
 LETM.      10.45.04 08-May-21:  Log End Time 
 LOST.hr                     0:  Lost Rig Time 
 LSTM.      03.30.04 04-May-21:  Log Start Time 
 MDCL.ppm             37000.00:  Mud Chlorides 
 MDES.     Inversion Oil/Synthetic:  Mud Desc 
 DFD .sg                  1.38:  Mud Density 
 MDMN.sg                  1.35:  Dens Mud Min 
 MDMX.sg                  1.40:  Dens Mud Max 
 MOIL.                   57.40:  Run Mud Oil % 
 MOWR.                   70:30:  Run Mud OWR 
 MSND.                    0.00:  Run Mud Sand % 
 MSOL.                   18.00:  Run Mud Solids% 
 DFV .spqt               71.00:  Mud Viscosity 
 MWOD.in                  6.75:  MWD Tool OD 
 MWSI.                      No:  Serv Intrp, MWD 
 OTIM.hr                242.76:  Time Operating 
 PCON.           Look Like New:  Pad Condition 
 PMAX.psia            12183.92:  Press Op, Max 
 PV  .cP                 27.00:  Mud PV 
 RUN .                    1300:  Run Number 
 ROPA.m/hr               15.00:  ROP Avg 
 ROPN.m/hr                9.00:  ROP Min 
 ROPX.m/hr               19.00:  ROP Max 
 RPMA.rpm               120.00:  RPM Surface Avg 
 RPMN.rpm               100.00:  RPM Surface Min 
 RPMX.rpm               120.00:  RPM Surface Max 
 RRUN.                    1300:  Rig Run Number 
 RTIM.hr                  5.00:  Time Reaming 
 SAZI.deg               304.73:  Azm, Start 
 SDEP.m                4412.01:  Start Depth 
 SIDD.                      No:  Serv Intrp, DD 
 SINC.deg                66.82:  Inc, Start 
 SPPA.psig             2800.00:  SPP Avg 
 SPPN.psig             2610.00:  SPP Min 
 SPPX.psig             3100.00:  SPP Max 
 STIM.      03.30.00 04-May-21:  Start Time 
 SVCS.                 DD, MWD:  Services 
 SVER.                    9.20:  Sperry Version 
 TDAT.m                 228.00:  Tot Depth Attmp 
 TDDF.                      No:  Trip for DD 
 TDLG.m                 228.00:  Tot Depth Loggd 
 TFF .                      No:  Trip for Fail 
 TQAA.f-kp               15.00:  Torque Abs Avg 
 TQAN.f-kp               12.00:  Torque Abs Min 
 TQAX.f-kp               22.00:  Torque Abs Max 
 TRRT.°/30m               0.00:  Turn Rotating 
 MRT .                    HCIM:  Maximum Recorded Temperature 
 TTMX.degC               90.20:  Max Tool Temp 
 VS01.                90627813:  Virtual Str1 SN 
 VS02.                90634712:  Virtual Str2 SN 
 VS03.                90643410:  Virtual Str3 SN 
 VS04.                90634712:  Virtual Str4 SN 
 WBMN.klb                 9.00:  WOB Min 
 WITN.        Elmaddin Rahimov:  Customer Rep 
 WITN.         Haytham Mostafa:  Customer Rep 2 
 WOBA.klb                15.00:  WOB Avg 
 WOBX.klb                23.00:  WOB Max 
 YP  .lhf2               29.00:  Yield Point 
~Curve Information Block
#MNEM.UNIT                 API CODE     Curve Description
#---------               -----------    ---------------------------
 TIME.HHMMSS            00 000 000 000:  GT Time & Date
 GTDEPTH.m              00 000 000 000:  GT Depth
 GTPQH.psia             00 000 000 000:  GT HR Quartz Pressure
 GTTQ.degC              00 000 000 000:  GT Quartz Temperature
 GTTN.NONE              00 000 000 000:  GT Test Number
 GTET.sec               00 000 000 000:  GT Elapsed Test Time
 GTTVD.m                00 000 000 000:  GT True Vertical Depth
#Other Information
#
#WARRANTY: Halliburton will use its best efforts to furnish customers with 
#accurate information and interpretations that are part of, and incident to, the services 
#provided.  However, Halliburton cannot and does not warrant the accuracy 
#or correctness of such information and interpretations.  Under no circumstances should any 
#such information or interpretation be relied upon as the sole basis for any drilling, 
#completion, production, or financial decision or any procedure involving any risk to the 
#safety of any drilling venture, drilling rig or its crew or any other third party.  The 
#Customer has full responsibility for all drilling, completion and production operation.  
#Halliburton makes no representations or warranties, either expressed or 
#implied, including, but not limited to, the implied warranties of merchantability or fitness 
#for a particular purpose, with respect to the services rendered.  In no event will 
#Halliburton be liable for failure to obtain any particular results or for 
#any damages, including, but not limited to, indirect, special or consequential damages, 
#resulting from the use of any information or interpretation provided by Halliburton.
#
~A           TIME           GTDEPTH  GTPQH  GTTQ  GTTN  GTET   GTTVD  
   20:19:26.538.08-May-2021 4592.01 -999.25 69.23 1.00   0.00 3008.50
   20:19:26.738.08-May-2021 4592.01    0.00 69.23 1.00   0.20 3008.50
   20:19:26.938.08-May-2021 4592.01    0.00 69.23 1.00   0.40 3008.50
   20:19:27.138.08-May-2021 4592.01 6760.92 69.23 1.00   0.60 3008.50
   20:19:27.338.08-May-2021 4592.01 6757.88 69.23 1.00   0.80 3008.50
   20:19:27.538.08-May-2021 4592.01 6757.86 69.23 1.00   1.00 3008.50
   20:19:27.738.08-May-2021 4592.01 6757.86 69.23 1.00   1.20 3008.50
   20:19:27.938.08-May-2021 4592.01 6755.92 69.23 1.00   1.40 3008.50
   20:19:28.138.08-May-2021 4592.01 6757.49 69.23 1.00   1.60 3008.50
   20:19:28.338.08-May-2021 4592.01 6756.97 69.23 1.00   1.80 3008.50
   20:19:28.538.08-May-2021 4592.01 6756.07 69.23 1.00   2.00 3008.50
   20:19:28.738.08-May-2021 4592.01 6756.07 69.23 1.00   2.20 3008.50
   20:19:28.938.08-May-2021 4592.01 6757.88 69.23 1.00   2.40 3008.50
   20:19:29.138.08-May-2021 4592.01 6770.33 69.23 1.00   2.60 3008.50
   20:19:29.338.08-May-2021 4592.01 6763.20 69.23 1.00   2.80 3008.50
   20:19:29.538.08-May-2021 4592.01 6759.64 69.23 1.00   3.00 3008.50
   20:19:29.738.08-May-2021 4592.01 6759.64 69.23 1.00   3.20 3008.50
   20:19:29.938.08-May-2021 4592.01 6770.33 69.23 1.00   3.40 3008.50
   20:19:30.138.08-May-2021 4592.01 6769.16 69.23 1.00   3.60 3008.50
   20:19:30.338.08-May-2021 4592.01 6764.61 69.23 1.00   3.80 3008.50
   20:19:30.538.08-May-2021 4592.01 6763.59 69.23 1.00   4.00 3008.50
   20:19:30.738.08-May-2021 4592.01 6763.59 69.23 1.00   4.20 3008.50
   20:19:30.938.08-May-2021 4592.01 6769.37 69.23 1.00   4.40 3008.50
   20:19:31.138.08-May-2021 4592.01 6765.39 69.23 1.00   4.60 3008.50
   20:19:31.339.08-May-2021 4592.01 6768.44 69.23 1.00   4.80 3008.50
   20:19:31.539.08-May-2021 4592.01 6766.09 69.23 1.00   5.00 3008.50
   20:19:31.739.08-May-2021 4592.01 6766.09 69.23 1.00   5.20 3008.50
   20:19:31.939.08-May-2021 4592.01 6776.55 69.23 1.00   5.40 3008.50
   20:19:32.139.08-May-2021 4592.01 6771.11 69.22 1.00   5.60 3008.50
   20:19:32.339.08-May-2021 4592.01 6768.36 69.22 1.00   5.80 3008.50
   20:19:32.539.08-May-2021 4592.01 6779.65 69.22 1.00   6.00 3008.50
   20:19:32.739.08-May-2021 4592.01 6779.65 69.22 1.00   6.20 3008.50
   20:19:32.939.08-May-2021 4592.01 6772.33 69.22 1.00   6.40 3008.50
   20:19:33.139.08-May-2021 4592.01 6772.10 69.22 1.00   6.60 3008.50
   20:19:33.339.08-May-2021 4592.01 6772.30 69.22 1.00   6.80 3008.50
   20:19:33.539.08-May-2021 4592.01 6780.55 69.22 1.00   7.00 3008.50
   20:19:33.739.08-May-2021 4592.01 6780.55 69.22 1.00   7.20 3008.50
   20:19:33.939.08-May-2021 4592.01 6776.63 69.22 1.00   7.40 3008.50
   20:19:34.139.08-May-2021 4592.01 6776.34 69.22 1.00   7.60 3008.50
   20:19:34.339.08-May-2021 4592.01 6777.65 69.22 1.00   7.80 3008.50
   20:19:34.539.08-May-2021 4592.01 6789.75 69.22 1.00   8.00 3008.50
   20:19:34.739.08-May-2021 4592.01 6789.75 69.22 1.00   8.20 3008.50
   20:19:34.939.08-May-2021 4592.01 6778.64 69.22 1.00   8.40 3008.50
   20:19:35.139.08-May-2021 4592.01 6782.13 69.22 1.00   8.60 3008.50
   20:19:35.339.08-May-2021 4592.01 6779.10 69.22 1.00   8.80 3008.50
   20:19:35.539.08-May-2021 4592.01 6779.47 69.22 1.00   9.00 3008.50
   20:19:35.739.08-May-2021 4592.01 6779.47 69.22 1.00   9.20 3008.50
   20:19:35.939.08-May-2021 4592.01 6779.19 69.22 1.00   9.40 3008.50
   20:19:36.139.08-May-2021 4592.01 6779.02 69.22 1.00   9.60 3008.50
   20:19:36.339.08-May-2021 4592.01 6779.13 69.22 1.00   9.80 3008.50
   20:19:36.539.08-May-2021 4592.01 6779.64 69.22 1.00  10.00 3008.50
   20:19:36.739.08-May-2021 4592.01 6779.64 69.22 1.00  10.20 3008.50
   20:19:36.939.08-May-2021 4592.01 6780.33 69.22 1.00  10.40 3008.50
   20:19:37.139.08-May-2021 4592.01 6782.20 69.22 1.00  10.60 3008.50
   20:19:37.339.08-May-2021 4592.01 6794.23 69.22 1.00  10.80 3008.50
   20:19:37.539.08-May-2021 4592.01 6786.75 69.22 1.00  11.00 3008.50
   20:19:37.739.08-May-2021 4592.01 6786.75 69.22 1.00  11.20 3008.50
   20:19:37.939.08-May-2021 4592.01 6787.05 69.22 1.00  11.40 3008.50
   20:19:38.139.08-May-2021 4592.01 6785.39 69.22 1.00  11.60 3008.50
   20:19:38.339.08-May-2021 4592.01 6783.80 69.22 1.00  11.80 3008.50
   20:19:38.539.08-May-2021 4592.01 6783.47 69.22 1.00  12.00 3008.50
   20:19:38.739.08-May-2021 4592.01 6783.47 69.22 1.00  12.20 3008.50
   20:19:38.939.08-May-2021 4592.01 6783.47 69.22 1.00  12.40 3008.50
   20:19:39.139.08-May-2021 4592.01 6782.25 69.22 1.00  12.60 3008.50
   20:19:39.339.08-May-2021 4592.01 6782.92 69.22 1.00  12.80 3008.50
   20:19:39.539.08-May-2021 4592.01 6783.17 69.22 1.00  13.00 3008.50
   20:19:39.739.08-May-2021 4592.01 6783.17 69.22 1.00  13.20 3008.50
   20:19:39.939.08-May-2021 4592.01 6784.60 69.22 1.00  13.40 3008.50
   20:19:40.139.08-May-2021 4592.01 6796.37 69.22 1.00  13.60 3008.50
   20:19:40.339.08-May-2021 4592.01 6787.74 69.22 1.00  13.80 3008.50
   20:19:40.539.08-May-2021 4592.01 6787.45 69.22 1.00  14.00 3008.50
   20:19:40.739.08-May-2021 4592.01 6787.45 69.22 1.00  14.20 3008.50
   20:19:40.940.08-May-2021 4592.01 6785.51 69.22 1.00  14.40 3008.50
   20:19:41.140.08-May-2021 4592.01 6798.16 69.22 1.00  14.60 3008.50
   20:19:41.340.08-May-2021 4592.01 6792.70 69.22 1.00  14.80 3008.50
   20:19:41.540.08-May-2021 4592.01 6790.48 69.22 1.00  15.00 3008.50
   20:19:41.740.08-May-2021 4592.01 6790.48 69.22 1.00  15.20 3008.50
   20:19:41.940.08-May-2021 4592.01 6788.10 69.22 1.00  15.40 3008.50
   20:19:42.140.08-May-2021 4592.01 6800.09 69.22 1.00  15.60 3008.50
   20:19:42.340.08-May-2021 4592.01 6795.90 69.22 1.00  15.80 3008.50
   20:19:42.540.08-May-2021 4592.01 6793.01 69.22 1.00  16.00 3008.50
   20:19:42.740.08-May-2021 4592.01 6793.01 69.22 1.00  16.20 3008.50
   20:19:42.940.08-May-2021 4592.01 6799.48 69.22 1.00  16.40 3008.50
   20:19:43.140.08-May-2021 4592.01 6798.73 69.22 1.00  16.60 3008.50
   20:19:43.340.08-May-2021 4592.01 6795.80 69.22 1.00  16.80 3008.50
   20:19:43.540.08-May-2021 4592.01 6799.10 69.22 1.00  17.00 3008.50
   20:19:43.740.08-May-2021 4592.01 6799.10 69.22 1.00  17.20 3008.50
   20:19:43.940.08-May-2021 4592.01 6807.23 69.22 1.00  17.40 3008.50
   20:19:44.140.08-May-2021 4592.01 6797.65 69.22 1.00  17.60 3008.50
   20:19:44.340.08-May-2021 4592.01 6799.14 69.22 1.00  17.80 3008.50
   20:19:44.540.08-May-2021 4592.01 6797.27 69.22 1.00  18.00 3008.50
   20:19:44.740.08-May-2021 4592.01 6797.27 69.22 1.00  18.20 3008.50
   20:19:44.940.08-May-2021 4592.01 6806.41 69.22 1.00  18.40 3008.50
   20:19:45.140.08-May-2021 4592.01 6803.31 69.22 1.00  18.60 3008.50
   20:19:45.340.08-May-2021 4592.01 6803.64 69.22 1.00  18.80 3008.50
   20:19:45.540.08-May-2021 4592.01 6804.22 69.22 1.00  19.00 3008.50
   20:19:45.740.08-May-2021 4592.01 6804.22 69.22 1.00  19.20 3008.50
   20:19:45.940.08-May-2021 4592.01 6801.85 69.22 1.00  19.40 3008.50
   20:19:46.140.08-May-2021 4592.01 6802.84 69.22 1.00  19.60 3008.50
   20:19:46.340.08-May-2021 4592.01 6802.59 69.22 1.00  19.80 3008.50
   20:19:46.540.08-May-2021 4592.01 6802.88 69.22 1.00  20.00 3008.50
   20:19:46.740.08-May-2021 4592.01 6802.88 69.22 1.00  20.20 3008.50
   20:19:46.940.08-May-2021 4592.01 6802.00 69.22 1.00  20.40 3008.50
   20:19:47.140.08-May-2021 4592.01 6802.55 69.21 1.00  20.60 3008.50
   20:19:47.340.08-May-2021 4592.01 6807.00 69.22 1.00  20.80 3008.50
   20:19:47.540.08-May-2021 4592.01 6814.49 69.21 1.00  21.00 3008.50
   20:19:47.740.08-May-2021 4592.01 6814.49 69.21 1.00  21.20 3008.50
   20:19:47.940.08-May-2021 4592.01 6806.96 69.21 1.00  21.40 3008.50
   20:19:48.140.08-May-2021 4592.01 6809.81 69.21 1.00  21.60 3008.50
   20:19:48.340.08-May-2021 4592.01 6806.85 69.21 1.00  21.80 3008.50
   20:19:48.540.08-May-2021 4592.01 6805.56 69.21 1.00  22.00 3008.50
   20:19:48.740.08-May-2021 4592.01 6805.56 69.21 1.00  22.20 3008.50
   20:19:48.940.08-May-2021 4592.01 6806.75 69.21 1.00  22.40 3008.50
   20:19:49.140.08-May-2021 4592.01 6807.16 69.21 1.00  22.60 3008.50
   20:19:49.340.08-May-2021 4592.01 6806.56 69.21 1.00  22.80 3008.50
