~Version Information
 VERS.                  2.0:   CWLS log ASCII Standard -VERSION 2.0
 WRAP.                   NO:   One line per depth step
~Well Information Block
#MNEM.UNIT     VALUE/NAME     DESCRIPTION
#---------     -----------    ---------------------------
 STRT.S             01:12:50 09-May-21: START TIME 01:12:50 09-May-21
 STOP.S             01:19:27 09-May-21: STOP TIME  01:19:27 09-May-21
 STEP.S                   0.00: STEP TIME
 NULL.                 -999.25: NULL VALUE
 PROV.                    Baku:  PROVINCE
 STAT.                    Baku:  STATE NAME
 SON .        AZ-XX-0906571588:  JOB NUMBER
 WTYP.                Deviated:  WELL TYPE
 COMP.     BP Exploration (Caspian Sea) ltd:  COMPANY
 BASE.              Azerbaijan:  LOGGING EQUIPMENT BASE LOCATION
 REGN.                   EESSA:  REGION
 CTRY.              Azerbaijan:  COUNTRY NAME
 FLD .                     ACG:  FIELD NAME
 WELL.                     J28:  WELL NAME
 RIG .             West Chirag:  RIG NAME
 DMF .             Drill Floor:  DRILL MEAS FROM
 PDAT.       Caspian Sea Level:  PERMANENT DATUM
 HPTY.       Minimum Curvature:  HOLE POS TYPE
 MDS .        Operator Entered:  MAG DATA SOURCE
 NREF.                    Grid:  NORTH REFERENCE
 SRVC.          TURAN DRILLING:  CONTRACTOR
 JOBN.        AZ-XX-0906571588:  JOB TICKET NUMB
 DCON.     Halliburton Sperry Drilling:  DIRECTNL CONTR
 STIM.      00.44.00 11-Feb-21:  START TIME
 DATE.      00.00.00 05-May-21:  END TIME
 SPUD.               13-Feb-21:  SPUD DATE
 MWDS.                    Baku:  MWD SHOP
 DOE .                     N/A:  DOE NUMBER
 UNIT.                     N/A:  LOGGING EQUIPMENT ID
 UWI .                     N/A:  UNIQUE WELL IDENTIFIER
 API .                     N/A:  API NUMBER
 CNTY.                        :  COUNTY
 LOC .                        :  LOCATION
 LMF .             Drill Floor:  LOG MEASURED FROM
 TVDS.m                  43.00:  TVDSS CORRECTN
 SDEP.m                 341.00:  START DEPTH
 EGL .m                   0.00:  GROUND ELEVATION
 WDMS.m                 169.80:  WD ELEV
 AGAP.m                  43.00:  AIR GAP
 EPD .m                   0.00:  ELEVATION
 APD .m                  43.00:  DEPTH ABOVE PD
 LATI.deg                40.13:  LATITUDE
 LONG.deg                51.22:  LONGITUDE
 UTMY.m             4443793.85:  UTM Y
 UTMX.m              519005.06:  UTM X
 WHEW.m                 -11.57:  WELL HEAD E/W
 WHNS.m                   8.57:  WELL HEAD N/S
 VSEW.m                 -11.57:  VERT SEC E/W
 VSNS.m                   8.57:  VERT SEC N/S
 DFWL.m                   0.00:  DISTANCE FWL
 DFSL.m                   0.00:  DISTANCE FSL
 VSDR.deg               299.34:  VERT SEC DIRECT
 GVFD.g                   1.00:  GRAVITY FIELD
 AZTC.deg                 6.36:  AZM TOTAL CORR
 MFLD.nT              50391.00:  MAGNETIC FIELD
 MDIP.deg                59.65:  MAGNETIC DIP
 MDEC.deg                 6.48:  MAGNETIC DECL
 GRDC.deg                 0.12:  GRID CORRECTION
 DEP .m                 334.96:  DEPTH
 TDD .m                1407.26:  TOTAL DEPTH (DRILLER)
 EKB .m                  43.00:  KB ELEVATION
 EDF .m                  43.00:  DF ELEVATION
 TDL .m                 228.00:  TOTAL DEPTH (LOGGER)
 VSC .                       0:  VS TO CLOSURE
 MAGU.                 1854484:  MAGUTM CHECKSUM
~Parameter Information Block
#MNEM.UNIT       Value        Description
#---------     -----------    ---------------------------
 AV  .mps                 4.00:  Ann Velocity 
 AVMX.mps                 4.73:  Max Ann Veloc 
 AZIF.deg               304.48:  Azm, Final 
 BHAT.        Rotary Steerable:  BHA Type 
 BREV.rev            257300.00:  Rev Bit Total 
 BROT.°/30m               0.00:  Build Rotating 
 BS  .in                  8.50:  Bit Size 
 BSZ .in                  8.50:  Bit Size 
 BTPL.psig              589.00:  Bit Press Loss 
 CABU.                      No:  Customer Abuse 
 CGEO.          Mubariz ghayev:  Customer Geo 
 COMM.                     ÌğZ:  Run Comments 1 
 TCS .hr                 64.25:  Time Ciculation Ended 
 CV  .mps                 3.50:  Crit Velocity 
 CVMX.mps                 4.52:  Max Crit Veloc 
 DD1 .             Aziz Aliyev:  Direct Drillr 1 
 DD2 .         Intigam Rahimov:  Direct Drillr 2 
 DD3 .          Rashad Habibov:  Direct Drillr 3 
 DDSV.               Geo-Pilot:  DD Service 
 DEFF.%                  98.00:  % Det Eff 
 DLRX.°/30m               0.00:  Dogleg Rot Max 
 DLSO.°/30m               0.00:  Dogleg Oriented 
 DLSX.°/30m               0.00:  Dogleg Str Max 
 DRET.      10.45.04 08-May-21:  Drill End Time 
 DRST.      03.30.04 04-May-21:  Drill Start Tim 
 DTIM.hr                 14.97:  Time Drilling 
 EDEP.m                4640.01:  End Depth 
 ENG1.         Dail Mahammadov:  Engineer 1 
 ENG2.           Eldar Hajiyev:  Engineer 2 
 ENG3.       Bakhtiar Jabbarli:  Engineer 3 
 ENG4.       Natik Hasanagayev:  Engineer 4 
 ETIM.      09.30.04 14-May-21:  End Time 
 FLOI.gpm               460.00:  Flow In 
 FLON.gpm               200.00:  Flow In Min 
 FLOS.cptm                0.00:  Fluid Loss 
 FLOX.gpm               505.00:  Flow In Max 
 HFLO.                      No:  High Flow 
 HPRE.                      No:  High Pressure 
 HTEM.                      No:  High Temp 
 HYDO.m                   1.80:  Hydro Offset 
 IFIN.deg                66.71:  Inc, Final 
 IMAX.deg                67.03:  Inc Max 
 IMIN.deg                66.63:  Inc Min 
 IMND.m                4550.58:  Inc Min Depth 
 IMXD.m                4439.01:  Inc Max Depth 
 JARR.                      No:  Jarring 
 LETM.      10.45.04 08-May-21:  Log End Time 
 LOST.hr                     0:  Lost Rig Time 
 LSTM.      03.30.04 04-May-21:  Log Start Time 
 MDCL.ppm             37000.00:  Mud Chlorides 
 MDES.     Inversion Oil/Synthetic:  Mud Desc 
 DFD .sg                  1.38:  Mud Density 
 MDMN.sg                  1.35:  Dens Mud Min 
 MDMX.sg                  1.40:  Dens Mud Max 
 MOIL.                   57.40:  Run Mud Oil % 
 MOWR.                   70:30:  Run Mud OWR 
 MSND.                    0.00:  Run Mud Sand % 
 MSOL.                   18.00:  Run Mud Solids% 
 DFV .spqt               71.00:  Mud Viscosity 
 MWOD.in                  6.75:  MWD Tool OD 
 MWSI.                      No:  Serv Intrp, MWD 
 OTIM.hr                242.76:  Time Operating 
 PCON.           Look Like New:  Pad Condition 
 PMAX.psia            12183.92:  Press Op, Max 
 PV  .cP                 27.00:  Mud PV 
 RUN .                    1300:  Run Number 
 ROPA.m/hr               15.00:  ROP Avg 
 ROPN.m/hr                9.00:  ROP Min 
 ROPX.m/hr               19.00:  ROP Max 
 RPMA.rpm               120.00:  RPM Surface Avg 
 RPMN.rpm               100.00:  RPM Surface Min 
 RPMX.rpm               120.00:  RPM Surface Max 
 RRUN.                    1300:  Rig Run Number 
 RTIM.hr                  5.00:  Time Reaming 
 SAZI.deg               304.73:  Azm, Start 
 SDEP.m                4412.01:  Start Depth 
 SIDD.                      No:  Serv Intrp, DD 
 SINC.deg                66.82:  Inc, Start 
 SPPA.psig             2800.00:  SPP Avg 
 SPPN.psig             2610.00:  SPP Min 
 SPPX.psig             3100.00:  SPP Max 
 STIM.      03.30.00 04-May-21:  Start Time 
 SVCS.                 DD, MWD:  Services 
 SVER.                    9.20:  Sperry Version 
 TDAT.m                 228.00:  Tot Depth Attmp 
 TDDF.                      No:  Trip for DD 
 TDLG.m                 228.00:  Tot Depth Loggd 
 TFF .                      No:  Trip for Fail 
 TQAA.f-kp               15.00:  Torque Abs Avg 
 TQAN.f-kp               12.00:  Torque Abs Min 
 TQAX.f-kp               22.00:  Torque Abs Max 
 TRRT.°/30m               0.00:  Turn Rotating 
 MRT .                    HCIM:  Maximum Recorded Temperature 
 TTMX.degC               90.20:  Max Tool Temp 
 VS01.                90627813:  Virtual Str1 SN 
 VS02.                90634712:  Virtual Str2 SN 
 VS03.                90643410:  Virtual Str3 SN 
 VS04.                90634712:  Virtual Str4 SN 
 WBMN.klb                 9.00:  WOB Min 
 WITN.        Elmaddin Rahimov:  Customer Rep 
 WITN.         Haytham Mostafa:  Customer Rep 2 
 WOBA.klb                15.00:  WOB Avg 
 WOBX.klb                23.00:  WOB Max 
 YP  .lhf2               29.00:  Yield Point 
~Curve Information Block
#MNEM.UNIT                 API CODE     Curve Description
#---------               -----------    ---------------------------
 TIME.HHMMSS            00 000 000 000:  GT Time & Date
 GTDEPTH.m              00 000 000 000:  GT Depth
 GTPQH.psia             00 000 000 000:  GT HR Quartz Pressure
 GTTQ.degC              00 000 000 000:  GT Quartz Temperature
 GTTN.NONE              00 000 000 000:  GT Test Number
 GTET.sec               00 000 000 000:  GT Elapsed Test Time
 GTTVD.m                00 000 000 000:  GT True Vertical Depth
#Other Information
#
#WARRANTY: Halliburton will use its best efforts to furnish customers with 
#accurate information and interpretations that are part of, and incident to, the services 
#provided.  However, Halliburton cannot and does not warrant the accuracy 
#or correctness of such information and interpretations.  Under no circumstances should any 
#such information or interpretation be relied upon as the sole basis for any drilling, 
#completion, production, or financial decision or any procedure involving any risk to the 
#safety of any drilling venture, drilling rig or its crew or any other third party.  The 
#Customer has full responsibility for all drilling, completion and production operation.  
#Halliburton makes no representations or warranties, either expressed or 
#implied, including, but not limited to, the implied warranties of merchantability or fitness 
#for a particular purpose, with respect to the services rendered.  In no event will 
#Halliburton be liable for failure to obtain any particular results or for 
#any damages, including, but not limited to, indirect, special or consequential damages, 
#resulting from the use of any information or interpretation provided by Halliburton.
#
~A           TIME           GTDEPTH  GTPQH  GTTQ  GTTN  GTET   GTTVD  
# ...
   01:18:12.898.09-May-2021 4503.51 2499.75 67.54 9.00 322.12 2973.49
   01:18:13.098.09-May-2021 4503.51 2499.75 67.54 9.00 322.32 2973.49
   01:18:13.298.09-May-2021 4503.51 2505.51 67.54 9.00 322.52 2973.49
   01:18:13.498.09-May-2021 4503.51 2508.33 67.54 9.00 322.72 2973.49
   01:18:13.698.09-May-2021 4503.51 2510.67 67.54 9.00 322.92 2973.49
   01:18:13.898.09-May-2021 4503.51 2513.08 67.54 9.00 323.12 2973.49
   01:18:14.098.09-May-2021 4503.51 2513.08 67.54 9.00 323.32 2973.49
   01:18:14.298.09-May-2021 4503.51 2518.77 67.54 9.00 323.52 2973.49
   01:18:14.498.09-May-2021 4503.51 2520.84 67.54 9.00 323.72 2973.49
   01:18:14.698.09-May-2021 4503.51 2524.01 67.54 9.00 323.92 2973.49
   01:18:14.898.09-May-2021 4503.51 2526.54 67.54 9.00 324.12 2973.49
   01:18:15.098.09-May-2021 4503.51 2526.54 67.54 9.00 324.32 2973.49
   01:18:15.299.09-May-2021 4503.51 2531.34 67.54 9.00 324.52 2973.49
   01:18:15.499.09-May-2021 4503.51 2533.58 67.54 9.00 324.72 2973.49
   01:18:15.699.09-May-2021 4503.51 2536.69 67.54 9.00 324.92 2973.49
   01:18:15.899.09-May-2021 4503.51 2539.18 67.54 9.00 325.12 2973.49
   01:18:16.099.09-May-2021 4503.51 2539.18 67.54 9.00 325.32 2973.49
   01:18:16.299.09-May-2021 4503.51 2544.28 67.54 9.00 325.52 2973.49
   01:18:16.499.09-May-2021 4503.51 2546.91 67.54 9.00 325.72 2973.49
   01:18:16.699.09-May-2021 4503.51 2549.48 67.54 9.00 325.92 2973.49
   01:18:16.899.09-May-2021 4503.51 2552.08 67.54 9.00 326.12 2973.49
   01:18:17.099.09-May-2021 4503.51 2552.08 67.54 9.00 326.32 2973.49
   01:18:17.299.09-May-2021 4503.51 2557.14 67.54 9.00 326.52 2973.49
   01:18:17.499.09-May-2021 4503.51 2559.65 67.54 9.00 326.72 2973.49
   01:18:17.699.09-May-2021 4503.51 2562.11 67.54 9.00 326.92 2973.49
   01:18:17.899.09-May-2021 4503.51 2564.48 67.54 9.00 327.12 2973.49
   01:18:18.100.09-May-2021 4503.51 2564.48 67.54 9.00 327.32 2973.49
   01:18:18.300.09-May-2021 4503.51 2569.61 67.54 9.00 327.52 2973.49
   01:18:18.500.09-May-2021 4503.51 2571.95 67.54 9.00 327.72 2973.49
   01:18:18.700.09-May-2021 4503.51 2574.09 67.54 9.00 327.92 2973.49
   01:18:18.900.09-May-2021 4503.51 2576.59 67.54 9.00 328.12 2973.49
   01:18:19.100.09-May-2021 4503.51 2576.59 67.54 9.00 328.32 2973.49
   01:18:19.300.09-May-2021 4503.51 2581.31 67.54 9.00 328.52 2973.49
   01:18:19.500.09-May-2021 4503.51 2583.74 67.54 9.00 328.72 2973.49
   01:18:19.700.09-May-2021 4503.51 2586.08 67.54 9.00 328.92 2973.49
   01:18:19.900.09-May-2021 4503.51 2588.49 67.54 9.00 329.12 2973.49
   01:18:20.100.09-May-2021 4503.51 2588.49 67.54 9.00 329.32 2973.49
   01:18:20.300.09-May-2021 4503.51 2593.23 67.54 9.00 329.52 2973.49
   01:18:20.500.09-May-2021 4503.51 2595.17 67.54 9.00 329.72 2973.49
   01:18:20.700.09-May-2021 4503.51 2597.79 67.54 9.00 329.92 2973.49
   01:18:20.901.09-May-2021 4503.51 2600.18 67.54 9.00 330.12 2973.49
   01:18:21.101.09-May-2021 4503.51 2600.18 67.54 9.00 330.32 2973.49
   01:18:21.301.09-May-2021 4503.51 2604.67 67.54 9.00 330.52 2973.49
   01:18:21.501.09-May-2021 4503.51 2607.10 67.54 9.00 330.72 2973.49
   01:18:21.701.09-May-2021 4503.51 2608.79 67.54 9.00 330.92 2973.49
   01:18:21.901.09-May-2021 4503.51 2611.83 67.54 9.00 331.12 2973.49
   01:18:22.101.09-May-2021 4503.51 2611.83 67.54 9.00 331.32 2973.49
   01:18:22.301.09-May-2021 4503.51 2615.48 67.54 9.00 331.52 2973.49
   01:18:22.501.09-May-2021 4503.51 2618.52 67.54 9.00 331.72 2973.49
   01:18:22.701.09-May-2021 4503.51 2620.25 67.54 9.00 331.92 2973.49
   01:18:22.901.09-May-2021 4503.51 2622.65 67.54 9.00 332.12 2973.49
   01:18:23.101.09-May-2021 4503.51 2622.65 67.54 9.00 332.32 2973.49
   01:18:23.301.09-May-2021 4503.51 2627.29 67.55 9.00 332.52 2973.49
   01:18:23.501.09-May-2021 4503.51 2629.37 67.54 9.00 332.72 2973.49
   01:18:23.702.09-May-2021 4503.51 2631.40 67.54 9.00 332.92 2973.49
   01:18:23.902.09-May-2021 4503.51 2633.85 67.55 9.00 333.12 2973.49
   01:18:24.102.09-May-2021 4503.51 2633.85 67.55 9.00 333.32 2973.49
   01:18:24.302.09-May-2021 4503.51 2636.03 67.55 9.00 333.52 2973.49
   01:18:24.502.09-May-2021 4503.51 2640.61 67.55 9.00 333.72 2973.49
   01:18:24.702.09-May-2021 4503.51 2642.85 67.55 9.00 333.92 2973.49
   01:18:24.902.09-May-2021 4503.51 2645.18 67.55 9.00 334.12 2973.49
   01:18:25.102.09-May-2021 4503.51 2645.18 67.55 9.00 334.32 2973.49
   01:18:25.302.09-May-2021 4503.51 2649.76 67.55 9.00 334.52 2973.49
   01:18:25.502.09-May-2021 4503.51 2652.07 67.55 9.00 334.72 2973.49
   01:18:25.702.09-May-2021 4503.51 2653.72 67.55 9.00 334.92 2973.49
   01:18:25.902.09-May-2021 4503.51 2656.81 67.55 9.00 335.12 2973.49
   01:18:26.102.09-May-2021 4503.51 2656.81 67.55 9.00 335.32 2973.49
   01:18:26.303.09-May-2021 4503.51 2660.81 67.55 9.00 335.52 2973.49
   01:18:26.503.09-May-2021 4503.51 2662.99 67.55 9.00 335.72 2973.49
   01:18:26.703.09-May-2021 4503.51 2665.09 67.55 9.00 335.92 2973.49
   01:18:26.903.09-May-2021 4503.51 2667.28 67.55 9.00 336.12 2973.49
   01:18:27.103.09-May-2021 4503.51 2667.28 67.55 9.00 336.32 2973.49
   01:18:27.303.09-May-2021 4503.51 2671.17 67.55 9.00 336.52 2973.49
   01:18:27.503.09-May-2021 4503.51 2673.15 67.55 9.00 336.72 2973.49
   01:18:27.703.09-May-2021 4503.51 2675.15 67.55 9.00 336.92 2973.49
   01:18:27.903.09-May-2021 4503.51 2677.26 67.55 9.00 337.12 2973.49
   01:18:28.103.09-May-2021 4503.51 2677.26 67.55 9.00 337.32 2973.49
   01:18:28.303.09-May-2021 4503.51 2680.90 67.55 9.00 337.52 2973.49
   01:18:28.503.09-May-2021 4503.51 2683.56 67.55 9.00 337.72 2973.49
   01:18:28.703.09-May-2021 4503.51 2685.44 67.55 9.00 337.92 2973.49
   01:18:28.903.09-May-2021 4503.51 2686.76 67.55 9.00 338.12 2973.49
   01:18:29.104.09-May-2021 4503.51 2686.76 67.55 9.00 338.32 2973.49
   01:18:29.304.09-May-2021 4503.51 2691.28 67.55 9.00 338.52 2973.49
   01:18:29.504.09-May-2021 4503.51 2693.54 67.55 9.00 338.72 2973.49
   01:18:29.704.09-May-2021 4503.51 2695.06 67.55 9.00 338.92 2973.49
   01:18:29.904.09-May-2021 4503.51 2697.66 67.55 9.00 339.12 2973.49
   01:18:30.104.09-May-2021 4503.51 2697.66 67.55 9.00 339.32 2973.49
   01:18:30.304.09-May-2021 4503.51 2700.88 67.55 9.00 339.52 2973.49
   01:18:30.504.09-May-2021 4503.51 2703.73 67.55 9.00 339.72 2973.49
   01:18:30.704.09-May-2021 4503.51 2705.39 67.55 9.00 339.92 2973.49
   01:18:30.904.09-May-2021 4503.51 2707.59 67.55 9.00 340.12 2973.49
   01:18:31.104.09-May-2021 4503.51 2707.59 67.55 9.00 340.32 2973.49
   01:18:31.304.09-May-2021 4503.51 2711.44 67.55 9.00 340.52 2973.49
   01:18:31.504.09-May-2021 4503.51 2713.43 67.55 9.00 340.72 2973.49
   01:18:31.704.09-May-2021 4503.51 2715.31 67.55 9.00 340.92 2973.49
   01:18:31.905.09-May-2021 4503.51 2717.21 67.55 9.00 341.12 2973.49
   01:18:32.105.09-May-2021 4503.51 2717.21 67.55 9.00 341.32 2973.49
   01:18:32.305.09-May-2021 4503.51 2720.92 67.55 9.00 341.52 2973.49
   01:18:32.505.09-May-2021 4503.51 2722.84 67.55 9.00 341.72 2973.49
   01:18:32.705.09-May-2021 4503.51 2724.77 67.55 9.00 341.92 2973.49
   01:18:32.905.09-May-2021 4503.51 2726.18 67.55 9.00 342.12 2973.49
   01:18:33.105.09-May-2021 4503.51 2726.18 67.55 9.00 342.32 2973.49
   01:18:33.305.09-May-2021 4503.51 2730.43 67.55 9.00 342.52 2973.49
   01:18:33.505.09-May-2021 4503.51 2732.68 67.55 9.00 342.72 2973.49
   01:18:33.705.09-May-2021 4503.51 2734.39 67.55 9.00 342.92 2973.49
   01:18:33.905.09-May-2021 4503.51 2736.26 67.55 9.00 343.12 2973.49
   01:18:34.105.09-May-2021 4503.51 2736.26 67.55 9.00 343.32 2973.49
   01:18:34.305.09-May-2021 4503.51 2740.06 67.55 9.00 343.52 2973.49
   01:18:34.505.09-May-2021 4503.51 2741.96 67.55 9.00 343.72 2973.49
   01:18:34.706.09-May-2021 4503.51 2743.81 67.55 9.00 343.92 2973.49
   01:18:34.906.09-May-2021 4503.51 2745.69 67.55 9.00 344.12 2973.49
   01:18:35.106.09-May-2021 4503.51 2745.69 67.55 9.00 344.32 2973.49
   01:18:35.306.09-May-2021 4503.51 2749.36 67.55 9.00 344.52 2973.49
   01:18:35.506.09-May-2021 4503.51 2750.60 67.55 9.00 344.72 2973.49
   01:18:35.706.09-May-2021 4503.51 2753.07 67.55 9.00 344.92 2973.49
