~Version Information
 VERS.                  2.0:   CWLS log ASCII Standard -VERSION 2.0
 WRAP.                   NO:   One line per depth step
~Well Information Block
#MNEM.UNIT     VALUE/NAME     DESCRIPTION
#---------     -----------    ---------------------------
 STRT.S             02:17:40 10-May-21: START TIME 02:17:40 10-May-21
 STOP.S             02:25:48 10-May-21: STOP TIME  02:25:48 10-May-21
 STEP.S                   0.00: STEP TIME
 NULL.                 -999.25: NULL VALUE
 PROV.                    Baku:  PROVINCE
 STAT.                    Baku:  STATE NAME
 SON .        AZ-XX-0906571588:  JOB NUMBER
 WTYP.                Deviated:  WELL TYPE
 COMP.     BP Exploration (Caspian Sea) ltd:  COMPANY
 BASE.              Azerbaijan:  LOGGING EQUIPMENT BASE LOCATION
 REGN.                   EESSA:  REGION
 CTRY.              Azerbaijan:  COUNTRY NAME
 FLD .                     ACG:  FIELD NAME
 WELL.                     J28:  WELL NAME
 RIG .             West Chirag:  RIG NAME
 DMF .             Drill Floor:  DRILL MEAS FROM
 PDAT.       Caspian Sea Level:  PERMANENT DATUM
 HPTY.       Minimum Curvature:  HOLE POS TYPE
 MDS .        Operator Entered:  MAG DATA SOURCE
 NREF.                    Grid:  NORTH REFERENCE
 SRVC.          TURAN DRILLING:  CONTRACTOR
 JOBN.        AZ-XX-0906571588:  JOB TICKET NUMB
 DCON.     Halliburton Sperry Drilling:  DIRECTNL CONTR
 STIM.      00.44.00 11-Feb-21:  START TIME
 DATE.      00.00.00 05-May-21:  END TIME
 SPUD.               13-Feb-21:  SPUD DATE
 MWDS.                    Baku:  MWD SHOP
 DOE .                     N/A:  DOE NUMBER
 UNIT.                     N/A:  LOGGING EQUIPMENT ID
 UWI .                     N/A:  UNIQUE WELL IDENTIFIER
 API .                     N/A:  API NUMBER
 CNTY.                        :  COUNTY
 LOC .                        :  LOCATION
 LMF .             Drill Floor:  LOG MEASURED FROM
 TVDS.m                  43.00:  TVDSS CORRECTN
 SDEP.m                 341.00:  START DEPTH
 EGL .m                   0.00:  GROUND ELEVATION
 WDMS.m                 169.80:  WD ELEV
 AGAP.m                  43.00:  AIR GAP
 EPD .m                   0.00:  ELEVATION
 APD .m                  43.00:  DEPTH ABOVE PD
 LATI.deg                40.13:  LATITUDE
 LONG.deg                51.22:  LONGITUDE
 UTMY.m             4443793.85:  UTM Y
 UTMX.m              519005.06:  UTM X
 WHEW.m                 -11.57:  WELL HEAD E/W
 WHNS.m                   8.57:  WELL HEAD N/S
 VSEW.m                 -11.57:  VERT SEC E/W
 VSNS.m                   8.57:  VERT SEC N/S
 DFWL.m                   0.00:  DISTANCE FWL
 DFSL.m                   0.00:  DISTANCE FSL
 VSDR.deg               299.34:  VERT SEC DIRECT
 GVFD.g                   1.00:  GRAVITY FIELD
 AZTC.deg                 6.36:  AZM TOTAL CORR
 MFLD.nT              50391.00:  MAGNETIC FIELD
 MDIP.deg                59.65:  MAGNETIC DIP
 MDEC.deg                 6.48:  MAGNETIC DECL
 GRDC.deg                 0.12:  GRID CORRECTION
 DEP .m                 334.96:  DEPTH
 TDD .m                1407.26:  TOTAL DEPTH (DRILLER)
 EKB .m                  43.00:  KB ELEVATION
 EDF .m                  43.00:  DF ELEVATION
 TDL .m                 228.00:  TOTAL DEPTH (LOGGER)
 VSC .                       0:  VS TO CLOSURE
 MAGU.                 1854484:  MAGUTM CHECKSUM
~Parameter Information Block
#MNEM.UNIT       Value        Description
#---------     -----------    ---------------------------
 AV  .mps                 4.00:  Ann Velocity 
 AVMX.mps                 4.73:  Max Ann Veloc 
 AZIF.deg               304.48:  Azm, Final 
 BHAT.        Rotary Steerable:  BHA Type 
 BREV.rev            257300.00:  Rev Bit Total 
 BROT.°/30m               0.00:  Build Rotating 
 BS  .in                  8.50:  Bit Size 
 BSZ .in                  8.50:  Bit Size 
 BTPL.psig              589.00:  Bit Press Loss 
 CABU.                      No:  Customer Abuse 
 CGEO.          Mubariz ghayev:  Customer Geo 
 COMM.                     …:  Run Comments 1 
 TCS .hr                 64.25:  Time Ciculation Ended 
 CV  .mps                 3.50:  Crit Velocity 
 CVMX.mps                 4.52:  Max Crit Veloc 
 DD1 .             Aziz Aliyev:  Direct Drillr 1 
 DD2 .         Intigam Rahimov:  Direct Drillr 2 
 DD3 .          Rashad Habibov:  Direct Drillr 3 
 DDSV.               Geo-Pilot:  DD Service 
 DEFF.%                  98.00:  % Det Eff 
 DLRX.°/30m               0.00:  Dogleg Rot Max 
 DLSO.°/30m               0.00:  Dogleg Oriented 
 DLSX.°/30m               0.00:  Dogleg Str Max 
 DRET.      10.45.04 08-May-21:  Drill End Time 
 DRST.      03.30.04 04-May-21:  Drill Start Tim 
 DTIM.hr                 14.97:  Time Drilling 
 EDEP.m                4640.01:  End Depth 
 ENG1.         Dail Mahammadov:  Engineer 1 
 ENG2.           Eldar Hajiyev:  Engineer 2 
 ENG3.       Bakhtiar Jabbarli:  Engineer 3 
 ENG4.       Natik Hasanagayev:  Engineer 4 
 ETIM.      09.30.04 14-May-21:  End Time 
 FLOI.gpm               460.00:  Flow In 
 FLON.gpm               200.00:  Flow In Min 
 FLOS.cptm                0.00:  Fluid Loss 
 FLOX.gpm               505.00:  Flow In Max 
 HFLO.                      No:  High Flow 
 HPRE.                      No:  High Pressure 
 HTEM.                      No:  High Temp 
 HYDO.m                   1.80:  Hydro Offset 
 IFIN.deg                66.71:  Inc, Final 
 IMAX.deg                67.03:  Inc Max 
 IMIN.deg                66.63:  Inc Min 
 IMND.m                4550.58:  Inc Min Depth 
 IMXD.m                4439.01:  Inc Max Depth 
 JARR.                      No:  Jarring 
 LETM.      10.45.04 08-May-21:  Log End Time 
 LOST.hr                     0:  Lost Rig Time 
 LSTM.      03.30.04 04-May-21:  Log Start Time 
 MDCL.ppm             37000.00:  Mud Chlorides 
 MDES.     Inversion Oil/Synthetic:  Mud Desc 
 DFD .sg                  1.38:  Mud Density 
 MDMN.sg                  1.35:  Dens Mud Min 
 MDMX.sg                  1.40:  Dens Mud Max 
 MOIL.                   57.40:  Run Mud Oil % 
 MOWR.                   70:30:  Run Mud OWR 
 MSND.                    0.00:  Run Mud Sand % 
 MSOL.                   18.00:  Run Mud Solids% 
 DFV .spqt               71.00:  Mud Viscosity 
 MWOD.in                  6.75:  MWD Tool OD 
 MWSI.                      No:  Serv Intrp, MWD 
 OTIM.hr                242.76:  Time Operating 
 PCON.           Look Like New:  Pad Condition 
 PMAX.psia            12183.92:  Press Op, Max 
 PV  .cP                 27.00:  Mud PV 
 RUN .                    1300:  Run Number 
 ROPA.m/hr               15.00:  ROP Avg 
 ROPN.m/hr                9.00:  ROP Min 
 ROPX.m/hr               19.00:  ROP Max 
 RPMA.rpm               120.00:  RPM Surface Avg 
 RPMN.rpm               100.00:  RPM Surface Min 
 RPMX.rpm               120.00:  RPM Surface Max 
 RRUN.                    1300:  Rig Run Number 
 RTIM.hr                  5.00:  Time Reaming 
 SAZI.deg               304.73:  Azm, Start 
 SDEP.m                4412.01:  Start Depth 
 SIDD.                      No:  Serv Intrp, DD 
 SINC.deg                66.82:  Inc, Start 
 SPPA.psig             2800.00:  SPP Avg 
 SPPN.psig             2610.00:  SPP Min 
 SPPX.psig             3100.00:  SPP Max 
 STIM.      03.30.00 04-May-21:  Start Time 
 SVCS.                 DD, MWD:  Services 
 SVER.                    9.20:  Sperry Version 
 TDAT.m                 228.00:  Tot Depth Attmp 
 TDDF.                      No:  Trip for DD 
 TDLG.m                 228.00:  Tot Depth Loggd 
 TFF .                      No:  Trip for Fail 
 TQAA.f-kp               15.00:  Torque Abs Avg 
 TQAN.f-kp               12.00:  Torque Abs Min 
 TQAX.f-kp               22.00:  Torque Abs Max 
 TRRT.°/30m               0.00:  Turn Rotating 
 MRT .                    HCIM:  Maximum Recorded Temperature 
 TTMX.degC               90.20:  Max Tool Temp 
 VS01.                90627813:  Virtual Str1 SN 
 VS02.                90634712:  Virtual Str2 SN 
 VS03.                90643410:  Virtual Str3 SN 
 VS04.                90634712:  Virtual Str4 SN 
 WBMN.klb                 9.00:  WOB Min 
 WITN.        Elmaddin Rahimov:  Customer Rep 
 WITN.         Haytham Mostafa:  Customer Rep 2 
 WOBA.klb                15.00:  WOB Avg 
 WOBX.klb                23.00:  WOB Max 
 YP  .lhf2               29.00:  Yield Point 
~Curve Information Block
#MNEM.UNIT                 API CODE     Curve Description
#---------               -----------    ---------------------------
 TIME.HHMMSS            00 000 000 000:  GT Time & Date
 GTDEPTH.m              00 000 000 000:  GT Depth
 GTPQH.psia             00 000 000 000:  GT HR Quartz Pressure
 GTTQ.degC              00 000 000 000:  GT Quartz Temperature
 GTTN.NONE              00 000 000 000:  GT Test Number
 GTET.sec               00 000 000 000:  GT Elapsed Test Time
 GTTVD.m                00 000 000 000:  GT True Vertical Depth
#Other Information
#
#WARRANTY: Halliburton will use its best efforts to furnish customers with 
#accurate information and interpretations that are part of, and incident to, the services 
#provided.  However, Halliburton cannot and does not warrant the accuracy 
#or correctness of such information and interpretations.  Under no circumstances should any 
#such information or interpretation be relied upon as the sole basis for any drilling, 
#completion, production, or financial decision or any procedure involving any risk to the 
#safety of any drilling venture, drilling rig or its crew or any other third party.  The 
#Customer has full responsibility for all drilling, completion and production operation.  
#Halliburton makes no representations or warranties, either expressed or 
#implied, including, but not limited to, the implied warranties of merchantability or fitness 
#for a particular purpose, with respect to the services rendered.  In no event will 
#Halliburton be liable for failure to obtain any particular results or for 
#any damages, including, but not limited to, indirect, special or consequential damages, 
#resulting from the use of any information or interpretation provided by Halliburton.
#
~A           TIME           GTDEPTH  GTPQH  GTTQ  GTTN   GTET   GTTVD  
# ...
   02:22:57.089.10-May-2021 4568.01  514.35 60.31 20.00 316.46 2998.98
   02:22:57.289.10-May-2021 4568.01  513.68 60.31 20.00 316.66 2998.98
   02:22:57.489.10-May-2021 4568.01  514.04 60.31 20.00 316.86 2998.98
   02:22:57.689.10-May-2021 4568.01  513.26 60.31 20.00 317.06 2998.98
   02:22:57.889.10-May-2021 4568.01  513.26 60.31 20.00 317.26 2998.98
   02:22:58.089.10-May-2021 4568.01  512.80 60.31 20.00 317.46 2998.98
   02:22:58.289.10-May-2021 4568.01  511.35 60.31 20.00 317.66 2998.98
   02:22:58.489.10-May-2021 4568.01  510.45 60.31 20.00 317.86 2998.98
   02:22:58.689.10-May-2021 4568.01  510.30 60.31 20.00 318.06 2998.98
   02:22:58.889.10-May-2021 4568.01  510.30 60.31 20.00 318.26 2998.98
   02:22:59.089.10-May-2021 4568.01  510.07 60.31 20.00 318.46 2998.98
   02:22:59.289.10-May-2021 4568.01  509.92 60.31 20.00 318.66 2998.98
   02:22:59.489.10-May-2021 4568.01  509.96 60.31 20.00 318.86 2998.98
   02:22:59.689.10-May-2021 4568.01  509.84 60.31 20.00 319.06 2998.98
   02:22:59.889.10-May-2021 4568.01  509.84 60.31 20.00 319.26 2998.98
   02:23:00.089.10-May-2021 4568.01  509.44 60.31 20.00 319.46 2998.98
   02:23:00.289.10-May-2021 4568.01  509.21 60.31 20.00 319.66 2998.98
   02:23:00.489.10-May-2021 4568.01  509.03 60.31 20.00 319.86 2998.98
   02:23:00.689.10-May-2021 4568.01  507.91 60.31 20.00 320.06 2998.98
   02:23:00.889.10-May-2021 4568.01  507.91 60.31 20.00 320.26 2998.98
   02:23:01.089.10-May-2021 4568.01  505.34 60.31 20.00 320.46 2998.98
   02:23:01.289.10-May-2021 4568.01  500.28 60.31 20.00 320.66 2998.98
   02:23:01.489.10-May-2021 4568.01  498.54 60.31 20.00 320.86 2998.98
   02:23:01.689.10-May-2021 4568.01  495.88 60.31 20.00 321.06 2998.98
   02:23:01.889.10-May-2021 4568.01  495.88 60.31 20.00 321.26 2998.98
   02:23:02.089.10-May-2021 4568.01  492.41 60.31 20.00 321.46 2998.98
   02:23:02.289.10-May-2021 4568.01  491.39 60.31 20.00 321.66 2998.98
   02:23:02.489.10-May-2021 4568.01  489.06 60.31 20.00 321.86 2998.98
   02:23:02.690.10-May-2021 4568.01  488.68 60.31 20.00 322.06 2998.98
   02:23:02.890.10-May-2021 4568.01  488.68 60.31 20.00 322.26 2998.98
   02:23:03.090.10-May-2021 4568.01  484.17 60.31 20.00 322.46 2998.98
   02:23:03.290.10-May-2021 4568.01  482.36 60.31 20.00 322.66 2998.98
   02:23:03.490.10-May-2021 4568.01  480.65 60.31 20.00 322.86 2998.98
   02:23:03.690.10-May-2021 4568.01  480.51 60.31 20.00 323.06 2998.98
   02:23:03.890.10-May-2021 4568.01  480.51 60.31 20.00 323.26 2998.98
   02:23:04.090.10-May-2021 4568.01  480.61 60.31 20.00 323.46 2998.98
   02:23:04.290.10-May-2021 4568.01  480.16 60.31 20.00 323.66 2998.98
   02:23:04.490.10-May-2021 4568.01  479.82 60.31 20.00 323.86 2998.98
   02:23:04.690.10-May-2021 4568.01  480.20 60.31 20.00 324.06 2998.98
   02:23:04.890.10-May-2021 4568.01  480.20 60.31 20.00 324.26 2998.98
   02:23:05.090.10-May-2021 4568.01  479.72 60.31 20.00 324.46 2998.98
   02:23:05.290.10-May-2021 4568.01  482.44 60.31 20.00 324.66 2998.98
   02:23:05.490.10-May-2021 4568.01  486.77 60.31 20.00 324.86 2998.98
   02:23:05.690.10-May-2021 4568.01  486.34 60.31 20.00 325.06 2998.98
   02:23:05.890.10-May-2021 4568.01  486.34 60.31 20.00 325.26 2998.98
   02:23:06.090.10-May-2021 4568.01  486.54 60.31 20.00 325.46 2998.98
   02:23:06.290.10-May-2021 4568.01  486.56 60.31 20.00 325.66 2998.98
   02:23:06.490.10-May-2021 4568.01  486.55 60.31 20.00 325.86 2998.98
   02:23:06.690.10-May-2021 4568.01  486.59 60.31 20.00 326.06 2998.98
   02:23:06.890.10-May-2021 4568.01  486.59 60.31 20.00 326.26 2998.98
   02:23:07.090.10-May-2021 4568.01  486.68 60.31 20.00 326.46 2998.98
   02:23:07.290.10-May-2021 4568.01  486.73 60.31 20.00 326.66 2998.98
   02:23:07.490.10-May-2021 4568.01  486.78 60.31 20.00 326.86 2998.98
   02:23:07.690.10-May-2021 4568.01  486.81 60.31 20.00 327.06 2998.98
   02:23:07.890.10-May-2021 4568.01  486.81 60.31 20.00 327.26 2998.98
   02:23:08.090.10-May-2021 4568.01  487.36 60.31 20.00 327.46 2998.98
   02:23:08.291.10-May-2021 4568.01  487.40 60.31 20.00 327.66 2998.98
   02:23:08.491.10-May-2021 4568.01  487.40 60.31 20.00 327.86 2998.98
   02:23:08.691.10-May-2021 4568.01  487.52 60.31 20.00 328.06 2998.98
   02:23:08.891.10-May-2021 4568.01  487.52 60.31 20.00 328.26 2998.98
   02:23:09.091.10-May-2021 4568.01  487.48 60.31 20.00 328.46 2998.98
   02:23:09.291.10-May-2021 4568.01  487.50 60.31 20.00 328.66 2998.98
   02:23:09.491.10-May-2021 4568.01  487.55 60.31 20.00 328.86 2998.98
   02:23:09.691.10-May-2021 4568.01  487.59 60.31 20.00 329.06 2998.98
   02:23:09.891.10-May-2021 4568.01  487.59 60.31 20.00 329.26 2998.98
   02:23:10.091.10-May-2021 4568.01  487.68 60.31 20.00 329.46 2998.98
   02:23:10.291.10-May-2021 4568.01  487.48 60.31 20.00 329.66 2998.98
   02:23:10.491.10-May-2021 4568.01  487.66 60.31 20.00 329.86 2998.98
   02:23:10.691.10-May-2021 4568.01  487.94 60.31 20.00 330.06 2998.98
   02:23:10.891.10-May-2021 4568.01  487.94 60.31 20.00 330.26 2998.98
   02:23:11.091.10-May-2021 4568.01  487.90 60.31 20.00 330.46 2998.98
   02:23:11.291.10-May-2021 4568.01  487.95 60.31 20.00 330.66 2998.98
   02:23:11.491.10-May-2021 4568.01  487.59 60.31 20.00 330.86 2998.98
   02:23:11.691.10-May-2021 4568.01  493.58 60.31 20.00 331.06 2998.98
   02:23:11.891.10-May-2021 4568.01  493.58 60.31 20.00 331.26 2998.98
   02:23:12.091.10-May-2021 4568.01  495.85 60.31 20.00 331.46 2998.98
   02:23:12.291.10-May-2021 4568.01  495.75 60.31 20.00 331.66 2998.98
   02:23:12.491.10-May-2021 4568.01  495.81 60.31 20.00 331.86 2998.98
   02:23:12.691.10-May-2021 4568.01  495.50 60.31 20.00 332.06 2998.98
   02:23:12.891.10-May-2021 4568.01  495.50 60.31 20.00 332.26 2998.98
   02:23:13.091.10-May-2021 4568.01  495.77 60.31 20.00 332.46 2998.98
   02:23:13.291.10-May-2021 4568.01  495.96 60.31 20.00 332.66 2998.98
   02:23:13.491.10-May-2021 4568.01  495.55 60.31 20.00 332.86 2998.98
   02:23:13.691.10-May-2021 4568.01  496.03 60.31 20.00 333.06 2998.98
   02:23:13.892.10-May-2021 4568.01  496.03 60.31 20.00 333.26 2998.98
   02:23:14.092.10-May-2021 4568.01  496.05 60.31 20.00 333.46 2998.98
   02:23:14.292.10-May-2021 4568.01  495.95 60.31 20.00 333.66 2998.98
   02:23:14.492.10-May-2021 4568.01  495.99 60.31 20.00 333.86 2998.98
   02:23:14.692.10-May-2021 4568.01  495.99 60.31 20.00 334.06 2998.98
   02:23:14.892.10-May-2021 4568.01  495.99 60.31 20.00 334.26 2998.98
   02:23:15.092.10-May-2021 4568.01  496.03 60.31 20.00 334.46 2998.98
   02:23:15.292.10-May-2021 4568.01  496.04 60.31 20.00 334.66 2998.98
   02:23:15.492.10-May-2021 4568.01  496.09 60.31 20.00 334.86 2998.98
   02:23:15.692.10-May-2021 4568.01  496.13 60.31 20.00 335.06 2998.98
   02:23:15.892.10-May-2021 4568.01  496.13 60.31 20.00 335.26 2998.98
   02:23:16.092.10-May-2021 4568.01  495.83 60.31 20.00 335.46 2998.98
   02:23:16.292.10-May-2021 4568.01  496.39 60.31 20.00 335.66 2998.98
   02:23:16.492.10-May-2021 4568.01  496.16 60.31 20.00 335.86 2998.98
   02:23:16.692.10-May-2021 4568.01  496.26 60.31 20.00 336.06 2998.98
   02:23:16.892.10-May-2021 4568.01  496.26 60.31 20.00 336.26 2998.98
   02:23:17.092.10-May-2021 4568.01  496.28 60.31 20.00 336.46 2998.98
   02:23:17.292.10-May-2021 4568.01  496.31 60.31 20.00 336.66 2998.98
   02:23:17.492.10-May-2021 4568.01  496.32 60.31 20.00 336.86 2998.98
   02:23:17.692.10-May-2021 4568.01  496.32 60.31 20.00 337.06 2998.98
   02:23:17.892.10-May-2021 4568.01  496.32 60.31 20.00 337.26 2998.98
   02:23:18.092.10-May-2021 4568.01  496.37 60.31 20.00 337.46 2998.98
   02:23:18.292.10-May-2021 4568.01  496.42 60.31 20.00 337.66 2998.98
   02:23:18.492.10-May-2021 4568.01  496.44 60.31 20.00 337.86 2998.98
   02:23:18.692.10-May-2021 4568.01  496.05 60.31 20.00 338.06 2998.98
   02:23:18.892.10-May-2021 4568.01  496.05 60.31 20.00 338.26 2998.98
   02:23:19.092.10-May-2021 4568.01  496.49 60.31 20.00 338.46 2998.98
   02:23:19.292.10-May-2021 4568.01  496.49 60.31 20.00 338.66 2998.98
   02:23:19.493.10-May-2021 4568.01  496.60 60.31 20.00 338.86 2998.98
