~Version Information
 VERS.                  2.0:   CWLS log ASCII Standard -VERSION 2.0
 WRAP.                   NO:   One line per depth step
~Well Information Block
#MNEM.UNIT     VALUE/NAME     DESCRIPTION
#---------     -----------    ---------------------------
 STRT.S             00:47:21 09-May-21: START TIME 00:47:21 09-May-21
 STOP.S             00:54:19 09-May-21: STOP TIME  00:54:19 09-May-21
 STEP.S                   0.00: STEP TIME
 NULL.                 -999.25: NULL VALUE
 PROV.                    Baku:  PROVINCE
 STAT.                    Baku:  STATE NAME
 SON .        AZ-XX-0906571588:  JOB NUMBER
 WTYP.                Deviated:  WELL TYPE
 COMP.     BP Exploration (Caspian Sea) ltd:  COMPANY
 BASE.              Azerbaijan:  LOGGING EQUIPMENT BASE LOCATION
 REGN.                   EESSA:  REGION
 CTRY.              Azerbaijan:  COUNTRY NAME
 FLD .                     ACG:  FIELD NAME
 WELL.                     J28:  WELL NAME
 RIG .             West Chirag:  RIG NAME
 DMF .             Drill Floor:  DRILL MEAS FROM
 PDAT.       Caspian Sea Level:  PERMANENT DATUM
 HPTY.       Minimum Curvature:  HOLE POS TYPE
 MDS .        Operator Entered:  MAG DATA SOURCE
 NREF.                    Grid:  NORTH REFERENCE
 SRVC.          TURAN DRILLING:  CONTRACTOR
 JOBN.        AZ-XX-0906571588:  JOB TICKET NUMB
 DCON.     Halliburton Sperry Drilling:  DIRECTNL CONTR
 STIM.      00.44.00 11-Feb-21:  START TIME
 DATE.      00.00.00 05-May-21:  END TIME
 SPUD.               13-Feb-21:  SPUD DATE
 MWDS.                    Baku:  MWD SHOP
 DOE .                     N/A:  DOE NUMBER
 UNIT.                     N/A:  LOGGING EQUIPMENT ID
 UWI .                     N/A:  UNIQUE WELL IDENTIFIER
 API .                     N/A:  API NUMBER
 CNTY.                        :  COUNTY
 LOC .                        :  LOCATION
 LMF .             Drill Floor:  LOG MEASURED FROM
 TVDS.m                  43.00:  TVDSS CORRECTN
 SDEP.m                 341.00:  START DEPTH
 EGL .m                   0.00:  GROUND ELEVATION
 WDMS.m                 169.80:  WD ELEV
 AGAP.m                  43.00:  AIR GAP
 EPD .m                   0.00:  ELEVATION
 APD .m                  43.00:  DEPTH ABOVE PD
 LATI.deg                40.13:  LATITUDE
 LONG.deg                51.22:  LONGITUDE
 UTMY.m             4443793.85:  UTM Y
 UTMX.m              519005.06:  UTM X
 WHEW.m                 -11.57:  WELL HEAD E/W
 WHNS.m                   8.57:  WELL HEAD N/S
 VSEW.m                 -11.57:  VERT SEC E/W
 VSNS.m                   8.57:  VERT SEC N/S
 DFWL.m                   0.00:  DISTANCE FWL
 DFSL.m                   0.00:  DISTANCE FSL
 VSDR.deg               299.34:  VERT SEC DIRECT
 GVFD.g                   1.00:  GRAVITY FIELD
 AZTC.deg                 6.36:  AZM TOTAL CORR
 MFLD.nT              50391.00:  MAGNETIC FIELD
 MDIP.deg                59.65:  MAGNETIC DIP
 MDEC.deg                 6.48:  MAGNETIC DECL
 GRDC.deg                 0.12:  GRID CORRECTION
 DEP .m                 334.96:  DEPTH
 TDD .m                1407.26:  TOTAL DEPTH (DRILLER)
 EKB .m                  43.00:  KB ELEVATION
 EDF .m                  43.00:  DF ELEVATION
 TDL .m                 228.00:  TOTAL DEPTH (LOGGER)
 VSC .                       0:  VS TO CLOSURE
 MAGU.                 1854484:  MAGUTM CHECKSUM
~Parameter Information Block
#MNEM.UNIT       Value        Description
#---------     -----------    ---------------------------
 AV  .mps                 4.00:  Ann Velocity 
 AVMX.mps                 4.73:  Max Ann Veloc 
 AZIF.deg               304.48:  Azm, Final 
 BHAT.        Rotary Steerable:  BHA Type 
 BREV.rev            257300.00:  Rev Bit Total 
 BROT.°/30m               0.00:  Build Rotating 
 BS  .in                  8.50:  Bit Size 
 BSZ .in                  8.50:  Bit Size 
 BTPL.psig              589.00:  Bit Press Loss 
 CABU.                      No:  Customer Abuse 
 CGEO.          Mubariz ghayev:  Customer Geo 
 COMM.                     ­R:  Run Comments 1 
 TCS .hr                 64.25:  Time Ciculation Ended 
 CV  .mps                 3.50:  Crit Velocity 
 CVMX.mps                 4.52:  Max Crit Veloc 
 DD1 .             Aziz Aliyev:  Direct Drillr 1 
 DD2 .         Intigam Rahimov:  Direct Drillr 2 
 DD3 .          Rashad Habibov:  Direct Drillr 3 
 DDSV.               Geo-Pilot:  DD Service 
 DEFF.%                  98.00:  % Det Eff 
 DLRX.°/30m               0.00:  Dogleg Rot Max 
 DLSO.°/30m               0.00:  Dogleg Oriented 
 DLSX.°/30m               0.00:  Dogleg Str Max 
 DRET.      10.45.04 08-May-21:  Drill End Time 
 DRST.      03.30.04 04-May-21:  Drill Start Tim 
 DTIM.hr                 14.97:  Time Drilling 
 EDEP.m                4640.01:  End Depth 
 ENG1.         Dail Mahammadov:  Engineer 1 
 ENG2.           Eldar Hajiyev:  Engineer 2 
 ENG3.       Bakhtiar Jabbarli:  Engineer 3 
 ENG4.       Natik Hasanagayev:  Engineer 4 
 ETIM.      09.30.04 14-May-21:  End Time 
 FLOI.gpm               460.00:  Flow In 
 FLON.gpm               200.00:  Flow In Min 
 FLOS.cptm                0.00:  Fluid Loss 
 FLOX.gpm               505.00:  Flow In Max 
 HFLO.                      No:  High Flow 
 HPRE.                      No:  High Pressure 
 HTEM.                      No:  High Temp 
 HYDO.m                   1.80:  Hydro Offset 
 IFIN.deg                66.71:  Inc, Final 
 IMAX.deg                67.03:  Inc Max 
 IMIN.deg                66.63:  Inc Min 
 IMND.m                4550.58:  Inc Min Depth 
 IMXD.m                4439.01:  Inc Max Depth 
 JARR.                      No:  Jarring 
 LETM.      10.45.04 08-May-21:  Log End Time 
 LOST.hr                     0:  Lost Rig Time 
 LSTM.      03.30.04 04-May-21:  Log Start Time 
 MDCL.ppm             37000.00:  Mud Chlorides 
 MDES.     Inversion Oil/Synthetic:  Mud Desc 
 DFD .sg                  1.38:  Mud Density 
 MDMN.sg                  1.35:  Dens Mud Min 
 MDMX.sg                  1.40:  Dens Mud Max 
 MOIL.                   57.40:  Run Mud Oil % 
 MOWR.                   70:30:  Run Mud OWR 
 MSND.                    0.00:  Run Mud Sand % 
 MSOL.                   18.00:  Run Mud Solids% 
 DFV .spqt               71.00:  Mud Viscosity 
 MWOD.in                  6.75:  MWD Tool OD 
 MWSI.                      No:  Serv Intrp, MWD 
 OTIM.hr                242.76:  Time Operating 
 PCON.           Look Like New:  Pad Condition 
 PMAX.psia            12183.92:  Press Op, Max 
 PV  .cP                 27.00:  Mud PV 
 RUN .                    1300:  Run Number 
 ROPA.m/hr               15.00:  ROP Avg 
 ROPN.m/hr                9.00:  ROP Min 
 ROPX.m/hr               19.00:  ROP Max 
 RPMA.rpm               120.00:  RPM Surface Avg 
 RPMN.rpm               100.00:  RPM Surface Min 
 RPMX.rpm               120.00:  RPM Surface Max 
 RRUN.                    1300:  Rig Run Number 
 RTIM.hr                  5.00:  Time Reaming 
 SAZI.deg               304.73:  Azm, Start 
 SDEP.m                4412.01:  Start Depth 
 SIDD.                      No:  Serv Intrp, DD 
 SINC.deg                66.82:  Inc, Start 
 SPPA.psig             2800.00:  SPP Avg 
 SPPN.psig             2610.00:  SPP Min 
 SPPX.psig             3100.00:  SPP Max 
 STIM.      03.30.00 04-May-21:  Start Time 
 SVCS.                 DD, MWD:  Services 
 SVER.                    9.20:  Sperry Version 
 TDAT.m                 228.00:  Tot Depth Attmp 
 TDDF.                      No:  Trip for DD 
 TDLG.m                 228.00:  Tot Depth Loggd 
 TFF .                      No:  Trip for Fail 
 TQAA.f-kp               15.00:  Torque Abs Avg 
 TQAN.f-kp               12.00:  Torque Abs Min 
 TQAX.f-kp               22.00:  Torque Abs Max 
 TRRT.°/30m               0.00:  Turn Rotating 
 MRT .                    HCIM:  Maximum Recorded Temperature 
 TTMX.degC               90.20:  Max Tool Temp 
 VS01.                90627813:  Virtual Str1 SN 
 VS02.                90634712:  Virtual Str2 SN 
 VS03.                90643410:  Virtual Str3 SN 
 VS04.                90634712:  Virtual Str4 SN 
 WBMN.klb                 9.00:  WOB Min 
 WITN.        Elmaddin Rahimov:  Customer Rep 
 WITN.         Haytham Mostafa:  Customer Rep 2 
 WOBA.klb                15.00:  WOB Avg 
 WOBX.klb                23.00:  WOB Max 
 YP  .lhf2               29.00:  Yield Point 
~Curve Information Block
#MNEM.UNIT                 API CODE     Curve Description
#---------               -----------    ---------------------------
 TIME.HHMMSS            00 000 000 000:  GT Time & Date
 GTDEPTH.m              00 000 000 000:  GT Depth
 GTPQH.psia             00 000 000 000:  GT HR Quartz Pressure
 GTTQ.degC              00 000 000 000:  GT Quartz Temperature
 GTTN.NONE              00 000 000 000:  GT Test Number
 GTET.sec               00 000 000 000:  GT Elapsed Test Time
 GTTVD.m                00 000 000 000:  GT True Vertical Depth
#Other Information
#
#WARRANTY: Halliburton will use its best efforts to furnish customers with 
#accurate information and interpretations that are part of, and incident to, the services 
#provided.  However, Halliburton cannot and does not warrant the accuracy 
#or correctness of such information and interpretations.  Under no circumstances should any 
#such information or interpretation be relied upon as the sole basis for any drilling, 
#completion, production, or financial decision or any procedure involving any risk to the 
#safety of any drilling venture, drilling rig or its crew or any other third party.  The 
#Customer has full responsibility for all drilling, completion and production operation.  
#Halliburton makes no representations or warranties, either expressed or 
#implied, including, but not limited to, the implied warranties of merchantability or fitness 
#for a particular purpose, with respect to the services rendered.  In no event will 
#Halliburton be liable for failure to obtain any particular results or for 
#any damages, including, but not limited to, indirect, special or consequential damages, 
#resulting from the use of any information or interpretation provided by Halliburton.
#
~A           TIME           GTDEPTH  GTPQH  GTTQ  GTTN  GTET   GTTVD  
# ...
   00:53:29.360.09-May-2021 4512.01 6805.02 67.61 8.00 368.13 2976.83
   00:53:29.560.09-May-2021 4512.01 6805.02 67.61 8.00 368.33 2976.83
   00:53:29.760.09-May-2021 4512.01 6801.03 67.62 8.00 368.53 2976.83
   00:53:29.960.09-May-2021 4512.01 6799.39 67.62 8.00 368.73 2976.83
   00:53:30.160.09-May-2021 4512.01 6799.33 67.62 8.00 368.93 2976.83
   00:53:30.361.09-May-2021 4512.01 6799.27 67.62 8.00 369.13 2976.83
   00:53:30.561.09-May-2021 4512.01 6799.27 67.62 8.00 369.33 2976.83
   00:53:30.761.09-May-2021 4512.01 6800.09 67.63 8.00 369.53 2976.83
   00:53:30.961.09-May-2021 4512.01 6799.98 67.63 8.00 369.73 2976.83
   00:53:31.161.09-May-2021 4512.01 6799.11 67.63 8.00 369.93 2976.83
   00:53:31.361.09-May-2021 4512.01 6806.75 67.63 8.00 370.13 2976.83
   00:53:31.561.09-May-2021 4512.01 6806.75 67.63 8.00 370.33 2976.83
   00:53:31.761.09-May-2021 4512.01 6804.32 67.63 8.00 370.53 2976.83
   00:53:31.961.09-May-2021 4512.01 6804.28 67.63 8.00 370.73 2976.83
   00:53:32.161.09-May-2021 4512.01 6802.91 67.63 8.00 370.93 2976.83
   00:53:32.361.09-May-2021 4512.01 6800.22 67.63 8.00 371.13 2976.83
   00:53:32.561.09-May-2021 4512.01 6800.22 67.63 8.00 371.33 2976.83
   00:53:32.761.09-May-2021 4512.01 6801.84 67.64 8.00 371.53 2976.83
   00:53:32.961.09-May-2021 4512.01 6803.69 67.64 8.00 371.73 2976.83
   00:53:33.162.09-May-2021 4512.01 6802.72 67.64 8.00 371.93 2976.83
   00:53:33.362.09-May-2021 4512.01 6808.39 67.64 8.00 372.13 2976.83
   00:53:33.562.09-May-2021 4512.01 6808.39 67.64 8.00 372.33 2976.83
   00:53:33.762.09-May-2021 4512.01 6803.27 67.64 8.00 372.53 2976.83
   00:53:33.962.09-May-2021 4512.01 6803.62 67.64 8.00 372.74 2976.83
   00:53:34.162.09-May-2021 4512.01 6802.48 67.64 8.00 372.94 2976.83
   00:53:34.362.09-May-2021 4512.01 6799.86 67.64 8.00 373.14 2976.83
   00:53:34.562.09-May-2021 4512.01 6799.86 67.64 8.00 373.34 2976.83
   00:53:34.762.09-May-2021 4512.01 6801.97 67.64 8.00 373.54 2976.83
   00:53:34.962.09-May-2021 4512.01 6803.76 67.64 8.00 373.74 2976.83
   00:53:35.162.09-May-2021 4512.01 6804.10 67.64 8.00 373.94 2976.83
   00:53:35.362.09-May-2021 4512.01 6802.42 67.64 8.00 374.14 2976.83
   00:53:35.562.09-May-2021 4512.01 6802.42 67.64 8.00 374.34 2976.83
   00:53:35.762.09-May-2021 4512.01 6800.34 67.65 8.00 374.54 2976.83
   00:53:35.963.09-May-2021 4512.01 6800.23 67.65 8.00 374.74 2976.83
   00:53:36.163.09-May-2021 4512.01 6800.49 67.65 8.00 374.94 2976.83
   00:53:36.363.09-May-2021 4512.01 6800.83 67.65 8.00 375.14 2976.83
   00:53:36.563.09-May-2021 4512.01 6800.83 67.65 8.00 375.34 2976.83
   00:53:36.763.09-May-2021 4512.01 6802.03 67.65 8.00 375.54 2976.83
   00:53:36.963.09-May-2021 4512.01 6800.90 67.65 8.00 375.74 2976.83
   00:53:37.163.09-May-2021 4512.01 6805.65 67.65 8.00 375.94 2976.83
   00:53:37.363.09-May-2021 4512.01 6803.92 67.65 8.00 376.14 2976.83
   00:53:37.563.09-May-2021 4512.01 6803.92 67.65 8.00 376.34 2976.83
   00:53:37.763.09-May-2021 4512.01 6806.56 67.65 8.00 376.54 2976.83
   00:53:37.963.09-May-2021 4512.01 6802.98 67.65 8.00 376.74 2976.83
   00:53:38.163.09-May-2021 4512.01 6800.91 67.65 8.00 376.94 2976.83
   00:53:38.363.09-May-2021 4512.01 6800.46 67.65 8.00 377.14 2976.83
   00:53:38.563.09-May-2021 4512.01 6800.46 67.65 8.00 377.34 2976.83
   00:53:38.764.09-May-2021 4512.01 6799.99 67.65 8.00 377.54 2976.83
   00:53:38.964.09-May-2021 4512.01 6799.62 67.65 8.00 377.74 2976.83
   00:53:39.164.09-May-2021 4512.01 6800.04 67.65 8.00 377.94 2976.83
   00:53:39.364.09-May-2021 4512.01 6799.99 67.65 8.00 378.14 2976.83
   00:53:39.564.09-May-2021 4512.01 6799.99 67.65 8.00 378.34 2976.83
   00:53:39.764.09-May-2021 4512.01 6797.98 67.65 8.00 378.54 2976.83
   00:53:39.964.09-May-2021 4512.01 6805.96 67.65 8.00 378.74 2976.83
   00:53:40.164.09-May-2021 4512.01 6806.25 67.65 8.00 378.94 2976.83
   00:53:40.364.09-May-2021 4512.01 6805.49 67.65 8.00 379.14 2976.83
   00:53:40.564.09-May-2021 4512.01 6805.49 67.65 8.00 379.34 2976.83
   00:53:40.764.09-May-2021 4512.01 6799.65 67.65 8.00 379.54 2976.83
   00:53:40.964.09-May-2021 4512.01 6809.57 67.65 8.00 379.74 2976.83
   00:53:41.164.09-May-2021 4512.01 6801.06 67.65 8.00 379.94 2976.83
   00:53:41.364.09-May-2021 4512.01 6803.50 67.65 8.00 380.14 2976.83
   00:53:41.565.09-May-2021 4512.01 6803.50 67.65 8.00 380.34 2976.83
   00:53:41.765.09-May-2021 4512.01 6807.75 67.65 8.00 380.54 2976.83
   00:53:41.965.09-May-2021 4512.01 6806.47 67.65 8.00 380.74 2976.83
   00:53:42.165.09-May-2021 4512.01 6805.43 67.65 8.00 380.94 2976.83
   00:53:42.365.09-May-2021 4512.01 6807.55 67.65 8.00 381.14 2976.83
   00:53:42.565.09-May-2021 4512.01 6807.55 67.65 8.00 381.34 2976.83
   00:53:42.765.09-May-2021 4512.01 6806.52 67.65 8.00 381.54 2976.83
   00:53:42.965.09-May-2021 4512.01 6799.23 67.65 8.00 381.74 2976.83
   00:53:43.165.09-May-2021 4512.01 6799.61 67.65 8.00 381.94 2976.83
   00:53:43.365.09-May-2021 4512.01 6800.00 67.65 8.00 382.14 2976.83
   00:53:43.565.09-May-2021 4512.01 6800.00 67.65 8.00 382.34 2976.83
   00:53:43.765.09-May-2021 4512.01 6799.95 67.65 8.00 382.54 2976.83
   00:53:43.965.09-May-2021 4512.01 6800.07 67.65 8.00 382.74 2976.83
   00:53:44.166.09-May-2021 4512.01 6800.07 67.64 8.00 382.94 2976.83
   00:53:44.366.09-May-2021 4512.01 6799.93 67.64 8.00 383.14 2976.83
   00:53:44.566.09-May-2021 4512.01 6799.93 67.64 8.00 383.34 2976.83
   00:53:44.766.09-May-2021 4512.01 6800.33 67.64 8.00 383.54 2976.83
   00:53:44.966.09-May-2021 4512.01 6809.15 67.64 8.00 383.74 2976.83
   00:53:45.166.09-May-2021 4512.01 6809.52 67.64 8.00 383.94 2976.83
   00:53:45.366.09-May-2021 4512.01 6807.77 67.64 8.00 384.14 2976.83
   00:53:45.566.09-May-2021 4512.01 6807.77 67.64 8.00 384.34 2976.83
   00:53:45.766.09-May-2021 4512.01 6802.04 67.64 8.00 384.54 2976.83
   00:53:45.966.09-May-2021 4512.01 6801.59 67.64 8.00 384.74 2976.83
   00:53:46.166.09-May-2021 4512.01 6801.33 67.64 8.00 384.94 2976.83
   00:53:46.366.09-May-2021 4512.01 6800.43 67.64 8.00 385.14 2976.83
   00:53:46.566.09-May-2021 4512.01 6800.43 67.64 8.00 385.34 2976.83
   00:53:46.766.09-May-2021 4512.01 6799.34 67.64 8.00 385.54 2976.83
   00:53:46.967.09-May-2021 4512.01 6799.38 67.64 8.00 385.74 2976.83
   00:53:47.167.09-May-2021 4512.01 6798.86 67.64 8.00 385.94 2976.83
   00:53:47.367.09-May-2021 4512.01 6798.80 67.64 8.00 386.14 2976.83
   00:53:47.567.09-May-2021 4512.01 6798.80 67.64 8.00 386.34 2976.83
   00:53:47.767.09-May-2021 4512.01 6802.76 67.64 8.00 386.54 2976.83
   00:53:47.967.09-May-2021 4512.01 6804.45 67.64 8.00 386.74 2976.83
   00:53:48.167.09-May-2021 4512.01 6802.97 67.64 8.00 386.94 2976.83
   00:53:48.367.09-May-2021 4512.01 6800.78 67.64 8.00 387.14 2976.83
   00:53:48.567.09-May-2021 4512.01 6800.78 67.64 8.00 387.34 2976.83
   00:53:48.767.09-May-2021 4512.01 6801.98 67.64 8.00 387.54 2976.83
   00:53:48.967.09-May-2021 4512.01 6804.93 67.64 8.00 387.74 2976.83
   00:53:49.167.09-May-2021 4512.01 6800.18 67.64 8.00 387.94 2976.83
   00:53:49.367.09-May-2021 4512.01 6809.24 67.64 8.00 388.14 2976.83
   00:53:49.567.09-May-2021 4512.01 6809.24 67.64 8.00 388.34 2976.83
   00:53:49.768.09-May-2021 4512.01 6804.12 67.64 8.00 388.54 2976.83
   00:53:49.968.09-May-2021 4512.01 6803.63 67.64 8.00 388.74 2976.83
   00:53:50.168.09-May-2021 4512.01 6809.89 67.64 8.00 388.94 2976.83
   00:53:50.368.09-May-2021 4512.01 6808.67 67.64 8.00 389.14 2976.83
   00:53:50.568.09-May-2021 4512.01 6808.67 67.64 8.00 389.34 2976.83
   00:53:50.768.09-May-2021 4512.01 6798.84 67.64 8.00 389.54 2976.83
   00:53:50.968.09-May-2021 4512.01 6800.14 67.64 8.00 389.74 2976.83
   00:53:51.168.09-May-2021 4512.01 6799.91 67.64 8.00 389.94 2976.83
   00:53:51.368.09-May-2021 4512.01 6799.68 67.64 8.00 390.14 2976.83
   00:53:51.568.09-May-2021 4512.01 6799.68 67.64 8.00 390.34 2976.83
   00:53:51.768.09-May-2021 4512.01 6799.56 67.64 8.00 390.54 2976.83
   00:53:51.968.09-May-2021 4512.01 6799.97 67.64 8.00 390.74 2976.83
   00:53:52.168.09-May-2021 4512.01 6799.65 67.64 8.00 390.94 2976.83
