~Version Information
 VERS.                  2.0:   CWLS log ASCII Standard -VERSION 2.0
 WRAP.                   NO:   One line per depth step
~Well Information Block
#MNEM.UNIT     VALUE/NAME     DESCRIPTION
#---------     -----------    ---------------------------
 STRT.S             02:17:40 10-May-21: START TIME 02:17:40 10-May-21
 STOP.S             02:25:48 10-May-21: STOP TIME  02:25:48 10-May-21
 STEP.S                   0.00: STEP TIME
 NULL.                 -999.25: NULL VALUE
 PROV.                    Baku:  PROVINCE
 STAT.                    Baku:  STATE NAME
 SON .        AZ-XX-0906571588:  JOB NUMBER
 WTYP.                Deviated:  WELL TYPE
 COMP.     BP Exploration (Caspian Sea) ltd:  COMPANY
 BASE.              Azerbaijan:  LOGGING EQUIPMENT BASE LOCATION
 REGN.                   EESSA:  REGION
 CTRY.              Azerbaijan:  COUNTRY NAME
 FLD .                     ACG:  FIELD NAME
 WELL.                     J28:  WELL NAME
 RIG .             West Chirag:  RIG NAME
 DMF .             Drill Floor:  DRILL MEAS FROM
 PDAT.       Caspian Sea Level:  PERMANENT DATUM
 HPTY.       Minimum Curvature:  HOLE POS TYPE
 MDS .        Operator Entered:  MAG DATA SOURCE
 NREF.                    Grid:  NORTH REFERENCE
 SRVC.          TURAN DRILLING:  CONTRACTOR
 JOBN.        AZ-XX-0906571588:  JOB TICKET NUMB
 DCON.     Halliburton Sperry Drilling:  DIRECTNL CONTR
 STIM.      00.44.00 11-Feb-21:  START TIME
 DATE.      00.00.00 05-May-21:  END TIME
 SPUD.               13-Feb-21:  SPUD DATE
 MWDS.                    Baku:  MWD SHOP
 DOE .                     N/A:  DOE NUMBER
 UNIT.                     N/A:  LOGGING EQUIPMENT ID
 UWI .                     N/A:  UNIQUE WELL IDENTIFIER
 API .                     N/A:  API NUMBER
 CNTY.                        :  COUNTY
 LOC .                        :  LOCATION
 LMF .             Drill Floor:  LOG MEASURED FROM
 TVDS.m                  43.00:  TVDSS CORRECTN
 SDEP.m                 341.00:  START DEPTH
 EGL .m                   0.00:  GROUND ELEVATION
 WDMS.m                 169.80:  WD ELEV
 AGAP.m                  43.00:  AIR GAP
 EPD .m                   0.00:  ELEVATION
 APD .m                  43.00:  DEPTH ABOVE PD
 LATI.deg                40.13:  LATITUDE
 LONG.deg                51.22:  LONGITUDE
 UTMY.m             4443793.85:  UTM Y
 UTMX.m              519005.06:  UTM X
 WHEW.m                 -11.57:  WELL HEAD E/W
 WHNS.m                   8.57:  WELL HEAD N/S
 VSEW.m                 -11.57:  VERT SEC E/W
 VSNS.m                   8.57:  VERT SEC N/S
 DFWL.m                   0.00:  DISTANCE FWL
 DFSL.m                   0.00:  DISTANCE FSL
 VSDR.deg               299.34:  VERT SEC DIRECT
 GVFD.g                   1.00:  GRAVITY FIELD
 AZTC.deg                 6.36:  AZM TOTAL CORR
 MFLD.nT              50391.00:  MAGNETIC FIELD
 MDIP.deg                59.65:  MAGNETIC DIP
 MDEC.deg                 6.48:  MAGNETIC DECL
 GRDC.deg                 0.12:  GRID CORRECTION
 DEP .m                 334.96:  DEPTH
 TDD .m                1407.26:  TOTAL DEPTH (DRILLER)
 EKB .m                  43.00:  KB ELEVATION
 EDF .m                  43.00:  DF ELEVATION
 TDL .m                 228.00:  TOTAL DEPTH (LOGGER)
 VSC .                       0:  VS TO CLOSURE
 MAGU.                 1854484:  MAGUTM CHECKSUM
~Parameter Information Block
#MNEM.UNIT       Value        Description
#---------     -----------    ---------------------------
 AV  .mps                 4.00:  Ann Velocity 
 AVMX.mps                 4.73:  Max Ann Veloc 
 AZIF.deg               304.48:  Azm, Final 
 BHAT.        Rotary Steerable:  BHA Type 
 BREV.rev            257300.00:  Rev Bit Total 
 BROT.°/30m               0.00:  Build Rotating 
 BS  .in                  8.50:  Bit Size 
 BSZ .in                  8.50:  Bit Size 
 BTPL.psig              589.00:  Bit Press Loss 
 CABU.                      No:  Customer Abuse 
 CGEO.          Mubariz ghayev:  Customer Geo 
 COMM.                     …:  Run Comments 1 
 TCS .hr                 64.25:  Time Ciculation Ended 
 CV  .mps                 3.50:  Crit Velocity 
 CVMX.mps                 4.52:  Max Crit Veloc 
 DD1 .             Aziz Aliyev:  Direct Drillr 1 
 DD2 .         Intigam Rahimov:  Direct Drillr 2 
 DD3 .          Rashad Habibov:  Direct Drillr 3 
 DDSV.               Geo-Pilot:  DD Service 
 DEFF.%                  98.00:  % Det Eff 
 DLRX.°/30m               0.00:  Dogleg Rot Max 
 DLSO.°/30m               0.00:  Dogleg Oriented 
 DLSX.°/30m               0.00:  Dogleg Str Max 
 DRET.      10.45.04 08-May-21:  Drill End Time 
 DRST.      03.30.04 04-May-21:  Drill Start Tim 
 DTIM.hr                 14.97:  Time Drilling 
 EDEP.m                4640.01:  End Depth 
 ENG1.         Dail Mahammadov:  Engineer 1 
 ENG2.           Eldar Hajiyev:  Engineer 2 
 ENG3.       Bakhtiar Jabbarli:  Engineer 3 
 ENG4.       Natik Hasanagayev:  Engineer 4 
 ETIM.      09.30.04 14-May-21:  End Time 
 FLOI.gpm               460.00:  Flow In 
 FLON.gpm               200.00:  Flow In Min 
 FLOS.cptm                0.00:  Fluid Loss 
 FLOX.gpm               505.00:  Flow In Max 
 HFLO.                      No:  High Flow 
 HPRE.                      No:  High Pressure 
 HTEM.                      No:  High Temp 
 HYDO.m                   1.80:  Hydro Offset 
 IFIN.deg                66.71:  Inc, Final 
 IMAX.deg                67.03:  Inc Max 
 IMIN.deg                66.63:  Inc Min 
 IMND.m                4550.58:  Inc Min Depth 
 IMXD.m                4439.01:  Inc Max Depth 
 JARR.                      No:  Jarring 
 LETM.      10.45.04 08-May-21:  Log End Time 
 LOST.hr                     0:  Lost Rig Time 
 LSTM.      03.30.04 04-May-21:  Log Start Time 
 MDCL.ppm             37000.00:  Mud Chlorides 
 MDES.     Inversion Oil/Synthetic:  Mud Desc 
 DFD .sg                  1.38:  Mud Density 
 MDMN.sg                  1.35:  Dens Mud Min 
 MDMX.sg                  1.40:  Dens Mud Max 
 MOIL.                   57.40:  Run Mud Oil % 
 MOWR.                   70:30:  Run Mud OWR 
 MSND.                    0.00:  Run Mud Sand % 
 MSOL.                   18.00:  Run Mud Solids% 
 DFV .spqt               71.00:  Mud Viscosity 
 MWOD.in                  6.75:  MWD Tool OD 
 MWSI.                      No:  Serv Intrp, MWD 
 OTIM.hr                242.76:  Time Operating 
 PCON.           Look Like New:  Pad Condition 
 PMAX.psia            12183.92:  Press Op, Max 
 PV  .cP                 27.00:  Mud PV 
 RUN .                    1300:  Run Number 
 ROPA.m/hr               15.00:  ROP Avg 
 ROPN.m/hr                9.00:  ROP Min 
 ROPX.m/hr               19.00:  ROP Max 
 RPMA.rpm               120.00:  RPM Surface Avg 
 RPMN.rpm               100.00:  RPM Surface Min 
 RPMX.rpm               120.00:  RPM Surface Max 
 RRUN.                    1300:  Rig Run Number 
 RTIM.hr                  5.00:  Time Reaming 
 SAZI.deg               304.73:  Azm, Start 
 SDEP.m                4412.01:  Start Depth 
 SIDD.                      No:  Serv Intrp, DD 
 SINC.deg                66.82:  Inc, Start 
 SPPA.psig             2800.00:  SPP Avg 
 SPPN.psig             2610.00:  SPP Min 
 SPPX.psig             3100.00:  SPP Max 
 STIM.      03.30.00 04-May-21:  Start Time 
 SVCS.                 DD, MWD:  Services 
 SVER.                    9.20:  Sperry Version 
 TDAT.m                 228.00:  Tot Depth Attmp 
 TDDF.                      No:  Trip for DD 
 TDLG.m                 228.00:  Tot Depth Loggd 
 TFF .                      No:  Trip for Fail 
 TQAA.f-kp               15.00:  Torque Abs Avg 
 TQAN.f-kp               12.00:  Torque Abs Min 
 TQAX.f-kp               22.00:  Torque Abs Max 
 TRRT.°/30m               0.00:  Turn Rotating 
 MRT .                    HCIM:  Maximum Recorded Temperature 
 TTMX.degC               90.20:  Max Tool Temp 
 VS01.                90627813:  Virtual Str1 SN 
 VS02.                90634712:  Virtual Str2 SN 
 VS03.                90643410:  Virtual Str3 SN 
 VS04.                90634712:  Virtual Str4 SN 
 WBMN.klb                 9.00:  WOB Min 
 WITN.        Elmaddin Rahimov:  Customer Rep 
 WITN.         Haytham Mostafa:  Customer Rep 2 
 WOBA.klb                15.00:  WOB Avg 
 WOBX.klb                23.00:  WOB Max 
 YP  .lhf2               29.00:  Yield Point 
~Curve Information Block
#MNEM.UNIT                 API CODE     Curve Description
#---------               -----------    ---------------------------
 TIME.HHMMSS            00 000 000 000:  GT Time & Date
 GTDEPTH.m              00 000 000 000:  GT Depth
 GTPQH.psia             00 000 000 000:  GT HR Quartz Pressure
 GTTQ.degC              00 000 000 000:  GT Quartz Temperature
 GTTN.NONE              00 000 000 000:  GT Test Number
 GTET.sec               00 000 000 000:  GT Elapsed Test Time
 GTTVD.m                00 000 000 000:  GT True Vertical Depth
#Other Information
#
#WARRANTY: Halliburton will use its best efforts to furnish customers with 
#accurate information and interpretations that are part of, and incident to, the services 
#provided.  However, Halliburton cannot and does not warrant the accuracy 
#or correctness of such information and interpretations.  Under no circumstances should any 
#such information or interpretation be relied upon as the sole basis for any drilling, 
#completion, production, or financial decision or any procedure involving any risk to the 
#safety of any drilling venture, drilling rig or its crew or any other third party.  The 
#Customer has full responsibility for all drilling, completion and production operation.  
#Halliburton makes no representations or warranties, either expressed or 
#implied, including, but not limited to, the implied warranties of merchantability or fitness 
#for a particular purpose, with respect to the services rendered.  In no event will 
#Halliburton be liable for failure to obtain any particular results or for 
#any damages, including, but not limited to, indirect, special or consequential damages, 
#resulting from the use of any information or interpretation provided by Halliburton.
#
~A           TIME           GTDEPTH  GTPQH  GTTQ  GTTN   GTET   GTTVD  
# ...
   02:24:04.901.10-May-2021 4568.01  499.79 60.30 20.00 384.27 2998.98
   02:24:05.101.10-May-2021 4568.01  499.85 60.30 20.00 384.47 2998.98
   02:24:05.301.10-May-2021 4568.01  499.86 60.30 20.00 384.67 2998.98
   02:24:05.501.10-May-2021 4568.01  499.83 60.30 20.00 384.87 2998.98
   02:24:05.701.10-May-2021 4568.01  499.35 60.30 20.00 385.07 2998.98
   02:24:05.901.10-May-2021 4568.01  499.35 60.30 20.00 385.27 2998.98
   02:24:06.101.10-May-2021 4568.01  499.78 60.30 20.00 385.47 2998.98
   02:24:06.301.10-May-2021 4568.01  500.01 60.30 20.00 385.67 2998.98
   02:24:06.501.10-May-2021 4568.01  499.90 60.30 20.00 385.87 2998.98
   02:24:06.701.10-May-2021 4568.01  499.92 60.30 20.00 386.07 2998.98
   02:24:06.901.10-May-2021 4568.01  499.92 60.30 20.00 386.27 2998.98
   02:24:07.101.10-May-2021 4568.01  499.92 60.30 20.00 386.47 2998.98
   02:24:07.301.10-May-2021 4568.01  499.92 60.30 20.00 386.67 2998.98
   02:24:07.501.10-May-2021 4568.01  499.95 60.30 20.00 386.87 2998.98
   02:24:07.701.10-May-2021 4568.01  499.98 60.30 20.00 387.07 2998.98
   02:24:07.901.10-May-2021 4568.01  499.98 60.30 20.00 387.27 2998.98
   02:24:08.101.10-May-2021 4568.01  499.95 60.30 20.00 387.47 2998.98
   02:24:08.301.10-May-2021 4568.01  499.62 60.30 20.00 387.67 2998.98
   02:24:08.501.10-May-2021 4568.01  500.20 60.30 20.00 387.87 2998.98
   02:24:08.701.10-May-2021 4568.01  500.01 60.30 20.00 388.07 2998.98
   02:24:08.901.10-May-2021 4568.01  500.01 60.30 20.00 388.27 2998.98
   02:24:09.101.10-May-2021 4568.01  500.11 60.30 20.00 388.47 2998.98
   02:24:09.301.10-May-2021 4568.01  499.77 60.30 20.00 388.67 2998.98
   02:24:09.501.10-May-2021 4568.01  499.94 60.30 20.00 388.87 2998.98
   02:24:09.701.10-May-2021 4568.01  500.19 60.30 20.00 389.07 2998.98
   02:24:09.901.10-May-2021 4568.01  500.19 60.30 20.00 389.27 2998.98
   02:24:10.102.10-May-2021 4568.01  500.14 60.30 20.00 389.47 2998.98
   02:24:10.302.10-May-2021 4568.01  500.09 60.30 20.00 389.67 2998.98
   02:24:10.502.10-May-2021 4568.01  499.61 60.30 20.00 389.87 2998.98
   02:24:10.702.10-May-2021 4568.01  500.40 60.30 20.00 390.07 2998.98
   02:24:10.902.10-May-2021 4568.01  500.40 60.30 20.00 390.27 2998.98
   02:24:11.102.10-May-2021 4568.01  500.26 60.30 20.00 390.47 2998.98
   02:24:11.302.10-May-2021 4568.01  500.19 60.30 20.00 390.67 2998.98
   02:24:11.502.10-May-2021 4568.01  500.12 60.30 20.00 390.87 2998.98
   02:24:11.702.10-May-2021 4568.01  499.71 60.30 20.00 391.07 2998.98
   02:24:11.902.10-May-2021 4568.01  499.71 60.30 20.00 391.27 2998.98
   02:24:12.102.10-May-2021 4568.01  500.17 60.30 20.00 391.47 2998.98
   02:24:12.302.10-May-2021 4568.01  500.15 60.30 20.00 391.67 2998.98
   02:24:12.502.10-May-2021 4568.01  500.22 60.30 20.00 391.87 2998.98
   02:24:12.702.10-May-2021 4568.01  500.18 60.30 20.00 392.07 2998.98
   02:24:12.902.10-May-2021 4568.01  500.18 60.30 20.00 392.27 2998.98
   02:24:13.102.10-May-2021 4568.01  500.19 60.30 20.00 392.47 2998.98
   02:24:13.302.10-May-2021 4568.01  500.21 60.30 20.00 392.67 2998.98
   02:24:13.502.10-May-2021 4568.01  500.24 60.30 20.00 392.87 2998.98
   02:24:13.702.10-May-2021 4568.01  500.27 60.30 20.00 393.07 2998.98
   02:24:13.902.10-May-2021 4568.01  500.27 60.30 20.00 393.27 2998.98
   02:24:14.102.10-May-2021 4568.01  499.91 60.30 20.00 393.47 2998.98
   02:24:14.302.10-May-2021 4568.01  500.37 60.30 20.00 393.67 2998.98
   02:24:14.502.10-May-2021 4568.01  500.26 60.30 20.00 393.87 2998.98
   02:24:14.702.10-May-2021 4568.01  500.42 60.30 20.00 394.07 2998.98
   02:24:14.902.10-May-2021 4568.01  500.42 60.30 20.00 394.27 2998.98
   02:24:15.102.10-May-2021 4568.01  500.35 60.30 20.00 394.47 2998.98
   02:24:15.302.10-May-2021 4568.01  500.36 60.30 20.00 394.67 2998.98
   02:24:15.502.10-May-2021 4568.01  500.35 60.30 20.00 394.87 2998.98
   02:24:15.703.10-May-2021 4568.01  500.36 60.30 20.00 395.07 2998.98
   02:24:15.903.10-May-2021 4568.01  500.36 60.30 20.00 395.27 2998.98
   02:24:16.103.10-May-2021 4568.01  500.41 60.30 20.00 395.47 2998.98
   02:24:16.303.10-May-2021 4568.01  500.44 60.30 20.00 395.67 2998.98
   02:24:16.503.10-May-2021 4568.01  500.41 60.30 20.00 395.87 2998.98
   02:24:16.703.10-May-2021 4568.01  499.93 60.30 20.00 396.07 2998.98
   02:24:16.903.10-May-2021 4568.01  499.93 60.30 20.00 396.27 2998.98
   02:24:17.103.10-May-2021 4568.01  500.36 60.30 20.00 396.47 2998.98
   02:24:17.303.10-May-2021 4568.01  500.61 60.30 20.00 396.67 2998.98
   02:24:17.503.10-May-2021 4568.01  500.52 60.30 20.00 396.87 2998.98
   02:24:17.703.10-May-2021 4568.01  500.46 60.30 20.00 397.07 2998.98
   02:24:17.903.10-May-2021 4568.01  500.46 60.30 20.00 397.27 2998.98
   02:24:18.103.10-May-2021 4568.01  500.73 60.30 20.00 397.47 2998.98
   02:24:18.303.10-May-2021 4568.01  500.54 60.30 20.00 397.67 2998.98
   02:24:18.503.10-May-2021 4568.01  500.53 60.30 20.00 397.87 2998.98
   02:24:18.703.10-May-2021 4568.01  500.58 60.30 20.00 398.07 2998.98
   02:24:18.903.10-May-2021 4568.01  500.58 60.30 20.00 398.27 2998.98
   02:24:19.103.10-May-2021 4568.01  500.61 60.30 20.00 398.47 2998.98
   02:24:19.303.10-May-2021 4568.01  500.50 60.30 20.00 398.67 2998.98
   02:24:19.503.10-May-2021 4568.01  500.69 60.30 20.00 398.87 2998.98
   02:24:19.703.10-May-2021 4568.01  500.60 60.30 20.00 399.07 2998.98
   02:24:19.903.10-May-2021 4568.01  500.60 60.30 20.00 399.27 2998.98
   02:24:20.103.10-May-2021 4568.01  500.19 60.30 20.00 399.47 2998.98
   02:24:20.303.10-May-2021 4568.01  500.73 60.30 20.00 399.67 2998.98
   02:24:20.503.10-May-2021 4568.01  500.52 60.30 20.00 399.87 2998.98
   02:24:20.703.10-May-2021 4568.01  500.57 60.30 20.00 400.07 2998.98
   02:24:20.903.10-May-2021 4568.01  500.57 60.30 20.00 400.27 2998.98
   02:24:21.103.10-May-2021 4568.01  500.56 60.30 20.00 400.47 2998.98
   02:24:21.304.10-May-2021 4568.01  500.59 60.30 20.00 400.67 2998.98
   02:24:21.504.10-May-2021 4568.01  500.58 60.30 20.00 400.87 2998.98
   02:24:21.704.10-May-2021 4568.01  500.59 60.30 20.00 401.07 2998.98
   02:24:21.904.10-May-2021 4568.01  500.59 60.30 20.00 401.27 2998.98
   02:24:22.104.10-May-2021 4568.01  500.65 60.30 20.00 401.47 2998.98
   02:24:22.304.10-May-2021 4568.01  500.67 60.30 20.00 401.67 2998.98
   02:24:22.504.10-May-2021 4568.01  500.37 60.30 20.00 401.87 2998.98
   02:24:22.704.10-May-2021 4568.01  500.48 60.30 20.00 402.07 2998.98
   02:24:22.904.10-May-2021 4568.01  500.48 60.30 20.00 402.27 2998.98
   02:24:23.104.10-May-2021 4568.01  500.69 60.30 20.00 402.47 2998.98
   02:24:23.304.10-May-2021 4568.01  500.66 60.30 20.00 402.67 2998.98
   02:24:23.504.10-May-2021 4568.01  500.68 60.30 20.00 402.87 2998.98
   02:24:23.704.10-May-2021 4568.01  500.65 60.30 20.00 403.07 2998.98
   02:24:23.904.10-May-2021 4568.01  500.65 60.30 20.00 403.27 2998.98
   02:24:24.104.10-May-2021 4568.01  500.65 60.30 20.00 403.47 2998.98
   02:24:24.304.10-May-2021 4568.01  500.67 60.30 20.00 403.67 2998.98
   02:24:24.504.10-May-2021 4568.01  500.69 60.30 20.00 403.87 2998.98
   02:24:24.704.10-May-2021 4568.01  500.73 60.30 20.00 404.07 2998.98
   02:24:24.904.10-May-2021 4568.01  500.73 60.30 20.00 404.27 2998.98
   02:24:25.104.10-May-2021 4568.01  500.37 60.30 20.00 404.47 2998.98
   02:24:25.304.10-May-2021 4568.01  500.80 60.30 20.00 404.67 2998.98
   02:24:25.504.10-May-2021 4568.01  500.69 60.30 20.00 404.87 2998.98
   02:24:25.704.10-May-2021 4568.01  500.90 60.30 20.00 405.07 2998.98
   02:24:25.904.10-May-2021 4568.01  500.90 60.30 20.00 405.27 2998.98
   02:24:26.104.10-May-2021 4568.01  500.77 60.30 20.00 405.47 2998.98
   02:24:26.304.10-May-2021 4568.01  500.35 60.30 20.00 405.67 2998.98
   02:24:26.504.10-May-2021 4568.01  501.02 60.30 20.00 405.87 2998.98
   02:24:26.704.10-May-2021 4568.01  500.82 60.30 20.00 406.07 2998.98
   02:24:26.905.10-May-2021 4568.01  500.82 60.30 20.00 406.27 2998.98
   02:24:27.105.10-May-2021 4568.01  500.89 60.30 20.00 406.47 2998.98
   02:24:27.305.10-May-2021 4568.01  500.54 60.30 20.00 406.67 2998.98
