~Version Information
 VERS.                  2.0:   CWLS log ASCII Standard -VERSION 2.0
 WRAP.                   NO:   One line per depth step
~Well Information Block
#MNEM.UNIT     VALUE/NAME     DESCRIPTION
#---------     -----------    ---------------------------
 STRT.S             01:12:50 09-May-21: START TIME 01:12:50 09-May-21
 STOP.S             01:19:27 09-May-21: STOP TIME  01:19:27 09-May-21
 STEP.S                   0.00: STEP TIME
 NULL.                 -999.25: NULL VALUE
 PROV.                    Baku:  PROVINCE
 STAT.                    Baku:  STATE NAME
 SON .        AZ-XX-0906571588:  JOB NUMBER
 WTYP.                Deviated:  WELL TYPE
 COMP.     BP Exploration (Caspian Sea) ltd:  COMPANY
 BASE.              Azerbaijan:  LOGGING EQUIPMENT BASE LOCATION
 REGN.                   EESSA:  REGION
 CTRY.              Azerbaijan:  COUNTRY NAME
 FLD .                     ACG:  FIELD NAME
 WELL.                     J28:  WELL NAME
 RIG .             West Chirag:  RIG NAME
 DMF .             Drill Floor:  DRILL MEAS FROM
 PDAT.       Caspian Sea Level:  PERMANENT DATUM
 HPTY.       Minimum Curvature:  HOLE POS TYPE
 MDS .        Operator Entered:  MAG DATA SOURCE
 NREF.                    Grid:  NORTH REFERENCE
 SRVC.          TURAN DRILLING:  CONTRACTOR
 JOBN.        AZ-XX-0906571588:  JOB TICKET NUMB
 DCON.     Halliburton Sperry Drilling:  DIRECTNL CONTR
 STIM.      00.44.00 11-Feb-21:  START TIME
 DATE.      00.00.00 05-May-21:  END TIME
 SPUD.               13-Feb-21:  SPUD DATE
 MWDS.                    Baku:  MWD SHOP
 DOE .                     N/A:  DOE NUMBER
 UNIT.                     N/A:  LOGGING EQUIPMENT ID
 UWI .                     N/A:  UNIQUE WELL IDENTIFIER
 API .                     N/A:  API NUMBER
 CNTY.                        :  COUNTY
 LOC .                        :  LOCATION
 LMF .             Drill Floor:  LOG MEASURED FROM
 TVDS.m                  43.00:  TVDSS CORRECTN
 SDEP.m                 341.00:  START DEPTH
 EGL .m                   0.00:  GROUND ELEVATION
 WDMS.m                 169.80:  WD ELEV
 AGAP.m                  43.00:  AIR GAP
 EPD .m                   0.00:  ELEVATION
 APD .m                  43.00:  DEPTH ABOVE PD
 LATI.deg                40.13:  LATITUDE
 LONG.deg                51.22:  LONGITUDE
 UTMY.m             4443793.85:  UTM Y
 UTMX.m              519005.06:  UTM X
 WHEW.m                 -11.57:  WELL HEAD E/W
 WHNS.m                   8.57:  WELL HEAD N/S
 VSEW.m                 -11.57:  VERT SEC E/W
 VSNS.m                   8.57:  VERT SEC N/S
 DFWL.m                   0.00:  DISTANCE FWL
 DFSL.m                   0.00:  DISTANCE FSL
 VSDR.deg               299.34:  VERT SEC DIRECT
 GVFD.g                   1.00:  GRAVITY FIELD
 AZTC.deg                 6.36:  AZM TOTAL CORR
 MFLD.nT              50391.00:  MAGNETIC FIELD
 MDIP.deg                59.65:  MAGNETIC DIP
 MDEC.deg                 6.48:  MAGNETIC DECL
 GRDC.deg                 0.12:  GRID CORRECTION
 DEP .m                 334.96:  DEPTH
 TDD .m                1407.26:  TOTAL DEPTH (DRILLER)
 EKB .m                  43.00:  KB ELEVATION
 EDF .m                  43.00:  DF ELEVATION
 TDL .m                 228.00:  TOTAL DEPTH (LOGGER)
 VSC .                       0:  VS TO CLOSURE
 MAGU.                 1854484:  MAGUTM CHECKSUM
~Parameter Information Block
#MNEM.UNIT       Value        Description
#---------     -----------    ---------------------------
 AV  .mps                 4.00:  Ann Velocity 
 AVMX.mps                 4.73:  Max Ann Veloc 
 AZIF.deg               304.48:  Azm, Final 
 BHAT.        Rotary Steerable:  BHA Type 
 BREV.rev            257300.00:  Rev Bit Total 
 BROT.°/30m               0.00:  Build Rotating 
 BS  .in                  8.50:  Bit Size 
 BSZ .in                  8.50:  Bit Size 
 BTPL.psig              589.00:  Bit Press Loss 
 CABU.                      No:  Customer Abuse 
 CGEO.          Mubariz ghayev:  Customer Geo 
 COMM.                     ÌğZ:  Run Comments 1 
 TCS .hr                 64.25:  Time Ciculation Ended 
 CV  .mps                 3.50:  Crit Velocity 
 CVMX.mps                 4.52:  Max Crit Veloc 
 DD1 .             Aziz Aliyev:  Direct Drillr 1 
 DD2 .         Intigam Rahimov:  Direct Drillr 2 
 DD3 .          Rashad Habibov:  Direct Drillr 3 
 DDSV.               Geo-Pilot:  DD Service 
 DEFF.%                  98.00:  % Det Eff 
 DLRX.°/30m               0.00:  Dogleg Rot Max 
 DLSO.°/30m               0.00:  Dogleg Oriented 
 DLSX.°/30m               0.00:  Dogleg Str Max 
 DRET.      10.45.04 08-May-21:  Drill End Time 
 DRST.      03.30.04 04-May-21:  Drill Start Tim 
 DTIM.hr                 14.97:  Time Drilling 
 EDEP.m                4640.01:  End Depth 
 ENG1.         Dail Mahammadov:  Engineer 1 
 ENG2.           Eldar Hajiyev:  Engineer 2 
 ENG3.       Bakhtiar Jabbarli:  Engineer 3 
 ENG4.       Natik Hasanagayev:  Engineer 4 
 ETIM.      09.30.04 14-May-21:  End Time 
 FLOI.gpm               460.00:  Flow In 
 FLON.gpm               200.00:  Flow In Min 
 FLOS.cptm                0.00:  Fluid Loss 
 FLOX.gpm               505.00:  Flow In Max 
 HFLO.                      No:  High Flow 
 HPRE.                      No:  High Pressure 
 HTEM.                      No:  High Temp 
 HYDO.m                   1.80:  Hydro Offset 
 IFIN.deg                66.71:  Inc, Final 
 IMAX.deg                67.03:  Inc Max 
 IMIN.deg                66.63:  Inc Min 
 IMND.m                4550.58:  Inc Min Depth 
 IMXD.m                4439.01:  Inc Max Depth 
 JARR.                      No:  Jarring 
 LETM.      10.45.04 08-May-21:  Log End Time 
 LOST.hr                     0:  Lost Rig Time 
 LSTM.      03.30.04 04-May-21:  Log Start Time 
 MDCL.ppm             37000.00:  Mud Chlorides 
 MDES.     Inversion Oil/Synthetic:  Mud Desc 
 DFD .sg                  1.38:  Mud Density 
 MDMN.sg                  1.35:  Dens Mud Min 
 MDMX.sg                  1.40:  Dens Mud Max 
 MOIL.                   57.40:  Run Mud Oil % 
 MOWR.                   70:30:  Run Mud OWR 
 MSND.                    0.00:  Run Mud Sand % 
 MSOL.                   18.00:  Run Mud Solids% 
 DFV .spqt               71.00:  Mud Viscosity 
 MWOD.in                  6.75:  MWD Tool OD 
 MWSI.                      No:  Serv Intrp, MWD 
 OTIM.hr                242.76:  Time Operating 
 PCON.           Look Like New:  Pad Condition 
 PMAX.psia            12183.92:  Press Op, Max 
 PV  .cP                 27.00:  Mud PV 
 RUN .                    1300:  Run Number 
 ROPA.m/hr               15.00:  ROP Avg 
 ROPN.m/hr                9.00:  ROP Min 
 ROPX.m/hr               19.00:  ROP Max 
 RPMA.rpm               120.00:  RPM Surface Avg 
 RPMN.rpm               100.00:  RPM Surface Min 
 RPMX.rpm               120.00:  RPM Surface Max 
 RRUN.                    1300:  Rig Run Number 
 RTIM.hr                  5.00:  Time Reaming 
 SAZI.deg               304.73:  Azm, Start 
 SDEP.m                4412.01:  Start Depth 
 SIDD.                      No:  Serv Intrp, DD 
 SINC.deg                66.82:  Inc, Start 
 SPPA.psig             2800.00:  SPP Avg 
 SPPN.psig             2610.00:  SPP Min 
 SPPX.psig             3100.00:  SPP Max 
 STIM.      03.30.00 04-May-21:  Start Time 
 SVCS.                 DD, MWD:  Services 
 SVER.                    9.20:  Sperry Version 
 TDAT.m                 228.00:  Tot Depth Attmp 
 TDDF.                      No:  Trip for DD 
 TDLG.m                 228.00:  Tot Depth Loggd 
 TFF .                      No:  Trip for Fail 
 TQAA.f-kp               15.00:  Torque Abs Avg 
 TQAN.f-kp               12.00:  Torque Abs Min 
 TQAX.f-kp               22.00:  Torque Abs Max 
 TRRT.°/30m               0.00:  Turn Rotating 
 MRT .                    HCIM:  Maximum Recorded Temperature 
 TTMX.degC               90.20:  Max Tool Temp 
 VS01.                90627813:  Virtual Str1 SN 
 VS02.                90634712:  Virtual Str2 SN 
 VS03.                90643410:  Virtual Str3 SN 
 VS04.                90634712:  Virtual Str4 SN 
 WBMN.klb                 9.00:  WOB Min 
 WITN.        Elmaddin Rahimov:  Customer Rep 
 WITN.         Haytham Mostafa:  Customer Rep 2 
 WOBA.klb                15.00:  WOB Avg 
 WOBX.klb                23.00:  WOB Max 
 YP  .lhf2               29.00:  Yield Point 
~Curve Information Block
#MNEM.UNIT                 API CODE     Curve Description
#---------               -----------    ---------------------------
 TIME.HHMMSS            00 000 000 000:  GT Time & Date
 GTDEPTH.m              00 000 000 000:  GT Depth
 GTPQH.psia             00 000 000 000:  GT HR Quartz Pressure
 GTTQ.degC              00 000 000 000:  GT Quartz Temperature
 GTTN.NONE              00 000 000 000:  GT Test Number
 GTET.sec               00 000 000 000:  GT Elapsed Test Time
 GTTVD.m                00 000 000 000:  GT True Vertical Depth
#Other Information
#
#WARRANTY: Halliburton will use its best efforts to furnish customers with 
#accurate information and interpretations that are part of, and incident to, the services 
#provided.  However, Halliburton cannot and does not warrant the accuracy 
#or correctness of such information and interpretations.  Under no circumstances should any 
#such information or interpretation be relied upon as the sole basis for any drilling, 
#completion, production, or financial decision or any procedure involving any risk to the 
#safety of any drilling venture, drilling rig or its crew or any other third party.  The 
#Customer has full responsibility for all drilling, completion and production operation.  
#Halliburton makes no representations or warranties, either expressed or 
#implied, including, but not limited to, the implied warranties of merchantability or fitness 
#for a particular purpose, with respect to the services rendered.  In no event will 
#Halliburton be liable for failure to obtain any particular results or for 
#any damages, including, but not limited to, indirect, special or consequential damages, 
#resulting from the use of any information or interpretation provided by Halliburton.
#
~A           TIME           GTDEPTH  GTPQH  GTTQ  GTTN  GTET   GTTVD  
# ...
   01:17:49.889.09-May-2021 4503.51 2107.00 67.53 9.00 299.11 2973.49
   01:17:50.089.09-May-2021 4503.51 2107.00 67.53 9.00 299.31 2973.49
   01:17:50.289.09-May-2021 4503.51 2115.69 67.53 9.00 299.51 2973.49
   01:17:50.490.09-May-2021 4503.51 2119.87 67.53 9.00 299.71 2973.49
   01:17:50.690.09-May-2021 4503.51 2123.22 67.53 9.00 299.91 2973.49
   01:17:50.890.09-May-2021 4503.51 2128.22 67.53 9.00 300.11 2973.49
   01:17:51.090.09-May-2021 4503.51 2128.22 67.53 9.00 300.31 2973.49
   01:17:51.290.09-May-2021 4503.51 2136.37 67.53 9.00 300.51 2973.49
   01:17:51.490.09-May-2021 4503.51 2140.43 67.53 9.00 300.71 2973.49
   01:17:51.690.09-May-2021 4503.51 2144.11 67.53 9.00 300.91 2973.49
   01:17:51.890.09-May-2021 4503.51 2148.50 67.53 9.00 301.11 2973.49
   01:17:52.090.09-May-2021 4503.51 2148.50 67.53 9.00 301.31 2973.49
   01:17:52.290.09-May-2021 4503.51 2157.11 67.53 9.00 301.51 2973.49
   01:17:52.490.09-May-2021 4503.51 2161.13 67.53 9.00 301.71 2973.49
   01:17:52.690.09-May-2021 4503.51 2165.38 67.53 9.00 301.91 2973.49
   01:17:52.890.09-May-2021 4503.51 2169.54 67.53 9.00 302.11 2973.49
   01:17:53.090.09-May-2021 4503.51 2169.54 67.53 9.00 302.31 2973.49
   01:17:53.291.09-May-2021 4503.51 2177.77 67.53 9.00 302.51 2973.49
   01:17:53.491.09-May-2021 4503.51 2181.85 67.53 9.00 302.71 2973.49
   01:17:53.691.09-May-2021 4503.51 2185.94 67.53 9.00 302.91 2973.49
   01:17:53.891.09-May-2021 4503.51 2190.04 67.53 9.00 303.11 2973.49
   01:17:54.091.09-May-2021 4503.51 2190.04 67.53 9.00 303.31 2973.49
   01:17:54.291.09-May-2021 4503.51 2197.51 67.53 9.00 303.51 2973.49
   01:17:54.491.09-May-2021 4503.51 2201.97 67.53 9.00 303.71 2973.49
   01:17:54.691.09-May-2021 4503.51 2205.46 67.53 9.00 303.91 2973.49
   01:17:54.891.09-May-2021 4503.51 2209.67 67.53 9.00 304.11 2973.49
   01:17:55.091.09-May-2021 4503.51 2209.67 67.53 9.00 304.31 2973.49
   01:17:55.291.09-May-2021 4503.51 2217.21 67.53 9.00 304.51 2973.49
   01:17:55.491.09-May-2021 4503.51 2221.01 67.53 9.00 304.71 2973.49
   01:17:55.691.09-May-2021 4503.51 2224.83 67.53 9.00 304.91 2973.49
   01:17:55.891.09-May-2021 4503.51 2228.68 67.53 9.00 305.11 2973.49
   01:17:56.092.09-May-2021 4503.51 2228.68 67.53 9.00 305.31 2973.49
   01:17:56.292.09-May-2021 4503.51 2236.30 67.53 9.00 305.51 2973.49
   01:17:56.492.09-May-2021 4503.51 2240.08 67.53 9.00 305.71 2973.49
   01:17:56.692.09-May-2021 4503.51 2243.86 67.53 9.00 305.91 2973.49
   01:17:56.892.09-May-2021 4503.51 2247.22 67.53 9.00 306.11 2973.49
   01:17:57.092.09-May-2021 4503.51 2247.22 67.53 9.00 306.31 2973.49
   01:17:57.292.09-May-2021 4503.51 2254.74 67.53 9.00 306.51 2973.49
   01:17:57.492.09-May-2021 4503.51 2258.53 67.53 9.00 306.71 2973.49
   01:17:57.692.09-May-2021 4503.51 2262.03 67.54 9.00 306.91 2973.49
   01:17:57.892.09-May-2021 4503.51 2265.74 67.54 9.00 307.11 2973.49
   01:17:58.092.09-May-2021 4503.51 2265.74 67.54 9.00 307.31 2973.49
   01:17:58.292.09-May-2021 4503.51 2272.67 67.54 9.00 307.51 2973.49
   01:17:58.492.09-May-2021 4503.51 2276.25 67.54 9.00 307.71 2973.49
   01:17:58.693.09-May-2021 4503.51 2280.04 67.54 9.00 307.91 2973.49
   01:17:58.893.09-May-2021 4503.51 2283.34 67.54 9.00 308.11 2973.49
   01:17:59.093.09-May-2021 4503.51 2283.34 67.54 9.00 308.31 2973.49
   01:17:59.293.09-May-2021 4503.51 2290.36 67.54 9.00 308.51 2973.49
   01:17:59.493.09-May-2021 4503.51 2293.89 67.54 9.00 308.71 2973.49
   01:17:59.693.09-May-2021 4503.51 2297.63 67.54 9.00 308.91 2973.49
   01:17:59.893.09-May-2021 4503.51 2300.82 67.54 9.00 309.11 2973.49
   01:18:00.093.09-May-2021 4503.51 2300.82 67.54 9.00 309.31 2973.49
   01:18:00.293.09-May-2021 4503.51 2307.25 67.54 9.00 309.51 2973.49
   01:18:00.493.09-May-2021 4503.51 2311.19 67.54 9.00 309.71 2973.49
   01:18:00.693.09-May-2021 4503.51 2314.62 67.54 9.00 309.91 2973.49
   01:18:00.893.09-May-2021 4503.51 2317.83 67.54 9.00 310.11 2973.49
   01:18:01.093.09-May-2021 4503.51 2317.83 67.54 9.00 310.31 2973.49
   01:18:01.293.09-May-2021 4503.51 2324.72 67.54 9.00 310.51 2973.49
   01:18:01.494.09-May-2021 4503.51 2328.09 67.54 9.00 310.71 2973.49
   01:18:01.694.09-May-2021 4503.51 2331.49 67.54 9.00 310.91 2973.49
   01:18:01.894.09-May-2021 4503.51 2334.83 67.54 9.00 311.11 2973.49
   01:18:02.094.09-May-2021 4503.51 2334.83 67.54 9.00 311.31 2973.49
   01:18:02.294.09-May-2021 4503.51 2341.56 67.54 9.00 311.51 2973.49
   01:18:02.494.09-May-2021 4503.51 2344.77 67.54 9.00 311.71 2973.49
   01:18:02.694.09-May-2021 4503.51 2347.96 67.54 9.00 311.91 2973.49
   01:18:02.894.09-May-2021 4503.51 2350.80 67.54 9.00 312.11 2973.49
   01:18:03.094.09-May-2021 4503.51 2350.80 67.54 9.00 312.31 2973.49
   01:18:03.294.09-May-2021 4503.51 2357.75 67.54 9.00 312.51 2973.49
   01:18:03.494.09-May-2021 4503.51 2360.75 67.54 9.00 312.71 2973.49
   01:18:03.694.09-May-2021 4503.51 2364.07 67.54 9.00 312.91 2973.49
   01:18:03.894.09-May-2021 4503.51 2367.21 67.54 9.00 313.11 2973.49
   01:18:04.094.09-May-2021 4503.51 2367.21 67.54 9.00 313.31 2973.49
   01:18:04.295.09-May-2021 4503.51 2373.51 67.54 9.00 313.51 2973.49
   01:18:04.495.09-May-2021 4503.51 2376.61 67.54 9.00 313.71 2973.49
   01:18:04.695.09-May-2021 4503.51 2379.81 67.54 9.00 313.91 2973.49
   01:18:04.895.09-May-2021 4503.51 2382.93 67.54 9.00 314.11 2973.49
   01:18:05.095.09-May-2021 4503.51 2382.93 67.54 9.00 314.31 2973.49
   01:18:05.295.09-May-2021 4503.51 2388.51 67.54 9.00 314.51 2973.49
   01:18:05.495.09-May-2021 4503.51 2392.17 67.54 9.00 314.71 2973.49
   01:18:05.695.09-May-2021 4503.51 2394.97 67.54 9.00 314.91 2973.49
   01:18:05.895.09-May-2021 4503.51 2398.37 67.54 9.00 315.11 2973.49
   01:18:06.095.09-May-2021 4503.51 2398.37 67.54 9.00 315.31 2973.49
   01:18:06.295.09-May-2021 4503.51 2404.19 67.54 9.00 315.51 2973.49
   01:18:06.495.09-May-2021 4503.51 2406.53 67.54 9.00 315.71 2973.49
   01:18:06.695.09-May-2021 4503.51 2410.22 67.54 9.00 315.91 2973.49
   01:18:06.895.09-May-2021 4503.51 2412.85 67.54 9.00 316.11 2973.49
   01:18:07.096.09-May-2021 4503.51 2412.85 67.54 9.00 316.31 2973.49
   01:18:07.296.09-May-2021 4503.51 2418.82 67.54 9.00 316.51 2973.49
   01:18:07.496.09-May-2021 4503.51 2421.41 67.54 9.00 316.71 2973.49
   01:18:07.696.09-May-2021 4503.51 2424.66 67.54 9.00 316.91 2973.49
   01:18:07.896.09-May-2021 4503.51 2427.29 67.54 9.00 317.11 2973.49
   01:18:08.096.09-May-2021 4503.51 2427.29 67.54 9.00 317.31 2973.49
   01:18:08.296.09-May-2021 4503.51 2434.04 67.54 9.00 317.52 2973.49
   01:18:08.496.09-May-2021 4503.51 2436.89 67.54 9.00 317.72 2973.49
   01:18:08.696.09-May-2021 4503.51 2440.06 67.54 9.00 317.92 2973.49
   01:18:08.896.09-May-2021 4503.51 2443.03 67.54 9.00 318.12 2973.49
   01:18:09.096.09-May-2021 4503.51 2443.03 67.54 9.00 318.32 2973.49
   01:18:09.296.09-May-2021 4503.51 2448.98 67.54 9.00 318.52 2973.49
   01:18:09.496.09-May-2021 4503.51 2451.94 67.54 9.00 318.72 2973.49
   01:18:09.696.09-May-2021 4503.51 2454.93 67.54 9.00 318.92 2973.49
   01:18:09.897.09-May-2021 4503.51 2457.88 67.54 9.00 319.12 2973.49
   01:18:10.097.09-May-2021 4503.51 2457.88 67.54 9.00 319.32 2973.49
   01:18:10.297.09-May-2021 4503.51 2463.68 67.54 9.00 319.52 2973.49
   01:18:10.497.09-May-2021 4503.51 2466.25 67.54 9.00 319.72 2973.49
   01:18:10.697.09-May-2021 4503.51 2469.70 67.54 9.00 319.92 2973.49
   01:18:10.897.09-May-2021 4503.51 2472.48 67.54 9.00 320.12 2973.49
   01:18:11.097.09-May-2021 4503.51 2472.48 67.54 9.00 320.32 2973.49
   01:18:11.297.09-May-2021 4503.51 2478.06 67.54 9.00 320.52 2973.49
   01:18:11.497.09-May-2021 4503.51 2480.86 67.54 9.00 320.72 2973.49
   01:18:11.697.09-May-2021 4503.51 2483.62 67.54 9.00 320.92 2973.49
   01:18:11.897.09-May-2021 4503.51 2486.40 67.54 9.00 321.12 2973.49
   01:18:12.097.09-May-2021 4503.51 2486.40 67.54 9.00 321.32 2973.49
   01:18:12.297.09-May-2021 4503.51 2491.89 67.54 9.00 321.52 2973.49
   01:18:12.498.09-May-2021 4503.51 2494.65 67.54 9.00 321.72 2973.49
   01:18:12.698.09-May-2021 4503.51 2497.41 67.54 9.00 321.92 2973.49
