~Version Information
 VERS.                  2.0:   CWLS log ASCII Standard -VERSION 2.0
 WRAP.                   NO:   One line per depth step
~Well Information Block
#MNEM.UNIT     VALUE/NAME     DESCRIPTION
#---------     -----------    ---------------------------
 STRT.S             20:19:26 08-May-21: START TIME 20:19:26 08-May-21
 STOP.S             20:26:06 08-May-21: STOP TIME  20:26:06 08-May-21
 STEP.S                   0.00: STEP TIME
 NULL.                 -999.25: NULL VALUE
 PROV.                    Baku:  PROVINCE
 STAT.                    Baku:  STATE NAME
 SON .        AZ-XX-0906571588:  JOB NUMBER
 WTYP.                Deviated:  WELL TYPE
 COMP.     BP Exploration (Caspian Sea) ltd:  COMPANY
 BASE.              Azerbaijan:  LOGGING EQUIPMENT BASE LOCATION
 REGN.                   EESSA:  REGION
 CTRY.              Azerbaijan:  COUNTRY NAME
 FLD .                     ACG:  FIELD NAME
 WELL.                     J28:  WELL NAME
 RIG .             West Chirag:  RIG NAME
 DMF .             Drill Floor:  DRILL MEAS FROM
 PDAT.       Caspian Sea Level:  PERMANENT DATUM
 HPTY.       Minimum Curvature:  HOLE POS TYPE
 MDS .        Operator Entered:  MAG DATA SOURCE
 NREF.                    Grid:  NORTH REFERENCE
 SRVC.          TURAN DRILLING:  CONTRACTOR
 JOBN.        AZ-XX-0906571588:  JOB TICKET NUMB
 DCON.     Halliburton Sperry Drilling:  DIRECTNL CONTR
 STIM.      00.44.00 11-Feb-21:  START TIME
 DATE.      00.00.00 05-May-21:  END TIME
 SPUD.               13-Feb-21:  SPUD DATE
 MWDS.                    Baku:  MWD SHOP
 DOE .                     N/A:  DOE NUMBER
 UNIT.                     N/A:  LOGGING EQUIPMENT ID
 UWI .                     N/A:  UNIQUE WELL IDENTIFIER
 API .                     N/A:  API NUMBER
 CNTY.                        :  COUNTY
 LOC .                        :  LOCATION
 LMF .             Drill Floor:  LOG MEASURED FROM
 TVDS.m                  43.00:  TVDSS CORRECTN
 SDEP.m                 341.00:  START DEPTH
 EGL .m                   0.00:  GROUND ELEVATION
 WDMS.m                 169.80:  WD ELEV
 AGAP.m                  43.00:  AIR GAP
 EPD .m                   0.00:  ELEVATION
 APD .m                  43.00:  DEPTH ABOVE PD
 LATI.deg                40.13:  LATITUDE
 LONG.deg                51.22:  LONGITUDE
 UTMY.m             4443793.85:  UTM Y
 UTMX.m              519005.06:  UTM X
 WHEW.m                 -11.57:  WELL HEAD E/W
 WHNS.m                   8.57:  WELL HEAD N/S
 VSEW.m                 -11.57:  VERT SEC E/W
 VSNS.m                   8.57:  VERT SEC N/S
 DFWL.m                   0.00:  DISTANCE FWL
 DFSL.m                   0.00:  DISTANCE FSL
 VSDR.deg               299.34:  VERT SEC DIRECT
 GVFD.g                   1.00:  GRAVITY FIELD
 AZTC.deg                 6.36:  AZM TOTAL CORR
 MFLD.nT              50391.00:  MAGNETIC FIELD
 MDIP.deg                59.65:  MAGNETIC DIP
 MDEC.deg                 6.48:  MAGNETIC DECL
 GRDC.deg                 0.12:  GRID CORRECTION
 DEP .m                 334.96:  DEPTH
 TDD .m                1407.26:  TOTAL DEPTH (DRILLER)
 EKB .m                  43.00:  KB ELEVATION
 EDF .m                  43.00:  DF ELEVATION
 TDL .m                 228.00:  TOTAL DEPTH (LOGGER)
 VSC .                       0:  VS TO CLOSURE
 MAGU.                 1854484:  MAGUTM CHECKSUM
~Parameter Information Block
#MNEM.UNIT       Value        Description
#---------     -----------    ---------------------------
 AV  .mps                 4.00:  Ann Velocity 
 AVMX.mps                 4.73:  Max Ann Veloc 
 AZIF.deg               304.48:  Azm, Final 
 BHAT.        Rotary Steerable:  BHA Type 
 BREV.rev            257300.00:  Rev Bit Total 
 BROT.°/30m               0.00:  Build Rotating 
 BS  .in                  8.50:  Bit Size 
 BSZ .in                  8.50:  Bit Size 
 BTPL.psig              589.00:  Bit Press Loss 
 CABU.                      No:  Customer Abuse 
 CGEO.          Mubariz ghayev:  Customer Geo 
 COMM.                     $w`:  Run Comments 1 
 TCS .hr                 64.25:  Time Ciculation Ended 
 CV  .mps                 3.50:  Crit Velocity 
 CVMX.mps                 4.52:  Max Crit Veloc 
 DD1 .             Aziz Aliyev:  Direct Drillr 1 
 DD2 .         Intigam Rahimov:  Direct Drillr 2 
 DD3 .          Rashad Habibov:  Direct Drillr 3 
 DDSV.               Geo-Pilot:  DD Service 
 DEFF.%                  98.00:  % Det Eff 
 DLRX.°/30m               0.00:  Dogleg Rot Max 
 DLSO.°/30m               0.00:  Dogleg Oriented 
 DLSX.°/30m               0.00:  Dogleg Str Max 
 DRET.      10.45.04 08-May-21:  Drill End Time 
 DRST.      03.30.04 04-May-21:  Drill Start Tim 
 DTIM.hr                 14.97:  Time Drilling 
 EDEP.m                4640.01:  End Depth 
 ENG1.         Dail Mahammadov:  Engineer 1 
 ENG2.           Eldar Hajiyev:  Engineer 2 
 ENG3.       Bakhtiar Jabbarli:  Engineer 3 
 ENG4.       Natik Hasanagayev:  Engineer 4 
 ETIM.      09.30.04 14-May-21:  End Time 
 FLOI.gpm               460.00:  Flow In 
 FLON.gpm               200.00:  Flow In Min 
 FLOS.cptm                0.00:  Fluid Loss 
 FLOX.gpm               505.00:  Flow In Max 
 HFLO.                      No:  High Flow 
 HPRE.                      No:  High Pressure 
 HTEM.                      No:  High Temp 
 HYDO.m                   1.80:  Hydro Offset 
 IFIN.deg                66.71:  Inc, Final 
 IMAX.deg                67.03:  Inc Max 
 IMIN.deg                66.63:  Inc Min 
 IMND.m                4550.58:  Inc Min Depth 
 IMXD.m                4439.01:  Inc Max Depth 
 JARR.                      No:  Jarring 
 LETM.      10.45.04 08-May-21:  Log End Time 
 LOST.hr                     0:  Lost Rig Time 
 LSTM.      03.30.04 04-May-21:  Log Start Time 
 MDCL.ppm             37000.00:  Mud Chlorides 
 MDES.     Inversion Oil/Synthetic:  Mud Desc 
 DFD .sg                  1.38:  Mud Density 
 MDMN.sg                  1.35:  Dens Mud Min 
 MDMX.sg                  1.40:  Dens Mud Max 
 MOIL.                   57.40:  Run Mud Oil % 
 MOWR.                   70:30:  Run Mud OWR 
 MSND.                    0.00:  Run Mud Sand % 
 MSOL.                   18.00:  Run Mud Solids% 
 DFV .spqt               71.00:  Mud Viscosity 
 MWOD.in                  6.75:  MWD Tool OD 
 MWSI.                      No:  Serv Intrp, MWD 
 OTIM.hr                242.76:  Time Operating 
 PCON.           Look Like New:  Pad Condition 
 PMAX.psia            12183.92:  Press Op, Max 
 PV  .cP                 27.00:  Mud PV 
 RUN .                    1300:  Run Number 
 ROPA.m/hr               15.00:  ROP Avg 
 ROPN.m/hr                9.00:  ROP Min 
 ROPX.m/hr               19.00:  ROP Max 
 RPMA.rpm               120.00:  RPM Surface Avg 
 RPMN.rpm               100.00:  RPM Surface Min 
 RPMX.rpm               120.00:  RPM Surface Max 
 RRUN.                    1300:  Rig Run Number 
 RTIM.hr                  5.00:  Time Reaming 
 SAZI.deg               304.73:  Azm, Start 
 SDEP.m                4412.01:  Start Depth 
 SIDD.                      No:  Serv Intrp, DD 
 SINC.deg                66.82:  Inc, Start 
 SPPA.psig             2800.00:  SPP Avg 
 SPPN.psig             2610.00:  SPP Min 
 SPPX.psig             3100.00:  SPP Max 
 STIM.      03.30.00 04-May-21:  Start Time 
 SVCS.                 DD, MWD:  Services 
 SVER.                    9.20:  Sperry Version 
 TDAT.m                 228.00:  Tot Depth Attmp 
 TDDF.                      No:  Trip for DD 
 TDLG.m                 228.00:  Tot Depth Loggd 
 TFF .                      No:  Trip for Fail 
 TQAA.f-kp               15.00:  Torque Abs Avg 
 TQAN.f-kp               12.00:  Torque Abs Min 
 TQAX.f-kp               22.00:  Torque Abs Max 
 TRRT.°/30m               0.00:  Turn Rotating 
 MRT .                    HCIM:  Maximum Recorded Temperature 
 TTMX.degC               90.20:  Max Tool Temp 
 VS01.                90627813:  Virtual Str1 SN 
 VS02.                90634712:  Virtual Str2 SN 
 VS03.                90643410:  Virtual Str3 SN 
 VS04.                90634712:  Virtual Str4 SN 
 WBMN.klb                 9.00:  WOB Min 
 WITN.        Elmaddin Rahimov:  Customer Rep 
 WITN.         Haytham Mostafa:  Customer Rep 2 
 WOBA.klb                15.00:  WOB Avg 
 WOBX.klb                23.00:  WOB Max 
 YP  .lhf2               29.00:  Yield Point 
~Curve Information Block
#MNEM.UNIT                 API CODE     Curve Description
#---------               -----------    ---------------------------
 TIME.HHMMSS            00 000 000 000:  GT Time & Date
 GTDEPTH.m              00 000 000 000:  GT Depth
 GTPQH.psia             00 000 000 000:  GT HR Quartz Pressure
 GTTQ.degC              00 000 000 000:  GT Quartz Temperature
 GTTN.NONE              00 000 000 000:  GT Test Number
 GTET.sec               00 000 000 000:  GT Elapsed Test Time
 GTTVD.m                00 000 000 000:  GT True Vertical Depth
#Other Information
#
#WARRANTY: Halliburton will use its best efforts to furnish customers with 
#accurate information and interpretations that are part of, and incident to, the services 
#provided.  However, Halliburton cannot and does not warrant the accuracy 
#or correctness of such information and interpretations.  Under no circumstances should any 
#such information or interpretation be relied upon as the sole basis for any drilling, 
#completion, production, or financial decision or any procedure involving any risk to the 
#safety of any drilling venture, drilling rig or its crew or any other third party.  The 
#Customer has full responsibility for all drilling, completion and production operation.  
#Halliburton makes no representations or warranties, either expressed or 
#implied, including, but not limited to, the implied warranties of merchantability or fitness 
#for a particular purpose, with respect to the services rendered.  In no event will 
#Halliburton be liable for failure to obtain any particular results or for 
#any damages, including, but not limited to, indirect, special or consequential damages, 
#resulting from the use of any information or interpretation provided by Halliburton.
#
~A           TIME           GTDEPTH  GTPQH  GTTQ  GTTN  GTET   GTTVD  
# ...
   20:19:49.540.08-May-2021 4592.01 6804.06 69.21 1.00  23.00 3008.50
   20:19:49.740.08-May-2021 4592.01 6804.06 69.21 1.00  23.20 3008.50
   20:19:49.940.08-May-2021 4592.01 6805.79 69.21 1.00  23.40 3008.50
   20:19:50.140.08-May-2021 4592.01 6818.98 69.21 1.00  23.60 3008.50
   20:19:50.340.08-May-2021 4592.01 6811.52 69.21 1.00  23.80 3008.50
   20:19:50.540.08-May-2021 4592.01 6807.03 69.21 1.00  24.00 3008.50
   20:19:50.741.08-May-2021 4592.01 6807.03 69.21 1.00  24.20 3008.50
   20:19:50.941.08-May-2021 4592.01 6817.77 69.21 1.00  24.40 3008.50
   20:19:51.141.08-May-2021 4592.01 6816.06 69.21 1.00  24.60 3008.50
   20:19:51.341.08-May-2021 4592.01 6810.65 69.21 1.00  24.80 3008.50
   20:19:51.541.08-May-2021 4592.01 6810.03 69.21 1.00  25.00 3008.50
   20:19:51.741.08-May-2021 4592.01 6810.03 69.21 1.00  25.20 3008.50
   20:19:51.941.08-May-2021 4592.01 6808.07 69.21 1.00  25.40 3008.50
   20:19:52.141.08-May-2021 4592.01 6817.12 69.21 1.00  25.60 3008.50
   20:19:52.341.08-May-2021 4592.01 6816.92 69.21 1.00  25.80 3008.50
   20:19:52.541.08-May-2021 4592.01 6813.02 69.21 1.00  26.00 3008.50
   20:19:52.741.08-May-2021 4592.01 6813.02 69.21 1.00  26.20 3008.50
   20:19:52.941.08-May-2021 4592.01 6814.02 69.21 1.00  26.40 3008.50
   20:19:53.141.08-May-2021 4592.01 6824.57 69.21 1.00  26.60 3008.50
   20:19:53.341.08-May-2021 4592.01 6918.79 69.21 1.00  26.80 3008.50
   20:19:53.541.08-May-2021 4592.01 6957.91 69.21 1.00  27.00 3008.50
   20:19:53.741.08-May-2021 4592.01 6957.91 69.21 1.00  27.20 3008.50
   20:19:53.941.08-May-2021 4592.01 7533.87 69.21 1.00  27.40 3008.50
   20:19:54.141.08-May-2021 4592.01 7515.26 69.21 1.00  27.60 3008.50
   20:19:54.341.08-May-2021 4592.01 7485.15 69.21 1.00  27.80 3008.50
   20:19:54.541.08-May-2021 4592.01 7497.31 69.21 1.00  28.00 3008.50
   20:19:54.741.08-May-2021 4592.01 7497.31 69.21 1.00  28.20 3008.50
   20:19:54.941.08-May-2021 4592.01 7559.82 69.21 1.00  28.40 3008.50
   20:19:55.141.08-May-2021 4592.01 7571.26 69.21 1.00  28.60 3008.50
   20:19:55.341.08-May-2021 4592.01 7543.17 69.21 1.00  28.80 3008.50
   20:19:55.541.08-May-2021 4592.01 7566.48 69.21 1.00  29.00 3008.50
   20:19:55.741.08-May-2021 4592.01 7566.48 69.21 1.00  29.20 3008.50
   20:19:55.941.08-May-2021 4592.01 7539.63 69.21 1.00  29.40 3008.50
   20:19:56.141.08-May-2021 4592.01 7538.66 69.21 1.00  29.60 3008.50
   20:19:56.341.08-May-2021 4592.01 7557.88 69.21 1.00  29.80 3008.50
   20:19:56.541.08-May-2021 4592.01 7566.00 69.21 1.00  30.00 3008.50
   20:19:56.741.08-May-2021 4592.01 7566.00 69.21 1.00  30.20 3008.50
   20:19:56.941.08-May-2021 4592.01 7527.32 69.21 1.00  30.40 3008.50
   20:19:57.141.08-May-2021 4592.01 7555.50 69.21 1.00  30.60 3008.50
   20:19:57.341.08-May-2021 4592.01 7564.41 69.22 1.00  30.80 3008.50
   20:19:57.541.08-May-2021 4592.01 7552.26 69.22 1.00  31.00 3008.50
   20:19:57.741.08-May-2021 4592.01 7552.26 69.22 1.00  31.20 3008.50
   20:19:57.941.08-May-2021 4592.01 7542.47 69.22 1.00  31.40 3008.50
   20:19:58.141.08-May-2021 4592.01 7563.19 69.22 1.00  31.60 3008.50
   20:19:58.341.08-May-2021 4592.01 7568.68 69.22 1.00  31.80 3008.50
   20:19:58.541.08-May-2021 4592.01 7564.69 69.22 1.00  32.00 3008.50
   20:19:58.741.08-May-2021 4592.01 7564.69 69.22 1.00  32.20 3008.50
   20:19:58.941.08-May-2021 4592.01 7458.99 69.22 1.00  32.40 3008.50
   20:19:59.141.08-May-2021 4592.01 7460.55 69.22 1.00  32.60 3008.50
   20:19:59.341.08-May-2021 4592.01 7451.40 69.22 1.00  32.80 3008.50
   20:19:59.541.08-May-2021 4592.01 7446.93 69.22 1.00  33.00 3008.50
   20:19:59.741.08-May-2021 4592.01 7446.93 69.22 1.00  33.20 3008.50
   20:19:59.941.08-May-2021 4592.01 7409.03 69.22 1.00  33.40 3008.50
   20:20:00.141.08-May-2021 4592.01 7394.60 69.22 1.00  33.60 3008.50
   20:20:00.342.08-May-2021 4592.01 7395.22 69.22 1.00  33.80 3008.50
   20:20:00.542.08-May-2021 4592.01 7379.98 69.22 1.00  34.00 3008.50
   20:20:00.742.08-May-2021 4592.01 7379.98 69.22 1.00  34.20 3008.50
   20:20:00.942.08-May-2021 4592.01 7326.92 69.22 1.00  34.40 3008.50
   20:20:01.142.08-May-2021 4592.01 7301.75 69.22 1.00  34.60 3008.50
   20:20:01.342.08-May-2021 4592.01 7281.69 69.22 1.00  34.80 3008.50
   20:20:01.542.08-May-2021 4592.01 7261.99 69.22 1.00  35.00 3008.50
   20:20:01.742.08-May-2021 4592.01 7261.99 69.22 1.00  35.20 3008.50
   20:20:01.942.08-May-2021 4592.01 7214.23 69.22 1.00  35.40 3008.50
   20:20:02.142.08-May-2021 4592.01 7189.30 69.22 1.00  35.60 3008.50
   20:20:02.342.08-May-2021 4592.01 7164.00 69.22 1.00  35.80 3008.50
   20:20:02.542.08-May-2021 4592.01 7135.42 69.22 1.00  36.00 3008.50
   20:20:02.742.08-May-2021 4592.01 7135.42 69.22 1.00  36.20 3008.50
   20:20:02.942.08-May-2021 4592.01 6519.51 69.22 1.00  36.40 3008.50
   20:20:03.142.08-May-2021 4592.01 5791.26 69.22 1.00  36.60 3008.50
   20:20:03.342.08-May-2021 4592.01 4859.63 69.22 1.00  36.80 3008.50
   20:20:03.542.08-May-2021 4592.01 4089.70 69.22 1.00  37.00 3008.50
   20:20:03.742.08-May-2021 4592.01 4089.70 69.22 1.00  37.20 3008.50
   20:20:03.942.08-May-2021 4592.01 3469.74 69.22 1.00  37.40 3008.50
   20:20:04.142.08-May-2021 4592.01 3457.68 69.21 1.00  37.60 3008.50
   20:20:04.342.08-May-2021 4592.01 3340.27 69.21 1.00  37.80 3008.50
   20:20:04.542.08-May-2021 4592.01 3229.48 69.21 1.00  38.00 3008.50
   20:20:04.742.08-May-2021 4592.01 3229.48 69.21 1.00  38.20 3008.50
   20:20:04.942.08-May-2021 4592.01 3207.42 69.21 1.00  38.40 3008.50
   20:20:05.142.08-May-2021 4592.01 3193.93 69.20 1.00  38.60 3008.50
   20:20:05.342.08-May-2021 4592.01 3005.86 69.20 1.00  38.80 3008.50
   20:20:05.542.08-May-2021 4592.01 2667.54 69.20 1.00  39.00 3008.50
   20:20:05.742.08-May-2021 4592.01 2667.54 69.20 1.00  39.20 3008.50
   20:20:05.942.08-May-2021 4592.01 1849.82 69.19 1.00  39.40 3008.50
   20:20:06.142.08-May-2021 4592.01 1624.54 69.19 1.00  39.60 3008.50
   20:20:06.342.08-May-2021 4592.01 1358.65 69.19 1.00  39.80 3008.50
   20:20:06.542.08-May-2021 4592.01 1116.36 69.18 1.00  40.00 3008.50
   20:20:06.742.08-May-2021 4592.01 1116.36 69.18 1.00  40.20 3008.50
   20:20:06.942.08-May-2021 4592.01  958.47 69.17 1.00  40.40 3008.50
   20:20:07.142.08-May-2021 4592.01  892.33 69.17 1.00  40.60 3008.50
   20:20:07.342.08-May-2021 4592.01  864.03 69.17 1.00  40.80 3008.50
   20:20:07.542.08-May-2021 4592.01  831.17 69.16 1.00  41.00 3008.50
   20:20:07.742.08-May-2021 4592.01  831.17 69.16 1.00  41.20 3008.50
   20:20:07.942.08-May-2021 4592.01  811.91 69.16 1.00  41.40 3008.50
   20:20:08.142.08-May-2021 4592.01  795.61 69.15 1.00  41.60 3008.50
   20:20:08.342.08-May-2021 4592.01  777.39 69.15 1.00  41.80 3008.50
   20:20:08.542.08-May-2021 4592.01  779.97 69.14 1.00  42.00 3008.50
   20:20:08.742.08-May-2021 4592.01  779.97 69.14 1.00  42.20 3008.50
   20:20:08.942.08-May-2021 4592.01  787.93 69.14 1.00  42.40 3008.50
   20:20:09.142.08-May-2021 4592.01  777.94 69.13 1.00  42.60 3008.50
   20:20:09.342.08-May-2021 4592.01  762.13 69.13 1.00  42.80 3008.50
   20:20:09.542.08-May-2021 4592.01  762.73 69.12 1.00  43.00 3008.50
   20:20:09.742.08-May-2021 4592.01  762.73 69.12 1.00  43.20 3008.50
   20:20:09.943.08-May-2021 4592.01  776.26 69.12 1.00  43.40 3008.50
   20:20:10.143.08-May-2021 4592.01  769.84 69.11 1.00  43.60 3008.50
   20:20:10.343.08-May-2021 4592.01  776.26 69.11 1.00  43.80 3008.50
   20:20:10.543.08-May-2021 4592.01  777.87 69.11 1.00  44.00 3008.50
   20:20:10.743.08-May-2021 4592.01  777.87 69.11 1.00  44.20 3008.50
   20:20:10.943.08-May-2021 4592.01  747.81 69.10 1.00  44.40 3008.50
   20:20:11.143.08-May-2021 4592.01  737.94 69.10 1.00  44.60 3008.50
   20:20:11.343.08-May-2021 4592.01  736.67 69.10 1.00  44.80 3008.50
   20:20:11.543.08-May-2021 4592.01  745.45 69.09 1.00  45.00 3008.50
   20:20:11.743.08-May-2021 4592.01  745.45 69.09 1.00  45.20 3008.50
   20:20:11.943.08-May-2021 4592.01  737.61 69.09 1.00  45.40 3008.50
   20:20:12.143.08-May-2021 4592.01  728.35 69.09 1.00  45.60 3008.50
   20:20:12.343.08-May-2021 4592.01  721.52 69.08 1.00  45.80 3008.50
