~Version Information
 VERS.                  2.0:   CWLS log ASCII Standard -VERSION 2.0
 WRAP.                   NO:   One line per depth step
~Well Information Block
#MNEM.UNIT     VALUE/NAME     DESCRIPTION
#---------     -----------    ---------------------------
 STRT.S             23:07:02 09-May-21: START TIME 23:07:02 09-May-21
 STOP.S             23:13:42 09-May-21: STOP TIME  23:13:42 09-May-21
 STEP.S                   0.00: STEP TIME
 NULL.                 -999.25: NULL VALUE
 PROV.                    Baku:  PROVINCE
 STAT.                    Baku:  STATE NAME
 SON .        AZ-XX-0906571588:  JOB NUMBER
 WTYP.                Deviated:  WELL TYPE
 COMP.     BP Exploration (Caspian Sea) ltd:  COMPANY
 BASE.              Azerbaijan:  LOGGING EQUIPMENT BASE LOCATION
 REGN.                   EESSA:  REGION
 CTRY.              Azerbaijan:  COUNTRY NAME
 FLD .                     ACG:  FIELD NAME
 WELL.                     J28:  WELL NAME
 RIG .             West Chirag:  RIG NAME
 DMF .             Drill Floor:  DRILL MEAS FROM
 PDAT.       Caspian Sea Level:  PERMANENT DATUM
 HPTY.       Minimum Curvature:  HOLE POS TYPE
 MDS .        Operator Entered:  MAG DATA SOURCE
 NREF.                    Grid:  NORTH REFERENCE
 SRVC.          TURAN DRILLING:  CONTRACTOR
 JOBN.        AZ-XX-0906571588:  JOB TICKET NUMB
 DCON.     Halliburton Sperry Drilling:  DIRECTNL CONTR
 STIM.      00.44.00 11-Feb-21:  START TIME
 DATE.      00.00.00 05-May-21:  END TIME
 SPUD.               13-Feb-21:  SPUD DATE
 MWDS.                    Baku:  MWD SHOP
 DOE .                     N/A:  DOE NUMBER
 UNIT.                     N/A:  LOGGING EQUIPMENT ID
 UWI .                     N/A:  UNIQUE WELL IDENTIFIER
 API .                     N/A:  API NUMBER
 CNTY.                        :  COUNTY
 LOC .                        :  LOCATION
 LMF .             Drill Floor:  LOG MEASURED FROM
 TVDS.m                  43.00:  TVDSS CORRECTN
 SDEP.m                 341.00:  START DEPTH
 EGL .m                   0.00:  GROUND ELEVATION
 WDMS.m                 169.80:  WD ELEV
 AGAP.m                  43.00:  AIR GAP
 EPD .m                   0.00:  ELEVATION
 APD .m                  43.00:  DEPTH ABOVE PD
 LATI.deg                40.13:  LATITUDE
 LONG.deg                51.22:  LONGITUDE
 UTMY.m             4443793.85:  UTM Y
 UTMX.m              519005.06:  UTM X
 WHEW.m                 -11.57:  WELL HEAD E/W
 WHNS.m                   8.57:  WELL HEAD N/S
 VSEW.m                 -11.57:  VERT SEC E/W
 VSNS.m                   8.57:  VERT SEC N/S
 DFWL.m                   0.00:  DISTANCE FWL
 DFSL.m                   0.00:  DISTANCE FSL
 VSDR.deg               299.34:  VERT SEC DIRECT
 GVFD.g                   1.00:  GRAVITY FIELD
 AZTC.deg                 6.36:  AZM TOTAL CORR
 MFLD.nT              50391.00:  MAGNETIC FIELD
 MDIP.deg                59.65:  MAGNETIC DIP
 MDEC.deg                 6.48:  MAGNETIC DECL
 GRDC.deg                 0.12:  GRID CORRECTION
 DEP .m                 334.96:  DEPTH
 TDD .m                1407.26:  TOTAL DEPTH (DRILLER)
 EKB .m                  43.00:  KB ELEVATION
 EDF .m                  43.00:  DF ELEVATION
 TDL .m                 228.00:  TOTAL DEPTH (LOGGER)
 VSC .                       0:  VS TO CLOSURE
 MAGU.                 1854484:  MAGUTM CHECKSUM
~Parameter Information Block
#MNEM.UNIT       Value        Description
#---------     -----------    ---------------------------
 AV  .mps                 4.00:  Ann Velocity 
 AVMX.mps                 4.73:  Max Ann Veloc 
 AZIF.deg               304.48:  Azm, Final 
 BHAT.        Rotary Steerable:  BHA Type 
 BREV.rev            257300.00:  Rev Bit Total 
 BROT.°/30m               0.00:  Build Rotating 
 BS  .in                  8.50:  Bit Size 
 BSZ .in                  8.50:  Bit Size 
 BTPL.psig              589.00:  Bit Press Loss 
 CABU.                      No:  Customer Abuse 
 CGEO.          Mubariz ghayev:  Customer Geo 
 COMM.                     d:  Run Comments 1 
 TCS .hr                 64.25:  Time Ciculation Ended 
 CV  .mps                 3.50:  Crit Velocity 
 CVMX.mps                 4.52:  Max Crit Veloc 
 DD1 .             Aziz Aliyev:  Direct Drillr 1 
 DD2 .         Intigam Rahimov:  Direct Drillr 2 
 DD3 .          Rashad Habibov:  Direct Drillr 3 
 DDSV.               Geo-Pilot:  DD Service 
 DEFF.%                  98.00:  % Det Eff 
 DLRX.°/30m               0.00:  Dogleg Rot Max 
 DLSO.°/30m               0.00:  Dogleg Oriented 
 DLSX.°/30m               0.00:  Dogleg Str Max 
 DRET.      10.45.04 08-May-21:  Drill End Time 
 DRST.      03.30.04 04-May-21:  Drill Start Tim 
 DTIM.hr                 14.97:  Time Drilling 
 EDEP.m                4640.01:  End Depth 
 ENG1.         Dail Mahammadov:  Engineer 1 
 ENG2.           Eldar Hajiyev:  Engineer 2 
 ENG3.       Bakhtiar Jabbarli:  Engineer 3 
 ENG4.       Natik Hasanagayev:  Engineer 4 
 ETIM.      09.30.04 14-May-21:  End Time 
 FLOI.gpm               460.00:  Flow In 
 FLON.gpm               200.00:  Flow In Min 
 FLOS.cptm                0.00:  Fluid Loss 
 FLOX.gpm               505.00:  Flow In Max 
 HFLO.                      No:  High Flow 
 HPRE.                      No:  High Pressure 
 HTEM.                      No:  High Temp 
 HYDO.m                   1.80:  Hydro Offset 
 IFIN.deg                66.71:  Inc, Final 
 IMAX.deg                67.03:  Inc Max 
 IMIN.deg                66.63:  Inc Min 
 IMND.m                4550.58:  Inc Min Depth 
 IMXD.m                4439.01:  Inc Max Depth 
 JARR.                      No:  Jarring 
 LETM.      10.45.04 08-May-21:  Log End Time 
 LOST.hr                     0:  Lost Rig Time 
 LSTM.      03.30.04 04-May-21:  Log Start Time 
 MDCL.ppm             37000.00:  Mud Chlorides 
 MDES.     Inversion Oil/Synthetic:  Mud Desc 
 DFD .sg                  1.38:  Mud Density 
 MDMN.sg                  1.35:  Dens Mud Min 
 MDMX.sg                  1.40:  Dens Mud Max 
 MOIL.                   57.40:  Run Mud Oil % 
 MOWR.                   70:30:  Run Mud OWR 
 MSND.                    0.00:  Run Mud Sand % 
 MSOL.                   18.00:  Run Mud Solids% 
 DFV .spqt               71.00:  Mud Viscosity 
 MWOD.in                  6.75:  MWD Tool OD 
 MWSI.                      No:  Serv Intrp, MWD 
 OTIM.hr                242.76:  Time Operating 
 PCON.           Look Like New:  Pad Condition 
 PMAX.psia            12183.92:  Press Op, Max 
 PV  .cP                 27.00:  Mud PV 
 RUN .                    1300:  Run Number 
 ROPA.m/hr               15.00:  ROP Avg 
 ROPN.m/hr                9.00:  ROP Min 
 ROPX.m/hr               19.00:  ROP Max 
 RPMA.rpm               120.00:  RPM Surface Avg 
 RPMN.rpm               100.00:  RPM Surface Min 
 RPMX.rpm               120.00:  RPM Surface Max 
 RRUN.                    1300:  Rig Run Number 
 RTIM.hr                  5.00:  Time Reaming 
 SAZI.deg               304.73:  Azm, Start 
 SDEP.m                4412.01:  Start Depth 
 SIDD.                      No:  Serv Intrp, DD 
 SINC.deg                66.82:  Inc, Start 
 SPPA.psig             2800.00:  SPP Avg 
 SPPN.psig             2610.00:  SPP Min 
 SPPX.psig             3100.00:  SPP Max 
 STIM.      03.30.00 04-May-21:  Start Time 
 SVCS.                 DD, MWD:  Services 
 SVER.                    9.20:  Sperry Version 
 TDAT.m                 228.00:  Tot Depth Attmp 
 TDDF.                      No:  Trip for DD 
 TDLG.m                 228.00:  Tot Depth Loggd 
 TFF .                      No:  Trip for Fail 
 TQAA.f-kp               15.00:  Torque Abs Avg 
 TQAN.f-kp               12.00:  Torque Abs Min 
 TQAX.f-kp               22.00:  Torque Abs Max 
 TRRT.°/30m               0.00:  Turn Rotating 
 MRT .                    HCIM:  Maximum Recorded Temperature 
 TTMX.degC               90.20:  Max Tool Temp 
 VS01.                90627813:  Virtual Str1 SN 
 VS02.                90634712:  Virtual Str2 SN 
 VS03.                90643410:  Virtual Str3 SN 
 VS04.                90634712:  Virtual Str4 SN 
 WBMN.klb                 9.00:  WOB Min 
 WITN.        Elmaddin Rahimov:  Customer Rep 
 WITN.         Haytham Mostafa:  Customer Rep 2 
 WOBA.klb                15.00:  WOB Avg 
 WOBX.klb                23.00:  WOB Max 
 YP  .lhf2               29.00:  Yield Point 
~Curve Information Block
#MNEM.UNIT                 API CODE     Curve Description
#---------               -----------    ---------------------------
 TIME.HHMMSS            00 000 000 000:  GT Time & Date
 GTDEPTH.m              00 000 000 000:  GT Depth
 GTPQH.psia             00 000 000 000:  GT HR Quartz Pressure
 GTTQ.degC              00 000 000 000:  GT Quartz Temperature
 GTTN.NONE              00 000 000 000:  GT Test Number
 GTET.sec               00 000 000 000:  GT Elapsed Test Time
 GTTVD.m                00 000 000 000:  GT True Vertical Depth
#Other Information
#
#WARRANTY: Halliburton will use its best efforts to furnish customers with 
#accurate information and interpretations that are part of, and incident to, the services 
#provided.  However, Halliburton cannot and does not warrant the accuracy 
#or correctness of such information and interpretations.  Under no circumstances should any 
#such information or interpretation be relied upon as the sole basis for any drilling, 
#completion, production, or financial decision or any procedure involving any risk to the 
#safety of any drilling venture, drilling rig or its crew or any other third party.  The 
#Customer has full responsibility for all drilling, completion and production operation.  
#Halliburton makes no representations or warranties, either expressed or 
#implied, including, but not limited to, the implied warranties of merchantability or fitness 
#for a particular purpose, with respect to the services rendered.  In no event will 
#Halliburton be liable for failure to obtain any particular results or for 
#any damages, including, but not limited to, indirect, special or consequential damages, 
#resulting from the use of any information or interpretation provided by Halliburton.
#
~A           TIME           GTDEPTH  GTPQH  GTTQ  GTTN   GTET   GTTVD  
# ...
   23:08:10.619.09-May-2021 4503.01 1692.22 60.42 17.00  67.78 2973.29
   23:08:10.819.09-May-2021 4503.01 1704.96 60.42 17.00  67.98 2973.29
   23:08:11.019.09-May-2021 4503.01 1704.96 60.42 17.00  68.18 2973.29
   23:08:11.219.09-May-2021 4503.01 1728.48 60.42 17.00  68.38 2973.29
   23:08:11.419.09-May-2021 4503.01 1740.10 60.42 17.00  68.58 2973.29
   23:08:11.619.09-May-2021 4503.01 1751.50 60.42 17.00  68.78 2973.29
   23:08:11.819.09-May-2021 4503.01 1762.84 60.42 17.00  68.98 2973.29
   23:08:12.019.09-May-2021 4503.01 1762.84 60.42 17.00  69.18 2973.29
   23:08:12.219.09-May-2021 4503.01 1784.91 60.42 17.00  69.38 2973.29
   23:08:12.418.09-May-2021 4503.01 1795.78 60.42 17.00  69.58 2973.29
   23:08:12.618.09-May-2021 4503.01 1806.49 60.42 17.00  69.78 2973.29
   23:08:12.818.09-May-2021 4503.01 1817.04 60.42 17.00  69.98 2973.29
   23:08:13.018.09-May-2021 4503.01 1817.04 60.42 17.00  70.18 2973.29
   23:08:13.218.09-May-2021 4503.01 1837.31 60.42 17.00  70.38 2973.29
   23:08:13.418.09-May-2021 4503.01 1849.28 60.42 17.00  70.58 2973.29
   23:08:13.618.09-May-2021 4503.01 1860.33 60.43 17.00  70.78 2973.29
   23:08:13.818.09-May-2021 4503.01 1870.63 60.43 17.00  70.98 2973.29
   23:08:14.018.09-May-2021 4503.01 1870.63 60.43 17.00  71.18 2973.29
   23:08:14.218.09-May-2021 4503.01 1892.63 60.43 17.00  71.38 2973.29
   23:08:14.418.09-May-2021 4503.01 1903.55 60.43 17.00  71.58 2973.29
   23:08:14.618.09-May-2021 4503.01 1913.91 60.43 17.00  71.78 2973.29
   23:08:14.818.09-May-2021 4503.01 1924.16 60.43 17.00  71.98 2973.29
   23:08:15.018.09-May-2021 4503.01 1924.16 60.43 17.00  72.18 2973.29
   23:08:15.218.09-May-2021 4503.01 1945.10 60.43 17.00  72.38 2973.29
   23:08:15.418.09-May-2021 4503.01 1955.72 60.43 17.00  72.58 2973.29
   23:08:15.618.09-May-2021 4503.01 1966.11 60.43 17.00  72.78 2973.29
   23:08:15.818.09-May-2021 4503.01 1976.83 60.43 17.00  72.98 2973.29
   23:08:16.018.09-May-2021 4503.01 1976.83 60.43 17.00  73.18 2973.29
   23:08:16.217.09-May-2021 4503.01 1998.31 60.43 17.00  73.38 2973.29
   23:08:16.417.09-May-2021 4503.01 2008.34 60.43 17.00  73.58 2973.29
   23:08:16.617.09-May-2021 4503.01 2018.39 60.43 17.00  73.78 2973.29
   23:08:16.817.09-May-2021 4503.01 2028.26 60.43 17.00  73.98 2973.29
   23:08:17.017.09-May-2021 4503.01 2028.26 60.43 17.00  74.18 2973.29
   23:08:17.217.09-May-2021 4503.01 2047.66 60.43 17.00  74.38 2973.29
   23:08:17.417.09-May-2021 4503.01 2057.16 60.43 17.00  74.58 2973.29
   23:08:17.617.09-May-2021 4503.01 2066.56 60.44 17.00  74.78 2973.29
   23:08:17.817.09-May-2021 4503.01 2075.91 60.44 17.00  74.98 2973.29
   23:08:18.017.09-May-2021 4503.01 2075.91 60.44 17.00  75.18 2973.29
   23:08:18.217.09-May-2021 4503.01 2094.09 60.44 17.00  75.38 2973.29
   23:08:18.417.09-May-2021 4503.01 2103.96 60.44 17.00  75.58 2973.29
   23:08:18.617.09-May-2021 4503.01 2113.88 60.44 17.00  75.78 2973.29
   23:08:18.817.09-May-2021 4503.01 2123.88 60.44 17.00  75.98 2973.29
   23:08:19.017.09-May-2021 4503.01 2123.88 60.44 17.00  76.18 2973.29
   23:08:19.217.09-May-2021 4503.01 2142.59 60.44 17.00  76.38 2973.29
   23:08:19.417.09-May-2021 4503.01 2151.77 60.44 17.00  76.58 2973.29
   23:08:19.617.09-May-2021 4503.01 2160.75 60.44 17.00  76.78 2973.29
   23:08:19.817.09-May-2021 4503.01 2169.65 60.44 17.00  76.98 2973.29
   23:08:20.017.09-May-2021 4503.01 2169.65 60.44 17.00  77.18 2973.29
   23:08:20.216.09-May-2021 4503.01 2187.16 60.44 17.00  77.38 2973.29
   23:08:20.416.09-May-2021 4503.01 2195.83 60.44 17.00  77.58 2973.29
   23:08:20.616.09-May-2021 4503.01 2204.44 60.44 17.00  77.78 2973.29
   23:08:20.816.09-May-2021 4503.01 2212.47 60.44 17.00  77.98 2973.29
   23:08:21.016.09-May-2021 4503.01 2212.47 60.44 17.00  78.18 2973.29
   23:08:21.216.09-May-2021 4503.01 2231.09 60.44 17.00  78.38 2973.29
   23:08:21.416.09-May-2021 4503.01 2240.47 60.44 17.00  78.58 2973.29
   23:08:21.616.09-May-2021 4503.01 2249.24 60.44 17.00  78.78 2973.29
   23:08:21.816.09-May-2021 4503.01 2258.05 60.44 17.00  78.98 2973.29
   23:08:22.016.09-May-2021 4503.01 2258.05 60.44 17.00  79.18 2973.29
   23:08:22.216.09-May-2021 4503.01 2275.79 60.45 17.00  79.38 2973.29
   23:08:22.416.09-May-2021 4503.01 2284.58 60.45 17.00  79.58 2973.29
   23:08:22.616.09-May-2021 4503.01 2293.09 60.45 17.00  79.78 2973.29
   23:08:22.816.09-May-2021 4503.01 2303.02 60.45 17.00  79.98 2973.29
   23:08:23.016.09-May-2021 4503.01 2303.02 60.45 17.00  80.18 2973.29
   23:08:23.216.09-May-2021 4503.01 2320.46 60.45 17.00  80.38 2973.29
   23:08:23.416.09-May-2021 4503.01 2329.43 60.45 17.00  80.58 2973.29
   23:08:23.616.09-May-2021 4503.01 2338.59 60.45 17.00  80.78 2973.29
   23:08:23.816.09-May-2021 4503.01 2347.55 60.45 17.00  80.98 2973.29
   23:08:24.015.09-May-2021 4503.01 2347.55 60.45 17.00  81.18 2973.29
   23:08:24.215.09-May-2021 4503.01 2364.30 60.45 17.00  81.38 2973.29
   23:08:24.415.09-May-2021 4503.01 2372.48 60.45 17.00  81.58 2973.29
   23:08:24.615.09-May-2021 4503.01 2380.52 60.45 17.00  81.78 2973.29
   23:08:24.815.09-May-2021 4503.01 2388.42 60.45 17.00  81.98 2973.29
   23:08:25.015.09-May-2021 4503.01 2388.42 60.45 17.00  82.18 2973.29
   23:08:25.215.09-May-2021 4503.01 2403.79 60.45 17.00  82.38 2973.29
   23:08:25.415.09-May-2021 4503.01 2411.34 60.45 17.00  82.58 2973.29
   23:08:25.615.09-May-2021 4503.01 2418.76 60.45 17.00  82.78 2973.29
   23:08:25.815.09-May-2021 4503.01 2425.73 60.45 17.00  82.98 2973.29
   23:08:26.015.09-May-2021 4503.01 2425.73 60.45 17.00  83.18 2973.29
   23:08:26.215.09-May-2021 4503.01 2441.45 60.45 17.00  83.38 2973.29
   23:08:26.415.09-May-2021 4503.01 2449.36 60.45 17.00  83.58 2973.29
   23:08:26.615.09-May-2021 4503.01 2456.77 60.45 17.00  83.78 2973.29
   23:08:26.815.09-May-2021 4503.01 2464.21 60.45 17.00  83.98 2973.29
   23:08:27.015.09-May-2021 4503.01 2464.21 60.45 17.00  84.18 2973.29
   23:08:27.215.09-May-2021 4503.01 2478.89 60.45 17.00  84.38 2973.29
   23:08:27.415.09-May-2021 4503.01 2486.04 60.45 17.00  84.58 2973.29
   23:08:27.615.09-May-2021 4503.01 2493.01 60.45 17.00  84.78 2973.29
   23:08:27.814.09-May-2021 4503.01 2499.90 60.45 17.00  84.98 2973.29
   23:08:28.014.09-May-2021 4503.01 2499.90 60.45 17.00  85.18 2973.29
   23:08:28.214.09-May-2021 4503.01 2513.30 60.46 17.00  85.38 2973.29
   23:08:28.414.09-May-2021 4503.01 2519.24 60.46 17.00  85.58 2973.29
   23:08:28.614.09-May-2021 4503.01 2527.11 60.46 17.00  85.78 2973.29
   23:08:28.814.09-May-2021 4503.01 2534.13 60.46 17.00  85.98 2973.29
   23:08:29.014.09-May-2021 4503.01 2534.13 60.46 17.00  86.18 2973.29
   23:08:29.214.09-May-2021 4503.01 2547.81 60.46 17.00  86.38 2973.29
   23:08:29.414.09-May-2021 4503.01 2556.00 60.46 17.00  86.58 2973.29
   23:08:29.614.09-May-2021 4503.01 2563.31 60.46 17.00  86.78 2973.29
   23:08:29.814.09-May-2021 4503.01 2570.26 60.46 17.00  86.98 2973.29
   23:08:30.014.09-May-2021 4503.01 2570.26 60.46 17.00  87.18 2973.29
   23:08:30.214.09-May-2021 4503.01 2584.07 60.46 17.00  87.38 2973.29
   23:08:30.414.09-May-2021 4503.01 2591.47 60.46 17.00  87.58 2973.29
   23:08:30.614.09-May-2021 4503.01 2598.68 60.46 17.00  87.78 2973.29
   23:08:30.814.09-May-2021 4503.01 2604.95 60.46 17.00  87.98 2973.29
   23:08:31.014.09-May-2021 4503.01 2604.95 60.46 17.00  88.18 2973.29
   23:08:31.214.09-May-2021 4503.01 2612.39 60.46 17.00  88.38 2973.29
   23:08:31.414.09-May-2021 4503.01 2626.34 60.46 17.00  88.58 2973.29
   23:08:31.613.09-May-2021 4503.01 2632.73 60.46 17.00  88.78 2973.29
   23:08:31.813.09-May-2021 4503.01 2639.14 60.46 17.00  88.98 2973.29
   23:08:32.013.09-May-2021 4503.01 2639.14 60.46 17.00  89.18 2973.29
   23:08:32.213.09-May-2021 4503.01 2651.63 60.46 17.00  89.38 2973.29
   23:08:32.413.09-May-2021 4503.01 2657.80 60.46 17.00  89.58 2973.29
   23:08:32.613.09-May-2021 4503.01 2663.98 60.46 17.00  89.78 2973.29
   23:08:32.813.09-May-2021 4503.01 2670.25 60.46 17.00  89.98 2973.29
   23:08:33.013.09-May-2021 4503.01 2670.25 60.46 17.00  90.18 2973.29
