~Version Information
 VERS.                  2.0:   CWLS log ASCII Standard -VERSION 2.0
 WRAP.                   NO:   One line per depth step
~Well Information Block
#MNEM.UNIT     VALUE/NAME     DESCRIPTION
#---------     -----------    ---------------------------
 STRT.S             23:07:02 09-May-21: START TIME 23:07:02 09-May-21
 STOP.S             23:13:42 09-May-21: STOP TIME  23:13:42 09-May-21
 STEP.S                   0.00: STEP TIME
 NULL.                 -999.25: NULL VALUE
 PROV.                    Baku:  PROVINCE
 STAT.                    Baku:  STATE NAME
 SON .        AZ-XX-0906571588:  JOB NUMBER
 WTYP.                Deviated:  WELL TYPE
 COMP.     BP Exploration (Caspian Sea) ltd:  COMPANY
 BASE.              Azerbaijan:  LOGGING EQUIPMENT BASE LOCATION
 REGN.                   EESSA:  REGION
 CTRY.              Azerbaijan:  COUNTRY NAME
 FLD .                     ACG:  FIELD NAME
 WELL.                     J28:  WELL NAME
 RIG .             West Chirag:  RIG NAME
 DMF .             Drill Floor:  DRILL MEAS FROM
 PDAT.       Caspian Sea Level:  PERMANENT DATUM
 HPTY.       Minimum Curvature:  HOLE POS TYPE
 MDS .        Operator Entered:  MAG DATA SOURCE
 NREF.                    Grid:  NORTH REFERENCE
 SRVC.          TURAN DRILLING:  CONTRACTOR
 JOBN.        AZ-XX-0906571588:  JOB TICKET NUMB
 DCON.     Halliburton Sperry Drilling:  DIRECTNL CONTR
 STIM.      00.44.00 11-Feb-21:  START TIME
 DATE.      00.00.00 05-May-21:  END TIME
 SPUD.               13-Feb-21:  SPUD DATE
 MWDS.                    Baku:  MWD SHOP
 DOE .                     N/A:  DOE NUMBER
 UNIT.                     N/A:  LOGGING EQUIPMENT ID
 UWI .                     N/A:  UNIQUE WELL IDENTIFIER
 API .                     N/A:  API NUMBER
 CNTY.                        :  COUNTY
 LOC .                        :  LOCATION
 LMF .             Drill Floor:  LOG MEASURED FROM
 TVDS.m                  43.00:  TVDSS CORRECTN
 SDEP.m                 341.00:  START DEPTH
 EGL .m                   0.00:  GROUND ELEVATION
 WDMS.m                 169.80:  WD ELEV
 AGAP.m                  43.00:  AIR GAP
 EPD .m                   0.00:  ELEVATION
 APD .m                  43.00:  DEPTH ABOVE PD
 LATI.deg                40.13:  LATITUDE
 LONG.deg                51.22:  LONGITUDE
 UTMY.m             4443793.85:  UTM Y
 UTMX.m              519005.06:  UTM X
 WHEW.m                 -11.57:  WELL HEAD E/W
 WHNS.m                   8.57:  WELL HEAD N/S
 VSEW.m                 -11.57:  VERT SEC E/W
 VSNS.m                   8.57:  VERT SEC N/S
 DFWL.m                   0.00:  DISTANCE FWL
 DFSL.m                   0.00:  DISTANCE FSL
 VSDR.deg               299.34:  VERT SEC DIRECT
 GVFD.g                   1.00:  GRAVITY FIELD
 AZTC.deg                 6.36:  AZM TOTAL CORR
 MFLD.nT              50391.00:  MAGNETIC FIELD
 MDIP.deg                59.65:  MAGNETIC DIP
 MDEC.deg                 6.48:  MAGNETIC DECL
 GRDC.deg                 0.12:  GRID CORRECTION
 DEP .m                 334.96:  DEPTH
 TDD .m                1407.26:  TOTAL DEPTH (DRILLER)
 EKB .m                  43.00:  KB ELEVATION
 EDF .m                  43.00:  DF ELEVATION
 TDL .m                 228.00:  TOTAL DEPTH (LOGGER)
 VSC .                       0:  VS TO CLOSURE
 MAGU.                 1854484:  MAGUTM CHECKSUM
~Parameter Information Block
#MNEM.UNIT       Value        Description
#---------     -----------    ---------------------------
 AV  .mps                 4.00:  Ann Velocity 
 AVMX.mps                 4.73:  Max Ann Veloc 
 AZIF.deg               304.48:  Azm, Final 
 BHAT.        Rotary Steerable:  BHA Type 
 BREV.rev            257300.00:  Rev Bit Total 
 BROT.°/30m               0.00:  Build Rotating 
 BS  .in                  8.50:  Bit Size 
 BSZ .in                  8.50:  Bit Size 
 BTPL.psig              589.00:  Bit Press Loss 
 CABU.                      No:  Customer Abuse 
 CGEO.          Mubariz ghayev:  Customer Geo 
 COMM.                     d:  Run Comments 1 
 TCS .hr                 64.25:  Time Ciculation Ended 
 CV  .mps                 3.50:  Crit Velocity 
 CVMX.mps                 4.52:  Max Crit Veloc 
 DD1 .             Aziz Aliyev:  Direct Drillr 1 
 DD2 .         Intigam Rahimov:  Direct Drillr 2 
 DD3 .          Rashad Habibov:  Direct Drillr 3 
 DDSV.               Geo-Pilot:  DD Service 
 DEFF.%                  98.00:  % Det Eff 
 DLRX.°/30m               0.00:  Dogleg Rot Max 
 DLSO.°/30m               0.00:  Dogleg Oriented 
 DLSX.°/30m               0.00:  Dogleg Str Max 
 DRET.      10.45.04 08-May-21:  Drill End Time 
 DRST.      03.30.04 04-May-21:  Drill Start Tim 
 DTIM.hr                 14.97:  Time Drilling 
 EDEP.m                4640.01:  End Depth 
 ENG1.         Dail Mahammadov:  Engineer 1 
 ENG2.           Eldar Hajiyev:  Engineer 2 
 ENG3.       Bakhtiar Jabbarli:  Engineer 3 
 ENG4.       Natik Hasanagayev:  Engineer 4 
 ETIM.      09.30.04 14-May-21:  End Time 
 FLOI.gpm               460.00:  Flow In 
 FLON.gpm               200.00:  Flow In Min 
 FLOS.cptm                0.00:  Fluid Loss 
 FLOX.gpm               505.00:  Flow In Max 
 HFLO.                      No:  High Flow 
 HPRE.                      No:  High Pressure 
 HTEM.                      No:  High Temp 
 HYDO.m                   1.80:  Hydro Offset 
 IFIN.deg                66.71:  Inc, Final 
 IMAX.deg                67.03:  Inc Max 
 IMIN.deg                66.63:  Inc Min 
 IMND.m                4550.58:  Inc Min Depth 
 IMXD.m                4439.01:  Inc Max Depth 
 JARR.                      No:  Jarring 
 LETM.      10.45.04 08-May-21:  Log End Time 
 LOST.hr                     0:  Lost Rig Time 
 LSTM.      03.30.04 04-May-21:  Log Start Time 
 MDCL.ppm             37000.00:  Mud Chlorides 
 MDES.     Inversion Oil/Synthetic:  Mud Desc 
 DFD .sg                  1.38:  Mud Density 
 MDMN.sg                  1.35:  Dens Mud Min 
 MDMX.sg                  1.40:  Dens Mud Max 
 MOIL.                   57.40:  Run Mud Oil % 
 MOWR.                   70:30:  Run Mud OWR 
 MSND.                    0.00:  Run Mud Sand % 
 MSOL.                   18.00:  Run Mud Solids% 
 DFV .spqt               71.00:  Mud Viscosity 
 MWOD.in                  6.75:  MWD Tool OD 
 MWSI.                      No:  Serv Intrp, MWD 
 OTIM.hr                242.76:  Time Operating 
 PCON.           Look Like New:  Pad Condition 
 PMAX.psia            12183.92:  Press Op, Max 
 PV  .cP                 27.00:  Mud PV 
 RUN .                    1300:  Run Number 
 ROPA.m/hr               15.00:  ROP Avg 
 ROPN.m/hr                9.00:  ROP Min 
 ROPX.m/hr               19.00:  ROP Max 
 RPMA.rpm               120.00:  RPM Surface Avg 
 RPMN.rpm               100.00:  RPM Surface Min 
 RPMX.rpm               120.00:  RPM Surface Max 
 RRUN.                    1300:  Rig Run Number 
 RTIM.hr                  5.00:  Time Reaming 
 SAZI.deg               304.73:  Azm, Start 
 SDEP.m                4412.01:  Start Depth 
 SIDD.                      No:  Serv Intrp, DD 
 SINC.deg                66.82:  Inc, Start 
 SPPA.psig             2800.00:  SPP Avg 
 SPPN.psig             2610.00:  SPP Min 
 SPPX.psig             3100.00:  SPP Max 
 STIM.      03.30.00 04-May-21:  Start Time 
 SVCS.                 DD, MWD:  Services 
 SVER.                    9.20:  Sperry Version 
 TDAT.m                 228.00:  Tot Depth Attmp 
 TDDF.                      No:  Trip for DD 
 TDLG.m                 228.00:  Tot Depth Loggd 
 TFF .                      No:  Trip for Fail 
 TQAA.f-kp               15.00:  Torque Abs Avg 
 TQAN.f-kp               12.00:  Torque Abs Min 
 TQAX.f-kp               22.00:  Torque Abs Max 
 TRRT.°/30m               0.00:  Turn Rotating 
 MRT .                    HCIM:  Maximum Recorded Temperature 
 TTMX.degC               90.20:  Max Tool Temp 
 VS01.                90627813:  Virtual Str1 SN 
 VS02.                90634712:  Virtual Str2 SN 
 VS03.                90643410:  Virtual Str3 SN 
 VS04.                90634712:  Virtual Str4 SN 
 WBMN.klb                 9.00:  WOB Min 
 WITN.        Elmaddin Rahimov:  Customer Rep 
 WITN.         Haytham Mostafa:  Customer Rep 2 
 WOBA.klb                15.00:  WOB Avg 
 WOBX.klb                23.00:  WOB Max 
 YP  .lhf2               29.00:  Yield Point 
~Curve Information Block
#MNEM.UNIT                 API CODE     Curve Description
#---------               -----------    ---------------------------
 TIME.HHMMSS            00 000 000 000:  GT Time & Date
 GTDEPTH.m              00 000 000 000:  GT Depth
 GTPQH.psia             00 000 000 000:  GT HR Quartz Pressure
 GTTQ.degC              00 000 000 000:  GT Quartz Temperature
 GTTN.NONE              00 000 000 000:  GT Test Number
 GTET.sec               00 000 000 000:  GT Elapsed Test Time
 GTTVD.m                00 000 000 000:  GT True Vertical Depth
#Other Information
#
#WARRANTY: Halliburton will use its best efforts to furnish customers with 
#accurate information and interpretations that are part of, and incident to, the services 
#provided.  However, Halliburton cannot and does not warrant the accuracy 
#or correctness of such information and interpretations.  Under no circumstances should any 
#such information or interpretation be relied upon as the sole basis for any drilling, 
#completion, production, or financial decision or any procedure involving any risk to the 
#safety of any drilling venture, drilling rig or its crew or any other third party.  The 
#Customer has full responsibility for all drilling, completion and production operation.  
#Halliburton makes no representations or warranties, either expressed or 
#implied, including, but not limited to, the implied warranties of merchantability or fitness 
#for a particular purpose, with respect to the services rendered.  In no event will 
#Halliburton be liable for failure to obtain any particular results or for 
#any damages, including, but not limited to, indirect, special or consequential damages, 
#resulting from the use of any information or interpretation provided by Halliburton.
#
~A           TIME           GTDEPTH  GTPQH  GTTQ  GTTN   GTET   GTTVD  
# ...
   23:11:11.372.09-May-2021 4503.01 2090.16 60.42 17.00 248.54 2973.29
   23:11:11.572.09-May-2021 4503.01 2093.16 60.42 17.00 248.74 2973.29
   23:11:11.772.09-May-2021 4503.01 2106.22 60.42 17.00 248.94 2973.29
   23:11:11.972.09-May-2021 4503.01 2106.22 60.42 17.00 249.14 2973.29
   23:11:12.172.09-May-2021 4503.01 2110.21 60.42 17.00 249.33 2973.29
   23:11:12.372.09-May-2021 4503.01 2112.88 60.42 17.00 249.53 2973.29
   23:11:12.571.09-May-2021 4503.01 2114.73 60.42 17.00 249.73 2973.29
   23:11:12.771.09-May-2021 4503.01 2117.13 60.42 17.00 249.93 2973.29
   23:11:12.971.09-May-2021 4503.01 2117.13 60.42 17.00 250.13 2973.29
   23:11:13.171.09-May-2021 4503.01 2120.95 60.42 17.00 250.33 2973.29
   23:11:13.371.09-May-2021 4503.01 2123.57 60.42 17.00 250.53 2973.29
   23:11:13.571.09-May-2021 4503.01 2125.67 60.42 17.00 250.73 2973.29
   23:11:13.771.09-May-2021 4503.01 2128.19 60.42 17.00 250.93 2973.29
   23:11:13.971.09-May-2021 4503.01 2128.19 60.42 17.00 251.13 2973.29
   23:11:14.171.09-May-2021 4503.01 2132.48 60.42 17.00 251.33 2973.29
   23:11:14.371.09-May-2021 4503.01 2134.68 60.42 17.00 251.53 2973.29
   23:11:14.571.09-May-2021 4503.01 2136.84 60.42 17.00 251.73 2973.29
   23:11:14.771.09-May-2021 4503.01 2139.00 60.42 17.00 251.93 2973.29
   23:11:14.971.09-May-2021 4503.01 2139.00 60.42 17.00 252.13 2973.29
   23:11:15.171.09-May-2021 4503.01 2143.21 60.42 17.00 252.33 2973.29
   23:11:15.371.09-May-2021 4503.01 2145.31 60.42 17.00 252.53 2973.29
   23:11:15.571.09-May-2021 4503.01 2147.39 60.42 17.00 252.73 2973.29
   23:11:15.771.09-May-2021 4503.01 2149.08 60.42 17.00 252.93 2973.29
   23:11:15.971.09-May-2021 4503.01 2149.08 60.42 17.00 253.13 2973.29
   23:11:16.171.09-May-2021 4503.01 2153.52 60.42 17.00 253.33 2973.29
   23:11:16.371.09-May-2021 4503.01 2155.85 60.42 17.00 253.53 2973.29
   23:11:16.570.09-May-2021 4503.01 2157.71 60.42 17.00 253.73 2973.29
   23:11:16.770.09-May-2021 4503.01 2159.82 60.42 17.00 253.93 2973.29
   23:11:16.970.09-May-2021 4503.01 2159.82 60.42 17.00 254.13 2973.29
   23:11:17.170.09-May-2021 4503.01 2163.96 60.42 17.00 254.33 2973.29
   23:11:17.370.09-May-2021 4503.01 2166.05 60.42 17.00 254.53 2973.29
   23:11:17.570.09-May-2021 4503.01 2168.07 60.42 17.00 254.73 2973.29
   23:11:17.770.09-May-2021 4503.01 2170.10 60.42 17.00 254.93 2973.29
   23:11:17.970.09-May-2021 4503.01 2170.10 60.42 17.00 255.13 2973.29
   23:11:18.170.09-May-2021 4503.01 2174.17 60.42 17.00 255.33 2973.29
   23:11:18.370.09-May-2021 4503.01 2175.65 60.42 17.00 255.53 2973.29
   23:11:18.570.09-May-2021 4503.01 2077.28 60.42 17.00 255.73 2973.29
   23:11:18.770.09-May-2021 4503.01 1370.31 60.42 17.00 255.93 2973.29
   23:11:18.970.09-May-2021 4503.01 1370.31 60.42 17.00 256.13 2973.29
   23:11:19.170.09-May-2021 4503.01  504.69 60.42 17.00 256.33 2973.29
   23:11:19.370.09-May-2021 4503.01  475.53 60.42 17.00 256.53 2973.29
   23:11:19.570.09-May-2021 4503.01  458.41 60.42 17.00 256.73 2973.29
   23:11:19.770.09-May-2021 4503.01  438.10 60.42 17.00 256.93 2973.29
   23:11:19.970.09-May-2021 4503.01  438.10 60.42 17.00 257.13 2973.29
   23:11:20.170.09-May-2021 4503.01  436.14 60.42 17.00 257.33 2973.29
   23:11:20.369.09-May-2021 4503.01  436.21 60.42 17.00 257.53 2973.29
   23:11:20.569.09-May-2021 4503.01  433.77 60.42 17.00 257.73 2973.29
   23:11:20.769.09-May-2021 4503.01  433.54 60.42 17.00 257.93 2973.29
   23:11:20.969.09-May-2021 4503.01  433.54 60.42 17.00 258.13 2973.29
   23:11:21.169.09-May-2021 4503.01  431.02 60.42 17.00 258.33 2973.29
   23:11:21.369.09-May-2021 4503.01  430.28 60.41 17.00 258.53 2973.29
   23:11:21.569.09-May-2021 4503.01  425.74 60.41 17.00 258.73 2973.29
   23:11:21.769.09-May-2021 4503.01  420.84 60.41 17.00 258.93 2973.29
   23:11:21.969.09-May-2021 4503.01  420.84 60.41 17.00 259.13 2973.29
   23:11:22.169.09-May-2021 4503.01  417.81 60.41 17.00 259.33 2973.29
   23:11:22.369.09-May-2021 4503.01  417.07 60.41 17.00 259.53 2973.29
   23:11:22.569.09-May-2021 4503.01  415.32 60.41 17.00 259.73 2973.29
   23:11:22.769.09-May-2021 4503.01  412.27 60.40 17.00 259.93 2973.29
   23:11:22.969.09-May-2021 4503.01  412.27 60.40 17.00 260.13 2973.29
   23:11:23.169.09-May-2021 4503.01  410.12 60.40 17.00 260.33 2973.29
   23:11:23.369.09-May-2021 4503.01  411.01 60.40 17.00 260.53 2973.29
   23:11:23.569.09-May-2021 4503.01  412.65 60.40 17.00 260.73 2973.29
   23:11:23.769.09-May-2021 4503.01  412.95 60.40 17.00 260.93 2973.29
   23:11:23.969.09-May-2021 4503.01  412.95 60.40 17.00 261.13 2973.29
   23:11:24.168.09-May-2021 4503.01  414.47 60.40 17.00 261.33 2973.29
   23:11:24.368.09-May-2021 4503.01  413.41 60.40 17.00 261.53 2973.29
   23:11:24.568.09-May-2021 4503.01  411.24 60.39 17.00 261.73 2973.29
   23:11:24.768.09-May-2021 4503.01  411.48 60.39 17.00 261.93 2973.29
   23:11:24.968.09-May-2021 4503.01  411.48 60.39 17.00 262.13 2973.29
   23:11:25.168.09-May-2021 4503.01  408.29 60.39 17.00 262.33 2973.29
   23:11:25.368.09-May-2021 4503.01  405.60 60.39 17.00 262.53 2973.29
   23:11:25.568.09-May-2021 4503.01  402.84 60.39 17.00 262.73 2973.29
   23:11:25.768.09-May-2021 4503.01  404.78 60.39 17.00 262.93 2973.29
   23:11:25.968.09-May-2021 4503.01  404.78 60.39 17.00 263.13 2973.29
   23:11:26.168.09-May-2021 4503.01  410.91 60.39 17.00 263.33 2973.29
   23:11:26.368.09-May-2021 4503.01  412.37 60.39 17.00 263.53 2973.29
   23:11:26.568.09-May-2021 4503.01  414.31 60.39 17.00 263.73 2973.29
   23:11:26.768.09-May-2021 4503.01  415.08 60.38 17.00 263.93 2973.29
   23:11:26.968.09-May-2021 4503.01  415.08 60.38 17.00 264.13 2973.29
   23:11:27.168.09-May-2021 4503.01  418.51 60.38 17.00 264.33 2973.29
   23:11:27.368.09-May-2021 4503.01  419.56 60.38 17.00 264.53 2973.29
   23:11:27.568.09-May-2021 4503.01  418.12 60.38 17.00 264.73 2973.29
   23:11:27.768.09-May-2021 4503.01  418.49 60.38 17.00 264.93 2973.29
   23:11:27.967.09-May-2021 4503.01  418.49 60.38 17.00 265.13 2973.29
   23:11:28.167.09-May-2021 4503.01  417.05 60.38 17.00 265.33 2973.29
   23:11:28.367.09-May-2021 4503.01  416.46 60.38 17.00 265.53 2973.29
   23:11:28.567.09-May-2021 4503.01  415.27 60.38 17.00 265.73 2973.29
   23:11:28.767.09-May-2021 4503.01  417.06 60.38 17.00 265.93 2973.29
   23:11:28.967.09-May-2021 4503.01  417.06 60.38 17.00 266.13 2973.29
   23:11:29.167.09-May-2021 4503.01  428.67 60.38 17.00 266.33 2973.29
   23:11:29.367.09-May-2021 4503.01  431.89 60.38 17.00 266.53 2973.29
   23:11:29.567.09-May-2021 4503.01  435.09 60.38 17.00 266.73 2973.29
   23:11:29.767.09-May-2021 4503.01  438.22 60.38 17.00 266.93 2973.29
   23:11:29.967.09-May-2021 4503.01  438.22 60.38 17.00 267.13 2973.29
   23:11:30.167.09-May-2021 4503.01  444.41 60.38 17.00 267.33 2973.29
   23:11:30.367.09-May-2021 4503.01  447.49 60.38 17.00 267.53 2973.29
   23:11:30.567.09-May-2021 4503.01  450.51 60.38 17.00 267.73 2973.29
   23:11:30.767.09-May-2021 4503.01  453.27 60.38 17.00 267.93 2973.29
   23:11:30.967.09-May-2021 4503.01  453.27 60.38 17.00 268.13 2973.29
   23:11:31.167.09-May-2021 4503.01  459.86 60.38 17.00 268.33 2973.29
   23:11:31.367.09-May-2021 4503.01  463.05 60.37 17.00 268.53 2973.29
   23:11:31.567.09-May-2021 4503.01  465.83 60.37 17.00 268.73 2973.29
   23:11:31.766.09-May-2021 4503.01  468.79 60.37 17.00 268.93 2973.29
   23:11:31.966.09-May-2021 4503.01  468.79 60.37 17.00 269.13 2973.29
   23:11:32.166.09-May-2021 4503.01  474.61 60.37 17.00 269.33 2973.29
   23:11:32.366.09-May-2021 4503.01  477.53 60.37 17.00 269.53 2973.29
   23:11:32.566.09-May-2021 4503.01  480.47 60.37 17.00 269.73 2973.29
   23:11:32.766.09-May-2021 4503.01  483.33 60.37 17.00 269.93 2973.29
   23:11:32.966.09-May-2021 4503.01  483.33 60.37 17.00 270.13 2973.29
   23:11:33.166.09-May-2021 4503.01  489.05 60.37 17.00 270.33 2973.29
   23:11:33.366.09-May-2021 4503.01  491.48 60.37 17.00 270.53 2973.29
   23:11:33.566.09-May-2021 4503.01  494.97 60.37 17.00 270.73 2973.29
   23:11:33.766.09-May-2021 4503.01  497.46 60.37 17.00 270.93 2973.29
