~Version Information
 VERS.                  2.0:   CWLS log ASCII Standard -VERSION 2.0
 WRAP.                   NO:   One line per depth step
~Well Information Block
#MNEM.UNIT     VALUE/NAME     DESCRIPTION
#---------     -----------    ---------------------------
 STRT.S             00:47:21 09-May-21: START TIME 00:47:21 09-May-21
 STOP.S             00:54:19 09-May-21: STOP TIME  00:54:19 09-May-21
 STEP.S                   0.00: STEP TIME
 NULL.                 -999.25: NULL VALUE
 PROV.                    Baku:  PROVINCE
 STAT.                    Baku:  STATE NAME
 SON .        AZ-XX-0906571588:  JOB NUMBER
 WTYP.                Deviated:  WELL TYPE
 COMP.     BP Exploration (Caspian Sea) ltd:  COMPANY
 BASE.              Azerbaijan:  LOGGING EQUIPMENT BASE LOCATION
 REGN.                   EESSA:  REGION
 CTRY.              Azerbaijan:  COUNTRY NAME
 FLD .                     ACG:  FIELD NAME
 WELL.                     J28:  WELL NAME
 RIG .             West Chirag:  RIG NAME
 DMF .             Drill Floor:  DRILL MEAS FROM
 PDAT.       Caspian Sea Level:  PERMANENT DATUM
 HPTY.       Minimum Curvature:  HOLE POS TYPE
 MDS .        Operator Entered:  MAG DATA SOURCE
 NREF.                    Grid:  NORTH REFERENCE
 SRVC.          TURAN DRILLING:  CONTRACTOR
 JOBN.        AZ-XX-0906571588:  JOB TICKET NUMB
 DCON.     Halliburton Sperry Drilling:  DIRECTNL CONTR
 STIM.      00.44.00 11-Feb-21:  START TIME
 DATE.      00.00.00 05-May-21:  END TIME
 SPUD.               13-Feb-21:  SPUD DATE
 MWDS.                    Baku:  MWD SHOP
 DOE .                     N/A:  DOE NUMBER
 UNIT.                     N/A:  LOGGING EQUIPMENT ID
 UWI .                     N/A:  UNIQUE WELL IDENTIFIER
 API .                     N/A:  API NUMBER
 CNTY.                        :  COUNTY
 LOC .                        :  LOCATION
 LMF .             Drill Floor:  LOG MEASURED FROM
 TVDS.m                  43.00:  TVDSS CORRECTN
 SDEP.m                 341.00:  START DEPTH
 EGL .m                   0.00:  GROUND ELEVATION
 WDMS.m                 169.80:  WD ELEV
 AGAP.m                  43.00:  AIR GAP
 EPD .m                   0.00:  ELEVATION
 APD .m                  43.00:  DEPTH ABOVE PD
 LATI.deg                40.13:  LATITUDE
 LONG.deg                51.22:  LONGITUDE
 UTMY.m             4443793.85:  UTM Y
 UTMX.m              519005.06:  UTM X
 WHEW.m                 -11.57:  WELL HEAD E/W
 WHNS.m                   8.57:  WELL HEAD N/S
 VSEW.m                 -11.57:  VERT SEC E/W
 VSNS.m                   8.57:  VERT SEC N/S
 DFWL.m                   0.00:  DISTANCE FWL
 DFSL.m                   0.00:  DISTANCE FSL
 VSDR.deg               299.34:  VERT SEC DIRECT
 GVFD.g                   1.00:  GRAVITY FIELD
 AZTC.deg                 6.36:  AZM TOTAL CORR
 MFLD.nT              50391.00:  MAGNETIC FIELD
 MDIP.deg                59.65:  MAGNETIC DIP
 MDEC.deg                 6.48:  MAGNETIC DECL
 GRDC.deg                 0.12:  GRID CORRECTION
 DEP .m                 334.96:  DEPTH
 TDD .m                1407.26:  TOTAL DEPTH (DRILLER)
 EKB .m                  43.00:  KB ELEVATION
 EDF .m                  43.00:  DF ELEVATION
 TDL .m                 228.00:  TOTAL DEPTH (LOGGER)
 VSC .                       0:  VS TO CLOSURE
 MAGU.                 1854484:  MAGUTM CHECKSUM
~Parameter Information Block
#MNEM.UNIT       Value        Description
#---------     -----------    ---------------------------
 AV  .mps                 4.00:  Ann Velocity 
 AVMX.mps                 4.73:  Max Ann Veloc 
 AZIF.deg               304.48:  Azm, Final 
 BHAT.        Rotary Steerable:  BHA Type 
 BREV.rev            257300.00:  Rev Bit Total 
 BROT.°/30m               0.00:  Build Rotating 
 BS  .in                  8.50:  Bit Size 
 BSZ .in                  8.50:  Bit Size 
 BTPL.psig              589.00:  Bit Press Loss 
 CABU.                      No:  Customer Abuse 
 CGEO.          Mubariz ghayev:  Customer Geo 
 COMM.                     ­R:  Run Comments 1 
 TCS .hr                 64.25:  Time Ciculation Ended 
 CV  .mps                 3.50:  Crit Velocity 
 CVMX.mps                 4.52:  Max Crit Veloc 
 DD1 .             Aziz Aliyev:  Direct Drillr 1 
 DD2 .         Intigam Rahimov:  Direct Drillr 2 
 DD3 .          Rashad Habibov:  Direct Drillr 3 
 DDSV.               Geo-Pilot:  DD Service 
 DEFF.%                  98.00:  % Det Eff 
 DLRX.°/30m               0.00:  Dogleg Rot Max 
 DLSO.°/30m               0.00:  Dogleg Oriented 
 DLSX.°/30m               0.00:  Dogleg Str Max 
 DRET.      10.45.04 08-May-21:  Drill End Time 
 DRST.      03.30.04 04-May-21:  Drill Start Tim 
 DTIM.hr                 14.97:  Time Drilling 
 EDEP.m                4640.01:  End Depth 
 ENG1.         Dail Mahammadov:  Engineer 1 
 ENG2.           Eldar Hajiyev:  Engineer 2 
 ENG3.       Bakhtiar Jabbarli:  Engineer 3 
 ENG4.       Natik Hasanagayev:  Engineer 4 
 ETIM.      09.30.04 14-May-21:  End Time 
 FLOI.gpm               460.00:  Flow In 
 FLON.gpm               200.00:  Flow In Min 
 FLOS.cptm                0.00:  Fluid Loss 
 FLOX.gpm               505.00:  Flow In Max 
 HFLO.                      No:  High Flow 
 HPRE.                      No:  High Pressure 
 HTEM.                      No:  High Temp 
 HYDO.m                   1.80:  Hydro Offset 
 IFIN.deg                66.71:  Inc, Final 
 IMAX.deg                67.03:  Inc Max 
 IMIN.deg                66.63:  Inc Min 
 IMND.m                4550.58:  Inc Min Depth 
 IMXD.m                4439.01:  Inc Max Depth 
 JARR.                      No:  Jarring 
 LETM.      10.45.04 08-May-21:  Log End Time 
 LOST.hr                     0:  Lost Rig Time 
 LSTM.      03.30.04 04-May-21:  Log Start Time 
 MDCL.ppm             37000.00:  Mud Chlorides 
 MDES.     Inversion Oil/Synthetic:  Mud Desc 
 DFD .sg                  1.38:  Mud Density 
 MDMN.sg                  1.35:  Dens Mud Min 
 MDMX.sg                  1.40:  Dens Mud Max 
 MOIL.                   57.40:  Run Mud Oil % 
 MOWR.                   70:30:  Run Mud OWR 
 MSND.                    0.00:  Run Mud Sand % 
 MSOL.                   18.00:  Run Mud Solids% 
 DFV .spqt               71.00:  Mud Viscosity 
 MWOD.in                  6.75:  MWD Tool OD 
 MWSI.                      No:  Serv Intrp, MWD 
 OTIM.hr                242.76:  Time Operating 
 PCON.           Look Like New:  Pad Condition 
 PMAX.psia            12183.92:  Press Op, Max 
 PV  .cP                 27.00:  Mud PV 
 RUN .                    1300:  Run Number 
 ROPA.m/hr               15.00:  ROP Avg 
 ROPN.m/hr                9.00:  ROP Min 
 ROPX.m/hr               19.00:  ROP Max 
 RPMA.rpm               120.00:  RPM Surface Avg 
 RPMN.rpm               100.00:  RPM Surface Min 
 RPMX.rpm               120.00:  RPM Surface Max 
 RRUN.                    1300:  Rig Run Number 
 RTIM.hr                  5.00:  Time Reaming 
 SAZI.deg               304.73:  Azm, Start 
 SDEP.m                4412.01:  Start Depth 
 SIDD.                      No:  Serv Intrp, DD 
 SINC.deg                66.82:  Inc, Start 
 SPPA.psig             2800.00:  SPP Avg 
 SPPN.psig             2610.00:  SPP Min 
 SPPX.psig             3100.00:  SPP Max 
 STIM.      03.30.00 04-May-21:  Start Time 
 SVCS.                 DD, MWD:  Services 
 SVER.                    9.20:  Sperry Version 
 TDAT.m                 228.00:  Tot Depth Attmp 
 TDDF.                      No:  Trip for DD 
 TDLG.m                 228.00:  Tot Depth Loggd 
 TFF .                      No:  Trip for Fail 
 TQAA.f-kp               15.00:  Torque Abs Avg 
 TQAN.f-kp               12.00:  Torque Abs Min 
 TQAX.f-kp               22.00:  Torque Abs Max 
 TRRT.°/30m               0.00:  Turn Rotating 
 MRT .                    HCIM:  Maximum Recorded Temperature 
 TTMX.degC               90.20:  Max Tool Temp 
 VS01.                90627813:  Virtual Str1 SN 
 VS02.                90634712:  Virtual Str2 SN 
 VS03.                90643410:  Virtual Str3 SN 
 VS04.                90634712:  Virtual Str4 SN 
 WBMN.klb                 9.00:  WOB Min 
 WITN.        Elmaddin Rahimov:  Customer Rep 
 WITN.         Haytham Mostafa:  Customer Rep 2 
 WOBA.klb                15.00:  WOB Avg 
 WOBX.klb                23.00:  WOB Max 
 YP  .lhf2               29.00:  Yield Point 
~Curve Information Block
#MNEM.UNIT                 API CODE     Curve Description
#---------               -----------    ---------------------------
 TIME.HHMMSS            00 000 000 000:  GT Time & Date
 GTDEPTH.m              00 000 000 000:  GT Depth
 GTPQH.psia             00 000 000 000:  GT HR Quartz Pressure
 GTTQ.degC              00 000 000 000:  GT Quartz Temperature
 GTTN.NONE              00 000 000 000:  GT Test Number
 GTET.sec               00 000 000 000:  GT Elapsed Test Time
 GTTVD.m                00 000 000 000:  GT True Vertical Depth
#Other Information
#
#WARRANTY: Halliburton will use its best efforts to furnish customers with 
#accurate information and interpretations that are part of, and incident to, the services 
#provided.  However, Halliburton cannot and does not warrant the accuracy 
#or correctness of such information and interpretations.  Under no circumstances should any 
#such information or interpretation be relied upon as the sole basis for any drilling, 
#completion, production, or financial decision or any procedure involving any risk to the 
#safety of any drilling venture, drilling rig or its crew or any other third party.  The 
#Customer has full responsibility for all drilling, completion and production operation.  
#Halliburton makes no representations or warranties, either expressed or 
#implied, including, but not limited to, the implied warranties of merchantability or fitness 
#for a particular purpose, with respect to the services rendered.  In no event will 
#Halliburton be liable for failure to obtain any particular results or for 
#any damages, including, but not limited to, indirect, special or consequential damages, 
#resulting from the use of any information or interpretation provided by Halliburton.
#
~A           TIME           GTDEPTH  GTPQH  GTTQ  GTTN  GTET   GTTVD  
# ...
   00:49:39.277.09-May-2021 4512.01 3259.76 67.55 8.00 138.05 2976.83
   00:49:39.477.09-May-2021 4512.01 3259.76 67.55 8.00 138.25 2976.83
   00:49:39.677.09-May-2021 4512.01 3259.91 67.55 8.00 138.45 2976.83
   00:49:39.877.09-May-2021 4512.01 3260.03 67.55 8.00 138.65 2976.83
   00:49:40.077.09-May-2021 4512.01 3259.78 67.55 8.00 138.85 2976.83
   00:49:40.277.09-May-2021 4512.01 3259.89 67.55 8.00 139.05 2976.83
   00:49:40.477.09-May-2021 4512.01 3259.89 67.55 8.00 139.25 2976.83
   00:49:40.677.09-May-2021 4512.01 3259.88 67.55 8.00 139.45 2976.83
   00:49:40.877.09-May-2021 4512.01 3259.88 67.55 8.00 139.65 2976.83
   00:49:41.077.09-May-2021 4512.01 3260.03 67.55 8.00 139.85 2976.83
   00:49:41.277.09-May-2021 4512.01 3259.75 67.55 8.00 140.05 2976.83
   00:49:41.478.09-May-2021 4512.01 3259.75 67.55 8.00 140.25 2976.83
   00:49:41.678.09-May-2021 4512.01 3259.93 67.55 8.00 140.45 2976.83
   00:49:41.878.09-May-2021 4512.01 3259.89 67.55 8.00 140.65 2976.83
   00:49:42.078.09-May-2021 4512.01 3259.90 67.55 8.00 140.85 2976.83
   00:49:42.278.09-May-2021 4512.01 3259.89 67.55 8.00 141.05 2976.83
   00:49:42.478.09-May-2021 4512.01 3259.89 67.55 8.00 141.25 2976.83
   00:49:42.678.09-May-2021 4512.01 3259.91 67.55 8.00 141.45 2976.83
   00:49:42.878.09-May-2021 4512.01 3259.90 67.55 8.00 141.65 2976.83
   00:49:43.078.09-May-2021 4512.01 3259.89 67.55 8.00 141.85 2976.83
   00:49:43.278.09-May-2021 4512.01 3259.87 67.55 8.00 142.05 2976.83
   00:49:43.478.09-May-2021 4512.01 3259.87 67.55 8.00 142.25 2976.83
   00:49:43.678.09-May-2021 4512.01 3260.04 67.55 8.00 142.45 2976.83
   00:49:43.878.09-May-2021 4512.01 3259.78 67.55 8.00 142.65 2976.83
   00:49:44.079.09-May-2021 4512.01 3259.91 67.55 8.00 142.85 2976.83
   00:49:44.279.09-May-2021 4512.01 3259.90 67.55 8.00 143.05 2976.83
   00:49:44.479.09-May-2021 4512.01 3259.90 67.55 8.00 143.25 2976.83
   00:49:44.679.09-May-2021 4512.01 3259.89 67.55 8.00 143.45 2976.83
   00:49:44.879.09-May-2021 4512.01 3259.87 67.55 8.00 143.65 2976.83
   00:49:45.079.09-May-2021 4512.01 3259.91 67.55 8.00 143.85 2976.83
   00:49:45.279.09-May-2021 4512.01 3259.88 67.55 8.00 144.05 2976.83
   00:49:45.479.09-May-2021 4512.01 3259.88 67.55 8.00 144.25 2976.83
   00:49:45.679.09-May-2021 4512.01 3259.89 67.55 8.00 144.45 2976.83
   00:49:45.879.09-May-2021 4512.01 3259.87 67.55 8.00 144.65 2976.83
   00:49:46.079.09-May-2021 4512.01 3259.90 67.55 8.00 144.85 2976.83
   00:49:46.279.09-May-2021 4512.01 3260.02 67.55 8.00 145.05 2976.83
   00:49:46.479.09-May-2021 4512.01 3260.02 67.55 8.00 145.25 2976.83
   00:49:46.679.09-May-2021 4512.01 3259.90 67.55 8.00 145.45 2976.83
   00:49:46.880.09-May-2021 4512.01 3259.92 67.55 8.00 145.65 2976.83
   00:49:47.080.09-May-2021 4512.01 3259.89 67.55 8.00 145.85 2976.83
   00:49:47.280.09-May-2021 4512.01 3259.88 67.55 8.00 146.05 2976.83
   00:49:47.480.09-May-2021 4512.01 3259.88 67.55 8.00 146.25 2976.83
   00:49:47.680.09-May-2021 4512.01 3259.76 67.55 8.00 146.45 2976.83
   00:49:47.880.09-May-2021 4512.01 3259.88 67.55 8.00 146.65 2976.83
   00:49:48.080.09-May-2021 4512.01 3259.92 67.55 8.00 146.85 2976.83
   00:49:48.280.09-May-2021 4512.01 3260.02 67.55 8.00 147.05 2976.83
   00:49:48.480.09-May-2021 4512.01 3260.02 67.55 8.00 147.25 2976.83
   00:49:48.680.09-May-2021 4512.01 3259.88 67.55 8.00 147.45 2976.83
   00:49:48.880.09-May-2021 4512.01 3259.90 67.55 8.00 147.65 2976.83
   00:49:49.080.09-May-2021 4512.01 3258.41 67.55 8.00 147.85 2976.83
   00:49:49.280.09-May-2021 4512.01 3142.40 67.55 8.00 148.05 2976.83
   00:49:49.480.09-May-2021 4512.01 3142.40 67.55 8.00 148.25 2976.83
   00:49:49.681.09-May-2021 4512.01 3094.43 67.55 8.00 148.45 2976.83
   00:49:49.881.09-May-2021 4512.01 3113.49 67.55 8.00 148.65 2976.83
   00:49:50.081.09-May-2021 4512.01 3040.42 67.55 8.00 148.85 2976.83
   00:49:50.281.09-May-2021 4512.01 3029.08 67.55 8.00 149.05 2976.83
   00:49:50.481.09-May-2021 4512.01 3029.08 67.55 8.00 149.25 2976.83
   00:49:50.681.09-May-2021 4512.01 2981.80 67.55 8.00 149.45 2976.83
   00:49:50.881.09-May-2021 4512.01 2968.13 67.55 8.00 149.65 2976.83
   00:49:51.081.09-May-2021 4512.01 2952.21 67.55 8.00 149.85 2976.83
   00:49:51.281.09-May-2021 4512.01 2938.95 67.55 8.00 150.05 2976.83
   00:49:51.481.09-May-2021 4512.01 2938.95 67.55 8.00 150.25 2976.83
   00:49:51.681.09-May-2021 4512.01 2917.48 67.55 8.00 150.45 2976.83
   00:49:51.881.09-May-2021 4512.01 2905.51 67.55 8.00 150.65 2976.83
   00:49:52.081.09-May-2021 4512.01 2894.07 67.55 8.00 150.85 2976.83
   00:49:52.281.09-May-2021 4512.01 2882.49 67.55 8.00 151.05 2976.83
   00:49:52.482.09-May-2021 4512.01 2882.49 67.55 8.00 151.25 2976.83
   00:49:52.682.09-May-2021 4512.01 2856.40 67.55 8.00 151.45 2976.83
   00:49:52.882.09-May-2021 4512.01 2837.84 67.55 8.00 151.65 2976.83
   00:49:53.082.09-May-2021 4512.01 2821.12 67.55 8.00 151.86 2976.83
   00:49:53.282.09-May-2021 4512.01 2810.33 67.55 8.00 152.06 2976.83
   00:49:53.482.09-May-2021 4512.01 2810.33 67.55 8.00 152.26 2976.83
   00:49:53.682.09-May-2021 4512.01 2789.64 67.55 8.00 152.46 2976.83
   00:49:53.882.09-May-2021 4512.01 2783.56 67.55 8.00 152.66 2976.83
   00:49:54.082.09-May-2021 4512.01 2780.77 67.55 8.00 152.86 2976.83
   00:49:54.282.09-May-2021 4512.01 2770.90 67.55 8.00 153.06 2976.83
   00:49:54.482.09-May-2021 4512.01 2770.90 67.55 8.00 153.26 2976.83
   00:49:54.682.09-May-2021 4512.01 2764.73 67.55 8.00 153.46 2976.83
   00:49:54.882.09-May-2021 4512.01 2756.48 67.55 8.00 153.66 2976.83
   00:49:55.083.09-May-2021 4512.01 2747.47 67.55 8.00 153.86 2976.83
   00:49:55.283.09-May-2021 4512.01 2747.84 67.55 8.00 154.06 2976.83
   00:49:55.483.09-May-2021 4512.01 2747.84 67.55 8.00 154.26 2976.83
   00:49:55.683.09-May-2021 4512.01 2736.82 67.55 8.00 154.46 2976.83
   00:49:55.883.09-May-2021 4512.01 2734.98 67.55 8.00 154.66 2976.83
   00:49:56.083.09-May-2021 4512.01 2717.37 67.55 8.00 154.86 2976.83
   00:49:56.283.09-May-2021 4512.01 2717.37 67.55 8.00 155.06 2976.83
   00:49:56.483.09-May-2021 4512.01 2713.73 67.55 8.00 155.26 2976.83
   00:49:56.683.09-May-2021 4512.01 2698.95 67.55 8.00 155.46 2976.83
   00:49:56.883.09-May-2021 4512.01 2691.55 67.55 8.00 155.66 2976.83
   00:49:57.083.09-May-2021 4512.01 2684.36 67.55 8.00 155.86 2976.83
   00:49:57.283.09-May-2021 4512.01 2674.00 67.55 8.00 156.06 2976.83
   00:49:57.483.09-May-2021 4512.01 2674.00 67.55 8.00 156.26 2976.83
   00:49:57.683.09-May-2021 4512.01 2641.06 67.55 8.00 156.46 2976.83
   00:49:57.884.09-May-2021 4512.01 2616.91 67.55 8.00 156.66 2976.83
   00:49:58.084.09-May-2021 4512.01 2525.35 67.55 8.00 156.86 2976.83
   00:49:58.284.09-May-2021 4512.01 2476.46 67.54 8.00 157.06 2976.83
   00:49:58.484.09-May-2021 4512.01 2476.46 67.54 8.00 157.26 2976.83
   00:49:58.684.09-May-2021 4512.01 2368.97 67.54 8.00 157.46 2976.83
   00:49:58.884.09-May-2021 4512.01 2311.70 67.54 8.00 157.66 2976.83
   00:49:59.084.09-May-2021 4512.01 2274.42 67.54 8.00 157.86 2976.83
   00:49:59.284.09-May-2021 4512.01 2293.13 67.54 8.00 158.06 2976.83
   00:49:59.484.09-May-2021 4512.01 2293.13 67.54 8.00 158.26 2976.83
   00:49:59.684.09-May-2021 4512.01 2889.26 67.54 8.00 158.46 2976.83
   00:49:59.884.09-May-2021 4512.01 3055.34 67.54 8.00 158.66 2976.83
   00:50:00.084.09-May-2021 4512.01 3148.98 67.54 8.00 158.86 2976.83
   00:50:00.284.09-May-2021 4512.01 3200.63 67.54 8.00 159.06 2976.83
   00:50:00.484.09-May-2021 4512.01 3200.63 67.54 8.00 159.26 2976.83
   00:50:00.685.09-May-2021 4512.01 3243.56 67.54 8.00 159.46 2976.83
   00:50:00.885.09-May-2021 4512.01 3251.09 67.54 8.00 159.66 2976.83
   00:50:01.085.09-May-2021 4512.01 3254.45 67.54 8.00 159.86 2976.83
   00:50:01.285.09-May-2021 4512.01 3256.12 67.54 8.00 160.06 2976.83
   00:50:01.485.09-May-2021 4512.01 3256.12 67.54 8.00 160.26 2976.83
   00:50:01.685.09-May-2021 4512.01 3257.55 67.54 8.00 160.46 2976.83
   00:50:01.885.09-May-2021 4512.01 3257.96 67.54 8.00 160.66 2976.83
   00:50:02.085.09-May-2021 4512.01 3258.35 67.54 8.00 160.86 2976.83
