~Version Information
 VERS.                  2.0:   CWLS log ASCII Standard -VERSION 2.0
 WRAP.                   NO:   One line per depth step
~Well Information Block
#MNEM.UNIT     VALUE/NAME     DESCRIPTION
#---------     -----------    ---------------------------
 STRT.S             00:24:13 10-May-21: START TIME 00:24:13 10-May-21
 STOP.S             00:32:26 10-May-21: STOP TIME  00:32:26 10-May-21
 STEP.S                   0.00: STEP TIME
 NULL.                 -999.25: NULL VALUE
 PROV.                    Baku:  PROVINCE
 STAT.                    Baku:  STATE NAME
 SON .        AZ-XX-0906571588:  JOB NUMBER
 WTYP.                Deviated:  WELL TYPE
 COMP.     BP Exploration (Caspian Sea) ltd:  COMPANY
 BASE.              Azerbaijan:  LOGGING EQUIPMENT BASE LOCATION
 REGN.                   EESSA:  REGION
 CTRY.              Azerbaijan:  COUNTRY NAME
 FLD .                     ACG:  FIELD NAME
 WELL.                     J28:  WELL NAME
 RIG .             West Chirag:  RIG NAME
 DMF .             Drill Floor:  DRILL MEAS FROM
 PDAT.       Caspian Sea Level:  PERMANENT DATUM
 HPTY.       Minimum Curvature:  HOLE POS TYPE
 MDS .        Operator Entered:  MAG DATA SOURCE
 NREF.                    Grid:  NORTH REFERENCE
 SRVC.          TURAN DRILLING:  CONTRACTOR
 JOBN.        AZ-XX-0906571588:  JOB TICKET NUMB
 DCON.     Halliburton Sperry Drilling:  DIRECTNL CONTR
 STIM.      00.44.00 11-Feb-21:  START TIME
 DATE.      00.00.00 05-May-21:  END TIME
 SPUD.               13-Feb-21:  SPUD DATE
 MWDS.                    Baku:  MWD SHOP
 DOE .                     N/A:  DOE NUMBER
 UNIT.                     N/A:  LOGGING EQUIPMENT ID
 UWI .                     N/A:  UNIQUE WELL IDENTIFIER
 API .                     N/A:  API NUMBER
 CNTY.                        :  COUNTY
 LOC .                        :  LOCATION
 LMF .             Drill Floor:  LOG MEASURED FROM
 TVDS.m                  43.00:  TVDSS CORRECTN
 SDEP.m                 341.00:  START DEPTH
 EGL .m                   0.00:  GROUND ELEVATION
 WDMS.m                 169.80:  WD ELEV
 AGAP.m                  43.00:  AIR GAP
 EPD .m                   0.00:  ELEVATION
 APD .m                  43.00:  DEPTH ABOVE PD
 LATI.deg                40.13:  LATITUDE
 LONG.deg                51.22:  LONGITUDE
 UTMY.m             4443793.85:  UTM Y
 UTMX.m              519005.06:  UTM X
 WHEW.m                 -11.57:  WELL HEAD E/W
 WHNS.m                   8.57:  WELL HEAD N/S
 VSEW.m                 -11.57:  VERT SEC E/W
 VSNS.m                   8.57:  VERT SEC N/S
 DFWL.m                   0.00:  DISTANCE FWL
 DFSL.m                   0.00:  DISTANCE FSL
 VSDR.deg               299.34:  VERT SEC DIRECT
 GVFD.g                   1.00:  GRAVITY FIELD
 AZTC.deg                 6.36:  AZM TOTAL CORR
 MFLD.nT              50391.00:  MAGNETIC FIELD
 MDIP.deg                59.65:  MAGNETIC DIP
 MDEC.deg                 6.48:  MAGNETIC DECL
 GRDC.deg                 0.12:  GRID CORRECTION
 DEP .m                 334.96:  DEPTH
 TDD .m                1407.26:  TOTAL DEPTH (DRILLER)
 EKB .m                  43.00:  KB ELEVATION
 EDF .m                  43.00:  DF ELEVATION
 TDL .m                 228.00:  TOTAL DEPTH (LOGGER)
 VSC .                       0:  VS TO CLOSURE
 MAGU.                 1854484:  MAGUTM CHECKSUM
~Parameter Information Block
#MNEM.UNIT       Value        Description
#---------     -----------    ---------------------------
 AV  .mps                 4.00:  Ann Velocity 
 AVMX.mps                 4.73:  Max Ann Veloc 
 AZIF.deg               304.48:  Azm, Final 
 BHAT.        Rotary Steerable:  BHA Type 
 BREV.rev            257300.00:  Rev Bit Total 
 BROT.°/30m               0.00:  Build Rotating 
 BS  .in                  8.50:  Bit Size 
 BSZ .in                  8.50:  Bit Size 
 BTPL.psig              589.00:  Bit Press Loss 
 CABU.                      No:  Customer Abuse 
 CGEO.          Mubariz ghayev:  Customer Geo 
 TCS .hr                 64.25:  Time Ciculation Ended 
 CV  .mps                 3.50:  Crit Velocity 
 CVMX.mps                 4.52:  Max Crit Veloc 
 DD1 .             Aziz Aliyev:  Direct Drillr 1 
 DD2 .         Intigam Rahimov:  Direct Drillr 2 
 DD3 .          Rashad Habibov:  Direct Drillr 3 
 DDSV.               Geo-Pilot:  DD Service 
 DEFF.%                  98.00:  % Det Eff 
 DLRX.°/30m               0.00:  Dogleg Rot Max 
 DLSO.°/30m               0.00:  Dogleg Oriented 
 DLSX.°/30m               0.00:  Dogleg Str Max 
 DRET.      10.45.04 08-May-21:  Drill End Time 
 DRST.      03.30.04 04-May-21:  Drill Start Tim 
 DTIM.hr                 14.97:  Time Drilling 
 EDEP.m                4640.01:  End Depth 
 ENG1.         Dail Mahammadov:  Engineer 1 
 ENG2.           Eldar Hajiyev:  Engineer 2 
 ENG3.       Bakhtiar Jabbarli:  Engineer 3 
 ENG4.       Natik Hasanagayev:  Engineer 4 
 ETIM.      09.30.04 14-May-21:  End Time 
 FLOI.gpm               460.00:  Flow In 
 FLON.gpm               200.00:  Flow In Min 
 FLOS.cptm                0.00:  Fluid Loss 
 FLOX.gpm               505.00:  Flow In Max 
 HFLO.                      No:  High Flow 
 HPRE.                      No:  High Pressure 
 HTEM.                      No:  High Temp 
 HYDO.m                   1.80:  Hydro Offset 
 IFIN.deg                66.71:  Inc, Final 
 IMAX.deg                67.03:  Inc Max 
 IMIN.deg                66.63:  Inc Min 
 IMND.m                4550.58:  Inc Min Depth 
 IMXD.m                4439.01:  Inc Max Depth 
 JARR.                      No:  Jarring 
 LETM.      10.45.04 08-May-21:  Log End Time 
 LOST.hr                     0:  Lost Rig Time 
 LSTM.      03.30.04 04-May-21:  Log Start Time 
 MDCL.ppm             37000.00:  Mud Chlorides 
 MDES.     Inversion Oil/Synthetic:  Mud Desc 
 DFD .sg                  1.38:  Mud Density 
 MDMN.sg                  1.35:  Dens Mud Min 
 MDMX.sg                  1.40:  Dens Mud Max 
 MOIL.                   57.40:  Run Mud Oil % 
 MOWR.                   70:30:  Run Mud OWR 
 MSND.                    0.00:  Run Mud Sand % 
 MSOL.                   18.00:  Run Mud Solids% 
 DFV .spqt               71.00:  Mud Viscosity 
 MWOD.in                  6.75:  MWD Tool OD 
 MWSI.                      No:  Serv Intrp, MWD 
 OTIM.hr                242.76:  Time Operating 
 PCON.           Look Like New:  Pad Condition 
 PMAX.psia            12183.92:  Press Op, Max 
 PV  .cP                 27.00:  Mud PV 
 RUN .                    1300:  Run Number 
 ROPA.m/hr               15.00:  ROP Avg 
 ROPN.m/hr                9.00:  ROP Min 
 ROPX.m/hr               19.00:  ROP Max 
 RPMA.rpm               120.00:  RPM Surface Avg 
 RPMN.rpm               100.00:  RPM Surface Min 
 RPMX.rpm               120.00:  RPM Surface Max 
 RRUN.                    1300:  Rig Run Number 
 RTIM.hr                  5.00:  Time Reaming 
 SAZI.deg               304.73:  Azm, Start 
 SDEP.m                4412.01:  Start Depth 
 SIDD.                      No:  Serv Intrp, DD 
 SINC.deg                66.82:  Inc, Start 
 SPPA.psig             2800.00:  SPP Avg 
 SPPN.psig             2610.00:  SPP Min 
 SPPX.psig             3100.00:  SPP Max 
 STIM.      03.30.00 04-May-21:  Start Time 
 SVCS.                 DD, MWD:  Services 
 SVER.                    9.20:  Sperry Version 
 TDAT.m                 228.00:  Tot Depth Attmp 
 TDDF.                      No:  Trip for DD 
 TDLG.m                 228.00:  Tot Depth Loggd 
 TFF .                      No:  Trip for Fail 
 TQAA.f-kp               15.00:  Torque Abs Avg 
 TQAN.f-kp               12.00:  Torque Abs Min 
 TQAX.f-kp               22.00:  Torque Abs Max 
 TRRT.°/30m               0.00:  Turn Rotating 
 MRT .                    HCIM:  Maximum Recorded Temperature 
 TTMX.degC               90.20:  Max Tool Temp 
 VS01.                90627813:  Virtual Str1 SN 
 VS02.                90634712:  Virtual Str2 SN 
 VS03.                90643410:  Virtual Str3 SN 
 VS04.                90634712:  Virtual Str4 SN 
 WBMN.klb                 9.00:  WOB Min 
 WITN.        Elmaddin Rahimov:  Customer Rep 
 WITN.         Haytham Mostafa:  Customer Rep 2 
 WOBA.klb                15.00:  WOB Avg 
 WOBX.klb                23.00:  WOB Max 
 YP  .lhf2               29.00:  Yield Point 
~Curve Information Block
#MNEM.UNIT                 API CODE     Curve Description
#---------               -----------    ---------------------------
 TIME.HHMMSS            00 000 000 000:  GT Time & Date
 GTDEPTH.m              00 000 000 000:  GT Depth
 GTPQH.psia             00 000 000 000:  GT HR Quartz Pressure
 GTTQ.degC              00 000 000 000:  GT Quartz Temperature
 GTTN.NONE              00 000 000 000:  GT Test Number
 GTET.sec               00 000 000 000:  GT Elapsed Test Time
 GTTVD.m                00 000 000 000:  GT True Vertical Depth
#Other Information
#
#WARRANTY: Halliburton will use its best efforts to furnish customers with 
#accurate information and interpretations that are part of, and incident to, the services 
#provided.  However, Halliburton cannot and does not warrant the accuracy 
#or correctness of such information and interpretations.  Under no circumstances should any 
#such information or interpretation be relied upon as the sole basis for any drilling, 
#completion, production, or financial decision or any procedure involving any risk to the 
#safety of any drilling venture, drilling rig or its crew or any other third party.  The 
#Customer has full responsibility for all drilling, completion and production operation.  
#Halliburton makes no representations or warranties, either expressed or 
#implied, including, but not limited to, the implied warranties of merchantability or fitness 
#for a particular purpose, with respect to the services rendered.  In no event will 
#Halliburton be liable for failure to obtain any particular results or for 
#any damages, including, but not limited to, indirect, special or consequential damages, 
#resulting from the use of any information or interpretation provided by Halliburton.
#
~A           TIME           GTDEPTH  GTPQH  GTTQ  GTTN   GTET   GTTVD  
# ...
   00:26:51.875.10-May-2021 4497.51  674.36 60.49 18.00 158.27 2971.13
   00:26:52.075.10-May-2021 4497.51  674.42 60.49 18.00 158.47 2971.13
   00:26:52.276.10-May-2021 4497.51  674.58 60.49 18.00 158.67 2971.13
   00:26:52.476.10-May-2021 4497.51  674.69 60.49 18.00 158.87 2971.13
   00:26:52.676.10-May-2021 4497.51  674.88 60.49 18.00 159.07 2971.13
   00:26:52.876.10-May-2021 4497.51  674.88 60.49 18.00 159.27 2971.13
   00:26:53.076.10-May-2021 4497.51  675.15 60.49 18.00 159.47 2971.13
   00:26:53.276.10-May-2021 4497.51  675.30 60.49 18.00 159.67 2971.13
   00:26:53.476.10-May-2021 4497.51  675.44 60.49 18.00 159.87 2971.13
   00:26:53.676.10-May-2021 4497.51  675.58 60.49 18.00 160.07 2971.13
   00:26:53.876.10-May-2021 4497.51  675.58 60.49 18.00 160.27 2971.13
   00:26:54.076.10-May-2021 4497.51  675.67 60.49 18.00 160.47 2971.13
   00:26:54.276.10-May-2021 4497.51  676.17 60.49 18.00 160.67 2971.13
   00:26:54.476.10-May-2021 4497.51  676.30 60.49 18.00 160.87 2971.13
   00:26:54.677.10-May-2021 4497.51  676.29 60.49 18.00 161.07 2971.13
   00:26:54.877.10-May-2021 4497.51  676.29 60.49 18.00 161.27 2971.13
   00:26:55.077.10-May-2021 4497.51  676.39 60.49 18.00 161.47 2971.13
   00:26:55.277.10-May-2021 4497.51  676.89 60.49 18.00 161.67 2971.13
   00:26:55.477.10-May-2021 4497.51  677.01 60.49 18.00 161.87 2971.13
   00:26:55.677.10-May-2021 4497.51  677.00 60.49 18.00 162.07 2971.13
   00:26:55.877.10-May-2021 4497.51  677.00 60.49 18.00 162.27 2971.13
   00:26:56.077.10-May-2021 4497.51  677.53 60.49 18.00 162.47 2971.13
   00:26:56.277.10-May-2021 4497.51  677.56 60.49 18.00 162.67 2971.13
   00:26:56.477.10-May-2021 4497.51  677.57 60.49 18.00 162.87 2971.13
   00:26:56.677.10-May-2021 4497.51  677.83 60.49 18.00 163.07 2971.13
   00:26:56.878.10-May-2021 4497.51  677.83 60.49 18.00 163.27 2971.13
   00:26:57.078.10-May-2021 4497.51  677.82 60.49 18.00 163.47 2971.13
   00:26:57.278.10-May-2021 4497.51  678.28 60.49 18.00 163.67 2971.13
   00:26:57.478.10-May-2021 4497.51  678.45 60.49 18.00 163.87 2971.13
   00:26:57.678.10-May-2021 4497.51  678.45 60.49 18.00 164.07 2971.13
   00:26:57.878.10-May-2021 4497.51  678.45 60.49 18.00 164.27 2971.13
   00:26:58.078.10-May-2021 4497.51  678.77 60.49 18.00 164.47 2971.13
   00:26:58.278.10-May-2021 4497.51  678.93 60.49 18.00 164.67 2971.13
   00:26:58.478.10-May-2021 4497.51  679.07 60.49 18.00 164.87 2971.13
   00:26:58.678.10-May-2021 4497.51  679.23 60.49 18.00 165.07 2971.13
   00:26:58.878.10-May-2021 4497.51  679.23 60.49 18.00 165.27 2971.13
   00:26:59.078.10-May-2021 4497.51  679.53 60.49 18.00 165.47 2971.13
   00:26:59.279.10-May-2021 4497.51  679.68 60.49 18.00 165.67 2971.13
   00:26:59.479.10-May-2021 4497.51  679.44 60.49 18.00 165.87 2971.13
   00:26:59.679.10-May-2021 4497.51  679.99 60.49 18.00 166.07 2971.13
   00:26:59.879.10-May-2021 4497.51  679.99 60.49 18.00 166.27 2971.13
   00:27:00.079.10-May-2021 4497.51  680.40 60.49 18.00 166.47 2971.13
   00:27:00.279.10-May-2021 4497.51  680.40 60.49 18.00 166.67 2971.13
   00:27:00.479.10-May-2021 4497.51  680.56 60.49 18.00 166.87 2971.13
   00:27:00.679.10-May-2021 4497.51  680.71 60.49 18.00 167.07 2971.13
   00:27:00.879.10-May-2021 4497.51  680.71 60.49 18.00 167.27 2971.13
   00:27:01.079.10-May-2021 4497.51  680.99 60.49 18.00 167.47 2971.13
   00:27:01.279.10-May-2021 4497.51  681.12 60.49 18.00 167.67 2971.13
   00:27:01.479.10-May-2021 4497.51  681.28 60.49 18.00 167.87 2971.13
   00:27:01.680.10-May-2021 4497.51  681.43 60.49 18.00 168.07 2971.13
   00:27:01.880.10-May-2021 4497.51  681.43 60.49 18.00 168.27 2971.13
   00:27:02.080.10-May-2021 4497.51  681.23 60.49 18.00 168.47 2971.13
   00:27:02.280.10-May-2021 4497.51  682.04 60.49 18.00 168.67 2971.13
   00:27:02.480.10-May-2021 4497.51  681.94 60.49 18.00 168.87 2971.13
   00:27:02.680.10-May-2021 4497.51  682.18 60.49 18.00 169.07 2971.13
   00:27:02.880.10-May-2021 4497.51  682.18 60.49 18.00 169.27 2971.13
   00:27:03.080.10-May-2021 4497.51  682.21 60.49 18.00 169.47 2971.13
   00:27:03.280.10-May-2021 4497.51  682.34 60.49 18.00 169.67 2971.13
   00:27:03.480.10-May-2021 4497.51  682.82 60.49 18.00 169.87 2971.13
   00:27:03.680.10-May-2021 4497.51  682.77 60.49 18.00 170.07 2971.13
   00:27:03.881.10-May-2021 4497.51  682.77 60.49 18.00 170.27 2971.13
   00:27:04.081.10-May-2021 4497.51  683.29 60.49 18.00 170.47 2971.13
   00:27:04.281.10-May-2021 4497.51  683.40 60.49 18.00 170.67 2971.13
   00:27:04.481.10-May-2021 4497.51  683.41 60.49 18.00 170.87 2971.13
   00:27:04.681.10-May-2021 4497.51  683.65 60.49 18.00 171.07 2971.13
   00:27:04.881.10-May-2021 4497.51  683.65 60.49 18.00 171.27 2971.13
   00:27:05.081.10-May-2021 4497.51  683.67 60.49 18.00 171.47 2971.13
   00:27:05.281.10-May-2021 4497.51  684.12 60.49 18.00 171.67 2971.13
   00:27:05.481.10-May-2021 4497.51  684.26 60.49 18.00 171.87 2971.13
   00:27:05.681.10-May-2021 4497.51  684.29 60.49 18.00 172.07 2971.13
   00:27:05.881.10-May-2021 4497.51  684.29 60.49 18.00 172.27 2971.13
   00:27:06.081.10-May-2021 4497.51  684.63 60.49 18.00 172.47 2971.13
   00:27:06.282.10-May-2021 4497.51  684.77 60.49 18.00 172.67 2971.13
   00:27:06.482.10-May-2021 4497.51  684.92 60.49 18.00 172.87 2971.13
   00:27:06.682.10-May-2021 4497.51  685.06 60.49 18.00 173.07 2971.13
   00:27:06.882.10-May-2021 4497.51  685.06 60.49 18.00 173.27 2971.13
   00:27:07.082.10-May-2021 4497.51  685.36 60.49 18.00 173.47 2971.13
   00:27:07.282.10-May-2021 4497.51  685.53 60.49 18.00 173.67 2971.13
   00:27:07.482.10-May-2021 4497.51  685.29 60.49 18.00 173.87 2971.13
   00:27:07.682.10-May-2021 4497.51  685.85 60.49 18.00 174.07 2971.13
   00:27:07.882.10-May-2021 4497.51  685.85 60.49 18.00 174.27 2971.13
   00:27:08.082.10-May-2021 4497.51  686.22 60.49 18.00 174.47 2971.13
   00:27:08.282.10-May-2021 4497.51  686.21 60.49 18.00 174.67 2971.13
   00:27:08.482.10-May-2021 4497.51  686.39 60.49 18.00 174.87 2971.13
   00:27:08.683.10-May-2021 4497.51  686.54 60.49 18.00 175.07 2971.13
   00:27:08.883.10-May-2021 4497.51  686.54 60.49 18.00 175.27 2971.13
   00:27:09.083.10-May-2021 4497.51  686.54 60.49 18.00 175.48 2971.13
   00:27:09.283.10-May-2021 4497.51  686.96 60.48 18.00 175.68 2971.13
   00:27:09.483.10-May-2021 4497.51  687.12 60.49 18.00 175.88 2971.13
   00:27:09.683.10-May-2021 4497.51  687.27 60.49 18.00 176.08 2971.13
   00:27:09.883.10-May-2021 4497.51  687.27 60.49 18.00 176.28 2971.13
   00:27:10.083.10-May-2021 4497.51  687.11 60.49 18.00 176.48 2971.13
   00:27:10.283.10-May-2021 4497.51  687.90 60.49 18.00 176.68 2971.13
   00:27:10.483.10-May-2021 4497.51  687.80 60.48 18.00 176.88 2971.13
   00:27:10.683.10-May-2021 4497.51  688.00 60.48 18.00 177.08 2971.13
   00:27:10.884.10-May-2021 4497.51  688.00 60.48 18.00 177.28 2971.13
   00:27:11.084.10-May-2021 4497.51  688.10 60.48 18.00 177.48 2971.13
   00:27:11.284.10-May-2021 4497.51  688.24 60.48 18.00 177.68 2971.13
   00:27:11.484.10-May-2021 4497.51  688.71 60.48 18.00 177.88 2971.13
   00:27:11.684.10-May-2021 4497.51  688.84 60.48 18.00 178.08 2971.13
   00:27:11.884.10-May-2021 4497.51  688.84 60.48 18.00 178.28 2971.13
   00:27:12.084.10-May-2021 4497.51  689.25 60.48 18.00 178.48 2971.13
   00:27:12.284.10-May-2021 4497.51  689.06 60.48 18.00 178.68 2971.13
   00:27:12.484.10-May-2021 4497.51  689.41 60.48 18.00 178.88 2971.13
   00:27:12.684.10-May-2021 4497.51  689.47 60.48 18.00 179.08 2971.13
   00:27:12.884.10-May-2021 4497.51  689.47 60.48 18.00 179.28 2971.13
   00:27:13.084.10-May-2021 4497.51  689.98 60.48 18.00 179.48 2971.13
   00:27:13.285.10-May-2021 4497.51  689.86 60.48 18.00 179.68 2971.13
   00:27:13.485.10-May-2021 4497.51  690.04 60.48 18.00 179.88 2971.13
   00:27:13.685.10-May-2021 4497.51  690.23 60.48 18.00 180.08 2971.13
   00:27:13.885.10-May-2021 4497.51  690.23 60.48 18.00 180.28 2971.13
   00:27:14.085.10-May-2021 4497.51  684.61 60.48 18.00 180.48 2971.13
   00:27:14.285.10-May-2021 4497.51  630.15 60.48 18.00 180.68 2971.13
