~Version Information
 VERS.                  2.0:   CWLS log ASCII Standard -VERSION 2.0
 WRAP.                   NO:   One line per depth step
~Well Information Block
#MNEM.UNIT     VALUE/NAME     DESCRIPTION
#---------     -----------    ---------------------------
 STRT.S             05:06:20 09-May-21: START TIME 05:06:20 09-May-21
 STOP.S             05:13:20 09-May-21: STOP TIME  05:13:20 09-May-21
 STEP.S                   0.00: STEP TIME
 NULL.                 -999.25: NULL VALUE
 PROV.                    Baku:  PROVINCE
 STAT.                    Baku:  STATE NAME
 SON .        AZ-XX-0906571588:  JOB NUMBER
 WTYP.                Deviated:  WELL TYPE
 COMP.     BP Exploration (Caspian Sea) ltd:  COMPANY
 BASE.              Azerbaijan:  LOGGING EQUIPMENT BASE LOCATION
 REGN.                   EESSA:  REGION
 CTRY.              Azerbaijan:  COUNTRY NAME
 FLD .                     ACG:  FIELD NAME
 WELL.                     J28:  WELL NAME
 RIG .             West Chirag:  RIG NAME
 DMF .             Drill Floor:  DRILL MEAS FROM
 PDAT.       Caspian Sea Level:  PERMANENT DATUM
 HPTY.       Minimum Curvature:  HOLE POS TYPE
 MDS .        Operator Entered:  MAG DATA SOURCE
 NREF.                    Grid:  NORTH REFERENCE
 SRVC.          TURAN DRILLING:  CONTRACTOR
 JOBN.        AZ-XX-0906571588:  JOB TICKET NUMB
 DCON.     Halliburton Sperry Drilling:  DIRECTNL CONTR
 STIM.      00.44.00 11-Feb-21:  START TIME
 DATE.      00.00.00 05-May-21:  END TIME
 SPUD.               13-Feb-21:  SPUD DATE
 MWDS.                    Baku:  MWD SHOP
 DOE .                     N/A:  DOE NUMBER
 UNIT.                     N/A:  LOGGING EQUIPMENT ID
 UWI .                     N/A:  UNIQUE WELL IDENTIFIER
 API .                     N/A:  API NUMBER
 CNTY.                        :  COUNTY
 LOC .                        :  LOCATION
 LMF .             Drill Floor:  LOG MEASURED FROM
 TVDS.m                  43.00:  TVDSS CORRECTN
 SDEP.m                 341.00:  START DEPTH
 EGL .m                   0.00:  GROUND ELEVATION
 WDMS.m                 169.80:  WD ELEV
 AGAP.m                  43.00:  AIR GAP
 EPD .m                   0.00:  ELEVATION
 APD .m                  43.00:  DEPTH ABOVE PD
 LATI.deg                40.13:  LATITUDE
 LONG.deg                51.22:  LONGITUDE
 UTMY.m             4443793.85:  UTM Y
 UTMX.m              519005.06:  UTM X
 WHEW.m                 -11.57:  WELL HEAD E/W
 WHNS.m                   8.57:  WELL HEAD N/S
 VSEW.m                 -11.57:  VERT SEC E/W
 VSNS.m                   8.57:  VERT SEC N/S
 DFWL.m                   0.00:  DISTANCE FWL
 DFSL.m                   0.00:  DISTANCE FSL
 VSDR.deg               299.34:  VERT SEC DIRECT
 GVFD.g                   1.00:  GRAVITY FIELD
 AZTC.deg                 6.36:  AZM TOTAL CORR
 MFLD.nT              50391.00:  MAGNETIC FIELD
 MDIP.deg                59.65:  MAGNETIC DIP
 MDEC.deg                 6.48:  MAGNETIC DECL
 GRDC.deg                 0.12:  GRID CORRECTION
 DEP .m                 334.96:  DEPTH
 TDD .m                1407.26:  TOTAL DEPTH (DRILLER)
 EKB .m                  43.00:  KB ELEVATION
 EDF .m                  43.00:  DF ELEVATION
 TDL .m                 228.00:  TOTAL DEPTH (LOGGER)
 VSC .                       0:  VS TO CLOSURE
 MAGU.                 1854484:  MAGUTM CHECKSUM
~Parameter Information Block
#MNEM.UNIT       Value        Description
#---------     -----------    ---------------------------
 AV  .mps                 4.00:  Ann Velocity 
 AVMX.mps                 4.73:  Max Ann Veloc 
 AZIF.deg               304.48:  Azm, Final 
 BHAT.        Rotary Steerable:  BHA Type 
 BREV.rev            257300.00:  Rev Bit Total 
 BROT.°/30m               0.00:  Build Rotating 
 BS  .in                  8.50:  Bit Size 
 BSZ .in                  8.50:  Bit Size 
 BTPL.psig              589.00:  Bit Press Loss 
 CABU.                      No:  Customer Abuse 
 CGEO.          Mubariz ghayev:  Customer Geo 
 COMM.                     ¼8\:  Run Comments 1 
 TCS .hr                 64.25:  Time Ciculation Ended 
 CV  .mps                 3.50:  Crit Velocity 
 CVMX.mps                 4.52:  Max Crit Veloc 
 DD1 .             Aziz Aliyev:  Direct Drillr 1 
 DD2 .         Intigam Rahimov:  Direct Drillr 2 
 DD3 .          Rashad Habibov:  Direct Drillr 3 
 DDSV.               Geo-Pilot:  DD Service 
 DEFF.%                  98.00:  % Det Eff 
 DLRX.°/30m               0.00:  Dogleg Rot Max 
 DLSO.°/30m               0.00:  Dogleg Oriented 
 DLSX.°/30m               0.00:  Dogleg Str Max 
 DRET.      10.45.04 08-May-21:  Drill End Time 
 DRST.      03.30.04 04-May-21:  Drill Start Tim 
 DTIM.hr                 14.97:  Time Drilling 
 EDEP.m                4640.01:  End Depth 
 ENG1.         Dail Mahammadov:  Engineer 1 
 ENG2.           Eldar Hajiyev:  Engineer 2 
 ENG3.       Bakhtiar Jabbarli:  Engineer 3 
 ENG4.       Natik Hasanagayev:  Engineer 4 
 ETIM.      09.30.04 14-May-21:  End Time 
 FLOI.gpm               460.00:  Flow In 
 FLON.gpm               200.00:  Flow In Min 
 FLOS.cptm                0.00:  Fluid Loss 
 FLOX.gpm               505.00:  Flow In Max 
 HFLO.                      No:  High Flow 
 HPRE.                      No:  High Pressure 
 HTEM.                      No:  High Temp 
 HYDO.m                   1.80:  Hydro Offset 
 IFIN.deg                66.71:  Inc, Final 
 IMAX.deg                67.03:  Inc Max 
 IMIN.deg                66.63:  Inc Min 
 IMND.m                4550.58:  Inc Min Depth 
 IMXD.m                4439.01:  Inc Max Depth 
 JARR.                      No:  Jarring 
 LETM.      10.45.04 08-May-21:  Log End Time 
 LOST.hr                     0:  Lost Rig Time 
 LSTM.      03.30.04 04-May-21:  Log Start Time 
 MDCL.ppm             37000.00:  Mud Chlorides 
 MDES.     Inversion Oil/Synthetic:  Mud Desc 
 DFD .sg                  1.38:  Mud Density 
 MDMN.sg                  1.35:  Dens Mud Min 
 MDMX.sg                  1.40:  Dens Mud Max 
 MOIL.                   57.40:  Run Mud Oil % 
 MOWR.                   70:30:  Run Mud OWR 
 MSND.                    0.00:  Run Mud Sand % 
 MSOL.                   18.00:  Run Mud Solids% 
 DFV .spqt               71.00:  Mud Viscosity 
 MWOD.in                  6.75:  MWD Tool OD 
 MWSI.                      No:  Serv Intrp, MWD 
 OTIM.hr                242.76:  Time Operating 
 PCON.           Look Like New:  Pad Condition 
 PMAX.psia            12183.92:  Press Op, Max 
 PV  .cP                 27.00:  Mud PV 
 RUN .                    1300:  Run Number 
 ROPA.m/hr               15.00:  ROP Avg 
 ROPN.m/hr                9.00:  ROP Min 
 ROPX.m/hr               19.00:  ROP Max 
 RPMA.rpm               120.00:  RPM Surface Avg 
 RPMN.rpm               100.00:  RPM Surface Min 
 RPMX.rpm               120.00:  RPM Surface Max 
 RRUN.                    1300:  Rig Run Number 
 RTIM.hr                  5.00:  Time Reaming 
 SAZI.deg               304.73:  Azm, Start 
 SDEP.m                4412.01:  Start Depth 
 SIDD.                      No:  Serv Intrp, DD 
 SINC.deg                66.82:  Inc, Start 
 SPPA.psig             2800.00:  SPP Avg 
 SPPN.psig             2610.00:  SPP Min 
 SPPX.psig             3100.00:  SPP Max 
 STIM.      03.30.00 04-May-21:  Start Time 
 SVCS.                 DD, MWD:  Services 
 SVER.                    9.20:  Sperry Version 
 TDAT.m                 228.00:  Tot Depth Attmp 
 TDDF.                      No:  Trip for DD 
 TDLG.m                 228.00:  Tot Depth Loggd 
 TFF .                      No:  Trip for Fail 
 TQAA.f-kp               15.00:  Torque Abs Avg 
 TQAN.f-kp               12.00:  Torque Abs Min 
 TQAX.f-kp               22.00:  Torque Abs Max 
 TRRT.°/30m               0.00:  Turn Rotating 
 MRT .                    HCIM:  Maximum Recorded Temperature 
 TTMX.degC               90.20:  Max Tool Temp 
 VS01.                90627813:  Virtual Str1 SN 
 VS02.                90634712:  Virtual Str2 SN 
 VS03.                90643410:  Virtual Str3 SN 
 VS04.                90634712:  Virtual Str4 SN 
 WBMN.klb                 9.00:  WOB Min 
 WITN.        Elmaddin Rahimov:  Customer Rep 
 WITN.         Haytham Mostafa:  Customer Rep 2 
 WOBA.klb                15.00:  WOB Avg 
 WOBX.klb                23.00:  WOB Max 
 YP  .lhf2               29.00:  Yield Point 
~Curve Information Block
#MNEM.UNIT                 API CODE     Curve Description
#---------               -----------    ---------------------------
 TIME.HHMMSS            00 000 000 000:  GT Time & Date
 GTDEPTH.m              00 000 000 000:  GT Depth
 GTPQH.psia             00 000 000 000:  GT HR Quartz Pressure
 GTTQ.degC              00 000 000 000:  GT Quartz Temperature
 GTTN.NONE              00 000 000 000:  GT Test Number
 GTET.sec               00 000 000 000:  GT Elapsed Test Time
 GTTVD.m                00 000 000 000:  GT True Vertical Depth
#Other Information
#
#WARRANTY: Halliburton will use its best efforts to furnish customers with 
#accurate information and interpretations that are part of, and incident to, the services 
#provided.  However, Halliburton cannot and does not warrant the accuracy 
#or correctness of such information and interpretations.  Under no circumstances should any 
#such information or interpretation be relied upon as the sole basis for any drilling, 
#completion, production, or financial decision or any procedure involving any risk to the 
#safety of any drilling venture, drilling rig or its crew or any other third party.  The 
#Customer has full responsibility for all drilling, completion and production operation.  
#Halliburton makes no representations or warranties, either expressed or 
#implied, including, but not limited to, the implied warranties of merchantability or fitness 
#for a particular purpose, with respect to the services rendered.  In no event will 
#Halliburton be liable for failure to obtain any particular results or for 
#any damages, including, but not limited to, indirect, special or consequential damages, 
#resulting from the use of any information or interpretation provided by Halliburton.
#
~A           TIME           GTDEPTH  GTPQH  GTTQ  GTTN   GTET   GTTVD  
# ...
   05:10:28.600.09-May-2021 4452.51 4282.04 66.87 13.00 248.60 2953.46
   05:10:28.800.09-May-2021 4452.51 4282.01 66.87 13.00 248.80 2953.46
   05:10:29.000.09-May-2021 4452.51 4282.04 66.87 13.00 249.00 2953.46
   05:10:29.200.09-May-2021 4452.51 4282.04 66.87 13.00 249.20 2953.46
   05:10:29.400.09-May-2021 4452.51 4282.04 66.87 13.00 249.40 2953.46
   05:10:29.600.09-May-2021 4452.51 4282.02 66.87 13.00 249.60 2953.46
   05:10:29.800.09-May-2021 4452.51 4282.06 66.87 13.00 249.80 2953.46
   05:10:30.000.09-May-2021 4452.51 4281.87 66.87 13.00 250.00 2953.46
   05:10:30.200.09-May-2021 4452.51 4281.87 66.87 13.00 250.20 2953.46
   05:10:30.400.09-May-2021 4452.51 4281.98 66.87 13.00 250.40 2953.46
   05:10:30.600.09-May-2021 4452.51 4282.11 66.87 13.00 250.60 2953.46
   05:10:30.800.09-May-2021 4452.51 4282.00 66.87 13.00 250.80 2953.46
   05:10:31.000.09-May-2021 4452.51 4282.05 66.87 13.00 251.00 2953.46
   05:10:31.200.09-May-2021 4452.51 4282.05 66.87 13.00 251.20 2953.46
   05:10:31.400.09-May-2021 4452.51 4282.21 66.87 13.00 251.40 2953.46
   05:10:31.600.09-May-2021 4452.51 4281.99 66.87 13.00 251.60 2953.46
   05:10:31.800.09-May-2021 4452.51 4282.09 66.87 13.00 251.80 2953.46
   05:10:32.000.09-May-2021 4452.51 4281.99 66.87 13.00 252.00 2953.46
   05:10:32.200.09-May-2021 4452.51 4281.99 66.87 13.00 252.20 2953.46
   05:10:32.400.09-May-2021 4452.51 4282.02 66.87 13.00 252.40 2953.46
   05:10:32.600.09-May-2021 4452.51 4282.05 66.87 13.00 252.60 2953.46
   05:10:32.800.09-May-2021 4452.51 4282.04 66.87 13.00 252.80 2953.46
   05:10:33.000.09-May-2021 4452.51 4282.00 66.87 13.00 253.00 2953.46
   05:10:33.200.09-May-2021 4452.51 4282.00 66.87 13.00 253.20 2953.46
   05:10:33.400.09-May-2021 4452.51 4281.98 66.87 13.00 253.40 2953.46
   05:10:33.600.09-May-2021 4452.51 4282.16 66.87 13.00 253.60 2953.46
   05:10:33.800.09-May-2021 4452.51 4281.93 66.87 13.00 253.80 2953.46
   05:10:34.000.09-May-2021 4452.51 4282.06 66.87 13.00 254.00 2953.46
   05:10:34.200.09-May-2021 4452.51 4282.06 66.87 13.00 254.20 2953.46
   05:10:34.400.09-May-2021 4452.51 4282.04 66.87 13.00 254.40 2953.46
   05:10:34.600.09-May-2021 4452.51 4282.03 66.87 13.00 254.60 2953.46
   05:10:34.800.09-May-2021 4452.51 4282.03 66.87 13.00 254.80 2953.46
   05:10:35.000.09-May-2021 4452.51 4282.04 66.87 13.00 255.00 2953.46
   05:10:35.200.09-May-2021 4452.51 4282.04 66.87 13.00 255.20 2953.46
   05:10:35.400.09-May-2021 4452.51 4282.04 66.87 13.00 255.40 2953.46
   05:10:35.600.09-May-2021 4452.51 4281.99 66.87 13.00 255.60 2953.46
   05:10:35.800.09-May-2021 4452.51 4282.09 66.87 13.00 255.80 2953.46
   05:10:36.000.09-May-2021 4452.51 4282.02 66.87 13.00 256.00 2953.46
   05:10:36.200.09-May-2021 4452.51 4282.02 66.87 13.00 256.20 2953.46
   05:10:36.400.09-May-2021 4452.51 4282.02 66.87 13.00 256.40 2953.46
   05:10:36.600.09-May-2021 4452.51 4282.05 66.87 13.00 256.60 2953.46
   05:10:36.800.09-May-2021 4452.51 4215.82 66.87 13.00 256.80 2953.46
   05:10:37.000.09-May-2021 4452.51 4091.81 66.87 13.00 257.00 2953.46
   05:10:37.200.09-May-2021 4452.51 4091.81 66.87 13.00 257.20 2953.46
   05:10:37.400.09-May-2021 4452.51 4016.60 66.87 13.00 257.40 2953.46
   05:10:37.600.09-May-2021 4452.51 3996.54 66.87 13.00 257.60 2953.46
   05:10:37.800.09-May-2021 4452.51 3982.76 66.87 13.00 257.80 2953.46
   05:10:38.000.09-May-2021 4452.51 3978.28 66.87 13.00 258.00 2953.46
   05:10:38.200.09-May-2021 4452.51 3978.28 66.87 13.00 258.20 2953.46
   05:10:38.400.09-May-2021 4452.51 3965.64 66.87 13.00 258.40 2953.46
   05:10:38.600.09-May-2021 4452.51 3955.76 66.87 13.00 258.60 2953.46
   05:10:38.800.09-May-2021 4452.51 3953.65 66.87 13.00 258.80 2953.46
   05:10:39.000.09-May-2021 4452.51 3945.77 66.87 13.00 259.00 2953.46
   05:10:39.200.09-May-2021 4452.51 3945.77 66.87 13.00 259.20 2953.46
   05:10:39.400.09-May-2021 4452.51 3936.24 66.87 13.00 259.40 2953.46
   05:10:39.600.09-May-2021 4452.51 3935.12 66.87 13.00 259.60 2953.46
   05:10:39.800.09-May-2021 4452.51 3935.75 66.87 13.00 259.80 2953.46
   05:10:40.000.09-May-2021 4452.51 3937.42 66.87 13.00 260.00 2953.46
   05:10:40.200.09-May-2021 4452.51 3937.42 66.87 13.00 260.20 2953.46
   05:10:40.400.09-May-2021 4452.51 3936.02 66.87 13.00 260.40 2953.46
   05:10:40.600.09-May-2021 4452.51 3932.31 66.87 13.00 260.60 2953.46
   05:10:40.800.09-May-2021 4452.51 3932.84 66.87 13.00 260.80 2953.46
   05:10:41.000.09-May-2021 4452.51 3921.75 66.87 13.00 261.00 2953.46
   05:10:41.200.09-May-2021 4452.51 3921.75 66.87 13.00 261.20 2953.46
   05:10:41.400.09-May-2021 4452.51 3918.41 66.87 13.00 261.40 2953.46
   05:10:41.600.09-May-2021 4452.51 3918.99 66.86 13.00 261.60 2953.46
   05:10:41.800.09-May-2021 4452.51 3921.93 66.86 13.00 261.80 2953.46
   05:10:42.000.09-May-2021 4452.51 3915.73 66.86 13.00 262.00 2953.46
   05:10:42.200.09-May-2021 4452.51 3915.73 66.86 13.00 262.20 2953.46
   05:10:42.400.09-May-2021 4452.51 3909.79 66.86 13.00 262.40 2953.46
   05:10:42.600.09-May-2021 4452.51 3907.31 66.86 13.00 262.60 2953.46
   05:10:42.800.09-May-2021 4452.51 3905.24 66.86 13.00 262.80 2953.46
   05:10:43.000.09-May-2021 4452.51 3902.56 66.86 13.00 263.00 2953.46
   05:10:43.200.09-May-2021 4452.51 3902.56 66.86 13.00 263.20 2953.46
   05:10:43.400.09-May-2021 4452.51 3898.32 66.86 13.00 263.40 2953.46
   05:10:43.600.09-May-2021 4452.51 3895.66 66.86 13.00 263.60 2953.46
   05:10:43.800.09-May-2021 4452.51 3893.81 66.86 13.00 263.80 2953.46
   05:10:44.000.09-May-2021 4452.51 3896.95 66.86 13.00 264.00 2953.46
   05:10:44.200.09-May-2021 4452.51 3896.95 66.86 13.00 264.20 2953.46
   05:10:44.400.09-May-2021 4452.51 3923.05 66.86 13.00 264.40 2953.46
   05:10:44.600.09-May-2021 4452.51 3919.57 66.86 13.00 264.60 2953.46
   05:10:44.800.09-May-2021 4452.51 3920.08 66.86 13.00 264.80 2953.46
   05:10:45.000.09-May-2021 4452.51 3917.16 66.86 13.00 265.00 2953.46
   05:10:45.200.09-May-2021 4452.51 3917.16 66.86 13.00 265.20 2953.46
   05:10:45.400.09-May-2021 4452.51 3913.37 66.86 13.00 265.40 2953.46
   05:10:45.600.09-May-2021 4452.51 3910.42 66.86 13.00 265.60 2953.46
   05:10:45.800.09-May-2021 4452.51 3909.84 66.86 13.00 265.80 2953.46
   05:10:46.000.09-May-2021 4452.51 3908.58 66.86 13.00 266.00 2953.46
   05:10:46.200.09-May-2021 4452.51 3908.58 66.86 13.00 266.20 2953.46
   05:10:46.400.09-May-2021 4452.51 3904.64 66.86 13.00 266.40 2953.46
   05:10:46.600.09-May-2021 4452.51 3904.82 66.86 13.00 266.60 2953.46
   05:10:46.800.09-May-2021 4452.51 3902.72 66.86 13.00 266.80 2953.46
   05:10:47.000.09-May-2021 4452.51 4098.60 66.86 13.00 267.00 2953.46
   05:10:47.200.09-May-2021 4452.51 4098.60 66.86 13.00 267.20 2953.46
   05:10:47.400.09-May-2021 4452.51 4272.89 66.86 13.00 267.40 2953.46
   05:10:47.600.09-May-2021 4452.51 4279.43 66.86 13.00 267.60 2953.46
   05:10:47.800.09-May-2021 4452.51 4280.49 66.86 13.00 267.80 2953.46
   05:10:48.000.09-May-2021 4452.51 4280.61 66.86 13.00 268.00 2953.46
   05:10:48.200.09-May-2021 4452.51 4280.61 66.86 13.00 268.20 2953.46
   05:10:48.400.09-May-2021 4452.51 4280.84 66.86 13.00 268.40 2953.46
   05:10:48.600.09-May-2021 4452.51 4281.18 66.86 13.00 268.60 2953.46
   05:10:48.800.09-May-2021 4452.51 4281.12 66.86 13.00 268.80 2953.46
   05:10:49.000.09-May-2021 4452.51 4281.54 66.86 13.00 269.00 2953.46
   05:10:49.200.09-May-2021 4452.51 4281.54 66.86 13.00 269.20 2953.46
   05:10:49.400.09-May-2021 4452.51 4281.54 66.86 13.00 269.40 2953.46
   05:10:49.600.09-May-2021 4452.51 4281.36 66.86 13.00 269.60 2953.46
   05:10:49.800.09-May-2021 4452.51 4281.69 66.86 13.00 269.80 2953.46
   05:10:50.000.09-May-2021 4452.51 4281.69 66.86 13.00 270.00 2953.46
   05:10:50.200.09-May-2021 4452.51 4281.69 66.86 13.00 270.20 2953.46
   05:10:50.400.09-May-2021 4452.51 4281.73 66.86 13.00 270.40 2953.46
   05:10:50.600.09-May-2021 4452.51 4281.70 66.86 13.00 270.60 2953.46
   05:10:50.800.09-May-2021 4452.51 4281.75 66.86 13.00 270.80 2953.46
   05:10:51.000.09-May-2021 4452.51 4281.78 66.86 13.00 271.00 2953.46
