~Version Information
 VERS.                  2.0:   CWLS log ASCII Standard -VERSION 2.0
 WRAP.                   NO:   One line per depth step
~Well Information Block
#MNEM.UNIT     VALUE/NAME     DESCRIPTION
#---------     -----------    ---------------------------
 STRT.S             01:38:21 09-May-21: START TIME 01:38:21 09-May-21
 STOP.S             01:44:59 09-May-21: STOP TIME  01:44:59 09-May-21
 STEP.S                   0.00: STEP TIME
 NULL.                 -999.25: NULL VALUE
 PROV.                    Baku:  PROVINCE
 STAT.                    Baku:  STATE NAME
 SON .        AZ-XX-0906571588:  JOB NUMBER
 WTYP.                Deviated:  WELL TYPE
 COMP.     BP Exploration (Caspian Sea) ltd:  COMPANY
 BASE.              Azerbaijan:  LOGGING EQUIPMENT BASE LOCATION
 REGN.                   EESSA:  REGION
 CTRY.              Azerbaijan:  COUNTRY NAME
 FLD .                     ACG:  FIELD NAME
 WELL.                     J28:  WELL NAME
 RIG .             West Chirag:  RIG NAME
 DMF .             Drill Floor:  DRILL MEAS FROM
 PDAT.       Caspian Sea Level:  PERMANENT DATUM
 HPTY.       Minimum Curvature:  HOLE POS TYPE
 MDS .        Operator Entered:  MAG DATA SOURCE
 NREF.                    Grid:  NORTH REFERENCE
 SRVC.          TURAN DRILLING:  CONTRACTOR
 JOBN.        AZ-XX-0906571588:  JOB TICKET NUMB
 DCON.     Halliburton Sperry Drilling:  DIRECTNL CONTR
 STIM.      00.44.00 11-Feb-21:  START TIME
 DATE.      00.00.00 05-May-21:  END TIME
 SPUD.               13-Feb-21:  SPUD DATE
 MWDS.                    Baku:  MWD SHOP
 DOE .                     N/A:  DOE NUMBER
 UNIT.                     N/A:  LOGGING EQUIPMENT ID
 UWI .                     N/A:  UNIQUE WELL IDENTIFIER
 API .                     N/A:  API NUMBER
 CNTY.                        :  COUNTY
 LOC .                        :  LOCATION
 LMF .             Drill Floor:  LOG MEASURED FROM
 TVDS.m                  43.00:  TVDSS CORRECTN
 SDEP.m                 341.00:  START DEPTH
 EGL .m                   0.00:  GROUND ELEVATION
 WDMS.m                 169.80:  WD ELEV
 AGAP.m                  43.00:  AIR GAP
 EPD .m                   0.00:  ELEVATION
 APD .m                  43.00:  DEPTH ABOVE PD
 LATI.deg                40.13:  LATITUDE
 LONG.deg                51.22:  LONGITUDE
 UTMY.m             4443793.85:  UTM Y
 UTMX.m              519005.06:  UTM X
 WHEW.m                 -11.57:  WELL HEAD E/W
 WHNS.m                   8.57:  WELL HEAD N/S
 VSEW.m                 -11.57:  VERT SEC E/W
 VSNS.m                   8.57:  VERT SEC N/S
 DFWL.m                   0.00:  DISTANCE FWL
 DFSL.m                   0.00:  DISTANCE FSL
 VSDR.deg               299.34:  VERT SEC DIRECT
 GVFD.g                   1.00:  GRAVITY FIELD
 AZTC.deg                 6.36:  AZM TOTAL CORR
 MFLD.nT              50391.00:  MAGNETIC FIELD
 MDIP.deg                59.65:  MAGNETIC DIP
 MDEC.deg                 6.48:  MAGNETIC DECL
 GRDC.deg                 0.12:  GRID CORRECTION
 DEP .m                 334.96:  DEPTH
 TDD .m                1407.26:  TOTAL DEPTH (DRILLER)
 EKB .m                  43.00:  KB ELEVATION
 EDF .m                  43.00:  DF ELEVATION
 TDL .m                 228.00:  TOTAL DEPTH (LOGGER)
 VSC .                       0:  VS TO CLOSURE
 MAGU.                 1854484:  MAGUTM CHECKSUM
~Parameter Information Block
#MNEM.UNIT       Value        Description
#---------     -----------    ---------------------------
 AV  .mps                 4.00:  Ann Velocity 
 AVMX.mps                 4.73:  Max Ann Veloc 
 AZIF.deg               304.48:  Azm, Final 
 BHAT.        Rotary Steerable:  BHA Type 
 BREV.rev            257300.00:  Rev Bit Total 
 BROT.°/30m               0.00:  Build Rotating 
 BS  .in                  8.50:  Bit Size 
 BSZ .in                  8.50:  Bit Size 
 BTPL.psig              589.00:  Bit Press Loss 
 CABU.                      No:  Customer Abuse 
 CGEO.          Mubariz ghayev:  Customer Geo 
 TCS .hr                 64.25:  Time Ciculation Ended 
 CV  .mps                 3.50:  Crit Velocity 
 CVMX.mps                 4.52:  Max Crit Veloc 
 DD1 .             Aziz Aliyev:  Direct Drillr 1 
 DD2 .         Intigam Rahimov:  Direct Drillr 2 
 DD3 .          Rashad Habibov:  Direct Drillr 3 
 DDSV.               Geo-Pilot:  DD Service 
 DEFF.%                  98.00:  % Det Eff 
 DLRX.°/30m               0.00:  Dogleg Rot Max 
 DLSO.°/30m               0.00:  Dogleg Oriented 
 DLSX.°/30m               0.00:  Dogleg Str Max 
 DRET.      10.45.04 08-May-21:  Drill End Time 
 DRST.      03.30.04 04-May-21:  Drill Start Tim 
 DTIM.hr                 14.97:  Time Drilling 
 EDEP.m                4640.01:  End Depth 
 ENG1.         Dail Mahammadov:  Engineer 1 
 ENG2.           Eldar Hajiyev:  Engineer 2 
 ENG3.       Bakhtiar Jabbarli:  Engineer 3 
 ENG4.       Natik Hasanagayev:  Engineer 4 
 ETIM.      09.30.04 14-May-21:  End Time 
 FLOI.gpm               460.00:  Flow In 
 FLON.gpm               200.00:  Flow In Min 
 FLOS.cptm                0.00:  Fluid Loss 
 FLOX.gpm               505.00:  Flow In Max 
 HFLO.                      No:  High Flow 
 HPRE.                      No:  High Pressure 
 HTEM.                      No:  High Temp 
 HYDO.m                   1.80:  Hydro Offset 
 IFIN.deg                66.71:  Inc, Final 
 IMAX.deg                67.03:  Inc Max 
 IMIN.deg                66.63:  Inc Min 
 IMND.m                4550.58:  Inc Min Depth 
 IMXD.m                4439.01:  Inc Max Depth 
 JARR.                      No:  Jarring 
 LETM.      10.45.04 08-May-21:  Log End Time 
 LOST.hr                     0:  Lost Rig Time 
 LSTM.      03.30.04 04-May-21:  Log Start Time 
 MDCL.ppm             37000.00:  Mud Chlorides 
 MDES.     Inversion Oil/Synthetic:  Mud Desc 
 DFD .sg                  1.38:  Mud Density 
 MDMN.sg                  1.35:  Dens Mud Min 
 MDMX.sg                  1.40:  Dens Mud Max 
 MOIL.                   57.40:  Run Mud Oil % 
 MOWR.                   70:30:  Run Mud OWR 
 MSND.                    0.00:  Run Mud Sand % 
 MSOL.                   18.00:  Run Mud Solids% 
 DFV .spqt               71.00:  Mud Viscosity 
 MWOD.in                  6.75:  MWD Tool OD 
 MWSI.                      No:  Serv Intrp, MWD 
 OTIM.hr                242.76:  Time Operating 
 PCON.           Look Like New:  Pad Condition 
 PMAX.psia            12183.92:  Press Op, Max 
 PV  .cP                 27.00:  Mud PV 
 RUN .                    1300:  Run Number 
 ROPA.m/hr               15.00:  ROP Avg 
 ROPN.m/hr                9.00:  ROP Min 
 ROPX.m/hr               19.00:  ROP Max 
 RPMA.rpm               120.00:  RPM Surface Avg 
 RPMN.rpm               100.00:  RPM Surface Min 
 RPMX.rpm               120.00:  RPM Surface Max 
 RRUN.                    1300:  Rig Run Number 
 RTIM.hr                  5.00:  Time Reaming 
 SAZI.deg               304.73:  Azm, Start 
 SDEP.m                4412.01:  Start Depth 
 SIDD.                      No:  Serv Intrp, DD 
 SINC.deg                66.82:  Inc, Start 
 SPPA.psig             2800.00:  SPP Avg 
 SPPN.psig             2610.00:  SPP Min 
 SPPX.psig             3100.00:  SPP Max 
 STIM.      03.30.00 04-May-21:  Start Time 
 SVCS.                 DD, MWD:  Services 
 SVER.                    9.20:  Sperry Version 
 TDAT.m                 228.00:  Tot Depth Attmp 
 TDDF.                      No:  Trip for DD 
 TDLG.m                 228.00:  Tot Depth Loggd 
 TFF .                      No:  Trip for Fail 
 TQAA.f-kp               15.00:  Torque Abs Avg 
 TQAN.f-kp               12.00:  Torque Abs Min 
 TQAX.f-kp               22.00:  Torque Abs Max 
 TRRT.°/30m               0.00:  Turn Rotating 
 MRT .                    HCIM:  Maximum Recorded Temperature 
 TTMX.degC               90.20:  Max Tool Temp 
 VS01.                90627813:  Virtual Str1 SN 
 VS02.                90634712:  Virtual Str2 SN 
 VS03.                90643410:  Virtual Str3 SN 
 VS04.                90634712:  Virtual Str4 SN 
 WBMN.klb                 9.00:  WOB Min 
 WITN.        Elmaddin Rahimov:  Customer Rep 
 WITN.         Haytham Mostafa:  Customer Rep 2 
 WOBA.klb                15.00:  WOB Avg 
 WOBX.klb                23.00:  WOB Max 
 YP  .lhf2               29.00:  Yield Point 
~Curve Information Block
#MNEM.UNIT                 API CODE     Curve Description
#---------               -----------    ---------------------------
 TIME.HHMMSS            00 000 000 000:  GT Time & Date
 GTDEPTH.m              00 000 000 000:  GT Depth
 GTPQH.psia             00 000 000 000:  GT HR Quartz Pressure
 GTTQ.degC              00 000 000 000:  GT Quartz Temperature
 GTTN.NONE              00 000 000 000:  GT Test Number
 GTET.sec               00 000 000 000:  GT Elapsed Test Time
 GTTVD.m                00 000 000 000:  GT True Vertical Depth
#Other Information
#
#WARRANTY: Halliburton will use its best efforts to furnish customers with 
#accurate information and interpretations that are part of, and incident to, the services 
#provided.  However, Halliburton cannot and does not warrant the accuracy 
#or correctness of such information and interpretations.  Under no circumstances should any 
#such information or interpretation be relied upon as the sole basis for any drilling, 
#completion, production, or financial decision or any procedure involving any risk to the 
#safety of any drilling venture, drilling rig or its crew or any other third party.  The 
#Customer has full responsibility for all drilling, completion and production operation.  
#Halliburton makes no representations or warranties, either expressed or 
#implied, including, but not limited to, the implied warranties of merchantability or fitness 
#for a particular purpose, with respect to the services rendered.  In no event will 
#Halliburton be liable for failure to obtain any particular results or for 
#any damages, including, but not limited to, indirect, special or consequential damages, 
#resulting from the use of any information or interpretation provided by Halliburton.
#
~A           TIME           GTDEPTH  GTPQH  GTTQ  GTTN   GTET   GTTVD  
# ...
   01:42:52.634.09-May-2021 4502.51  645.40 67.50 10.00 271.30 2973.10
   01:42:52.834.09-May-2021 4502.51  645.97 67.50 10.00 271.50 2973.10
   01:42:53.034.09-May-2021 4502.51  645.78 67.50 10.00 271.70 2973.10
   01:42:53.234.09-May-2021 4502.51  646.45 67.50 10.00 271.90 2973.10
   01:42:53.434.09-May-2021 4502.51  646.70 67.50 10.00 272.10 2973.10
   01:42:53.634.09-May-2021 4502.51  646.70 67.50 10.00 272.30 2973.10
   01:42:53.834.09-May-2021 4502.51  646.92 67.50 10.00 272.50 2973.10
   01:42:54.034.09-May-2021 4502.51  646.78 67.50 10.00 272.70 2973.10
   01:42:54.234.09-May-2021 4502.51  647.13 67.50 10.00 272.90 2973.10
   01:42:54.434.09-May-2021 4502.51  647.19 67.50 10.00 273.10 2973.10
   01:42:54.635.09-May-2021 4502.51  647.19 67.50 10.00 273.30 2973.10
   01:42:54.835.09-May-2021 4502.51  647.62 67.50 10.00 273.50 2973.10
   01:42:55.035.09-May-2021 4502.51  647.91 67.50 10.00 273.70 2973.10
   01:42:55.235.09-May-2021 4502.51  648.10 67.50 10.00 273.90 2973.10
   01:42:55.435.09-May-2021 4502.51  648.36 67.50 10.00 274.10 2973.10
   01:42:55.635.09-May-2021 4502.51  648.36 67.50 10.00 274.30 2973.10
   01:42:55.835.09-May-2021 4502.51  648.83 67.50 10.00 274.50 2973.10
   01:42:56.035.09-May-2021 4502.51  649.08 67.50 10.00 274.70 2973.10
   01:42:56.235.09-May-2021 4502.51  649.29 67.50 10.00 274.90 2973.10
   01:42:56.435.09-May-2021 4502.51  649.57 67.50 10.00 275.10 2973.10
   01:42:56.635.09-May-2021 4502.51  649.57 67.50 10.00 275.30 2973.10
   01:42:56.835.09-May-2021 4502.51  649.98 67.50 10.00 275.50 2973.10
   01:42:57.035.09-May-2021 4502.51  649.75 67.50 10.00 275.70 2973.10
   01:42:57.235.09-May-2021 4502.51  650.19 67.50 10.00 275.90 2973.10
   01:42:57.436.09-May-2021 4502.51  650.30 67.50 10.00 276.10 2973.10
   01:42:57.636.09-May-2021 4502.51  650.30 67.50 10.00 276.30 2973.10
   01:42:57.836.09-May-2021 4502.51  650.75 67.50 10.00 276.50 2973.10
   01:42:58.036.09-May-2021 4502.51  650.98 67.50 10.00 276.70 2973.10
   01:42:58.236.09-May-2021 4502.51  651.19 67.50 10.00 276.90 2973.10
   01:42:58.436.09-May-2021 4502.51  651.46 67.50 10.00 277.10 2973.10
   01:42:58.636.09-May-2021 4502.51  651.46 67.50 10.00 277.30 2973.10
   01:42:58.836.09-May-2021 4502.51  651.91 67.50 10.00 277.50 2973.10
   01:42:59.036.09-May-2021 4502.51  652.13 67.50 10.00 277.70 2973.10
   01:42:59.236.09-May-2021 4502.51  651.72 67.50 10.00 277.90 2973.10
   01:42:59.436.09-May-2021 4502.51  652.33 67.50 10.00 278.10 2973.10
   01:42:59.636.09-May-2021 4502.51  652.33 67.50 10.00 278.30 2973.10
   01:42:59.836.09-May-2021 4502.51  652.42 67.50 10.00 278.50 2973.10
   01:43:00.036.09-May-2021 4502.51  652.42 67.50 10.00 278.70 2973.10
   01:43:00.237.09-May-2021 4502.51  652.81 67.50 10.00 278.90 2973.10
   01:43:00.437.09-May-2021 4502.51  652.94 67.50 10.00 279.10 2973.10
   01:43:00.637.09-May-2021 4502.51  652.94 67.50 10.00 279.30 2973.10
   01:43:00.837.09-May-2021 4502.51  653.00 67.50 10.00 279.50 2973.10
   01:43:01.037.09-May-2021 4502.51  653.57 67.50 10.00 279.70 2973.10
   01:43:01.237.09-May-2021 4502.51  653.70 67.50 10.00 279.90 2973.10
   01:43:01.437.09-May-2021 4502.51  653.73 67.50 10.00 280.10 2973.10
   01:43:01.637.09-May-2021 4502.51  653.73 67.50 10.00 280.30 2973.10
   01:43:01.837.09-May-2021 4502.51  654.21 67.50 10.00 280.50 2973.10
   01:43:02.037.09-May-2021 4502.51  654.04 67.50 10.00 280.70 2973.10
   01:43:02.237.09-May-2021 4502.51  654.40 67.50 10.00 280.90 2973.10
   01:43:02.437.09-May-2021 4502.51  654.48 67.50 10.00 281.10 2973.10
   01:43:02.637.09-May-2021 4502.51  654.48 67.50 10.00 281.30 2973.10
   01:43:02.837.09-May-2021 4502.51  654.95 67.50 10.00 281.50 2973.10
   01:43:03.038.09-May-2021 4502.51  655.16 67.50 10.00 281.70 2973.10
   01:43:03.238.09-May-2021 4502.51  655.39 67.50 10.00 281.90 2973.10
   01:43:03.438.09-May-2021 4502.51  655.65 67.50 10.00 282.10 2973.10
   01:43:03.638.09-May-2021 4502.51  655.65 67.50 10.00 282.30 2973.10
   01:43:03.838.09-May-2021 4502.51  656.12 67.50 10.00 282.50 2973.10
   01:43:04.038.09-May-2021 4502.51  656.34 67.50 10.00 282.70 2973.10
   01:43:04.238.09-May-2021 4502.51  656.04 67.50 10.00 282.90 2973.10
   01:43:04.438.09-May-2021 4502.51  656.69 67.50 10.00 283.10 2973.10
   01:43:04.638.09-May-2021 4502.51  656.69 67.50 10.00 283.30 2973.10
   01:43:04.838.09-May-2021 4502.51  656.81 67.50 10.00 283.50 2973.10
   01:43:05.038.09-May-2021 4502.51  657.04 67.50 10.00 283.70 2973.10
   01:43:05.238.09-May-2021 4502.51  657.22 67.50 10.00 283.90 2973.10
   01:43:05.438.09-May-2021 4502.51  657.49 67.50 10.00 284.10 2973.10
   01:43:05.639.09-May-2021 4502.51  657.49 67.50 10.00 284.30 2973.10
   01:43:05.839.09-May-2021 4502.51  657.93 67.50 10.00 284.50 2973.10
   01:43:06.039.09-May-2021 4502.51  658.14 67.50 10.00 284.70 2973.10
   01:43:06.239.09-May-2021 4502.51  658.38 67.50 10.00 284.90 2973.10
   01:43:06.439.09-May-2021 4502.51  658.64 67.50 10.00 285.10 2973.10
   01:43:06.639.09-May-2021 4502.51  658.64 67.50 10.00 285.30 2973.10
   01:43:06.839.09-May-2021 4502.51  658.65 67.50 10.00 285.50 2973.10
   01:43:07.039.09-May-2021 4502.51  659.11 67.50 10.00 285.70 2973.10
   01:43:07.239.09-May-2021 4502.51  659.28 67.50 10.00 285.90 2973.10
   01:43:07.439.09-May-2021 4502.51  659.24 67.50 10.00 286.10 2973.10
   01:43:07.639.09-May-2021 4502.51  659.24 67.50 10.00 286.30 2973.10
   01:43:07.839.09-May-2021 4502.51  659.39 67.50 10.00 286.50 2973.10
   01:43:08.039.09-May-2021 4502.51  659.92 67.50 10.00 286.70 2973.10
   01:43:08.239.09-May-2021 4502.51  660.06 67.50 10.00 286.90 2973.10
   01:43:08.440.09-May-2021 4502.51  659.59 67.50 10.00 287.10 2973.10
   01:43:08.640.09-May-2021 4502.51  659.59 67.50 10.00 287.30 2973.10
   01:43:08.840.09-May-2021 4502.51  660.62 67.50 10.00 287.50 2973.10
   01:43:09.040.09-May-2021 4502.51  660.08 67.50 10.00 287.70 2973.10
   01:43:09.240.09-May-2021 4502.51  673.48 67.50 10.00 287.90 2973.10
   01:43:09.440.09-May-2021 4502.51  757.17 67.50 10.00 288.10 2973.10
   01:43:09.640.09-May-2021 4502.51  757.17 67.50 10.00 288.30 2973.10
   01:43:09.840.09-May-2021 4502.51  760.80 67.50 10.00 288.50 2973.10
   01:43:10.040.09-May-2021 4502.51  760.96 67.50 10.00 288.70 2973.10
   01:43:10.240.09-May-2021 4502.51  761.22 67.50 10.00 288.90 2973.10
   01:43:10.440.09-May-2021 4502.51  761.46 67.50 10.00 289.10 2973.10
   01:43:10.640.09-May-2021 4502.51  761.46 67.50 10.00 289.30 2973.10
   01:43:10.840.09-May-2021 4502.51  761.98 67.50 10.00 289.50 2973.10
   01:43:11.040.09-May-2021 4502.51  762.25 67.50 10.00 289.70 2973.10
   01:43:11.241.09-May-2021 4502.51  762.54 67.50 10.00 289.91 2973.10
   01:43:11.441.09-May-2021 4502.51  762.60 67.50 10.00 290.11 2973.10
   01:43:11.641.09-May-2021 4502.51  762.60 67.50 10.00 290.31 2973.10
   01:43:11.841.09-May-2021 4502.51  763.06 67.50 10.00 290.51 2973.10
   01:43:12.041.09-May-2021 4502.51  763.31 67.50 10.00 290.71 2973.10
   01:43:12.241.09-May-2021 4502.51  763.38 67.50 10.00 290.91 2973.10
   01:43:12.441.09-May-2021 4502.51  763.64 67.50 10.00 291.11 2973.10
   01:43:12.641.09-May-2021 4502.51  763.64 67.50 10.00 291.31 2973.10
   01:43:12.841.09-May-2021 4502.51  764.16 67.50 10.00 291.51 2973.10
   01:43:13.041.09-May-2021 4502.51  764.42 67.50 10.00 291.71 2973.10
   01:43:13.241.09-May-2021 4502.51  764.68 67.50 10.00 291.91 2973.10
   01:43:13.441.09-May-2021 4502.51  764.94 67.50 10.00 292.11 2973.10
   01:43:13.641.09-May-2021 4502.51  764.94 67.50 10.00 292.31 2973.10
   01:43:13.841.09-May-2021 4502.51  765.46 67.50 10.00 292.51 2973.10
   01:43:14.042.09-May-2021 4502.51  765.13 67.50 10.00 292.71 2973.10
   01:43:14.242.09-May-2021 4502.51  765.83 67.50 10.00 292.91 2973.10
   01:43:14.442.09-May-2021 4502.51  765.75 67.50 10.00 293.11 2973.10
   01:43:14.642.09-May-2021 4502.51  765.75 67.50 10.00 293.31 2973.10
   01:43:14.842.09-May-2021 4502.51  766.27 67.50 10.00 293.51 2973.10
   01:43:15.042.09-May-2021 4502.51  765.95 67.50 10.00 293.71 2973.10
