~Version Information
 VERS.                  2.0:   CWLS log ASCII Standard -VERSION 2.0
 WRAP.                   NO:   One line per depth step
~Well Information Block
#MNEM.UNIT     VALUE/NAME     DESCRIPTION
#---------     -----------    ---------------------------
 STRT.S             01:50:25 10-May-21: START TIME 01:50:25 10-May-21
 STOP.S             01:58:33 10-May-21: STOP TIME  01:58:33 10-May-21
 STEP.S                   0.00: STEP TIME
 NULL.                 -999.25: NULL VALUE
 PROV.                    Baku:  PROVINCE
 STAT.                    Baku:  STATE NAME
 SON .        AZ-XX-0906571588:  JOB NUMBER
 WTYP.                Deviated:  WELL TYPE
 COMP.     BP Exploration (Caspian Sea) ltd:  COMPANY
 BASE.              Azerbaijan:  LOGGING EQUIPMENT BASE LOCATION
 REGN.                   EESSA:  REGION
 CTRY.              Azerbaijan:  COUNTRY NAME
 FLD .                     ACG:  FIELD NAME
 WELL.                     J28:  WELL NAME
 RIG .             West Chirag:  RIG NAME
 DMF .             Drill Floor:  DRILL MEAS FROM
 PDAT.       Caspian Sea Level:  PERMANENT DATUM
 HPTY.       Minimum Curvature:  HOLE POS TYPE
 MDS .        Operator Entered:  MAG DATA SOURCE
 NREF.                    Grid:  NORTH REFERENCE
 SRVC.          TURAN DRILLING:  CONTRACTOR
 JOBN.        AZ-XX-0906571588:  JOB TICKET NUMB
 DCON.     Halliburton Sperry Drilling:  DIRECTNL CONTR
 STIM.      00.44.00 11-Feb-21:  START TIME
 DATE.      00.00.00 05-May-21:  END TIME
 SPUD.               13-Feb-21:  SPUD DATE
 MWDS.                    Baku:  MWD SHOP
 DOE .                     N/A:  DOE NUMBER
 UNIT.                     N/A:  LOGGING EQUIPMENT ID
 UWI .                     N/A:  UNIQUE WELL IDENTIFIER
 API .                     N/A:  API NUMBER
 CNTY.                        :  COUNTY
 LOC .                        :  LOCATION
 LMF .             Drill Floor:  LOG MEASURED FROM
 TVDS.m                  43.00:  TVDSS CORRECTN
 SDEP.m                 341.00:  START DEPTH
 EGL .m                   0.00:  GROUND ELEVATION
 WDMS.m                 169.80:  WD ELEV
 AGAP.m                  43.00:  AIR GAP
 EPD .m                   0.00:  ELEVATION
 APD .m                  43.00:  DEPTH ABOVE PD
 LATI.deg                40.13:  LATITUDE
 LONG.deg                51.22:  LONGITUDE
 UTMY.m             4443793.85:  UTM Y
 UTMX.m              519005.06:  UTM X
 WHEW.m                 -11.57:  WELL HEAD E/W
 WHNS.m                   8.57:  WELL HEAD N/S
 VSEW.m                 -11.57:  VERT SEC E/W
 VSNS.m                   8.57:  VERT SEC N/S
 DFWL.m                   0.00:  DISTANCE FWL
 DFSL.m                   0.00:  DISTANCE FSL
 VSDR.deg               299.34:  VERT SEC DIRECT
 GVFD.g                   1.00:  GRAVITY FIELD
 AZTC.deg                 6.36:  AZM TOTAL CORR
 MFLD.nT              50391.00:  MAGNETIC FIELD
 MDIP.deg                59.65:  MAGNETIC DIP
 MDEC.deg                 6.48:  MAGNETIC DECL
 GRDC.deg                 0.12:  GRID CORRECTION
 DEP .m                 334.96:  DEPTH
 TDD .m                1407.26:  TOTAL DEPTH (DRILLER)
 EKB .m                  43.00:  KB ELEVATION
 EDF .m                  43.00:  DF ELEVATION
 TDL .m                 228.00:  TOTAL DEPTH (LOGGER)
 VSC .                       0:  VS TO CLOSURE
 MAGU.                 1854484:  MAGUTM CHECKSUM
~Parameter Information Block
#MNEM.UNIT       Value        Description
#---------     -----------    ---------------------------
 AV  .mps                 4.00:  Ann Velocity 
 AVMX.mps                 4.73:  Max Ann Veloc 
 AZIF.deg               304.48:  Azm, Final 
 BHAT.        Rotary Steerable:  BHA Type 
 BREV.rev            257300.00:  Rev Bit Total 
 BROT.°/30m               0.00:  Build Rotating 
 BS  .in                  8.50:  Bit Size 
 BSZ .in                  8.50:  Bit Size 
 BTPL.psig              589.00:  Bit Press Loss 
 CABU.                      No:  Customer Abuse 
 CGEO.          Mubariz ghayev:  Customer Geo 
 COMM.                     Í‚:  Run Comments 1 
 TCS .hr                 64.25:  Time Ciculation Ended 
 CV  .mps                 3.50:  Crit Velocity 
 CVMX.mps                 4.52:  Max Crit Veloc 
 DD1 .             Aziz Aliyev:  Direct Drillr 1 
 DD2 .         Intigam Rahimov:  Direct Drillr 2 
 DD3 .          Rashad Habibov:  Direct Drillr 3 
 DDSV.               Geo-Pilot:  DD Service 
 DEFF.%                  98.00:  % Det Eff 
 DLRX.°/30m               0.00:  Dogleg Rot Max 
 DLSO.°/30m               0.00:  Dogleg Oriented 
 DLSX.°/30m               0.00:  Dogleg Str Max 
 DRET.      10.45.04 08-May-21:  Drill End Time 
 DRST.      03.30.04 04-May-21:  Drill Start Tim 
 DTIM.hr                 14.97:  Time Drilling 
 EDEP.m                4640.01:  End Depth 
 ENG1.         Dail Mahammadov:  Engineer 1 
 ENG2.           Eldar Hajiyev:  Engineer 2 
 ENG3.       Bakhtiar Jabbarli:  Engineer 3 
 ENG4.       Natik Hasanagayev:  Engineer 4 
 ETIM.      09.30.04 14-May-21:  End Time 
 FLOI.gpm               460.00:  Flow In 
 FLON.gpm               200.00:  Flow In Min 
 FLOS.cptm                0.00:  Fluid Loss 
 FLOX.gpm               505.00:  Flow In Max 
 HFLO.                      No:  High Flow 
 HPRE.                      No:  High Pressure 
 HTEM.                      No:  High Temp 
 HYDO.m                   1.80:  Hydro Offset 
 IFIN.deg                66.71:  Inc, Final 
 IMAX.deg                67.03:  Inc Max 
 IMIN.deg                66.63:  Inc Min 
 IMND.m                4550.58:  Inc Min Depth 
 IMXD.m                4439.01:  Inc Max Depth 
 JARR.                      No:  Jarring 
 LETM.      10.45.04 08-May-21:  Log End Time 
 LOST.hr                     0:  Lost Rig Time 
 LSTM.      03.30.04 04-May-21:  Log Start Time 
 MDCL.ppm             37000.00:  Mud Chlorides 
 MDES.     Inversion Oil/Synthetic:  Mud Desc 
 DFD .sg                  1.38:  Mud Density 
 MDMN.sg                  1.35:  Dens Mud Min 
 MDMX.sg                  1.40:  Dens Mud Max 
 MOIL.                   57.40:  Run Mud Oil % 
 MOWR.                   70:30:  Run Mud OWR 
 MSND.                    0.00:  Run Mud Sand % 
 MSOL.                   18.00:  Run Mud Solids% 
 DFV .spqt               71.00:  Mud Viscosity 
 MWOD.in                  6.75:  MWD Tool OD 
 MWSI.                      No:  Serv Intrp, MWD 
 OTIM.hr                242.76:  Time Operating 
 PCON.           Look Like New:  Pad Condition 
 PMAX.psia            12183.92:  Press Op, Max 
 PV  .cP                 27.00:  Mud PV 
 RUN .                    1300:  Run Number 
 ROPA.m/hr               15.00:  ROP Avg 
 ROPN.m/hr                9.00:  ROP Min 
 ROPX.m/hr               19.00:  ROP Max 
 RPMA.rpm               120.00:  RPM Surface Avg 
 RPMN.rpm               100.00:  RPM Surface Min 
 RPMX.rpm               120.00:  RPM Surface Max 
 RRUN.                    1300:  Rig Run Number 
 RTIM.hr                  5.00:  Time Reaming 
 SAZI.deg               304.73:  Azm, Start 
 SDEP.m                4412.01:  Start Depth 
 SIDD.                      No:  Serv Intrp, DD 
 SINC.deg                66.82:  Inc, Start 
 SPPA.psig             2800.00:  SPP Avg 
 SPPN.psig             2610.00:  SPP Min 
 SPPX.psig             3100.00:  SPP Max 
 STIM.      03.30.00 04-May-21:  Start Time 
 SVCS.                 DD, MWD:  Services 
 SVER.                    9.20:  Sperry Version 
 TDAT.m                 228.00:  Tot Depth Attmp 
 TDDF.                      No:  Trip for DD 
 TDLG.m                 228.00:  Tot Depth Loggd 
 TFF .                      No:  Trip for Fail 
 TQAA.f-kp               15.00:  Torque Abs Avg 
 TQAN.f-kp               12.00:  Torque Abs Min 
 TQAX.f-kp               22.00:  Torque Abs Max 
 TRRT.°/30m               0.00:  Turn Rotating 
 MRT .                    HCIM:  Maximum Recorded Temperature 
 TTMX.degC               90.20:  Max Tool Temp 
 VS01.                90627813:  Virtual Str1 SN 
 VS02.                90634712:  Virtual Str2 SN 
 VS03.                90643410:  Virtual Str3 SN 
 VS04.                90634712:  Virtual Str4 SN 
 WBMN.klb                 9.00:  WOB Min 
 WITN.        Elmaddin Rahimov:  Customer Rep 
 WITN.         Haytham Mostafa:  Customer Rep 2 
 WOBA.klb                15.00:  WOB Avg 
 WOBX.klb                23.00:  WOB Max 
 YP  .lhf2               29.00:  Yield Point 
~Curve Information Block
#MNEM.UNIT                 API CODE     Curve Description
#---------               -----------    ---------------------------
 TIME.HHMMSS            00 000 000 000:  GT Time & Date
 GTDEPTH.m              00 000 000 000:  GT Depth
 GTPQH.psia             00 000 000 000:  GT HR Quartz Pressure
 GTTQ.degC              00 000 000 000:  GT Quartz Temperature
 GTTN.NONE              00 000 000 000:  GT Test Number
 GTET.sec               00 000 000 000:  GT Elapsed Test Time
 GTTVD.m                00 000 000 000:  GT True Vertical Depth
#Other Information
#
#WARRANTY: Halliburton will use its best efforts to furnish customers with 
#accurate information and interpretations that are part of, and incident to, the services 
#provided.  However, Halliburton cannot and does not warrant the accuracy 
#or correctness of such information and interpretations.  Under no circumstances should any 
#such information or interpretation be relied upon as the sole basis for any drilling, 
#completion, production, or financial decision or any procedure involving any risk to the 
#safety of any drilling venture, drilling rig or its crew or any other third party.  The 
#Customer has full responsibility for all drilling, completion and production operation.  
#Halliburton makes no representations or warranties, either expressed or 
#implied, including, but not limited to, the implied warranties of merchantability or fitness 
#for a particular purpose, with respect to the services rendered.  In no event will 
#Halliburton be liable for failure to obtain any particular results or for 
#any damages, including, but not limited to, indirect, special or consequential damages, 
#resulting from the use of any information or interpretation provided by Halliburton.
#
~A           TIME           GTDEPTH  GTPQH  GTTQ  GTTN   GTET   GTTVD  
# ...
   01:53:26.173.10-May-2021 4567.51  502.96 61.01 19.00 180.83 2998.78
   01:53:26.373.10-May-2021 4567.51  500.88 61.01 19.00 181.03 2998.78
   01:53:26.573.10-May-2021 4567.51  500.88 61.01 19.00 181.23 2998.78
   01:53:26.773.10-May-2021 4567.51  499.10 61.01 19.00 181.43 2998.78
   01:53:26.973.10-May-2021 4567.51  498.54 61.01 19.00 181.63 2998.78
   01:53:27.173.10-May-2021 4567.51  497.48 61.01 19.00 181.83 2998.78
   01:53:27.373.10-May-2021 4567.51  497.14 61.01 19.00 182.03 2998.78
   01:53:27.573.10-May-2021 4567.51  497.14 61.01 19.00 182.23 2998.78
   01:53:27.774.10-May-2021 4567.51  496.69 61.01 19.00 182.43 2998.78
   01:53:27.974.10-May-2021 4567.51  496.59 61.01 19.00 182.63 2998.78
   01:53:28.174.10-May-2021 4567.51  495.03 61.01 19.00 182.83 2998.78
   01:53:28.374.10-May-2021 4567.51  493.29 61.01 19.00 183.03 2998.78
   01:53:28.574.10-May-2021 4567.51  493.29 61.01 19.00 183.23 2998.78
   01:53:28.774.10-May-2021 4567.51  487.55 61.00 19.00 183.43 2998.78
   01:53:28.974.10-May-2021 4567.51  486.76 61.00 19.00 183.63 2998.78
   01:53:29.174.10-May-2021 4567.51  482.87 61.00 19.00 183.83 2998.78
   01:53:29.374.10-May-2021 4567.51  481.31 61.00 19.00 184.03 2998.78
   01:53:29.574.10-May-2021 4567.51  481.31 61.00 19.00 184.23 2998.78
   01:53:29.774.10-May-2021 4567.51  478.73 61.00 19.00 184.43 2998.78
   01:53:29.974.10-May-2021 4567.51  478.59 61.00 19.00 184.63 2998.78
   01:53:30.174.10-May-2021 4567.51  478.48 61.00 19.00 184.83 2998.78
   01:53:30.374.10-May-2021 4567.51  478.36 61.00 19.00 185.03 2998.78
   01:53:30.574.10-May-2021 4567.51  478.36 61.00 19.00 185.23 2998.78
   01:53:30.774.10-May-2021 4567.51  478.07 61.00 19.00 185.43 2998.78
   01:53:30.974.10-May-2021 4567.51  477.98 61.00 19.00 185.63 2998.78
   01:53:31.174.10-May-2021 4567.51  477.38 61.00 19.00 185.83 2998.78
   01:53:31.374.10-May-2021 4567.51  477.51 61.00 19.00 186.03 2998.78
   01:53:31.574.10-May-2021 4567.51  477.51 61.00 19.00 186.23 2998.78
   01:53:31.774.10-May-2021 4567.51  477.85 61.00 19.00 186.43 2998.78
   01:53:31.974.10-May-2021 4567.51  477.78 61.00 19.00 186.63 2998.78
   01:53:32.174.10-May-2021 4567.51  478.10 61.00 19.00 186.83 2998.78
   01:53:32.374.10-May-2021 4567.51  477.86 61.00 19.00 187.03 2998.78
   01:53:32.574.10-May-2021 4567.51  477.86 61.00 19.00 187.23 2998.78
   01:53:32.774.10-May-2021 4567.51  477.94 61.00 19.00 187.43 2998.78
   01:53:32.974.10-May-2021 4567.51  477.85 61.00 19.00 187.63 2998.78
   01:53:33.174.10-May-2021 4567.51  477.94 61.00 19.00 187.83 2998.78
   01:53:33.375.10-May-2021 4567.51  477.95 61.00 19.00 188.03 2998.78
   01:53:33.575.10-May-2021 4567.51  477.95 61.00 19.00 188.23 2998.78
   01:53:33.775.10-May-2021 4567.51  477.79 61.00 19.00 188.43 2998.78
   01:53:33.975.10-May-2021 4567.51  477.65 61.00 19.00 188.63 2998.78
   01:53:34.175.10-May-2021 4567.51  477.54 61.00 19.00 188.83 2998.78
   01:53:34.375.10-May-2021 4567.51  477.65 61.00 19.00 189.03 2998.78
   01:53:34.575.10-May-2021 4567.51  477.65 61.00 19.00 189.23 2998.78
   01:53:34.775.10-May-2021 4567.51  484.99 61.00 19.00 189.43 2998.78
   01:53:34.975.10-May-2021 4567.51  485.08 61.00 19.00 189.63 2998.78
   01:53:35.175.10-May-2021 4567.51  485.12 61.00 19.00 189.83 2998.78
   01:53:35.375.10-May-2021 4567.51  485.19 61.00 19.00 190.03 2998.78
   01:53:35.575.10-May-2021 4567.51  485.19 61.00 19.00 190.23 2998.78
   01:53:35.775.10-May-2021 4567.51  485.39 61.00 19.00 190.43 2998.78
   01:53:35.975.10-May-2021 4567.51  485.50 61.00 19.00 190.63 2998.78
   01:53:36.175.10-May-2021 4567.51  485.61 61.00 19.00 190.83 2998.78
   01:53:36.375.10-May-2021 4567.51  485.71 61.00 19.00 191.03 2998.78
   01:53:36.575.10-May-2021 4567.51  485.71 61.00 19.00 191.23 2998.78
   01:53:36.775.10-May-2021 4567.51  485.89 61.00 19.00 191.43 2998.78
   01:53:36.975.10-May-2021 4567.51  485.67 61.00 19.00 191.63 2998.78
   01:53:37.175.10-May-2021 4567.51  486.07 61.00 19.00 191.83 2998.78
   01:53:37.375.10-May-2021 4567.51  486.18 61.00 19.00 192.03 2998.78
   01:53:37.575.10-May-2021 4567.51  486.18 61.00 19.00 192.23 2998.78
   01:53:37.775.10-May-2021 4567.51  486.27 61.00 19.00 192.43 2998.78
   01:53:37.975.10-May-2021 4567.51  486.31 61.00 19.00 192.63 2998.78
   01:53:38.175.10-May-2021 4567.51  486.06 61.00 19.00 192.83 2998.78
   01:53:38.375.10-May-2021 4567.51  486.71 61.00 19.00 193.03 2998.78
   01:53:38.575.10-May-2021 4567.51  486.71 61.00 19.00 193.23 2998.78
   01:53:38.775.10-May-2021 4567.51  486.60 61.00 19.00 193.43 2998.78
   01:53:38.976.10-May-2021 4567.51  486.71 61.00 19.00 193.63 2998.78
   01:53:39.176.10-May-2021 4567.51  486.47 61.00 19.00 193.83 2998.78
   01:53:39.376.10-May-2021 4567.51  486.93 61.00 19.00 194.03 2998.78
   01:53:39.576.10-May-2021 4567.51  486.93 61.00 19.00 194.23 2998.78
   01:53:39.776.10-May-2021 4567.51  487.06 61.00 19.00 194.43 2998.78
   01:53:39.976.10-May-2021 4567.51  487.07 61.00 19.00 194.63 2998.78
   01:53:40.176.10-May-2021 4567.51  486.73 61.00 19.00 194.83 2998.78
   01:53:40.376.10-May-2021 4567.51  487.38 61.00 19.00 195.03 2998.78
   01:53:40.576.10-May-2021 4567.51  487.38 61.00 19.00 195.23 2998.78
   01:53:40.776.10-May-2021 4567.51  487.41 61.00 19.00 195.43 2998.78
   01:53:40.976.10-May-2021 4567.51  487.35 61.00 19.00 195.63 2998.78
   01:53:41.176.10-May-2021 4567.51  487.43 61.00 19.00 195.83 2998.78
   01:53:41.376.10-May-2021 4567.51  487.50 61.00 19.00 196.03 2998.78
   01:53:41.576.10-May-2021 4567.51  487.50 61.00 19.00 196.23 2998.78
   01:53:41.776.10-May-2021 4567.51  487.63 61.00 19.00 196.43 2998.78
   01:53:41.976.10-May-2021 4567.51  487.70 61.00 19.00 196.64 2998.78
   01:53:42.176.10-May-2021 4567.51  487.77 61.00 19.00 196.84 2998.78
   01:53:42.376.10-May-2021 4567.51  487.86 61.00 19.00 197.04 2998.78
   01:53:42.576.10-May-2021 4567.51  487.86 61.00 19.00 197.24 2998.78
   01:53:42.776.10-May-2021 4567.51  487.62 61.00 19.00 197.44 2998.78
   01:53:42.976.10-May-2021 4567.51  488.23 60.99 19.00 197.64 2998.78
   01:53:43.176.10-May-2021 4567.51  488.11 60.99 19.00 197.84 2998.78
   01:53:43.376.10-May-2021 4567.51  488.16 60.99 19.00 198.04 2998.78
   01:53:43.576.10-May-2021 4567.51  488.16 60.99 19.00 198.24 2998.78
   01:53:43.776.10-May-2021 4567.51  488.29 60.99 19.00 198.44 2998.78
   01:53:43.976.10-May-2021 4567.51  488.37 60.99 19.00 198.64 2998.78
   01:53:44.176.10-May-2021 4567.51  488.43 60.99 19.00 198.84 2998.78
   01:53:44.376.10-May-2021 4567.51  488.47 60.99 19.00 199.04 2998.78
   01:53:44.577.10-May-2021 4567.51  488.47 60.99 19.00 199.24 2998.78
   01:53:44.777.10-May-2021 4567.51  488.60 60.99 19.00 199.44 2998.78
   01:53:44.977.10-May-2021 4567.51  488.68 60.99 19.00 199.64 2998.78
   01:53:45.177.10-May-2021 4567.51  488.60 60.99 19.00 199.84 2998.78
   01:53:45.377.10-May-2021 4567.51  488.57 60.99 19.00 200.04 2998.78
   01:53:45.577.10-May-2021 4567.51  488.57 60.99 19.00 200.24 2998.78
   01:53:45.777.10-May-2021 4567.51  488.95 60.99 19.00 200.44 2998.78
   01:53:45.977.10-May-2021 4567.51  489.00 60.99 19.00 200.64 2998.78
   01:53:46.177.10-May-2021 4567.51  489.10 60.99 19.00 200.84 2998.78
   01:53:46.377.10-May-2021 4567.51  488.73 60.99 19.00 201.04 2998.78
   01:53:46.577.10-May-2021 4567.51  488.73 60.99 19.00 201.24 2998.78
   01:53:46.777.10-May-2021 4567.51  489.13 60.99 19.00 201.44 2998.78
   01:53:46.977.10-May-2021 4567.51  489.29 60.99 19.00 201.64 2998.78
   01:53:47.177.10-May-2021 4567.51  489.34 60.99 19.00 201.84 2998.78
   01:53:47.377.10-May-2021 4567.51  489.01 60.99 19.00 202.04 2998.78
   01:53:47.577.10-May-2021 4567.51  489.01 60.99 19.00 202.24 2998.78
   01:53:47.777.10-May-2021 4567.51  489.35 60.99 19.00 202.44 2998.78
   01:53:47.977.10-May-2021 4567.51  489.61 60.99 19.00 202.64 2998.78
   01:53:48.177.10-May-2021 4567.51  489.20 60.99 19.00 202.84 2998.78
   01:53:48.377.10-May-2021 4567.51  489.93 60.99 19.00 203.04 2998.78
   01:53:48.577.10-May-2021 4567.51  489.93 60.99 19.00 203.24 2998.78
