~Version Information
 VERS.                  2.0:   CWLS log ASCII Standard -VERSION 2.0
 WRAP.                   NO:   One line per depth step
~Well Information Block
#MNEM.UNIT     VALUE/NAME     DESCRIPTION
#---------     -----------    ---------------------------
 STRT.S             00:30:13 09-May-21: START TIME 00:30:13 09-May-21
 STOP.S             00:37:03 09-May-21: STOP TIME  00:37:03 09-May-21
 STEP.S                   0.00: STEP TIME
 NULL.                 -999.25: NULL VALUE
 PROV.                    Baku:  PROVINCE
 STAT.                    Baku:  STATE NAME
 SON .        AZ-XX-0906571588:  JOB NUMBER
 WTYP.                Deviated:  WELL TYPE
 COMP.     BP Exploration (Caspian Sea) ltd:  COMPANY
 BASE.              Azerbaijan:  LOGGING EQUIPMENT BASE LOCATION
 REGN.                   EESSA:  REGION
 CTRY.              Azerbaijan:  COUNTRY NAME
 FLD .                     ACG:  FIELD NAME
 WELL.                     J28:  WELL NAME
 RIG .             West Chirag:  RIG NAME
 DMF .             Drill Floor:  DRILL MEAS FROM
 PDAT.       Caspian Sea Level:  PERMANENT DATUM
 HPTY.       Minimum Curvature:  HOLE POS TYPE
 MDS .        Operator Entered:  MAG DATA SOURCE
 NREF.                    Grid:  NORTH REFERENCE
 SRVC.          TURAN DRILLING:  CONTRACTOR
 JOBN.        AZ-XX-0906571588:  JOB TICKET NUMB
 DCON.     Halliburton Sperry Drilling:  DIRECTNL CONTR
 STIM.      00.44.00 11-Feb-21:  START TIME
 DATE.      00.00.00 05-May-21:  END TIME
 SPUD.               13-Feb-21:  SPUD DATE
 MWDS.                    Baku:  MWD SHOP
 DOE .                     N/A:  DOE NUMBER
 UNIT.                     N/A:  LOGGING EQUIPMENT ID
 UWI .                     N/A:  UNIQUE WELL IDENTIFIER
 API .                     N/A:  API NUMBER
 CNTY.                        :  COUNTY
 LOC .                        :  LOCATION
 LMF .             Drill Floor:  LOG MEASURED FROM
 TVDS.m                  43.00:  TVDSS CORRECTN
 SDEP.m                 341.00:  START DEPTH
 EGL .m                   0.00:  GROUND ELEVATION
 WDMS.m                 169.80:  WD ELEV
 AGAP.m                  43.00:  AIR GAP
 EPD .m                   0.00:  ELEVATION
 APD .m                  43.00:  DEPTH ABOVE PD
 LATI.deg                40.13:  LATITUDE
 LONG.deg                51.22:  LONGITUDE
 UTMY.m             4443793.85:  UTM Y
 UTMX.m              519005.06:  UTM X
 WHEW.m                 -11.57:  WELL HEAD E/W
 WHNS.m                   8.57:  WELL HEAD N/S
 VSEW.m                 -11.57:  VERT SEC E/W
 VSNS.m                   8.57:  VERT SEC N/S
 DFWL.m                   0.00:  DISTANCE FWL
 DFSL.m                   0.00:  DISTANCE FSL
 VSDR.deg               299.34:  VERT SEC DIRECT
 GVFD.g                   1.00:  GRAVITY FIELD
 AZTC.deg                 6.36:  AZM TOTAL CORR
 MFLD.nT              50391.00:  MAGNETIC FIELD
 MDIP.deg                59.65:  MAGNETIC DIP
 MDEC.deg                 6.48:  MAGNETIC DECL
 GRDC.deg                 0.12:  GRID CORRECTION
 DEP .m                 334.96:  DEPTH
 TDD .m                1407.26:  TOTAL DEPTH (DRILLER)
 EKB .m                  43.00:  KB ELEVATION
 EDF .m                  43.00:  DF ELEVATION
 TDL .m                 228.00:  TOTAL DEPTH (LOGGER)
 VSC .                       0:  VS TO CLOSURE
 MAGU.                 1854484:  MAGUTM CHECKSUM
~Parameter Information Block
#MNEM.UNIT       Value        Description
#---------     -----------    ---------------------------
 AV  .mps                 4.00:  Ann Velocity 
 AVMX.mps                 4.73:  Max Ann Veloc 
 AZIF.deg               304.48:  Azm, Final 
 BHAT.        Rotary Steerable:  BHA Type 
 BREV.rev            257300.00:  Rev Bit Total 
 BROT.°/30m               0.00:  Build Rotating 
 BS  .in                  8.50:  Bit Size 
 BSZ .in                  8.50:  Bit Size 
 BTPL.psig              589.00:  Bit Press Loss 
 CABU.                      No:  Customer Abuse 
 CGEO.          Mubariz ghayev:  Customer Geo 
 TCS .hr                 64.25:  Time Ciculation Ended 
 CV  .mps                 3.50:  Crit Velocity 
 CVMX.mps                 4.52:  Max Crit Veloc 
 DD1 .             Aziz Aliyev:  Direct Drillr 1 
 DD2 .         Intigam Rahimov:  Direct Drillr 2 
 DD3 .          Rashad Habibov:  Direct Drillr 3 
 DDSV.               Geo-Pilot:  DD Service 
 DEFF.%                  98.00:  % Det Eff 
 DLRX.°/30m               0.00:  Dogleg Rot Max 
 DLSO.°/30m               0.00:  Dogleg Oriented 
 DLSX.°/30m               0.00:  Dogleg Str Max 
 DRET.      10.45.04 08-May-21:  Drill End Time 
 DRST.      03.30.04 04-May-21:  Drill Start Tim 
 DTIM.hr                 14.97:  Time Drilling 
 EDEP.m                4640.01:  End Depth 
 ENG1.         Dail Mahammadov:  Engineer 1 
 ENG2.           Eldar Hajiyev:  Engineer 2 
 ENG3.       Bakhtiar Jabbarli:  Engineer 3 
 ENG4.       Natik Hasanagayev:  Engineer 4 
 ETIM.      09.30.04 14-May-21:  End Time 
 FLOI.gpm               460.00:  Flow In 
 FLON.gpm               200.00:  Flow In Min 
 FLOS.cptm                0.00:  Fluid Loss 
 FLOX.gpm               505.00:  Flow In Max 
 HFLO.                      No:  High Flow 
 HPRE.                      No:  High Pressure 
 HTEM.                      No:  High Temp 
 HYDO.m                   1.80:  Hydro Offset 
 IFIN.deg                66.71:  Inc, Final 
 IMAX.deg                67.03:  Inc Max 
 IMIN.deg                66.63:  Inc Min 
 IMND.m                4550.58:  Inc Min Depth 
 IMXD.m                4439.01:  Inc Max Depth 
 JARR.                      No:  Jarring 
 LETM.      10.45.04 08-May-21:  Log End Time 
 LOST.hr                     0:  Lost Rig Time 
 LSTM.      03.30.04 04-May-21:  Log Start Time 
 MDCL.ppm             37000.00:  Mud Chlorides 
 MDES.     Inversion Oil/Synthetic:  Mud Desc 
 DFD .sg                  1.38:  Mud Density 
 MDMN.sg                  1.35:  Dens Mud Min 
 MDMX.sg                  1.40:  Dens Mud Max 
 MOIL.                   57.40:  Run Mud Oil % 
 MOWR.                   70:30:  Run Mud OWR 
 MSND.                    0.00:  Run Mud Sand % 
 MSOL.                   18.00:  Run Mud Solids% 
 DFV .spqt               71.00:  Mud Viscosity 
 MWOD.in                  6.75:  MWD Tool OD 
 MWSI.                      No:  Serv Intrp, MWD 
 OTIM.hr                242.76:  Time Operating 
 PCON.           Look Like New:  Pad Condition 
 PMAX.psia            12183.92:  Press Op, Max 
 PV  .cP                 27.00:  Mud PV 
 RUN .                    1300:  Run Number 
 ROPA.m/hr               15.00:  ROP Avg 
 ROPN.m/hr                9.00:  ROP Min 
 ROPX.m/hr               19.00:  ROP Max 
 RPMA.rpm               120.00:  RPM Surface Avg 
 RPMN.rpm               100.00:  RPM Surface Min 
 RPMX.rpm               120.00:  RPM Surface Max 
 RRUN.                    1300:  Rig Run Number 
 RTIM.hr                  5.00:  Time Reaming 
 SAZI.deg               304.73:  Azm, Start 
 SDEP.m                4412.01:  Start Depth 
 SIDD.                      No:  Serv Intrp, DD 
 SINC.deg                66.82:  Inc, Start 
 SPPA.psig             2800.00:  SPP Avg 
 SPPN.psig             2610.00:  SPP Min 
 SPPX.psig             3100.00:  SPP Max 
 STIM.      03.30.00 04-May-21:  Start Time 
 SVCS.                 DD, MWD:  Services 
 SVER.                    9.20:  Sperry Version 
 TDAT.m                 228.00:  Tot Depth Attmp 
 TDDF.                      No:  Trip for DD 
 TDLG.m                 228.00:  Tot Depth Loggd 
 TFF .                      No:  Trip for Fail 
 TQAA.f-kp               15.00:  Torque Abs Avg 
 TQAN.f-kp               12.00:  Torque Abs Min 
 TQAX.f-kp               22.00:  Torque Abs Max 
 TRRT.°/30m               0.00:  Turn Rotating 
 MRT .                    HCIM:  Maximum Recorded Temperature 
 TTMX.degC               90.20:  Max Tool Temp 
 VS01.                90627813:  Virtual Str1 SN 
 VS02.                90634712:  Virtual Str2 SN 
 VS03.                90643410:  Virtual Str3 SN 
 VS04.                90634712:  Virtual Str4 SN 
 WBMN.klb                 9.00:  WOB Min 
 WITN.        Elmaddin Rahimov:  Customer Rep 
 WITN.         Haytham Mostafa:  Customer Rep 2 
 WOBA.klb                15.00:  WOB Avg 
 WOBX.klb                23.00:  WOB Max 
 YP  .lhf2               29.00:  Yield Point 
~Curve Information Block
#MNEM.UNIT                 API CODE     Curve Description
#---------               -----------    ---------------------------
 TIME.HHMMSS            00 000 000 000:  GT Time & Date
 GTDEPTH.m              00 000 000 000:  GT Depth
 GTPQH.psia             00 000 000 000:  GT HR Quartz Pressure
 GTTQ.degC              00 000 000 000:  GT Quartz Temperature
 GTTN.NONE              00 000 000 000:  GT Test Number
 GTET.sec               00 000 000 000:  GT Elapsed Test Time
 GTTVD.m                00 000 000 000:  GT True Vertical Depth
#Other Information
#
#WARRANTY: Halliburton will use its best efforts to furnish customers with 
#accurate information and interpretations that are part of, and incident to, the services 
#provided.  However, Halliburton cannot and does not warrant the accuracy 
#or correctness of such information and interpretations.  Under no circumstances should any 
#such information or interpretation be relied upon as the sole basis for any drilling, 
#completion, production, or financial decision or any procedure involving any risk to the 
#safety of any drilling venture, drilling rig or its crew or any other third party.  The 
#Customer has full responsibility for all drilling, completion and production operation.  
#Halliburton makes no representations or warranties, either expressed or 
#implied, including, but not limited to, the implied warranties of merchantability or fitness 
#for a particular purpose, with respect to the services rendered.  In no event will 
#Halliburton be liable for failure to obtain any particular results or for 
#any damages, including, but not limited to, indirect, special or consequential damages, 
#resulting from the use of any information or interpretation provided by Halliburton.
#
~A           TIME           GTDEPTH  GTPQH  GTTQ  GTTN  GTET   GTTVD  
# ...
   00:31:22.880.09-May-2021 4516.51 3290.58 67.76 7.00  69.03 2978.60
   00:31:23.080.09-May-2021 4516.51 3290.58 67.76 7.00  69.23 2978.60
   00:31:23.280.09-May-2021 4516.51 3291.13 67.76 7.00  69.43 2978.60
   00:31:23.480.09-May-2021 4516.51 3290.98 67.76 7.00  69.63 2978.60
   00:31:23.680.09-May-2021 4516.51 3291.19 67.76 7.00  69.83 2978.60
   00:31:23.880.09-May-2021 4516.51 3291.00 67.76 7.00  70.03 2978.60
   00:31:24.080.09-May-2021 4516.51 3291.00 67.76 7.00  70.23 2978.60
   00:31:24.280.09-May-2021 4516.51 3291.29 67.76 7.00  70.43 2978.60
   00:31:24.480.09-May-2021 4516.51 3291.03 67.76 7.00  70.63 2978.60
   00:31:24.680.09-May-2021 4516.51 3291.46 67.76 7.00  70.83 2978.60
   00:31:24.880.09-May-2021 4516.51 3291.47 67.76 7.00  71.03 2978.60
   00:31:25.080.09-May-2021 4516.51 3291.47 67.76 7.00  71.23 2978.60
   00:31:25.280.09-May-2021 4516.51 3291.52 67.76 7.00  71.43 2978.60
   00:31:25.480.09-May-2021 4516.51 3291.69 67.76 7.00  71.63 2978.60
   00:31:25.681.09-May-2021 4516.51 3291.76 67.76 7.00  71.83 2978.60
   00:31:25.881.09-May-2021 4516.51 3291.88 67.76 7.00  72.03 2978.60
   00:31:26.081.09-May-2021 4516.51 3291.88 67.76 7.00  72.23 2978.60
   00:31:26.281.09-May-2021 4516.51 3292.04 67.76 7.00  72.43 2978.60
   00:31:26.481.09-May-2021 4516.51 3292.14 67.77 7.00  72.63 2978.60
   00:31:26.681.09-May-2021 4516.51 3292.21 67.77 7.00  72.83 2978.60
   00:31:26.881.09-May-2021 4516.51 3292.31 67.77 7.00  73.03 2978.60
   00:31:27.081.09-May-2021 4516.51 3292.31 67.77 7.00  73.23 2978.60
   00:31:27.281.09-May-2021 4516.51 3292.48 67.77 7.00  73.43 2978.60
   00:31:27.481.09-May-2021 4516.51 3292.56 67.77 7.00  73.63 2978.60
   00:31:27.681.09-May-2021 4516.51 3292.59 67.77 7.00  73.83 2978.60
   00:31:27.881.09-May-2021 4516.51 3292.47 67.77 7.00  74.03 2978.60
   00:31:28.081.09-May-2021 4516.51 3292.47 67.77 7.00  74.23 2978.60
   00:31:28.281.09-May-2021 4516.51 3292.57 67.77 7.00  74.43 2978.60
   00:31:28.482.09-May-2021 4516.51 3292.65 67.77 7.00  74.63 2978.60
   00:31:28.682.09-May-2021 4516.51 3292.68 67.77 7.00  74.83 2978.60
   00:31:28.882.09-May-2021 4516.51 3292.76 67.77 7.00  75.03 2978.60
   00:31:29.082.09-May-2021 4516.51 3292.76 67.77 7.00  75.23 2978.60
   00:31:29.282.09-May-2021 4516.51 3292.85 67.77 7.00  75.43 2978.60
   00:31:29.482.09-May-2021 4516.51 3292.94 67.77 7.00  75.63 2978.60
   00:31:29.682.09-May-2021 4516.51 3292.64 67.77 7.00  75.83 2978.60
   00:31:29.882.09-May-2021 4516.51 3293.08 67.77 7.00  76.03 2978.60
   00:31:30.082.09-May-2021 4516.51 3293.08 67.77 7.00  76.23 2978.60
   00:31:30.282.09-May-2021 4516.51 3293.20 67.77 7.00  76.43 2978.60
   00:31:30.482.09-May-2021 4516.51 3293.08 67.77 7.00  76.63 2978.60
   00:31:30.682.09-May-2021 4516.51 3292.80 67.77 7.00  76.83 2978.60
   00:31:30.882.09-May-2021 4516.51 3293.22 67.77 7.00  77.03 2978.60
   00:31:31.083.09-May-2021 4516.51 3293.22 67.77 7.00  77.23 2978.60
   00:31:31.283.09-May-2021 4516.51 3293.30 67.77 7.00  77.43 2978.60
   00:31:31.483.09-May-2021 4516.51 3293.16 67.77 7.00  77.63 2978.60
   00:31:31.683.09-May-2021 4516.51 3293.27 67.77 7.00  77.83 2978.60
   00:31:31.883.09-May-2021 4516.51 3292.80 67.77 7.00  78.03 2978.60
   00:31:32.083.09-May-2021 4516.51 3292.80 67.77 7.00  78.23 2978.60
   00:31:32.283.09-May-2021 4516.51 3293.32 67.77 7.00  78.43 2978.60
   00:31:32.483.09-May-2021 4516.51 3293.54 67.77 7.00  78.63 2978.60
   00:31:32.683.09-May-2021 4516.51 3293.42 67.77 7.00  78.83 2978.60
   00:31:32.883.09-May-2021 4516.51 3293.06 67.77 7.00  79.03 2978.60
   00:31:33.083.09-May-2021 4516.51 3293.06 67.77 7.00  79.23 2978.60
   00:31:33.283.09-May-2021 4516.51 3293.52 67.77 7.00  79.43 2978.60
   00:31:33.483.09-May-2021 4516.51 3293.78 67.77 7.00  79.63 2978.60
   00:31:33.683.09-May-2021 4516.51 3293.59 67.77 7.00  79.83 2978.60
   00:31:33.884.09-May-2021 4516.51 3293.67 67.77 7.00  80.03 2978.60
   00:31:34.084.09-May-2021 4516.51 3293.67 67.77 7.00  80.23 2978.60
   00:31:34.284.09-May-2021 4516.51 3293.77 67.77 7.00  80.43 2978.60
   00:31:34.484.09-May-2021 4516.51 3293.83 67.77 7.00  80.63 2978.60
   00:31:34.684.09-May-2021 4516.51 3293.88 67.77 7.00  80.83 2978.60
   00:31:34.884.09-May-2021 4516.51 3293.97 67.77 7.00  81.03 2978.60
   00:31:35.084.09-May-2021 4516.51 3293.97 67.77 7.00  81.23 2978.60
   00:31:35.284.09-May-2021 4516.51 3294.00 67.77 7.00  81.43 2978.60
   00:31:35.484.09-May-2021 4516.51 3293.65 67.77 7.00  81.63 2978.60
   00:31:35.684.09-May-2021 4516.51 3294.40 67.77 7.00  81.83 2978.60
   00:31:35.884.09-May-2021 4516.51 3294.14 67.77 7.00  82.03 2978.60
   00:31:36.084.09-May-2021 4516.51 3294.14 67.77 7.00  82.23 2978.60
   00:31:36.284.09-May-2021 4516.51 3294.10 67.77 7.00  82.43 2978.60
   00:31:36.484.09-May-2021 4516.51 3294.15 67.77 7.00  82.63 2978.60
   00:31:36.685.09-May-2021 4516.51 3294.17 67.77 7.00  82.83 2978.60
   00:31:36.885.09-May-2021 4516.51 3294.21 67.77 7.00  83.03 2978.60
   00:31:37.085.09-May-2021 4516.51 3294.21 67.77 7.00  83.23 2978.60
   00:31:37.285.09-May-2021 4516.51 3294.27 67.77 7.00  83.43 2978.60
   00:31:37.485.09-May-2021 4516.51 3294.34 67.77 7.00  83.63 2978.60
   00:31:37.685.09-May-2021 4516.51 3294.39 67.77 7.00  83.83 2978.60
   00:31:37.885.09-May-2021 4516.51 3294.37 67.77 7.00  84.03 2978.60
   00:31:38.085.09-May-2021 4516.51 3294.37 67.77 7.00  84.23 2978.60
   00:31:38.285.09-May-2021 4516.51 3294.75 67.77 7.00  84.43 2978.60
   00:31:38.485.09-May-2021 4516.51 3294.54 67.77 7.00  84.63 2978.60
   00:31:38.685.09-May-2021 4516.51 3294.72 67.77 7.00  84.83 2978.60
   00:31:38.885.09-May-2021 4516.51 3294.44 67.77 7.00  85.03 2978.60
   00:31:39.085.09-May-2021 4516.51 3294.44 67.77 7.00  85.23 2978.60
   00:31:39.285.09-May-2021 4516.51 3294.73 67.77 7.00  85.43 2978.60
   00:31:39.486.09-May-2021 4516.51 3294.47 67.77 7.00  85.63 2978.60
   00:31:39.686.09-May-2021 4516.51 3294.76 67.77 7.00  85.83 2978.60
   00:31:39.886.09-May-2021 4516.51 3294.54 67.77 7.00  86.03 2978.60
   00:31:40.086.09-May-2021 4516.51 3294.54 67.77 7.00  86.23 2978.60
   00:31:40.286.09-May-2021 4516.51 3294.08 67.77 7.00  86.43 2978.60
   00:31:40.486.09-May-2021 4516.51 3295.19 67.77 7.00  86.63 2978.60
   00:31:40.686.09-May-2021 4516.51 3294.66 67.77 7.00  86.83 2978.60
   00:31:40.886.09-May-2021 4516.51 3294.84 67.77 7.00  87.03 2978.60
   00:31:41.086.09-May-2021 4516.51 3294.84 67.77 7.00  87.23 2978.60
   00:31:41.286.09-May-2021 4516.51 3294.71 67.77 7.00  87.43 2978.60
   00:31:41.486.09-May-2021 4516.51 3294.44 67.77 7.00  87.63 2978.60
   00:31:41.686.09-May-2021 4516.51 3295.15 67.77 7.00  87.83 2978.60
   00:31:41.886.09-May-2021 4516.51 3294.90 67.77 7.00  88.03 2978.60
   00:31:42.086.09-May-2021 4516.51 3294.90 67.77 7.00  88.23 2978.60
   00:31:42.287.09-May-2021 4516.51 3294.90 67.77 7.00  88.43 2978.60
   00:31:42.487.09-May-2021 4516.51 3294.89 67.77 7.00  88.63 2978.60
   00:31:42.687.09-May-2021 4516.51 3294.94 67.77 7.00  88.83 2978.60
   00:31:42.887.09-May-2021 4516.51 3294.98 67.77 7.00  89.03 2978.60
   00:31:43.087.09-May-2021 4516.51 3294.98 67.77 7.00  89.23 2978.60
   00:31:43.287.09-May-2021 4516.51 3295.08 67.77 7.00  89.43 2978.60
   00:31:43.487.09-May-2021 4516.51 3295.11 67.77 7.00  89.63 2978.60
   00:31:43.687.09-May-2021 4516.51 3295.08 67.77 7.00  89.83 2978.60
   00:31:43.887.09-May-2021 4516.51 3295.11 67.77 7.00  90.03 2978.60
   00:31:44.087.09-May-2021 4516.51 3295.11 67.77 7.00  90.23 2978.60
   00:31:44.287.09-May-2021 4516.51 3295.57 67.77 7.00  90.43 2978.60
   00:31:44.487.09-May-2021 4516.51 3295.31 67.77 7.00  90.63 2978.60
   00:31:44.687.09-May-2021 4516.51 3295.13 67.77 7.00  90.83 2978.60
   00:31:44.888.09-May-2021 4516.51 3295.22 67.77 7.00  91.03 2978.60
   00:31:45.088.09-May-2021 4516.51 3295.22 67.77 7.00  91.23 2978.60
   00:31:45.288.09-May-2021 4516.51 3295.24 67.77 7.00  91.43 2978.60
   00:31:45.488.09-May-2021 4516.51 3295.27 67.77 7.00  91.63 2978.60
   00:31:45.688.09-May-2021 4516.51 3295.31 67.77 7.00  91.83 2978.60
