~Version Information
 VERS.                  2.0:   CWLS log ASCII Standard -VERSION 2.0
 WRAP.                   NO:   One line per depth step
~Well Information Block
#MNEM.UNIT     VALUE/NAME     DESCRIPTION
#---------     -----------    ---------------------------
 STRT.S             01:50:25 10-May-21: START TIME 01:50:25 10-May-21
 STOP.S             01:58:33 10-May-21: STOP TIME  01:58:33 10-May-21
 STEP.S                   0.00: STEP TIME
 NULL.                 -999.25: NULL VALUE
 PROV.                    Baku:  PROVINCE
 STAT.                    Baku:  STATE NAME
 SON .        AZ-XX-0906571588:  JOB NUMBER
 WTYP.                Deviated:  WELL TYPE
 COMP.     BP Exploration (Caspian Sea) ltd:  COMPANY
 BASE.              Azerbaijan:  LOGGING EQUIPMENT BASE LOCATION
 REGN.                   EESSA:  REGION
 CTRY.              Azerbaijan:  COUNTRY NAME
 FLD .                     ACG:  FIELD NAME
 WELL.                     J28:  WELL NAME
 RIG .             West Chirag:  RIG NAME
 DMF .             Drill Floor:  DRILL MEAS FROM
 PDAT.       Caspian Sea Level:  PERMANENT DATUM
 HPTY.       Minimum Curvature:  HOLE POS TYPE
 MDS .        Operator Entered:  MAG DATA SOURCE
 NREF.                    Grid:  NORTH REFERENCE
 SRVC.          TURAN DRILLING:  CONTRACTOR
 JOBN.        AZ-XX-0906571588:  JOB TICKET NUMB
 DCON.     Halliburton Sperry Drilling:  DIRECTNL CONTR
 STIM.      00.44.00 11-Feb-21:  START TIME
 DATE.      00.00.00 05-May-21:  END TIME
 SPUD.               13-Feb-21:  SPUD DATE
 MWDS.                    Baku:  MWD SHOP
 DOE .                     N/A:  DOE NUMBER
 UNIT.                     N/A:  LOGGING EQUIPMENT ID
 UWI .                     N/A:  UNIQUE WELL IDENTIFIER
 API .                     N/A:  API NUMBER
 CNTY.                        :  COUNTY
 LOC .                        :  LOCATION
 LMF .             Drill Floor:  LOG MEASURED FROM
 TVDS.m                  43.00:  TVDSS CORRECTN
 SDEP.m                 341.00:  START DEPTH
 EGL .m                   0.00:  GROUND ELEVATION
 WDMS.m                 169.80:  WD ELEV
 AGAP.m                  43.00:  AIR GAP
 EPD .m                   0.00:  ELEVATION
 APD .m                  43.00:  DEPTH ABOVE PD
 LATI.deg                40.13:  LATITUDE
 LONG.deg                51.22:  LONGITUDE
 UTMY.m             4443793.85:  UTM Y
 UTMX.m              519005.06:  UTM X
 WHEW.m                 -11.57:  WELL HEAD E/W
 WHNS.m                   8.57:  WELL HEAD N/S
 VSEW.m                 -11.57:  VERT SEC E/W
 VSNS.m                   8.57:  VERT SEC N/S
 DFWL.m                   0.00:  DISTANCE FWL
 DFSL.m                   0.00:  DISTANCE FSL
 VSDR.deg               299.34:  VERT SEC DIRECT
 GVFD.g                   1.00:  GRAVITY FIELD
 AZTC.deg                 6.36:  AZM TOTAL CORR
 MFLD.nT              50391.00:  MAGNETIC FIELD
 MDIP.deg                59.65:  MAGNETIC DIP
 MDEC.deg                 6.48:  MAGNETIC DECL
 GRDC.deg                 0.12:  GRID CORRECTION
 DEP .m                 334.96:  DEPTH
 TDD .m                1407.26:  TOTAL DEPTH (DRILLER)
 EKB .m                  43.00:  KB ELEVATION
 EDF .m                  43.00:  DF ELEVATION
 TDL .m                 228.00:  TOTAL DEPTH (LOGGER)
 VSC .                       0:  VS TO CLOSURE
 MAGU.                 1854484:  MAGUTM CHECKSUM
~Parameter Information Block
#MNEM.UNIT       Value        Description
#---------     -----------    ---------------------------
 AV  .mps                 4.00:  Ann Velocity 
 AVMX.mps                 4.73:  Max Ann Veloc 
 AZIF.deg               304.48:  Azm, Final 
 BHAT.        Rotary Steerable:  BHA Type 
 BREV.rev            257300.00:  Rev Bit Total 
 BROT.°/30m               0.00:  Build Rotating 
 BS  .in                  8.50:  Bit Size 
 BSZ .in                  8.50:  Bit Size 
 BTPL.psig              589.00:  Bit Press Loss 
 CABU.                      No:  Customer Abuse 
 CGEO.          Mubariz ghayev:  Customer Geo 
 COMM.                     Í‚:  Run Comments 1 
 TCS .hr                 64.25:  Time Ciculation Ended 
 CV  .mps                 3.50:  Crit Velocity 
 CVMX.mps                 4.52:  Max Crit Veloc 
 DD1 .             Aziz Aliyev:  Direct Drillr 1 
 DD2 .         Intigam Rahimov:  Direct Drillr 2 
 DD3 .          Rashad Habibov:  Direct Drillr 3 
 DDSV.               Geo-Pilot:  DD Service 
 DEFF.%                  98.00:  % Det Eff 
 DLRX.°/30m               0.00:  Dogleg Rot Max 
 DLSO.°/30m               0.00:  Dogleg Oriented 
 DLSX.°/30m               0.00:  Dogleg Str Max 
 DRET.      10.45.04 08-May-21:  Drill End Time 
 DRST.      03.30.04 04-May-21:  Drill Start Tim 
 DTIM.hr                 14.97:  Time Drilling 
 EDEP.m                4640.01:  End Depth 
 ENG1.         Dail Mahammadov:  Engineer 1 
 ENG2.           Eldar Hajiyev:  Engineer 2 
 ENG3.       Bakhtiar Jabbarli:  Engineer 3 
 ENG4.       Natik Hasanagayev:  Engineer 4 
 ETIM.      09.30.04 14-May-21:  End Time 
 FLOI.gpm               460.00:  Flow In 
 FLON.gpm               200.00:  Flow In Min 
 FLOS.cptm                0.00:  Fluid Loss 
 FLOX.gpm               505.00:  Flow In Max 
 HFLO.                      No:  High Flow 
 HPRE.                      No:  High Pressure 
 HTEM.                      No:  High Temp 
 HYDO.m                   1.80:  Hydro Offset 
 IFIN.deg                66.71:  Inc, Final 
 IMAX.deg                67.03:  Inc Max 
 IMIN.deg                66.63:  Inc Min 
 IMND.m                4550.58:  Inc Min Depth 
 IMXD.m                4439.01:  Inc Max Depth 
 JARR.                      No:  Jarring 
 LETM.      10.45.04 08-May-21:  Log End Time 
 LOST.hr                     0:  Lost Rig Time 
 LSTM.      03.30.04 04-May-21:  Log Start Time 
 MDCL.ppm             37000.00:  Mud Chlorides 
 MDES.     Inversion Oil/Synthetic:  Mud Desc 
 DFD .sg                  1.38:  Mud Density 
 MDMN.sg                  1.35:  Dens Mud Min 
 MDMX.sg                  1.40:  Dens Mud Max 
 MOIL.                   57.40:  Run Mud Oil % 
 MOWR.                   70:30:  Run Mud OWR 
 MSND.                    0.00:  Run Mud Sand % 
 MSOL.                   18.00:  Run Mud Solids% 
 DFV .spqt               71.00:  Mud Viscosity 
 MWOD.in                  6.75:  MWD Tool OD 
 MWSI.                      No:  Serv Intrp, MWD 
 OTIM.hr                242.76:  Time Operating 
 PCON.           Look Like New:  Pad Condition 
 PMAX.psia            12183.92:  Press Op, Max 
 PV  .cP                 27.00:  Mud PV 
 RUN .                    1300:  Run Number 
 ROPA.m/hr               15.00:  ROP Avg 
 ROPN.m/hr                9.00:  ROP Min 
 ROPX.m/hr               19.00:  ROP Max 
 RPMA.rpm               120.00:  RPM Surface Avg 
 RPMN.rpm               100.00:  RPM Surface Min 
 RPMX.rpm               120.00:  RPM Surface Max 
 RRUN.                    1300:  Rig Run Number 
 RTIM.hr                  5.00:  Time Reaming 
 SAZI.deg               304.73:  Azm, Start 
 SDEP.m                4412.01:  Start Depth 
 SIDD.                      No:  Serv Intrp, DD 
 SINC.deg                66.82:  Inc, Start 
 SPPA.psig             2800.00:  SPP Avg 
 SPPN.psig             2610.00:  SPP Min 
 SPPX.psig             3100.00:  SPP Max 
 STIM.      03.30.00 04-May-21:  Start Time 
 SVCS.                 DD, MWD:  Services 
 SVER.                    9.20:  Sperry Version 
 TDAT.m                 228.00:  Tot Depth Attmp 
 TDDF.                      No:  Trip for DD 
 TDLG.m                 228.00:  Tot Depth Loggd 
 TFF .                      No:  Trip for Fail 
 TQAA.f-kp               15.00:  Torque Abs Avg 
 TQAN.f-kp               12.00:  Torque Abs Min 
 TQAX.f-kp               22.00:  Torque Abs Max 
 TRRT.°/30m               0.00:  Turn Rotating 
 MRT .                    HCIM:  Maximum Recorded Temperature 
 TTMX.degC               90.20:  Max Tool Temp 
 VS01.                90627813:  Virtual Str1 SN 
 VS02.                90634712:  Virtual Str2 SN 
 VS03.                90643410:  Virtual Str3 SN 
 VS04.                90634712:  Virtual Str4 SN 
 WBMN.klb                 9.00:  WOB Min 
 WITN.        Elmaddin Rahimov:  Customer Rep 
 WITN.         Haytham Mostafa:  Customer Rep 2 
 WOBA.klb                15.00:  WOB Avg 
 WOBX.klb                23.00:  WOB Max 
 YP  .lhf2               29.00:  Yield Point 
~Curve Information Block
#MNEM.UNIT                 API CODE     Curve Description
#---------               -----------    ---------------------------
 TIME.HHMMSS            00 000 000 000:  GT Time & Date
 GTDEPTH.m              00 000 000 000:  GT Depth
 GTPQH.psia             00 000 000 000:  GT HR Quartz Pressure
 GTTQ.degC              00 000 000 000:  GT Quartz Temperature
 GTTN.NONE              00 000 000 000:  GT Test Number
 GTET.sec               00 000 000 000:  GT Elapsed Test Time
 GTTVD.m                00 000 000 000:  GT True Vertical Depth
#Other Information
#
#WARRANTY: Halliburton will use its best efforts to furnish customers with 
#accurate information and interpretations that are part of, and incident to, the services 
#provided.  However, Halliburton cannot and does not warrant the accuracy 
#or correctness of such information and interpretations.  Under no circumstances should any 
#such information or interpretation be relied upon as the sole basis for any drilling, 
#completion, production, or financial decision or any procedure involving any risk to the 
#safety of any drilling venture, drilling rig or its crew or any other third party.  The 
#Customer has full responsibility for all drilling, completion and production operation.  
#Halliburton makes no representations or warranties, either expressed or 
#implied, including, but not limited to, the implied warranties of merchantability or fitness 
#for a particular purpose, with respect to the services rendered.  In no event will 
#Halliburton be liable for failure to obtain any particular results or for 
#any damages, including, but not limited to, indirect, special or consequential damages, 
#resulting from the use of any information or interpretation provided by Halliburton.
#
~A           TIME           GTDEPTH  GTPQH  GTTQ  GTTN   GTET   GTTVD  
# ...
   01:56:49.609.10-May-2021 4567.51  493.84 60.89 19.00 384.27 2998.78
   01:56:49.809.10-May-2021 4567.51  493.73 60.89 19.00 384.47 2998.78
   01:56:50.010.10-May-2021 4567.51  493.77 60.89 19.00 384.67 2998.78
   01:56:50.210.10-May-2021 4567.51  493.27 60.89 19.00 384.87 2998.78
   01:56:50.410.10-May-2021 4567.51  493.94 60.89 19.00 385.07 2998.78
   01:56:50.610.10-May-2021 4567.51  493.94 60.89 19.00 385.27 2998.78
   01:56:50.810.10-May-2021 4567.51  493.81 60.89 19.00 385.47 2998.78
   01:56:51.010.10-May-2021 4567.51  493.70 60.89 19.00 385.67 2998.78
   01:56:51.210.10-May-2021 4567.51  493.70 60.89 19.00 385.87 2998.78
   01:56:51.410.10-May-2021 4567.51  493.70 60.89 19.00 386.07 2998.78
   01:56:51.610.10-May-2021 4567.51  493.70 60.89 19.00 386.27 2998.78
   01:56:51.810.10-May-2021 4567.51  493.69 60.89 19.00 386.47 2998.78
   01:56:52.010.10-May-2021 4567.51  493.69 60.89 19.00 386.67 2998.78
   01:56:52.210.10-May-2021 4567.51  493.72 60.89 19.00 386.87 2998.78
   01:56:52.410.10-May-2021 4567.51  493.73 60.89 19.00 387.07 2998.78
   01:56:52.610.10-May-2021 4567.51  493.73 60.89 19.00 387.27 2998.78
   01:56:52.810.10-May-2021 4567.51  493.33 60.89 19.00 387.47 2998.78
   01:56:53.010.10-May-2021 4567.51  493.92 60.89 19.00 387.67 2998.78
   01:56:53.210.10-May-2021 4567.51  493.73 60.89 19.00 387.87 2998.78
   01:56:53.410.10-May-2021 4567.51  493.71 60.89 19.00 388.07 2998.78
   01:56:53.610.10-May-2021 4567.51  493.71 60.89 19.00 388.27 2998.78
   01:56:53.810.10-May-2021 4567.51  493.73 60.89 19.00 388.47 2998.78
   01:56:54.010.10-May-2021 4567.51  493.71 60.89 19.00 388.67 2998.78
   01:56:54.210.10-May-2021 4567.51  493.72 60.89 19.00 388.87 2998.78
   01:56:54.410.10-May-2021 4567.51  493.70 60.89 19.00 389.07 2998.78
   01:56:54.610.10-May-2021 4567.51  493.70 60.89 19.00 389.27 2998.78
   01:56:54.810.10-May-2021 4567.51  493.73 60.89 19.00 389.47 2998.78
   01:56:55.010.10-May-2021 4567.51  493.76 60.89 19.00 389.67 2998.78
   01:56:55.210.10-May-2021 4567.51  493.55 60.89 19.00 389.87 2998.78
   01:56:55.410.10-May-2021 4567.51  493.49 60.89 19.00 390.07 2998.78
   01:56:55.611.10-May-2021 4567.51  493.49 60.89 19.00 390.27 2998.78
   01:56:55.811.10-May-2021 4567.51  493.79 60.89 19.00 390.47 2998.78
   01:56:56.011.10-May-2021 4567.51  493.78 60.89 19.00 390.67 2998.78
   01:56:56.211.10-May-2021 4567.51  493.81 60.89 19.00 390.87 2998.78
   01:56:56.411.10-May-2021 4567.51  493.42 60.89 19.00 391.07 2998.78
   01:56:56.611.10-May-2021 4567.51  493.42 60.89 19.00 391.27 2998.78
   01:56:56.811.10-May-2021 4567.51  493.78 60.89 19.00 391.47 2998.78
   01:56:57.011.10-May-2021 4567.51  493.86 60.89 19.00 391.67 2998.78
   01:56:57.211.10-May-2021 4567.51  493.78 60.89 19.00 391.87 2998.78
   01:56:57.411.10-May-2021 4567.51  493.58 60.89 19.00 392.07 2998.78
   01:56:57.611.10-May-2021 4567.51  493.58 60.89 19.00 392.27 2998.78
   01:56:57.811.10-May-2021 4567.51  493.88 60.89 19.00 392.47 2998.78
   01:56:58.011.10-May-2021 4567.51  493.80 60.89 19.00 392.67 2998.78
   01:56:58.211.10-May-2021 4567.51  493.77 60.89 19.00 392.87 2998.78
   01:56:58.411.10-May-2021 4567.51  493.80 60.89 19.00 393.07 2998.78
   01:56:58.611.10-May-2021 4567.51  493.80 60.89 19.00 393.27 2998.78
   01:56:58.811.10-May-2021 4567.51  493.97 60.89 19.00 393.47 2998.78
   01:56:59.011.10-May-2021 4567.51  493.63 60.89 19.00 393.67 2998.78
   01:56:59.211.10-May-2021 4567.51  493.83 60.89 19.00 393.87 2998.78
   01:56:59.411.10-May-2021 4567.51  493.71 60.89 19.00 394.07 2998.78
   01:56:59.611.10-May-2021 4567.51  493.71 60.89 19.00 394.27 2998.78
   01:56:59.811.10-May-2021 4567.51  493.70 60.89 19.00 394.47 2998.78
   01:57:00.011.10-May-2021 4567.51  493.72 60.89 19.00 394.67 2998.78
   01:57:00.211.10-May-2021 4567.51  493.70 60.89 19.00 394.87 2998.78
   01:57:00.411.10-May-2021 4567.51  493.71 60.89 19.00 395.07 2998.78
   01:57:00.611.10-May-2021 4567.51  493.71 60.89 19.00 395.27 2998.78
   01:57:00.811.10-May-2021 4567.51  493.76 60.89 19.00 395.47 2998.78
   01:57:01.011.10-May-2021 4567.51  493.71 60.89 19.00 395.67 2998.78
   01:57:01.212.10-May-2021 4567.51  493.34 60.89 19.00 395.87 2998.78
   01:57:01.412.10-May-2021 4567.51  493.93 60.89 19.00 396.07 2998.78
   01:57:01.612.10-May-2021 4567.51  493.93 60.89 19.00 396.27 2998.78
   01:57:01.812.10-May-2021 4567.51  493.71 60.89 19.00 396.47 2998.78
   01:57:02.012.10-May-2021 4567.51  493.77 60.89 19.00 396.67 2998.78
   01:57:02.212.10-May-2021 4567.51  493.72 60.89 19.00 396.87 2998.78
   01:57:02.412.10-May-2021 4567.51  493.73 60.89 19.00 397.07 2998.78
   01:57:02.612.10-May-2021 4567.51  493.73 60.89 19.00 397.27 2998.78
   01:57:02.812.10-May-2021 4567.51  493.71 60.89 19.00 397.47 2998.78
   01:57:03.012.10-May-2021 4567.51  493.73 60.89 19.00 397.67 2998.78
   01:57:03.212.10-May-2021 4567.51  493.74 60.89 19.00 397.87 2998.78
   01:57:03.412.10-May-2021 4567.51  493.76 60.88 19.00 398.07 2998.78
   01:57:03.612.10-May-2021 4567.51  493.76 60.88 19.00 398.27 2998.78
   01:57:03.812.10-May-2021 4567.51  493.50 60.88 19.00 398.47 2998.78
   01:57:04.012.10-May-2021 4567.51  493.88 60.88 19.00 398.67 2998.78
   01:57:04.212.10-May-2021 4567.51  493.80 60.88 19.00 398.87 2998.78
   01:57:04.412.10-May-2021 4567.51  493.78 60.88 19.00 399.07 2998.78
   01:57:04.612.10-May-2021 4567.51  493.78 60.88 19.00 399.27 2998.78
   01:57:04.812.10-May-2021 4567.51  493.41 60.88 19.00 399.47 2998.78
   01:57:05.012.10-May-2021 4567.51  493.77 60.88 19.00 399.67 2998.78
   01:57:05.212.10-May-2021 4567.51  493.78 60.88 19.00 399.87 2998.78
   01:57:05.412.10-May-2021 4567.51  493.86 60.88 19.00 400.07 2998.78
   01:57:05.612.10-May-2021 4567.51  493.86 60.88 19.00 400.27 2998.78
   01:57:05.812.10-May-2021 4567.51  493.59 60.88 19.00 400.47 2998.78
   01:57:06.012.10-May-2021 4567.51  493.50 60.88 19.00 400.67 2998.78
   01:57:06.212.10-May-2021 4567.51  493.90 60.88 19.00 400.87 2998.78
   01:57:06.412.10-May-2021 4567.51  493.80 60.88 19.00 401.07 2998.78
   01:57:06.612.10-May-2021 4567.51  493.80 60.88 19.00 401.27 2998.78
   01:57:06.813.10-May-2021 4567.51  493.81 60.88 19.00 401.47 2998.78
   01:57:07.013.10-May-2021 4567.51  493.32 60.88 19.00 401.67 2998.78
   01:57:07.213.10-May-2021 4567.51  493.98 60.88 19.00 401.87 2998.78
   01:57:07.413.10-May-2021 4567.51  493.65 60.88 19.00 402.07 2998.78
   01:57:07.613.10-May-2021 4567.51  493.65 60.88 19.00 402.27 2998.78
   01:57:07.813.10-May-2021 4567.51  493.72 60.88 19.00 402.47 2998.78
   01:57:08.013.10-May-2021 4567.51  493.74 60.88 19.00 402.67 2998.78
   01:57:08.213.10-May-2021 4567.51  493.73 60.88 19.00 402.87 2998.78
   01:57:08.413.10-May-2021 4567.51  493.72 60.88 19.00 403.07 2998.78
   01:57:08.613.10-May-2021 4567.51  493.72 60.88 19.00 403.27 2998.78
   01:57:08.813.10-May-2021 4567.51  493.72 60.88 19.00 403.47 2998.78
   01:57:09.013.10-May-2021 4567.51  493.74 60.88 19.00 403.67 2998.78
   01:57:09.213.10-May-2021 4567.51  493.77 60.88 19.00 403.87 2998.78
   01:57:09.413.10-May-2021 4567.51  493.71 60.88 19.00 404.07 2998.78
   01:57:09.613.10-May-2021 4567.51  493.71 60.88 19.00 404.27 2998.78
   01:57:09.813.10-May-2021 4567.51  493.93 60.88 19.00 404.47 2998.78
   01:57:10.013.10-May-2021 4567.51  493.75 60.88 19.00 404.67 2998.78
   01:57:10.213.10-May-2021 4567.51  493.72 60.88 19.00 404.87 2998.78
   01:57:10.413.10-May-2021 4567.51  493.78 60.88 19.00 405.07 2998.78
   01:57:10.613.10-May-2021 4567.51  493.78 60.88 19.00 405.27 2998.78
   01:57:10.813.10-May-2021 4567.51  493.74 60.88 19.00 405.47 2998.78
   01:57:11.013.10-May-2021 4567.51  493.71 60.88 19.00 405.67 2998.78
   01:57:11.213.10-May-2021 4567.51  493.72 60.88 19.00 405.87 2998.78
   01:57:11.413.10-May-2021 4567.51  493.71 60.88 19.00 406.07 2998.78
   01:57:11.613.10-May-2021 4567.51  493.71 60.88 19.00 406.27 2998.78
   01:57:11.813.10-May-2021 4567.51  493.76 60.88 19.00 406.47 2998.78
   01:57:12.013.10-May-2021 4567.51  493.54 60.88 19.00 406.67 2998.78
