~Version Information
 VERS.                  2.0:   CWLS log ASCII Standard -VERSION 2.0
 WRAP.                   NO:   One line per depth step
~Well Information Block
#MNEM.UNIT     VALUE/NAME     DESCRIPTION
#---------     -----------    ---------------------------
 STRT.S             07:52:13 09-May-21: START TIME 07:52:13 09-May-21
 STOP.S             07:59:09 09-May-21: STOP TIME  07:59:09 09-May-21
 STEP.S                   0.00: STEP TIME
 NULL.                 -999.25: NULL VALUE
 PROV.                    Baku:  PROVINCE
 STAT.                    Baku:  STATE NAME
 SON .        AZ-XX-0906571588:  JOB NUMBER
 WTYP.                Deviated:  WELL TYPE
 COMP.     BP Exploration (Caspian Sea) ltd:  COMPANY
 BASE.              Azerbaijan:  LOGGING EQUIPMENT BASE LOCATION
 REGN.                   EESSA:  REGION
 CTRY.              Azerbaijan:  COUNTRY NAME
 FLD .                     ACG:  FIELD NAME
 WELL.                     J28:  WELL NAME
 RIG .             West Chirag:  RIG NAME
 DMF .             Drill Floor:  DRILL MEAS FROM
 PDAT.       Caspian Sea Level:  PERMANENT DATUM
 HPTY.       Minimum Curvature:  HOLE POS TYPE
 MDS .        Operator Entered:  MAG DATA SOURCE
 NREF.                    Grid:  NORTH REFERENCE
 SRVC.          TURAN DRILLING:  CONTRACTOR
 JOBN.        AZ-XX-0906571588:  JOB TICKET NUMB
 DCON.     Halliburton Sperry Drilling:  DIRECTNL CONTR
 STIM.      00.44.00 11-Feb-21:  START TIME
 DATE.      00.00.00 05-May-21:  END TIME
 SPUD.               13-Feb-21:  SPUD DATE
 MWDS.                    Baku:  MWD SHOP
 DOE .                     N/A:  DOE NUMBER
 UNIT.                     N/A:  LOGGING EQUIPMENT ID
 UWI .                     N/A:  UNIQUE WELL IDENTIFIER
 API .                     N/A:  API NUMBER
 CNTY.                        :  COUNTY
 LOC .                        :  LOCATION
 LMF .             Drill Floor:  LOG MEASURED FROM
 TVDS.m                  43.00:  TVDSS CORRECTN
 SDEP.m                 341.00:  START DEPTH
 EGL .m                   0.00:  GROUND ELEVATION
 WDMS.m                 169.80:  WD ELEV
 AGAP.m                  43.00:  AIR GAP
 EPD .m                   0.00:  ELEVATION
 APD .m                  43.00:  DEPTH ABOVE PD
 LATI.deg                40.13:  LATITUDE
 LONG.deg                51.22:  LONGITUDE
 UTMY.m             4443793.85:  UTM Y
 UTMX.m              519005.06:  UTM X
 WHEW.m                 -11.57:  WELL HEAD E/W
 WHNS.m                   8.57:  WELL HEAD N/S
 VSEW.m                 -11.57:  VERT SEC E/W
 VSNS.m                   8.57:  VERT SEC N/S
 DFWL.m                   0.00:  DISTANCE FWL
 DFSL.m                   0.00:  DISTANCE FSL
 VSDR.deg               299.34:  VERT SEC DIRECT
 GVFD.g                   1.00:  GRAVITY FIELD
 AZTC.deg                 6.36:  AZM TOTAL CORR
 MFLD.nT              50391.00:  MAGNETIC FIELD
 MDIP.deg                59.65:  MAGNETIC DIP
 MDEC.deg                 6.48:  MAGNETIC DECL
 GRDC.deg                 0.12:  GRID CORRECTION
 DEP .m                 334.96:  DEPTH
 TDD .m                1407.26:  TOTAL DEPTH (DRILLER)
 EKB .m                  43.00:  KB ELEVATION
 EDF .m                  43.00:  DF ELEVATION
 TDL .m                 228.00:  TOTAL DEPTH (LOGGER)
 VSC .                       0:  VS TO CLOSURE
 MAGU.                 1854484:  MAGUTM CHECKSUM
~Parameter Information Block
#MNEM.UNIT       Value        Description
#---------     -----------    ---------------------------
 AV  .mps                 4.00:  Ann Velocity 
 AVMX.mps                 4.73:  Max Ann Veloc 
 AZIF.deg               304.48:  Azm, Final 
 BHAT.        Rotary Steerable:  BHA Type 
 BREV.rev            257300.00:  Rev Bit Total 
 BROT.°/30m               0.00:  Build Rotating 
 BS  .in                  8.50:  Bit Size 
 BSZ .in                  8.50:  Bit Size 
 BTPL.psig              589.00:  Bit Press Loss 
 CABU.                      No:  Customer Abuse 
 CGEO.          Mubariz ghayev:  Customer Geo 
 TCS .hr                 64.25:  Time Ciculation Ended 
 CV  .mps                 3.50:  Crit Velocity 
 CVMX.mps                 4.52:  Max Crit Veloc 
 DD1 .             Aziz Aliyev:  Direct Drillr 1 
 DD2 .         Intigam Rahimov:  Direct Drillr 2 
 DD3 .          Rashad Habibov:  Direct Drillr 3 
 DDSV.               Geo-Pilot:  DD Service 
 DEFF.%                  98.00:  % Det Eff 
 DLRX.°/30m               0.00:  Dogleg Rot Max 
 DLSO.°/30m               0.00:  Dogleg Oriented 
 DLSX.°/30m               0.00:  Dogleg Str Max 
 DRET.      10.45.04 08-May-21:  Drill End Time 
 DRST.      03.30.04 04-May-21:  Drill Start Tim 
 DTIM.hr                 14.97:  Time Drilling 
 EDEP.m                4640.01:  End Depth 
 ENG1.         Dail Mahammadov:  Engineer 1 
 ENG2.           Eldar Hajiyev:  Engineer 2 
 ENG3.       Bakhtiar Jabbarli:  Engineer 3 
 ENG4.       Natik Hasanagayev:  Engineer 4 
 ETIM.      09.30.04 14-May-21:  End Time 
 FLOI.gpm               460.00:  Flow In 
 FLON.gpm               200.00:  Flow In Min 
 FLOS.cptm                0.00:  Fluid Loss 
 FLOX.gpm               505.00:  Flow In Max 
 HFLO.                      No:  High Flow 
 HPRE.                      No:  High Pressure 
 HTEM.                      No:  High Temp 
 HYDO.m                   1.80:  Hydro Offset 
 IFIN.deg                66.71:  Inc, Final 
 IMAX.deg                67.03:  Inc Max 
 IMIN.deg                66.63:  Inc Min 
 IMND.m                4550.58:  Inc Min Depth 
 IMXD.m                4439.01:  Inc Max Depth 
 JARR.                      No:  Jarring 
 LETM.      10.45.04 08-May-21:  Log End Time 
 LOST.hr                     0:  Lost Rig Time 
 LSTM.      03.30.04 04-May-21:  Log Start Time 
 MDCL.ppm             37000.00:  Mud Chlorides 
 MDES.     Inversion Oil/Synthetic:  Mud Desc 
 DFD .sg                  1.38:  Mud Density 
 MDMN.sg                  1.35:  Dens Mud Min 
 MDMX.sg                  1.40:  Dens Mud Max 
 MOIL.                   57.40:  Run Mud Oil % 
 MOWR.                   70:30:  Run Mud OWR 
 MSND.                    0.00:  Run Mud Sand % 
 MSOL.                   18.00:  Run Mud Solids% 
 DFV .spqt               71.00:  Mud Viscosity 
 MWOD.in                  6.75:  MWD Tool OD 
 MWSI.                      No:  Serv Intrp, MWD 
 OTIM.hr                242.76:  Time Operating 
 PCON.           Look Like New:  Pad Condition 
 PMAX.psia            12183.92:  Press Op, Max 
 PV  .cP                 27.00:  Mud PV 
 RUN .                    1300:  Run Number 
 ROPA.m/hr               15.00:  ROP Avg 
 ROPN.m/hr                9.00:  ROP Min 
 ROPX.m/hr               19.00:  ROP Max 
 RPMA.rpm               120.00:  RPM Surface Avg 
 RPMN.rpm               100.00:  RPM Surface Min 
 RPMX.rpm               120.00:  RPM Surface Max 
 RRUN.                    1300:  Rig Run Number 
 RTIM.hr                  5.00:  Time Reaming 
 SAZI.deg               304.73:  Azm, Start 
 SDEP.m                4412.01:  Start Depth 
 SIDD.                      No:  Serv Intrp, DD 
 SINC.deg                66.82:  Inc, Start 
 SPPA.psig             2800.00:  SPP Avg 
 SPPN.psig             2610.00:  SPP Min 
 SPPX.psig             3100.00:  SPP Max 
 STIM.      03.30.00 04-May-21:  Start Time 
 SVCS.                 DD, MWD:  Services 
 SVER.                    9.20:  Sperry Version 
 TDAT.m                 228.00:  Tot Depth Attmp 
 TDDF.                      No:  Trip for DD 
 TDLG.m                 228.00:  Tot Depth Loggd 
 TFF .                      No:  Trip for Fail 
 TQAA.f-kp               15.00:  Torque Abs Avg 
 TQAN.f-kp               12.00:  Torque Abs Min 
 TQAX.f-kp               22.00:  Torque Abs Max 
 TRRT.°/30m               0.00:  Turn Rotating 
 MRT .                    HCIM:  Maximum Recorded Temperature 
 TTMX.degC               90.20:  Max Tool Temp 
 VS01.                90627813:  Virtual Str1 SN 
 VS02.                90634712:  Virtual Str2 SN 
 VS03.                90643410:  Virtual Str3 SN 
 VS04.                90634712:  Virtual Str4 SN 
 WBMN.klb                 9.00:  WOB Min 
 WITN.        Elmaddin Rahimov:  Customer Rep 
 WITN.         Haytham Mostafa:  Customer Rep 2 
 WOBA.klb                15.00:  WOB Avg 
 WOBX.klb                23.00:  WOB Max 
 YP  .lhf2               29.00:  Yield Point 
~Curve Information Block
#MNEM.UNIT                 API CODE     Curve Description
#---------               -----------    ---------------------------
 TIME.HHMMSS            00 000 000 000:  GT Time & Date
 GTDEPTH.m              00 000 000 000:  GT Depth
 GTPQH.psia             00 000 000 000:  GT HR Quartz Pressure
 GTTQ.degC              00 000 000 000:  GT Quartz Temperature
 GTTN.NONE              00 000 000 000:  GT Test Number
 GTET.sec               00 000 000 000:  GT Elapsed Test Time
 GTTVD.m                00 000 000 000:  GT True Vertical Depth
#Other Information
#
#WARRANTY: Halliburton will use its best efforts to furnish customers with 
#accurate information and interpretations that are part of, and incident to, the services 
#provided.  However, Halliburton cannot and does not warrant the accuracy 
#or correctness of such information and interpretations.  Under no circumstances should any 
#such information or interpretation be relied upon as the sole basis for any drilling, 
#completion, production, or financial decision or any procedure involving any risk to the 
#safety of any drilling venture, drilling rig or its crew or any other third party.  The 
#Customer has full responsibility for all drilling, completion and production operation.  
#Halliburton makes no representations or warranties, either expressed or 
#implied, including, but not limited to, the implied warranties of merchantability or fitness 
#for a particular purpose, with respect to the services rendered.  In no event will 
#Halliburton be liable for failure to obtain any particular results or for 
#any damages, including, but not limited to, indirect, special or consequential damages, 
#resulting from the use of any information or interpretation provided by Halliburton.
#
~A           TIME           GTDEPTH  GTPQH  GTTQ  GTTN   GTET   GTTVD  
# ...
   07:54:28.814.09-May-2021 4413.51 4428.29 65.55 16.00 135.62 2938.18
   07:54:29.014.09-May-2021 4413.51 4428.21 65.55 16.00 135.82 2938.18
   07:54:29.214.09-May-2021 4413.51 4428.44 65.55 16.00 136.02 2938.18
   07:54:29.414.09-May-2021 4413.51 4428.44 65.55 16.00 136.22 2938.18
   07:54:29.614.09-May-2021 4413.51 4428.47 65.55 16.00 136.42 2938.18
   07:54:29.814.09-May-2021 4413.51 4428.23 65.55 16.00 136.62 2938.18
   07:54:30.014.09-May-2021 4413.51 4428.33 65.54 16.00 136.82 2938.18
   07:54:30.214.09-May-2021 4413.51 4428.32 65.55 16.00 137.02 2938.18
   07:54:30.414.09-May-2021 4413.51 4428.32 65.55 16.00 137.22 2938.18
   07:54:30.614.09-May-2021 4413.51 4428.32 65.54 16.00 137.42 2938.18
   07:54:30.814.09-May-2021 4413.51 4428.32 65.54 16.00 137.62 2938.18
   07:54:31.014.09-May-2021 4413.51 4428.33 65.54 16.00 137.82 2938.18
   07:54:31.215.09-May-2021 4413.51 4428.34 65.54 16.00 138.02 2938.18
   07:54:31.415.09-May-2021 4413.51 4428.34 65.54 16.00 138.22 2938.18
   07:54:31.615.09-May-2021 4413.51 4428.47 65.54 16.00 138.42 2938.18
   07:54:31.815.09-May-2021 4413.51 4428.29 65.54 16.00 138.62 2938.18
   07:54:32.015.09-May-2021 4413.51 4428.26 65.54 16.00 138.82 2938.18
   07:54:32.215.09-May-2021 4413.51 4428.38 65.54 16.00 139.02 2938.18
   07:54:32.415.09-May-2021 4413.51 4428.38 65.54 16.00 139.22 2938.18
   07:54:32.615.09-May-2021 4413.51 4428.34 65.54 16.00 139.42 2938.18
   07:54:32.815.09-May-2021 4413.51 4428.30 65.54 16.00 139.62 2938.18
   07:54:33.015.09-May-2021 4413.51 4428.34 65.54 16.00 139.82 2938.18
   07:54:33.215.09-May-2021 4413.51 4428.32 65.54 16.00 140.02 2938.18
   07:54:33.415.09-May-2021 4413.51 4428.32 65.54 16.00 140.22 2938.18
   07:54:33.615.09-May-2021 4413.51 4428.33 65.54 16.00 140.42 2938.18
   07:54:33.815.09-May-2021 4413.51 4428.33 65.54 16.00 140.62 2938.18
   07:54:34.015.09-May-2021 4413.51 4428.34 65.54 16.00 140.82 2938.18
   07:54:34.215.09-May-2021 4413.51 4428.34 65.54 16.00 141.02 2938.18
   07:54:34.415.09-May-2021 4413.51 4428.34 65.54 16.00 141.22 2938.18
   07:54:34.615.09-May-2021 4413.51 4428.19 65.54 16.00 141.42 2938.18
   07:54:34.815.09-May-2021 4413.51 4428.50 65.54 16.00 141.62 2938.18
   07:54:35.015.09-May-2021 4413.51 4428.34 65.54 16.00 141.82 2938.18
   07:54:35.215.09-May-2021 4413.51 4428.23 65.54 16.00 142.02 2938.18
   07:54:35.415.09-May-2021 4413.51 4428.23 65.54 16.00 142.22 2938.18
   07:54:35.615.09-May-2021 4413.51 4428.37 65.54 16.00 142.42 2938.18
   07:54:35.815.09-May-2021 4413.51 4428.31 65.54 16.00 142.62 2938.18
   07:54:36.015.09-May-2021 4413.51 4428.44 65.54 16.00 142.82 2938.18
   07:54:36.215.09-May-2021 4413.51 4428.24 65.54 16.00 143.02 2938.18
   07:54:36.415.09-May-2021 4413.51 4428.24 65.54 16.00 143.22 2938.18
   07:54:36.615.09-May-2021 4413.51 4428.38 65.54 16.00 143.42 2938.18
   07:54:36.815.09-May-2021 4413.51 4428.29 65.54 16.00 143.62 2938.18
   07:54:37.015.09-May-2021 4413.51 4428.36 65.54 16.00 143.82 2938.18
   07:54:37.215.09-May-2021 4413.51 4428.57 65.54 16.00 144.02 2938.18
   07:54:37.415.09-May-2021 4413.51 4428.57 65.54 16.00 144.22 2938.18
   07:54:37.615.09-May-2021 4413.51 4428.35 65.54 16.00 144.42 2938.18
   07:54:37.815.09-May-2021 4413.51 4428.28 65.54 16.00 144.62 2938.18
   07:54:38.015.09-May-2021 4413.51 4428.27 65.54 16.00 144.82 2938.18
   07:54:38.215.09-May-2021 4413.51 4428.32 65.54 16.00 145.02 2938.18
   07:54:38.416.09-May-2021 4413.51 4428.32 65.54 16.00 145.22 2938.18
   07:54:38.616.09-May-2021 4413.51 4428.33 65.54 16.00 145.42 2938.18
   07:54:38.816.09-May-2021 4413.51 4428.31 65.54 16.00 145.62 2938.18
   07:54:39.016.09-May-2021 4413.51 4428.31 65.54 16.00 145.82 2938.18
   07:54:39.216.09-May-2021 4413.51 4428.34 65.54 16.00 146.02 2938.18
   07:54:39.416.09-May-2021 4413.51 4428.34 65.54 16.00 146.22 2938.18
   07:54:39.616.09-May-2021 4413.51 4428.23 65.54 16.00 146.42 2938.18
   07:54:39.816.09-May-2021 4413.51 4428.49 65.54 16.00 146.62 2938.18
   07:54:40.016.09-May-2021 4413.51 4428.28 65.54 16.00 146.82 2938.18
   07:54:40.216.09-May-2021 4413.51 4428.49 65.54 16.00 147.02 2938.18
   07:54:40.416.09-May-2021 4413.51 4428.49 65.54 16.00 147.22 2938.18
   07:54:40.616.09-May-2021 4413.51 4428.33 65.54 16.00 147.42 2938.18
   07:54:40.816.09-May-2021 4413.51 4428.31 65.54 16.00 147.62 2938.18
   07:54:41.016.09-May-2021 4413.51 4428.52 65.54 16.00 147.82 2938.18
   07:54:41.216.09-May-2021 4413.51 4383.13 65.54 16.00 148.02 2938.18
   07:54:41.416.09-May-2021 4413.51 4383.13 65.54 16.00 148.22 2938.18
   07:54:41.616.09-May-2021 4413.51 3936.78 65.54 16.00 148.42 2938.18
   07:54:41.816.09-May-2021 4413.51 3727.66 65.54 16.00 148.62 2938.18
   07:54:42.016.09-May-2021 4413.51 3408.43 65.54 16.00 148.82 2938.18
   07:54:42.216.09-May-2021 4413.51 3124.20 65.54 16.00 149.02 2938.18
   07:54:42.416.09-May-2021 4413.51 3124.20 65.54 16.00 149.22 2938.18
   07:54:42.616.09-May-2021 4413.51 2733.57 65.54 16.00 149.42 2938.18
   07:54:42.816.09-May-2021 4413.51 2535.02 65.54 16.00 149.62 2938.18
   07:54:43.016.09-May-2021 4413.51 2187.56 65.54 16.00 149.82 2938.18
   07:54:43.216.09-May-2021 4413.51 2074.01 65.54 16.00 150.02 2938.18
   07:54:43.416.09-May-2021 4413.51 2074.01 65.54 16.00 150.22 2938.18
   07:54:43.616.09-May-2021 4413.51 1698.94 65.54 16.00 150.42 2938.18
   07:54:43.816.09-May-2021 4413.51 1556.79 65.53 16.00 150.62 2938.18
   07:54:44.016.09-May-2021 4413.51 1436.84 65.53 16.00 150.82 2938.18
   07:54:44.216.09-May-2021 4413.51 1327.53 65.53 16.00 151.02 2938.18
   07:54:44.416.09-May-2021 4413.51 1327.53 65.53 16.00 151.22 2938.18
   07:54:44.616.09-May-2021 4413.51 1104.07 65.53 16.00 151.42 2938.18
   07:54:44.816.09-May-2021 4413.51  994.50 65.53 16.00 151.62 2938.18
   07:54:45.016.09-May-2021 4413.51  888.29 65.52 16.00 151.82 2938.18
   07:54:45.216.09-May-2021 4413.51  798.52 65.52 16.00 152.02 2938.18
   07:54:45.416.09-May-2021 4413.51  798.52 65.52 16.00 152.22 2938.18
   07:54:45.617.09-May-2021 4413.51 1783.29 65.52 16.00 152.42 2938.18
   07:54:45.817.09-May-2021 4413.51 1414.85 65.51 16.00 152.62 2938.18
   07:54:46.017.09-May-2021 4413.51 1105.49 65.51 16.00 152.82 2938.18
   07:54:46.217.09-May-2021 4413.51  883.42 65.51 16.00 153.02 2938.18
   07:54:46.417.09-May-2021 4413.51  883.42 65.51 16.00 153.22 2938.18
   07:54:46.617.09-May-2021 4413.51  676.72 65.51 16.00 153.42 2938.18
   07:54:46.817.09-May-2021 4413.51  638.12 65.50 16.00 153.62 2938.18
   07:54:47.017.09-May-2021 4413.51  624.44 65.50 16.00 153.82 2938.18
   07:54:47.217.09-May-2021 4413.51  636.84 65.50 16.00 154.02 2938.18
   07:54:47.417.09-May-2021 4413.51  636.84 65.50 16.00 154.22 2938.18
   07:54:47.617.09-May-2021 4413.51  672.78 65.50 16.00 154.42 2938.18
   07:54:47.817.09-May-2021 4413.51  675.25 65.49 16.00 154.62 2938.18
   07:54:48.017.09-May-2021 4413.51  664.49 65.49 16.00 154.82 2938.18
   07:54:48.217.09-May-2021 4413.51  650.55 65.49 16.00 155.02 2938.18
   07:54:48.417.09-May-2021 4413.51  650.55 65.49 16.00 155.22 2938.18
   07:54:48.617.09-May-2021 4413.51  620.56 65.48 16.00 155.42 2938.18
   07:54:48.817.09-May-2021 4413.51  615.91 65.48 16.00 155.62 2938.18
   07:54:49.017.09-May-2021 4413.51  611.93 65.48 16.00 155.82 2938.18
   07:54:49.217.09-May-2021 4413.51  613.57 65.48 16.00 156.02 2938.18
   07:54:49.417.09-May-2021 4413.51  613.57 65.48 16.00 156.22 2938.18
   07:54:49.617.09-May-2021 4413.51  601.85 65.47 16.00 156.42 2938.18
   07:54:49.817.09-May-2021 4413.51  596.30 65.47 16.00 156.62 2938.18
   07:54:50.017.09-May-2021 4413.51  595.39 65.47 16.00 156.82 2938.18
   07:54:50.217.09-May-2021 4413.51  593.50 65.47 16.00 157.02 2938.18
   07:54:50.417.09-May-2021 4413.51  593.50 65.47 16.00 157.22 2938.18
   07:54:50.617.09-May-2021 4413.51  594.61 65.47 16.00 157.42 2938.18
   07:54:50.817.09-May-2021 4413.51  602.13 65.47 16.00 157.62 2938.18
   07:54:51.017.09-May-2021 4413.51  607.81 65.46 16.00 157.82 2938.18
   07:54:51.217.09-May-2021 4413.51  613.07 65.46 16.00 158.02 2938.18
