~Version Information
 VERS.                  2.0:   CWLS log ASCII Standard -VERSION 2.0
 WRAP.                   NO:   One line per depth step
~Well Information Block
#MNEM.UNIT     VALUE/NAME     DESCRIPTION
#---------     -----------    ---------------------------
 STRT.S             05:06:20 09-May-21: START TIME 05:06:20 09-May-21
 STOP.S             05:13:20 09-May-21: STOP TIME  05:13:20 09-May-21
 STEP.S                   0.00: STEP TIME
 NULL.                 -999.25: NULL VALUE
 PROV.                    Baku:  PROVINCE
 STAT.                    Baku:  STATE NAME
 SON .        AZ-XX-0906571588:  JOB NUMBER
 WTYP.                Deviated:  WELL TYPE
 COMP.     BP Exploration (Caspian Sea) ltd:  COMPANY
 BASE.              Azerbaijan:  LOGGING EQUIPMENT BASE LOCATION
 REGN.                   EESSA:  REGION
 CTRY.              Azerbaijan:  COUNTRY NAME
 FLD .                     ACG:  FIELD NAME
 WELL.                     J28:  WELL NAME
 RIG .             West Chirag:  RIG NAME
 DMF .             Drill Floor:  DRILL MEAS FROM
 PDAT.       Caspian Sea Level:  PERMANENT DATUM
 HPTY.       Minimum Curvature:  HOLE POS TYPE
 MDS .        Operator Entered:  MAG DATA SOURCE
 NREF.                    Grid:  NORTH REFERENCE
 SRVC.          TURAN DRILLING:  CONTRACTOR
 JOBN.        AZ-XX-0906571588:  JOB TICKET NUMB
 DCON.     Halliburton Sperry Drilling:  DIRECTNL CONTR
 STIM.      00.44.00 11-Feb-21:  START TIME
 DATE.      00.00.00 05-May-21:  END TIME
 SPUD.               13-Feb-21:  SPUD DATE
 MWDS.                    Baku:  MWD SHOP
 DOE .                     N/A:  DOE NUMBER
 UNIT.                     N/A:  LOGGING EQUIPMENT ID
 UWI .                     N/A:  UNIQUE WELL IDENTIFIER
 API .                     N/A:  API NUMBER
 CNTY.                        :  COUNTY
 LOC .                        :  LOCATION
 LMF .             Drill Floor:  LOG MEASURED FROM
 TVDS.m                  43.00:  TVDSS CORRECTN
 SDEP.m                 341.00:  START DEPTH
 EGL .m                   0.00:  GROUND ELEVATION
 WDMS.m                 169.80:  WD ELEV
 AGAP.m                  43.00:  AIR GAP
 EPD .m                   0.00:  ELEVATION
 APD .m                  43.00:  DEPTH ABOVE PD
 LATI.deg                40.13:  LATITUDE
 LONG.deg                51.22:  LONGITUDE
 UTMY.m             4443793.85:  UTM Y
 UTMX.m              519005.06:  UTM X
 WHEW.m                 -11.57:  WELL HEAD E/W
 WHNS.m                   8.57:  WELL HEAD N/S
 VSEW.m                 -11.57:  VERT SEC E/W
 VSNS.m                   8.57:  VERT SEC N/S
 DFWL.m                   0.00:  DISTANCE FWL
 DFSL.m                   0.00:  DISTANCE FSL
 VSDR.deg               299.34:  VERT SEC DIRECT
 GVFD.g                   1.00:  GRAVITY FIELD
 AZTC.deg                 6.36:  AZM TOTAL CORR
 MFLD.nT              50391.00:  MAGNETIC FIELD
 MDIP.deg                59.65:  MAGNETIC DIP
 MDEC.deg                 6.48:  MAGNETIC DECL
 GRDC.deg                 0.12:  GRID CORRECTION
 DEP .m                 334.96:  DEPTH
 TDD .m                1407.26:  TOTAL DEPTH (DRILLER)
 EKB .m                  43.00:  KB ELEVATION
 EDF .m                  43.00:  DF ELEVATION
 TDL .m                 228.00:  TOTAL DEPTH (LOGGER)
 VSC .                       0:  VS TO CLOSURE
 MAGU.                 1854484:  MAGUTM CHECKSUM
~Parameter Information Block
#MNEM.UNIT       Value        Description
#---------     -----------    ---------------------------
 AV  .mps                 4.00:  Ann Velocity 
 AVMX.mps                 4.73:  Max Ann Veloc 
 AZIF.deg               304.48:  Azm, Final 
 BHAT.        Rotary Steerable:  BHA Type 
 BREV.rev            257300.00:  Rev Bit Total 
 BROT.°/30m               0.00:  Build Rotating 
 BS  .in                  8.50:  Bit Size 
 BSZ .in                  8.50:  Bit Size 
 BTPL.psig              589.00:  Bit Press Loss 
 CABU.                      No:  Customer Abuse 
 CGEO.          Mubariz ghayev:  Customer Geo 
 COMM.                     ¼8\:  Run Comments 1 
 TCS .hr                 64.25:  Time Ciculation Ended 
 CV  .mps                 3.50:  Crit Velocity 
 CVMX.mps                 4.52:  Max Crit Veloc 
 DD1 .             Aziz Aliyev:  Direct Drillr 1 
 DD2 .         Intigam Rahimov:  Direct Drillr 2 
 DD3 .          Rashad Habibov:  Direct Drillr 3 
 DDSV.               Geo-Pilot:  DD Service 
 DEFF.%                  98.00:  % Det Eff 
 DLRX.°/30m               0.00:  Dogleg Rot Max 
 DLSO.°/30m               0.00:  Dogleg Oriented 
 DLSX.°/30m               0.00:  Dogleg Str Max 
 DRET.      10.45.04 08-May-21:  Drill End Time 
 DRST.      03.30.04 04-May-21:  Drill Start Tim 
 DTIM.hr                 14.97:  Time Drilling 
 EDEP.m                4640.01:  End Depth 
 ENG1.         Dail Mahammadov:  Engineer 1 
 ENG2.           Eldar Hajiyev:  Engineer 2 
 ENG3.       Bakhtiar Jabbarli:  Engineer 3 
 ENG4.       Natik Hasanagayev:  Engineer 4 
 ETIM.      09.30.04 14-May-21:  End Time 
 FLOI.gpm               460.00:  Flow In 
 FLON.gpm               200.00:  Flow In Min 
 FLOS.cptm                0.00:  Fluid Loss 
 FLOX.gpm               505.00:  Flow In Max 
 HFLO.                      No:  High Flow 
 HPRE.                      No:  High Pressure 
 HTEM.                      No:  High Temp 
 HYDO.m                   1.80:  Hydro Offset 
 IFIN.deg                66.71:  Inc, Final 
 IMAX.deg                67.03:  Inc Max 
 IMIN.deg                66.63:  Inc Min 
 IMND.m                4550.58:  Inc Min Depth 
 IMXD.m                4439.01:  Inc Max Depth 
 JARR.                      No:  Jarring 
 LETM.      10.45.04 08-May-21:  Log End Time 
 LOST.hr                     0:  Lost Rig Time 
 LSTM.      03.30.04 04-May-21:  Log Start Time 
 MDCL.ppm             37000.00:  Mud Chlorides 
 MDES.     Inversion Oil/Synthetic:  Mud Desc 
 DFD .sg                  1.38:  Mud Density 
 MDMN.sg                  1.35:  Dens Mud Min 
 MDMX.sg                  1.40:  Dens Mud Max 
 MOIL.                   57.40:  Run Mud Oil % 
 MOWR.                   70:30:  Run Mud OWR 
 MSND.                    0.00:  Run Mud Sand % 
 MSOL.                   18.00:  Run Mud Solids% 
 DFV .spqt               71.00:  Mud Viscosity 
 MWOD.in                  6.75:  MWD Tool OD 
 MWSI.                      No:  Serv Intrp, MWD 
 OTIM.hr                242.76:  Time Operating 
 PCON.           Look Like New:  Pad Condition 
 PMAX.psia            12183.92:  Press Op, Max 
 PV  .cP                 27.00:  Mud PV 
 RUN .                    1300:  Run Number 
 ROPA.m/hr               15.00:  ROP Avg 
 ROPN.m/hr                9.00:  ROP Min 
 ROPX.m/hr               19.00:  ROP Max 
 RPMA.rpm               120.00:  RPM Surface Avg 
 RPMN.rpm               100.00:  RPM Surface Min 
 RPMX.rpm               120.00:  RPM Surface Max 
 RRUN.                    1300:  Rig Run Number 
 RTIM.hr                  5.00:  Time Reaming 
 SAZI.deg               304.73:  Azm, Start 
 SDEP.m                4412.01:  Start Depth 
 SIDD.                      No:  Serv Intrp, DD 
 SINC.deg                66.82:  Inc, Start 
 SPPA.psig             2800.00:  SPP Avg 
 SPPN.psig             2610.00:  SPP Min 
 SPPX.psig             3100.00:  SPP Max 
 STIM.      03.30.00 04-May-21:  Start Time 
 SVCS.                 DD, MWD:  Services 
 SVER.                    9.20:  Sperry Version 
 TDAT.m                 228.00:  Tot Depth Attmp 
 TDDF.                      No:  Trip for DD 
 TDLG.m                 228.00:  Tot Depth Loggd 
 TFF .                      No:  Trip for Fail 
 TQAA.f-kp               15.00:  Torque Abs Avg 
 TQAN.f-kp               12.00:  Torque Abs Min 
 TQAX.f-kp               22.00:  Torque Abs Max 
 TRRT.°/30m               0.00:  Turn Rotating 
 MRT .                    HCIM:  Maximum Recorded Temperature 
 TTMX.degC               90.20:  Max Tool Temp 
 VS01.                90627813:  Virtual Str1 SN 
 VS02.                90634712:  Virtual Str2 SN 
 VS03.                90643410:  Virtual Str3 SN 
 VS04.                90634712:  Virtual Str4 SN 
 WBMN.klb                 9.00:  WOB Min 
 WITN.        Elmaddin Rahimov:  Customer Rep 
 WITN.         Haytham Mostafa:  Customer Rep 2 
 WOBA.klb                15.00:  WOB Avg 
 WOBX.klb                23.00:  WOB Max 
 YP  .lhf2               29.00:  Yield Point 
~Curve Information Block
#MNEM.UNIT                 API CODE     Curve Description
#---------               -----------    ---------------------------
 TIME.HHMMSS            00 000 000 000:  GT Time & Date
 GTDEPTH.m              00 000 000 000:  GT Depth
 GTPQH.psia             00 000 000 000:  GT HR Quartz Pressure
 GTTQ.degC              00 000 000 000:  GT Quartz Temperature
 GTTN.NONE              00 000 000 000:  GT Test Number
 GTET.sec               00 000 000 000:  GT Elapsed Test Time
 GTTVD.m                00 000 000 000:  GT True Vertical Depth
#Other Information
#
#WARRANTY: Halliburton will use its best efforts to furnish customers with 
#accurate information and interpretations that are part of, and incident to, the services 
#provided.  However, Halliburton cannot and does not warrant the accuracy 
#or correctness of such information and interpretations.  Under no circumstances should any 
#such information or interpretation be relied upon as the sole basis for any drilling, 
#completion, production, or financial decision or any procedure involving any risk to the 
#safety of any drilling venture, drilling rig or its crew or any other third party.  The 
#Customer has full responsibility for all drilling, completion and production operation.  
#Halliburton makes no representations or warranties, either expressed or 
#implied, including, but not limited to, the implied warranties of merchantability or fitness 
#for a particular purpose, with respect to the services rendered.  In no event will 
#Halliburton be liable for failure to obtain any particular results or for 
#any damages, including, but not limited to, indirect, special or consequential damages, 
#resulting from the use of any information or interpretation provided by Halliburton.
#
~A           TIME           GTDEPTH  GTPQH  GTTQ  GTTN   GTET   GTTVD  
# ...
   05:12:21.600.09-May-2021 4452.51 4282.02 66.83 13.00 361.60 2953.46
   05:12:21.800.09-May-2021 4452.51 4282.01 66.83 13.00 361.80 2953.46
   05:12:22.000.09-May-2021 4452.51 4282.02 66.83 13.00 362.00 2953.46
   05:12:22.200.09-May-2021 4452.51 4282.02 66.83 13.00 362.20 2953.46
   05:12:22.400.09-May-2021 4452.51 4282.13 66.83 13.00 362.40 2953.46
   05:12:22.600.09-May-2021 4452.51 4281.92 66.83 13.00 362.60 2953.46
   05:12:22.800.09-May-2021 4452.51 4282.03 66.83 13.00 362.80 2953.46
   05:12:23.000.09-May-2021 4452.51 4282.01 66.83 13.00 363.00 2953.46
   05:12:23.200.09-May-2021 4452.51 4282.01 66.83 13.00 363.20 2953.46
   05:12:23.400.09-May-2021 4452.51 4282.02 66.83 13.00 363.40 2953.46
   05:12:23.600.09-May-2021 4452.51 4282.01 66.83 13.00 363.60 2953.46
   05:12:23.800.09-May-2021 4452.51 4281.70 66.83 13.00 363.80 2953.46
   05:12:24.000.09-May-2021 4452.51 4287.49 66.83 13.00 364.00 2953.46
   05:12:24.200.09-May-2021 4452.51 4287.49 66.83 13.00 364.20 2953.46
   05:12:24.400.09-May-2021 4452.51 5929.88 66.83 13.00 364.40 2953.46
   05:12:24.600.09-May-2021 4452.51 6582.47 66.83 13.00 364.60 2953.46
   05:12:24.800.09-May-2021 4452.51 6572.96 66.83 13.00 364.80 2953.46
   05:12:25.000.09-May-2021 4452.51 6579.22 66.83 13.00 365.00 2953.46
   05:12:25.200.09-May-2021 4452.51 6579.22 66.83 13.00 365.20 2953.46
   05:12:25.400.09-May-2021 4452.51 6575.98 66.83 13.00 365.40 2953.46
   05:12:25.600.09-May-2021 4452.51 6576.48 66.84 13.00 365.60 2953.46
   05:12:25.800.09-May-2021 4452.51 6585.39 66.84 13.00 365.80 2953.46
   05:12:26.000.09-May-2021 4452.51 6575.50 66.84 13.00 366.00 2953.46
   05:12:26.200.09-May-2021 4452.51 6575.50 66.84 13.00 366.20 2953.46
   05:12:26.400.09-May-2021 4452.51 6578.07 66.84 13.00 366.40 2953.46
   05:12:26.600.09-May-2021 4452.51 6588.79 66.84 13.00 366.60 2953.46
   05:12:26.800.09-May-2021 4452.51 6576.73 66.84 13.00 366.80 2953.46
   05:12:27.000.09-May-2021 4452.51 6585.64 66.84 13.00 367.00 2953.46
   05:12:27.200.09-May-2021 4452.51 6585.64 66.84 13.00 367.20 2953.46
   05:12:27.400.09-May-2021 4452.51 6580.56 66.85 13.00 367.40 2953.46
   05:12:27.600.09-May-2021 4452.51 6588.74 66.85 13.00 367.60 2953.46
   05:12:27.800.09-May-2021 4452.51 6578.05 66.85 13.00 367.80 2953.46
   05:12:28.000.09-May-2021 4452.51 6586.74 66.85 13.00 368.00 2953.46
   05:12:28.200.09-May-2021 4452.51 6586.74 66.85 13.00 368.20 2953.46
   05:12:28.400.09-May-2021 4452.51 6581.35 66.86 13.00 368.40 2953.46
   05:12:28.600.09-May-2021 4452.51 6579.10 66.86 13.00 368.60 2953.46
   05:12:28.800.09-May-2021 4452.51 6579.82 66.86 13.00 368.80 2953.46
   05:12:29.000.09-May-2021 4452.51 6579.15 66.86 13.00 369.00 2953.46
   05:12:29.200.09-May-2021 4452.51 6579.15 66.86 13.00 369.20 2953.46
   05:12:29.400.09-May-2021 4452.51 6578.91 66.86 13.00 369.40 2953.46
   05:12:29.600.09-May-2021 4452.51 6579.36 66.86 13.00 369.60 2953.46
   05:12:29.800.09-May-2021 4452.51 6579.83 66.87 13.00 369.80 2953.46
   05:12:30.000.09-May-2021 4452.51 6581.73 66.87 13.00 370.00 2953.46
   05:12:30.200.09-May-2021 4452.51 6581.73 66.87 13.00 370.20 2953.46
   05:12:30.400.09-May-2021 4452.51 6579.73 66.87 13.00 370.40 2953.46
   05:12:30.600.09-May-2021 4452.51 6586.30 66.87 13.00 370.60 2953.46
   05:12:30.800.09-May-2021 4452.51 6579.19 66.87 13.00 370.80 2953.46
   05:12:31.000.09-May-2021 4452.51 6582.41 66.87 13.00 371.00 2953.46
   05:12:31.200.09-May-2021 4452.51 6582.41 66.87 13.00 371.20 2953.46
   05:12:31.400.09-May-2021 4452.51 6580.29 66.87 13.00 371.40 2953.46
   05:12:31.600.09-May-2021 4452.51 6579.34 66.87 13.00 371.60 2953.46
   05:12:31.800.09-May-2021 4452.51 6579.63 66.88 13.00 371.80 2953.46
   05:12:32.000.09-May-2021 4452.51 6579.30 66.88 13.00 372.00 2953.46
   05:12:32.200.09-May-2021 4452.51 6579.30 66.88 13.00 372.20 2953.46
   05:12:32.400.09-May-2021 4452.51 6579.92 66.88 13.00 372.40 2953.46
   05:12:32.600.09-May-2021 4452.51 6580.34 66.88 13.00 372.60 2953.46
   05:12:32.800.09-May-2021 4452.51 6589.32 66.88 13.00 372.80 2953.46
   05:12:33.000.09-May-2021 4452.51 6578.94 66.88 13.00 373.00 2953.46
   05:12:33.200.09-May-2021 4452.51 6578.94 66.88 13.00 373.20 2953.46
   05:12:33.400.09-May-2021 4452.51 6580.74 66.88 13.00 373.40 2953.46
   05:12:33.600.09-May-2021 4452.51 6582.17 66.88 13.00 373.60 2953.46
   05:12:33.800.09-May-2021 4452.51 6580.80 66.88 13.00 373.80 2953.46
   05:12:34.000.09-May-2021 4452.51 6589.86 66.88 13.00 374.00 2953.46
   05:12:34.200.09-May-2021 4452.51 6589.86 66.88 13.00 374.20 2953.46
   05:12:34.400.09-May-2021 4452.51 6588.67 66.88 13.00 374.40 2953.46
   05:12:34.600.09-May-2021 4452.51 6579.87 66.88 13.00 374.60 2953.46
   05:12:34.800.09-May-2021 4452.51 6591.70 66.88 13.00 374.80 2953.46
   05:12:35.000.09-May-2021 4452.51 6579.21 66.88 13.00 375.00 2953.46
   05:12:35.200.09-May-2021 4452.51 6579.21 66.88 13.00 375.20 2953.46
   05:12:35.400.09-May-2021 4452.51 6579.55 66.88 13.00 375.40 2953.46
   05:12:35.600.09-May-2021 4452.51 6582.62 66.88 13.00 375.60 2953.46
   05:12:35.800.09-May-2021 4452.51 6588.74 66.88 13.00 375.80 2953.46
   05:12:36.000.09-May-2021 4452.51 6579.56 66.88 13.00 376.00 2953.46
   05:12:36.200.09-May-2021 4452.51 6579.56 66.88 13.00 376.20 2953.46
   05:12:36.400.09-May-2021 4452.51 6578.73 66.88 13.00 376.40 2953.46
   05:12:36.600.09-May-2021 4452.51 6581.51 66.88 13.00 376.60 2953.46
   05:12:36.800.09-May-2021 4452.51 6579.21 66.88 13.00 376.80 2953.46
   05:12:37.000.09-May-2021 4452.51 6579.58 66.88 13.00 377.00 2953.46
   05:12:37.200.09-May-2021 4452.51 6579.58 66.88 13.00 377.20 2953.46
   05:12:37.400.09-May-2021 4452.51 6578.65 66.88 13.00 377.40 2953.46
   05:12:37.600.09-May-2021 4452.51 6578.66 66.88 13.00 377.60 2953.46
   05:12:37.800.09-May-2021 4452.51 6579.02 66.88 13.00 377.80 2953.46
   05:12:38.000.09-May-2021 4452.51 6579.34 66.88 13.00 378.00 2953.46
   05:12:38.200.09-May-2021 4452.51 6579.34 66.88 13.00 378.20 2953.46
   05:12:38.400.09-May-2021 4452.51 6588.13 66.88 13.00 378.40 2953.46
   05:12:38.600.09-May-2021 4452.51 6578.21 66.88 13.00 378.60 2953.46
   05:12:38.800.09-May-2021 4452.51 6587.25 66.88 13.00 378.80 2953.46
   05:12:39.000.09-May-2021 4452.51 6578.71 66.88 13.00 379.00 2953.46
   05:12:39.200.09-May-2021 4452.51 6578.71 66.88 13.00 379.20 2953.46
   05:12:39.400.09-May-2021 4452.51 6579.32 66.88 13.00 379.40 2953.46
   05:12:39.600.09-May-2021 4452.51 6579.53 66.88 13.00 379.60 2953.46
   05:12:39.800.09-May-2021 4452.51 6579.05 66.88 13.00 379.80 2953.46
   05:12:40.000.09-May-2021 4452.51 6578.57 66.88 13.00 380.00 2953.46
   05:12:40.200.09-May-2021 4452.51 6578.57 66.88 13.00 380.20 2953.46
   05:12:40.400.09-May-2021 4452.51 6578.53 66.88 13.00 380.40 2953.46
   05:12:40.600.09-May-2021 4452.51 6578.99 66.88 13.00 380.60 2953.46
   05:12:40.800.09-May-2021 4452.51 6579.25 66.88 13.00 380.80 2953.46
   05:12:41.000.09-May-2021 4452.51 6583.64 66.88 13.00 381.00 2953.46
   05:12:41.200.09-May-2021 4452.51 6583.64 66.88 13.00 381.20 2953.46
   05:12:41.400.09-May-2021 4452.51 6580.97 66.88 13.00 381.40 2953.46
   05:12:41.600.09-May-2021 4452.51 6584.75 66.88 13.00 381.60 2953.46
   05:12:41.800.09-May-2021 4452.51 6579.48 66.88 13.00 381.80 2953.46
   05:12:42.000.09-May-2021 4452.51 6581.41 66.88 13.00 382.00 2953.46
   05:12:42.200.09-May-2021 4452.51 6581.41 66.88 13.00 382.20 2953.46
   05:12:42.400.09-May-2021 4452.51 6578.28 66.88 13.00 382.40 2953.46
   05:12:42.600.09-May-2021 4452.51 6586.50 66.88 13.00 382.60 2953.46
   05:12:42.800.09-May-2021 4452.51 6579.94 66.88 13.00 382.80 2953.46
   05:12:43.000.09-May-2021 4452.51 6590.40 66.88 13.00 383.00 2953.46
   05:12:43.200.09-May-2021 4452.51 6590.40 66.88 13.00 383.20 2953.46
   05:12:43.400.09-May-2021 4452.51 6587.15 66.88 13.00 383.40 2953.46
   05:12:43.600.09-May-2021 4452.51 6580.40 66.88 13.00 383.60 2953.46
   05:12:43.800.09-May-2021 4452.51 6581.29 66.88 13.00 383.80 2953.46
   05:12:44.000.09-May-2021 4452.51 6584.48 66.88 13.00 384.00 2953.46
