~Version Information
 VERS.                  2.0:   CWLS log ASCII Standard -VERSION 2.0
 WRAP.                   NO:   One line per depth step
~Well Information Block
#MNEM.UNIT     VALUE/NAME     DESCRIPTION
#---------     -----------    ---------------------------
 STRT.S             01:50:25 10-May-21: START TIME 01:50:25 10-May-21
 STOP.S             01:58:33 10-May-21: STOP TIME  01:58:33 10-May-21
 STEP.S                   0.00: STEP TIME
 NULL.                 -999.25: NULL VALUE
 PROV.                    Baku:  PROVINCE
 STAT.                    Baku:  STATE NAME
 SON .        AZ-XX-0906571588:  JOB NUMBER
 WTYP.                Deviated:  WELL TYPE
 COMP.     BP Exploration (Caspian Sea) ltd:  COMPANY
 BASE.              Azerbaijan:  LOGGING EQUIPMENT BASE LOCATION
 REGN.                   EESSA:  REGION
 CTRY.              Azerbaijan:  COUNTRY NAME
 FLD .                     ACG:  FIELD NAME
 WELL.                     J28:  WELL NAME
 RIG .             West Chirag:  RIG NAME
 DMF .             Drill Floor:  DRILL MEAS FROM
 PDAT.       Caspian Sea Level:  PERMANENT DATUM
 HPTY.       Minimum Curvature:  HOLE POS TYPE
 MDS .        Operator Entered:  MAG DATA SOURCE
 NREF.                    Grid:  NORTH REFERENCE
 SRVC.          TURAN DRILLING:  CONTRACTOR
 JOBN.        AZ-XX-0906571588:  JOB TICKET NUMB
 DCON.     Halliburton Sperry Drilling:  DIRECTNL CONTR
 STIM.      00.44.00 11-Feb-21:  START TIME
 DATE.      00.00.00 05-May-21:  END TIME
 SPUD.               13-Feb-21:  SPUD DATE
 MWDS.                    Baku:  MWD SHOP
 DOE .                     N/A:  DOE NUMBER
 UNIT.                     N/A:  LOGGING EQUIPMENT ID
 UWI .                     N/A:  UNIQUE WELL IDENTIFIER
 API .                     N/A:  API NUMBER
 CNTY.                        :  COUNTY
 LOC .                        :  LOCATION
 LMF .             Drill Floor:  LOG MEASURED FROM
 TVDS.m                  43.00:  TVDSS CORRECTN
 SDEP.m                 341.00:  START DEPTH
 EGL .m                   0.00:  GROUND ELEVATION
 WDMS.m                 169.80:  WD ELEV
 AGAP.m                  43.00:  AIR GAP
 EPD .m                   0.00:  ELEVATION
 APD .m                  43.00:  DEPTH ABOVE PD
 LATI.deg                40.13:  LATITUDE
 LONG.deg                51.22:  LONGITUDE
 UTMY.m             4443793.85:  UTM Y
 UTMX.m              519005.06:  UTM X
 WHEW.m                 -11.57:  WELL HEAD E/W
 WHNS.m                   8.57:  WELL HEAD N/S
 VSEW.m                 -11.57:  VERT SEC E/W
 VSNS.m                   8.57:  VERT SEC N/S
 DFWL.m                   0.00:  DISTANCE FWL
 DFSL.m                   0.00:  DISTANCE FSL
 VSDR.deg               299.34:  VERT SEC DIRECT
 GVFD.g                   1.00:  GRAVITY FIELD
 AZTC.deg                 6.36:  AZM TOTAL CORR
 MFLD.nT              50391.00:  MAGNETIC FIELD
 MDIP.deg                59.65:  MAGNETIC DIP
 MDEC.deg                 6.48:  MAGNETIC DECL
 GRDC.deg                 0.12:  GRID CORRECTION
 DEP .m                 334.96:  DEPTH
 TDD .m                1407.26:  TOTAL DEPTH (DRILLER)
 EKB .m                  43.00:  KB ELEVATION
 EDF .m                  43.00:  DF ELEVATION
 TDL .m                 228.00:  TOTAL DEPTH (LOGGER)
 VSC .                       0:  VS TO CLOSURE
 MAGU.                 1854484:  MAGUTM CHECKSUM
~Parameter Information Block
#MNEM.UNIT       Value        Description
#---------     -----------    ---------------------------
 AV  .mps                 4.00:  Ann Velocity 
 AVMX.mps                 4.73:  Max Ann Veloc 
 AZIF.deg               304.48:  Azm, Final 
 BHAT.        Rotary Steerable:  BHA Type 
 BREV.rev            257300.00:  Rev Bit Total 
 BROT.°/30m               0.00:  Build Rotating 
 BS  .in                  8.50:  Bit Size 
 BSZ .in                  8.50:  Bit Size 
 BTPL.psig              589.00:  Bit Press Loss 
 CABU.                      No:  Customer Abuse 
 CGEO.          Mubariz ghayev:  Customer Geo 
 COMM.                     Í‚:  Run Comments 1 
 TCS .hr                 64.25:  Time Ciculation Ended 
 CV  .mps                 3.50:  Crit Velocity 
 CVMX.mps                 4.52:  Max Crit Veloc 
 DD1 .             Aziz Aliyev:  Direct Drillr 1 
 DD2 .         Intigam Rahimov:  Direct Drillr 2 
 DD3 .          Rashad Habibov:  Direct Drillr 3 
 DDSV.               Geo-Pilot:  DD Service 
 DEFF.%                  98.00:  % Det Eff 
 DLRX.°/30m               0.00:  Dogleg Rot Max 
 DLSO.°/30m               0.00:  Dogleg Oriented 
 DLSX.°/30m               0.00:  Dogleg Str Max 
 DRET.      10.45.04 08-May-21:  Drill End Time 
 DRST.      03.30.04 04-May-21:  Drill Start Tim 
 DTIM.hr                 14.97:  Time Drilling 
 EDEP.m                4640.01:  End Depth 
 ENG1.         Dail Mahammadov:  Engineer 1 
 ENG2.           Eldar Hajiyev:  Engineer 2 
 ENG3.       Bakhtiar Jabbarli:  Engineer 3 
 ENG4.       Natik Hasanagayev:  Engineer 4 
 ETIM.      09.30.04 14-May-21:  End Time 
 FLOI.gpm               460.00:  Flow In 
 FLON.gpm               200.00:  Flow In Min 
 FLOS.cptm                0.00:  Fluid Loss 
 FLOX.gpm               505.00:  Flow In Max 
 HFLO.                      No:  High Flow 
 HPRE.                      No:  High Pressure 
 HTEM.                      No:  High Temp 
 HYDO.m                   1.80:  Hydro Offset 
 IFIN.deg                66.71:  Inc, Final 
 IMAX.deg                67.03:  Inc Max 
 IMIN.deg                66.63:  Inc Min 
 IMND.m                4550.58:  Inc Min Depth 
 IMXD.m                4439.01:  Inc Max Depth 
 JARR.                      No:  Jarring 
 LETM.      10.45.04 08-May-21:  Log End Time 
 LOST.hr                     0:  Lost Rig Time 
 LSTM.      03.30.04 04-May-21:  Log Start Time 
 MDCL.ppm             37000.00:  Mud Chlorides 
 MDES.     Inversion Oil/Synthetic:  Mud Desc 
 DFD .sg                  1.38:  Mud Density 
 MDMN.sg                  1.35:  Dens Mud Min 
 MDMX.sg                  1.40:  Dens Mud Max 
 MOIL.                   57.40:  Run Mud Oil % 
 MOWR.                   70:30:  Run Mud OWR 
 MSND.                    0.00:  Run Mud Sand % 
 MSOL.                   18.00:  Run Mud Solids% 
 DFV .spqt               71.00:  Mud Viscosity 
 MWOD.in                  6.75:  MWD Tool OD 
 MWSI.                      No:  Serv Intrp, MWD 
 OTIM.hr                242.76:  Time Operating 
 PCON.           Look Like New:  Pad Condition 
 PMAX.psia            12183.92:  Press Op, Max 
 PV  .cP                 27.00:  Mud PV 
 RUN .                    1300:  Run Number 
 ROPA.m/hr               15.00:  ROP Avg 
 ROPN.m/hr                9.00:  ROP Min 
 ROPX.m/hr               19.00:  ROP Max 
 RPMA.rpm               120.00:  RPM Surface Avg 
 RPMN.rpm               100.00:  RPM Surface Min 
 RPMX.rpm               120.00:  RPM Surface Max 
 RRUN.                    1300:  Rig Run Number 
 RTIM.hr                  5.00:  Time Reaming 
 SAZI.deg               304.73:  Azm, Start 
 SDEP.m                4412.01:  Start Depth 
 SIDD.                      No:  Serv Intrp, DD 
 SINC.deg                66.82:  Inc, Start 
 SPPA.psig             2800.00:  SPP Avg 
 SPPN.psig             2610.00:  SPP Min 
 SPPX.psig             3100.00:  SPP Max 
 STIM.      03.30.00 04-May-21:  Start Time 
 SVCS.                 DD, MWD:  Services 
 SVER.                    9.20:  Sperry Version 
 TDAT.m                 228.00:  Tot Depth Attmp 
 TDDF.                      No:  Trip for DD 
 TDLG.m                 228.00:  Tot Depth Loggd 
 TFF .                      No:  Trip for Fail 
 TQAA.f-kp               15.00:  Torque Abs Avg 
 TQAN.f-kp               12.00:  Torque Abs Min 
 TQAX.f-kp               22.00:  Torque Abs Max 
 TRRT.°/30m               0.00:  Turn Rotating 
 MRT .                    HCIM:  Maximum Recorded Temperature 
 TTMX.degC               90.20:  Max Tool Temp 
 VS01.                90627813:  Virtual Str1 SN 
 VS02.                90634712:  Virtual Str2 SN 
 VS03.                90643410:  Virtual Str3 SN 
 VS04.                90634712:  Virtual Str4 SN 
 WBMN.klb                 9.00:  WOB Min 
 WITN.        Elmaddin Rahimov:  Customer Rep 
 WITN.         Haytham Mostafa:  Customer Rep 2 
 WOBA.klb                15.00:  WOB Avg 
 WOBX.klb                23.00:  WOB Max 
 YP  .lhf2               29.00:  Yield Point 
~Curve Information Block
#MNEM.UNIT                 API CODE     Curve Description
#---------               -----------    ---------------------------
 TIME.HHMMSS            00 000 000 000:  GT Time & Date
 GTDEPTH.m              00 000 000 000:  GT Depth
 GTPQH.psia             00 000 000 000:  GT HR Quartz Pressure
 GTTQ.degC              00 000 000 000:  GT Quartz Temperature
 GTTN.NONE              00 000 000 000:  GT Test Number
 GTET.sec               00 000 000 000:  GT Elapsed Test Time
 GTTVD.m                00 000 000 000:  GT True Vertical Depth
#Other Information
#
#WARRANTY: Halliburton will use its best efforts to furnish customers with 
#accurate information and interpretations that are part of, and incident to, the services 
#provided.  However, Halliburton cannot and does not warrant the accuracy 
#or correctness of such information and interpretations.  Under no circumstances should any 
#such information or interpretation be relied upon as the sole basis for any drilling, 
#completion, production, or financial decision or any procedure involving any risk to the 
#safety of any drilling venture, drilling rig or its crew or any other third party.  The 
#Customer has full responsibility for all drilling, completion and production operation.  
#Halliburton makes no representations or warranties, either expressed or 
#implied, including, but not limited to, the implied warranties of merchantability or fitness 
#for a particular purpose, with respect to the services rendered.  In no event will 
#Halliburton be liable for failure to obtain any particular results or for 
#any damages, including, but not limited to, indirect, special or consequential damages, 
#resulting from the use of any information or interpretation provided by Halliburton.
#
~A           TIME           GTDEPTH  GTPQH  GTTQ  GTTN   GTET   GTTVD  
# ...
   01:51:33.153.10-May-2021 4567.51  585.27 61.02 19.00  67.81 2998.78
   01:51:33.353.10-May-2021 4567.51  585.85 61.02 19.00  68.01 2998.78
   01:51:33.553.10-May-2021 4567.51  585.85 61.02 19.00  68.21 2998.78
   01:51:33.753.10-May-2021 4567.51  586.95 61.02 19.00  68.41 2998.78
   01:51:33.953.10-May-2021 4567.51  587.47 61.02 19.00  68.61 2998.78
   01:51:34.153.10-May-2021 4567.51  588.04 61.02 19.00  68.81 2998.78
   01:51:34.353.10-May-2021 4567.51  588.26 61.02 19.00  69.01 2998.78
   01:51:34.553.10-May-2021 4567.51  588.26 61.02 19.00  69.21 2998.78
   01:51:34.753.10-May-2021 4567.51  589.63 61.02 19.00  69.41 2998.78
   01:51:34.953.10-May-2021 4567.51  590.19 61.02 19.00  69.61 2998.78
   01:51:35.153.10-May-2021 4567.51  590.31 61.02 19.00  69.81 2998.78
   01:51:35.354.10-May-2021 4567.51  591.44 61.02 19.00  70.01 2998.78
   01:51:35.554.10-May-2021 4567.51  591.44 61.02 19.00  70.21 2998.78
   01:51:35.754.10-May-2021 4567.51  591.98 61.02 19.00  70.41 2998.78
   01:51:35.954.10-May-2021 4567.51  592.70 61.02 19.00  70.61 2998.78
   01:51:36.154.10-May-2021 4567.51  593.18 61.02 19.00  70.81 2998.78
   01:51:36.354.10-May-2021 4567.51  593.71 61.02 19.00  71.01 2998.78
   01:51:36.554.10-May-2021 4567.51  593.71 61.02 19.00  71.21 2998.78
   01:51:36.754.10-May-2021 4567.51  594.23 61.02 19.00  71.41 2998.78
   01:51:36.954.10-May-2021 4567.51  595.27 61.02 19.00  71.61 2998.78
   01:51:37.154.10-May-2021 4567.51  595.41 61.02 19.00  71.81 2998.78
   01:51:37.354.10-May-2021 4567.51  596.06 61.02 19.00  72.01 2998.78
   01:51:37.554.10-May-2021 4567.51  596.06 61.02 19.00  72.21 2998.78
   01:51:37.754.10-May-2021 4567.51  596.75 61.02 19.00  72.41 2998.78
   01:51:37.954.10-May-2021 4567.51  597.20 61.02 19.00  72.61 2998.78
   01:51:38.154.10-May-2021 4567.51  597.64 61.02 19.00  72.81 2998.78
   01:51:38.354.10-May-2021 4567.51  598.07 61.02 19.00  73.01 2998.78
   01:51:38.554.10-May-2021 4567.51  598.07 61.02 19.00  73.21 2998.78
   01:51:38.754.10-May-2021 4567.51  598.93 61.02 19.00  73.41 2998.78
   01:51:38.954.10-May-2021 4567.51  599.32 61.02 19.00  73.61 2998.78
   01:51:39.154.10-May-2021 4567.51  599.74 61.02 19.00  73.81 2998.78
   01:51:39.354.10-May-2021 4567.51  599.81 61.02 19.00  74.01 2998.78
   01:51:39.554.10-May-2021 4567.51  599.81 61.02 19.00  74.21 2998.78
   01:51:39.754.10-May-2021 4567.51  600.98 61.02 19.00  74.41 2998.78
   01:51:39.954.10-May-2021 4567.51  601.49 61.02 19.00  74.61 2998.78
   01:51:40.154.10-May-2021 4567.51  601.78 61.02 19.00  74.81 2998.78
   01:51:40.354.10-May-2021 4567.51  602.15 61.02 19.00  75.01 2998.78
   01:51:40.554.10-May-2021 4567.51  602.15 61.02 19.00  75.21 2998.78
   01:51:40.754.10-May-2021 4567.51  602.95 61.02 19.00  75.41 2998.78
   01:51:40.955.10-May-2021 4567.51  603.33 61.02 19.00  75.61 2998.78
   01:51:41.155.10-May-2021 4567.51  603.72 61.02 19.00  75.81 2998.78
   01:51:41.355.10-May-2021 4567.51  604.09 61.02 19.00  76.01 2998.78
   01:51:41.555.10-May-2021 4567.51  604.09 61.02 19.00  76.21 2998.78
   01:51:41.755.10-May-2021 4567.51  604.67 61.02 19.00  76.41 2998.78
   01:51:41.955.10-May-2021 4567.51  604.98 61.02 19.00  76.61 2998.78
   01:51:42.155.10-May-2021 4567.51  605.76 61.02 19.00  76.81 2998.78
   01:51:42.355.10-May-2021 4567.51  606.02 61.02 19.00  77.01 2998.78
   01:51:42.555.10-May-2021 4567.51  606.02 61.02 19.00  77.21 2998.78
   01:51:42.755.10-May-2021 4567.51  606.90 61.02 19.00  77.41 2998.78
   01:51:42.955.10-May-2021 4567.51  607.03 61.02 19.00  77.61 2998.78
   01:51:43.155.10-May-2021 4567.51  607.36 61.02 19.00  77.81 2998.78
   01:51:43.355.10-May-2021 4567.51  607.74 61.02 19.00  78.01 2998.78
   01:51:43.555.10-May-2021 4567.51  607.74 61.02 19.00  78.21 2998.78
   01:51:43.755.10-May-2021 4567.51  608.63 61.02 19.00  78.41 2998.78
   01:51:43.955.10-May-2021 4567.51  608.69 61.02 19.00  78.61 2998.78
   01:51:44.155.10-May-2021 4567.51  609.04 61.02 19.00  78.81 2998.78
   01:51:44.355.10-May-2021 4567.51  609.29 61.02 19.00  79.01 2998.78
   01:51:44.555.10-May-2021 4567.51  609.29 61.02 19.00  79.21 2998.78
   01:51:44.755.10-May-2021 4567.51  610.25 61.02 19.00  79.41 2998.78
   01:51:44.955.10-May-2021 4567.51  610.28 61.02 19.00  79.61 2998.78
   01:51:45.155.10-May-2021 4567.51  610.70 61.02 19.00  79.81 2998.78
   01:51:45.355.10-May-2021 4567.51  610.87 61.02 19.00  80.01 2998.78
   01:51:45.555.10-May-2021 4567.51  610.87 61.02 19.00  80.21 2998.78
   01:51:45.755.10-May-2021 4567.51  611.51 61.02 19.00  80.41 2998.78
   01:51:45.955.10-May-2021 4567.51  611.81 61.02 19.00  80.61 2998.78
   01:51:46.155.10-May-2021 4567.51  612.13 61.02 19.00  80.81 2998.78
   01:51:46.355.10-May-2021 4567.51  612.43 61.02 19.00  81.01 2998.78
   01:51:46.555.10-May-2021 4567.51  612.43 61.02 19.00  81.21 2998.78
   01:51:46.756.10-May-2021 4567.51  613.01 61.02 19.00  81.41 2998.78
   01:51:46.956.10-May-2021 4567.51  613.32 61.02 19.00  81.61 2998.78
   01:51:47.156.10-May-2021 4567.51  613.29 61.02 19.00  81.81 2998.78
   01:51:47.356.10-May-2021 4567.51  614.21 61.02 19.00  82.01 2998.78
   01:51:47.556.10-May-2021 4567.51  614.21 61.02 19.00  82.21 2998.78
   01:51:47.756.10-May-2021 4567.51  614.52 61.02 19.00  82.41 2998.78
   01:51:47.956.10-May-2021 4567.51  614.76 61.02 19.00  82.61 2998.78
   01:51:48.156.10-May-2021 4567.51  615.03 61.02 19.00  82.81 2998.78
   01:51:48.356.10-May-2021 4567.51  615.32 61.02 19.00  83.01 2998.78
   01:51:48.556.10-May-2021 4567.51  615.32 61.02 19.00  83.21 2998.78
   01:51:48.756.10-May-2021 4567.51  615.87 61.02 19.00  83.41 2998.78
   01:51:48.956.10-May-2021 4567.51  616.15 61.02 19.00  83.61 2998.78
   01:51:49.156.10-May-2021 4567.51  616.41 61.02 19.00  83.81 2998.78
   01:51:49.356.10-May-2021 4567.51  616.67 61.02 19.00  84.01 2998.78
   01:51:49.556.10-May-2021 4567.51  616.67 61.02 19.00  84.21 2998.78
   01:51:49.756.10-May-2021 4567.51  617.04 61.02 19.00  84.42 2998.78
   01:51:49.956.10-May-2021 4567.51  617.75 61.02 19.00  84.62 2998.78
   01:51:50.156.10-May-2021 4567.51  617.83 61.02 19.00  84.82 2998.78
   01:51:50.356.10-May-2021 4567.51  617.71 61.02 19.00  85.02 2998.78
   01:51:50.556.10-May-2021 4567.51  617.71 61.02 19.00  85.22 2998.78
   01:51:50.756.10-May-2021 4567.51  618.60 61.03 19.00  85.42 2998.78
   01:51:50.956.10-May-2021 4567.51  618.78 61.03 19.00  85.62 2998.78
   01:51:51.156.10-May-2021 4567.51  619.07 61.03 19.00  85.82 2998.78
   01:51:51.356.10-May-2021 4567.51  619.30 61.03 19.00  86.02 2998.78
   01:51:51.556.10-May-2021 4567.51  619.30 61.03 19.00  86.22 2998.78
   01:51:51.756.10-May-2021 4567.51  620.07 61.03 19.00  86.42 2998.78
   01:51:51.956.10-May-2021 4567.51  620.04 61.03 19.00  86.62 2998.78
   01:51:52.156.10-May-2021 4567.51  619.95 61.03 19.00  86.82 2998.78
   01:51:52.357.10-May-2021 4567.51  620.59 61.03 19.00  87.02 2998.78
   01:51:52.557.10-May-2021 4567.51  620.59 61.03 19.00  87.22 2998.78
   01:51:52.757.10-May-2021 4567.51  621.12 61.03 19.00  87.42 2998.78
   01:51:52.957.10-May-2021 4567.51  621.20 61.03 19.00  87.62 2998.78
   01:51:53.157.10-May-2021 4567.51  621.41 61.03 19.00  87.82 2998.78
   01:51:53.357.10-May-2021 4567.51  621.65 61.03 19.00  88.02 2998.78
   01:51:53.557.10-May-2021 4567.51  621.65 61.03 19.00  88.22 2998.78
   01:51:53.757.10-May-2021 4567.51  622.11 61.03 19.00  88.42 2998.78
   01:51:53.957.10-May-2021 4567.51  622.34 61.03 19.00  88.62 2998.78
   01:51:54.157.10-May-2021 4567.51  622.56 61.03 19.00  88.82 2998.78
   01:51:54.357.10-May-2021 4567.51  622.79 61.03 19.00  89.02 2998.78
   01:51:54.557.10-May-2021 4567.51  622.79 61.03 19.00  89.22 2998.78
   01:51:54.757.10-May-2021 4567.51  622.86 61.03 19.00  89.42 2998.78
   01:51:54.957.10-May-2021 4567.51  623.74 61.03 19.00  89.62 2998.78
   01:51:55.157.10-May-2021 4567.51  623.68 61.03 19.00  89.82 2998.78
   01:51:55.357.10-May-2021 4567.51  624.05 61.03 19.00  90.02 2998.78
   01:51:55.557.10-May-2021 4567.51  624.05 61.03 19.00  90.22 2998.78
