~Version Information
 VERS.                  2.0:   CWLS log ASCII Standard -VERSION 2.0
 WRAP.                   NO:   One line per depth step
~Well Information Block
#MNEM.UNIT     VALUE/NAME     DESCRIPTION
#---------     -----------    ---------------------------
 STRT.S             23:07:02 09-May-21: START TIME 23:07:02 09-May-21
 STOP.S             23:13:42 09-May-21: STOP TIME  23:13:42 09-May-21
 STEP.S                   0.00: STEP TIME
 NULL.                 -999.25: NULL VALUE
 PROV.                    Baku:  PROVINCE
 STAT.                    Baku:  STATE NAME
 SON .        AZ-XX-0906571588:  JOB NUMBER
 WTYP.                Deviated:  WELL TYPE
 COMP.     BP Exploration (Caspian Sea) ltd:  COMPANY
 BASE.              Azerbaijan:  LOGGING EQUIPMENT BASE LOCATION
 REGN.                   EESSA:  REGION
 CTRY.              Azerbaijan:  COUNTRY NAME
 FLD .                     ACG:  FIELD NAME
 WELL.                     J28:  WELL NAME
 RIG .             West Chirag:  RIG NAME
 DMF .             Drill Floor:  DRILL MEAS FROM
 PDAT.       Caspian Sea Level:  PERMANENT DATUM
 HPTY.       Minimum Curvature:  HOLE POS TYPE
 MDS .        Operator Entered:  MAG DATA SOURCE
 NREF.                    Grid:  NORTH REFERENCE
 SRVC.          TURAN DRILLING:  CONTRACTOR
 JOBN.        AZ-XX-0906571588:  JOB TICKET NUMB
 DCON.     Halliburton Sperry Drilling:  DIRECTNL CONTR
 STIM.      00.44.00 11-Feb-21:  START TIME
 DATE.      00.00.00 05-May-21:  END TIME
 SPUD.               13-Feb-21:  SPUD DATE
 MWDS.                    Baku:  MWD SHOP
 DOE .                     N/A:  DOE NUMBER
 UNIT.                     N/A:  LOGGING EQUIPMENT ID
 UWI .                     N/A:  UNIQUE WELL IDENTIFIER
 API .                     N/A:  API NUMBER
 CNTY.                        :  COUNTY
 LOC .                        :  LOCATION
 LMF .             Drill Floor:  LOG MEASURED FROM
 TVDS.m                  43.00:  TVDSS CORRECTN
 SDEP.m                 341.00:  START DEPTH
 EGL .m                   0.00:  GROUND ELEVATION
 WDMS.m                 169.80:  WD ELEV
 AGAP.m                  43.00:  AIR GAP
 EPD .m                   0.00:  ELEVATION
 APD .m                  43.00:  DEPTH ABOVE PD
 LATI.deg                40.13:  LATITUDE
 LONG.deg                51.22:  LONGITUDE
 UTMY.m             4443793.85:  UTM Y
 UTMX.m              519005.06:  UTM X
 WHEW.m                 -11.57:  WELL HEAD E/W
 WHNS.m                   8.57:  WELL HEAD N/S
 VSEW.m                 -11.57:  VERT SEC E/W
 VSNS.m                   8.57:  VERT SEC N/S
 DFWL.m                   0.00:  DISTANCE FWL
 DFSL.m                   0.00:  DISTANCE FSL
 VSDR.deg               299.34:  VERT SEC DIRECT
 GVFD.g                   1.00:  GRAVITY FIELD
 AZTC.deg                 6.36:  AZM TOTAL CORR
 MFLD.nT              50391.00:  MAGNETIC FIELD
 MDIP.deg                59.65:  MAGNETIC DIP
 MDEC.deg                 6.48:  MAGNETIC DECL
 GRDC.deg                 0.12:  GRID CORRECTION
 DEP .m                 334.96:  DEPTH
 TDD .m                1407.26:  TOTAL DEPTH (DRILLER)
 EKB .m                  43.00:  KB ELEVATION
 EDF .m                  43.00:  DF ELEVATION
 TDL .m                 228.00:  TOTAL DEPTH (LOGGER)
 VSC .                       0:  VS TO CLOSURE
 MAGU.                 1854484:  MAGUTM CHECKSUM
~Parameter Information Block
#MNEM.UNIT       Value        Description
#---------     -----------    ---------------------------
 AV  .mps                 4.00:  Ann Velocity 
 AVMX.mps                 4.73:  Max Ann Veloc 
 AZIF.deg               304.48:  Azm, Final 
 BHAT.        Rotary Steerable:  BHA Type 
 BREV.rev            257300.00:  Rev Bit Total 
 BROT.°/30m               0.00:  Build Rotating 
 BS  .in                  8.50:  Bit Size 
 BSZ .in                  8.50:  Bit Size 
 BTPL.psig              589.00:  Bit Press Loss 
 CABU.                      No:  Customer Abuse 
 CGEO.          Mubariz ghayev:  Customer Geo 
 COMM.                     d:  Run Comments 1 
 TCS .hr                 64.25:  Time Ciculation Ended 
 CV  .mps                 3.50:  Crit Velocity 
 CVMX.mps                 4.52:  Max Crit Veloc 
 DD1 .             Aziz Aliyev:  Direct Drillr 1 
 DD2 .         Intigam Rahimov:  Direct Drillr 2 
 DD3 .          Rashad Habibov:  Direct Drillr 3 
 DDSV.               Geo-Pilot:  DD Service 
 DEFF.%                  98.00:  % Det Eff 
 DLRX.°/30m               0.00:  Dogleg Rot Max 
 DLSO.°/30m               0.00:  Dogleg Oriented 
 DLSX.°/30m               0.00:  Dogleg Str Max 
 DRET.      10.45.04 08-May-21:  Drill End Time 
 DRST.      03.30.04 04-May-21:  Drill Start Tim 
 DTIM.hr                 14.97:  Time Drilling 
 EDEP.m                4640.01:  End Depth 
 ENG1.         Dail Mahammadov:  Engineer 1 
 ENG2.           Eldar Hajiyev:  Engineer 2 
 ENG3.       Bakhtiar Jabbarli:  Engineer 3 
 ENG4.       Natik Hasanagayev:  Engineer 4 
 ETIM.      09.30.04 14-May-21:  End Time 
 FLOI.gpm               460.00:  Flow In 
 FLON.gpm               200.00:  Flow In Min 
 FLOS.cptm                0.00:  Fluid Loss 
 FLOX.gpm               505.00:  Flow In Max 
 HFLO.                      No:  High Flow 
 HPRE.                      No:  High Pressure 
 HTEM.                      No:  High Temp 
 HYDO.m                   1.80:  Hydro Offset 
 IFIN.deg                66.71:  Inc, Final 
 IMAX.deg                67.03:  Inc Max 
 IMIN.deg                66.63:  Inc Min 
 IMND.m                4550.58:  Inc Min Depth 
 IMXD.m                4439.01:  Inc Max Depth 
 JARR.                      No:  Jarring 
 LETM.      10.45.04 08-May-21:  Log End Time 
 LOST.hr                     0:  Lost Rig Time 
 LSTM.      03.30.04 04-May-21:  Log Start Time 
 MDCL.ppm             37000.00:  Mud Chlorides 
 MDES.     Inversion Oil/Synthetic:  Mud Desc 
 DFD .sg                  1.38:  Mud Density 
 MDMN.sg                  1.35:  Dens Mud Min 
 MDMX.sg                  1.40:  Dens Mud Max 
 MOIL.                   57.40:  Run Mud Oil % 
 MOWR.                   70:30:  Run Mud OWR 
 MSND.                    0.00:  Run Mud Sand % 
 MSOL.                   18.00:  Run Mud Solids% 
 DFV .spqt               71.00:  Mud Viscosity 
 MWOD.in                  6.75:  MWD Tool OD 
 MWSI.                      No:  Serv Intrp, MWD 
 OTIM.hr                242.76:  Time Operating 
 PCON.           Look Like New:  Pad Condition 
 PMAX.psia            12183.92:  Press Op, Max 
 PV  .cP                 27.00:  Mud PV 
 RUN .                    1300:  Run Number 
 ROPA.m/hr               15.00:  ROP Avg 
 ROPN.m/hr                9.00:  ROP Min 
 ROPX.m/hr               19.00:  ROP Max 
 RPMA.rpm               120.00:  RPM Surface Avg 
 RPMN.rpm               100.00:  RPM Surface Min 
 RPMX.rpm               120.00:  RPM Surface Max 
 RRUN.                    1300:  Rig Run Number 
 RTIM.hr                  5.00:  Time Reaming 
 SAZI.deg               304.73:  Azm, Start 
 SDEP.m                4412.01:  Start Depth 
 SIDD.                      No:  Serv Intrp, DD 
 SINC.deg                66.82:  Inc, Start 
 SPPA.psig             2800.00:  SPP Avg 
 SPPN.psig             2610.00:  SPP Min 
 SPPX.psig             3100.00:  SPP Max 
 STIM.      03.30.00 04-May-21:  Start Time 
 SVCS.                 DD, MWD:  Services 
 SVER.                    9.20:  Sperry Version 
 TDAT.m                 228.00:  Tot Depth Attmp 
 TDDF.                      No:  Trip for DD 
 TDLG.m                 228.00:  Tot Depth Loggd 
 TFF .                      No:  Trip for Fail 
 TQAA.f-kp               15.00:  Torque Abs Avg 
 TQAN.f-kp               12.00:  Torque Abs Min 
 TQAX.f-kp               22.00:  Torque Abs Max 
 TRRT.°/30m               0.00:  Turn Rotating 
 MRT .                    HCIM:  Maximum Recorded Temperature 
 TTMX.degC               90.20:  Max Tool Temp 
 VS01.                90627813:  Virtual Str1 SN 
 VS02.                90634712:  Virtual Str2 SN 
 VS03.                90643410:  Virtual Str3 SN 
 VS04.                90634712:  Virtual Str4 SN 
 WBMN.klb                 9.00:  WOB Min 
 WITN.        Elmaddin Rahimov:  Customer Rep 
 WITN.         Haytham Mostafa:  Customer Rep 2 
 WOBA.klb                15.00:  WOB Avg 
 WOBX.klb                23.00:  WOB Max 
 YP  .lhf2               29.00:  Yield Point 
~Curve Information Block
#MNEM.UNIT                 API CODE     Curve Description
#---------               -----------    ---------------------------
 TIME.HHMMSS            00 000 000 000:  GT Time & Date
 GTDEPTH.m              00 000 000 000:  GT Depth
 GTPQH.psia             00 000 000 000:  GT HR Quartz Pressure
 GTTQ.degC              00 000 000 000:  GT Quartz Temperature
 GTTN.NONE              00 000 000 000:  GT Test Number
 GTET.sec               00 000 000 000:  GT Elapsed Test Time
 GTTVD.m                00 000 000 000:  GT True Vertical Depth
#Other Information
#
#WARRANTY: Halliburton will use its best efforts to furnish customers with 
#accurate information and interpretations that are part of, and incident to, the services 
#provided.  However, Halliburton cannot and does not warrant the accuracy 
#or correctness of such information and interpretations.  Under no circumstances should any 
#such information or interpretation be relied upon as the sole basis for any drilling, 
#completion, production, or financial decision or any procedure involving any risk to the 
#safety of any drilling venture, drilling rig or its crew or any other third party.  The 
#Customer has full responsibility for all drilling, completion and production operation.  
#Halliburton makes no representations or warranties, either expressed or 
#implied, including, but not limited to, the implied warranties of merchantability or fitness 
#for a particular purpose, with respect to the services rendered.  In no event will 
#Halliburton be liable for failure to obtain any particular results or for 
#any damages, including, but not limited to, indirect, special or consequential damages, 
#resulting from the use of any information or interpretation provided by Halliburton.
#
~A           TIME           GTDEPTH  GTPQH  GTTQ  GTTN   GTET   GTTVD  
# ...
   23:10:48.778.09-May-2021 4503.01 1821.12 60.42 17.00 225.94 2973.29
   23:10:48.978.09-May-2021 4503.01 1821.12 60.42 17.00 226.14 2973.29
   23:10:49.178.09-May-2021 4503.01 1826.35 60.42 17.00 226.34 2973.29
   23:10:49.378.09-May-2021 4503.01 1828.37 60.42 17.00 226.54 2973.29
   23:10:49.577.09-May-2021 4503.01 1831.44 60.42 17.00 226.74 2973.29
   23:10:49.777.09-May-2021 4503.01 1833.95 60.42 17.00 226.94 2973.29
   23:10:49.977.09-May-2021 4503.01 1833.95 60.42 17.00 227.14 2973.29
   23:10:50.177.09-May-2021 4503.01 1838.97 60.42 17.00 227.34 2973.29
   23:10:50.377.09-May-2021 4503.01 1842.11 60.42 17.00 227.54 2973.29
   23:10:50.577.09-May-2021 4503.01 1844.72 60.42 17.00 227.74 2973.29
   23:10:50.777.09-May-2021 4503.01 1847.25 60.42 17.00 227.94 2973.29
   23:10:50.977.09-May-2021 4503.01 1847.25 60.42 17.00 228.14 2973.29
   23:10:51.177.09-May-2021 4503.01 1852.56 60.42 17.00 228.34 2973.29
   23:10:51.377.09-May-2021 4503.01 1855.22 60.42 17.00 228.54 2973.29
   23:10:51.577.09-May-2021 4503.01 1857.78 60.42 17.00 228.74 2973.29
   23:10:51.777.09-May-2021 4503.01 1860.33 60.42 17.00 228.94 2973.29
   23:10:51.977.09-May-2021 4503.01 1860.33 60.42 17.00 229.14 2973.29
   23:10:52.177.09-May-2021 4503.01 1865.36 60.42 17.00 229.34 2973.29
   23:10:52.377.09-May-2021 4503.01 1867.82 60.42 17.00 229.54 2973.29
   23:10:52.577.09-May-2021 4503.01 1870.19 60.42 17.00 229.74 2973.29
   23:10:52.777.09-May-2021 4503.01 1872.19 60.42 17.00 229.94 2973.29
   23:10:52.977.09-May-2021 4503.01 1872.19 60.42 17.00 230.14 2973.29
   23:10:53.177.09-May-2021 4503.01 1877.72 60.42 17.00 230.34 2973.29
   23:10:53.376.09-May-2021 4503.01 1880.03 60.42 17.00 230.54 2973.29
   23:10:53.576.09-May-2021 4503.01 1882.59 60.42 17.00 230.74 2973.29
   23:10:53.776.09-May-2021 4503.01 1885.06 60.42 17.00 230.94 2973.29
   23:10:53.976.09-May-2021 4503.01 1885.06 60.42 17.00 231.14 2973.29
   23:10:54.176.09-May-2021 4503.01 1889.98 60.42 17.00 231.34 2973.29
   23:10:54.376.09-May-2021 4503.01 1892.40 60.42 17.00 231.54 2973.29
   23:10:54.576.09-May-2021 4503.01 1894.81 60.42 17.00 231.74 2973.29
   23:10:54.776.09-May-2021 4503.01 1897.22 60.42 17.00 231.94 2973.29
   23:10:54.976.09-May-2021 4503.01 1897.22 60.42 17.00 232.14 2973.29
   23:10:55.176.09-May-2021 4503.01 1901.97 60.42 17.00 232.34 2973.29
   23:10:55.376.09-May-2021 4503.01 1903.94 60.42 17.00 232.54 2973.29
   23:10:55.576.09-May-2021 4503.01 1907.07 60.42 17.00 232.74 2973.29
   23:10:55.776.09-May-2021 4503.01 1909.42 60.42 17.00 232.94 2973.29
   23:10:55.976.09-May-2021 4503.01 1909.42 60.42 17.00 233.14 2973.29
   23:10:56.176.09-May-2021 4503.01 1913.89 60.42 17.00 233.34 2973.29
   23:10:56.376.09-May-2021 4503.01 1915.90 60.42 17.00 233.54 2973.29
   23:10:56.576.09-May-2021 4503.01 1918.82 60.42 17.00 233.74 2973.29
   23:10:56.776.09-May-2021 4503.01 1921.13 60.42 17.00 233.94 2973.29
   23:10:56.976.09-May-2021 4503.01 1921.13 60.42 17.00 234.14 2973.29
   23:10:57.176.09-May-2021 4503.01 1926.06 60.42 17.00 234.34 2973.29
   23:10:57.375.09-May-2021 4503.01 1928.50 60.42 17.00 234.54 2973.29
   23:10:57.575.09-May-2021 4503.01 1930.49 60.42 17.00 234.74 2973.29
   23:10:57.775.09-May-2021 4503.01 1933.37 60.42 17.00 234.94 2973.29
   23:10:57.975.09-May-2021 4503.01 1933.37 60.42 17.00 235.14 2973.29
   23:10:58.175.09-May-2021 4503.01 1938.03 60.42 17.00 235.34 2973.29
   23:10:58.375.09-May-2021 4503.01 1940.56 60.42 17.00 235.54 2973.29
   23:10:58.575.09-May-2021 4503.01 1943.13 60.42 17.00 235.74 2973.29
   23:10:58.775.09-May-2021 4503.01 1945.65 60.42 17.00 235.94 2973.29
   23:10:58.975.09-May-2021 4503.01 1945.65 60.42 17.00 236.14 2973.29
   23:10:59.175.09-May-2021 4503.01 1950.29 60.42 17.00 236.34 2973.29
   23:10:59.375.09-May-2021 4503.01 1952.56 60.42 17.00 236.54 2973.29
   23:10:59.575.09-May-2021 4503.01 1954.86 60.42 17.00 236.74 2973.29
   23:10:59.775.09-May-2021 4503.01 1957.24 60.42 17.00 236.94 2973.29
   23:10:59.975.09-May-2021 4503.01 1957.24 60.42 17.00 237.14 2973.29
   23:11:00.175.09-May-2021 4503.01 1962.04 60.42 17.00 237.34 2973.29
   23:11:00.375.09-May-2021 4503.01 1964.46 60.42 17.00 237.54 2973.29
   23:11:00.575.09-May-2021 4503.01 1966.91 60.42 17.00 237.74 2973.29
   23:11:00.775.09-May-2021 4503.01 1968.91 60.42 17.00 237.94 2973.29
   23:11:00.975.09-May-2021 4503.01 1968.91 60.42 17.00 238.14 2973.29
   23:11:01.174.09-May-2021 4503.01 1974.03 60.42 17.00 238.34 2973.29
   23:11:01.374.09-May-2021 4503.01 1976.78 60.42 17.00 238.54 2973.29
   23:11:01.574.09-May-2021 4503.01 1979.02 60.42 17.00 238.74 2973.29
   23:11:01.774.09-May-2021 4503.01 1981.49 60.42 17.00 238.94 2973.29
   23:11:01.974.09-May-2021 4503.01 1981.49 60.42 17.00 239.14 2973.29
   23:11:02.174.09-May-2021 4503.01 1986.20 60.42 17.00 239.34 2973.29
   23:11:02.374.09-May-2021 4503.01 1988.49 60.42 17.00 239.54 2973.29
   23:11:02.574.09-May-2021 4503.01 1990.77 60.42 17.00 239.74 2973.29
   23:11:02.774.09-May-2021 4503.01 1992.93 60.42 17.00 239.94 2973.29
   23:11:02.974.09-May-2021 4503.01 1992.93 60.42 17.00 240.14 2973.29
   23:11:03.174.09-May-2021 4503.01 1997.36 60.42 17.00 240.34 2973.29
   23:11:03.374.09-May-2021 4503.01 1999.29 60.42 17.00 240.54 2973.29
   23:11:03.574.09-May-2021 4503.01 2001.74 60.42 17.00 240.74 2973.29
   23:11:03.774.09-May-2021 4503.01 2004.19 60.42 17.00 240.94 2973.29
   23:11:03.974.09-May-2021 4503.01 2004.19 60.42 17.00 241.14 2973.29
   23:11:04.174.09-May-2021 4503.01 2008.53 60.42 17.00 241.34 2973.29
   23:11:04.374.09-May-2021 4503.01 2011.50 60.42 17.00 241.54 2973.29
   23:11:04.574.09-May-2021 4503.01 2013.83 60.42 17.00 241.74 2973.29
   23:11:04.774.09-May-2021 4503.01 2016.08 60.42 17.00 241.94 2973.29
   23:11:04.973.09-May-2021 4503.01 2016.08 60.42 17.00 242.14 2973.29
   23:11:05.173.09-May-2021 4503.01 2020.84 60.42 17.00 242.34 2973.29
   23:11:05.373.09-May-2021 4503.01 2022.85 60.42 17.00 242.54 2973.29
   23:11:05.573.09-May-2021 4503.01 2025.74 60.42 17.00 242.74 2973.29
   23:11:05.773.09-May-2021 4503.01 2027.96 60.42 17.00 242.94 2973.29
   23:11:05.973.09-May-2021 4503.01 2027.96 60.42 17.00 243.14 2973.29
   23:11:06.173.09-May-2021 4503.01 2031.91 60.42 17.00 243.34 2973.29
   23:11:06.373.09-May-2021 4503.01 2035.13 60.42 17.00 243.54 2973.29
   23:11:06.573.09-May-2021 4503.01 2037.13 60.42 17.00 243.74 2973.29
   23:11:06.773.09-May-2021 4503.01 2039.62 60.42 17.00 243.94 2973.29
   23:11:06.973.09-May-2021 4503.01 2039.62 60.42 17.00 244.14 2973.29
   23:11:07.173.09-May-2021 4503.01 2044.24 60.42 17.00 244.34 2973.29
   23:11:07.373.09-May-2021 4503.01 2046.55 60.42 17.00 244.54 2973.29
   23:11:07.573.09-May-2021 4503.01 2048.87 60.42 17.00 244.74 2973.29
   23:11:07.773.09-May-2021 4503.01 2051.14 60.42 17.00 244.94 2973.29
   23:11:07.973.09-May-2021 4503.01 2051.14 60.42 17.00 245.14 2973.29
   23:11:08.173.09-May-2021 4503.01 2055.66 60.42 17.00 245.34 2973.29
   23:11:08.373.09-May-2021 4503.01 2057.92 60.42 17.00 245.54 2973.29
   23:11:08.573.09-May-2021 4503.01 2060.15 60.42 17.00 245.74 2973.29
   23:11:08.772.09-May-2021 4503.01 2062.03 60.42 17.00 245.94 2973.29
   23:11:08.972.09-May-2021 4503.01 2062.03 60.42 17.00 246.14 2973.29
   23:11:09.172.09-May-2021 4503.01 2066.95 60.42 17.00 246.34 2973.29
   23:11:09.372.09-May-2021 4503.01 2069.10 60.42 17.00 246.54 2973.29
   23:11:09.572.09-May-2021 4503.01 2071.39 60.42 17.00 246.74 2973.29
   23:11:09.772.09-May-2021 4503.01 2073.39 60.42 17.00 246.94 2973.29
   23:11:09.972.09-May-2021 4503.01 2073.39 60.42 17.00 247.14 2973.29
   23:11:10.172.09-May-2021 4503.01 2077.69 60.42 17.00 247.34 2973.29
   23:11:10.372.09-May-2021 4503.01 2079.87 60.42 17.00 247.54 2973.29
   23:11:10.572.09-May-2021 4503.01 2082.03 60.42 17.00 247.74 2973.29
   23:11:10.772.09-May-2021 4503.01 2084.21 60.42 17.00 247.94 2973.29
   23:11:10.972.09-May-2021 4503.01 2084.21 60.42 17.00 248.14 2973.29
   23:11:11.172.09-May-2021 4503.01 2088.54 60.42 17.00 248.34 2973.29
