~Version Information
 VERS.                  2.0:   CWLS log ASCII Standard -VERSION 2.0
 WRAP.                   NO:   One line per depth step
~Well Information Block
#MNEM.UNIT     VALUE/NAME     DESCRIPTION
#---------     -----------    ---------------------------
 STRT.S             02:17:40 10-May-21: START TIME 02:17:40 10-May-21
 STOP.S             02:25:48 10-May-21: STOP TIME  02:25:48 10-May-21
 STEP.S                   0.00: STEP TIME
 NULL.                 -999.25: NULL VALUE
 PROV.                    Baku:  PROVINCE
 STAT.                    Baku:  STATE NAME
 SON .        AZ-XX-0906571588:  JOB NUMBER
 WTYP.                Deviated:  WELL TYPE
 COMP.     BP Exploration (Caspian Sea) ltd:  COMPANY
 BASE.              Azerbaijan:  LOGGING EQUIPMENT BASE LOCATION
 REGN.                   EESSA:  REGION
 CTRY.              Azerbaijan:  COUNTRY NAME
 FLD .                     ACG:  FIELD NAME
 WELL.                     J28:  WELL NAME
 RIG .             West Chirag:  RIG NAME
 DMF .             Drill Floor:  DRILL MEAS FROM
 PDAT.       Caspian Sea Level:  PERMANENT DATUM
 HPTY.       Minimum Curvature:  HOLE POS TYPE
 MDS .        Operator Entered:  MAG DATA SOURCE
 NREF.                    Grid:  NORTH REFERENCE
 SRVC.          TURAN DRILLING:  CONTRACTOR
 JOBN.        AZ-XX-0906571588:  JOB TICKET NUMB
 DCON.     Halliburton Sperry Drilling:  DIRECTNL CONTR
 STIM.      00.44.00 11-Feb-21:  START TIME
 DATE.      00.00.00 05-May-21:  END TIME
 SPUD.               13-Feb-21:  SPUD DATE
 MWDS.                    Baku:  MWD SHOP
 DOE .                     N/A:  DOE NUMBER
 UNIT.                     N/A:  LOGGING EQUIPMENT ID
 UWI .                     N/A:  UNIQUE WELL IDENTIFIER
 API .                     N/A:  API NUMBER
 CNTY.                        :  COUNTY
 LOC .                        :  LOCATION
 LMF .             Drill Floor:  LOG MEASURED FROM
 TVDS.m                  43.00:  TVDSS CORRECTN
 SDEP.m                 341.00:  START DEPTH
 EGL .m                   0.00:  GROUND ELEVATION
 WDMS.m                 169.80:  WD ELEV
 AGAP.m                  43.00:  AIR GAP
 EPD .m                   0.00:  ELEVATION
 APD .m                  43.00:  DEPTH ABOVE PD
 LATI.deg                40.13:  LATITUDE
 LONG.deg                51.22:  LONGITUDE
 UTMY.m             4443793.85:  UTM Y
 UTMX.m              519005.06:  UTM X
 WHEW.m                 -11.57:  WELL HEAD E/W
 WHNS.m                   8.57:  WELL HEAD N/S
 VSEW.m                 -11.57:  VERT SEC E/W
 VSNS.m                   8.57:  VERT SEC N/S
 DFWL.m                   0.00:  DISTANCE FWL
 DFSL.m                   0.00:  DISTANCE FSL
 VSDR.deg               299.34:  VERT SEC DIRECT
 GVFD.g                   1.00:  GRAVITY FIELD
 AZTC.deg                 6.36:  AZM TOTAL CORR
 MFLD.nT              50391.00:  MAGNETIC FIELD
 MDIP.deg                59.65:  MAGNETIC DIP
 MDEC.deg                 6.48:  MAGNETIC DECL
 GRDC.deg                 0.12:  GRID CORRECTION
 DEP .m                 334.96:  DEPTH
 TDD .m                1407.26:  TOTAL DEPTH (DRILLER)
 EKB .m                  43.00:  KB ELEVATION
 EDF .m                  43.00:  DF ELEVATION
 TDL .m                 228.00:  TOTAL DEPTH (LOGGER)
 VSC .                       0:  VS TO CLOSURE
 MAGU.                 1854484:  MAGUTM CHECKSUM
~Parameter Information Block
#MNEM.UNIT       Value        Description
#---------     -----------    ---------------------------
 AV  .mps                 4.00:  Ann Velocity 
 AVMX.mps                 4.73:  Max Ann Veloc 
 AZIF.deg               304.48:  Azm, Final 
 BHAT.        Rotary Steerable:  BHA Type 
 BREV.rev            257300.00:  Rev Bit Total 
 BROT.°/30m               0.00:  Build Rotating 
 BS  .in                  8.50:  Bit Size 
 BSZ .in                  8.50:  Bit Size 
 BTPL.psig              589.00:  Bit Press Loss 
 CABU.                      No:  Customer Abuse 
 CGEO.          Mubariz ghayev:  Customer Geo 
 COMM.                     …:  Run Comments 1 
 TCS .hr                 64.25:  Time Ciculation Ended 
 CV  .mps                 3.50:  Crit Velocity 
 CVMX.mps                 4.52:  Max Crit Veloc 
 DD1 .             Aziz Aliyev:  Direct Drillr 1 
 DD2 .         Intigam Rahimov:  Direct Drillr 2 
 DD3 .          Rashad Habibov:  Direct Drillr 3 
 DDSV.               Geo-Pilot:  DD Service 
 DEFF.%                  98.00:  % Det Eff 
 DLRX.°/30m               0.00:  Dogleg Rot Max 
 DLSO.°/30m               0.00:  Dogleg Oriented 
 DLSX.°/30m               0.00:  Dogleg Str Max 
 DRET.      10.45.04 08-May-21:  Drill End Time 
 DRST.      03.30.04 04-May-21:  Drill Start Tim 
 DTIM.hr                 14.97:  Time Drilling 
 EDEP.m                4640.01:  End Depth 
 ENG1.         Dail Mahammadov:  Engineer 1 
 ENG2.           Eldar Hajiyev:  Engineer 2 
 ENG3.       Bakhtiar Jabbarli:  Engineer 3 
 ENG4.       Natik Hasanagayev:  Engineer 4 
 ETIM.      09.30.04 14-May-21:  End Time 
 FLOI.gpm               460.00:  Flow In 
 FLON.gpm               200.00:  Flow In Min 
 FLOS.cptm                0.00:  Fluid Loss 
 FLOX.gpm               505.00:  Flow In Max 
 HFLO.                      No:  High Flow 
 HPRE.                      No:  High Pressure 
 HTEM.                      No:  High Temp 
 HYDO.m                   1.80:  Hydro Offset 
 IFIN.deg                66.71:  Inc, Final 
 IMAX.deg                67.03:  Inc Max 
 IMIN.deg                66.63:  Inc Min 
 IMND.m                4550.58:  Inc Min Depth 
 IMXD.m                4439.01:  Inc Max Depth 
 JARR.                      No:  Jarring 
 LETM.      10.45.04 08-May-21:  Log End Time 
 LOST.hr                     0:  Lost Rig Time 
 LSTM.      03.30.04 04-May-21:  Log Start Time 
 MDCL.ppm             37000.00:  Mud Chlorides 
 MDES.     Inversion Oil/Synthetic:  Mud Desc 
 DFD .sg                  1.38:  Mud Density 
 MDMN.sg                  1.35:  Dens Mud Min 
 MDMX.sg                  1.40:  Dens Mud Max 
 MOIL.                   57.40:  Run Mud Oil % 
 MOWR.                   70:30:  Run Mud OWR 
 MSND.                    0.00:  Run Mud Sand % 
 MSOL.                   18.00:  Run Mud Solids% 
 DFV .spqt               71.00:  Mud Viscosity 
 MWOD.in                  6.75:  MWD Tool OD 
 MWSI.                      No:  Serv Intrp, MWD 
 OTIM.hr                242.76:  Time Operating 
 PCON.           Look Like New:  Pad Condition 
 PMAX.psia            12183.92:  Press Op, Max 
 PV  .cP                 27.00:  Mud PV 
 RUN .                    1300:  Run Number 
 ROPA.m/hr               15.00:  ROP Avg 
 ROPN.m/hr                9.00:  ROP Min 
 ROPX.m/hr               19.00:  ROP Max 
 RPMA.rpm               120.00:  RPM Surface Avg 
 RPMN.rpm               100.00:  RPM Surface Min 
 RPMX.rpm               120.00:  RPM Surface Max 
 RRUN.                    1300:  Rig Run Number 
 RTIM.hr                  5.00:  Time Reaming 
 SAZI.deg               304.73:  Azm, Start 
 SDEP.m                4412.01:  Start Depth 
 SIDD.                      No:  Serv Intrp, DD 
 SINC.deg                66.82:  Inc, Start 
 SPPA.psig             2800.00:  SPP Avg 
 SPPN.psig             2610.00:  SPP Min 
 SPPX.psig             3100.00:  SPP Max 
 STIM.      03.30.00 04-May-21:  Start Time 
 SVCS.                 DD, MWD:  Services 
 SVER.                    9.20:  Sperry Version 
 TDAT.m                 228.00:  Tot Depth Attmp 
 TDDF.                      No:  Trip for DD 
 TDLG.m                 228.00:  Tot Depth Loggd 
 TFF .                      No:  Trip for Fail 
 TQAA.f-kp               15.00:  Torque Abs Avg 
 TQAN.f-kp               12.00:  Torque Abs Min 
 TQAX.f-kp               22.00:  Torque Abs Max 
 TRRT.°/30m               0.00:  Turn Rotating 
 MRT .                    HCIM:  Maximum Recorded Temperature 
 TTMX.degC               90.20:  Max Tool Temp 
 VS01.                90627813:  Virtual Str1 SN 
 VS02.                90634712:  Virtual Str2 SN 
 VS03.                90643410:  Virtual Str3 SN 
 VS04.                90634712:  Virtual Str4 SN 
 WBMN.klb                 9.00:  WOB Min 
 WITN.        Elmaddin Rahimov:  Customer Rep 
 WITN.         Haytham Mostafa:  Customer Rep 2 
 WOBA.klb                15.00:  WOB Avg 
 WOBX.klb                23.00:  WOB Max 
 YP  .lhf2               29.00:  Yield Point 
~Curve Information Block
#MNEM.UNIT                 API CODE     Curve Description
#---------               -----------    ---------------------------
 TIME.HHMMSS            00 000 000 000:  GT Time & Date
 GTDEPTH.m              00 000 000 000:  GT Depth
 GTPQH.psia             00 000 000 000:  GT HR Quartz Pressure
 GTTQ.degC              00 000 000 000:  GT Quartz Temperature
 GTTN.NONE              00 000 000 000:  GT Test Number
 GTET.sec               00 000 000 000:  GT Elapsed Test Time
 GTTVD.m                00 000 000 000:  GT True Vertical Depth
#Other Information
#
#WARRANTY: Halliburton will use its best efforts to furnish customers with 
#accurate information and interpretations that are part of, and incident to, the services 
#provided.  However, Halliburton cannot and does not warrant the accuracy 
#or correctness of such information and interpretations.  Under no circumstances should any 
#such information or interpretation be relied upon as the sole basis for any drilling, 
#completion, production, or financial decision or any procedure involving any risk to the 
#safety of any drilling venture, drilling rig or its crew or any other third party.  The 
#Customer has full responsibility for all drilling, completion and production operation.  
#Halliburton makes no representations or warranties, either expressed or 
#implied, including, but not limited to, the implied warranties of merchantability or fitness 
#for a particular purpose, with respect to the services rendered.  In no event will 
#Halliburton be liable for failure to obtain any particular results or for 
#any damages, including, but not limited to, indirect, special or consequential damages, 
#resulting from the use of any information or interpretation provided by Halliburton.
#
~A           TIME           GTDEPTH  GTPQH  GTTQ  GTTN   GTET   GTTVD  
# ...
   02:21:49.276.10-May-2021 4568.01  515.60 60.31 20.00 248.64 2998.98
   02:21:49.476.10-May-2021 4568.01  515.17 60.31 20.00 248.84 2998.98
   02:21:49.677.10-May-2021 4568.01  516.00 60.31 20.00 249.04 2998.98
   02:21:49.877.10-May-2021 4568.01  516.00 60.31 20.00 249.24 2998.98
   02:21:50.077.10-May-2021 4568.01  515.46 60.31 20.00 249.44 2998.98
   02:21:50.277.10-May-2021 4568.01  516.18 60.31 20.00 249.64 2998.98
   02:21:50.477.10-May-2021 4568.01  515.74 60.31 20.00 249.84 2998.98
   02:21:50.677.10-May-2021 4568.01  515.64 60.31 20.00 250.04 2998.98
   02:21:50.877.10-May-2021 4568.01  515.64 60.31 20.00 250.24 2998.98
   02:21:51.077.10-May-2021 4568.01  515.88 60.31 20.00 250.44 2998.98
   02:21:51.277.10-May-2021 4568.01  516.04 60.31 20.00 250.64 2998.98
   02:21:51.477.10-May-2021 4568.01  515.99 60.31 20.00 250.84 2998.98
   02:21:51.677.10-May-2021 4568.01  515.65 60.31 20.00 251.04 2998.98
   02:21:51.877.10-May-2021 4568.01  515.65 60.31 20.00 251.24 2998.98
   02:21:52.077.10-May-2021 4568.01  515.96 60.31 20.00 251.44 2998.98
   02:21:52.277.10-May-2021 4568.01  516.16 60.31 20.00 251.64 2998.98
   02:21:52.477.10-May-2021 4568.01  516.08 60.31 20.00 251.84 2998.98
   02:21:52.677.10-May-2021 4568.01  516.07 60.31 20.00 252.04 2998.98
   02:21:52.877.10-May-2021 4568.01  516.07 60.31 20.00 252.24 2998.98
   02:21:53.077.10-May-2021 4568.01  516.05 60.31 20.00 252.44 2998.98
   02:21:53.277.10-May-2021 4568.01  516.09 60.31 20.00 252.64 2998.98
   02:21:53.477.10-May-2021 4568.01  516.14 60.31 20.00 252.85 2998.98
   02:21:53.677.10-May-2021 4568.01  516.16 60.31 20.00 253.05 2998.98
   02:21:53.877.10-May-2021 4568.01  516.16 60.31 20.00 253.25 2998.98
   02:21:54.077.10-May-2021 4568.01  516.21 60.31 20.00 253.45 2998.98
   02:21:54.277.10-May-2021 4568.01  515.78 60.31 20.00 253.65 2998.98
   02:21:54.477.10-May-2021 4568.01  516.60 60.31 20.00 253.85 2998.98
   02:21:54.677.10-May-2021 4568.01  516.24 60.31 20.00 254.05 2998.98
   02:21:54.877.10-May-2021 4568.01  516.24 60.31 20.00 254.25 2998.98
   02:21:55.077.10-May-2021 4568.01  516.40 60.31 20.00 254.45 2998.98
   02:21:55.278.10-May-2021 4568.01  516.37 60.31 20.00 254.65 2998.98
   02:21:55.478.10-May-2021 4568.01  516.35 60.31 20.00 254.85 2998.98
   02:21:55.678.10-May-2021 4568.01  516.40 60.31 20.00 255.05 2998.98
   02:21:55.878.10-May-2021 4568.01  516.40 60.31 20.00 255.25 2998.98
   02:21:56.078.10-May-2021 4568.01  516.48 60.31 20.00 255.45 2998.98
   02:21:56.278.10-May-2021 4568.01  516.50 60.31 20.00 255.65 2998.98
   02:21:56.478.10-May-2021 4568.01  516.53 60.31 20.00 255.85 2998.98
   02:21:56.678.10-May-2021 4568.01  516.53 60.31 20.00 256.05 2998.98
   02:21:56.878.10-May-2021 4568.01  516.53 60.31 20.00 256.25 2998.98
   02:21:57.078.10-May-2021 4568.01  516.87 60.31 20.00 256.45 2998.98
   02:21:57.278.10-May-2021 4568.01  516.69 60.31 20.00 256.65 2998.98
   02:21:57.478.10-May-2021 4568.01  516.37 60.31 20.00 256.85 2998.98
   02:21:57.678.10-May-2021 4568.01  517.06 60.31 20.00 257.05 2998.98
   02:21:57.878.10-May-2021 4568.01  517.06 60.31 20.00 257.25 2998.98
   02:21:58.078.10-May-2021 4568.01  516.37 60.31 20.00 257.45 2998.98
   02:21:58.278.10-May-2021 4568.01  517.19 60.31 20.00 257.65 2998.98
   02:21:58.478.10-May-2021 4568.01  516.72 60.31 20.00 257.85 2998.98
   02:21:58.678.10-May-2021 4568.01  516.98 60.31 20.00 258.05 2998.98
   02:21:58.878.10-May-2021 4568.01  516.98 60.31 20.00 258.25 2998.98
   02:21:59.078.10-May-2021 4568.01  516.84 60.31 20.00 258.45 2998.98
   02:21:59.278.10-May-2021 4568.01  516.50 60.31 20.00 258.65 2998.98
   02:21:59.478.10-May-2021 4568.01  517.13 60.31 20.00 258.85 2998.98
   02:21:59.678.10-May-2021 4568.01  516.94 60.31 20.00 259.05 2998.98
   02:21:59.878.10-May-2021 4568.01  516.94 60.31 20.00 259.25 2998.98
   02:22:00.078.10-May-2021 4568.01  516.98 60.31 20.00 259.45 2998.98
   02:22:00.278.10-May-2021 4568.01  516.93 60.31 20.00 259.65 2998.98
   02:22:00.478.10-May-2021 4568.01  516.98 60.31 20.00 259.85 2998.98
   02:22:00.678.10-May-2021 4568.01  517.00 60.31 20.00 260.05 2998.98
   02:22:00.879.10-May-2021 4568.01  517.00 60.31 20.00 260.25 2998.98
   02:22:01.079.10-May-2021 4568.01  517.07 60.31 20.00 260.45 2998.98
   02:22:01.279.10-May-2021 4568.01  517.08 60.31 20.00 260.65 2998.98
   02:22:01.479.10-May-2021 4568.01  517.11 60.31 20.00 260.85 2998.98
   02:22:01.679.10-May-2021 4568.01  517.11 60.31 20.00 261.05 2998.98
   02:22:01.879.10-May-2021 4568.01  517.11 60.31 20.00 261.25 2998.98
   02:22:02.079.10-May-2021 4568.01  517.48 60.31 20.00 261.45 2998.98
   02:22:02.279.10-May-2021 4568.01  517.32 60.31 20.00 261.65 2998.98
   02:22:02.479.10-May-2021 4568.01  517.27 60.31 20.00 261.85 2998.98
   02:22:02.679.10-May-2021 4568.01  517.29 60.31 20.00 262.05 2998.98
   02:22:02.879.10-May-2021 4568.01  517.29 60.31 20.00 262.25 2998.98
   02:22:03.079.10-May-2021 4568.01  517.30 60.31 20.00 262.45 2998.98
   02:22:03.279.10-May-2021 4568.01  517.33 60.31 20.00 262.65 2998.98
   02:22:03.479.10-May-2021 4568.01  517.36 60.31 20.00 262.85 2998.98
   02:22:03.679.10-May-2021 4568.01  517.39 60.31 20.00 263.05 2998.98
   02:22:03.879.10-May-2021 4568.01  517.39 60.31 20.00 263.25 2998.98
   02:22:04.079.10-May-2021 4568.01  517.42 60.31 20.00 263.45 2998.98
   02:22:04.279.10-May-2021 4568.01  517.13 60.31 20.00 263.65 2998.98
   02:22:04.479.10-May-2021 4568.01  517.61 60.31 20.00 263.85 2998.98
   02:22:04.679.10-May-2021 4568.01  517.54 60.31 20.00 264.05 2998.98
   02:22:04.879.10-May-2021 4568.01  517.54 60.31 20.00 264.25 2998.98
   02:22:05.079.10-May-2021 4568.01  517.74 60.31 20.00 264.45 2998.98
   02:22:05.279.10-May-2021 4568.01  517.59 60.31 20.00 264.65 2998.98
   02:22:05.479.10-May-2021 4568.01  517.76 60.31 20.00 264.85 2998.98
   02:22:05.679.10-May-2021 4568.01  517.30 60.31 20.00 265.05 2998.98
   02:22:05.879.10-May-2021 4568.01  517.30 60.31 20.00 265.25 2998.98
   02:22:06.079.10-May-2021 4568.01  517.77 60.31 20.00 265.45 2998.98
   02:22:06.279.10-May-2021 4568.01  517.73 60.31 20.00 265.65 2998.98
   02:22:06.480.10-May-2021 4568.01  517.74 60.31 20.00 265.85 2998.98
   02:22:06.680.10-May-2021 4568.01  517.25 60.31 20.00 266.05 2998.98
   02:22:06.880.10-May-2021 4568.01  517.25 60.31 20.00 266.25 2998.98
   02:22:07.080.10-May-2021 4568.01  517.72 60.31 20.00 266.45 2998.98
   02:22:07.280.10-May-2021 4568.01  517.97 60.31 20.00 266.65 2998.98
   02:22:07.480.10-May-2021 4568.01  517.84 60.31 20.00 266.85 2998.98
   02:22:07.680.10-May-2021 4568.01  517.80 60.31 20.00 267.05 2998.98
   02:22:07.880.10-May-2021 4568.01  517.80 60.31 20.00 267.25 2998.98
   02:22:08.080.10-May-2021 4568.01  517.85 60.31 20.00 267.45 2998.98
   02:22:08.280.10-May-2021 4568.01  517.86 60.31 20.00 267.65 2998.98
   02:22:08.480.10-May-2021 4568.01  517.90 60.31 20.00 267.85 2998.98
   02:22:08.680.10-May-2021 4568.01  517.92 60.31 20.00 268.05 2998.98
   02:22:08.880.10-May-2021 4568.01  517.92 60.31 20.00 268.25 2998.98
   02:22:09.080.10-May-2021 4568.01  517.96 60.31 20.00 268.45 2998.98
   02:22:09.280.10-May-2021 4568.01  517.65 60.31 20.00 268.65 2998.98
   02:22:09.480.10-May-2021 4568.01  518.25 60.31 20.00 268.85 2998.98
   02:22:09.680.10-May-2021 4568.01  518.07 60.31 20.00 269.05 2998.98
   02:22:09.880.10-May-2021 4568.01  518.07 60.31 20.00 269.25 2998.98
   02:22:10.080.10-May-2021 4568.01  518.13 60.31 20.00 269.45 2998.98
   02:22:10.280.10-May-2021 4568.01  518.07 60.31 20.00 269.65 2998.98
   02:22:10.480.10-May-2021 4568.01  518.11 60.31 20.00 269.85 2998.98
   02:22:10.680.10-May-2021 4568.01  518.14 60.31 20.00 270.05 2998.98
   02:22:10.880.10-May-2021 4568.01  518.14 60.31 20.00 270.25 2998.98
   02:22:11.080.10-May-2021 4568.01  518.20 60.31 20.00 270.45 2998.98
   02:22:11.280.10-May-2021 4568.01  518.21 60.31 20.00 270.65 2998.98
   02:22:11.480.10-May-2021 4568.01  518.24 60.31 20.00 270.85 2998.98
   02:22:11.680.10-May-2021 4568.01  518.02 60.31 20.00 271.05 2998.98
