~Version Information
 VERS.                  2.0:   CWLS log ASCII Standard -VERSION 2.0
 WRAP.                   NO:   One line per depth step
~Well Information Block
#MNEM.UNIT     VALUE/NAME     DESCRIPTION
#---------     -----------    ---------------------------
 STRT.S             07:52:13 09-May-21: START TIME 07:52:13 09-May-21
 STOP.S             07:59:09 09-May-21: STOP TIME  07:59:09 09-May-21
 STEP.S                   0.00: STEP TIME
 NULL.                 -999.25: NULL VALUE
 PROV.                    Baku:  PROVINCE
 STAT.                    Baku:  STATE NAME
 SON .        AZ-XX-0906571588:  JOB NUMBER
 WTYP.                Deviated:  WELL TYPE
 COMP.     BP Exploration (Caspian Sea) ltd:  COMPANY
 BASE.              Azerbaijan:  LOGGING EQUIPMENT BASE LOCATION
 REGN.                   EESSA:  REGION
 CTRY.              Azerbaijan:  COUNTRY NAME
 FLD .                     ACG:  FIELD NAME
 WELL.                     J28:  WELL NAME
 RIG .             West Chirag:  RIG NAME
 DMF .             Drill Floor:  DRILL MEAS FROM
 PDAT.       Caspian Sea Level:  PERMANENT DATUM
 HPTY.       Minimum Curvature:  HOLE POS TYPE
 MDS .        Operator Entered:  MAG DATA SOURCE
 NREF.                    Grid:  NORTH REFERENCE
 SRVC.          TURAN DRILLING:  CONTRACTOR
 JOBN.        AZ-XX-0906571588:  JOB TICKET NUMB
 DCON.     Halliburton Sperry Drilling:  DIRECTNL CONTR
 STIM.      00.44.00 11-Feb-21:  START TIME
 DATE.      00.00.00 05-May-21:  END TIME
 SPUD.               13-Feb-21:  SPUD DATE
 MWDS.                    Baku:  MWD SHOP
 DOE .                     N/A:  DOE NUMBER
 UNIT.                     N/A:  LOGGING EQUIPMENT ID
 UWI .                     N/A:  UNIQUE WELL IDENTIFIER
 API .                     N/A:  API NUMBER
 CNTY.                        :  COUNTY
 LOC .                        :  LOCATION
 LMF .             Drill Floor:  LOG MEASURED FROM
 TVDS.m                  43.00:  TVDSS CORRECTN
 SDEP.m                 341.00:  START DEPTH
 EGL .m                   0.00:  GROUND ELEVATION
 WDMS.m                 169.80:  WD ELEV
 AGAP.m                  43.00:  AIR GAP
 EPD .m                   0.00:  ELEVATION
 APD .m                  43.00:  DEPTH ABOVE PD
 LATI.deg                40.13:  LATITUDE
 LONG.deg                51.22:  LONGITUDE
 UTMY.m             4443793.85:  UTM Y
 UTMX.m              519005.06:  UTM X
 WHEW.m                 -11.57:  WELL HEAD E/W
 WHNS.m                   8.57:  WELL HEAD N/S
 VSEW.m                 -11.57:  VERT SEC E/W
 VSNS.m                   8.57:  VERT SEC N/S
 DFWL.m                   0.00:  DISTANCE FWL
 DFSL.m                   0.00:  DISTANCE FSL
 VSDR.deg               299.34:  VERT SEC DIRECT
 GVFD.g                   1.00:  GRAVITY FIELD
 AZTC.deg                 6.36:  AZM TOTAL CORR
 MFLD.nT              50391.00:  MAGNETIC FIELD
 MDIP.deg                59.65:  MAGNETIC DIP
 MDEC.deg                 6.48:  MAGNETIC DECL
 GRDC.deg                 0.12:  GRID CORRECTION
 DEP .m                 334.96:  DEPTH
 TDD .m                1407.26:  TOTAL DEPTH (DRILLER)
 EKB .m                  43.00:  KB ELEVATION
 EDF .m                  43.00:  DF ELEVATION
 TDL .m                 228.00:  TOTAL DEPTH (LOGGER)
 VSC .                       0:  VS TO CLOSURE
 MAGU.                 1854484:  MAGUTM CHECKSUM
~Parameter Information Block
#MNEM.UNIT       Value        Description
#---------     -----------    ---------------------------
 AV  .mps                 4.00:  Ann Velocity 
 AVMX.mps                 4.73:  Max Ann Veloc 
 AZIF.deg               304.48:  Azm, Final 
 BHAT.        Rotary Steerable:  BHA Type 
 BREV.rev            257300.00:  Rev Bit Total 
 BROT.°/30m               0.00:  Build Rotating 
 BS  .in                  8.50:  Bit Size 
 BSZ .in                  8.50:  Bit Size 
 BTPL.psig              589.00:  Bit Press Loss 
 CABU.                      No:  Customer Abuse 
 CGEO.          Mubariz ghayev:  Customer Geo 
 TCS .hr                 64.25:  Time Ciculation Ended 
 CV  .mps                 3.50:  Crit Velocity 
 CVMX.mps                 4.52:  Max Crit Veloc 
 DD1 .             Aziz Aliyev:  Direct Drillr 1 
 DD2 .         Intigam Rahimov:  Direct Drillr 2 
 DD3 .          Rashad Habibov:  Direct Drillr 3 
 DDSV.               Geo-Pilot:  DD Service 
 DEFF.%                  98.00:  % Det Eff 
 DLRX.°/30m               0.00:  Dogleg Rot Max 
 DLSO.°/30m               0.00:  Dogleg Oriented 
 DLSX.°/30m               0.00:  Dogleg Str Max 
 DRET.      10.45.04 08-May-21:  Drill End Time 
 DRST.      03.30.04 04-May-21:  Drill Start Tim 
 DTIM.hr                 14.97:  Time Drilling 
 EDEP.m                4640.01:  End Depth 
 ENG1.         Dail Mahammadov:  Engineer 1 
 ENG2.           Eldar Hajiyev:  Engineer 2 
 ENG3.       Bakhtiar Jabbarli:  Engineer 3 
 ENG4.       Natik Hasanagayev:  Engineer 4 
 ETIM.      09.30.04 14-May-21:  End Time 
 FLOI.gpm               460.00:  Flow In 
 FLON.gpm               200.00:  Flow In Min 
 FLOS.cptm                0.00:  Fluid Loss 
 FLOX.gpm               505.00:  Flow In Max 
 HFLO.                      No:  High Flow 
 HPRE.                      No:  High Pressure 
 HTEM.                      No:  High Temp 
 HYDO.m                   1.80:  Hydro Offset 
 IFIN.deg                66.71:  Inc, Final 
 IMAX.deg                67.03:  Inc Max 
 IMIN.deg                66.63:  Inc Min 
 IMND.m                4550.58:  Inc Min Depth 
 IMXD.m                4439.01:  Inc Max Depth 
 JARR.                      No:  Jarring 
 LETM.      10.45.04 08-May-21:  Log End Time 
 LOST.hr                     0:  Lost Rig Time 
 LSTM.      03.30.04 04-May-21:  Log Start Time 
 MDCL.ppm             37000.00:  Mud Chlorides 
 MDES.     Inversion Oil/Synthetic:  Mud Desc 
 DFD .sg                  1.38:  Mud Density 
 MDMN.sg                  1.35:  Dens Mud Min 
 MDMX.sg                  1.40:  Dens Mud Max 
 MOIL.                   57.40:  Run Mud Oil % 
 MOWR.                   70:30:  Run Mud OWR 
 MSND.                    0.00:  Run Mud Sand % 
 MSOL.                   18.00:  Run Mud Solids% 
 DFV .spqt               71.00:  Mud Viscosity 
 MWOD.in                  6.75:  MWD Tool OD 
 MWSI.                      No:  Serv Intrp, MWD 
 OTIM.hr                242.76:  Time Operating 
 PCON.           Look Like New:  Pad Condition 
 PMAX.psia            12183.92:  Press Op, Max 
 PV  .cP                 27.00:  Mud PV 
 RUN .                    1300:  Run Number 
 ROPA.m/hr               15.00:  ROP Avg 
 ROPN.m/hr                9.00:  ROP Min 
 ROPX.m/hr               19.00:  ROP Max 
 RPMA.rpm               120.00:  RPM Surface Avg 
 RPMN.rpm               100.00:  RPM Surface Min 
 RPMX.rpm               120.00:  RPM Surface Max 
 RRUN.                    1300:  Rig Run Number 
 RTIM.hr                  5.00:  Time Reaming 
 SAZI.deg               304.73:  Azm, Start 
 SDEP.m                4412.01:  Start Depth 
 SIDD.                      No:  Serv Intrp, DD 
 SINC.deg                66.82:  Inc, Start 
 SPPA.psig             2800.00:  SPP Avg 
 SPPN.psig             2610.00:  SPP Min 
 SPPX.psig             3100.00:  SPP Max 
 STIM.      03.30.00 04-May-21:  Start Time 
 SVCS.                 DD, MWD:  Services 
 SVER.                    9.20:  Sperry Version 
 TDAT.m                 228.00:  Tot Depth Attmp 
 TDDF.                      No:  Trip for DD 
 TDLG.m                 228.00:  Tot Depth Loggd 
 TFF .                      No:  Trip for Fail 
 TQAA.f-kp               15.00:  Torque Abs Avg 
 TQAN.f-kp               12.00:  Torque Abs Min 
 TQAX.f-kp               22.00:  Torque Abs Max 
 TRRT.°/30m               0.00:  Turn Rotating 
 MRT .                    HCIM:  Maximum Recorded Temperature 
 TTMX.degC               90.20:  Max Tool Temp 
 VS01.                90627813:  Virtual Str1 SN 
 VS02.                90634712:  Virtual Str2 SN 
 VS03.                90643410:  Virtual Str3 SN 
 VS04.                90634712:  Virtual Str4 SN 
 WBMN.klb                 9.00:  WOB Min 
 WITN.        Elmaddin Rahimov:  Customer Rep 
 WITN.         Haytham Mostafa:  Customer Rep 2 
 WOBA.klb                15.00:  WOB Avg 
 WOBX.klb                23.00:  WOB Max 
 YP  .lhf2               29.00:  Yield Point 
~Curve Information Block
#MNEM.UNIT                 API CODE     Curve Description
#---------               -----------    ---------------------------
 TIME.HHMMSS            00 000 000 000:  GT Time & Date
 GTDEPTH.m              00 000 000 000:  GT Depth
 GTPQH.psia             00 000 000 000:  GT HR Quartz Pressure
 GTTQ.degC              00 000 000 000:  GT Quartz Temperature
 GTTN.NONE              00 000 000 000:  GT Test Number
 GTET.sec               00 000 000 000:  GT Elapsed Test Time
 GTTVD.m                00 000 000 000:  GT True Vertical Depth
#Other Information
#
#WARRANTY: Halliburton will use its best efforts to furnish customers with 
#accurate information and interpretations that are part of, and incident to, the services 
#provided.  However, Halliburton cannot and does not warrant the accuracy 
#or correctness of such information and interpretations.  Under no circumstances should any 
#such information or interpretation be relied upon as the sole basis for any drilling, 
#completion, production, or financial decision or any procedure involving any risk to the 
#safety of any drilling venture, drilling rig or its crew or any other third party.  The 
#Customer has full responsibility for all drilling, completion and production operation.  
#Halliburton makes no representations or warranties, either expressed or 
#implied, including, but not limited to, the implied warranties of merchantability or fitness 
#for a particular purpose, with respect to the services rendered.  In no event will 
#Halliburton be liable for failure to obtain any particular results or for 
#any damages, including, but not limited to, indirect, special or consequential damages, 
#resulting from the use of any information or interpretation provided by Halliburton.
#
~A           TIME           GTDEPTH  GTPQH  GTTQ  GTTN   GTET   GTTVD  
# ...
   07:54:06.211.09-May-2021 4413.51 4428.33 65.55 16.00 113.02 2938.18
   07:54:06.411.09-May-2021 4413.51 4428.33 65.55 16.00 113.22 2938.18
   07:54:06.611.09-May-2021 4413.51 4428.32 65.55 16.00 113.42 2938.18
   07:54:06.811.09-May-2021 4413.51 4428.34 65.55 16.00 113.62 2938.18
   07:54:07.011.09-May-2021 4413.51 4428.34 65.55 16.00 113.82 2938.18
   07:54:07.211.09-May-2021 4413.51 4428.35 65.55 16.00 114.02 2938.18
   07:54:07.411.09-May-2021 4413.51 4428.35 65.55 16.00 114.22 2938.18
   07:54:07.611.09-May-2021 4413.51 4428.14 65.55 16.00 114.42 2938.18
   07:54:07.811.09-May-2021 4413.51 4428.38 65.55 16.00 114.62 2938.18
   07:54:08.011.09-May-2021 4413.51 4428.31 65.55 16.00 114.82 2938.18
   07:54:08.211.09-May-2021 4413.51 4428.28 65.55 16.00 115.02 2938.18
   07:54:08.411.09-May-2021 4413.51 4428.28 65.55 16.00 115.22 2938.18
   07:54:08.611.09-May-2021 4413.51 4428.31 65.55 16.00 115.42 2938.18
   07:54:08.811.09-May-2021 4413.51 4428.34 65.55 16.00 115.62 2938.18
   07:54:09.011.09-May-2021 4413.51 4428.32 65.55 16.00 115.82 2938.18
   07:54:09.211.09-May-2021 4413.51 4428.33 65.55 16.00 116.02 2938.18
   07:54:09.411.09-May-2021 4413.51 4428.33 65.55 16.00 116.22 2938.18
   07:54:09.612.09-May-2021 4413.51 4428.34 65.55 16.00 116.42 2938.18
   07:54:09.812.09-May-2021 4413.51 4428.34 65.55 16.00 116.62 2938.18
   07:54:10.012.09-May-2021 4413.51 4428.23 65.55 16.00 116.82 2938.18
   07:54:10.212.09-May-2021 4413.51 4428.52 65.55 16.00 117.02 2938.18
   07:54:10.412.09-May-2021 4413.51 4428.52 65.55 16.00 117.22 2938.18
   07:54:10.612.09-May-2021 4413.51 4428.51 65.55 16.00 117.42 2938.18
   07:54:10.812.09-May-2021 4413.51 4428.51 65.55 16.00 117.62 2938.18
   07:54:11.012.09-May-2021 4413.51 4428.14 65.55 16.00 117.82 2938.18
   07:54:11.212.09-May-2021 4413.51 4428.35 65.55 16.00 118.02 2938.18
   07:54:11.412.09-May-2021 4413.51 4428.35 65.55 16.00 118.22 2938.18
   07:54:11.612.09-May-2021 4413.51 4428.29 65.55 16.00 118.42 2938.18
   07:54:11.812.09-May-2021 4413.51 4428.63 65.55 16.00 118.62 2938.18
   07:54:12.012.09-May-2021 4413.51 4428.08 65.55 16.00 118.82 2938.18
   07:54:12.212.09-May-2021 4413.51 4428.40 65.55 16.00 119.02 2938.18
   07:54:12.412.09-May-2021 4413.51 4428.40 65.55 16.00 119.22 2938.18
   07:54:12.612.09-May-2021 4413.51 4428.29 65.55 16.00 119.42 2938.18
   07:54:12.812.09-May-2021 4413.51 4428.34 65.55 16.00 119.62 2938.18
   07:54:13.012.09-May-2021 4413.51 4428.46 65.55 16.00 119.82 2938.18
   07:54:13.212.09-May-2021 4413.51 4428.18 65.55 16.00 120.02 2938.18
   07:54:13.412.09-May-2021 4413.51 4428.18 65.55 16.00 120.22 2938.18
   07:54:13.612.09-May-2021 4413.51 4428.22 65.55 16.00 120.42 2938.18
   07:54:13.812.09-May-2021 4413.51 4428.29 65.55 16.00 120.62 2938.18
   07:54:14.012.09-May-2021 4413.51 4428.33 65.55 16.00 120.82 2938.18
   07:54:14.212.09-May-2021 4413.51 4428.31 65.55 16.00 121.02 2938.18
   07:54:14.412.09-May-2021 4413.51 4428.31 65.55 16.00 121.22 2938.18
   07:54:14.612.09-May-2021 4413.51 4428.32 65.55 16.00 121.42 2938.18
   07:54:14.812.09-May-2021 4413.51 4428.34 65.55 16.00 121.62 2938.18
   07:54:15.012.09-May-2021 4413.51 4428.34 65.55 16.00 121.82 2938.18
   07:54:15.212.09-May-2021 4413.51 4428.35 65.55 16.00 122.02 2938.18
   07:54:15.412.09-May-2021 4413.51 4428.35 65.55 16.00 122.22 2938.18
   07:54:15.612.09-May-2021 4413.51 4428.46 65.55 16.00 122.42 2938.18
   07:54:15.812.09-May-2021 4413.51 4428.25 65.55 16.00 122.62 2938.18
   07:54:16.012.09-May-2021 4413.51 4428.41 65.55 16.00 122.82 2938.18
   07:54:16.212.09-May-2021 4413.51 4428.29 65.55 16.00 123.02 2938.18
   07:54:16.412.09-May-2021 4413.51 4428.29 65.55 16.00 123.22 2938.18
   07:54:16.612.09-May-2021 4413.51 4428.29 65.55 16.00 123.42 2938.18
   07:54:16.813.09-May-2021 4413.51 4428.33 65.55 16.00 123.62 2938.18
   07:54:17.013.09-May-2021 4413.51 4428.32 65.55 16.00 123.82 2938.18
   07:54:17.213.09-May-2021 4413.51 4428.33 65.55 16.00 124.02 2938.18
   07:54:17.413.09-May-2021 4413.51 4428.33 65.55 16.00 124.22 2938.18
   07:54:17.613.09-May-2021 4413.51 4428.33 65.55 16.00 124.42 2938.18
   07:54:17.813.09-May-2021 4413.51 4428.34 65.55 16.00 124.62 2938.18
   07:54:18.013.09-May-2021 4413.51 4428.34 65.55 16.00 124.82 2938.18
   07:54:18.213.09-May-2021 4413.51 4428.63 65.55 16.00 125.02 2938.18
   07:54:18.413.09-May-2021 4413.51 4428.63 65.55 16.00 125.22 2938.18
   07:54:18.613.09-May-2021 4413.51 4428.38 65.55 16.00 125.42 2938.18
   07:54:18.813.09-May-2021 4413.51 4428.29 65.55 16.00 125.62 2938.18
   07:54:19.013.09-May-2021 4413.51 4428.37 65.55 16.00 125.82 2938.18
   07:54:19.213.09-May-2021 4413.51 4428.25 65.55 16.00 126.02 2938.18
   07:54:19.413.09-May-2021 4413.51 4428.25 65.55 16.00 126.22 2938.18
   07:54:19.613.09-May-2021 4413.51 4428.31 65.55 16.00 126.42 2938.18
   07:54:19.813.09-May-2021 4413.51 4428.34 65.55 16.00 126.62 2938.18
   07:54:20.013.09-May-2021 4413.51 4428.39 65.55 16.00 126.82 2938.18
   07:54:20.213.09-May-2021 4413.51 4428.22 65.55 16.00 127.02 2938.18
   07:54:20.413.09-May-2021 4413.51 4428.22 65.55 16.00 127.22 2938.18
   07:54:20.613.09-May-2021 4413.51 4428.30 65.55 16.00 127.42 2938.18
   07:54:20.813.09-May-2021 4413.51 4428.36 65.55 16.00 127.62 2938.18
   07:54:21.013.09-May-2021 4413.51 4428.42 65.55 16.00 127.82 2938.18
   07:54:21.213.09-May-2021 4413.51 4428.26 65.55 16.00 128.02 2938.18
   07:54:21.413.09-May-2021 4413.51 4428.26 65.55 16.00 128.22 2938.18
   07:54:21.613.09-May-2021 4413.51 4428.39 65.55 16.00 128.42 2938.18
   07:54:21.813.09-May-2021 4413.51 4428.29 65.55 16.00 128.62 2938.18
   07:54:22.013.09-May-2021 4413.51 4428.35 65.55 16.00 128.82 2938.18
   07:54:22.213.09-May-2021 4413.51 4428.29 65.55 16.00 129.02 2938.18
   07:54:22.413.09-May-2021 4413.51 4428.29 65.55 16.00 129.22 2938.18
   07:54:22.613.09-May-2021 4413.51 4428.32 65.55 16.00 129.42 2938.18
   07:54:22.813.09-May-2021 4413.51 4428.32 65.55 16.00 129.62 2938.18
   07:54:23.013.09-May-2021 4413.51 4428.33 65.55 16.00 129.82 2938.18
   07:54:23.213.09-May-2021 4413.51 4428.35 65.55 16.00 130.02 2938.18
   07:54:23.413.09-May-2021 4413.51 4428.35 65.55 16.00 130.22 2938.18
   07:54:23.613.09-May-2021 4413.51 4428.52 65.55 16.00 130.42 2938.18
   07:54:23.813.09-May-2021 4413.51 4428.18 65.55 16.00 130.62 2938.18
   07:54:24.014.09-May-2021 4413.51 4428.50 65.55 16.00 130.82 2938.18
   07:54:24.214.09-May-2021 4413.51 4428.22 65.55 16.00 131.02 2938.18
   07:54:24.414.09-May-2021 4413.51 4428.22 65.55 16.00 131.22 2938.18
   07:54:24.614.09-May-2021 4413.51 4428.32 65.55 16.00 131.42 2938.18
   07:54:24.814.09-May-2021 4413.51 4428.31 65.55 16.00 131.62 2938.18
   07:54:25.014.09-May-2021 4413.51 4428.33 65.55 16.00 131.82 2938.18
   07:54:25.214.09-May-2021 4413.51 4428.33 65.55 16.00 132.02 2938.18
   07:54:25.414.09-May-2021 4413.51 4428.33 65.55 16.00 132.22 2938.18
   07:54:25.614.09-May-2021 4413.51 4428.34 65.55 16.00 132.42 2938.18
   07:54:25.814.09-May-2021 4413.51 4428.34 65.55 16.00 132.62 2938.18
   07:54:26.014.09-May-2021 4413.51 4428.35 65.55 16.00 132.82 2938.18
   07:54:26.214.09-May-2021 4413.51 4428.31 65.55 16.00 133.02 2938.18
   07:54:26.414.09-May-2021 4413.51 4428.31 65.55 16.00 133.22 2938.18
   07:54:26.614.09-May-2021 4413.51 4428.25 65.55 16.00 133.42 2938.18
   07:54:26.814.09-May-2021 4413.51 4428.42 65.55 16.00 133.62 2938.18
   07:54:27.014.09-May-2021 4413.51 4428.42 65.55 16.00 133.82 2938.18
   07:54:27.214.09-May-2021 4413.51 4428.20 65.55 16.00 134.02 2938.18
   07:54:27.414.09-May-2021 4413.51 4428.20 65.55 16.00 134.22 2938.18
   07:54:27.614.09-May-2021 4413.51 4428.22 65.55 16.00 134.42 2938.18
   07:54:27.814.09-May-2021 4413.51 4428.30 65.55 16.00 134.62 2938.18
   07:54:28.014.09-May-2021 4413.51 4428.48 65.55 16.00 134.82 2938.18
   07:54:28.214.09-May-2021 4413.51 4428.15 65.55 16.00 135.02 2938.18
   07:54:28.414.09-May-2021 4413.51 4428.15 65.55 16.00 135.22 2938.18
   07:54:28.614.09-May-2021 4413.51 4428.22 65.55 16.00 135.42 2938.18
