~Version Information
 VERS.                  2.0:   CWLS log ASCII Standard -VERSION 2.0
 WRAP.                   NO:   One line per depth step
~Well Information Block
#MNEM.UNIT     VALUE/NAME     DESCRIPTION
#---------     -----------    ---------------------------
 STRT.S             00:24:13 10-May-21: START TIME 00:24:13 10-May-21
 STOP.S             00:32:26 10-May-21: STOP TIME  00:32:26 10-May-21
 STEP.S                   0.00: STEP TIME
 NULL.                 -999.25: NULL VALUE
 PROV.                    Baku:  PROVINCE
 STAT.                    Baku:  STATE NAME
 SON .        AZ-XX-0906571588:  JOB NUMBER
 WTYP.                Deviated:  WELL TYPE
 COMP.     BP Exploration (Caspian Sea) ltd:  COMPANY
 BASE.              Azerbaijan:  LOGGING EQUIPMENT BASE LOCATION
 REGN.                   EESSA:  REGION
 CTRY.              Azerbaijan:  COUNTRY NAME
 FLD .                     ACG:  FIELD NAME
 WELL.                     J28:  WELL NAME
 RIG .             West Chirag:  RIG NAME
 DMF .             Drill Floor:  DRILL MEAS FROM
 PDAT.       Caspian Sea Level:  PERMANENT DATUM
 HPTY.       Minimum Curvature:  HOLE POS TYPE
 MDS .        Operator Entered:  MAG DATA SOURCE
 NREF.                    Grid:  NORTH REFERENCE
 SRVC.          TURAN DRILLING:  CONTRACTOR
 JOBN.        AZ-XX-0906571588:  JOB TICKET NUMB
 DCON.     Halliburton Sperry Drilling:  DIRECTNL CONTR
 STIM.      00.44.00 11-Feb-21:  START TIME
 DATE.      00.00.00 05-May-21:  END TIME
 SPUD.               13-Feb-21:  SPUD DATE
 MWDS.                    Baku:  MWD SHOP
 DOE .                     N/A:  DOE NUMBER
 UNIT.                     N/A:  LOGGING EQUIPMENT ID
 UWI .                     N/A:  UNIQUE WELL IDENTIFIER
 API .                     N/A:  API NUMBER
 CNTY.                        :  COUNTY
 LOC .                        :  LOCATION
 LMF .             Drill Floor:  LOG MEASURED FROM
 TVDS.m                  43.00:  TVDSS CORRECTN
 SDEP.m                 341.00:  START DEPTH
 EGL .m                   0.00:  GROUND ELEVATION
 WDMS.m                 169.80:  WD ELEV
 AGAP.m                  43.00:  AIR GAP
 EPD .m                   0.00:  ELEVATION
 APD .m                  43.00:  DEPTH ABOVE PD
 LATI.deg                40.13:  LATITUDE
 LONG.deg                51.22:  LONGITUDE
 UTMY.m             4443793.85:  UTM Y
 UTMX.m              519005.06:  UTM X
 WHEW.m                 -11.57:  WELL HEAD E/W
 WHNS.m                   8.57:  WELL HEAD N/S
 VSEW.m                 -11.57:  VERT SEC E/W
 VSNS.m                   8.57:  VERT SEC N/S
 DFWL.m                   0.00:  DISTANCE FWL
 DFSL.m                   0.00:  DISTANCE FSL
 VSDR.deg               299.34:  VERT SEC DIRECT
 GVFD.g                   1.00:  GRAVITY FIELD
 AZTC.deg                 6.36:  AZM TOTAL CORR
 MFLD.nT              50391.00:  MAGNETIC FIELD
 MDIP.deg                59.65:  MAGNETIC DIP
 MDEC.deg                 6.48:  MAGNETIC DECL
 GRDC.deg                 0.12:  GRID CORRECTION
 DEP .m                 334.96:  DEPTH
 TDD .m                1407.26:  TOTAL DEPTH (DRILLER)
 EKB .m                  43.00:  KB ELEVATION
 EDF .m                  43.00:  DF ELEVATION
 TDL .m                 228.00:  TOTAL DEPTH (LOGGER)
 VSC .                       0:  VS TO CLOSURE
 MAGU.                 1854484:  MAGUTM CHECKSUM
~Parameter Information Block
#MNEM.UNIT       Value        Description
#---------     -----------    ---------------------------
 AV  .mps                 4.00:  Ann Velocity 
 AVMX.mps                 4.73:  Max Ann Veloc 
 AZIF.deg               304.48:  Azm, Final 
 BHAT.        Rotary Steerable:  BHA Type 
 BREV.rev            257300.00:  Rev Bit Total 
 BROT.°/30m               0.00:  Build Rotating 
 BS  .in                  8.50:  Bit Size 
 BSZ .in                  8.50:  Bit Size 
 BTPL.psig              589.00:  Bit Press Loss 
 CABU.                      No:  Customer Abuse 
 CGEO.          Mubariz ghayev:  Customer Geo 
 TCS .hr                 64.25:  Time Ciculation Ended 
 CV  .mps                 3.50:  Crit Velocity 
 CVMX.mps                 4.52:  Max Crit Veloc 
 DD1 .             Aziz Aliyev:  Direct Drillr 1 
 DD2 .         Intigam Rahimov:  Direct Drillr 2 
 DD3 .          Rashad Habibov:  Direct Drillr 3 
 DDSV.               Geo-Pilot:  DD Service 
 DEFF.%                  98.00:  % Det Eff 
 DLRX.°/30m               0.00:  Dogleg Rot Max 
 DLSO.°/30m               0.00:  Dogleg Oriented 
 DLSX.°/30m               0.00:  Dogleg Str Max 
 DRET.      10.45.04 08-May-21:  Drill End Time 
 DRST.      03.30.04 04-May-21:  Drill Start Tim 
 DTIM.hr                 14.97:  Time Drilling 
 EDEP.m                4640.01:  End Depth 
 ENG1.         Dail Mahammadov:  Engineer 1 
 ENG2.           Eldar Hajiyev:  Engineer 2 
 ENG3.       Bakhtiar Jabbarli:  Engineer 3 
 ENG4.       Natik Hasanagayev:  Engineer 4 
 ETIM.      09.30.04 14-May-21:  End Time 
 FLOI.gpm               460.00:  Flow In 
 FLON.gpm               200.00:  Flow In Min 
 FLOS.cptm                0.00:  Fluid Loss 
 FLOX.gpm               505.00:  Flow In Max 
 HFLO.                      No:  High Flow 
 HPRE.                      No:  High Pressure 
 HTEM.                      No:  High Temp 
 HYDO.m                   1.80:  Hydro Offset 
 IFIN.deg                66.71:  Inc, Final 
 IMAX.deg                67.03:  Inc Max 
 IMIN.deg                66.63:  Inc Min 
 IMND.m                4550.58:  Inc Min Depth 
 IMXD.m                4439.01:  Inc Max Depth 
 JARR.                      No:  Jarring 
 LETM.      10.45.04 08-May-21:  Log End Time 
 LOST.hr                     0:  Lost Rig Time 
 LSTM.      03.30.04 04-May-21:  Log Start Time 
 MDCL.ppm             37000.00:  Mud Chlorides 
 MDES.     Inversion Oil/Synthetic:  Mud Desc 
 DFD .sg                  1.38:  Mud Density 
 MDMN.sg                  1.35:  Dens Mud Min 
 MDMX.sg                  1.40:  Dens Mud Max 
 MOIL.                   57.40:  Run Mud Oil % 
 MOWR.                   70:30:  Run Mud OWR 
 MSND.                    0.00:  Run Mud Sand % 
 MSOL.                   18.00:  Run Mud Solids% 
 DFV .spqt               71.00:  Mud Viscosity 
 MWOD.in                  6.75:  MWD Tool OD 
 MWSI.                      No:  Serv Intrp, MWD 
 OTIM.hr                242.76:  Time Operating 
 PCON.           Look Like New:  Pad Condition 
 PMAX.psia            12183.92:  Press Op, Max 
 PV  .cP                 27.00:  Mud PV 
 RUN .                    1300:  Run Number 
 ROPA.m/hr               15.00:  ROP Avg 
 ROPN.m/hr                9.00:  ROP Min 
 ROPX.m/hr               19.00:  ROP Max 
 RPMA.rpm               120.00:  RPM Surface Avg 
 RPMN.rpm               100.00:  RPM Surface Min 
 RPMX.rpm               120.00:  RPM Surface Max 
 RRUN.                    1300:  Rig Run Number 
 RTIM.hr                  5.00:  Time Reaming 
 SAZI.deg               304.73:  Azm, Start 
 SDEP.m                4412.01:  Start Depth 
 SIDD.                      No:  Serv Intrp, DD 
 SINC.deg                66.82:  Inc, Start 
 SPPA.psig             2800.00:  SPP Avg 
 SPPN.psig             2610.00:  SPP Min 
 SPPX.psig             3100.00:  SPP Max 
 STIM.      03.30.00 04-May-21:  Start Time 
 SVCS.                 DD, MWD:  Services 
 SVER.                    9.20:  Sperry Version 
 TDAT.m                 228.00:  Tot Depth Attmp 
 TDDF.                      No:  Trip for DD 
 TDLG.m                 228.00:  Tot Depth Loggd 
 TFF .                      No:  Trip for Fail 
 TQAA.f-kp               15.00:  Torque Abs Avg 
 TQAN.f-kp               12.00:  Torque Abs Min 
 TQAX.f-kp               22.00:  Torque Abs Max 
 TRRT.°/30m               0.00:  Turn Rotating 
 MRT .                    HCIM:  Maximum Recorded Temperature 
 TTMX.degC               90.20:  Max Tool Temp 
 VS01.                90627813:  Virtual Str1 SN 
 VS02.                90634712:  Virtual Str2 SN 
 VS03.                90643410:  Virtual Str3 SN 
 VS04.                90634712:  Virtual Str4 SN 
 WBMN.klb                 9.00:  WOB Min 
 WITN.        Elmaddin Rahimov:  Customer Rep 
 WITN.         Haytham Mostafa:  Customer Rep 2 
 WOBA.klb                15.00:  WOB Avg 
 WOBX.klb                23.00:  WOB Max 
 YP  .lhf2               29.00:  Yield Point 
~Curve Information Block
#MNEM.UNIT                 API CODE     Curve Description
#---------               -----------    ---------------------------
 TIME.HHMMSS            00 000 000 000:  GT Time & Date
 GTDEPTH.m              00 000 000 000:  GT Depth
 GTPQH.psia             00 000 000 000:  GT HR Quartz Pressure
 GTTQ.degC              00 000 000 000:  GT Quartz Temperature
 GTTN.NONE              00 000 000 000:  GT Test Number
 GTET.sec               00 000 000 000:  GT Elapsed Test Time
 GTTVD.m                00 000 000 000:  GT True Vertical Depth
#Other Information
#
#WARRANTY: Halliburton will use its best efforts to furnish customers with 
#accurate information and interpretations that are part of, and incident to, the services 
#provided.  However, Halliburton cannot and does not warrant the accuracy 
#or correctness of such information and interpretations.  Under no circumstances should any 
#such information or interpretation be relied upon as the sole basis for any drilling, 
#completion, production, or financial decision or any procedure involving any risk to the 
#safety of any drilling venture, drilling rig or its crew or any other third party.  The 
#Customer has full responsibility for all drilling, completion and production operation.  
#Halliburton makes no representations or warranties, either expressed or 
#implied, including, but not limited to, the implied warranties of merchantability or fitness 
#for a particular purpose, with respect to the services rendered.  In no event will 
#Halliburton be liable for failure to obtain any particular results or for 
#any damages, including, but not limited to, indirect, special or consequential damages, 
#resulting from the use of any information or interpretation provided by Halliburton.
#
~A           TIME           GTDEPTH  GTPQH  GTTQ  GTTN   GTET   GTTVD  
# ...
   00:29:30.143.10-May-2021 4497.51  549.38 60.45 18.00 316.54 2971.13
   00:29:30.343.10-May-2021 4497.51  549.57 60.45 18.00 316.74 2971.13
   00:29:30.543.10-May-2021 4497.51  549.72 60.45 18.00 316.94 2971.13
   00:29:30.743.10-May-2021 4497.51  549.90 60.45 18.00 317.14 2971.13
   00:29:30.943.10-May-2021 4497.51  549.90 60.45 18.00 317.34 2971.13
   00:29:31.144.10-May-2021 4497.51  550.21 60.45 18.00 317.54 2971.13
   00:29:31.344.10-May-2021 4497.51  550.36 60.45 18.00 317.74 2971.13
   00:29:31.544.10-May-2021 4497.51  550.28 60.45 18.00 317.94 2971.13
   00:29:31.744.10-May-2021 4497.51  550.47 60.45 18.00 318.14 2971.13
   00:29:31.944.10-May-2021 4497.51  550.47 60.45 18.00 318.34 2971.13
   00:29:32.144.10-May-2021 4497.51  545.81 60.45 18.00 318.54 2971.13
   00:29:32.344.10-May-2021 4497.51  523.01 60.45 18.00 318.74 2971.13
   00:29:32.544.10-May-2021 4497.51  511.50 60.45 18.00 318.94 2971.13
   00:29:32.744.10-May-2021 4497.51  493.67 60.45 18.00 319.14 2971.13
   00:29:32.944.10-May-2021 4497.51  493.67 60.45 18.00 319.34 2971.13
   00:29:33.144.10-May-2021 4497.51  474.38 60.45 18.00 319.54 2971.13
   00:29:33.344.10-May-2021 4497.51  472.57 60.45 18.00 319.74 2971.13
   00:29:33.545.10-May-2021 4497.51  469.77 60.45 18.00 319.94 2971.13
   00:29:33.745.10-May-2021 4497.51  467.24 60.45 18.00 320.14 2971.13
   00:29:33.945.10-May-2021 4497.51  467.24 60.45 18.00 320.34 2971.13
   00:29:34.145.10-May-2021 4497.51  458.54 60.45 18.00 320.54 2971.13
   00:29:34.345.10-May-2021 4497.51  458.12 60.45 18.00 320.74 2971.13
   00:29:34.545.10-May-2021 4497.51  458.11 60.45 18.00 320.94 2971.13
   00:29:34.745.10-May-2021 4497.51  458.60 60.45 18.00 321.14 2971.13
   00:29:34.945.10-May-2021 4497.51  458.60 60.45 18.00 321.34 2971.13
   00:29:35.145.10-May-2021 4497.51  458.26 60.45 18.00 321.54 2971.13
   00:29:35.345.10-May-2021 4497.51  458.50 60.45 18.00 321.74 2971.13
   00:29:35.545.10-May-2021 4497.51  457.46 60.45 18.00 321.94 2971.13
   00:29:35.745.10-May-2021 4497.51  456.44 60.45 18.00 322.14 2971.13
   00:29:35.946.10-May-2021 4497.51  456.44 60.45 18.00 322.34 2971.13
   00:29:36.146.10-May-2021 4497.51  454.68 60.45 18.00 322.54 2971.13
   00:29:36.346.10-May-2021 4497.51  454.43 60.45 18.00 322.74 2971.13
   00:29:36.546.10-May-2021 4497.51  451.82 60.45 18.00 322.94 2971.13
   00:29:36.746.10-May-2021 4497.51  450.31 60.45 18.00 323.14 2971.13
   00:29:36.946.10-May-2021 4497.51  450.31 60.45 18.00 323.34 2971.13
   00:29:37.146.10-May-2021 4497.51  450.92 60.45 18.00 323.54 2971.13
   00:29:37.346.10-May-2021 4497.51  450.75 60.45 18.00 323.74 2971.13
   00:29:37.546.10-May-2021 4497.51  450.55 60.45 18.00 323.94 2971.13
   00:29:37.746.10-May-2021 4497.51  450.37 60.45 18.00 324.14 2971.13
   00:29:37.946.10-May-2021 4497.51  450.37 60.45 18.00 324.34 2971.13
   00:29:38.147.10-May-2021 4497.51  446.62 60.45 18.00 324.54 2971.13
   00:29:38.347.10-May-2021 4497.51  446.25 60.45 18.00 324.74 2971.13
   00:29:38.547.10-May-2021 4497.51  442.72 60.45 18.00 324.94 2971.13
   00:29:38.747.10-May-2021 4497.51  441.50 60.45 18.00 325.14 2971.13
   00:29:38.947.10-May-2021 4497.51  441.50 60.45 18.00 325.34 2971.13
   00:29:39.147.10-May-2021 4497.51  438.46 60.45 18.00 325.54 2971.13
   00:29:39.347.10-May-2021 4497.51  438.76 60.45 18.00 325.74 2971.13
   00:29:39.547.10-May-2021 4497.51  438.52 60.45 18.00 325.94 2971.13
   00:29:39.747.10-May-2021 4497.51  439.26 60.45 18.00 326.14 2971.13
   00:29:39.947.10-May-2021 4497.51  439.26 60.45 18.00 326.34 2971.13
   00:29:40.147.10-May-2021 4497.51  438.77 60.45 18.00 326.54 2971.13
   00:29:40.347.10-May-2021 4497.51  438.46 60.45 18.00 326.74 2971.13
   00:29:40.548.10-May-2021 4497.51  438.27 60.45 18.00 326.94 2971.13
   00:29:40.748.10-May-2021 4497.51  437.13 60.45 18.00 327.14 2971.13
   00:29:40.948.10-May-2021 4497.51  437.13 60.45 18.00 327.34 2971.13
   00:29:41.148.10-May-2021 4497.51  437.18 60.45 18.00 327.54 2971.13
   00:29:41.348.10-May-2021 4497.51  435.98 60.45 18.00 327.74 2971.13
   00:29:41.548.10-May-2021 4497.51  435.55 60.45 18.00 327.94 2971.13
   00:29:41.748.10-May-2021 4497.51  434.90 60.45 18.00 328.14 2971.13
   00:29:41.948.10-May-2021 4497.51  434.90 60.45 18.00 328.34 2971.13
   00:29:42.148.10-May-2021 4497.51  433.36 60.45 18.00 328.54 2971.13
   00:29:42.348.10-May-2021 4497.51  434.15 60.45 18.00 328.74 2971.13
   00:29:42.548.10-May-2021 4497.51  435.73 60.45 18.00 328.94 2971.13
   00:29:42.748.10-May-2021 4497.51  440.47 60.45 18.00 329.14 2971.13
   00:29:42.949.10-May-2021 4497.51  440.47 60.45 18.00 329.34 2971.13
   00:29:43.149.10-May-2021 4497.51  441.28 60.45 18.00 329.54 2971.13
   00:29:43.349.10-May-2021 4497.51  441.66 60.45 18.00 329.74 2971.13
   00:29:43.549.10-May-2021 4497.51  442.02 60.45 18.00 329.94 2971.13
   00:29:43.749.10-May-2021 4497.51  442.37 60.45 18.00 330.14 2971.13
   00:29:43.949.10-May-2021 4497.51  442.37 60.45 18.00 330.34 2971.13
   00:29:44.149.10-May-2021 4497.51  443.06 60.45 18.00 330.54 2971.13
   00:29:44.349.10-May-2021 4497.51  443.24 60.45 18.00 330.74 2971.13
   00:29:44.549.10-May-2021 4497.51  444.43 60.45 18.00 330.94 2971.13
   00:29:44.749.10-May-2021 4497.51  444.65 60.45 18.00 331.14 2971.13
   00:29:44.949.10-May-2021 4497.51  444.65 60.45 18.00 331.34 2971.13
   00:29:45.150.10-May-2021 4497.51  445.27 60.45 18.00 331.54 2971.13
   00:29:45.350.10-May-2021 4497.51  445.57 60.45 18.00 331.74 2971.13
   00:29:45.550.10-May-2021 4497.51  445.91 60.45 18.00 331.94 2971.13
   00:29:45.750.10-May-2021 4497.51  446.23 60.45 18.00 332.14 2971.13
   00:29:45.950.10-May-2021 4497.51  446.23 60.45 18.00 332.34 2971.13
   00:29:46.150.10-May-2021 4497.51  446.85 60.45 18.00 332.54 2971.13
   00:29:46.350.10-May-2021 4497.51  447.13 60.45 18.00 332.74 2971.13
   00:29:46.550.10-May-2021 4497.51  447.44 60.45 18.00 332.94 2971.13
   00:29:46.750.10-May-2021 4497.51  447.50 60.45 18.00 333.14 2971.13
   00:29:46.950.10-May-2021 4497.51  447.50 60.45 18.00 333.34 2971.13
   00:29:47.150.10-May-2021 4497.51  448.40 60.45 18.00 333.54 2971.13
   00:29:47.350.10-May-2021 4497.51  448.68 60.45 18.00 333.74 2971.13
   00:29:47.551.10-May-2021 4497.51  448.82 60.45 18.00 333.94 2971.13
   00:29:47.751.10-May-2021 4497.51  448.77 60.45 18.00 334.14 2971.13
   00:29:47.951.10-May-2021 4497.51  448.77 60.45 18.00 334.34 2971.13
   00:29:48.151.10-May-2021 4497.51  449.70 60.45 18.00 334.54 2971.13
   00:29:48.351.10-May-2021 4497.51  450.19 60.45 18.00 334.74 2971.13
   00:29:48.551.10-May-2021 4497.51  450.32 60.45 18.00 334.94 2971.13
   00:29:48.751.10-May-2021 4497.51  450.10 60.45 18.00 335.14 2971.13
   00:29:48.951.10-May-2021 4497.51  450.10 60.45 18.00 335.34 2971.13
   00:29:49.151.10-May-2021 4497.51  451.05 60.45 18.00 335.54 2971.13
   00:29:49.351.10-May-2021 4497.51  451.41 60.45 18.00 335.74 2971.13
   00:29:49.551.10-May-2021 4497.51  451.15 60.45 18.00 335.94 2971.13
   00:29:49.751.10-May-2021 4497.51  452.23 60.45 18.00 336.14 2971.13
   00:29:49.952.10-May-2021 4497.51  452.23 60.45 18.00 336.34 2971.13
   00:29:50.152.10-May-2021 4497.51  452.59 60.45 18.00 336.54 2971.13
   00:29:50.352.10-May-2021 4497.51  452.71 60.45 18.00 336.74 2971.13
   00:29:50.552.10-May-2021 4497.51  453.01 60.45 18.00 336.94 2971.13
   00:29:50.752.10-May-2021 4497.51  453.27 60.45 18.00 337.14 2971.13
   00:29:50.952.10-May-2021 4497.51  453.27 60.45 18.00 337.34 2971.13
   00:29:51.152.10-May-2021 4497.51  453.80 60.45 18.00 337.54 2971.13
   00:29:51.352.10-May-2021 4497.51  454.08 60.45 18.00 337.74 2971.13
   00:29:51.552.10-May-2021 4497.51  454.32 60.45 18.00 337.94 2971.13
   00:29:51.752.10-May-2021 4497.51  454.59 60.45 18.00 338.14 2971.13
   00:29:51.952.10-May-2021 4497.51  454.59 60.45 18.00 338.34 2971.13
   00:29:52.153.10-May-2021 4497.51  454.64 60.45 18.00 338.54 2971.13
   00:29:52.353.10-May-2021 4497.51  455.51 60.45 18.00 338.74 2971.13
   00:29:52.553.10-May-2021 4497.51  455.62 60.45 18.00 338.95 2971.13
