~Version Information
 VERS.                  2.0:   CWLS log ASCII Standard -VERSION 2.0
 WRAP.                   NO:   One line per depth step
~Well Information Block
#MNEM.UNIT     VALUE/NAME     DESCRIPTION
#---------     -----------    ---------------------------
 STRT.S             03:18:48 09-May-21: START TIME 03:18:48 09-May-21
 STOP.S             03:25:48 09-May-21: STOP TIME  03:25:48 09-May-21
 STEP.S                   0.00: STEP TIME
 NULL.                 -999.25: NULL VALUE
 PROV.                    Baku:  PROVINCE
 STAT.                    Baku:  STATE NAME
 SON .        AZ-XX-0906571588:  JOB NUMBER
 WTYP.                Deviated:  WELL TYPE
 COMP.     BP Exploration (Caspian Sea) ltd:  COMPANY
 BASE.              Azerbaijan:  LOGGING EQUIPMENT BASE LOCATION
 REGN.                   EESSA:  REGION
 CTRY.              Azerbaijan:  COUNTRY NAME
 FLD .                     ACG:  FIELD NAME
 WELL.                     J28:  WELL NAME
 RIG .             West Chirag:  RIG NAME
 DMF .             Drill Floor:  DRILL MEAS FROM
 PDAT.       Caspian Sea Level:  PERMANENT DATUM
 HPTY.       Minimum Curvature:  HOLE POS TYPE
 MDS .        Operator Entered:  MAG DATA SOURCE
 NREF.                    Grid:  NORTH REFERENCE
 SRVC.          TURAN DRILLING:  CONTRACTOR
 JOBN.        AZ-XX-0906571588:  JOB TICKET NUMB
 DCON.     Halliburton Sperry Drilling:  DIRECTNL CONTR
 STIM.      00.44.00 11-Feb-21:  START TIME
 DATE.      00.00.00 05-May-21:  END TIME
 SPUD.               13-Feb-21:  SPUD DATE
 MWDS.                    Baku:  MWD SHOP
 DOE .                     N/A:  DOE NUMBER
 UNIT.                     N/A:  LOGGING EQUIPMENT ID
 UWI .                     N/A:  UNIQUE WELL IDENTIFIER
 API .                     N/A:  API NUMBER
 CNTY.                        :  COUNTY
 LOC .                        :  LOCATION
 LMF .             Drill Floor:  LOG MEASURED FROM
 TVDS.m                  43.00:  TVDSS CORRECTN
 SDEP.m                 341.00:  START DEPTH
 EGL .m                   0.00:  GROUND ELEVATION
 WDMS.m                 169.80:  WD ELEV
 AGAP.m                  43.00:  AIR GAP
 EPD .m                   0.00:  ELEVATION
 APD .m                  43.00:  DEPTH ABOVE PD
 LATI.deg                40.13:  LATITUDE
 LONG.deg                51.22:  LONGITUDE
 UTMY.m             4443793.85:  UTM Y
 UTMX.m              519005.06:  UTM X
 WHEW.m                 -11.57:  WELL HEAD E/W
 WHNS.m                   8.57:  WELL HEAD N/S
 VSEW.m                 -11.57:  VERT SEC E/W
 VSNS.m                   8.57:  VERT SEC N/S
 DFWL.m                   0.00:  DISTANCE FWL
 DFSL.m                   0.00:  DISTANCE FSL
 VSDR.deg               299.34:  VERT SEC DIRECT
 GVFD.g                   1.00:  GRAVITY FIELD
 AZTC.deg                 6.36:  AZM TOTAL CORR
 MFLD.nT              50391.00:  MAGNETIC FIELD
 MDIP.deg                59.65:  MAGNETIC DIP
 MDEC.deg                 6.48:  MAGNETIC DECL
 GRDC.deg                 0.12:  GRID CORRECTION
 DEP .m                 334.96:  DEPTH
 TDD .m                1407.26:  TOTAL DEPTH (DRILLER)
 EKB .m                  43.00:  KB ELEVATION
 EDF .m                  43.00:  DF ELEVATION
 TDL .m                 228.00:  TOTAL DEPTH (LOGGER)
 VSC .                       0:  VS TO CLOSURE
 MAGU.                 1854484:  MAGUTM CHECKSUM
~Parameter Information Block
#MNEM.UNIT       Value        Description
#---------     -----------    ---------------------------
 AV  .mps                 4.00:  Ann Velocity 
 AVMX.mps                 4.73:  Max Ann Veloc 
 AZIF.deg               304.48:  Azm, Final 
 BHAT.        Rotary Steerable:  BHA Type 
 BREV.rev            257300.00:  Rev Bit Total 
 BROT.°/30m               0.00:  Build Rotating 
 BS  .in                  8.50:  Bit Size 
 BSZ .in                  8.50:  Bit Size 
 BTPL.psig              589.00:  Bit Press Loss 
 CABU.                      No:  Customer Abuse 
 CGEO.          Mubariz ghayev:  Customer Geo 
 COMM.                     ü>:  Run Comments 1 
 TCS .hr                 64.25:  Time Ciculation Ended 
 CV  .mps                 3.50:  Crit Velocity 
 CVMX.mps                 4.52:  Max Crit Veloc 
 DD1 .             Aziz Aliyev:  Direct Drillr 1 
 DD2 .         Intigam Rahimov:  Direct Drillr 2 
 DD3 .          Rashad Habibov:  Direct Drillr 3 
 DDSV.               Geo-Pilot:  DD Service 
 DEFF.%                  98.00:  % Det Eff 
 DLRX.°/30m               0.00:  Dogleg Rot Max 
 DLSO.°/30m               0.00:  Dogleg Oriented 
 DLSX.°/30m               0.00:  Dogleg Str Max 
 DRET.      10.45.04 08-May-21:  Drill End Time 
 DRST.      03.30.04 04-May-21:  Drill Start Tim 
 DTIM.hr                 14.97:  Time Drilling 
 EDEP.m                4640.01:  End Depth 
 ENG1.         Dail Mahammadov:  Engineer 1 
 ENG2.           Eldar Hajiyev:  Engineer 2 
 ENG3.       Bakhtiar Jabbarli:  Engineer 3 
 ENG4.       Natik Hasanagayev:  Engineer 4 
 ETIM.      09.30.04 14-May-21:  End Time 
 FLOI.gpm               460.00:  Flow In 
 FLON.gpm               200.00:  Flow In Min 
 FLOS.cptm                0.00:  Fluid Loss 
 FLOX.gpm               505.00:  Flow In Max 
 HFLO.                      No:  High Flow 
 HPRE.                      No:  High Pressure 
 HTEM.                      No:  High Temp 
 HYDO.m                   1.80:  Hydro Offset 
 IFIN.deg                66.71:  Inc, Final 
 IMAX.deg                67.03:  Inc Max 
 IMIN.deg                66.63:  Inc Min 
 IMND.m                4550.58:  Inc Min Depth 
 IMXD.m                4439.01:  Inc Max Depth 
 JARR.                      No:  Jarring 
 LETM.      10.45.04 08-May-21:  Log End Time 
 LOST.hr                     0:  Lost Rig Time 
 LSTM.      03.30.04 04-May-21:  Log Start Time 
 MDCL.ppm             37000.00:  Mud Chlorides 
 MDES.     Inversion Oil/Synthetic:  Mud Desc 
 DFD .sg                  1.38:  Mud Density 
 MDMN.sg                  1.35:  Dens Mud Min 
 MDMX.sg                  1.40:  Dens Mud Max 
 MOIL.                   57.40:  Run Mud Oil % 
 MOWR.                   70:30:  Run Mud OWR 
 MSND.                    0.00:  Run Mud Sand % 
 MSOL.                   18.00:  Run Mud Solids% 
 DFV .spqt               71.00:  Mud Viscosity 
 MWOD.in                  6.75:  MWD Tool OD 
 MWSI.                      No:  Serv Intrp, MWD 
 OTIM.hr                242.76:  Time Operating 
 PCON.           Look Like New:  Pad Condition 
 PMAX.psia            12183.92:  Press Op, Max 
 PV  .cP                 27.00:  Mud PV 
 RUN .                    1300:  Run Number 
 ROPA.m/hr               15.00:  ROP Avg 
 ROPN.m/hr                9.00:  ROP Min 
 ROPX.m/hr               19.00:  ROP Max 
 RPMA.rpm               120.00:  RPM Surface Avg 
 RPMN.rpm               100.00:  RPM Surface Min 
 RPMX.rpm               120.00:  RPM Surface Max 
 RRUN.                    1300:  Rig Run Number 
 RTIM.hr                  5.00:  Time Reaming 
 SAZI.deg               304.73:  Azm, Start 
 SDEP.m                4412.01:  Start Depth 
 SIDD.                      No:  Serv Intrp, DD 
 SINC.deg                66.82:  Inc, Start 
 SPPA.psig             2800.00:  SPP Avg 
 SPPN.psig             2610.00:  SPP Min 
 SPPX.psig             3100.00:  SPP Max 
 STIM.      03.30.00 04-May-21:  Start Time 
 SVCS.                 DD, MWD:  Services 
 SVER.                    9.20:  Sperry Version 
 TDAT.m                 228.00:  Tot Depth Attmp 
 TDDF.                      No:  Trip for DD 
 TDLG.m                 228.00:  Tot Depth Loggd 
 TFF .                      No:  Trip for Fail 
 TQAA.f-kp               15.00:  Torque Abs Avg 
 TQAN.f-kp               12.00:  Torque Abs Min 
 TQAX.f-kp               22.00:  Torque Abs Max 
 TRRT.°/30m               0.00:  Turn Rotating 
 MRT .                    HCIM:  Maximum Recorded Temperature 
 TTMX.degC               90.20:  Max Tool Temp 
 VS01.                90627813:  Virtual Str1 SN 
 VS02.                90634712:  Virtual Str2 SN 
 VS03.                90643410:  Virtual Str3 SN 
 VS04.                90634712:  Virtual Str4 SN 
 WBMN.klb                 9.00:  WOB Min 
 WITN.        Elmaddin Rahimov:  Customer Rep 
 WITN.         Haytham Mostafa:  Customer Rep 2 
 WOBA.klb                15.00:  WOB Avg 
 WOBX.klb                23.00:  WOB Max 
 YP  .lhf2               29.00:  Yield Point 
~Curve Information Block
#MNEM.UNIT                 API CODE     Curve Description
#---------               -----------    ---------------------------
 TIME.HHMMSS            00 000 000 000:  GT Time & Date
 GTDEPTH.m              00 000 000 000:  GT Depth
 GTPQH.psia             00 000 000 000:  GT HR Quartz Pressure
 GTTQ.degC              00 000 000 000:  GT Quartz Temperature
 GTTN.NONE              00 000 000 000:  GT Test Number
 GTET.sec               00 000 000 000:  GT Elapsed Test Time
 GTTVD.m                00 000 000 000:  GT True Vertical Depth
#Other Information
#
#WARRANTY: Halliburton will use its best efforts to furnish customers with 
#accurate information and interpretations that are part of, and incident to, the services 
#provided.  However, Halliburton cannot and does not warrant the accuracy 
#or correctness of such information and interpretations.  Under no circumstances should any 
#such information or interpretation be relied upon as the sole basis for any drilling, 
#completion, production, or financial decision or any procedure involving any risk to the 
#safety of any drilling venture, drilling rig or its crew or any other third party.  The 
#Customer has full responsibility for all drilling, completion and production operation.  
#Halliburton makes no representations or warranties, either expressed or 
#implied, including, but not limited to, the implied warranties of merchantability or fitness 
#for a particular purpose, with respect to the services rendered.  In no event will 
#Halliburton be liable for failure to obtain any particular results or for 
#any damages, including, but not limited to, indirect, special or consequential damages, 
#resulting from the use of any information or interpretation provided by Halliburton.
#
~A           TIME           GTDEPTH  GTPQH  GTTQ  GTTN   GTET   GTTVD  
# ...
   03:21:04.324.09-May-2021 4480.01 4113.17 67.54 12.00 135.62 2964.27
   03:21:04.524.09-May-2021 4480.01 4113.08 67.54 12.00 135.82 2964.27
   03:21:04.724.09-May-2021 4480.01 4113.11 67.54 12.00 136.02 2964.27
   03:21:04.924.09-May-2021 4480.01 4113.11 67.54 12.00 136.22 2964.27
   03:21:05.124.09-May-2021 4480.01 4113.07 67.54 12.00 136.42 2964.27
   03:21:05.324.09-May-2021 4480.01 4113.13 67.54 12.00 136.62 2964.27
   03:21:05.524.09-May-2021 4480.01 4113.10 67.54 12.00 136.82 2964.27
   03:21:05.724.09-May-2021 4480.01 4113.10 67.54 12.00 137.02 2964.27
   03:21:05.924.09-May-2021 4480.01 4113.10 67.54 12.00 137.22 2964.27
   03:21:06.124.09-May-2021 4480.01 4113.12 67.54 12.00 137.42 2964.27
   03:21:06.324.09-May-2021 4480.01 4113.12 67.54 12.00 137.62 2964.27
   03:21:06.524.09-May-2021 4480.01 4113.11 67.54 12.00 137.82 2964.27
   03:21:06.724.09-May-2021 4480.01 4113.12 67.54 12.00 138.02 2964.27
   03:21:06.924.09-May-2021 4480.01 4113.12 67.54 12.00 138.22 2964.27
   03:21:07.124.09-May-2021 4480.01 4113.11 67.54 12.00 138.42 2964.27
   03:21:07.324.09-May-2021 4480.01 4113.16 67.54 12.00 138.62 2964.27
   03:21:07.524.09-May-2021 4480.01 4113.17 67.54 12.00 138.82 2964.27
   03:21:07.724.09-May-2021 4480.01 4113.07 67.54 12.00 139.02 2964.27
   03:21:07.924.09-May-2021 4480.01 4113.07 67.54 12.00 139.22 2964.27
   03:21:08.124.09-May-2021 4480.01 4113.12 67.54 12.00 139.42 2964.27
   03:21:08.324.09-May-2021 4480.01 4113.11 67.54 12.00 139.62 2964.27
   03:21:08.524.09-May-2021 4480.01 4113.11 67.54 12.00 139.82 2964.27
   03:21:08.724.09-May-2021 4480.01 4113.11 67.54 12.00 140.02 2964.27
   03:21:08.925.09-May-2021 4480.01 4113.11 67.54 12.00 140.22 2964.27
   03:21:09.125.09-May-2021 4480.01 4113.11 67.54 12.00 140.42 2964.27
   03:21:09.325.09-May-2021 4480.01 4113.11 67.54 12.00 140.62 2964.27
   03:21:09.525.09-May-2021 4480.01 4113.12 67.54 12.00 140.82 2964.27
   03:21:09.725.09-May-2021 4480.01 4113.14 67.54 12.00 141.02 2964.27
   03:21:09.925.09-May-2021 4480.01 4113.14 67.54 12.00 141.22 2964.27
   03:21:10.125.09-May-2021 4480.01 4113.17 67.54 12.00 141.42 2964.27
   03:21:10.325.09-May-2021 4480.01 4113.10 67.54 12.00 141.62 2964.27
   03:21:10.525.09-May-2021 4480.01 4113.11 67.54 12.00 141.82 2964.27
   03:21:10.725.09-May-2021 4480.01 4113.16 67.54 12.00 142.02 2964.27
   03:21:10.925.09-May-2021 4480.01 4113.16 67.54 12.00 142.22 2964.27
   03:21:11.125.09-May-2021 4480.01 4113.15 67.54 12.00 142.42 2964.27
   03:21:11.325.09-May-2021 4480.01 4113.09 67.54 12.00 142.62 2964.27
   03:21:11.525.09-May-2021 4480.01 4113.09 67.54 12.00 142.82 2964.27
   03:21:11.725.09-May-2021 4480.01 4113.12 67.54 12.00 143.02 2964.27
   03:21:11.925.09-May-2021 4480.01 4113.12 67.54 12.00 143.22 2964.27
   03:21:12.125.09-May-2021 4480.01 4113.08 67.54 12.00 143.42 2964.27
   03:21:12.325.09-May-2021 4480.01 4113.09 67.54 12.00 143.62 2964.27
   03:21:12.525.09-May-2021 4480.01 4113.12 67.54 12.00 143.82 2964.27
   03:21:12.725.09-May-2021 4480.01 4113.10 67.54 12.00 144.02 2964.27
   03:21:12.925.09-May-2021 4480.01 4113.10 67.54 12.00 144.22 2964.27
   03:21:13.125.09-May-2021 4480.01 4113.11 67.54 12.00 144.42 2964.27
   03:21:13.325.09-May-2021 4480.01 4113.11 67.54 12.00 144.62 2964.27
   03:21:13.525.09-May-2021 4480.01 4113.11 67.54 12.00 144.82 2964.27
   03:21:13.725.09-May-2021 4480.01 4113.11 67.54 12.00 145.02 2964.27
   03:21:13.925.09-May-2021 4480.01 4113.11 67.54 12.00 145.22 2964.27
   03:21:14.125.09-May-2021 4480.01 4113.11 67.54 12.00 145.42 2964.27
   03:21:14.325.09-May-2021 4480.01 4113.20 67.54 12.00 145.62 2964.27
   03:21:14.525.09-May-2021 4480.01 4113.05 67.54 12.00 145.82 2964.27
   03:21:14.725.09-May-2021 4480.01 4113.17 67.54 12.00 146.02 2964.27
   03:21:14.926.09-May-2021 4480.01 4113.17 67.54 12.00 146.22 2964.27
   03:21:15.126.09-May-2021 4480.01 4113.12 67.54 12.00 146.42 2964.27
   03:21:15.326.09-May-2021 4480.01 4113.10 67.54 12.00 146.62 2964.27
   03:21:15.526.09-May-2021 4480.01 4113.12 67.54 12.00 146.82 2964.27
   03:21:15.726.09-May-2021 4480.01 4113.11 67.54 12.00 147.02 2964.27
   03:21:15.926.09-May-2021 4480.01 4113.11 67.54 12.00 147.22 2964.27
   03:21:16.126.09-May-2021 4480.01 4113.11 67.54 12.00 147.42 2964.27
   03:21:16.326.09-May-2021 4480.01 4113.11 67.54 12.00 147.62 2964.27
   03:21:16.526.09-May-2021 4480.01 4113.11 67.54 12.00 147.82 2964.27
   03:21:16.726.09-May-2021 4480.01 4113.11 67.54 12.00 148.02 2964.27
   03:21:16.926.09-May-2021 4480.01 4113.11 67.54 12.00 148.22 2964.27
   03:21:17.126.09-May-2021 4480.01 4113.12 67.54 12.00 148.42 2964.27
   03:21:17.326.09-May-2021 4480.01 4113.09 67.54 12.00 148.62 2964.27
   03:21:17.526.09-May-2021 4480.01 4113.15 67.54 12.00 148.82 2964.27
   03:21:17.726.09-May-2021 4480.01 3992.72 67.54 12.00 149.02 2964.27
   03:21:17.926.09-May-2021 4480.01 3992.72 67.54 12.00 149.22 2964.27
   03:21:18.126.09-May-2021 4480.01 3717.59 67.54 12.00 149.42 2964.27
   03:21:18.326.09-May-2021 4480.01 3682.46 67.54 12.00 149.63 2964.27
   03:21:18.526.09-May-2021 4480.01 3671.68 67.54 12.00 149.83 2964.27
   03:21:18.726.09-May-2021 4480.01 3662.48 67.54 12.00 150.03 2964.27
   03:21:18.926.09-May-2021 4480.01 3662.48 67.54 12.00 150.23 2964.27
   03:21:19.126.09-May-2021 4480.01 3647.97 67.54 12.00 150.43 2964.27
   03:21:19.326.09-May-2021 4480.01 3636.24 67.54 12.00 150.63 2964.27
   03:21:19.526.09-May-2021 4480.01 3626.93 67.54 12.00 150.83 2964.27
   03:21:19.726.09-May-2021 4480.01 3615.67 67.54 12.00 151.03 2964.27
   03:21:19.926.09-May-2021 4480.01 3615.67 67.54 12.00 151.23 2964.27
   03:21:20.126.09-May-2021 4480.01 3604.04 67.53 12.00 151.43 2964.27
   03:21:20.326.09-May-2021 4480.01 3598.79 67.53 12.00 151.63 2964.27
   03:21:20.526.09-May-2021 4480.01 3597.45 67.53 12.00 151.83 2964.27
   03:21:20.726.09-May-2021 4480.01 3589.34 67.53 12.00 152.03 2964.27
   03:21:20.927.09-May-2021 4480.01 3589.34 67.53 12.00 152.23 2964.27
   03:21:21.127.09-May-2021 4480.01 3587.52 67.53 12.00 152.43 2964.27
   03:21:21.327.09-May-2021 4480.01 3586.16 67.53 12.00 152.63 2964.27
   03:21:21.527.09-May-2021 4480.01 3589.04 67.53 12.00 152.83 2964.27
   03:21:21.727.09-May-2021 4480.01 3590.19 67.53 12.00 153.03 2964.27
   03:21:21.927.09-May-2021 4480.01 3590.19 67.53 12.00 153.23 2964.27
   03:21:22.127.09-May-2021 4480.01 3584.27 67.53 12.00 153.43 2964.27
   03:21:22.327.09-May-2021 4480.01 3578.87 67.53 12.00 153.63 2964.27
   03:21:22.527.09-May-2021 4480.01 3574.42 67.53 12.00 153.83 2964.27
   03:21:22.727.09-May-2021 4480.01 3570.12 67.53 12.00 154.03 2964.27
   03:21:22.927.09-May-2021 4480.01 3570.12 67.53 12.00 154.23 2964.27
   03:21:23.127.09-May-2021 4480.01 3561.27 67.53 12.00 154.43 2964.27
   03:21:23.327.09-May-2021 4480.01 3563.72 67.53 12.00 154.63 2964.27
   03:21:23.527.09-May-2021 4480.01 3569.58 67.53 12.00 154.83 2964.27
   03:21:23.727.09-May-2021 4480.01 3558.96 67.53 12.00 155.03 2964.27
   03:21:23.927.09-May-2021 4480.01 3558.96 67.53 12.00 155.23 2964.27
   03:21:24.127.09-May-2021 4480.01 3552.01 67.53 12.00 155.43 2964.27
   03:21:24.327.09-May-2021 4480.01 3553.88 67.53 12.00 155.63 2964.27
   03:21:24.527.09-May-2021 4480.01 3546.67 67.53 12.00 155.83 2964.27
   03:21:24.727.09-May-2021 4480.01 3545.77 67.53 12.00 156.03 2964.27
   03:21:24.927.09-May-2021 4480.01 3545.77 67.53 12.00 156.23 2964.27
   03:21:25.127.09-May-2021 4480.01 3514.54 67.53 12.00 156.43 2964.27
   03:21:25.327.09-May-2021 4480.01 3470.01 67.53 12.00 156.63 2964.27
   03:21:25.527.09-May-2021 4480.01 3447.90 67.53 12.00 156.83 2964.27
   03:21:25.727.09-May-2021 4480.01 3449.89 67.53 12.00 157.03 2964.27
   03:21:25.927.09-May-2021 4480.01 3449.89 67.53 12.00 157.23 2964.27
   03:21:26.127.09-May-2021 4480.01 3450.98 67.53 12.00 157.43 2964.27
   03:21:26.327.09-May-2021 4480.01 3423.15 67.53 12.00 157.63 2964.27
   03:21:26.527.09-May-2021 4480.01 3411.87 67.53 12.00 157.83 2964.27
   03:21:26.728.09-May-2021 4480.01 3408.64 67.52 12.00 158.03 2964.27
