~Version Information
 VERS.                  2.0:   CWLS log ASCII Standard -VERSION 2.0
 WRAP.                   NO:   One line per depth step
~Well Information Block
#MNEM.UNIT     VALUE/NAME     DESCRIPTION
#---------     -----------    ---------------------------
 STRT.S             23:15:39 08-May-21: START TIME 23:15:39 08-May-21
 STOP.S             23:22:30 08-May-21: STOP TIME  23:22:30 08-May-21
 STEP.S                   0.00: STEP TIME
 NULL.                 -999.25: NULL VALUE
 PROV.                    Baku:  PROVINCE
 STAT.                    Baku:  STATE NAME
 SON .        AZ-XX-0906571588:  JOB NUMBER
 WTYP.                Deviated:  WELL TYPE
 COMP.     BP Exploration (Caspian Sea) ltd:  COMPANY
 BASE.              Azerbaijan:  LOGGING EQUIPMENT BASE LOCATION
 REGN.                   EESSA:  REGION
 CTRY.              Azerbaijan:  COUNTRY NAME
 FLD .                     ACG:  FIELD NAME
 WELL.                     J28:  WELL NAME
 RIG .             West Chirag:  RIG NAME
 DMF .             Drill Floor:  DRILL MEAS FROM
 PDAT.       Caspian Sea Level:  PERMANENT DATUM
 HPTY.       Minimum Curvature:  HOLE POS TYPE
 MDS .        Operator Entered:  MAG DATA SOURCE
 NREF.                    Grid:  NORTH REFERENCE
 SRVC.          TURAN DRILLING:  CONTRACTOR
 JOBN.        AZ-XX-0906571588:  JOB TICKET NUMB
 DCON.     Halliburton Sperry Drilling:  DIRECTNL CONTR
 STIM.      00.44.00 11-Feb-21:  START TIME
 DATE.      00.00.00 05-May-21:  END TIME
 SPUD.               13-Feb-21:  SPUD DATE
 MWDS.                    Baku:  MWD SHOP
 DOE .                     N/A:  DOE NUMBER
 UNIT.                     N/A:  LOGGING EQUIPMENT ID
 UWI .                     N/A:  UNIQUE WELL IDENTIFIER
 API .                     N/A:  API NUMBER
 CNTY.                        :  COUNTY
 LOC .                        :  LOCATION
 LMF .             Drill Floor:  LOG MEASURED FROM
 TVDS.m                  43.00:  TVDSS CORRECTN
 SDEP.m                 341.00:  START DEPTH
 EGL .m                   0.00:  GROUND ELEVATION
 WDMS.m                 169.80:  WD ELEV
 AGAP.m                  43.00:  AIR GAP
 EPD .m                   0.00:  ELEVATION
 APD .m                  43.00:  DEPTH ABOVE PD
 LATI.deg                40.13:  LATITUDE
 LONG.deg                51.22:  LONGITUDE
 UTMY.m             4443793.85:  UTM Y
 UTMX.m              519005.06:  UTM X
 WHEW.m                 -11.57:  WELL HEAD E/W
 WHNS.m                   8.57:  WELL HEAD N/S
 VSEW.m                 -11.57:  VERT SEC E/W
 VSNS.m                   8.57:  VERT SEC N/S
 DFWL.m                   0.00:  DISTANCE FWL
 DFSL.m                   0.00:  DISTANCE FSL
 VSDR.deg               299.34:  VERT SEC DIRECT
 GVFD.g                   1.00:  GRAVITY FIELD
 AZTC.deg                 6.36:  AZM TOTAL CORR
 MFLD.nT              50391.00:  MAGNETIC FIELD
 MDIP.deg                59.65:  MAGNETIC DIP
 MDEC.deg                 6.48:  MAGNETIC DECL
 GRDC.deg                 0.12:  GRID CORRECTION
 DEP .m                 334.96:  DEPTH
 TDD .m                1407.26:  TOTAL DEPTH (DRILLER)
 EKB .m                  43.00:  KB ELEVATION
 EDF .m                  43.00:  DF ELEVATION
 TDL .m                 228.00:  TOTAL DEPTH (LOGGER)
 VSC .                       0:  VS TO CLOSURE
 MAGU.                 1854484:  MAGUTM CHECKSUM
~Parameter Information Block
#MNEM.UNIT       Value        Description
#---------     -----------    ---------------------------
 AV  .mps                 4.00:  Ann Velocity 
 AVMX.mps                 4.73:  Max Ann Veloc 
 AZIF.deg               304.48:  Azm, Final 
 BHAT.        Rotary Steerable:  BHA Type 
 BREV.rev            257300.00:  Rev Bit Total 
 BROT.°/30m               0.00:  Build Rotating 
 BS  .in                  8.50:  Bit Size 
 BSZ .in                  8.50:  Bit Size 
 BTPL.psig              589.00:  Bit Press Loss 
 CABU.                      No:  Customer Abuse 
 CGEO.          Mubariz ghayev:  Customer Geo 
 COMM.                     dˆ[:  Run Comments 1 
 TCS .hr                 64.25:  Time Ciculation Ended 
 CV  .mps                 3.50:  Crit Velocity 
 CVMX.mps                 4.52:  Max Crit Veloc 
 DD1 .             Aziz Aliyev:  Direct Drillr 1 
 DD2 .         Intigam Rahimov:  Direct Drillr 2 
 DD3 .          Rashad Habibov:  Direct Drillr 3 
 DDSV.               Geo-Pilot:  DD Service 
 DEFF.%                  98.00:  % Det Eff 
 DLRX.°/30m               0.00:  Dogleg Rot Max 
 DLSO.°/30m               0.00:  Dogleg Oriented 
 DLSX.°/30m               0.00:  Dogleg Str Max 
 DRET.      10.45.04 08-May-21:  Drill End Time 
 DRST.      03.30.04 04-May-21:  Drill Start Tim 
 DTIM.hr                 14.97:  Time Drilling 
 EDEP.m                4640.01:  End Depth 
 ENG1.         Dail Mahammadov:  Engineer 1 
 ENG2.           Eldar Hajiyev:  Engineer 2 
 ENG3.       Bakhtiar Jabbarli:  Engineer 3 
 ENG4.       Natik Hasanagayev:  Engineer 4 
 ETIM.      09.30.04 14-May-21:  End Time 
 FLOI.gpm               460.00:  Flow In 
 FLON.gpm               200.00:  Flow In Min 
 FLOS.cptm                0.00:  Fluid Loss 
 FLOX.gpm               505.00:  Flow In Max 
 HFLO.                      No:  High Flow 
 HPRE.                      No:  High Pressure 
 HTEM.                      No:  High Temp 
 HYDO.m                   1.80:  Hydro Offset 
 IFIN.deg                66.71:  Inc, Final 
 IMAX.deg                67.03:  Inc Max 
 IMIN.deg                66.63:  Inc Min 
 IMND.m                4550.58:  Inc Min Depth 
 IMXD.m                4439.01:  Inc Max Depth 
 JARR.                      No:  Jarring 
 LETM.      10.45.04 08-May-21:  Log End Time 
 LOST.hr                     0:  Lost Rig Time 
 LSTM.      03.30.04 04-May-21:  Log Start Time 
 MDCL.ppm             37000.00:  Mud Chlorides 
 MDES.     Inversion Oil/Synthetic:  Mud Desc 
 DFD .sg                  1.38:  Mud Density 
 MDMN.sg                  1.35:  Dens Mud Min 
 MDMX.sg                  1.40:  Dens Mud Max 
 MOIL.                   57.40:  Run Mud Oil % 
 MOWR.                   70:30:  Run Mud OWR 
 MSND.                    0.00:  Run Mud Sand % 
 MSOL.                   18.00:  Run Mud Solids% 
 DFV .spqt               71.00:  Mud Viscosity 
 MWOD.in                  6.75:  MWD Tool OD 
 MWSI.                      No:  Serv Intrp, MWD 
 OTIM.hr                242.76:  Time Operating 
 PCON.           Look Like New:  Pad Condition 
 PMAX.psia            12183.92:  Press Op, Max 
 PV  .cP                 27.00:  Mud PV 
 RUN .                    1300:  Run Number 
 ROPA.m/hr               15.00:  ROP Avg 
 ROPN.m/hr                9.00:  ROP Min 
 ROPX.m/hr               19.00:  ROP Max 
 RPMA.rpm               120.00:  RPM Surface Avg 
 RPMN.rpm               100.00:  RPM Surface Min 
 RPMX.rpm               120.00:  RPM Surface Max 
 RRUN.                    1300:  Rig Run Number 
 RTIM.hr                  5.00:  Time Reaming 
 SAZI.deg               304.73:  Azm, Start 
 SDEP.m                4412.01:  Start Depth 
 SIDD.                      No:  Serv Intrp, DD 
 SINC.deg                66.82:  Inc, Start 
 SPPA.psig             2800.00:  SPP Avg 
 SPPN.psig             2610.00:  SPP Min 
 SPPX.psig             3100.00:  SPP Max 
 STIM.      03.30.00 04-May-21:  Start Time 
 SVCS.                 DD, MWD:  Services 
 SVER.                    9.20:  Sperry Version 
 TDAT.m                 228.00:  Tot Depth Attmp 
 TDDF.                      No:  Trip for DD 
 TDLG.m                 228.00:  Tot Depth Loggd 
 TFF .                      No:  Trip for Fail 
 TQAA.f-kp               15.00:  Torque Abs Avg 
 TQAN.f-kp               12.00:  Torque Abs Min 
 TQAX.f-kp               22.00:  Torque Abs Max 
 TRRT.°/30m               0.00:  Turn Rotating 
 MRT .                    HCIM:  Maximum Recorded Temperature 
 TTMX.degC               90.20:  Max Tool Temp 
 VS01.                90627813:  Virtual Str1 SN 
 VS02.                90634712:  Virtual Str2 SN 
 VS03.                90643410:  Virtual Str3 SN 
 VS04.                90634712:  Virtual Str4 SN 
 WBMN.klb                 9.00:  WOB Min 
 WITN.        Elmaddin Rahimov:  Customer Rep 
 WITN.         Haytham Mostafa:  Customer Rep 2 
 WOBA.klb                15.00:  WOB Avg 
 WOBX.klb                23.00:  WOB Max 
 YP  .lhf2               29.00:  Yield Point 
~Curve Information Block
#MNEM.UNIT                 API CODE     Curve Description
#---------               -----------    ---------------------------
 TIME.HHMMSS            00 000 000 000:  GT Time & Date
 GTDEPTH.m              00 000 000 000:  GT Depth
 GTPQH.psia             00 000 000 000:  GT HR Quartz Pressure
 GTTQ.degC              00 000 000 000:  GT Quartz Temperature
 GTTN.NONE              00 000 000 000:  GT Test Number
 GTET.sec               00 000 000 000:  GT Elapsed Test Time
 GTTVD.m                00 000 000 000:  GT True Vertical Depth
#Other Information
#
#WARRANTY: Halliburton will use its best efforts to furnish customers with 
#accurate information and interpretations that are part of, and incident to, the services 
#provided.  However, Halliburton cannot and does not warrant the accuracy 
#or correctness of such information and interpretations.  Under no circumstances should any 
#such information or interpretation be relied upon as the sole basis for any drilling, 
#completion, production, or financial decision or any procedure involving any risk to the 
#safety of any drilling venture, drilling rig or its crew or any other third party.  The 
#Customer has full responsibility for all drilling, completion and production operation.  
#Halliburton makes no representations or warranties, either expressed or 
#implied, including, but not limited to, the implied warranties of merchantability or fitness 
#for a particular purpose, with respect to the services rendered.  In no event will 
#Halliburton be liable for failure to obtain any particular results or for 
#any damages, including, but not limited to, indirect, special or consequential damages, 
#resulting from the use of any information or interpretation provided by Halliburton.
#
~A           TIME           GTDEPTH  GTPQH  GTTQ  GTTN  GTET   GTTVD  
# ...
   23:18:43.601.08-May-2021 4549.51 3248.87 68.57 5.00 183.94 2991.64
   23:18:43.801.08-May-2021 4549.51 3248.87 68.57 5.00 184.14 2991.64
   23:18:44.001.08-May-2021 4549.51 3248.85 68.57 5.00 184.34 2991.64
   23:18:44.201.08-May-2021 4549.51 3248.86 68.57 5.00 184.54 2991.64
   23:18:44.401.08-May-2021 4549.51 3248.85 68.57 5.00 184.74 2991.64
   23:18:44.601.08-May-2021 4549.51 3248.86 68.57 5.00 184.94 2991.64
   23:18:44.801.08-May-2021 4549.51 3248.86 68.57 5.00 185.14 2991.64
   23:18:45.001.08-May-2021 4549.51 3248.84 68.57 5.00 185.34 2991.64
   23:18:45.201.08-May-2021 4549.51 3248.87 68.57 5.00 185.54 2991.64
   23:18:45.400.08-May-2021 4549.51 3248.86 68.57 5.00 185.74 2991.64
   23:18:45.600.08-May-2021 4549.51 3248.82 68.57 5.00 185.94 2991.64
   23:18:45.800.08-May-2021 4549.51 3248.82 68.57 5.00 186.14 2991.64
   23:18:46.000.08-May-2021 4549.51 3248.81 68.57 5.00 186.34 2991.64
   23:18:46.200.08-May-2021 4549.51 3248.90 68.57 5.00 186.54 2991.64
   23:18:46.400.08-May-2021 4549.51 3248.81 68.57 5.00 186.74 2991.64
   23:18:46.600.08-May-2021 4549.51 3248.82 68.57 5.00 186.94 2991.64
   23:18:46.800.08-May-2021 4549.51 3248.82 68.57 5.00 187.14 2991.64
   23:18:47.000.08-May-2021 4549.51 3248.78 68.57 5.00 187.34 2991.64
   23:18:47.200.08-May-2021 4549.51 3248.83 68.57 5.00 187.54 2991.64
   23:18:47.400.08-May-2021 4549.51 3248.80 68.57 5.00 187.74 2991.64
   23:18:47.600.08-May-2021 4549.51 3248.89 68.57 5.00 187.94 2991.64
   23:18:47.800.08-May-2021 4549.51 3248.89 68.57 5.00 188.14 2991.64
   23:18:48.000.08-May-2021 4549.51 3248.81 68.57 5.00 188.34 2991.64
   23:18:48.200.08-May-2021 4549.51 3248.83 68.57 5.00 188.54 2991.64
   23:18:48.400.08-May-2021 4549.51 3248.82 68.57 5.00 188.74 2991.64
   23:18:48.600.08-May-2021 4549.51 3248.81 68.57 5.00 188.94 2991.64
   23:18:48.799.08-May-2021 4549.51 3248.81 68.57 5.00 189.14 2991.64
   23:18:48.999.08-May-2021 4549.51 3248.81 68.57 5.00 189.34 2991.64
   23:18:49.199.08-May-2021 4549.51 3248.82 68.57 5.00 189.54 2991.64
   23:18:49.399.08-May-2021 4549.51 3248.81 68.57 5.00 189.74 2991.64
   23:18:49.599.08-May-2021 4549.51 3248.81 68.57 5.00 189.94 2991.64
   23:18:49.799.08-May-2021 4549.51 3248.81 68.57 5.00 190.14 2991.64
   23:18:49.999.08-May-2021 4549.51 3248.79 68.57 5.00 190.34 2991.64
   23:18:50.199.08-May-2021 4549.51 3248.87 68.57 5.00 190.54 2991.64
   23:18:50.399.08-May-2021 4549.51 3248.78 68.57 5.00 190.74 2991.64
   23:18:50.599.08-May-2021 4549.51 3248.80 68.57 5.00 190.94 2991.64
   23:18:50.799.08-May-2021 4549.51 3248.80 68.57 5.00 191.14 2991.64
   23:18:50.999.08-May-2021 4549.51 3248.79 68.57 5.00 191.34 2991.64
   23:18:51.199.08-May-2021 4549.51 3248.80 68.57 5.00 191.54 2991.64
   23:18:51.399.08-May-2021 4549.51 3248.79 68.57 5.00 191.74 2991.64
   23:18:51.599.08-May-2021 4549.51 3248.80 68.57 5.00 191.94 2991.64
   23:18:51.799.08-May-2021 4549.51 3248.80 68.57 5.00 192.14 2991.64
   23:18:51.998.08-May-2021 4549.51 3248.79 68.57 5.00 192.34 2991.64
   23:18:52.198.08-May-2021 4549.51 3248.79 68.57 5.00 192.54 2991.64
   23:18:52.398.08-May-2021 4549.51 3248.79 68.57 5.00 192.74 2991.64
   23:18:52.598.08-May-2021 4549.51 3248.77 68.57 5.00 192.94 2991.64
   23:18:52.798.08-May-2021 4549.51 3248.77 68.57 5.00 193.14 2991.64
   23:18:52.998.08-May-2021 4549.51 3248.76 68.57 5.00 193.34 2991.64
   23:18:53.198.08-May-2021 4549.51 3248.77 68.57 5.00 193.54 2991.64
   23:18:53.398.08-May-2021 4549.51 3248.80 68.57 5.00 193.74 2991.64
   23:18:53.598.08-May-2021 4549.51 3248.71 68.57 5.00 193.94 2991.64
   23:18:53.798.08-May-2021 4549.51 3248.71 68.57 5.00 194.14 2991.64
   23:18:53.998.08-May-2021 4549.51 3248.76 68.57 5.00 194.34 2991.64
   23:18:54.198.08-May-2021 4549.51 3248.78 68.57 5.00 194.54 2991.64
   23:18:54.398.08-May-2021 4549.51 3248.75 68.57 5.00 194.74 2991.64
   23:18:54.598.08-May-2021 4549.51 3248.82 68.57 5.00 194.94 2991.64
   23:18:54.798.08-May-2021 4549.51 3248.82 68.57 5.00 195.14 2991.64
   23:18:54.998.08-May-2021 4549.51 3248.70 68.57 5.00 195.34 2991.64
   23:18:55.197.08-May-2021 4549.51 3248.86 68.57 5.00 195.54 2991.64
   23:18:55.397.08-May-2021 4549.51 3248.75 68.57 5.00 195.74 2991.64
   23:18:55.597.08-May-2021 4549.51 3248.77 68.57 5.00 195.94 2991.64
   23:18:55.797.08-May-2021 4549.51 3248.77 68.57 5.00 196.14 2991.64
   23:18:55.997.08-May-2021 4549.51 3248.76 68.57 5.00 196.34 2991.64
   23:18:56.197.08-May-2021 4549.51 3248.77 68.57 5.00 196.54 2991.64
   23:18:56.397.08-May-2021 4549.51 3248.76 68.57 5.00 196.74 2991.64
   23:18:56.597.08-May-2021 4549.51 3248.76 68.57 5.00 196.94 2991.64
   23:18:56.797.08-May-2021 4549.51 3248.76 68.57 5.00 197.14 2991.64
   23:18:56.997.08-May-2021 4549.51 3248.75 68.57 5.00 197.34 2991.64
   23:18:57.197.08-May-2021 4549.51 3248.76 68.57 5.00 197.54 2991.64
   23:18:57.397.08-May-2021 4549.51 3248.75 68.57 5.00 197.74 2991.64
   23:18:57.597.08-May-2021 4549.51 3248.70 68.57 5.00 197.94 2991.64
   23:18:57.797.08-May-2021 4549.51 3248.70 68.57 5.00 198.14 2991.64
   23:18:57.997.08-May-2021 4549.51 3248.74 68.57 5.00 198.34 2991.64
   23:18:58.197.08-May-2021 4549.51 3248.77 68.57 5.00 198.54 2991.64
   23:18:58.396.08-May-2021 4549.51 3248.74 68.57 5.00 198.74 2991.64
   23:18:58.596.08-May-2021 4549.51 3248.76 68.57 5.00 198.94 2991.64
   23:18:58.796.08-May-2021 4549.51 3248.76 68.57 5.00 199.14 2991.64
   23:18:58.996.08-May-2021 4549.51 3248.74 68.57 5.00 199.34 2991.64
   23:18:59.196.08-May-2021 4549.51 3248.74 68.57 5.00 199.54 2991.64
   23:18:59.396.08-May-2021 4549.51 3248.74 68.57 5.00 199.74 2991.64
   23:18:59.596.08-May-2021 4549.51 3248.74 68.57 5.00 199.94 2991.64
   23:18:59.796.08-May-2021 4549.51 3248.74 68.57 5.00 200.14 2991.64
   23:18:59.996.08-May-2021 4549.51 3248.74 68.57 5.00 200.34 2991.64
   23:19:00.196.08-May-2021 4549.51 3248.67 68.57 5.00 200.54 2991.64
   23:19:00.396.08-May-2021 4549.51 3248.82 68.57 5.00 200.74 2991.64
   23:19:00.596.08-May-2021 4549.51 3248.73 68.57 5.00 200.94 2991.64
   23:19:00.796.08-May-2021 4549.51 3248.73 68.57 5.00 201.14 2991.64
   23:19:00.996.08-May-2021 4549.51 3248.73 68.57 5.00 201.34 2991.64
   23:19:01.196.08-May-2021 4549.51 3248.73 68.57 5.00 201.54 2991.64
   23:19:01.396.08-May-2021 4549.51 3248.79 68.57 5.00 201.74 2991.64
   23:19:01.595.08-May-2021 4549.51 3248.70 68.57 5.00 201.94 2991.64
   23:19:01.795.08-May-2021 4549.51 3248.70 68.57 5.00 202.14 2991.64
   23:19:01.995.08-May-2021 4549.51 3248.71 68.57 5.00 202.34 2991.64
   23:19:02.195.08-May-2021 4549.51 3248.73 68.56 5.00 202.54 2991.64
   23:19:02.395.08-May-2021 4549.51 3248.74 68.57 5.00 202.74 2991.64
   23:19:02.595.08-May-2021 4549.51 3248.74 68.56 5.00 202.94 2991.64
   23:19:02.795.08-May-2021 4549.51 3248.74 68.56 5.00 203.14 2991.64
   23:19:02.995.08-May-2021 4549.51 3248.69 68.56 5.00 203.34 2991.64
   23:19:03.195.08-May-2021 4549.51 3248.72 68.56 5.00 203.54 2991.64
   23:19:03.395.08-May-2021 4549.51 3248.71 68.56 5.00 203.74 2991.64
   23:19:03.595.08-May-2021 4549.51 3248.73 68.56 5.00 203.94 2991.64
   23:19:03.795.08-May-2021 4549.51 3248.73 68.56 5.00 204.14 2991.64
   23:19:03.995.08-May-2021 4549.51 3248.72 68.56 5.00 204.34 2991.64
   23:19:04.195.08-May-2021 4549.51 3248.72 68.56 5.00 204.54 2991.64
   23:19:04.395.08-May-2021 4549.51 3248.72 68.56 5.00 204.74 2991.64
   23:19:04.595.08-May-2021 4549.51 3248.72 68.56 5.00 204.94 2991.64
   23:19:04.794.08-May-2021 4549.51 3248.72 68.56 5.00 205.14 2991.64
   23:19:04.994.08-May-2021 4549.51 3248.71 68.56 5.00 205.34 2991.64
   23:19:05.194.08-May-2021 4549.51 3248.72 68.56 5.00 205.54 2991.64
   23:19:05.394.08-May-2021 4549.51 3248.77 68.56 5.00 205.74 2991.64
   23:19:05.594.08-May-2021 4549.51 3248.69 68.56 5.00 205.94 2991.64
   23:19:05.794.08-May-2021 4549.51 3248.69 68.56 5.00 206.14 2991.64
   23:19:05.994.08-May-2021 4549.51 3248.69 68.56 5.00 206.34 2991.64
   23:19:06.194.08-May-2021 4549.51 3248.71 68.56 5.00 206.54 2991.64
   23:19:06.394.08-May-2021 4549.51 3248.71 68.56 5.00 206.74 2991.64
