~Version Information
 VERS.                  2.0:   CWLS log ASCII Standard -VERSION 2.0
 WRAP.                   NO:   One line per depth step
~Well Information Block
#MNEM.UNIT     VALUE/NAME     DESCRIPTION
#---------     -----------    ---------------------------
 STRT.S             02:35:25 09-May-21: START TIME 02:35:25 09-May-21
 STOP.S             02:42:01 09-May-21: STOP TIME  02:42:01 09-May-21
 STEP.S                   0.00: STEP TIME
 NULL.                 -999.25: NULL VALUE
 PROV.                    Baku:  PROVINCE
 STAT.                    Baku:  STATE NAME
 SON .        AZ-XX-0906571588:  JOB NUMBER
 WTYP.                Deviated:  WELL TYPE
 COMP.     BP Exploration (Caspian Sea) ltd:  COMPANY
 BASE.              Azerbaijan:  LOGGING EQUIPMENT BASE LOCATION
 REGN.                   EESSA:  REGION
 CTRY.              Azerbaijan:  COUNTRY NAME
 FLD .                     ACG:  FIELD NAME
 WELL.                     J28:  WELL NAME
 RIG .             West Chirag:  RIG NAME
 DMF .             Drill Floor:  DRILL MEAS FROM
 PDAT.       Caspian Sea Level:  PERMANENT DATUM
 HPTY.       Minimum Curvature:  HOLE POS TYPE
 MDS .        Operator Entered:  MAG DATA SOURCE
 NREF.                    Grid:  NORTH REFERENCE
 SRVC.          TURAN DRILLING:  CONTRACTOR
 JOBN.        AZ-XX-0906571588:  JOB TICKET NUMB
 DCON.     Halliburton Sperry Drilling:  DIRECTNL CONTR
 STIM.      00.44.00 11-Feb-21:  START TIME
 DATE.      00.00.00 05-May-21:  END TIME
 SPUD.               13-Feb-21:  SPUD DATE
 MWDS.                    Baku:  MWD SHOP
 DOE .                     N/A:  DOE NUMBER
 UNIT.                     N/A:  LOGGING EQUIPMENT ID
 UWI .                     N/A:  UNIQUE WELL IDENTIFIER
 API .                     N/A:  API NUMBER
 CNTY.                        :  COUNTY
 LOC .                        :  LOCATION
 LMF .             Drill Floor:  LOG MEASURED FROM
 TVDS.m                  43.00:  TVDSS CORRECTN
 SDEP.m                 341.00:  START DEPTH
 EGL .m                   0.00:  GROUND ELEVATION
 WDMS.m                 169.80:  WD ELEV
 AGAP.m                  43.00:  AIR GAP
 EPD .m                   0.00:  ELEVATION
 APD .m                  43.00:  DEPTH ABOVE PD
 LATI.deg                40.13:  LATITUDE
 LONG.deg                51.22:  LONGITUDE
 UTMY.m             4443793.85:  UTM Y
 UTMX.m              519005.06:  UTM X
 WHEW.m                 -11.57:  WELL HEAD E/W
 WHNS.m                   8.57:  WELL HEAD N/S
 VSEW.m                 -11.57:  VERT SEC E/W
 VSNS.m                   8.57:  VERT SEC N/S
 DFWL.m                   0.00:  DISTANCE FWL
 DFSL.m                   0.00:  DISTANCE FSL
 VSDR.deg               299.34:  VERT SEC DIRECT
 GVFD.g                   1.00:  GRAVITY FIELD
 AZTC.deg                 6.36:  AZM TOTAL CORR
 MFLD.nT              50391.00:  MAGNETIC FIELD
 MDIP.deg                59.65:  MAGNETIC DIP
 MDEC.deg                 6.48:  MAGNETIC DECL
 GRDC.deg                 0.12:  GRID CORRECTION
 DEP .m                 334.96:  DEPTH
 TDD .m                1407.26:  TOTAL DEPTH (DRILLER)
 EKB .m                  43.00:  KB ELEVATION
 EDF .m                  43.00:  DF ELEVATION
 TDL .m                 228.00:  TOTAL DEPTH (LOGGER)
 VSC .                       0:  VS TO CLOSURE
 MAGU.                 1854484:  MAGUTM CHECKSUM
~Parameter Information Block
#MNEM.UNIT       Value        Description
#---------     -----------    ---------------------------
 AV  .mps                 4.00:  Ann Velocity 
 AVMX.mps                 4.73:  Max Ann Veloc 
 AZIF.deg               304.48:  Azm, Final 
 BHAT.        Rotary Steerable:  BHA Type 
 BREV.rev            257300.00:  Rev Bit Total 
 BROT.°/30m               0.00:  Build Rotating 
 BS  .in                  8.50:  Bit Size 
 BSZ .in                  8.50:  Bit Size 
 BTPL.psig              589.00:  Bit Press Loss 
 CABU.                      No:  Customer Abuse 
 CGEO.          Mubariz ghayev:  Customer Geo 
 COMM.                     LÑz:  Run Comments 1 
 TCS .hr                 64.25:  Time Ciculation Ended 
 CV  .mps                 3.50:  Crit Velocity 
 CVMX.mps                 4.52:  Max Crit Veloc 
 DD1 .             Aziz Aliyev:  Direct Drillr 1 
 DD2 .         Intigam Rahimov:  Direct Drillr 2 
 DD3 .          Rashad Habibov:  Direct Drillr 3 
 DDSV.               Geo-Pilot:  DD Service 
 DEFF.%                  98.00:  % Det Eff 
 DLRX.°/30m               0.00:  Dogleg Rot Max 
 DLSO.°/30m               0.00:  Dogleg Oriented 
 DLSX.°/30m               0.00:  Dogleg Str Max 
 DRET.      10.45.04 08-May-21:  Drill End Time 
 DRST.      03.30.04 04-May-21:  Drill Start Tim 
 DTIM.hr                 14.97:  Time Drilling 
 EDEP.m                4640.01:  End Depth 
 ENG1.         Dail Mahammadov:  Engineer 1 
 ENG2.           Eldar Hajiyev:  Engineer 2 
 ENG3.       Bakhtiar Jabbarli:  Engineer 3 
 ENG4.       Natik Hasanagayev:  Engineer 4 
 ETIM.      09.30.04 14-May-21:  End Time 
 FLOI.gpm               460.00:  Flow In 
 FLON.gpm               200.00:  Flow In Min 
 FLOS.cptm                0.00:  Fluid Loss 
 FLOX.gpm               505.00:  Flow In Max 
 HFLO.                      No:  High Flow 
 HPRE.                      No:  High Pressure 
 HTEM.                      No:  High Temp 
 HYDO.m                   1.80:  Hydro Offset 
 IFIN.deg                66.71:  Inc, Final 
 IMAX.deg                67.03:  Inc Max 
 IMIN.deg                66.63:  Inc Min 
 IMND.m                4550.58:  Inc Min Depth 
 IMXD.m                4439.01:  Inc Max Depth 
 JARR.                      No:  Jarring 
 LETM.      10.45.04 08-May-21:  Log End Time 
 LOST.hr                     0:  Lost Rig Time 
 LSTM.      03.30.04 04-May-21:  Log Start Time 
 MDCL.ppm             37000.00:  Mud Chlorides 
 MDES.     Inversion Oil/Synthetic:  Mud Desc 
 DFD .sg                  1.38:  Mud Density 
 MDMN.sg                  1.35:  Dens Mud Min 
 MDMX.sg                  1.40:  Dens Mud Max 
 MOIL.                   57.40:  Run Mud Oil % 
 MOWR.                   70:30:  Run Mud OWR 
 MSND.                    0.00:  Run Mud Sand % 
 MSOL.                   18.00:  Run Mud Solids% 
 DFV .spqt               71.00:  Mud Viscosity 
 MWOD.in                  6.75:  MWD Tool OD 
 MWSI.                      No:  Serv Intrp, MWD 
 OTIM.hr                242.76:  Time Operating 
 PCON.           Look Like New:  Pad Condition 
 PMAX.psia            12183.92:  Press Op, Max 
 PV  .cP                 27.00:  Mud PV 
 RUN .                    1300:  Run Number 
 ROPA.m/hr               15.00:  ROP Avg 
 ROPN.m/hr                9.00:  ROP Min 
 ROPX.m/hr               19.00:  ROP Max 
 RPMA.rpm               120.00:  RPM Surface Avg 
 RPMN.rpm               100.00:  RPM Surface Min 
 RPMX.rpm               120.00:  RPM Surface Max 
 RRUN.                    1300:  Rig Run Number 
 RTIM.hr                  5.00:  Time Reaming 
 SAZI.deg               304.73:  Azm, Start 
 SDEP.m                4412.01:  Start Depth 
 SIDD.                      No:  Serv Intrp, DD 
 SINC.deg                66.82:  Inc, Start 
 SPPA.psig             2800.00:  SPP Avg 
 SPPN.psig             2610.00:  SPP Min 
 SPPX.psig             3100.00:  SPP Max 
 STIM.      03.30.00 04-May-21:  Start Time 
 SVCS.                 DD, MWD:  Services 
 SVER.                    9.20:  Sperry Version 
 TDAT.m                 228.00:  Tot Depth Attmp 
 TDDF.                      No:  Trip for DD 
 TDLG.m                 228.00:  Tot Depth Loggd 
 TFF .                      No:  Trip for Fail 
 TQAA.f-kp               15.00:  Torque Abs Avg 
 TQAN.f-kp               12.00:  Torque Abs Min 
 TQAX.f-kp               22.00:  Torque Abs Max 
 TRRT.°/30m               0.00:  Turn Rotating 
 MRT .                    HCIM:  Maximum Recorded Temperature 
 TTMX.degC               90.20:  Max Tool Temp 
 VS01.                90627813:  Virtual Str1 SN 
 VS02.                90634712:  Virtual Str2 SN 
 VS03.                90643410:  Virtual Str3 SN 
 VS04.                90634712:  Virtual Str4 SN 
 WBMN.klb                 9.00:  WOB Min 
 WITN.        Elmaddin Rahimov:  Customer Rep 
 WITN.         Haytham Mostafa:  Customer Rep 2 
 WOBA.klb                15.00:  WOB Avg 
 WOBX.klb                23.00:  WOB Max 
 YP  .lhf2               29.00:  Yield Point 
~Curve Information Block
#MNEM.UNIT                 API CODE     Curve Description
#---------               -----------    ---------------------------
 TIME.HHMMSS            00 000 000 000:  GT Time & Date
 GTDEPTH.m              00 000 000 000:  GT Depth
 GTPQH.psia             00 000 000 000:  GT HR Quartz Pressure
 GTTQ.degC              00 000 000 000:  GT Quartz Temperature
 GTTN.NONE              00 000 000 000:  GT Test Number
 GTET.sec               00 000 000 000:  GT Elapsed Test Time
 GTTVD.m                00 000 000 000:  GT True Vertical Depth
#Other Information
#
#WARRANTY: Halliburton will use its best efforts to furnish customers with 
#accurate information and interpretations that are part of, and incident to, the services 
#provided.  However, Halliburton cannot and does not warrant the accuracy 
#or correctness of such information and interpretations.  Under no circumstances should any 
#such information or interpretation be relied upon as the sole basis for any drilling, 
#completion, production, or financial decision or any procedure involving any risk to the 
#safety of any drilling venture, drilling rig or its crew or any other third party.  The 
#Customer has full responsibility for all drilling, completion and production operation.  
#Halliburton makes no representations or warranties, either expressed or 
#implied, including, but not limited to, the implied warranties of merchantability or fitness 
#for a particular purpose, with respect to the services rendered.  In no event will 
#Halliburton be liable for failure to obtain any particular results or for 
#any damages, including, but not limited to, indirect, special or consequential damages, 
#resulting from the use of any information or interpretation provided by Halliburton.
#
~A           TIME           GTDEPTH  GTPQH  GTTQ  GTTN   GTET   GTTVD  
# ...
   02:37:40.888.09-May-2021 4482.51 1527.80 67.69 11.00 135.62 2965.25
   02:37:41.088.09-May-2021 4482.51 1528.65 67.69 11.00 135.82 2965.25
   02:37:41.288.09-May-2021 4482.51 1529.40 67.69 11.00 136.02 2965.25
   02:37:41.488.09-May-2021 4482.51 1529.40 67.69 11.00 136.22 2965.25
   02:37:41.688.09-May-2021 4482.51 1531.24 67.69 11.00 136.42 2965.25
   02:37:41.888.09-May-2021 4482.51 1532.21 67.69 11.00 136.62 2965.25
   02:37:42.089.09-May-2021 4482.51 1533.18 67.69 11.00 136.82 2965.25
   02:37:42.289.09-May-2021 4482.51 1533.69 67.69 11.00 137.02 2965.25
   02:37:42.489.09-May-2021 4482.51 1533.69 67.69 11.00 137.22 2965.25
   02:37:42.689.09-May-2021 4482.51 1536.15 67.69 11.00 137.42 2965.25
   02:37:42.889.09-May-2021 4482.51 1537.46 67.69 11.00 137.62 2965.25
   02:37:43.089.09-May-2021 4482.51 1538.24 67.69 11.00 137.82 2965.25
   02:37:43.289.09-May-2021 4482.51 1539.28 67.69 11.00 138.02 2965.25
   02:37:43.489.09-May-2021 4482.51 1539.28 67.69 11.00 138.22 2965.25
   02:37:43.689.09-May-2021 4482.51 1541.32 67.69 11.00 138.42 2965.25
   02:37:43.889.09-May-2021 4482.51 1542.35 67.69 11.00 138.62 2965.25
   02:37:44.089.09-May-2021 4482.51 1543.35 67.69 11.00 138.82 2965.25
   02:37:44.289.09-May-2021 4482.51 1544.35 67.69 11.00 139.02 2965.25
   02:37:44.489.09-May-2021 4482.51 1544.35 67.69 11.00 139.22 2965.25
   02:37:44.689.09-May-2021 4482.51 1545.36 67.69 11.00 139.42 2965.25
   02:37:44.889.09-May-2021 4482.51 1546.98 67.69 11.00 139.62 2965.25
   02:37:45.089.09-May-2021 4482.51 1548.47 67.69 11.00 139.82 2965.25
   02:37:45.289.09-May-2021 4482.51 1549.48 67.69 11.00 140.02 2965.25
   02:37:45.489.09-May-2021 4482.51 1549.48 67.69 11.00 140.22 2965.25
   02:37:45.689.09-May-2021 4482.51 1551.34 67.69 11.00 140.42 2965.25
   02:37:45.889.09-May-2021 4482.51 1552.02 67.69 11.00 140.62 2965.25
   02:37:46.089.09-May-2021 4482.51 1553.49 67.69 11.00 140.82 2965.25
   02:37:46.289.09-May-2021 4482.51 1554.50 67.69 11.00 141.02 2965.25
   02:37:46.489.09-May-2021 4482.51 1554.50 67.69 11.00 141.22 2965.25
   02:37:46.689.09-May-2021 4482.51 1556.29 67.69 11.00 141.42 2965.25
   02:37:46.889.09-May-2021 4482.51 1557.34 67.69 11.00 141.62 2965.25
   02:37:47.089.09-May-2021 4482.51 1557.83 67.69 11.00 141.82 2965.25
   02:37:47.289.09-May-2021 4482.51 1559.35 67.69 11.00 142.02 2965.25
   02:37:47.489.09-May-2021 4482.51 1559.35 67.69 11.00 142.22 2965.25
   02:37:47.689.09-May-2021 4482.51 1560.72 67.69 11.00 142.42 2965.25
   02:37:47.889.09-May-2021 4482.51 1564.59 67.69 11.00 142.62 2965.25
   02:37:48.090.09-May-2021 4482.51 1569.48 67.69 11.00 142.82 2965.25
   02:37:48.290.09-May-2021 4482.51 1571.49 67.69 11.00 143.02 2965.25
   02:37:48.490.09-May-2021 4482.51 1571.49 67.69 11.00 143.22 2965.25
   02:37:48.690.09-May-2021 4482.51 1572.30 67.69 11.00 143.42 2965.25
   02:37:48.890.09-May-2021 4482.51 1574.32 67.69 11.00 143.62 2965.25
   02:37:49.090.09-May-2021 4482.51 1575.26 67.69 11.00 143.82 2965.25
   02:37:49.290.09-May-2021 4482.51 1576.23 67.69 11.00 144.02 2965.25
   02:37:49.490.09-May-2021 4482.51 1576.23 67.69 11.00 144.22 2965.25
   02:37:49.690.09-May-2021 4482.51 1578.13 67.69 11.00 144.42 2965.25
   02:37:49.890.09-May-2021 4482.51 1579.13 67.69 11.00 144.62 2965.25
   02:37:50.090.09-May-2021 4482.51 1579.72 67.69 11.00 144.82 2965.25
   02:37:50.290.09-May-2021 4482.51 1528.64 67.69 11.00 145.02 2965.25
   02:37:50.490.09-May-2021 4482.51 1528.64 67.69 11.00 145.22 2965.25
   02:37:50.690.09-May-2021 4482.51  723.94 67.69 11.00 145.42 2965.25
   02:37:50.890.09-May-2021 4482.51  669.03 67.69 11.00 145.62 2965.25
   02:37:51.090.09-May-2021 4482.51  651.97 67.69 11.00 145.82 2965.25
   02:37:51.290.09-May-2021 4482.51  646.09 67.69 11.00 146.02 2965.25
   02:37:51.490.09-May-2021 4482.51  646.09 67.69 11.00 146.22 2965.25
   02:37:51.690.09-May-2021 4482.51  637.02 67.69 11.00 146.42 2965.25
   02:37:51.890.09-May-2021 4482.51  635.56 67.68 11.00 146.62 2965.25
   02:37:52.090.09-May-2021 4482.51  633.66 67.68 11.00 146.82 2965.25
   02:37:52.290.09-May-2021 4482.51  631.28 67.68 11.00 147.02 2965.25
   02:37:52.490.09-May-2021 4482.51  631.28 67.68 11.00 147.22 2965.25
   02:37:52.690.09-May-2021 4482.51  627.48 67.68 11.00 147.42 2965.25
   02:37:52.890.09-May-2021 4482.51  624.59 67.68 11.00 147.62 2965.25
   02:37:53.090.09-May-2021 4482.51  626.16 67.68 11.00 147.82 2965.25
   02:37:53.290.09-May-2021 4482.51  628.51 67.68 11.00 148.02 2965.25
   02:37:53.490.09-May-2021 4482.51  628.51 67.68 11.00 148.22 2965.25
   02:37:53.690.09-May-2021 4482.51  633.75 67.68 11.00 148.42 2965.25
   02:37:53.891.09-May-2021 4482.51  636.13 67.68 11.00 148.62 2965.25
   02:37:54.091.09-May-2021 4482.51  638.84 67.68 11.00 148.82 2965.25
   02:37:54.291.09-May-2021 4482.51  639.67 67.68 11.00 149.02 2965.25
   02:37:54.491.09-May-2021 4482.51  639.67 67.68 11.00 149.22 2965.25
   02:37:54.691.09-May-2021 4482.51  644.13 67.68 11.00 149.42 2965.25
   02:37:54.891.09-May-2021 4482.51  642.14 67.68 11.00 149.63 2965.25
   02:37:55.091.09-May-2021 4482.51  639.42 67.67 11.00 149.83 2965.25
   02:37:55.291.09-May-2021 4482.51  637.99 67.67 11.00 150.03 2965.25
   02:37:55.491.09-May-2021 4482.51  637.99 67.67 11.00 150.23 2965.25
   02:37:55.691.09-May-2021 4482.51  633.95 67.67 11.00 150.43 2965.25
   02:37:55.891.09-May-2021 4482.51  627.42 67.67 11.00 150.63 2965.25
   02:37:56.091.09-May-2021 4482.51  619.99 67.67 11.00 150.83 2965.25
   02:37:56.291.09-May-2021 4482.51  614.46 67.67 11.00 151.03 2965.25
   02:37:56.491.09-May-2021 4482.51  614.46 67.67 11.00 151.23 2965.25
   02:37:56.691.09-May-2021 4482.51  610.01 67.67 11.00 151.43 2965.25
   02:37:56.891.09-May-2021 4482.51  606.97 67.67 11.00 151.63 2965.25
   02:37:57.091.09-May-2021 4482.51  607.79 67.67 11.00 151.83 2965.25
   02:37:57.291.09-May-2021 4482.51  605.91 67.67 11.00 152.03 2965.25
   02:37:57.491.09-May-2021 4482.51  605.91 67.67 11.00 152.23 2965.25
   02:37:57.691.09-May-2021 4482.51  603.20 67.67 11.00 152.43 2965.25
   02:37:57.891.09-May-2021 4482.51  602.26 67.67 11.00 152.63 2965.25
   02:37:58.091.09-May-2021 4482.51  604.78 67.67 11.00 152.83 2965.25
   02:37:58.291.09-May-2021 4482.51  605.96 67.67 11.00 153.03 2965.25
   02:37:58.491.09-May-2021 4482.51  605.96 67.67 11.00 153.23 2965.25
   02:37:58.691.09-May-2021 4482.51  600.43 67.67 11.00 153.43 2965.25
   02:37:58.891.09-May-2021 4482.51  598.99 67.67 11.00 153.63 2965.25
   02:37:59.091.09-May-2021 4482.51  600.86 67.67 11.00 153.83 2965.25
   02:37:59.291.09-May-2021 4482.51  603.08 67.67 11.00 154.03 2965.25
   02:37:59.491.09-May-2021 4482.51  603.08 67.67 11.00 154.23 2965.25
   02:37:59.691.09-May-2021 4482.51  605.55 67.66 11.00 154.43 2965.25
   02:37:59.892.09-May-2021 4482.51  605.31 67.66 11.00 154.63 2965.25
   02:38:00.092.09-May-2021 4482.51  604.23 67.66 11.00 154.83 2965.25
   02:38:00.292.09-May-2021 4482.51  603.93 67.66 11.00 155.03 2965.25
   02:38:00.492.09-May-2021 4482.51  603.93 67.66 11.00 155.23 2965.25
   02:38:00.692.09-May-2021 4482.51  603.77 67.66 11.00 155.43 2965.25
   02:38:00.892.09-May-2021 4482.51  615.27 67.66 11.00 155.63 2965.25
   02:38:01.092.09-May-2021 4482.51  617.64 67.66 11.00 155.83 2965.25
   02:38:01.292.09-May-2021 4482.51  621.57 67.66 11.00 156.03 2965.25
   02:38:01.492.09-May-2021 4482.51  621.57 67.66 11.00 156.23 2965.25
   02:38:01.692.09-May-2021 4482.51  626.27 67.66 11.00 156.43 2965.25
   02:38:01.892.09-May-2021 4482.51  644.86 67.66 11.00 156.63 2965.25
   02:38:02.092.09-May-2021 4482.51  653.63 67.66 11.00 156.83 2965.25
   02:38:02.292.09-May-2021 4482.51  660.42 67.66 11.00 157.03 2965.25
   02:38:02.492.09-May-2021 4482.51  660.42 67.66 11.00 157.23 2965.25
   02:38:02.692.09-May-2021 4482.51  677.49 67.66 11.00 157.43 2965.25
   02:38:02.892.09-May-2021 4482.51  680.70 67.66 11.00 157.63 2965.25
   02:38:03.092.09-May-2021 4482.51  683.35 67.66 11.00 157.83 2965.25
   02:38:03.292.09-May-2021 4482.51  685.68 67.66 11.00 158.03 2965.25
