~Version Information
 VERS.                  2.0:   CWLS log ASCII Standard -VERSION 2.0
 WRAP.                   NO:   One line per depth step
~Well Information Block
#MNEM.UNIT     VALUE/NAME     DESCRIPTION
#---------     -----------    ---------------------------
 STRT.S             01:12:50 09-May-21: START TIME 01:12:50 09-May-21
 STOP.S             01:19:27 09-May-21: STOP TIME  01:19:27 09-May-21
 STEP.S                   0.00: STEP TIME
 NULL.                 -999.25: NULL VALUE
 PROV.                    Baku:  PROVINCE
 STAT.                    Baku:  STATE NAME
 SON .        AZ-XX-0906571588:  JOB NUMBER
 WTYP.                Deviated:  WELL TYPE
 COMP.     BP Exploration (Caspian Sea) ltd:  COMPANY
 BASE.              Azerbaijan:  LOGGING EQUIPMENT BASE LOCATION
 REGN.                   EESSA:  REGION
 CTRY.              Azerbaijan:  COUNTRY NAME
 FLD .                     ACG:  FIELD NAME
 WELL.                     J28:  WELL NAME
 RIG .             West Chirag:  RIG NAME
 DMF .             Drill Floor:  DRILL MEAS FROM
 PDAT.       Caspian Sea Level:  PERMANENT DATUM
 HPTY.       Minimum Curvature:  HOLE POS TYPE
 MDS .        Operator Entered:  MAG DATA SOURCE
 NREF.                    Grid:  NORTH REFERENCE
 SRVC.          TURAN DRILLING:  CONTRACTOR
 JOBN.        AZ-XX-0906571588:  JOB TICKET NUMB
 DCON.     Halliburton Sperry Drilling:  DIRECTNL CONTR
 STIM.      00.44.00 11-Feb-21:  START TIME
 DATE.      00.00.00 05-May-21:  END TIME
 SPUD.               13-Feb-21:  SPUD DATE
 MWDS.                    Baku:  MWD SHOP
 DOE .                     N/A:  DOE NUMBER
 UNIT.                     N/A:  LOGGING EQUIPMENT ID
 UWI .                     N/A:  UNIQUE WELL IDENTIFIER
 API .                     N/A:  API NUMBER
 CNTY.                        :  COUNTY
 LOC .                        :  LOCATION
 LMF .             Drill Floor:  LOG MEASURED FROM
 TVDS.m                  43.00:  TVDSS CORRECTN
 SDEP.m                 341.00:  START DEPTH
 EGL .m                   0.00:  GROUND ELEVATION
 WDMS.m                 169.80:  WD ELEV
 AGAP.m                  43.00:  AIR GAP
 EPD .m                   0.00:  ELEVATION
 APD .m                  43.00:  DEPTH ABOVE PD
 LATI.deg                40.13:  LATITUDE
 LONG.deg                51.22:  LONGITUDE
 UTMY.m             4443793.85:  UTM Y
 UTMX.m              519005.06:  UTM X
 WHEW.m                 -11.57:  WELL HEAD E/W
 WHNS.m                   8.57:  WELL HEAD N/S
 VSEW.m                 -11.57:  VERT SEC E/W
 VSNS.m                   8.57:  VERT SEC N/S
 DFWL.m                   0.00:  DISTANCE FWL
 DFSL.m                   0.00:  DISTANCE FSL
 VSDR.deg               299.34:  VERT SEC DIRECT
 GVFD.g                   1.00:  GRAVITY FIELD
 AZTC.deg                 6.36:  AZM TOTAL CORR
 MFLD.nT              50391.00:  MAGNETIC FIELD
 MDIP.deg                59.65:  MAGNETIC DIP
 MDEC.deg                 6.48:  MAGNETIC DECL
 GRDC.deg                 0.12:  GRID CORRECTION
 DEP .m                 334.96:  DEPTH
 TDD .m                1407.26:  TOTAL DEPTH (DRILLER)
 EKB .m                  43.00:  KB ELEVATION
 EDF .m                  43.00:  DF ELEVATION
 TDL .m                 228.00:  TOTAL DEPTH (LOGGER)
 VSC .                       0:  VS TO CLOSURE
 MAGU.                 1854484:  MAGUTM CHECKSUM
~Parameter Information Block
#MNEM.UNIT       Value        Description
#---------     -----------    ---------------------------
 AV  .mps                 4.00:  Ann Velocity 
 AVMX.mps                 4.73:  Max Ann Veloc 
 AZIF.deg               304.48:  Azm, Final 
 BHAT.        Rotary Steerable:  BHA Type 
 BREV.rev            257300.00:  Rev Bit Total 
 BROT.°/30m               0.00:  Build Rotating 
 BS  .in                  8.50:  Bit Size 
 BSZ .in                  8.50:  Bit Size 
 BTPL.psig              589.00:  Bit Press Loss 
 CABU.                      No:  Customer Abuse 
 CGEO.          Mubariz ghayev:  Customer Geo 
 COMM.                     ÌğZ:  Run Comments 1 
 TCS .hr                 64.25:  Time Ciculation Ended 
 CV  .mps                 3.50:  Crit Velocity 
 CVMX.mps                 4.52:  Max Crit Veloc 
 DD1 .             Aziz Aliyev:  Direct Drillr 1 
 DD2 .         Intigam Rahimov:  Direct Drillr 2 
 DD3 .          Rashad Habibov:  Direct Drillr 3 
 DDSV.               Geo-Pilot:  DD Service 
 DEFF.%                  98.00:  % Det Eff 
 DLRX.°/30m               0.00:  Dogleg Rot Max 
 DLSO.°/30m               0.00:  Dogleg Oriented 
 DLSX.°/30m               0.00:  Dogleg Str Max 
 DRET.      10.45.04 08-May-21:  Drill End Time 
 DRST.      03.30.04 04-May-21:  Drill Start Tim 
 DTIM.hr                 14.97:  Time Drilling 
 EDEP.m                4640.01:  End Depth 
 ENG1.         Dail Mahammadov:  Engineer 1 
 ENG2.           Eldar Hajiyev:  Engineer 2 
 ENG3.       Bakhtiar Jabbarli:  Engineer 3 
 ENG4.       Natik Hasanagayev:  Engineer 4 
 ETIM.      09.30.04 14-May-21:  End Time 
 FLOI.gpm               460.00:  Flow In 
 FLON.gpm               200.00:  Flow In Min 
 FLOS.cptm                0.00:  Fluid Loss 
 FLOX.gpm               505.00:  Flow In Max 
 HFLO.                      No:  High Flow 
 HPRE.                      No:  High Pressure 
 HTEM.                      No:  High Temp 
 HYDO.m                   1.80:  Hydro Offset 
 IFIN.deg                66.71:  Inc, Final 
 IMAX.deg                67.03:  Inc Max 
 IMIN.deg                66.63:  Inc Min 
 IMND.m                4550.58:  Inc Min Depth 
 IMXD.m                4439.01:  Inc Max Depth 
 JARR.                      No:  Jarring 
 LETM.      10.45.04 08-May-21:  Log End Time 
 LOST.hr                     0:  Lost Rig Time 
 LSTM.      03.30.04 04-May-21:  Log Start Time 
 MDCL.ppm             37000.00:  Mud Chlorides 
 MDES.     Inversion Oil/Synthetic:  Mud Desc 
 DFD .sg                  1.38:  Mud Density 
 MDMN.sg                  1.35:  Dens Mud Min 
 MDMX.sg                  1.40:  Dens Mud Max 
 MOIL.                   57.40:  Run Mud Oil % 
 MOWR.                   70:30:  Run Mud OWR 
 MSND.                    0.00:  Run Mud Sand % 
 MSOL.                   18.00:  Run Mud Solids% 
 DFV .spqt               71.00:  Mud Viscosity 
 MWOD.in                  6.75:  MWD Tool OD 
 MWSI.                      No:  Serv Intrp, MWD 
 OTIM.hr                242.76:  Time Operating 
 PCON.           Look Like New:  Pad Condition 
 PMAX.psia            12183.92:  Press Op, Max 
 PV  .cP                 27.00:  Mud PV 
 RUN .                    1300:  Run Number 
 ROPA.m/hr               15.00:  ROP Avg 
 ROPN.m/hr                9.00:  ROP Min 
 ROPX.m/hr               19.00:  ROP Max 
 RPMA.rpm               120.00:  RPM Surface Avg 
 RPMN.rpm               100.00:  RPM Surface Min 
 RPMX.rpm               120.00:  RPM Surface Max 
 RRUN.                    1300:  Rig Run Number 
 RTIM.hr                  5.00:  Time Reaming 
 SAZI.deg               304.73:  Azm, Start 
 SDEP.m                4412.01:  Start Depth 
 SIDD.                      No:  Serv Intrp, DD 
 SINC.deg                66.82:  Inc, Start 
 SPPA.psig             2800.00:  SPP Avg 
 SPPN.psig             2610.00:  SPP Min 
 SPPX.psig             3100.00:  SPP Max 
 STIM.      03.30.00 04-May-21:  Start Time 
 SVCS.                 DD, MWD:  Services 
 SVER.                    9.20:  Sperry Version 
 TDAT.m                 228.00:  Tot Depth Attmp 
 TDDF.                      No:  Trip for DD 
 TDLG.m                 228.00:  Tot Depth Loggd 
 TFF .                      No:  Trip for Fail 
 TQAA.f-kp               15.00:  Torque Abs Avg 
 TQAN.f-kp               12.00:  Torque Abs Min 
 TQAX.f-kp               22.00:  Torque Abs Max 
 TRRT.°/30m               0.00:  Turn Rotating 
 MRT .                    HCIM:  Maximum Recorded Temperature 
 TTMX.degC               90.20:  Max Tool Temp 
 VS01.                90627813:  Virtual Str1 SN 
 VS02.                90634712:  Virtual Str2 SN 
 VS03.                90643410:  Virtual Str3 SN 
 VS04.                90634712:  Virtual Str4 SN 
 WBMN.klb                 9.00:  WOB Min 
 WITN.        Elmaddin Rahimov:  Customer Rep 
 WITN.         Haytham Mostafa:  Customer Rep 2 
 WOBA.klb                15.00:  WOB Avg 
 WOBX.klb                23.00:  WOB Max 
 YP  .lhf2               29.00:  Yield Point 
~Curve Information Block
#MNEM.UNIT                 API CODE     Curve Description
#---------               -----------    ---------------------------
 TIME.HHMMSS            00 000 000 000:  GT Time & Date
 GTDEPTH.m              00 000 000 000:  GT Depth
 GTPQH.psia             00 000 000 000:  GT HR Quartz Pressure
 GTTQ.degC              00 000 000 000:  GT Quartz Temperature
 GTTN.NONE              00 000 000 000:  GT Test Number
 GTET.sec               00 000 000 000:  GT Elapsed Test Time
 GTTVD.m                00 000 000 000:  GT True Vertical Depth
#Other Information
#
#WARRANTY: Halliburton will use its best efforts to furnish customers with 
#accurate information and interpretations that are part of, and incident to, the services 
#provided.  However, Halliburton cannot and does not warrant the accuracy 
#or correctness of such information and interpretations.  Under no circumstances should any 
#such information or interpretation be relied upon as the sole basis for any drilling, 
#completion, production, or financial decision or any procedure involving any risk to the 
#safety of any drilling venture, drilling rig or its crew or any other third party.  The 
#Customer has full responsibility for all drilling, completion and production operation.  
#Halliburton makes no representations or warranties, either expressed or 
#implied, including, but not limited to, the implied warranties of merchantability or fitness 
#for a particular purpose, with respect to the services rendered.  In no event will 
#Halliburton be liable for failure to obtain any particular results or for 
#any damages, including, but not limited to, indirect, special or consequential damages, 
#resulting from the use of any information or interpretation provided by Halliburton.
#
~A           TIME           GTDEPTH  GTPQH  GTTQ  GTTN  GTET   GTTVD  
# ...
   01:14:45.823.09-May-2021 4503.51  847.16 67.48 9.00 115.04 2973.49
   01:14:46.023.09-May-2021 4503.51  847.16 67.48 9.00 115.24 2973.49
   01:14:46.223.09-May-2021 4503.51  847.50 67.48 9.00 115.44 2973.49
   01:14:46.423.09-May-2021 4503.51  847.48 67.48 9.00 115.64 2973.49
   01:14:46.623.09-May-2021 4503.51  847.71 67.48 9.00 115.84 2973.49
   01:14:46.823.09-May-2021 4503.51  847.86 67.48 9.00 116.04 2973.49
   01:14:47.023.09-May-2021 4503.51  847.86 67.48 9.00 116.24 2973.49
   01:14:47.223.09-May-2021 4503.51  848.05 67.48 9.00 116.44 2973.49
   01:14:47.423.09-May-2021 4503.51  848.38 67.49 9.00 116.64 2973.49
   01:14:47.623.09-May-2021 4503.51  848.59 67.49 9.00 116.84 2973.49
   01:14:47.823.09-May-2021 4503.51  848.74 67.49 9.00 117.04 2973.49
   01:14:48.023.09-May-2021 4503.51  848.74 67.49 9.00 117.24 2973.49
   01:14:48.223.09-May-2021 4503.51  848.61 67.49 9.00 117.44 2973.49
   01:14:48.424.09-May-2021 4503.51  851.50 67.49 9.00 117.64 2973.49
   01:14:48.624.09-May-2021 4503.51  851.82 67.49 9.00 117.84 2973.49
   01:14:48.824.09-May-2021 4503.51  851.54 67.49 9.00 118.04 2973.49
   01:14:49.024.09-May-2021 4503.51  851.54 67.49 9.00 118.24 2973.49
   01:14:49.224.09-May-2021 4503.51  852.37 67.49 9.00 118.44 2973.49
   01:14:49.424.09-May-2021 4503.51  852.73 67.49 9.00 118.64 2973.49
   01:14:49.624.09-May-2021 4503.51  852.70 67.49 9.00 118.84 2973.49
   01:14:49.824.09-May-2021 4503.51  852.37 67.49 9.00 119.04 2973.49
   01:14:50.024.09-May-2021 4503.51  852.37 67.49 9.00 119.24 2973.49
   01:14:50.224.09-May-2021 4503.51  853.22 67.49 9.00 119.44 2973.49
   01:14:50.424.09-May-2021 4503.51  853.22 67.49 9.00 119.64 2973.49
   01:14:50.624.09-May-2021 4503.51  853.55 67.49 9.00 119.84 2973.49
   01:14:50.824.09-May-2021 4503.51  853.82 67.49 9.00 120.04 2973.49
   01:14:51.025.09-May-2021 4503.51  853.82 67.49 9.00 120.24 2973.49
   01:14:51.225.09-May-2021 4503.51  854.04 67.49 9.00 120.44 2973.49
   01:14:51.425.09-May-2021 4503.51  854.22 67.49 9.00 120.64 2973.49
   01:14:51.625.09-May-2021 4503.51  854.41 67.49 9.00 120.84 2973.49
   01:14:51.825.09-May-2021 4503.51  854.57 67.49 9.00 121.04 2973.49
   01:14:52.025.09-May-2021 4503.51  854.57 67.49 9.00 121.24 2973.49
   01:14:52.225.09-May-2021 4503.51  854.93 67.49 9.00 121.44 2973.49
   01:14:52.425.09-May-2021 4503.51  855.12 67.49 9.00 121.64 2973.49
   01:14:52.625.09-May-2021 4503.51  855.30 67.49 9.00 121.84 2973.49
   01:14:52.825.09-May-2021 4503.51  855.45 67.49 9.00 122.04 2973.49
   01:14:53.025.09-May-2021 4503.51  855.45 67.49 9.00 122.24 2973.49
   01:14:53.225.09-May-2021 4503.51  855.93 67.49 9.00 122.44 2973.49
   01:14:53.425.09-May-2021 4503.51  855.89 67.49 9.00 122.64 2973.49
   01:14:53.625.09-May-2021 4503.51  856.32 67.49 9.00 122.84 2973.49
   01:14:53.826.09-May-2021 4503.51  856.20 67.49 9.00 123.04 2973.49
   01:14:54.026.09-May-2021 4503.51  856.20 67.49 9.00 123.24 2973.49
   01:14:54.226.09-May-2021 4503.51  856.53 67.49 9.00 123.44 2973.49
   01:14:54.426.09-May-2021 4503.51  856.70 67.49 9.00 123.64 2973.49
   01:14:54.626.09-May-2021 4503.51  856.88 67.49 9.00 123.84 2973.49
   01:14:54.826.09-May-2021 4503.51  857.01 67.49 9.00 124.04 2973.49
   01:14:55.026.09-May-2021 4503.51  857.01 67.49 9.00 124.25 2973.49
   01:14:55.226.09-May-2021 4503.51  857.32 67.49 9.00 124.45 2973.49
   01:14:55.426.09-May-2021 4503.51  857.48 67.49 9.00 124.65 2973.49
   01:14:55.626.09-May-2021 4503.51  857.11 67.49 9.00 124.85 2973.49
   01:14:55.826.09-May-2021 4503.51  858.03 67.49 9.00 125.05 2973.49
   01:14:56.026.09-May-2021 4503.51  858.03 67.49 9.00 125.25 2973.49
   01:14:56.226.09-May-2021 4503.51  857.98 67.49 9.00 125.45 2973.49
   01:14:56.426.09-May-2021 4503.51  857.80 67.49 9.00 125.65 2973.49
   01:14:56.627.09-May-2021 4503.51  858.52 67.49 9.00 125.85 2973.49
   01:14:56.827.09-May-2021 4503.51  858.59 67.49 9.00 126.05 2973.49
   01:14:57.027.09-May-2021 4503.51  858.59 67.49 9.00 126.25 2973.49
   01:14:57.227.09-May-2021 4503.51  858.63 67.49 9.00 126.45 2973.49
   01:14:57.427.09-May-2021 4503.51  858.50 67.49 9.00 126.65 2973.49
   01:14:57.627.09-May-2021 4503.51  859.27 67.49 9.00 126.85 2973.49
   01:14:57.827.09-May-2021 4503.51  859.34 67.49 9.00 127.05 2973.49
   01:14:58.027.09-May-2021 4503.51  859.34 67.49 9.00 127.25 2973.49
   01:14:58.227.09-May-2021 4503.51  859.14 67.49 9.00 127.45 2973.49
   01:14:58.427.09-May-2021 4503.51  859.60 67.49 9.00 127.65 2973.49
   01:14:58.627.09-May-2021 4503.51  859.76 67.49 9.00 127.85 2973.49
   01:14:58.827.09-May-2021 4503.51  860.02 67.49 9.00 128.05 2973.49
   01:14:59.027.09-May-2021 4503.51  860.02 67.49 9.00 128.25 2973.49
   01:14:59.227.09-May-2021 4503.51  860.19 67.49 9.00 128.45 2973.49
   01:14:59.428.09-May-2021 4503.51  860.34 67.49 9.00 128.65 2973.49
   01:14:59.628.09-May-2021 4503.51  860.48 67.49 9.00 128.85 2973.49
   01:14:59.828.09-May-2021 4503.51  860.65 67.49 9.00 129.05 2973.49
   01:15:00.028.09-May-2021 4503.51  860.65 67.49 9.00 129.25 2973.49
   01:15:00.228.09-May-2021 4503.51  860.95 67.49 9.00 129.45 2973.49
   01:15:00.428.09-May-2021 4503.51  861.12 67.49 9.00 129.65 2973.49
   01:15:00.628.09-May-2021 4503.51  861.27 67.49 9.00 129.85 2973.49
   01:15:00.828.09-May-2021 4503.51  861.00 67.49 9.00 130.05 2973.49
   01:15:01.028.09-May-2021 4503.51  861.00 67.49 9.00 130.25 2973.49
   01:15:01.228.09-May-2021 4503.51  861.68 67.49 9.00 130.45 2973.49
   01:15:01.428.09-May-2021 4503.51  862.08 67.49 9.00 130.65 2973.49
   01:15:01.628.09-May-2021 4503.51  862.05 67.49 9.00 130.85 2973.49
   01:15:01.828.09-May-2021 4503.51  862.21 67.49 9.00 131.05 2973.49
   01:15:02.028.09-May-2021 4503.51  862.21 67.49 9.00 131.25 2973.49
   01:15:02.229.09-May-2021 4503.51  862.49 67.49 9.00 131.45 2973.49
   01:15:02.429.09-May-2021 4503.51  862.66 67.49 9.00 131.65 2973.49
   01:15:02.629.09-May-2021 4503.51  862.80 67.49 9.00 131.85 2973.49
   01:15:02.829.09-May-2021 4503.51  862.94 67.49 9.00 132.05 2973.49
   01:15:03.029.09-May-2021 4503.51  862.94 67.49 9.00 132.25 2973.49
   01:15:03.229.09-May-2021 4503.51  863.25 67.49 9.00 132.45 2973.49
   01:15:03.429.09-May-2021 4503.51  862.91 67.49 9.00 132.65 2973.49
   01:15:03.629.09-May-2021 4503.51  863.84 67.49 9.00 132.85 2973.49
   01:15:03.829.09-May-2021 4503.51  863.56 67.49 9.00 133.05 2973.49
   01:15:04.029.09-May-2021 4503.51  863.56 67.49 9.00 133.25 2973.49
   01:15:04.229.09-May-2021 4503.51  863.35 67.49 9.00 133.45 2973.49
   01:15:04.429.09-May-2021 4503.51  863.94 67.49 9.00 133.65 2973.49
   01:15:04.629.09-May-2021 4503.51  864.27 67.49 9.00 133.85 2973.49
   01:15:04.830.09-May-2021 4503.51  986.24 67.49 9.00 134.05 2973.49
   01:15:05.030.09-May-2021 4503.51  986.24 67.49 9.00 134.25 2973.49
   01:15:05.230.09-May-2021 4503.51 1094.25 67.49 9.00 134.45 2973.49
   01:15:05.430.09-May-2021 4503.51 1130.89 67.49 9.00 134.65 2973.49
   01:15:05.630.09-May-2021 4503.51 1165.03 67.49 9.00 134.85 2973.49
   01:15:05.830.09-May-2021 4503.51 1199.63 67.49 9.00 135.05 2973.49
   01:15:06.030.09-May-2021 4503.51 1199.63 67.49 9.00 135.25 2973.49
   01:15:06.230.09-May-2021 4503.51 1265.26 67.49 9.00 135.45 2973.49
   01:15:06.430.09-May-2021 4503.51 1297.19 67.49 9.00 135.65 2973.49
   01:15:06.630.09-May-2021 4503.51 1328.52 67.49 9.00 135.85 2973.49
   01:15:06.830.09-May-2021 4503.51 1360.05 67.49 9.00 136.05 2973.49
   01:15:07.030.09-May-2021 4503.51 1360.05 67.49 9.00 136.25 2973.49
   01:15:07.230.09-May-2021 4503.51 1390.60 67.49 9.00 136.45 2973.49
   01:15:07.430.09-May-2021 4503.51 1450.13 67.49 9.00 136.65 2973.49
   01:15:07.631.09-May-2021 4503.51 1478.96 67.49 9.00 136.85 2973.49
   01:15:07.831.09-May-2021 4503.51 1507.31 67.49 9.00 137.05 2973.49
   01:15:08.031.09-May-2021 4503.51 1507.31 67.49 9.00 137.25 2973.49
   01:15:08.231.09-May-2021 4503.51 1562.61 67.50 9.00 137.45 2973.49
   01:15:08.431.09-May-2021 4503.51 1589.59 67.50 9.00 137.65 2973.49
   01:15:08.631.09-May-2021 4503.51 1616.13 67.50 9.00 137.85 2973.49
