~Version Information
 VERS.                  2.0:   CWLS log ASCII Standard -VERSION 2.0
 WRAP.                   NO:   One line per depth step
~Well Information Block
#MNEM.UNIT     VALUE/NAME     DESCRIPTION
#---------     -----------    ---------------------------
 STRT.S             22:20:35 08-May-21: START TIME 22:20:35 08-May-21
 STOP.S             22:27:08 08-May-21: STOP TIME  22:27:08 08-May-21
 STEP.S                   0.00: STEP TIME
 NULL.                 -999.25: NULL VALUE
 PROV.                    Baku:  PROVINCE
 STAT.                    Baku:  STATE NAME
 SON .        AZ-XX-0906571588:  JOB NUMBER
 WTYP.                Deviated:  WELL TYPE
 COMP.     BP Exploration (Caspian Sea) ltd:  COMPANY
 BASE.              Azerbaijan:  LOGGING EQUIPMENT BASE LOCATION
 REGN.                   EESSA:  REGION
 CTRY.              Azerbaijan:  COUNTRY NAME
 FLD .                     ACG:  FIELD NAME
 WELL.                     J28:  WELL NAME
 RIG .             West Chirag:  RIG NAME
 DMF .             Drill Floor:  DRILL MEAS FROM
 PDAT.       Caspian Sea Level:  PERMANENT DATUM
 HPTY.       Minimum Curvature:  HOLE POS TYPE
 MDS .        Operator Entered:  MAG DATA SOURCE
 NREF.                    Grid:  NORTH REFERENCE
 SRVC.          TURAN DRILLING:  CONTRACTOR
 JOBN.        AZ-XX-0906571588:  JOB TICKET NUMB
 DCON.     Halliburton Sperry Drilling:  DIRECTNL CONTR
 STIM.      00.44.00 11-Feb-21:  START TIME
 DATE.      00.00.00 05-May-21:  END TIME
 SPUD.               13-Feb-21:  SPUD DATE
 MWDS.                    Baku:  MWD SHOP
 DOE .                     N/A:  DOE NUMBER
 UNIT.                     N/A:  LOGGING EQUIPMENT ID
 UWI .                     N/A:  UNIQUE WELL IDENTIFIER
 API .                     N/A:  API NUMBER
 CNTY.                        :  COUNTY
 LOC .                        :  LOCATION
 LMF .             Drill Floor:  LOG MEASURED FROM
 TVDS.m                  43.00:  TVDSS CORRECTN
 SDEP.m                 341.00:  START DEPTH
 EGL .m                   0.00:  GROUND ELEVATION
 WDMS.m                 169.80:  WD ELEV
 AGAP.m                  43.00:  AIR GAP
 EPD .m                   0.00:  ELEVATION
 APD .m                  43.00:  DEPTH ABOVE PD
 LATI.deg                40.13:  LATITUDE
 LONG.deg                51.22:  LONGITUDE
 UTMY.m             4443793.85:  UTM Y
 UTMX.m              519005.06:  UTM X
 WHEW.m                 -11.57:  WELL HEAD E/W
 WHNS.m                   8.57:  WELL HEAD N/S
 VSEW.m                 -11.57:  VERT SEC E/W
 VSNS.m                   8.57:  VERT SEC N/S
 DFWL.m                   0.00:  DISTANCE FWL
 DFSL.m                   0.00:  DISTANCE FSL
 VSDR.deg               299.34:  VERT SEC DIRECT
 GVFD.g                   1.00:  GRAVITY FIELD
 AZTC.deg                 6.36:  AZM TOTAL CORR
 MFLD.nT              50391.00:  MAGNETIC FIELD
 MDIP.deg                59.65:  MAGNETIC DIP
 MDEC.deg                 6.48:  MAGNETIC DECL
 GRDC.deg                 0.12:  GRID CORRECTION
 DEP .m                 334.96:  DEPTH
 TDD .m                1407.26:  TOTAL DEPTH (DRILLER)
 EKB .m                  43.00:  KB ELEVATION
 EDF .m                  43.00:  DF ELEVATION
 TDL .m                 228.00:  TOTAL DEPTH (LOGGER)
 VSC .                       0:  VS TO CLOSURE
 MAGU.                 1854484:  MAGUTM CHECKSUM
~Parameter Information Block
#MNEM.UNIT       Value        Description
#---------     -----------    ---------------------------
 AV  .mps                 4.00:  Ann Velocity 
 AVMX.mps                 4.73:  Max Ann Veloc 
 AZIF.deg               304.48:  Azm, Final 
 BHAT.        Rotary Steerable:  BHA Type 
 BREV.rev            257300.00:  Rev Bit Total 
 BROT.°/30m               0.00:  Build Rotating 
 BS  .in                  8.50:  Bit Size 
 BSZ .in                  8.50:  Bit Size 
 BTPL.psig              589.00:  Bit Press Loss 
 CABU.                      No:  Customer Abuse 
 CGEO.          Mubariz ghayev:  Customer Geo 
 COMM.                     lÿM:  Run Comments 1 
 TCS .hr                 64.25:  Time Ciculation Ended 
 CV  .mps                 3.50:  Crit Velocity 
 CVMX.mps                 4.52:  Max Crit Veloc 
 DD1 .             Aziz Aliyev:  Direct Drillr 1 
 DD2 .         Intigam Rahimov:  Direct Drillr 2 
 DD3 .          Rashad Habibov:  Direct Drillr 3 
 DDSV.               Geo-Pilot:  DD Service 
 DEFF.%                  98.00:  % Det Eff 
 DLRX.°/30m               0.00:  Dogleg Rot Max 
 DLSO.°/30m               0.00:  Dogleg Oriented 
 DLSX.°/30m               0.00:  Dogleg Str Max 
 DRET.      10.45.04 08-May-21:  Drill End Time 
 DRST.      03.30.04 04-May-21:  Drill Start Tim 
 DTIM.hr                 14.97:  Time Drilling 
 EDEP.m                4640.01:  End Depth 
 ENG1.         Dail Mahammadov:  Engineer 1 
 ENG2.           Eldar Hajiyev:  Engineer 2 
 ENG3.       Bakhtiar Jabbarli:  Engineer 3 
 ENG4.       Natik Hasanagayev:  Engineer 4 
 ETIM.      09.30.04 14-May-21:  End Time 
 FLOI.gpm               460.00:  Flow In 
 FLON.gpm               200.00:  Flow In Min 
 FLOS.cptm                0.00:  Fluid Loss 
 FLOX.gpm               505.00:  Flow In Max 
 HFLO.                      No:  High Flow 
 HPRE.                      No:  High Pressure 
 HTEM.                      No:  High Temp 
 HYDO.m                   1.80:  Hydro Offset 
 IFIN.deg                66.71:  Inc, Final 
 IMAX.deg                67.03:  Inc Max 
 IMIN.deg                66.63:  Inc Min 
 IMND.m                4550.58:  Inc Min Depth 
 IMXD.m                4439.01:  Inc Max Depth 
 JARR.                      No:  Jarring 
 LETM.      10.45.04 08-May-21:  Log End Time 
 LOST.hr                     0:  Lost Rig Time 
 LSTM.      03.30.04 04-May-21:  Log Start Time 
 MDCL.ppm             37000.00:  Mud Chlorides 
 MDES.     Inversion Oil/Synthetic:  Mud Desc 
 DFD .sg                  1.38:  Mud Density 
 MDMN.sg                  1.35:  Dens Mud Min 
 MDMX.sg                  1.40:  Dens Mud Max 
 MOIL.                   57.40:  Run Mud Oil % 
 MOWR.                   70:30:  Run Mud OWR 
 MSND.                    0.00:  Run Mud Sand % 
 MSOL.                   18.00:  Run Mud Solids% 
 DFV .spqt               71.00:  Mud Viscosity 
 MWOD.in                  6.75:  MWD Tool OD 
 MWSI.                      No:  Serv Intrp, MWD 
 OTIM.hr                242.76:  Time Operating 
 PCON.           Look Like New:  Pad Condition 
 PMAX.psia            12183.92:  Press Op, Max 
 PV  .cP                 27.00:  Mud PV 
 RUN .                    1300:  Run Number 
 ROPA.m/hr               15.00:  ROP Avg 
 ROPN.m/hr                9.00:  ROP Min 
 ROPX.m/hr               19.00:  ROP Max 
 RPMA.rpm               120.00:  RPM Surface Avg 
 RPMN.rpm               100.00:  RPM Surface Min 
 RPMX.rpm               120.00:  RPM Surface Max 
 RRUN.                    1300:  Rig Run Number 
 RTIM.hr                  5.00:  Time Reaming 
 SAZI.deg               304.73:  Azm, Start 
 SDEP.m                4412.01:  Start Depth 
 SIDD.                      No:  Serv Intrp, DD 
 SINC.deg                66.82:  Inc, Start 
 SPPA.psig             2800.00:  SPP Avg 
 SPPN.psig             2610.00:  SPP Min 
 SPPX.psig             3100.00:  SPP Max 
 STIM.      03.30.00 04-May-21:  Start Time 
 SVCS.                 DD, MWD:  Services 
 SVER.                    9.20:  Sperry Version 
 TDAT.m                 228.00:  Tot Depth Attmp 
 TDDF.                      No:  Trip for DD 
 TDLG.m                 228.00:  Tot Depth Loggd 
 TFF .                      No:  Trip for Fail 
 TQAA.f-kp               15.00:  Torque Abs Avg 
 TQAN.f-kp               12.00:  Torque Abs Min 
 TQAX.f-kp               22.00:  Torque Abs Max 
 TRRT.°/30m               0.00:  Turn Rotating 
 MRT .                    HCIM:  Maximum Recorded Temperature 
 TTMX.degC               90.20:  Max Tool Temp 
 VS01.                90627813:  Virtual Str1 SN 
 VS02.                90634712:  Virtual Str2 SN 
 VS03.                90643410:  Virtual Str3 SN 
 VS04.                90634712:  Virtual Str4 SN 
 WBMN.klb                 9.00:  WOB Min 
 WITN.        Elmaddin Rahimov:  Customer Rep 
 WITN.         Haytham Mostafa:  Customer Rep 2 
 WOBA.klb                15.00:  WOB Avg 
 WOBX.klb                23.00:  WOB Max 
 YP  .lhf2               29.00:  Yield Point 
~Curve Information Block
#MNEM.UNIT                 API CODE     Curve Description
#---------               -----------    ---------------------------
 TIME.HHMMSS            00 000 000 000:  GT Time & Date
 GTDEPTH.m              00 000 000 000:  GT Depth
 GTPQH.psia             00 000 000 000:  GT HR Quartz Pressure
 GTTQ.degC              00 000 000 000:  GT Quartz Temperature
 GTTN.NONE              00 000 000 000:  GT Test Number
 GTET.sec               00 000 000 000:  GT Elapsed Test Time
 GTTVD.m                00 000 000 000:  GT True Vertical Depth
#Other Information
#
#WARRANTY: Halliburton will use its best efforts to furnish customers with 
#accurate information and interpretations that are part of, and incident to, the services 
#provided.  However, Halliburton cannot and does not warrant the accuracy 
#or correctness of such information and interpretations.  Under no circumstances should any 
#such information or interpretation be relied upon as the sole basis for any drilling, 
#completion, production, or financial decision or any procedure involving any risk to the 
#safety of any drilling venture, drilling rig or its crew or any other third party.  The 
#Customer has full responsibility for all drilling, completion and production operation.  
#Halliburton makes no representations or warranties, either expressed or 
#implied, including, but not limited to, the implied warranties of merchantability or fitness 
#for a particular purpose, with respect to the services rendered.  In no event will 
#Halliburton be liable for failure to obtain any particular results or for 
#any damages, including, but not limited to, indirect, special or consequential damages, 
#resulting from the use of any information or interpretation provided by Halliburton.
#
~A           TIME           GTDEPTH  GTPQH  GTTQ  GTTN  GTET   GTTVD  
# ...
   22:24:48.000.08-May-2021 4569.01  732.56 68.49 4.00 253.00 2999.38
   22:24:48.200.08-May-2021 4569.01  732.56 68.49 4.00 253.20 2999.38
   22:24:48.400.08-May-2021 4569.01  732.41 68.49 4.00 253.40 2999.38
   22:24:48.600.08-May-2021 4569.01  731.95 68.49 4.00 253.60 2999.38
   22:24:48.800.08-May-2021 4569.01  731.09 68.49 4.00 253.80 2999.38
   22:24:49.000.08-May-2021 4569.01  731.17 68.49 4.00 254.00 2999.38
   22:24:49.200.08-May-2021 4569.01  731.17 68.49 4.00 254.20 2999.38
   22:24:49.400.08-May-2021 4569.01  730.85 68.49 4.00 254.40 2999.38
   22:24:49.600.08-May-2021 4569.01  730.82 68.49 4.00 254.60 2999.38
   22:24:49.800.08-May-2021 4569.01  730.81 68.49 4.00 254.80 2999.38
   22:24:50.000.08-May-2021 4569.01  730.84 68.49 4.00 255.00 2999.38
   22:24:50.200.08-May-2021 4569.01  730.84 68.49 4.00 255.20 2999.38
   22:24:50.400.08-May-2021 4569.01  730.94 68.49 4.00 255.40 2999.38
   22:24:50.600.08-May-2021 4569.01  730.98 68.49 4.00 255.60 2999.38
   22:24:50.800.08-May-2021 4569.01  730.79 68.49 4.00 255.80 2999.38
   22:24:51.000.08-May-2021 4569.01  730.26 68.49 4.00 256.00 2999.38
   22:24:51.200.08-May-2021 4569.01  730.26 68.49 4.00 256.20 2999.38
   22:24:51.400.08-May-2021 4569.01  729.46 68.49 4.00 256.40 2999.38
   22:24:51.600.08-May-2021 4569.01  729.33 68.49 4.00 256.60 2999.38
   22:24:51.800.08-May-2021 4569.01  729.44 68.49 4.00 256.80 2999.38
   22:24:52.000.08-May-2021 4569.01  729.17 68.49 4.00 257.00 2999.38
   22:24:52.200.08-May-2021 4569.01  729.17 68.49 4.00 257.20 2999.38
   22:24:52.400.08-May-2021 4569.01  729.08 68.49 4.00 257.40 2999.38
   22:24:52.600.08-May-2021 4569.01  729.21 68.49 4.00 257.60 2999.38
   22:24:52.800.08-May-2021 4569.01  729.22 68.49 4.00 257.80 2999.38
   22:24:53.000.08-May-2021 4569.01  729.03 68.49 4.00 258.00 2999.38
   22:24:53.200.08-May-2021 4569.01  729.03 68.49 4.00 258.20 2999.38
   22:24:53.400.08-May-2021 4569.01  728.79 68.49 4.00 258.40 2999.38
   22:24:53.600.08-May-2021 4569.01  729.11 68.49 4.00 258.60 2999.38
   22:24:53.800.08-May-2021 4569.01  728.71 68.49 4.00 258.80 2999.38
   22:24:54.000.08-May-2021 4569.01  729.38 68.49 4.00 259.00 2999.38
   22:24:54.200.08-May-2021 4569.01  729.38 68.49 4.00 259.20 2999.38
   22:24:54.400.08-May-2021 4569.01  728.90 68.49 4.00 259.40 2999.38
   22:24:54.600.08-May-2021 4569.01  728.92 68.49 4.00 259.60 2999.38
   22:24:54.800.08-May-2021 4569.01  728.84 68.49 4.00 259.80 2999.38
   22:24:55.000.08-May-2021 4569.01  728.90 68.49 4.00 260.00 2999.38
   22:24:55.200.08-May-2021 4569.01  728.90 68.49 4.00 260.20 2999.38
   22:24:55.400.08-May-2021 4569.01  728.95 68.49 4.00 260.40 2999.38
   22:24:55.600.08-May-2021 4569.01  728.93 68.49 4.00 260.60 2999.38
   22:24:55.800.08-May-2021 4569.01  729.07 68.49 4.00 260.80 2999.38
   22:24:56.000.08-May-2021 4569.01  729.27 68.49 4.00 261.00 2999.38
   22:24:56.200.08-May-2021 4569.01  729.27 68.49 4.00 261.20 2999.38
   22:24:56.400.08-May-2021 4569.01  733.00 68.49 4.00 261.40 2999.38
   22:24:56.600.08-May-2021 4569.01  737.59 68.49 4.00 261.60 2999.38
   22:24:56.800.08-May-2021 4569.01  737.22 68.49 4.00 261.80 2999.38
   22:24:57.000.08-May-2021 4569.01  737.37 68.48 4.00 262.00 2999.38
   22:24:57.200.08-May-2021 4569.01  737.37 68.48 4.00 262.20 2999.38
   22:24:57.400.08-May-2021 4569.01  737.32 68.49 4.00 262.40 2999.38
   22:24:57.600.08-May-2021 4569.01  737.33 68.49 4.00 262.60 2999.38
   22:24:57.800.08-May-2021 4569.01  737.39 68.49 4.00 262.80 2999.38
   22:24:58.000.08-May-2021 4569.01  737.39 68.49 4.00 263.00 2999.38
   22:24:58.200.08-May-2021 4569.01  737.39 68.49 4.00 263.20 2999.38
   22:24:58.400.08-May-2021 4569.01  737.47 68.49 4.00 263.40 2999.38
   22:24:58.600.08-May-2021 4569.01  737.51 68.49 4.00 263.60 2999.38
   22:24:58.800.08-May-2021 4569.01  737.59 68.49 4.00 263.80 2999.38
   22:24:59.000.08-May-2021 4569.01  737.26 68.49 4.00 264.00 2999.38
   22:24:59.200.08-May-2021 4569.01  737.26 68.49 4.00 264.20 2999.38
   22:24:59.400.08-May-2021 4569.01  737.62 68.48 4.00 264.40 2999.38
   22:24:59.600.08-May-2021 4569.01  737.71 68.49 4.00 264.60 2999.38
   22:24:59.800.08-May-2021 4569.01  737.77 68.49 4.00 264.80 2999.38
   22:25:00.000.08-May-2021 4569.01  737.35 68.49 4.00 265.00 2999.38
   22:25:00.200.08-May-2021 4569.01  737.35 68.49 4.00 265.20 2999.38
   22:25:00.400.08-May-2021 4569.01  738.29 68.48 4.00 265.40 2999.38
   22:25:00.600.08-May-2021 4569.01  737.97 68.49 4.00 265.60 2999.38
   22:25:00.800.08-May-2021 4569.01  738.10 68.49 4.00 265.80 2999.38
   22:25:01.000.08-May-2021 4569.01  737.93 68.49 4.00 266.00 2999.38
   22:25:01.200.08-May-2021 4569.01  737.93 68.49 4.00 266.20 2999.38
   22:25:01.400.08-May-2021 4569.01  738.31 68.48 4.00 266.40 2999.38
   22:25:01.600.08-May-2021 4569.01  738.13 68.49 4.00 266.60 2999.38
   22:25:01.800.08-May-2021 4569.01  738.22 68.49 4.00 266.80 2999.38
   22:25:02.000.08-May-2021 4569.01  738.24 68.49 4.00 267.00 2999.38
   22:25:02.200.08-May-2021 4569.01  738.24 68.49 4.00 267.20 2999.38
   22:25:02.400.08-May-2021 4569.01  737.87 68.49 4.00 267.40 2999.38
   22:25:02.600.08-May-2021 4569.01  738.60 68.49 4.00 267.60 2999.38
   22:25:02.800.08-May-2021 4569.01  738.37 68.49 4.00 267.80 2999.38
   22:25:03.000.08-May-2021 4569.01  738.42 68.49 4.00 268.00 2999.38
   22:25:03.200.08-May-2021 4569.01  738.42 68.49 4.00 268.20 2999.38
   22:25:03.400.08-May-2021 4569.01  738.48 68.49 4.00 268.40 2999.38
   22:25:03.600.08-May-2021 4569.01  738.50 68.49 4.00 268.60 2999.38
   22:25:03.800.08-May-2021 4569.01  738.54 68.49 4.00 268.80 2999.38
   22:25:04.000.08-May-2021 4569.01  738.59 68.49 4.00 269.00 2999.38
   22:25:04.200.08-May-2021 4569.01  738.59 68.49 4.00 269.20 2999.38
   22:25:04.400.08-May-2021 4569.01  738.66 68.49 4.00 269.40 2999.38
   22:25:04.600.08-May-2021 4569.01  738.72 68.49 4.00 269.60 2999.38
   22:25:04.800.08-May-2021 4569.01  738.31 68.48 4.00 269.80 2999.38
   22:25:05.000.08-May-2021 4569.01  738.88 68.49 4.00 270.00 2999.38
   22:25:05.200.08-May-2021 4569.01  738.88 68.49 4.00 270.20 2999.38
   22:25:05.400.08-May-2021 4569.01  738.96 68.49 4.00 270.40 2999.38
   22:25:05.600.08-May-2021 4569.01  738.93 68.49 4.00 270.60 2999.38
   22:25:05.800.08-May-2021 4569.01  738.97 68.49 4.00 270.80 2999.38
   22:25:06.000.08-May-2021 4569.01  738.99 68.49 4.00 271.00 2999.38
   22:25:06.200.08-May-2021 4569.01  738.99 68.49 4.00 271.20 2999.38
   22:25:06.400.08-May-2021 4569.01  739.03 68.49 4.00 271.40 2999.38
   22:25:06.600.08-May-2021 4569.01  739.09 68.49 4.00 271.60 2999.38
   22:25:06.800.08-May-2021 4569.01  739.15 68.49 4.00 271.80 2999.38
   22:25:07.000.08-May-2021 4569.01  739.16 68.49 4.00 272.00 2999.38
   22:25:07.200.08-May-2021 4569.01  739.16 68.49 4.00 272.20 2999.38
   22:25:07.400.08-May-2021 4569.01  738.61 68.49 4.00 272.40 2999.38
   22:25:07.600.08-May-2021 4569.01  739.62 68.49 4.00 272.60 2999.38
   22:25:07.800.08-May-2021 4569.01  739.24 68.49 4.00 272.80 2999.38
   22:25:08.000.08-May-2021 4569.01  739.46 68.49 4.00 273.00 2999.38
   22:25:08.200.08-May-2021 4569.01  739.46 68.49 4.00 273.20 2999.38
   22:25:08.400.08-May-2021 4569.01  739.30 68.49 4.00 273.40 2999.38
   22:25:08.600.08-May-2021 4569.01  739.48 68.49 4.00 273.60 2999.38
   22:25:08.800.08-May-2021 4569.01  739.58 68.49 4.00 273.80 2999.38
   22:25:09.000.08-May-2021 4569.01  739.49 68.49 4.00 274.00 2999.38
   22:25:09.200.08-May-2021 4569.01  739.49 68.49 4.00 274.20 2999.38
   22:25:09.400.08-May-2021 4569.01  738.88 68.49 4.00 274.40 2999.38
   22:25:09.600.08-May-2021 4569.01  739.77 68.49 4.00 274.60 2999.38
   22:25:09.800.08-May-2021 4569.01  739.50 68.49 4.00 274.80 2999.38
   22:25:10.000.08-May-2021 4569.01  739.76 68.49 4.00 275.00 2999.38
   22:25:10.200.08-May-2021 4569.01  739.76 68.49 4.00 275.20 2999.38
   22:25:10.400.08-May-2021 4569.01  739.38 68.48 4.00 275.40 2999.38
   22:25:10.600.08-May-2021 4569.01  740.04 68.49 4.00 275.60 2999.38
   22:25:10.800.08-May-2021 4569.01  739.70 68.48 4.00 275.80 2999.38
