~Version Information
 VERS.                  2.0:   CWLS log ASCII Standard -VERSION 2.0
 WRAP.                   NO:   One line per depth step
~Well Information Block
#MNEM.UNIT     VALUE/NAME     DESCRIPTION
#---------     -----------    ---------------------------
 STRT.S             22:20:35 08-May-21: START TIME 22:20:35 08-May-21
 STOP.S             22:27:08 08-May-21: STOP TIME  22:27:08 08-May-21
 STEP.S                   0.00: STEP TIME
 NULL.                 -999.25: NULL VALUE
 PROV.                    Baku:  PROVINCE
 STAT.                    Baku:  STATE NAME
 SON .        AZ-XX-0906571588:  JOB NUMBER
 WTYP.                Deviated:  WELL TYPE
 COMP.     BP Exploration (Caspian Sea) ltd:  COMPANY
 BASE.              Azerbaijan:  LOGGING EQUIPMENT BASE LOCATION
 REGN.                   EESSA:  REGION
 CTRY.              Azerbaijan:  COUNTRY NAME
 FLD .                     ACG:  FIELD NAME
 WELL.                     J28:  WELL NAME
 RIG .             West Chirag:  RIG NAME
 DMF .             Drill Floor:  DRILL MEAS FROM
 PDAT.       Caspian Sea Level:  PERMANENT DATUM
 HPTY.       Minimum Curvature:  HOLE POS TYPE
 MDS .        Operator Entered:  MAG DATA SOURCE
 NREF.                    Grid:  NORTH REFERENCE
 SRVC.          TURAN DRILLING:  CONTRACTOR
 JOBN.        AZ-XX-0906571588:  JOB TICKET NUMB
 DCON.     Halliburton Sperry Drilling:  DIRECTNL CONTR
 STIM.      00.44.00 11-Feb-21:  START TIME
 DATE.      00.00.00 05-May-21:  END TIME
 SPUD.               13-Feb-21:  SPUD DATE
 MWDS.                    Baku:  MWD SHOP
 DOE .                     N/A:  DOE NUMBER
 UNIT.                     N/A:  LOGGING EQUIPMENT ID
 UWI .                     N/A:  UNIQUE WELL IDENTIFIER
 API .                     N/A:  API NUMBER
 CNTY.                        :  COUNTY
 LOC .                        :  LOCATION
 LMF .             Drill Floor:  LOG MEASURED FROM
 TVDS.m                  43.00:  TVDSS CORRECTN
 SDEP.m                 341.00:  START DEPTH
 EGL .m                   0.00:  GROUND ELEVATION
 WDMS.m                 169.80:  WD ELEV
 AGAP.m                  43.00:  AIR GAP
 EPD .m                   0.00:  ELEVATION
 APD .m                  43.00:  DEPTH ABOVE PD
 LATI.deg                40.13:  LATITUDE
 LONG.deg                51.22:  LONGITUDE
 UTMY.m             4443793.85:  UTM Y
 UTMX.m              519005.06:  UTM X
 WHEW.m                 -11.57:  WELL HEAD E/W
 WHNS.m                   8.57:  WELL HEAD N/S
 VSEW.m                 -11.57:  VERT SEC E/W
 VSNS.m                   8.57:  VERT SEC N/S
 DFWL.m                   0.00:  DISTANCE FWL
 DFSL.m                   0.00:  DISTANCE FSL
 VSDR.deg               299.34:  VERT SEC DIRECT
 GVFD.g                   1.00:  GRAVITY FIELD
 AZTC.deg                 6.36:  AZM TOTAL CORR
 MFLD.nT              50391.00:  MAGNETIC FIELD
 MDIP.deg                59.65:  MAGNETIC DIP
 MDEC.deg                 6.48:  MAGNETIC DECL
 GRDC.deg                 0.12:  GRID CORRECTION
 DEP .m                 334.96:  DEPTH
 TDD .m                1407.26:  TOTAL DEPTH (DRILLER)
 EKB .m                  43.00:  KB ELEVATION
 EDF .m                  43.00:  DF ELEVATION
 TDL .m                 228.00:  TOTAL DEPTH (LOGGER)
 VSC .                       0:  VS TO CLOSURE
 MAGU.                 1854484:  MAGUTM CHECKSUM
~Parameter Information Block
#MNEM.UNIT       Value        Description
#---------     -----------    ---------------------------
 AV  .mps                 4.00:  Ann Velocity 
 AVMX.mps                 4.73:  Max Ann Veloc 
 AZIF.deg               304.48:  Azm, Final 
 BHAT.        Rotary Steerable:  BHA Type 
 BREV.rev            257300.00:  Rev Bit Total 
 BROT.°/30m               0.00:  Build Rotating 
 BS  .in                  8.50:  Bit Size 
 BSZ .in                  8.50:  Bit Size 
 BTPL.psig              589.00:  Bit Press Loss 
 CABU.                      No:  Customer Abuse 
 CGEO.          Mubariz ghayev:  Customer Geo 
 COMM.                     lÿM:  Run Comments 1 
 TCS .hr                 64.25:  Time Ciculation Ended 
 CV  .mps                 3.50:  Crit Velocity 
 CVMX.mps                 4.52:  Max Crit Veloc 
 DD1 .             Aziz Aliyev:  Direct Drillr 1 
 DD2 .         Intigam Rahimov:  Direct Drillr 2 
 DD3 .          Rashad Habibov:  Direct Drillr 3 
 DDSV.               Geo-Pilot:  DD Service 
 DEFF.%                  98.00:  % Det Eff 
 DLRX.°/30m               0.00:  Dogleg Rot Max 
 DLSO.°/30m               0.00:  Dogleg Oriented 
 DLSX.°/30m               0.00:  Dogleg Str Max 
 DRET.      10.45.04 08-May-21:  Drill End Time 
 DRST.      03.30.04 04-May-21:  Drill Start Tim 
 DTIM.hr                 14.97:  Time Drilling 
 EDEP.m                4640.01:  End Depth 
 ENG1.         Dail Mahammadov:  Engineer 1 
 ENG2.           Eldar Hajiyev:  Engineer 2 
 ENG3.       Bakhtiar Jabbarli:  Engineer 3 
 ENG4.       Natik Hasanagayev:  Engineer 4 
 ETIM.      09.30.04 14-May-21:  End Time 
 FLOI.gpm               460.00:  Flow In 
 FLON.gpm               200.00:  Flow In Min 
 FLOS.cptm                0.00:  Fluid Loss 
 FLOX.gpm               505.00:  Flow In Max 
 HFLO.                      No:  High Flow 
 HPRE.                      No:  High Pressure 
 HTEM.                      No:  High Temp 
 HYDO.m                   1.80:  Hydro Offset 
 IFIN.deg                66.71:  Inc, Final 
 IMAX.deg                67.03:  Inc Max 
 IMIN.deg                66.63:  Inc Min 
 IMND.m                4550.58:  Inc Min Depth 
 IMXD.m                4439.01:  Inc Max Depth 
 JARR.                      No:  Jarring 
 LETM.      10.45.04 08-May-21:  Log End Time 
 LOST.hr                     0:  Lost Rig Time 
 LSTM.      03.30.04 04-May-21:  Log Start Time 
 MDCL.ppm             37000.00:  Mud Chlorides 
 MDES.     Inversion Oil/Synthetic:  Mud Desc 
 DFD .sg                  1.38:  Mud Density 
 MDMN.sg                  1.35:  Dens Mud Min 
 MDMX.sg                  1.40:  Dens Mud Max 
 MOIL.                   57.40:  Run Mud Oil % 
 MOWR.                   70:30:  Run Mud OWR 
 MSND.                    0.00:  Run Mud Sand % 
 MSOL.                   18.00:  Run Mud Solids% 
 DFV .spqt               71.00:  Mud Viscosity 
 MWOD.in                  6.75:  MWD Tool OD 
 MWSI.                      No:  Serv Intrp, MWD 
 OTIM.hr                242.76:  Time Operating 
 PCON.           Look Like New:  Pad Condition 
 PMAX.psia            12183.92:  Press Op, Max 
 PV  .cP                 27.00:  Mud PV 
 RUN .                    1300:  Run Number 
 ROPA.m/hr               15.00:  ROP Avg 
 ROPN.m/hr                9.00:  ROP Min 
 ROPX.m/hr               19.00:  ROP Max 
 RPMA.rpm               120.00:  RPM Surface Avg 
 RPMN.rpm               100.00:  RPM Surface Min 
 RPMX.rpm               120.00:  RPM Surface Max 
 RRUN.                    1300:  Rig Run Number 
 RTIM.hr                  5.00:  Time Reaming 
 SAZI.deg               304.73:  Azm, Start 
 SDEP.m                4412.01:  Start Depth 
 SIDD.                      No:  Serv Intrp, DD 
 SINC.deg                66.82:  Inc, Start 
 SPPA.psig             2800.00:  SPP Avg 
 SPPN.psig             2610.00:  SPP Min 
 SPPX.psig             3100.00:  SPP Max 
 STIM.      03.30.00 04-May-21:  Start Time 
 SVCS.                 DD, MWD:  Services 
 SVER.                    9.20:  Sperry Version 
 TDAT.m                 228.00:  Tot Depth Attmp 
 TDDF.                      No:  Trip for DD 
 TDLG.m                 228.00:  Tot Depth Loggd 
 TFF .                      No:  Trip for Fail 
 TQAA.f-kp               15.00:  Torque Abs Avg 
 TQAN.f-kp               12.00:  Torque Abs Min 
 TQAX.f-kp               22.00:  Torque Abs Max 
 TRRT.°/30m               0.00:  Turn Rotating 
 MRT .                    HCIM:  Maximum Recorded Temperature 
 TTMX.degC               90.20:  Max Tool Temp 
 VS01.                90627813:  Virtual Str1 SN 
 VS02.                90634712:  Virtual Str2 SN 
 VS03.                90643410:  Virtual Str3 SN 
 VS04.                90634712:  Virtual Str4 SN 
 WBMN.klb                 9.00:  WOB Min 
 WITN.        Elmaddin Rahimov:  Customer Rep 
 WITN.         Haytham Mostafa:  Customer Rep 2 
 WOBA.klb                15.00:  WOB Avg 
 WOBX.klb                23.00:  WOB Max 
 YP  .lhf2               29.00:  Yield Point 
~Curve Information Block
#MNEM.UNIT                 API CODE     Curve Description
#---------               -----------    ---------------------------
 TIME.HHMMSS            00 000 000 000:  GT Time & Date
 GTDEPTH.m              00 000 000 000:  GT Depth
 GTPQH.psia             00 000 000 000:  GT HR Quartz Pressure
 GTTQ.degC              00 000 000 000:  GT Quartz Temperature
 GTTN.NONE              00 000 000 000:  GT Test Number
 GTET.sec               00 000 000 000:  GT Elapsed Test Time
 GTTVD.m                00 000 000 000:  GT True Vertical Depth
#Other Information
#
#WARRANTY: Halliburton will use its best efforts to furnish customers with 
#accurate information and interpretations that are part of, and incident to, the services 
#provided.  However, Halliburton cannot and does not warrant the accuracy 
#or correctness of such information and interpretations.  Under no circumstances should any 
#such information or interpretation be relied upon as the sole basis for any drilling, 
#completion, production, or financial decision or any procedure involving any risk to the 
#safety of any drilling venture, drilling rig or its crew or any other third party.  The 
#Customer has full responsibility for all drilling, completion and production operation.  
#Halliburton makes no representations or warranties, either expressed or 
#implied, including, but not limited to, the implied warranties of merchantability or fitness 
#for a particular purpose, with respect to the services rendered.  In no event will 
#Halliburton be liable for failure to obtain any particular results or for 
#any damages, including, but not limited to, indirect, special or consequential damages, 
#resulting from the use of any information or interpretation provided by Halliburton.
#
~A           TIME           GTDEPTH  GTPQH  GTTQ  GTTN  GTET   GTTVD  
# ...
   22:26:43.000.08-May-2021 4569.01 6853.66 68.63 4.00 368.00 2999.38
   22:26:43.200.08-May-2021 4569.01 6853.66 68.63 4.00 368.20 2999.38
   22:26:43.400.08-May-2021 4569.01 6852.64 68.63 4.00 368.40 2999.38
   22:26:43.600.08-May-2021 4569.01 6852.53 68.63 4.00 368.60 2999.38
   22:26:43.800.08-May-2021 4569.01 6852.56 68.63 4.00 368.80 2999.38
   22:26:44.000.08-May-2021 4569.01 6852.83 68.63 4.00 369.00 2999.38
   22:26:44.200.08-May-2021 4569.01 6852.83 68.63 4.00 369.20 2999.38
   22:26:44.400.08-May-2021 4569.01 6854.72 68.63 4.00 369.40 2999.38
   22:26:44.600.08-May-2021 4569.01 6862.53 68.63 4.00 369.60 2999.38
   22:26:44.800.08-May-2021 4569.01 6861.18 68.63 4.00 369.80 2999.38
   22:26:45.000.08-May-2021 4569.01 6854.93 68.64 4.00 370.00 2999.38
   22:26:45.200.08-May-2021 4569.01 6854.93 68.64 4.00 370.20 2999.38
   22:26:45.400.08-May-2021 4569.01 6854.44 68.64 4.00 370.40 2999.38
   22:26:45.600.08-May-2021 4569.01 6855.00 68.64 4.00 370.60 2999.38
   22:26:45.800.08-May-2021 4569.01 6862.18 68.64 4.00 370.80 2999.38
   22:26:46.000.08-May-2021 4569.01 6860.30 68.64 4.00 371.00 2999.38
   22:26:46.200.08-May-2021 4569.01 6860.30 68.64 4.00 371.20 2999.38
   22:26:46.400.08-May-2021 4569.01 6855.54 68.64 4.00 371.40 2999.38
   22:26:46.600.08-May-2021 4569.01 6863.68 68.64 4.00 371.60 2999.38
   22:26:46.800.08-May-2021 4569.01 6861.28 68.64 4.00 371.80 2999.38
   22:26:47.000.08-May-2021 4569.01 6853.74 68.64 4.00 372.00 2999.38
   22:26:47.200.08-May-2021 4569.01 6853.74 68.64 4.00 372.20 2999.38
   22:26:47.400.08-May-2021 4569.01 6853.04 68.64 4.00 372.40 2999.38
   22:26:47.600.08-May-2021 4569.01 6862.21 68.64 4.00 372.60 2999.38
   22:26:47.800.08-May-2021 4569.01 6859.43 68.64 4.00 372.80 2999.38
   22:26:48.000.08-May-2021 4569.01 6856.59 68.64 4.00 373.00 2999.38
   22:26:48.200.08-May-2021 4569.01 6856.59 68.64 4.00 373.20 2999.38
   22:26:48.400.08-May-2021 4569.01 6856.15 68.64 4.00 373.40 2999.38
   22:26:48.600.08-May-2021 4569.01 6854.77 68.64 4.00 373.60 2999.38
   22:26:48.800.08-May-2021 4569.01 6853.89 68.64 4.00 373.80 2999.38
   22:26:49.000.08-May-2021 4569.01 6854.49 68.64 4.00 374.00 2999.38
   22:26:49.200.08-May-2021 4569.01 6854.49 68.64 4.00 374.20 2999.38
   22:26:49.400.08-May-2021 4569.01 6854.59 68.64 4.00 374.40 2999.38
   22:26:49.600.08-May-2021 4569.01 6855.16 68.64 4.00 374.60 2999.38
   22:26:49.800.08-May-2021 4569.01 6856.01 68.64 4.00 374.80 2999.38
   22:26:50.000.08-May-2021 4569.01 6855.07 68.64 4.00 375.00 2999.38
   22:26:50.200.08-May-2021 4569.01 6855.07 68.64 4.00 375.20 2999.38
   22:26:50.400.08-May-2021 4569.01 6860.44 68.64 4.00 375.40 2999.38
   22:26:50.600.08-May-2021 4569.01 6861.57 68.64 4.00 375.60 2999.38
   22:26:50.800.08-May-2021 4569.01 6854.17 68.64 4.00 375.80 2999.38
   22:26:51.000.08-May-2021 4569.01 6856.56 68.64 4.00 376.00 2999.38
   22:26:51.200.08-May-2021 4569.01 6856.56 68.64 4.00 376.20 2999.38
   22:26:51.400.08-May-2021 4569.01 6853.17 68.64 4.00 376.40 2999.38
   22:26:51.600.08-May-2021 4569.01 6853.13 68.64 4.00 376.60 2999.38
   22:26:51.800.08-May-2021 4569.01 6852.64 68.64 4.00 376.80 2999.38
   22:26:52.000.08-May-2021 4569.01 6852.66 68.64 4.00 377.00 2999.38
   22:26:52.200.08-May-2021 4569.01 6852.66 68.64 4.00 377.20 2999.38
   22:26:52.400.08-May-2021 4569.01 6853.52 68.64 4.00 377.40 2999.38
   22:26:52.600.08-May-2021 4569.01 6853.73 68.64 4.00 377.60 2999.38
   22:26:52.800.08-May-2021 4569.01 6851.82 68.64 4.00 377.80 2999.38
   22:26:53.000.08-May-2021 4569.01 6860.99 68.64 4.00 378.00 2999.38
   22:26:53.200.08-May-2021 4569.01 6860.99 68.64 4.00 378.20 2999.38
   22:26:53.400.08-May-2021 4569.01 6855.32 68.64 4.00 378.40 2999.38
   22:26:53.600.08-May-2021 4569.01 6855.10 68.64 4.00 378.60 2999.38
   22:26:53.800.08-May-2021 4569.01 6860.21 68.64 4.00 378.80 2999.38
   22:26:54.000.08-May-2021 4569.01 6858.37 68.64 4.00 379.00 2999.38
   22:26:54.200.08-May-2021 4569.01 6858.37 68.64 4.00 379.20 2999.38
   22:26:54.400.08-May-2021 4569.01 6853.19 68.64 4.00 379.40 2999.38
   22:26:54.600.08-May-2021 4569.01 6855.80 68.63 4.00 379.60 2999.38
   22:26:54.800.08-May-2021 4569.01 6857.44 68.63 4.00 379.80 2999.38
   22:26:55.000.08-May-2021 4569.01 6858.15 68.63 4.00 380.00 2999.38
   22:26:55.200.08-May-2021 4569.01 6858.15 68.63 4.00 380.20 2999.38
   22:26:55.400.08-May-2021 4569.01 6852.86 68.63 4.00 380.40 2999.38
   22:26:55.600.08-May-2021 4569.01 6856.19 68.63 4.00 380.60 2999.38
   22:26:55.800.08-May-2021 4569.01 6852.83 68.63 4.00 380.80 2999.38
   22:26:56.000.08-May-2021 4569.01 6857.31 68.63 4.00 381.00 2999.38
   22:26:56.200.08-May-2021 4569.01 6857.31 68.63 4.00 381.20 2999.38
   22:26:56.400.08-May-2021 4569.01 6860.28 68.63 4.00 381.40 2999.38
   22:26:56.600.08-May-2021 4569.01 6853.10 68.63 4.00 381.60 2999.38
   22:26:56.800.08-May-2021 4569.01 6855.84 68.63 4.00 381.80 2999.38
   22:26:57.000.08-May-2021 4569.01 6853.34 68.63 4.00 382.00 2999.38
   22:26:57.200.08-May-2021 4569.01 6853.34 68.63 4.00 382.20 2999.38
   22:26:57.400.08-May-2021 4569.01 6852.88 68.63 4.00 382.40 2999.38
   22:26:57.600.08-May-2021 4569.01 6853.16 68.63 4.00 382.60 2999.38
   22:26:57.800.08-May-2021 4569.01 6852.98 68.63 4.00 382.80 2999.38
   22:26:58.000.08-May-2021 4569.01 6853.63 68.63 4.00 383.00 2999.38
   22:26:58.200.08-May-2021 4569.01 6853.63 68.63 4.00 383.20 2999.38
   22:26:58.400.08-May-2021 4569.01 6854.19 68.63 4.00 383.40 2999.38
   22:26:58.600.08-May-2021 4569.01 6853.41 68.63 4.00 383.60 2999.38
   22:26:58.800.08-May-2021 4569.01 6862.85 68.63 4.00 383.80 2999.38
   22:26:59.000.08-May-2021 4569.01 6862.93 68.63 4.00 384.00 2999.38
   22:26:59.200.08-May-2021 4569.01 6862.93 68.63 4.00 384.20 2999.38
   22:26:59.400.08-May-2021 4569.01 6855.33 68.63 4.00 384.40 2999.38
   22:26:59.600.08-May-2021 4569.01 6853.95 68.63 4.00 384.60 2999.38
   22:26:59.800.08-May-2021 4569.01 6852.98 68.63 4.00 384.80 2999.38
   22:27:00.000.08-May-2021 4569.01 6852.84 68.63 4.00 385.00 2999.38
   22:27:00.200.08-May-2021 4569.01 6852.84 68.63 4.00 385.20 2999.38
   22:27:00.400.08-May-2021 4569.01 6852.19 68.63 4.00 385.40 2999.38
   22:27:00.600.08-May-2021 4569.01 6852.76 68.62 4.00 385.60 2999.38
   22:27:00.800.08-May-2021 4569.01 6853.43 68.62 4.00 385.80 2999.38
   22:27:01.000.08-May-2021 4569.01 6853.60 68.62 4.00 386.00 2999.38
   22:27:01.200.08-May-2021 4569.01 6853.60 68.62 4.00 386.20 2999.38
   22:27:01.400.08-May-2021 4569.01 6863.92 68.62 4.00 386.40 2999.38
   22:27:01.600.08-May-2021 4569.01 6857.14 68.62 4.00 386.60 2999.38
   22:27:01.800.08-May-2021 4569.01 6856.80 68.62 4.00 386.80 2999.38
   22:27:02.000.08-May-2021 4569.01 6855.69 68.62 4.00 387.00 2999.38
   22:27:02.200.08-May-2021 4569.01 6855.69 68.62 4.00 387.20 2999.38
   22:27:02.400.08-May-2021 4569.01 6864.39 68.62 4.00 387.40 2999.38
   22:27:02.600.08-May-2021 4569.01 6856.31 68.62 4.00 387.60 2999.38
   22:27:02.800.08-May-2021 4569.01 6856.25 68.62 4.00 387.80 2999.38
   22:27:03.000.08-May-2021 4569.01 6854.70 68.62 4.00 388.00 2999.38
   22:27:03.200.08-May-2021 4569.01 6854.70 68.62 4.00 388.20 2999.38
   22:27:03.400.08-May-2021 4569.01 6861.00 68.62 4.00 388.40 2999.38
   22:27:03.600.08-May-2021 4569.01 6860.61 68.62 4.00 388.60 2999.38
   22:27:03.800.08-May-2021 4569.01 6853.61 68.62 4.00 388.80 2999.38
   22:27:04.000.08-May-2021 4569.01 6865.04 68.62 4.00 389.00 2999.38
   22:27:04.200.08-May-2021 4569.01 6865.04 68.62 4.00 389.20 2999.38
   22:27:04.400.08-May-2021 4569.01 6856.69 68.62 4.00 389.40 2999.38
   22:27:04.600.08-May-2021 4569.01 6855.17 68.62 4.00 389.60 2999.38
   22:27:04.800.08-May-2021 4569.01 6856.10 68.62 4.00 389.80 2999.38
   22:27:05.000.08-May-2021 4569.01 6854.53 68.62 4.00 390.00 2999.38
   22:27:05.200.08-May-2021 4569.01 6854.53 68.62 4.00 390.20 2999.38
   22:27:05.400.08-May-2021 4569.01 6854.39 68.62 4.00 390.40 2999.38
   22:27:05.600.08-May-2021 4569.01 6853.51 68.62 4.00 390.60 2999.38
   22:27:05.800.08-May-2021 4569.01 6852.79 68.62 4.00 390.80 2999.38
