~Version Information
 VERS.                  2.0:   CWLS log ASCII Standard -VERSION 2.0
 WRAP.                   NO:   One line per depth step
~Well Information Block
#MNEM.UNIT     VALUE/NAME     DESCRIPTION
#---------     -----------    ---------------------------
 STRT.S             20:58:23 08-May-21: START TIME 20:58:23 08-May-21
 STOP.S             21:05:15 08-May-21: STOP TIME  21:05:15 08-May-21
 STEP.S                   0.00: STEP TIME
 NULL.                 -999.25: NULL VALUE
 PROV.                    Baku:  PROVINCE
 STAT.                    Baku:  STATE NAME
 SON .        AZ-XX-0906571588:  JOB NUMBER
 WTYP.                Deviated:  WELL TYPE
 COMP.     BP Exploration (Caspian Sea) ltd:  COMPANY
 BASE.              Azerbaijan:  LOGGING EQUIPMENT BASE LOCATION
 REGN.                   EESSA:  REGION
 CTRY.              Azerbaijan:  COUNTRY NAME
 FLD .                     ACG:  FIELD NAME
 WELL.                     J28:  WELL NAME
 RIG .             West Chirag:  RIG NAME
 DMF .             Drill Floor:  DRILL MEAS FROM
 PDAT.       Caspian Sea Level:  PERMANENT DATUM
 HPTY.       Minimum Curvature:  HOLE POS TYPE
 MDS .        Operator Entered:  MAG DATA SOURCE
 NREF.                    Grid:  NORTH REFERENCE
 SRVC.          TURAN DRILLING:  CONTRACTOR
 JOBN.        AZ-XX-0906571588:  JOB TICKET NUMB
 DCON.     Halliburton Sperry Drilling:  DIRECTNL CONTR
 STIM.      00.44.00 11-Feb-21:  START TIME
 DATE.      00.00.00 05-May-21:  END TIME
 SPUD.               13-Feb-21:  SPUD DATE
 MWDS.                    Baku:  MWD SHOP
 DOE .                     N/A:  DOE NUMBER
 UNIT.                     N/A:  LOGGING EQUIPMENT ID
 UWI .                     N/A:  UNIQUE WELL IDENTIFIER
 API .                     N/A:  API NUMBER
 CNTY.                        :  COUNTY
 LOC .                        :  LOCATION
 LMF .             Drill Floor:  LOG MEASURED FROM
 TVDS.m                  43.00:  TVDSS CORRECTN
 SDEP.m                 341.00:  START DEPTH
 EGL .m                   0.00:  GROUND ELEVATION
 WDMS.m                 169.80:  WD ELEV
 AGAP.m                  43.00:  AIR GAP
 EPD .m                   0.00:  ELEVATION
 APD .m                  43.00:  DEPTH ABOVE PD
 LATI.deg                40.13:  LATITUDE
 LONG.deg                51.22:  LONGITUDE
 UTMY.m             4443793.85:  UTM Y
 UTMX.m              519005.06:  UTM X
 WHEW.m                 -11.57:  WELL HEAD E/W
 WHNS.m                   8.57:  WELL HEAD N/S
 VSEW.m                 -11.57:  VERT SEC E/W
 VSNS.m                   8.57:  VERT SEC N/S
 DFWL.m                   0.00:  DISTANCE FWL
 DFSL.m                   0.00:  DISTANCE FSL
 VSDR.deg               299.34:  VERT SEC DIRECT
 GVFD.g                   1.00:  GRAVITY FIELD
 AZTC.deg                 6.36:  AZM TOTAL CORR
 MFLD.nT              50391.00:  MAGNETIC FIELD
 MDIP.deg                59.65:  MAGNETIC DIP
 MDEC.deg                 6.48:  MAGNETIC DECL
 GRDC.deg                 0.12:  GRID CORRECTION
 DEP .m                 334.96:  DEPTH
 TDD .m                1407.26:  TOTAL DEPTH (DRILLER)
 EKB .m                  43.00:  KB ELEVATION
 EDF .m                  43.00:  DF ELEVATION
 TDL .m                 228.00:  TOTAL DEPTH (LOGGER)
 VSC .                       0:  VS TO CLOSURE
 MAGU.                 1854484:  MAGUTM CHECKSUM
~Parameter Information Block
#MNEM.UNIT       Value        Description
#---------     -----------    ---------------------------
 AV  .mps                 4.00:  Ann Velocity 
 AVMX.mps                 4.73:  Max Ann Veloc 
 AZIF.deg               304.48:  Azm, Final 
 BHAT.        Rotary Steerable:  BHA Type 
 BREV.rev            257300.00:  Rev Bit Total 
 BROT.°/30m               0.00:  Build Rotating 
 BS  .in                  8.50:  Bit Size 
 BSZ .in                  8.50:  Bit Size 
 BTPL.psig              589.00:  Bit Press Loss 
 CABU.                      No:  Customer Abuse 
 CGEO.          Mubariz ghayev:  Customer Geo 
 COMM.                     ”<v:  Run Comments 1 
 TCS .hr                 64.25:  Time Ciculation Ended 
 CV  .mps                 3.50:  Crit Velocity 
 CVMX.mps                 4.52:  Max Crit Veloc 
 DD1 .             Aziz Aliyev:  Direct Drillr 1 
 DD2 .         Intigam Rahimov:  Direct Drillr 2 
 DD3 .          Rashad Habibov:  Direct Drillr 3 
 DDSV.               Geo-Pilot:  DD Service 
 DEFF.%                  98.00:  % Det Eff 
 DLRX.°/30m               0.00:  Dogleg Rot Max 
 DLSO.°/30m               0.00:  Dogleg Oriented 
 DLSX.°/30m               0.00:  Dogleg Str Max 
 DRET.      10.45.04 08-May-21:  Drill End Time 
 DRST.      03.30.04 04-May-21:  Drill Start Tim 
 DTIM.hr                 14.97:  Time Drilling 
 EDEP.m                4640.01:  End Depth 
 ENG1.         Dail Mahammadov:  Engineer 1 
 ENG2.           Eldar Hajiyev:  Engineer 2 
 ENG3.       Bakhtiar Jabbarli:  Engineer 3 
 ENG4.       Natik Hasanagayev:  Engineer 4 
 ETIM.      09.30.04 14-May-21:  End Time 
 FLOI.gpm               460.00:  Flow In 
 FLON.gpm               200.00:  Flow In Min 
 FLOS.cptm                0.00:  Fluid Loss 
 FLOX.gpm               505.00:  Flow In Max 
 HFLO.                      No:  High Flow 
 HPRE.                      No:  High Pressure 
 HTEM.                      No:  High Temp 
 HYDO.m                   1.80:  Hydro Offset 
 IFIN.deg                66.71:  Inc, Final 
 IMAX.deg                67.03:  Inc Max 
 IMIN.deg                66.63:  Inc Min 
 IMND.m                4550.58:  Inc Min Depth 
 IMXD.m                4439.01:  Inc Max Depth 
 JARR.                      No:  Jarring 
 LETM.      10.45.04 08-May-21:  Log End Time 
 LOST.hr                     0:  Lost Rig Time 
 LSTM.      03.30.04 04-May-21:  Log Start Time 
 MDCL.ppm             37000.00:  Mud Chlorides 
 MDES.     Inversion Oil/Synthetic:  Mud Desc 
 DFD .sg                  1.38:  Mud Density 
 MDMN.sg                  1.35:  Dens Mud Min 
 MDMX.sg                  1.40:  Dens Mud Max 
 MOIL.                   57.40:  Run Mud Oil % 
 MOWR.                   70:30:  Run Mud OWR 
 MSND.                    0.00:  Run Mud Sand % 
 MSOL.                   18.00:  Run Mud Solids% 
 DFV .spqt               71.00:  Mud Viscosity 
 MWOD.in                  6.75:  MWD Tool OD 
 MWSI.                      No:  Serv Intrp, MWD 
 OTIM.hr                242.76:  Time Operating 
 PCON.           Look Like New:  Pad Condition 
 PMAX.psia            12183.92:  Press Op, Max 
 PV  .cP                 27.00:  Mud PV 
 RUN .                    1300:  Run Number 
 ROPA.m/hr               15.00:  ROP Avg 
 ROPN.m/hr                9.00:  ROP Min 
 ROPX.m/hr               19.00:  ROP Max 
 RPMA.rpm               120.00:  RPM Surface Avg 
 RPMN.rpm               100.00:  RPM Surface Min 
 RPMX.rpm               120.00:  RPM Surface Max 
 RRUN.                    1300:  Rig Run Number 
 RTIM.hr                  5.00:  Time Reaming 
 SAZI.deg               304.73:  Azm, Start 
 SDEP.m                4412.01:  Start Depth 
 SIDD.                      No:  Serv Intrp, DD 
 SINC.deg                66.82:  Inc, Start 
 SPPA.psig             2800.00:  SPP Avg 
 SPPN.psig             2610.00:  SPP Min 
 SPPX.psig             3100.00:  SPP Max 
 STIM.      03.30.00 04-May-21:  Start Time 
 SVCS.                 DD, MWD:  Services 
 SVER.                    9.20:  Sperry Version 
 TDAT.m                 228.00:  Tot Depth Attmp 
 TDDF.                      No:  Trip for DD 
 TDLG.m                 228.00:  Tot Depth Loggd 
 TFF .                      No:  Trip for Fail 
 TQAA.f-kp               15.00:  Torque Abs Avg 
 TQAN.f-kp               12.00:  Torque Abs Min 
 TQAX.f-kp               22.00:  Torque Abs Max 
 TRRT.°/30m               0.00:  Turn Rotating 
 MRT .                    HCIM:  Maximum Recorded Temperature 
 TTMX.degC               90.20:  Max Tool Temp 
 VS01.                90627813:  Virtual Str1 SN 
 VS02.                90634712:  Virtual Str2 SN 
 VS03.                90643410:  Virtual Str3 SN 
 VS04.                90634712:  Virtual Str4 SN 
 WBMN.klb                 9.00:  WOB Min 
 WITN.        Elmaddin Rahimov:  Customer Rep 
 WITN.         Haytham Mostafa:  Customer Rep 2 
 WOBA.klb                15.00:  WOB Avg 
 WOBX.klb                23.00:  WOB Max 
 YP  .lhf2               29.00:  Yield Point 
~Curve Information Block
#MNEM.UNIT                 API CODE     Curve Description
#---------               -----------    ---------------------------
 TIME.HHMMSS            00 000 000 000:  GT Time & Date
 GTDEPTH.m              00 000 000 000:  GT Depth
 GTPQH.psia             00 000 000 000:  GT HR Quartz Pressure
 GTTQ.degC              00 000 000 000:  GT Quartz Temperature
 GTTN.NONE              00 000 000 000:  GT Test Number
 GTET.sec               00 000 000 000:  GT Elapsed Test Time
 GTTVD.m                00 000 000 000:  GT True Vertical Depth
#Other Information
#
#WARRANTY: Halliburton will use its best efforts to furnish customers with 
#accurate information and interpretations that are part of, and incident to, the services 
#provided.  However, Halliburton cannot and does not warrant the accuracy 
#or correctness of such information and interpretations.  Under no circumstances should any 
#such information or interpretation be relied upon as the sole basis for any drilling, 
#completion, production, or financial decision or any procedure involving any risk to the 
#safety of any drilling venture, drilling rig or its crew or any other third party.  The 
#Customer has full responsibility for all drilling, completion and production operation.  
#Halliburton makes no representations or warranties, either expressed or 
#implied, including, but not limited to, the implied warranties of merchantability or fitness 
#for a particular purpose, with respect to the services rendered.  In no event will 
#Halliburton be liable for failure to obtain any particular results or for 
#any damages, including, but not limited to, indirect, special or consequential damages, 
#resulting from the use of any information or interpretation provided by Halliburton.
#
~A           TIME           GTDEPTH  GTPQH  GTTQ  GTTN  GTET   GTTVD  
   20:58:23.780.08-May-2021 4593.01 6760.67 69.11 2.00   0.00 3008.90
   20:58:23.980.08-May-2021 4593.01 6760.67 69.11 2.00   0.20 3008.90
   20:58:24.180.08-May-2021 4593.01 6764.95 69.11 2.00   0.40 3008.90
   20:58:24.380.08-May-2021 4593.01 6760.91 69.11 2.00   0.60 3008.90
   20:58:24.580.08-May-2021 4593.01 6762.11 69.11 2.00   0.80 3008.90
   20:58:24.780.08-May-2021 4593.01 6774.10 69.11 2.00   1.00 3008.90
   20:58:24.980.08-May-2021 4593.01 6774.10 69.11 2.00   1.20 3008.90
   20:58:25.180.08-May-2021 4593.01 6763.53 69.11 2.00   1.40 3008.90
   20:58:25.380.08-May-2021 4593.01 6765.49 69.11 2.00   1.60 3008.90
   20:58:25.580.08-May-2021 4593.01 6769.17 69.11 2.00   1.80 3008.90
   20:58:25.780.08-May-2021 4593.01 6772.14 69.11 2.00   2.00 3008.90
   20:58:25.980.08-May-2021 4593.01 6772.14 69.11 2.00   2.20 3008.90
   20:58:26.180.08-May-2021 4593.01 6767.10 69.11 2.00   2.40 3008.90
   20:58:26.380.08-May-2021 4593.01 6768.88 69.11 2.00   2.60 3008.90
   20:58:26.580.08-May-2021 4593.01 6779.04 69.11 2.00   2.80 3008.90
   20:58:26.780.08-May-2021 4593.01 6776.20 69.11 2.00   3.00 3008.90
   20:58:26.980.08-May-2021 4593.01 6776.20 69.11 2.00   3.20 3008.90
   20:58:27.180.08-May-2021 4593.01 6772.65 69.11 2.00   3.40 3008.90
   20:58:27.380.08-May-2021 4593.01 6770.04 69.11 2.00   3.60 3008.90
   20:58:27.580.08-May-2021 4593.01 6771.28 69.11 2.00   3.80 3008.90
   20:58:27.780.08-May-2021 4593.01 6771.67 69.11 2.00   4.00 3008.90
   20:58:27.980.08-May-2021 4593.01 6771.67 69.11 2.00   4.20 3008.90
   20:58:28.180.08-May-2021 4593.01 6771.82 69.11 2.00   4.40 3008.90
   20:58:28.380.08-May-2021 4593.01 6771.71 69.11 2.00   4.60 3008.90
   20:58:28.580.08-May-2021 4593.01 6771.67 69.11 2.00   4.80 3008.90
   20:58:28.780.08-May-2021 4593.01 6772.10 69.11 2.00   5.00 3008.90
   20:58:28.980.08-May-2021 4593.01 6772.10 69.11 2.00   5.20 3008.90
   20:58:29.180.08-May-2021 4593.01 6772.49 69.11 2.00   5.40 3008.90
   20:58:29.380.08-May-2021 4593.01 6786.89 69.11 2.00   5.60 3008.90
   20:58:29.580.08-May-2021 4593.01 6778.30 69.11 2.00   5.80 3008.90
   20:58:29.780.08-May-2021 4593.01 6775.17 69.11 2.00   6.00 3008.90
   20:58:29.980.08-May-2021 4593.01 6775.17 69.11 2.00   6.20 3008.90
   20:58:30.180.08-May-2021 4593.01 6775.91 69.11 2.00   6.40 3008.90
   20:58:30.380.08-May-2021 4593.01 6776.22 69.11 2.00   6.60 3008.90
   20:58:30.580.08-May-2021 4593.01 6775.54 69.11 2.00   6.80 3008.90
   20:58:30.780.08-May-2021 4593.01 6775.00 69.11 2.00   7.00 3008.90
   20:58:30.980.08-May-2021 4593.01 6775.00 69.11 2.00   7.20 3008.90
   20:58:31.180.08-May-2021 4593.01 6776.73 69.11 2.00   7.40 3008.90
   20:58:31.380.08-May-2021 4593.01 6774.76 69.11 2.00   7.60 3008.90
   20:58:31.580.08-May-2021 4593.01 6775.94 69.11 2.00   7.80 3008.90
   20:58:31.780.08-May-2021 4593.01 6777.17 69.11 2.00   8.00 3008.90
   20:58:31.981.08-May-2021 4593.01 6777.17 69.11 2.00   8.20 3008.90
   20:58:32.181.08-May-2021 4593.01 6790.92 69.11 2.00   8.40 3008.90
   20:58:32.381.08-May-2021 4593.01 6784.48 69.11 2.00   8.60 3008.90
   20:58:32.581.08-May-2021 4593.01 6779.23 69.11 2.00   8.80 3008.90
   20:58:32.781.08-May-2021 4593.01 6784.77 69.11 2.00   9.00 3008.90
   20:58:32.981.08-May-2021 4593.01 6784.77 69.11 2.00   9.20 3008.90
   20:58:33.181.08-May-2021 4593.01 6791.75 69.11 2.00   9.40 3008.90
   20:58:33.381.08-May-2021 4593.01 6787.14 69.11 2.00   9.60 3008.90
   20:58:33.581.08-May-2021 4593.01 6784.07 69.11 2.00   9.80 3008.90
   20:58:33.781.08-May-2021 4593.01 6787.75 69.11 2.00  10.00 3008.90
   20:58:33.981.08-May-2021 4593.01 6787.75 69.11 2.00  10.20 3008.90
   20:58:34.181.08-May-2021 4593.01 6795.31 69.11 2.00  10.40 3008.90
   20:58:34.381.08-May-2021 4593.01 6789.39 69.11 2.00  10.60 3008.90
   20:58:34.581.08-May-2021 4593.01 6786.89 69.11 2.00  10.80 3008.90
   20:58:34.781.08-May-2021 4593.01 6788.87 69.11 2.00  11.00 3008.90
   20:58:34.981.08-May-2021 4593.01 6788.87 69.11 2.00  11.20 3008.90
   20:58:35.181.08-May-2021 4593.01 6792.44 69.11 2.00  11.40 3008.90
   20:58:35.381.08-May-2021 4593.01 6789.68 69.10 2.00  11.60 3008.90
   20:58:35.581.08-May-2021 4593.01 6796.41 69.10 2.00  11.80 3008.90
   20:58:35.781.08-May-2021 4593.01 6798.32 69.10 2.00  12.00 3008.90
   20:58:35.981.08-May-2021 4593.01 6798.32 69.10 2.00  12.20 3008.90
   20:58:36.181.08-May-2021 4593.01 6798.32 69.10 2.00  12.40 3008.90
   20:58:36.381.08-May-2021 4593.01 6791.74 69.10 2.00  12.60 3008.90
   20:58:36.581.08-May-2021 4593.01 6790.70 69.10 2.00  12.80 3008.90
   20:58:36.781.08-May-2021 4593.01 6802.34 69.10 2.00  13.00 3008.90
   20:58:36.981.08-May-2021 4593.01 6802.34 69.10 2.00  13.20 3008.90
   20:58:37.181.08-May-2021 4593.01 6796.39 69.10 2.00  13.40 3008.90
   20:58:37.381.08-May-2021 4593.01 6798.11 69.10 2.00  13.60 3008.90
   20:58:37.581.08-May-2021 4593.01 6797.01 69.10 2.00  13.80 3008.90
   20:58:37.781.08-May-2021 4593.01 6794.88 69.10 2.00  14.00 3008.90
   20:58:37.981.08-May-2021 4593.01 6794.88 69.10 2.00  14.20 3008.90
   20:58:38.181.08-May-2021 4593.01 6796.19 69.10 2.00  14.40 3008.90
   20:58:38.381.08-May-2021 4593.01 6795.33 69.10 2.00  14.60 3008.90
   20:58:38.581.08-May-2021 4593.01 6795.92 69.10 2.00  14.80 3008.90
   20:58:38.781.08-May-2021 4593.01 6795.95 69.10 2.00  15.00 3008.90
   20:58:38.981.08-May-2021 4593.01 6795.95 69.10 2.00  15.20 3008.90
   20:58:39.181.08-May-2021 4593.01 6796.08 69.10 2.00  15.40 3008.90
   20:58:39.381.08-May-2021 4593.01 6802.56 69.10 2.00  15.60 3008.90
   20:58:39.581.08-May-2021 4593.01 6805.50 69.10 2.00  15.80 3008.90
   20:58:39.781.08-May-2021 4593.01 6801.71 69.10 2.00  16.00 3008.90
   20:58:39.981.08-May-2021 4593.01 6801.71 69.10 2.00  16.20 3008.90
   20:58:40.181.08-May-2021 4593.01 6802.64 69.10 2.00  16.40 3008.90
   20:58:40.381.08-May-2021 4593.01 6799.87 69.10 2.00  16.60 3008.90
   20:58:40.581.08-May-2021 4593.01 6798.39 69.10 2.00  16.80 3008.90
   20:58:40.781.08-May-2021 4593.01 6799.53 69.10 2.00  17.00 3008.90
   20:58:40.981.08-May-2021 4593.01 6799.53 69.10 2.00  17.20 3008.90
   20:58:41.181.08-May-2021 4593.01 6801.00 69.10 2.00  17.40 3008.90
   20:58:41.381.08-May-2021 4593.01 6800.45 69.10 2.00  17.60 3008.90
   20:58:41.582.08-May-2021 4593.01 6798.27 69.10 2.00  17.80 3008.90
   20:58:41.782.08-May-2021 4593.01 6799.40 69.10 2.00  18.00 3008.90
   20:58:41.982.08-May-2021 4593.01 6799.40 69.10 2.00  18.20 3008.90
   20:58:42.182.08-May-2021 4593.01 6813.31 69.10 2.00  18.40 3008.90
   20:58:42.382.08-May-2021 4593.01 6807.21 69.10 2.00  18.60 3008.90
   20:58:42.582.08-May-2021 4593.01 6800.95 69.10 2.00  18.80 3008.90
   20:58:42.782.08-May-2021 4593.01 6805.72 69.10 2.00  19.00 3008.90
   20:58:42.982.08-May-2021 4593.01 6805.72 69.10 2.00  19.20 3008.90
   20:58:43.182.08-May-2021 4593.01 6817.37 69.10 2.00  19.40 3008.90
   20:58:43.382.08-May-2021 4593.01 6808.02 69.10 2.00  19.60 3008.90
   20:58:43.582.08-May-2021 4593.01 6805.58 69.10 2.00  19.80 3008.90
   20:58:43.782.08-May-2021 4593.01 6822.62 69.10 2.00  20.00 3008.90
   20:58:43.982.08-May-2021 4593.01 6822.62 69.10 2.00  20.20 3008.90
   20:58:44.182.08-May-2021 4593.01 6807.15 69.10 2.00  20.40 3008.90
   20:58:44.382.08-May-2021 4593.01 6810.68 69.10 2.00  20.60 3008.90
   20:58:44.582.08-May-2021 4593.01 6807.44 69.10 2.00  20.80 3008.90
   20:58:44.782.08-May-2021 4593.01 6822.82 69.10 2.00  21.00 3008.90
   20:58:44.982.08-May-2021 4593.01 6822.82 69.10 2.00  21.20 3008.90
   20:58:45.182.08-May-2021 4593.01 6810.09 69.10 2.00  21.40 3008.90
   20:58:45.382.08-May-2021 4593.01 6812.15 69.10 2.00  21.60 3008.90
   20:58:45.582.08-May-2021 4593.01 6810.29 69.10 2.00  21.80 3008.90
   20:58:45.782.08-May-2021 4593.01 6810.82 69.10 2.00  22.00 3008.90
   20:58:45.982.08-May-2021 4593.01 6810.82 69.10 2.00  22.20 3008.90
   20:58:46.182.08-May-2021 4593.01 6811.88 69.10 2.00  22.40 3008.90
   20:58:46.382.08-May-2021 4593.01 6811.63 69.10 2.00  22.60 3008.90
   20:58:46.582.08-May-2021 4593.01 6811.66 69.10 2.00  22.80 3008.90
