~Version Information
 VERS.                  2.0:   CWLS log ASCII Standard -VERSION 2.0
 WRAP.                   NO:   One line per depth step
~Well Information Block
#MNEM.UNIT     VALUE/NAME     DESCRIPTION
#---------     -----------    ---------------------------
 STRT.S             01:12:50 09-May-21: START TIME 01:12:50 09-May-21
 STOP.S             01:19:27 09-May-21: STOP TIME  01:19:27 09-May-21
 STEP.S                   0.00: STEP TIME
 NULL.                 -999.25: NULL VALUE
 PROV.                    Baku:  PROVINCE
 STAT.                    Baku:  STATE NAME
 SON .        AZ-XX-0906571588:  JOB NUMBER
 WTYP.                Deviated:  WELL TYPE
 COMP.     BP Exploration (Caspian Sea) ltd:  COMPANY
 BASE.              Azerbaijan:  LOGGING EQUIPMENT BASE LOCATION
 REGN.                   EESSA:  REGION
 CTRY.              Azerbaijan:  COUNTRY NAME
 FLD .                     ACG:  FIELD NAME
 WELL.                     J28:  WELL NAME
 RIG .             West Chirag:  RIG NAME
 DMF .             Drill Floor:  DRILL MEAS FROM
 PDAT.       Caspian Sea Level:  PERMANENT DATUM
 HPTY.       Minimum Curvature:  HOLE POS TYPE
 MDS .        Operator Entered:  MAG DATA SOURCE
 NREF.                    Grid:  NORTH REFERENCE
 SRVC.          TURAN DRILLING:  CONTRACTOR
 JOBN.        AZ-XX-0906571588:  JOB TICKET NUMB
 DCON.     Halliburton Sperry Drilling:  DIRECTNL CONTR
 STIM.      00.44.00 11-Feb-21:  START TIME
 DATE.      00.00.00 05-May-21:  END TIME
 SPUD.               13-Feb-21:  SPUD DATE
 MWDS.                    Baku:  MWD SHOP
 DOE .                     N/A:  DOE NUMBER
 UNIT.                     N/A:  LOGGING EQUIPMENT ID
 UWI .                     N/A:  UNIQUE WELL IDENTIFIER
 API .                     N/A:  API NUMBER
 CNTY.                        :  COUNTY
 LOC .                        :  LOCATION
 LMF .             Drill Floor:  LOG MEASURED FROM
 TVDS.m                  43.00:  TVDSS CORRECTN
 SDEP.m                 341.00:  START DEPTH
 EGL .m                   0.00:  GROUND ELEVATION
 WDMS.m                 169.80:  WD ELEV
 AGAP.m                  43.00:  AIR GAP
 EPD .m                   0.00:  ELEVATION
 APD .m                  43.00:  DEPTH ABOVE PD
 LATI.deg                40.13:  LATITUDE
 LONG.deg                51.22:  LONGITUDE
 UTMY.m             4443793.85:  UTM Y
 UTMX.m              519005.06:  UTM X
 WHEW.m                 -11.57:  WELL HEAD E/W
 WHNS.m                   8.57:  WELL HEAD N/S
 VSEW.m                 -11.57:  VERT SEC E/W
 VSNS.m                   8.57:  VERT SEC N/S
 DFWL.m                   0.00:  DISTANCE FWL
 DFSL.m                   0.00:  DISTANCE FSL
 VSDR.deg               299.34:  VERT SEC DIRECT
 GVFD.g                   1.00:  GRAVITY FIELD
 AZTC.deg                 6.36:  AZM TOTAL CORR
 MFLD.nT              50391.00:  MAGNETIC FIELD
 MDIP.deg                59.65:  MAGNETIC DIP
 MDEC.deg                 6.48:  MAGNETIC DECL
 GRDC.deg                 0.12:  GRID CORRECTION
 DEP .m                 334.96:  DEPTH
 TDD .m                1407.26:  TOTAL DEPTH (DRILLER)
 EKB .m                  43.00:  KB ELEVATION
 EDF .m                  43.00:  DF ELEVATION
 TDL .m                 228.00:  TOTAL DEPTH (LOGGER)
 VSC .                       0:  VS TO CLOSURE
 MAGU.                 1854484:  MAGUTM CHECKSUM
~Parameter Information Block
#MNEM.UNIT       Value        Description
#---------     -----------    ---------------------------
 AV  .mps                 4.00:  Ann Velocity 
 AVMX.mps                 4.73:  Max Ann Veloc 
 AZIF.deg               304.48:  Azm, Final 
 BHAT.        Rotary Steerable:  BHA Type 
 BREV.rev            257300.00:  Rev Bit Total 
 BROT.°/30m               0.00:  Build Rotating 
 BS  .in                  8.50:  Bit Size 
 BSZ .in                  8.50:  Bit Size 
 BTPL.psig              589.00:  Bit Press Loss 
 CABU.                      No:  Customer Abuse 
 CGEO.          Mubariz ghayev:  Customer Geo 
 COMM.                     ÌğZ:  Run Comments 1 
 TCS .hr                 64.25:  Time Ciculation Ended 
 CV  .mps                 3.50:  Crit Velocity 
 CVMX.mps                 4.52:  Max Crit Veloc 
 DD1 .             Aziz Aliyev:  Direct Drillr 1 
 DD2 .         Intigam Rahimov:  Direct Drillr 2 
 DD3 .          Rashad Habibov:  Direct Drillr 3 
 DDSV.               Geo-Pilot:  DD Service 
 DEFF.%                  98.00:  % Det Eff 
 DLRX.°/30m               0.00:  Dogleg Rot Max 
 DLSO.°/30m               0.00:  Dogleg Oriented 
 DLSX.°/30m               0.00:  Dogleg Str Max 
 DRET.      10.45.04 08-May-21:  Drill End Time 
 DRST.      03.30.04 04-May-21:  Drill Start Tim 
 DTIM.hr                 14.97:  Time Drilling 
 EDEP.m                4640.01:  End Depth 
 ENG1.         Dail Mahammadov:  Engineer 1 
 ENG2.           Eldar Hajiyev:  Engineer 2 
 ENG3.       Bakhtiar Jabbarli:  Engineer 3 
 ENG4.       Natik Hasanagayev:  Engineer 4 
 ETIM.      09.30.04 14-May-21:  End Time 
 FLOI.gpm               460.00:  Flow In 
 FLON.gpm               200.00:  Flow In Min 
 FLOS.cptm                0.00:  Fluid Loss 
 FLOX.gpm               505.00:  Flow In Max 
 HFLO.                      No:  High Flow 
 HPRE.                      No:  High Pressure 
 HTEM.                      No:  High Temp 
 HYDO.m                   1.80:  Hydro Offset 
 IFIN.deg                66.71:  Inc, Final 
 IMAX.deg                67.03:  Inc Max 
 IMIN.deg                66.63:  Inc Min 
 IMND.m                4550.58:  Inc Min Depth 
 IMXD.m                4439.01:  Inc Max Depth 
 JARR.                      No:  Jarring 
 LETM.      10.45.04 08-May-21:  Log End Time 
 LOST.hr                     0:  Lost Rig Time 
 LSTM.      03.30.04 04-May-21:  Log Start Time 
 MDCL.ppm             37000.00:  Mud Chlorides 
 MDES.     Inversion Oil/Synthetic:  Mud Desc 
 DFD .sg                  1.38:  Mud Density 
 MDMN.sg                  1.35:  Dens Mud Min 
 MDMX.sg                  1.40:  Dens Mud Max 
 MOIL.                   57.40:  Run Mud Oil % 
 MOWR.                   70:30:  Run Mud OWR 
 MSND.                    0.00:  Run Mud Sand % 
 MSOL.                   18.00:  Run Mud Solids% 
 DFV .spqt               71.00:  Mud Viscosity 
 MWOD.in                  6.75:  MWD Tool OD 
 MWSI.                      No:  Serv Intrp, MWD 
 OTIM.hr                242.76:  Time Operating 
 PCON.           Look Like New:  Pad Condition 
 PMAX.psia            12183.92:  Press Op, Max 
 PV  .cP                 27.00:  Mud PV 
 RUN .                    1300:  Run Number 
 ROPA.m/hr               15.00:  ROP Avg 
 ROPN.m/hr                9.00:  ROP Min 
 ROPX.m/hr               19.00:  ROP Max 
 RPMA.rpm               120.00:  RPM Surface Avg 
 RPMN.rpm               100.00:  RPM Surface Min 
 RPMX.rpm               120.00:  RPM Surface Max 
 RRUN.                    1300:  Rig Run Number 
 RTIM.hr                  5.00:  Time Reaming 
 SAZI.deg               304.73:  Azm, Start 
 SDEP.m                4412.01:  Start Depth 
 SIDD.                      No:  Serv Intrp, DD 
 SINC.deg                66.82:  Inc, Start 
 SPPA.psig             2800.00:  SPP Avg 
 SPPN.psig             2610.00:  SPP Min 
 SPPX.psig             3100.00:  SPP Max 
 STIM.      03.30.00 04-May-21:  Start Time 
 SVCS.                 DD, MWD:  Services 
 SVER.                    9.20:  Sperry Version 
 TDAT.m                 228.00:  Tot Depth Attmp 
 TDDF.                      No:  Trip for DD 
 TDLG.m                 228.00:  Tot Depth Loggd 
 TFF .                      No:  Trip for Fail 
 TQAA.f-kp               15.00:  Torque Abs Avg 
 TQAN.f-kp               12.00:  Torque Abs Min 
 TQAX.f-kp               22.00:  Torque Abs Max 
 TRRT.°/30m               0.00:  Turn Rotating 
 MRT .                    HCIM:  Maximum Recorded Temperature 
 TTMX.degC               90.20:  Max Tool Temp 
 VS01.                90627813:  Virtual Str1 SN 
 VS02.                90634712:  Virtual Str2 SN 
 VS03.                90643410:  Virtual Str3 SN 
 VS04.                90634712:  Virtual Str4 SN 
 WBMN.klb                 9.00:  WOB Min 
 WITN.        Elmaddin Rahimov:  Customer Rep 
 WITN.         Haytham Mostafa:  Customer Rep 2 
 WOBA.klb                15.00:  WOB Avg 
 WOBX.klb                23.00:  WOB Max 
 YP  .lhf2               29.00:  Yield Point 
~Curve Information Block
#MNEM.UNIT                 API CODE     Curve Description
#---------               -----------    ---------------------------
 TIME.HHMMSS            00 000 000 000:  GT Time & Date
 GTDEPTH.m              00 000 000 000:  GT Depth
 GTPQH.psia             00 000 000 000:  GT HR Quartz Pressure
 GTTQ.degC              00 000 000 000:  GT Quartz Temperature
 GTTN.NONE              00 000 000 000:  GT Test Number
 GTET.sec               00 000 000 000:  GT Elapsed Test Time
 GTTVD.m                00 000 000 000:  GT True Vertical Depth
#Other Information
#
#WARRANTY: Halliburton will use its best efforts to furnish customers with 
#accurate information and interpretations that are part of, and incident to, the services 
#provided.  However, Halliburton cannot and does not warrant the accuracy 
#or correctness of such information and interpretations.  Under no circumstances should any 
#such information or interpretation be relied upon as the sole basis for any drilling, 
#completion, production, or financial decision or any procedure involving any risk to the 
#safety of any drilling venture, drilling rig or its crew or any other third party.  The 
#Customer has full responsibility for all drilling, completion and production operation.  
#Halliburton makes no representations or warranties, either expressed or 
#implied, including, but not limited to, the implied warranties of merchantability or fitness 
#for a particular purpose, with respect to the services rendered.  In no event will 
#Halliburton be liable for failure to obtain any particular results or for 
#any damages, including, but not limited to, indirect, special or consequential damages, 
#resulting from the use of any information or interpretation provided by Halliburton.
#
~A           TIME           GTDEPTH  GTPQH  GTTQ  GTTN  GTET   GTTVD  
# ...
   01:15:08.831.09-May-2021 4503.51 1641.55 67.50 9.00 138.05 2973.49
   01:15:09.031.09-May-2021 4503.51 1641.55 67.50 9.00 138.25 2973.49
   01:15:09.231.09-May-2021 4503.51 1691.92 67.50 9.00 138.45 2973.49
   01:15:09.431.09-May-2021 4503.51 1716.83 67.50 9.00 138.65 2973.49
   01:15:09.631.09-May-2021 4503.51 1740.84 67.50 9.00 138.85 2973.49
   01:15:09.831.09-May-2021 4503.51 1764.65 67.50 9.00 139.05 2973.49
   01:15:10.031.09-May-2021 4503.51 1764.65 67.50 9.00 139.25 2973.49
   01:15:10.231.09-May-2021 4503.51 1810.90 67.50 9.00 139.45 2973.49
   01:15:10.432.09-May-2021 4503.51 1833.43 67.50 9.00 139.65 2973.49
   01:15:10.632.09-May-2021 4503.51 1855.60 67.50 9.00 139.85 2973.49
   01:15:10.832.09-May-2021 4503.51 1877.42 67.50 9.00 140.05 2973.49
   01:15:11.032.09-May-2021 4503.51 1877.42 67.50 9.00 140.25 2973.49
   01:15:11.232.09-May-2021 4503.51 1919.99 67.50 9.00 140.45 2973.49
   01:15:11.432.09-May-2021 4503.51 1939.97 67.50 9.00 140.65 2973.49
   01:15:11.632.09-May-2021 4503.51 1960.55 67.50 9.00 140.85 2973.49
   01:15:11.832.09-May-2021 4503.51 1980.25 67.51 9.00 141.05 2973.49
   01:15:12.032.09-May-2021 4503.51 1980.25 67.51 9.00 141.25 2973.49
   01:15:12.232.09-May-2021 4503.51 2018.68 67.51 9.00 141.45 2973.49
   01:15:12.432.09-May-2021 4503.51 2037.95 67.51 9.00 141.65 2973.49
   01:15:12.632.09-May-2021 4503.51 2056.56 67.51 9.00 141.85 2973.49
   01:15:12.832.09-May-2021 4503.51 2074.67 67.51 9.00 142.05 2973.49
   01:15:13.032.09-May-2021 4503.51 2074.67 67.51 9.00 142.25 2973.49
   01:15:13.233.09-May-2021 4503.51 2110.12 67.51 9.00 142.45 2973.49
   01:15:13.433.09-May-2021 4503.51 2127.61 67.51 9.00 142.65 2973.49
   01:15:13.633.09-May-2021 4503.51 2144.61 67.51 9.00 142.85 2973.49
   01:15:13.833.09-May-2021 4503.51 2161.45 67.51 9.00 143.05 2973.49
   01:15:14.033.09-May-2021 4503.51 2161.45 67.51 9.00 143.25 2973.49
   01:15:14.233.09-May-2021 4503.51 2193.93 67.51 9.00 143.45 2973.49
   01:15:14.433.09-May-2021 4503.51 2209.59 67.51 9.00 143.65 2973.49
   01:15:14.633.09-May-2021 4503.51 2224.87 67.51 9.00 143.85 2973.49
   01:15:14.833.09-May-2021 4503.51 2240.29 67.52 9.00 144.05 2973.49
   01:15:15.033.09-May-2021 4503.51 2240.29 67.52 9.00 144.25 2973.49
   01:15:15.233.09-May-2021 4503.51 2270.23 67.52 9.00 144.45 2973.49
   01:15:15.433.09-May-2021 4503.51 2284.82 67.52 9.00 144.65 2973.49
   01:15:15.633.09-May-2021 4503.51 2299.24 67.52 9.00 144.85 2973.49
   01:15:15.833.09-May-2021 4503.51 2313.42 67.52 9.00 145.05 2973.49
   01:15:16.034.09-May-2021 4503.51 2313.42 67.52 9.00 145.25 2973.49
   01:15:16.234.09-May-2021 4503.51 2341.14 67.52 9.00 145.45 2973.49
   01:15:16.434.09-May-2021 4503.51 2354.17 67.52 9.00 145.65 2973.49
   01:15:16.634.09-May-2021 4503.51 2367.06 67.52 9.00 145.85 2973.49
   01:15:16.834.09-May-2021 4503.51 2325.24 67.52 9.00 146.05 2973.49
   01:15:17.034.09-May-2021 4503.51 2325.24 67.52 9.00 146.25 2973.49
   01:15:17.234.09-May-2021 4503.51 1260.90 67.52 9.00 146.45 2973.49
   01:15:17.434.09-May-2021 4503.51  918.07 67.52 9.00 146.65 2973.49
   01:15:17.634.09-May-2021 4503.51  772.14 67.52 9.00 146.85 2973.49
   01:15:17.834.09-May-2021 4503.51  718.49 67.52 9.00 147.05 2973.49
   01:15:18.034.09-May-2021 4503.51  718.49 67.52 9.00 147.25 2973.49
   01:15:18.234.09-May-2021 4503.51  672.71 67.52 9.00 147.45 2973.49
   01:15:18.434.09-May-2021 4503.51  665.31 67.52 9.00 147.65 2973.49
   01:15:18.635.09-May-2021 4503.51  658.60 67.52 9.00 147.85 2973.49
   01:15:18.835.09-May-2021 4503.51  655.96 67.52 9.00 148.05 2973.49
   01:15:19.035.09-May-2021 4503.51  655.96 67.52 9.00 148.25 2973.49
   01:15:19.235.09-May-2021 4503.51  662.87 67.52 9.00 148.45 2973.49
   01:15:19.435.09-May-2021 4503.51  673.81 67.52 9.00 148.65 2973.49
   01:15:19.635.09-May-2021 4503.51  670.15 67.52 9.00 148.85 2973.49
   01:15:19.835.09-May-2021 4503.51  651.41 67.52 9.00 149.05 2973.49
   01:15:20.035.09-May-2021 4503.51  651.41 67.52 9.00 149.25 2973.49
   01:15:20.235.09-May-2021 4503.51  651.40 67.52 9.00 149.45 2973.49
   01:15:20.435.09-May-2021 4503.51  654.41 67.52 9.00 149.65 2973.49
   01:15:20.635.09-May-2021 4503.51  650.06 67.52 9.00 149.85 2973.49
   01:15:20.835.09-May-2021 4503.51  652.89 67.52 9.00 150.05 2973.49
   01:15:21.035.09-May-2021 4503.51  652.89 67.52 9.00 150.25 2973.49
   01:15:21.235.09-May-2021 4503.51  673.69 67.51 9.00 150.45 2973.49
   01:15:21.436.09-May-2021 4503.51  670.70 67.51 9.00 150.65 2973.49
   01:15:21.636.09-May-2021 4503.51  665.20 67.51 9.00 150.85 2973.49
   01:15:21.836.09-May-2021 4503.51  660.40 67.51 9.00 151.05 2973.49
   01:15:22.036.09-May-2021 4503.51  660.40 67.51 9.00 151.25 2973.49
   01:15:22.236.09-May-2021 4503.51  675.67 67.51 9.00 151.45 2973.49
   01:15:22.436.09-May-2021 4503.51  674.41 67.51 9.00 151.65 2973.49
   01:15:22.636.09-May-2021 4503.51  665.91 67.51 9.00 151.86 2973.49
   01:15:22.836.09-May-2021 4503.51  654.19 67.51 9.00 152.06 2973.49
   01:15:23.036.09-May-2021 4503.51  654.19 67.51 9.00 152.26 2973.49
   01:15:23.236.09-May-2021 4503.51  643.13 67.51 9.00 152.46 2973.49
   01:15:23.436.09-May-2021 4503.51  642.10 67.51 9.00 152.66 2973.49
   01:15:23.636.09-May-2021 4503.51  646.08 67.50 9.00 152.86 2973.49
   01:15:23.836.09-May-2021 4503.51  646.01 67.50 9.00 153.06 2973.49
   01:15:24.036.09-May-2021 4503.51  646.01 67.50 9.00 153.26 2973.49
   01:15:24.237.09-May-2021 4503.51  632.64 67.50 9.00 153.46 2973.49
   01:15:24.437.09-May-2021 4503.51  635.29 67.50 9.00 153.66 2973.49
   01:15:24.637.09-May-2021 4503.51  644.57 67.50 9.00 153.86 2973.49
   01:15:24.837.09-May-2021 4503.51  653.74 67.50 9.00 154.06 2973.49
   01:15:25.037.09-May-2021 4503.51  653.74 67.50 9.00 154.26 2973.49
   01:15:25.237.09-May-2021 4503.51  644.57 67.50 9.00 154.46 2973.49
   01:15:25.437.09-May-2021 4503.51  638.10 67.50 9.00 154.66 2973.49
   01:15:25.637.09-May-2021 4503.51  629.35 67.50 9.00 154.86 2973.49
   01:15:25.837.09-May-2021 4503.51  626.07 67.50 9.00 155.06 2973.49
   01:15:26.037.09-May-2021 4503.51  626.07 67.50 9.00 155.26 2973.49
   01:15:26.237.09-May-2021 4503.51  622.04 67.50 9.00 155.46 2973.49
   01:15:26.437.09-May-2021 4503.51  619.16 67.50 9.00 155.66 2973.49
   01:15:26.637.09-May-2021 4503.51  616.84 67.50 9.00 155.86 2973.49
   01:15:26.837.09-May-2021 4503.51  618.01 67.50 9.00 156.06 2973.49
   01:15:27.038.09-May-2021 4503.51  618.01 67.50 9.00 156.26 2973.49
   01:15:27.238.09-May-2021 4503.51  637.59 67.50 9.00 156.46 2973.49
   01:15:27.438.09-May-2021 4503.51  657.03 67.50 9.00 156.66 2973.49
   01:15:27.638.09-May-2021 4503.51  671.40 67.49 9.00 156.86 2973.49
   01:15:27.838.09-May-2021 4503.51  685.71 67.49 9.00 157.06 2973.49
   01:15:28.038.09-May-2021 4503.51  685.71 67.49 9.00 157.26 2973.49
   01:15:28.238.09-May-2021 4503.51  713.71 67.49 9.00 157.46 2973.49
   01:15:28.438.09-May-2021 4503.51  727.60 67.49 9.00 157.66 2973.49
   01:15:28.638.09-May-2021 4503.51  741.87 67.49 9.00 157.86 2973.49
   01:15:28.838.09-May-2021 4503.51  755.85 67.49 9.00 158.06 2973.49
   01:15:29.038.09-May-2021 4503.51  755.85 67.49 9.00 158.26 2973.49
   01:15:29.238.09-May-2021 4503.51  782.96 67.49 9.00 158.46 2973.49
   01:15:29.438.09-May-2021 4503.51  796.06 67.49 9.00 158.66 2973.49
   01:15:29.639.09-May-2021 4503.51  809.33 67.49 9.00 158.86 2973.49
   01:15:29.839.09-May-2021 4503.51  821.71 67.49 9.00 159.06 2973.49
   01:15:30.039.09-May-2021 4503.51  821.71 67.49 9.00 159.26 2973.49
   01:15:30.239.09-May-2021 4503.51  845.55 67.49 9.00 159.46 2973.49
   01:15:30.439.09-May-2021 4503.51  857.24 67.49 9.00 159.66 2973.49
   01:15:30.639.09-May-2021 4503.51  868.58 67.49 9.00 159.86 2973.49
   01:15:30.839.09-May-2021 4503.51  879.86 67.49 9.00 160.06 2973.49
   01:15:31.039.09-May-2021 4503.51  879.86 67.49 9.00 160.26 2973.49
   01:15:31.239.09-May-2021 4503.51  901.69 67.49 9.00 160.46 2973.49
   01:15:31.439.09-May-2021 4503.51  912.32 67.49 9.00 160.66 2973.49
   01:15:31.639.09-May-2021 4503.51  922.85 67.49 9.00 160.86 2973.49
