~Version Information
 VERS.                  2.0:   CWLS log ASCII Standard -VERSION 2.0
 WRAP.                   NO:   One line per depth step
~Well Information Block
#MNEM.UNIT     VALUE/NAME     DESCRIPTION
#---------     -----------    ---------------------------
 STRT.S             20:58:23 08-May-21: START TIME 20:58:23 08-May-21
 STOP.S             21:05:15 08-May-21: STOP TIME  21:05:15 08-May-21
 STEP.S                   0.00: STEP TIME
 NULL.                 -999.25: NULL VALUE
 PROV.                    Baku:  PROVINCE
 STAT.                    Baku:  STATE NAME
 SON .        AZ-XX-0906571588:  JOB NUMBER
 WTYP.                Deviated:  WELL TYPE
 COMP.     BP Exploration (Caspian Sea) ltd:  COMPANY
 BASE.              Azerbaijan:  LOGGING EQUIPMENT BASE LOCATION
 REGN.                   EESSA:  REGION
 CTRY.              Azerbaijan:  COUNTRY NAME
 FLD .                     ACG:  FIELD NAME
 WELL.                     J28:  WELL NAME
 RIG .             West Chirag:  RIG NAME
 DMF .             Drill Floor:  DRILL MEAS FROM
 PDAT.       Caspian Sea Level:  PERMANENT DATUM
 HPTY.       Minimum Curvature:  HOLE POS TYPE
 MDS .        Operator Entered:  MAG DATA SOURCE
 NREF.                    Grid:  NORTH REFERENCE
 SRVC.          TURAN DRILLING:  CONTRACTOR
 JOBN.        AZ-XX-0906571588:  JOB TICKET NUMB
 DCON.     Halliburton Sperry Drilling:  DIRECTNL CONTR
 STIM.      00.44.00 11-Feb-21:  START TIME
 DATE.      00.00.00 05-May-21:  END TIME
 SPUD.               13-Feb-21:  SPUD DATE
 MWDS.                    Baku:  MWD SHOP
 DOE .                     N/A:  DOE NUMBER
 UNIT.                     N/A:  LOGGING EQUIPMENT ID
 UWI .                     N/A:  UNIQUE WELL IDENTIFIER
 API .                     N/A:  API NUMBER
 CNTY.                        :  COUNTY
 LOC .                        :  LOCATION
 LMF .             Drill Floor:  LOG MEASURED FROM
 TVDS.m                  43.00:  TVDSS CORRECTN
 SDEP.m                 341.00:  START DEPTH
 EGL .m                   0.00:  GROUND ELEVATION
 WDMS.m                 169.80:  WD ELEV
 AGAP.m                  43.00:  AIR GAP
 EPD .m                   0.00:  ELEVATION
 APD .m                  43.00:  DEPTH ABOVE PD
 LATI.deg                40.13:  LATITUDE
 LONG.deg                51.22:  LONGITUDE
 UTMY.m             4443793.85:  UTM Y
 UTMX.m              519005.06:  UTM X
 WHEW.m                 -11.57:  WELL HEAD E/W
 WHNS.m                   8.57:  WELL HEAD N/S
 VSEW.m                 -11.57:  VERT SEC E/W
 VSNS.m                   8.57:  VERT SEC N/S
 DFWL.m                   0.00:  DISTANCE FWL
 DFSL.m                   0.00:  DISTANCE FSL
 VSDR.deg               299.34:  VERT SEC DIRECT
 GVFD.g                   1.00:  GRAVITY FIELD
 AZTC.deg                 6.36:  AZM TOTAL CORR
 MFLD.nT              50391.00:  MAGNETIC FIELD
 MDIP.deg                59.65:  MAGNETIC DIP
 MDEC.deg                 6.48:  MAGNETIC DECL
 GRDC.deg                 0.12:  GRID CORRECTION
 DEP .m                 334.96:  DEPTH
 TDD .m                1407.26:  TOTAL DEPTH (DRILLER)
 EKB .m                  43.00:  KB ELEVATION
 EDF .m                  43.00:  DF ELEVATION
 TDL .m                 228.00:  TOTAL DEPTH (LOGGER)
 VSC .                       0:  VS TO CLOSURE
 MAGU.                 1854484:  MAGUTM CHECKSUM
~Parameter Information Block
#MNEM.UNIT       Value        Description
#---------     -----------    ---------------------------
 AV  .mps                 4.00:  Ann Velocity 
 AVMX.mps                 4.73:  Max Ann Veloc 
 AZIF.deg               304.48:  Azm, Final 
 BHAT.        Rotary Steerable:  BHA Type 
 BREV.rev            257300.00:  Rev Bit Total 
 BROT.°/30m               0.00:  Build Rotating 
 BS  .in                  8.50:  Bit Size 
 BSZ .in                  8.50:  Bit Size 
 BTPL.psig              589.00:  Bit Press Loss 
 CABU.                      No:  Customer Abuse 
 CGEO.          Mubariz ghayev:  Customer Geo 
 COMM.                     ”<v:  Run Comments 1 
 TCS .hr                 64.25:  Time Ciculation Ended 
 CV  .mps                 3.50:  Crit Velocity 
 CVMX.mps                 4.52:  Max Crit Veloc 
 DD1 .             Aziz Aliyev:  Direct Drillr 1 
 DD2 .         Intigam Rahimov:  Direct Drillr 2 
 DD3 .          Rashad Habibov:  Direct Drillr 3 
 DDSV.               Geo-Pilot:  DD Service 
 DEFF.%                  98.00:  % Det Eff 
 DLRX.°/30m               0.00:  Dogleg Rot Max 
 DLSO.°/30m               0.00:  Dogleg Oriented 
 DLSX.°/30m               0.00:  Dogleg Str Max 
 DRET.      10.45.04 08-May-21:  Drill End Time 
 DRST.      03.30.04 04-May-21:  Drill Start Tim 
 DTIM.hr                 14.97:  Time Drilling 
 EDEP.m                4640.01:  End Depth 
 ENG1.         Dail Mahammadov:  Engineer 1 
 ENG2.           Eldar Hajiyev:  Engineer 2 
 ENG3.       Bakhtiar Jabbarli:  Engineer 3 
 ENG4.       Natik Hasanagayev:  Engineer 4 
 ETIM.      09.30.04 14-May-21:  End Time 
 FLOI.gpm               460.00:  Flow In 
 FLON.gpm               200.00:  Flow In Min 
 FLOS.cptm                0.00:  Fluid Loss 
 FLOX.gpm               505.00:  Flow In Max 
 HFLO.                      No:  High Flow 
 HPRE.                      No:  High Pressure 
 HTEM.                      No:  High Temp 
 HYDO.m                   1.80:  Hydro Offset 
 IFIN.deg                66.71:  Inc, Final 
 IMAX.deg                67.03:  Inc Max 
 IMIN.deg                66.63:  Inc Min 
 IMND.m                4550.58:  Inc Min Depth 
 IMXD.m                4439.01:  Inc Max Depth 
 JARR.                      No:  Jarring 
 LETM.      10.45.04 08-May-21:  Log End Time 
 LOST.hr                     0:  Lost Rig Time 
 LSTM.      03.30.04 04-May-21:  Log Start Time 
 MDCL.ppm             37000.00:  Mud Chlorides 
 MDES.     Inversion Oil/Synthetic:  Mud Desc 
 DFD .sg                  1.38:  Mud Density 
 MDMN.sg                  1.35:  Dens Mud Min 
 MDMX.sg                  1.40:  Dens Mud Max 
 MOIL.                   57.40:  Run Mud Oil % 
 MOWR.                   70:30:  Run Mud OWR 
 MSND.                    0.00:  Run Mud Sand % 
 MSOL.                   18.00:  Run Mud Solids% 
 DFV .spqt               71.00:  Mud Viscosity 
 MWOD.in                  6.75:  MWD Tool OD 
 MWSI.                      No:  Serv Intrp, MWD 
 OTIM.hr                242.76:  Time Operating 
 PCON.           Look Like New:  Pad Condition 
 PMAX.psia            12183.92:  Press Op, Max 
 PV  .cP                 27.00:  Mud PV 
 RUN .                    1300:  Run Number 
 ROPA.m/hr               15.00:  ROP Avg 
 ROPN.m/hr                9.00:  ROP Min 
 ROPX.m/hr               19.00:  ROP Max 
 RPMA.rpm               120.00:  RPM Surface Avg 
 RPMN.rpm               100.00:  RPM Surface Min 
 RPMX.rpm               120.00:  RPM Surface Max 
 RRUN.                    1300:  Rig Run Number 
 RTIM.hr                  5.00:  Time Reaming 
 SAZI.deg               304.73:  Azm, Start 
 SDEP.m                4412.01:  Start Depth 
 SIDD.                      No:  Serv Intrp, DD 
 SINC.deg                66.82:  Inc, Start 
 SPPA.psig             2800.00:  SPP Avg 
 SPPN.psig             2610.00:  SPP Min 
 SPPX.psig             3100.00:  SPP Max 
 STIM.      03.30.00 04-May-21:  Start Time 
 SVCS.                 DD, MWD:  Services 
 SVER.                    9.20:  Sperry Version 
 TDAT.m                 228.00:  Tot Depth Attmp 
 TDDF.                      No:  Trip for DD 
 TDLG.m                 228.00:  Tot Depth Loggd 
 TFF .                      No:  Trip for Fail 
 TQAA.f-kp               15.00:  Torque Abs Avg 
 TQAN.f-kp               12.00:  Torque Abs Min 
 TQAX.f-kp               22.00:  Torque Abs Max 
 TRRT.°/30m               0.00:  Turn Rotating 
 MRT .                    HCIM:  Maximum Recorded Temperature 
 TTMX.degC               90.20:  Max Tool Temp 
 VS01.                90627813:  Virtual Str1 SN 
 VS02.                90634712:  Virtual Str2 SN 
 VS03.                90643410:  Virtual Str3 SN 
 VS04.                90634712:  Virtual Str4 SN 
 WBMN.klb                 9.00:  WOB Min 
 WITN.        Elmaddin Rahimov:  Customer Rep 
 WITN.         Haytham Mostafa:  Customer Rep 2 
 WOBA.klb                15.00:  WOB Avg 
 WOBX.klb                23.00:  WOB Max 
 YP  .lhf2               29.00:  Yield Point 
~Curve Information Block
#MNEM.UNIT                 API CODE     Curve Description
#---------               -----------    ---------------------------
 TIME.HHMMSS            00 000 000 000:  GT Time & Date
 GTDEPTH.m              00 000 000 000:  GT Depth
 GTPQH.psia             00 000 000 000:  GT HR Quartz Pressure
 GTTQ.degC              00 000 000 000:  GT Quartz Temperature
 GTTN.NONE              00 000 000 000:  GT Test Number
 GTET.sec               00 000 000 000:  GT Elapsed Test Time
 GTTVD.m                00 000 000 000:  GT True Vertical Depth
#Other Information
#
#WARRANTY: Halliburton will use its best efforts to furnish customers with 
#accurate information and interpretations that are part of, and incident to, the services 
#provided.  However, Halliburton cannot and does not warrant the accuracy 
#or correctness of such information and interpretations.  Under no circumstances should any 
#such information or interpretation be relied upon as the sole basis for any drilling, 
#completion, production, or financial decision or any procedure involving any risk to the 
#safety of any drilling venture, drilling rig or its crew or any other third party.  The 
#Customer has full responsibility for all drilling, completion and production operation.  
#Halliburton makes no representations or warranties, either expressed or 
#implied, including, but not limited to, the implied warranties of merchantability or fitness 
#for a particular purpose, with respect to the services rendered.  In no event will 
#Halliburton be liable for failure to obtain any particular results or for 
#any damages, including, but not limited to, indirect, special or consequential damages, 
#resulting from the use of any information or interpretation provided by Halliburton.
#
~A           TIME           GTDEPTH  GTPQH  GTTQ  GTTN  GTET   GTTVD  
# ...
   21:00:18.792.08-May-2021 4593.01 3777.70 69.01 2.00 115.01 3008.90
   21:00:18.992.08-May-2021 4593.01 3777.70 69.01 2.00 115.21 3008.90
   21:00:19.192.08-May-2021 4593.01 3777.68 69.01 2.00 115.41 3008.90
   21:00:19.392.08-May-2021 4593.01 3777.63 69.01 2.00 115.61 3008.90
   21:00:19.592.08-May-2021 4593.01 3777.64 69.01 2.00 115.81 3008.90
   21:00:19.792.08-May-2021 4593.01 3777.71 69.01 2.00 116.01 3008.90
   21:00:19.992.08-May-2021 4593.01 3777.71 69.01 2.00 116.21 3008.90
   21:00:20.192.08-May-2021 4593.01 3777.66 69.01 2.00 116.41 3008.90
   21:00:20.392.08-May-2021 4593.01 3777.72 69.01 2.00 116.61 3008.90
   21:00:20.592.08-May-2021 4593.01 3777.62 69.01 2.00 116.81 3008.90
   21:00:20.792.08-May-2021 4593.01 3777.54 69.01 2.00 117.01 3008.90
   21:00:20.992.08-May-2021 4593.01 3777.54 69.01 2.00 117.21 3008.90
   21:00:21.192.08-May-2021 4593.01 3777.48 69.01 2.00 117.41 3008.90
   21:00:21.392.08-May-2021 4593.01 3777.81 69.01 2.00 117.61 3008.90
   21:00:21.592.08-May-2021 4593.01 3777.65 69.01 2.00 117.81 3008.90
   21:00:21.792.08-May-2021 4593.01 3777.57 69.01 2.00 118.01 3008.90
   21:00:21.992.08-May-2021 4593.01 3777.57 69.01 2.00 118.21 3008.90
   21:00:22.192.08-May-2021 4593.01 3777.56 69.01 2.00 118.41 3008.90
   21:00:22.392.08-May-2021 4593.01 3777.66 69.01 2.00 118.61 3008.90
   21:00:22.592.08-May-2021 4593.01 3777.62 69.01 2.00 118.81 3008.90
   21:00:22.792.08-May-2021 4593.01 3777.87 69.01 2.00 119.01 3008.90
   21:00:22.992.08-May-2021 4593.01 3777.87 69.01 2.00 119.21 3008.90
   21:00:23.192.08-May-2021 4593.01 3777.60 69.01 2.00 119.41 3008.90
   21:00:23.392.08-May-2021 4593.01 3777.73 69.01 2.00 119.61 3008.90
   21:00:23.592.08-May-2021 4593.01 3777.62 69.01 2.00 119.81 3008.90
   21:00:23.792.08-May-2021 4593.01 3777.73 69.01 2.00 120.01 3008.90
   21:00:23.992.08-May-2021 4593.01 3777.73 69.01 2.00 120.21 3008.90
   21:00:24.192.08-May-2021 4593.01 3777.57 69.01 2.00 120.41 3008.90
   21:00:24.392.08-May-2021 4593.01 3777.61 69.01 2.00 120.61 3008.90
   21:00:24.592.08-May-2021 4593.01 3777.73 69.01 2.00 120.81 3008.90
   21:00:24.792.08-May-2021 4593.01 3777.63 69.01 2.00 121.01 3008.90
   21:00:24.992.08-May-2021 4593.01 3777.63 69.01 2.00 121.21 3008.90
   21:00:25.192.08-May-2021 4593.01 3777.69 69.01 2.00 121.41 3008.90
   21:00:25.392.08-May-2021 4593.01 3777.65 69.01 2.00 121.61 3008.90
   21:00:25.592.08-May-2021 4593.01 3777.62 69.01 2.00 121.81 3008.90
   21:00:25.792.08-May-2021 4593.01 3777.68 69.01 2.00 122.01 3008.90
   21:00:25.992.08-May-2021 4593.01 3777.68 69.01 2.00 122.21 3008.90
   21:00:26.192.08-May-2021 4593.01 3777.68 69.01 2.00 122.41 3008.90
   21:00:26.392.08-May-2021 4593.01 3777.74 69.01 2.00 122.61 3008.90
   21:00:26.592.08-May-2021 4593.01 3777.78 69.01 2.00 122.81 3008.90
   21:00:26.792.08-May-2021 4593.01 3777.48 69.01 2.00 123.01 3008.90
   21:00:26.992.08-May-2021 4593.01 3777.48 69.01 2.00 123.21 3008.90
   21:00:27.192.08-May-2021 4593.01 3777.60 69.01 2.00 123.41 3008.90
   21:00:27.392.08-May-2021 4593.01 3777.61 69.01 2.00 123.61 3008.90
   21:00:27.592.08-May-2021 4593.01 3777.71 69.01 2.00 123.81 3008.90
   21:00:27.792.08-May-2021 4593.01 3777.64 69.01 2.00 124.01 3008.90
   21:00:27.993.08-May-2021 4593.01 3777.64 69.01 2.00 124.21 3008.90
   21:00:28.193.08-May-2021 4593.01 3777.76 69.01 2.00 124.41 3008.90
   21:00:28.393.08-May-2021 4593.01 3777.62 69.01 2.00 124.61 3008.90
   21:00:28.593.08-May-2021 4593.01 3777.56 69.01 2.00 124.81 3008.90
   21:00:28.793.08-May-2021 4593.01 3777.74 69.01 2.00 125.01 3008.90
   21:00:28.993.08-May-2021 4593.01 3777.74 69.01 2.00 125.21 3008.90
   21:00:29.193.08-May-2021 4593.01 3777.73 69.01 2.00 125.41 3008.90
   21:00:29.393.08-May-2021 4593.01 3777.50 69.01 2.00 125.61 3008.90
   21:00:29.593.08-May-2021 4593.01 3777.75 69.01 2.00 125.81 3008.90
   21:00:29.793.08-May-2021 4593.01 3777.55 69.01 2.00 126.01 3008.90
   21:00:29.993.08-May-2021 4593.01 3777.55 69.01 2.00 126.21 3008.90
   21:00:30.193.08-May-2021 4593.01 3777.56 69.01 2.00 126.41 3008.90
   21:00:30.393.08-May-2021 4593.01 3777.59 69.01 2.00 126.61 3008.90
   21:00:30.593.08-May-2021 4593.01 3777.66 69.01 2.00 126.81 3008.90
   21:00:30.793.08-May-2021 4593.01 3777.59 69.01 2.00 127.01 3008.90
   21:00:30.993.08-May-2021 4593.01 3777.59 69.01 2.00 127.21 3008.90
   21:00:31.193.08-May-2021 4593.01 3777.50 69.01 2.00 127.41 3008.90
   21:00:31.393.08-May-2021 4593.01 3777.80 69.01 2.00 127.61 3008.90
   21:00:31.593.08-May-2021 4593.01 3777.52 69.01 2.00 127.81 3008.90
   21:00:31.793.08-May-2021 4593.01 3777.63 69.01 2.00 128.01 3008.90
   21:00:31.993.08-May-2021 4593.01 3777.63 69.01 2.00 128.21 3008.90
   21:00:32.193.08-May-2021 4593.01 3777.41 69.01 2.00 128.41 3008.90
   21:00:32.393.08-May-2021 4593.01 3777.84 69.01 2.00 128.61 3008.90
   21:00:32.593.08-May-2021 4593.01 3777.65 69.01 2.00 128.81 3008.90
   21:00:32.793.08-May-2021 4593.01 3777.59 69.01 2.00 129.01 3008.90
   21:00:32.993.08-May-2021 4593.01 3777.59 69.01 2.00 129.21 3008.90
   21:00:33.193.08-May-2021 4593.01 3777.77 69.01 2.00 129.41 3008.90
   21:00:33.393.08-May-2021 4593.01 3777.61 69.01 2.00 129.61 3008.90
   21:00:33.593.08-May-2021 4593.01 3777.59 69.01 2.00 129.81 3008.90
   21:00:33.793.08-May-2021 4593.01 3777.76 69.01 2.00 130.01 3008.90
   21:00:33.993.08-May-2021 4593.01 3777.76 69.01 2.00 130.21 3008.90
   21:00:34.193.08-May-2021 4593.01 3777.61 69.01 2.00 130.41 3008.90
   21:00:34.393.08-May-2021 4593.01 3777.78 69.01 2.00 130.61 3008.90
   21:00:34.593.08-May-2021 4593.01 3777.72 69.01 2.00 130.81 3008.90
   21:00:34.793.08-May-2021 4593.01 3777.51 69.01 2.00 131.01 3008.90
   21:00:34.993.08-May-2021 4593.01 3777.51 69.01 2.00 131.21 3008.90
   21:00:35.193.08-May-2021 4593.01 3777.60 69.01 2.00 131.41 3008.90
   21:00:35.393.08-May-2021 4593.01 3777.57 69.01 2.00 131.61 3008.90
   21:00:35.593.08-May-2021 4593.01 3777.75 69.01 2.00 131.81 3008.90
   21:00:35.793.08-May-2021 4593.01 3777.61 69.01 2.00 132.01 3008.90
   21:00:35.993.08-May-2021 4593.01 3777.61 69.01 2.00 132.21 3008.90
   21:00:36.193.08-May-2021 4593.01 3777.69 69.01 2.00 132.41 3008.90
   21:00:36.393.08-May-2021 4593.01 3777.68 69.01 2.00 132.61 3008.90
   21:00:36.593.08-May-2021 4593.01 3777.56 69.01 2.00 132.81 3008.90
   21:00:36.793.08-May-2021 4593.01 3777.72 69.01 2.00 133.01 3008.90
   21:00:36.993.08-May-2021 4593.01 3777.72 69.01 2.00 133.21 3008.90
   21:00:37.193.08-May-2021 4593.01 3777.73 69.01 2.00 133.41 3008.90
   21:00:37.393.08-May-2021 4593.01 3777.62 69.01 2.00 133.61 3008.90
   21:00:37.594.08-May-2021 4593.01 3777.66 69.01 2.00 133.81 3008.90
   21:00:37.794.08-May-2021 4593.01 3777.60 69.01 2.00 134.01 3008.90
   21:00:37.994.08-May-2021 4593.01 3777.60 69.01 2.00 134.21 3008.90
   21:00:38.194.08-May-2021 4593.01 3777.90 69.01 2.00 134.41 3008.90
   21:00:38.394.08-May-2021 4593.01 3777.40 69.01 2.00 134.61 3008.90
   21:00:38.594.08-May-2021 4593.01 3777.85 69.01 2.00 134.81 3008.90
   21:00:38.794.08-May-2021 4593.01 3777.55 69.01 2.00 135.01 3008.90
   21:00:38.994.08-May-2021 4593.01 3777.55 69.01 2.00 135.21 3008.90
   21:00:39.194.08-May-2021 4593.01 3777.91 69.01 2.00 135.41 3008.90
   21:00:39.394.08-May-2021 4593.01 3777.47 69.01 2.00 135.61 3008.90
   21:00:39.594.08-May-2021 4593.01 3777.67 69.01 2.00 135.81 3008.90
   21:00:39.794.08-May-2021 4593.01 3777.58 69.01 2.00 136.01 3008.90
   21:00:39.994.08-May-2021 4593.01 3777.58 69.01 2.00 136.21 3008.90
   21:00:40.194.08-May-2021 4593.01 3777.76 69.01 2.00 136.41 3008.90
   21:00:40.394.08-May-2021 4593.01 3777.47 69.01 2.00 136.61 3008.90
   21:00:40.594.08-May-2021 4593.01 3777.78 69.01 2.00 136.81 3008.90
   21:00:40.794.08-May-2021 4593.01 3777.56 69.01 2.00 137.01 3008.90
   21:00:40.994.08-May-2021 4593.01 3777.56 69.01 2.00 137.21 3008.90
   21:00:41.194.08-May-2021 4593.01 3777.71 69.01 2.00 137.41 3008.90
   21:00:41.394.08-May-2021 4593.01 3777.54 69.01 2.00 137.61 3008.90
   21:00:41.594.08-May-2021 4593.01 3777.65 69.01 2.00 137.81 3008.90
