~Version Information
 VERS.                  2.0:   CWLS log ASCII Standard -VERSION 2.0
 WRAP.                   NO:   One line per depth step
~Well Information Block
#MNEM.UNIT     VALUE/NAME     DESCRIPTION
#---------     -----------    ---------------------------
 STRT.S             00:30:13 09-May-21: START TIME 00:30:13 09-May-21
 STOP.S             00:37:03 09-May-21: STOP TIME  00:37:03 09-May-21
 STEP.S                   0.00: STEP TIME
 NULL.                 -999.25: NULL VALUE
 PROV.                    Baku:  PROVINCE
 STAT.                    Baku:  STATE NAME
 SON .        AZ-XX-0906571588:  JOB NUMBER
 WTYP.                Deviated:  WELL TYPE
 COMP.     BP Exploration (Caspian Sea) ltd:  COMPANY
 BASE.              Azerbaijan:  LOGGING EQUIPMENT BASE LOCATION
 REGN.                   EESSA:  REGION
 CTRY.              Azerbaijan:  COUNTRY NAME
 FLD .                     ACG:  FIELD NAME
 WELL.                     J28:  WELL NAME
 RIG .             West Chirag:  RIG NAME
 DMF .             Drill Floor:  DRILL MEAS FROM
 PDAT.       Caspian Sea Level:  PERMANENT DATUM
 HPTY.       Minimum Curvature:  HOLE POS TYPE
 MDS .        Operator Entered:  MAG DATA SOURCE
 NREF.                    Grid:  NORTH REFERENCE
 SRVC.          TURAN DRILLING:  CONTRACTOR
 JOBN.        AZ-XX-0906571588:  JOB TICKET NUMB
 DCON.     Halliburton Sperry Drilling:  DIRECTNL CONTR
 STIM.      00.44.00 11-Feb-21:  START TIME
 DATE.      00.00.00 05-May-21:  END TIME
 SPUD.               13-Feb-21:  SPUD DATE
 MWDS.                    Baku:  MWD SHOP
 DOE .                     N/A:  DOE NUMBER
 UNIT.                     N/A:  LOGGING EQUIPMENT ID
 UWI .                     N/A:  UNIQUE WELL IDENTIFIER
 API .                     N/A:  API NUMBER
 CNTY.                        :  COUNTY
 LOC .                        :  LOCATION
 LMF .             Drill Floor:  LOG MEASURED FROM
 TVDS.m                  43.00:  TVDSS CORRECTN
 SDEP.m                 341.00:  START DEPTH
 EGL .m                   0.00:  GROUND ELEVATION
 WDMS.m                 169.80:  WD ELEV
 AGAP.m                  43.00:  AIR GAP
 EPD .m                   0.00:  ELEVATION
 APD .m                  43.00:  DEPTH ABOVE PD
 LATI.deg                40.13:  LATITUDE
 LONG.deg                51.22:  LONGITUDE
 UTMY.m             4443793.85:  UTM Y
 UTMX.m              519005.06:  UTM X
 WHEW.m                 -11.57:  WELL HEAD E/W
 WHNS.m                   8.57:  WELL HEAD N/S
 VSEW.m                 -11.57:  VERT SEC E/W
 VSNS.m                   8.57:  VERT SEC N/S
 DFWL.m                   0.00:  DISTANCE FWL
 DFSL.m                   0.00:  DISTANCE FSL
 VSDR.deg               299.34:  VERT SEC DIRECT
 GVFD.g                   1.00:  GRAVITY FIELD
 AZTC.deg                 6.36:  AZM TOTAL CORR
 MFLD.nT              50391.00:  MAGNETIC FIELD
 MDIP.deg                59.65:  MAGNETIC DIP
 MDEC.deg                 6.48:  MAGNETIC DECL
 GRDC.deg                 0.12:  GRID CORRECTION
 DEP .m                 334.96:  DEPTH
 TDD .m                1407.26:  TOTAL DEPTH (DRILLER)
 EKB .m                  43.00:  KB ELEVATION
 EDF .m                  43.00:  DF ELEVATION
 TDL .m                 228.00:  TOTAL DEPTH (LOGGER)
 VSC .                       0:  VS TO CLOSURE
 MAGU.                 1854484:  MAGUTM CHECKSUM
~Parameter Information Block
#MNEM.UNIT       Value        Description
#---------     -----------    ---------------------------
 AV  .mps                 4.00:  Ann Velocity 
 AVMX.mps                 4.73:  Max Ann Veloc 
 AZIF.deg               304.48:  Azm, Final 
 BHAT.        Rotary Steerable:  BHA Type 
 BREV.rev            257300.00:  Rev Bit Total 
 BROT.°/30m               0.00:  Build Rotating 
 BS  .in                  8.50:  Bit Size 
 BSZ .in                  8.50:  Bit Size 
 BTPL.psig              589.00:  Bit Press Loss 
 CABU.                      No:  Customer Abuse 
 CGEO.          Mubariz ghayev:  Customer Geo 
 TCS .hr                 64.25:  Time Ciculation Ended 
 CV  .mps                 3.50:  Crit Velocity 
 CVMX.mps                 4.52:  Max Crit Veloc 
 DD1 .             Aziz Aliyev:  Direct Drillr 1 
 DD2 .         Intigam Rahimov:  Direct Drillr 2 
 DD3 .          Rashad Habibov:  Direct Drillr 3 
 DDSV.               Geo-Pilot:  DD Service 
 DEFF.%                  98.00:  % Det Eff 
 DLRX.°/30m               0.00:  Dogleg Rot Max 
 DLSO.°/30m               0.00:  Dogleg Oriented 
 DLSX.°/30m               0.00:  Dogleg Str Max 
 DRET.      10.45.04 08-May-21:  Drill End Time 
 DRST.      03.30.04 04-May-21:  Drill Start Tim 
 DTIM.hr                 14.97:  Time Drilling 
 EDEP.m                4640.01:  End Depth 
 ENG1.         Dail Mahammadov:  Engineer 1 
 ENG2.           Eldar Hajiyev:  Engineer 2 
 ENG3.       Bakhtiar Jabbarli:  Engineer 3 
 ENG4.       Natik Hasanagayev:  Engineer 4 
 ETIM.      09.30.04 14-May-21:  End Time 
 FLOI.gpm               460.00:  Flow In 
 FLON.gpm               200.00:  Flow In Min 
 FLOS.cptm                0.00:  Fluid Loss 
 FLOX.gpm               505.00:  Flow In Max 
 HFLO.                      No:  High Flow 
 HPRE.                      No:  High Pressure 
 HTEM.                      No:  High Temp 
 HYDO.m                   1.80:  Hydro Offset 
 IFIN.deg                66.71:  Inc, Final 
 IMAX.deg                67.03:  Inc Max 
 IMIN.deg                66.63:  Inc Min 
 IMND.m                4550.58:  Inc Min Depth 
 IMXD.m                4439.01:  Inc Max Depth 
 JARR.                      No:  Jarring 
 LETM.      10.45.04 08-May-21:  Log End Time 
 LOST.hr                     0:  Lost Rig Time 
 LSTM.      03.30.04 04-May-21:  Log Start Time 
 MDCL.ppm             37000.00:  Mud Chlorides 
 MDES.     Inversion Oil/Synthetic:  Mud Desc 
 DFD .sg                  1.38:  Mud Density 
 MDMN.sg                  1.35:  Dens Mud Min 
 MDMX.sg                  1.40:  Dens Mud Max 
 MOIL.                   57.40:  Run Mud Oil % 
 MOWR.                   70:30:  Run Mud OWR 
 MSND.                    0.00:  Run Mud Sand % 
 MSOL.                   18.00:  Run Mud Solids% 
 DFV .spqt               71.00:  Mud Viscosity 
 MWOD.in                  6.75:  MWD Tool OD 
 MWSI.                      No:  Serv Intrp, MWD 
 OTIM.hr                242.76:  Time Operating 
 PCON.           Look Like New:  Pad Condition 
 PMAX.psia            12183.92:  Press Op, Max 
 PV  .cP                 27.00:  Mud PV 
 RUN .                    1300:  Run Number 
 ROPA.m/hr               15.00:  ROP Avg 
 ROPN.m/hr                9.00:  ROP Min 
 ROPX.m/hr               19.00:  ROP Max 
 RPMA.rpm               120.00:  RPM Surface Avg 
 RPMN.rpm               100.00:  RPM Surface Min 
 RPMX.rpm               120.00:  RPM Surface Max 
 RRUN.                    1300:  Rig Run Number 
 RTIM.hr                  5.00:  Time Reaming 
 SAZI.deg               304.73:  Azm, Start 
 SDEP.m                4412.01:  Start Depth 
 SIDD.                      No:  Serv Intrp, DD 
 SINC.deg                66.82:  Inc, Start 
 SPPA.psig             2800.00:  SPP Avg 
 SPPN.psig             2610.00:  SPP Min 
 SPPX.psig             3100.00:  SPP Max 
 STIM.      03.30.00 04-May-21:  Start Time 
 SVCS.                 DD, MWD:  Services 
 SVER.                    9.20:  Sperry Version 
 TDAT.m                 228.00:  Tot Depth Attmp 
 TDDF.                      No:  Trip for DD 
 TDLG.m                 228.00:  Tot Depth Loggd 
 TFF .                      No:  Trip for Fail 
 TQAA.f-kp               15.00:  Torque Abs Avg 
 TQAN.f-kp               12.00:  Torque Abs Min 
 TQAX.f-kp               22.00:  Torque Abs Max 
 TRRT.°/30m               0.00:  Turn Rotating 
 MRT .                    HCIM:  Maximum Recorded Temperature 
 TTMX.degC               90.20:  Max Tool Temp 
 VS01.                90627813:  Virtual Str1 SN 
 VS02.                90634712:  Virtual Str2 SN 
 VS03.                90643410:  Virtual Str3 SN 
 VS04.                90634712:  Virtual Str4 SN 
 WBMN.klb                 9.00:  WOB Min 
 WITN.        Elmaddin Rahimov:  Customer Rep 
 WITN.         Haytham Mostafa:  Customer Rep 2 
 WOBA.klb                15.00:  WOB Avg 
 WOBX.klb                23.00:  WOB Max 
 YP  .lhf2               29.00:  Yield Point 
~Curve Information Block
#MNEM.UNIT                 API CODE     Curve Description
#---------               -----------    ---------------------------
 TIME.HHMMSS            00 000 000 000:  GT Time & Date
 GTDEPTH.m              00 000 000 000:  GT Depth
 GTPQH.psia             00 000 000 000:  GT HR Quartz Pressure
 GTTQ.degC              00 000 000 000:  GT Quartz Temperature
 GTTN.NONE              00 000 000 000:  GT Test Number
 GTET.sec               00 000 000 000:  GT Elapsed Test Time
 GTTVD.m                00 000 000 000:  GT True Vertical Depth
#Other Information
#
#WARRANTY: Halliburton will use its best efforts to furnish customers with 
#accurate information and interpretations that are part of, and incident to, the services 
#provided.  However, Halliburton cannot and does not warrant the accuracy 
#or correctness of such information and interpretations.  Under no circumstances should any 
#such information or interpretation be relied upon as the sole basis for any drilling, 
#completion, production, or financial decision or any procedure involving any risk to the 
#safety of any drilling venture, drilling rig or its crew or any other third party.  The 
#Customer has full responsibility for all drilling, completion and production operation.  
#Halliburton makes no representations or warranties, either expressed or 
#implied, including, but not limited to, the implied warranties of merchantability or fitness 
#for a particular purpose, with respect to the services rendered.  In no event will 
#Halliburton be liable for failure to obtain any particular results or for 
#any damages, including, but not limited to, indirect, special or consequential damages, 
#resulting from the use of any information or interpretation provided by Halliburton.
#
~A           TIME           GTDEPTH  GTPQH  GTTQ  GTTN  GTET   GTTVD  
# ...
   00:35:58.980.09-May-2021 4516.51 3299.76 67.75 7.00 345.13 2978.60
   00:35:59.180.09-May-2021 4516.51 3299.76 67.75 7.00 345.33 2978.60
   00:35:59.380.09-May-2021 4516.51 3299.76 67.75 7.00 345.53 2978.60
   00:35:59.580.09-May-2021 4516.51 3299.79 67.75 7.00 345.73 2978.60
   00:35:59.780.09-May-2021 4516.51 3299.79 67.75 7.00 345.93 2978.60
   00:35:59.980.09-May-2021 4516.51 3299.79 67.75 7.00 346.13 2978.60
   00:36:00.180.09-May-2021 4516.51 3299.79 67.75 7.00 346.33 2978.60
   00:36:00.380.09-May-2021 4516.51 3299.82 67.75 7.00 346.53 2978.60
   00:36:00.580.09-May-2021 4516.51 3299.78 67.75 7.00 346.73 2978.60
   00:36:00.780.09-May-2021 4516.51 3299.51 67.75 7.00 346.93 2978.60
   00:36:00.980.09-May-2021 4516.51 3299.92 67.75 7.00 347.13 2978.60
   00:36:01.180.09-May-2021 4516.51 3299.92 67.75 7.00 347.33 2978.60
   00:36:01.380.09-May-2021 4516.51 3300.02 67.75 7.00 347.53 2978.60
   00:36:01.581.09-May-2021 4516.51 3299.82 67.75 7.00 347.73 2978.60
   00:36:01.781.09-May-2021 4516.51 3299.79 67.75 7.00 347.93 2978.60
   00:36:01.981.09-May-2021 4516.51 3299.80 67.75 7.00 348.13 2978.60
   00:36:02.181.09-May-2021 4516.51 3299.80 67.75 7.00 348.33 2978.60
   00:36:02.381.09-May-2021 4516.51 3299.81 67.75 7.00 348.53 2978.60
   00:36:02.581.09-May-2021 4516.51 3299.82 67.75 7.00 348.73 2978.60
   00:36:02.781.09-May-2021 4516.51 3299.85 67.75 7.00 348.93 2978.60
   00:36:02.981.09-May-2021 4516.51 3299.86 67.75 7.00 349.13 2978.60
   00:36:03.181.09-May-2021 4516.51 3299.86 67.75 7.00 349.33 2978.60
   00:36:03.381.09-May-2021 4516.51 3299.53 67.75 7.00 349.53 2978.60
   00:36:03.581.09-May-2021 4516.51 3299.92 67.75 7.00 349.73 2978.60
   00:36:03.781.09-May-2021 4516.51 3300.08 67.75 7.00 349.93 2978.60
   00:36:03.981.09-May-2021 4516.51 3300.10 67.75 7.00 350.13 2978.60
   00:36:04.181.09-May-2021 4516.51 3300.10 67.75 7.00 350.33 2978.60
   00:36:04.382.09-May-2021 4516.51 3299.83 67.75 7.00 350.53 2978.60
   00:36:04.582.09-May-2021 4516.51 3299.38 67.75 7.00 350.73 2978.60
   00:36:04.782.09-May-2021 4516.51 3300.38 67.75 7.00 350.93 2978.60
   00:36:04.982.09-May-2021 4516.51 3299.91 67.75 7.00 351.13 2978.60
   00:36:05.182.09-May-2021 4516.51 3299.91 67.75 7.00 351.33 2978.60
   00:36:05.382.09-May-2021 4516.51 3299.85 67.75 7.00 351.53 2978.60
   00:36:05.582.09-May-2021 4516.51 3299.63 67.75 7.00 351.73 2978.60
   00:36:05.782.09-May-2021 4516.51 3300.21 67.75 7.00 351.93 2978.60
   00:36:05.982.09-May-2021 4516.51 3299.97 67.75 7.00 352.13 2978.60
   00:36:06.182.09-May-2021 4516.51 3299.97 67.75 7.00 352.33 2978.60
   00:36:06.382.09-May-2021 4516.51 3299.87 67.75 7.00 352.53 2978.60
   00:36:06.582.09-May-2021 4516.51 3299.79 67.75 7.00 352.73 2978.60
   00:36:06.782.09-May-2021 4516.51 3299.57 67.75 7.00 352.93 2978.60
   00:36:06.982.09-May-2021 4516.51 3300.25 67.75 7.00 353.13 2978.60
   00:36:07.183.09-May-2021 4516.51 3300.25 67.75 7.00 353.33 2978.60
   00:36:07.383.09-May-2021 4516.51 3299.84 67.75 7.00 353.53 2978.60
   00:36:07.583.09-May-2021 4516.51 3299.93 67.75 7.00 353.73 2978.60
   00:36:07.783.09-May-2021 4516.51 3299.89 67.75 7.00 353.93 2978.60
   00:36:07.983.09-May-2021 4516.51 3299.92 67.75 7.00 354.13 2978.60
   00:36:08.183.09-May-2021 4516.51 3299.92 67.75 7.00 354.33 2978.60
   00:36:08.383.09-May-2021 4516.51 3299.94 67.75 7.00 354.53 2978.60
   00:36:08.583.09-May-2021 4516.51 3299.96 67.75 7.00 354.73 2978.60
   00:36:08.783.09-May-2021 4516.51 3299.96 67.75 7.00 354.93 2978.60
   00:36:08.983.09-May-2021 4516.51 3299.93 67.75 7.00 355.13 2978.60
   00:36:09.183.09-May-2021 4516.51 3299.93 67.75 7.00 355.33 2978.60
   00:36:09.383.09-May-2021 4516.51 3299.67 67.75 7.00 355.53 2978.60
   00:36:09.583.09-May-2021 4516.51 3300.34 67.75 7.00 355.73 2978.60
   00:36:09.783.09-May-2021 4516.51 3300.10 67.75 7.00 355.93 2978.60
   00:36:09.984.09-May-2021 4516.51 3299.92 67.75 7.00 356.13 2978.60
   00:36:10.184.09-May-2021 4516.51 3299.92 67.75 7.00 356.33 2978.60
   00:36:10.384.09-May-2021 4516.51 3299.95 67.75 7.00 356.53 2978.60
   00:36:10.584.09-May-2021 4516.51 3299.94 67.75 7.00 356.73 2978.60
   00:36:10.784.09-May-2021 4516.51 3299.95 67.75 7.00 356.93 2978.60
   00:36:10.984.09-May-2021 4516.51 3299.96 67.75 7.00 357.13 2978.60
   00:36:11.184.09-May-2021 4516.51 3299.96 67.75 7.00 357.33 2978.60
   00:36:11.384.09-May-2021 4516.51 3300.01 67.75 7.00 357.53 2978.60
   00:36:11.584.09-May-2021 4516.51 3299.94 67.75 7.00 357.73 2978.60
   00:36:11.784.09-May-2021 4516.51 3299.96 67.75 7.00 357.93 2978.60
   00:36:11.984.09-May-2021 4516.51 3299.68 67.75 7.00 358.13 2978.60
   00:36:12.184.09-May-2021 4516.51 3299.68 67.75 7.00 358.33 2978.60
   00:36:12.384.09-May-2021 4516.51 3300.20 67.75 7.00 358.53 2978.60
   00:36:12.584.09-May-2021 4516.51 3299.95 67.75 7.00 358.73 2978.60
   00:36:12.785.09-May-2021 4516.51 3299.97 67.75 7.00 358.93 2978.60
   00:36:12.985.09-May-2021 4516.51 3299.50 67.75 7.00 359.13 2978.60
   00:36:13.185.09-May-2021 4516.51 3299.50 67.75 7.00 359.33 2978.60
   00:36:13.385.09-May-2021 4516.51 3300.03 67.75 7.00 359.53 2978.60
   00:36:13.585.09-May-2021 4516.51 3300.08 67.75 7.00 359.73 2978.60
   00:36:13.785.09-May-2021 4516.51 3299.96 67.75 7.00 359.93 2978.60
   00:36:13.985.09-May-2021 4516.51 3299.52 67.75 7.00 360.13 2978.60
   00:36:14.185.09-May-2021 4516.51 3299.52 67.75 7.00 360.33 2978.60
   00:36:14.385.09-May-2021 4516.51 3300.04 67.75 7.00 360.53 2978.60
   00:36:14.585.09-May-2021 4516.51 3300.12 67.75 7.00 360.73 2978.60
   00:36:14.785.09-May-2021 4516.51 3299.98 67.75 7.00 360.93 2978.60
   00:36:14.985.09-May-2021 4516.51 3299.65 67.75 7.00 361.13 2978.60
   00:36:15.185.09-May-2021 4516.51 3299.65 67.75 7.00 361.33 2978.60
   00:36:15.386.09-May-2021 4516.51 3300.24 67.75 7.00 361.53 2978.60
   00:36:15.586.09-May-2021 4516.51 3300.22 67.75 7.00 361.73 2978.60
   00:36:15.786.09-May-2021 4516.51 3300.01 67.75 7.00 361.93 2978.60
   00:36:15.986.09-May-2021 4516.51 3300.05 67.75 7.00 362.13 2978.60
   00:36:16.186.09-May-2021 4516.51 3300.05 67.75 7.00 362.33 2978.60
   00:36:16.386.09-May-2021 4516.51 3300.05 67.75 7.00 362.53 2978.60
   00:36:16.586.09-May-2021 4516.51 3295.45 67.75 7.00 362.73 2978.60
   00:36:16.786.09-May-2021 4516.51 3186.92 67.75 7.00 362.93 2978.60
   00:36:16.986.09-May-2021 4516.51 3344.28 67.75 7.00 363.13 2978.60
   00:36:17.186.09-May-2021 4516.51 3344.28 67.75 7.00 363.33 2978.60
   00:36:17.386.09-May-2021 4516.51 6800.26 67.75 7.00 363.53 2978.60
   00:36:17.586.09-May-2021 4516.51 6801.68 67.75 7.00 363.73 2978.60
   00:36:17.786.09-May-2021 4516.51 6802.31 67.75 7.00 363.93 2978.60
   00:36:17.986.09-May-2021 4516.51 6806.60 67.75 7.00 364.13 2978.60
   00:36:18.187.09-May-2021 4516.51 6806.60 67.75 7.00 364.33 2978.60
   00:36:18.387.09-May-2021 4516.51 6803.13 67.75 7.00 364.53 2978.60
   00:36:18.587.09-May-2021 4516.51 6801.37 67.76 7.00 364.73 2978.60
   00:36:18.787.09-May-2021 4516.51 6802.36 67.76 7.00 364.93 2978.60
   00:36:18.987.09-May-2021 4516.51 6801.92 67.76 7.00 365.13 2978.60
   00:36:19.187.09-May-2021 4516.51 6801.92 67.76 7.00 365.33 2978.60
   00:36:19.387.09-May-2021 4516.51 6803.18 67.76 7.00 365.53 2978.60
   00:36:19.587.09-May-2021 4516.51 6803.74 67.77 7.00 365.73 2978.60
   00:36:19.787.09-May-2021 4516.51 6804.62 67.77 7.00 365.93 2978.60
   00:36:19.987.09-May-2021 4516.51 6804.29 67.77 7.00 366.13 2978.60
   00:36:20.187.09-May-2021 4516.51 6804.29 67.77 7.00 366.33 2978.60
   00:36:20.387.09-May-2021 4516.51 6808.29 67.78 7.00 366.53 2978.60
   00:36:20.587.09-May-2021 4516.51 6811.80 67.78 7.00 366.73 2978.60
   00:36:20.787.09-May-2021 4516.51 6811.17 67.78 7.00 366.93 2978.60
   00:36:20.988.09-May-2021 4516.51 6807.93 67.78 7.00 367.13 2978.60
   00:36:21.188.09-May-2021 4516.51 6807.93 67.78 7.00 367.33 2978.60
   00:36:21.388.09-May-2021 4516.51 6815.67 67.79 7.00 367.53 2978.60
   00:36:21.588.09-May-2021 4516.51 6807.86 67.79 7.00 367.73 2978.60
   00:36:21.788.09-May-2021 4516.51 6811.37 67.79 7.00 367.93 2978.60
