~Version Information
 VERS.                  2.0:   CWLS log ASCII Standard -VERSION 2.0
 WRAP.                   NO:   One line per depth step
~Well Information Block
#MNEM.UNIT     VALUE/NAME     DESCRIPTION
#---------     -----------    ---------------------------
 STRT.S             02:17:40 10-May-21: START TIME 02:17:40 10-May-21
 STOP.S             02:25:48 10-May-21: STOP TIME  02:25:48 10-May-21
 STEP.S                   0.00: STEP TIME
 NULL.                 -999.25: NULL VALUE
 PROV.                    Baku:  PROVINCE
 STAT.                    Baku:  STATE NAME
 SON .        AZ-XX-0906571588:  JOB NUMBER
 WTYP.                Deviated:  WELL TYPE
 COMP.     BP Exploration (Caspian Sea) ltd:  COMPANY
 BASE.              Azerbaijan:  LOGGING EQUIPMENT BASE LOCATION
 REGN.                   EESSA:  REGION
 CTRY.              Azerbaijan:  COUNTRY NAME
 FLD .                     ACG:  FIELD NAME
 WELL.                     J28:  WELL NAME
 RIG .             West Chirag:  RIG NAME
 DMF .             Drill Floor:  DRILL MEAS FROM
 PDAT.       Caspian Sea Level:  PERMANENT DATUM
 HPTY.       Minimum Curvature:  HOLE POS TYPE
 MDS .        Operator Entered:  MAG DATA SOURCE
 NREF.                    Grid:  NORTH REFERENCE
 SRVC.          TURAN DRILLING:  CONTRACTOR
 JOBN.        AZ-XX-0906571588:  JOB TICKET NUMB
 DCON.     Halliburton Sperry Drilling:  DIRECTNL CONTR
 STIM.      00.44.00 11-Feb-21:  START TIME
 DATE.      00.00.00 05-May-21:  END TIME
 SPUD.               13-Feb-21:  SPUD DATE
 MWDS.                    Baku:  MWD SHOP
 DOE .                     N/A:  DOE NUMBER
 UNIT.                     N/A:  LOGGING EQUIPMENT ID
 UWI .                     N/A:  UNIQUE WELL IDENTIFIER
 API .                     N/A:  API NUMBER
 CNTY.                        :  COUNTY
 LOC .                        :  LOCATION
 LMF .             Drill Floor:  LOG MEASURED FROM
 TVDS.m                  43.00:  TVDSS CORRECTN
 SDEP.m                 341.00:  START DEPTH
 EGL .m                   0.00:  GROUND ELEVATION
 WDMS.m                 169.80:  WD ELEV
 AGAP.m                  43.00:  AIR GAP
 EPD .m                   0.00:  ELEVATION
 APD .m                  43.00:  DEPTH ABOVE PD
 LATI.deg                40.13:  LATITUDE
 LONG.deg                51.22:  LONGITUDE
 UTMY.m             4443793.85:  UTM Y
 UTMX.m              519005.06:  UTM X
 WHEW.m                 -11.57:  WELL HEAD E/W
 WHNS.m                   8.57:  WELL HEAD N/S
 VSEW.m                 -11.57:  VERT SEC E/W
 VSNS.m                   8.57:  VERT SEC N/S
 DFWL.m                   0.00:  DISTANCE FWL
 DFSL.m                   0.00:  DISTANCE FSL
 VSDR.deg               299.34:  VERT SEC DIRECT
 GVFD.g                   1.00:  GRAVITY FIELD
 AZTC.deg                 6.36:  AZM TOTAL CORR
 MFLD.nT              50391.00:  MAGNETIC FIELD
 MDIP.deg                59.65:  MAGNETIC DIP
 MDEC.deg                 6.48:  MAGNETIC DECL
 GRDC.deg                 0.12:  GRID CORRECTION
 DEP .m                 334.96:  DEPTH
 TDD .m                1407.26:  TOTAL DEPTH (DRILLER)
 EKB .m                  43.00:  KB ELEVATION
 EDF .m                  43.00:  DF ELEVATION
 TDL .m                 228.00:  TOTAL DEPTH (LOGGER)
 VSC .                       0:  VS TO CLOSURE
 MAGU.                 1854484:  MAGUTM CHECKSUM
~Parameter Information Block
#MNEM.UNIT       Value        Description
#---------     -----------    ---------------------------
 AV  .mps                 4.00:  Ann Velocity 
 AVMX.mps                 4.73:  Max Ann Veloc 
 AZIF.deg               304.48:  Azm, Final 
 BHAT.        Rotary Steerable:  BHA Type 
 BREV.rev            257300.00:  Rev Bit Total 
 BROT.°/30m               0.00:  Build Rotating 
 BS  .in                  8.50:  Bit Size 
 BSZ .in                  8.50:  Bit Size 
 BTPL.psig              589.00:  Bit Press Loss 
 CABU.                      No:  Customer Abuse 
 CGEO.          Mubariz ghayev:  Customer Geo 
 COMM.                     …:  Run Comments 1 
 TCS .hr                 64.25:  Time Ciculation Ended 
 CV  .mps                 3.50:  Crit Velocity 
 CVMX.mps                 4.52:  Max Crit Veloc 
 DD1 .             Aziz Aliyev:  Direct Drillr 1 
 DD2 .         Intigam Rahimov:  Direct Drillr 2 
 DD3 .          Rashad Habibov:  Direct Drillr 3 
 DDSV.               Geo-Pilot:  DD Service 
 DEFF.%                  98.00:  % Det Eff 
 DLRX.°/30m               0.00:  Dogleg Rot Max 
 DLSO.°/30m               0.00:  Dogleg Oriented 
 DLSX.°/30m               0.00:  Dogleg Str Max 
 DRET.      10.45.04 08-May-21:  Drill End Time 
 DRST.      03.30.04 04-May-21:  Drill Start Tim 
 DTIM.hr                 14.97:  Time Drilling 
 EDEP.m                4640.01:  End Depth 
 ENG1.         Dail Mahammadov:  Engineer 1 
 ENG2.           Eldar Hajiyev:  Engineer 2 
 ENG3.       Bakhtiar Jabbarli:  Engineer 3 
 ENG4.       Natik Hasanagayev:  Engineer 4 
 ETIM.      09.30.04 14-May-21:  End Time 
 FLOI.gpm               460.00:  Flow In 
 FLON.gpm               200.00:  Flow In Min 
 FLOS.cptm                0.00:  Fluid Loss 
 FLOX.gpm               505.00:  Flow In Max 
 HFLO.                      No:  High Flow 
 HPRE.                      No:  High Pressure 
 HTEM.                      No:  High Temp 
 HYDO.m                   1.80:  Hydro Offset 
 IFIN.deg                66.71:  Inc, Final 
 IMAX.deg                67.03:  Inc Max 
 IMIN.deg                66.63:  Inc Min 
 IMND.m                4550.58:  Inc Min Depth 
 IMXD.m                4439.01:  Inc Max Depth 
 JARR.                      No:  Jarring 
 LETM.      10.45.04 08-May-21:  Log End Time 
 LOST.hr                     0:  Lost Rig Time 
 LSTM.      03.30.04 04-May-21:  Log Start Time 
 MDCL.ppm             37000.00:  Mud Chlorides 
 MDES.     Inversion Oil/Synthetic:  Mud Desc 
 DFD .sg                  1.38:  Mud Density 
 MDMN.sg                  1.35:  Dens Mud Min 
 MDMX.sg                  1.40:  Dens Mud Max 
 MOIL.                   57.40:  Run Mud Oil % 
 MOWR.                   70:30:  Run Mud OWR 
 MSND.                    0.00:  Run Mud Sand % 
 MSOL.                   18.00:  Run Mud Solids% 
 DFV .spqt               71.00:  Mud Viscosity 
 MWOD.in                  6.75:  MWD Tool OD 
 MWSI.                      No:  Serv Intrp, MWD 
 OTIM.hr                242.76:  Time Operating 
 PCON.           Look Like New:  Pad Condition 
 PMAX.psia            12183.92:  Press Op, Max 
 PV  .cP                 27.00:  Mud PV 
 RUN .                    1300:  Run Number 
 ROPA.m/hr               15.00:  ROP Avg 
 ROPN.m/hr                9.00:  ROP Min 
 ROPX.m/hr               19.00:  ROP Max 
 RPMA.rpm               120.00:  RPM Surface Avg 
 RPMN.rpm               100.00:  RPM Surface Min 
 RPMX.rpm               120.00:  RPM Surface Max 
 RRUN.                    1300:  Rig Run Number 
 RTIM.hr                  5.00:  Time Reaming 
 SAZI.deg               304.73:  Azm, Start 
 SDEP.m                4412.01:  Start Depth 
 SIDD.                      No:  Serv Intrp, DD 
 SINC.deg                66.82:  Inc, Start 
 SPPA.psig             2800.00:  SPP Avg 
 SPPN.psig             2610.00:  SPP Min 
 SPPX.psig             3100.00:  SPP Max 
 STIM.      03.30.00 04-May-21:  Start Time 
 SVCS.                 DD, MWD:  Services 
 SVER.                    9.20:  Sperry Version 
 TDAT.m                 228.00:  Tot Depth Attmp 
 TDDF.                      No:  Trip for DD 
 TDLG.m                 228.00:  Tot Depth Loggd 
 TFF .                      No:  Trip for Fail 
 TQAA.f-kp               15.00:  Torque Abs Avg 
 TQAN.f-kp               12.00:  Torque Abs Min 
 TQAX.f-kp               22.00:  Torque Abs Max 
 TRRT.°/30m               0.00:  Turn Rotating 
 MRT .                    HCIM:  Maximum Recorded Temperature 
 TTMX.degC               90.20:  Max Tool Temp 
 VS01.                90627813:  Virtual Str1 SN 
 VS02.                90634712:  Virtual Str2 SN 
 VS03.                90643410:  Virtual Str3 SN 
 VS04.                90634712:  Virtual Str4 SN 
 WBMN.klb                 9.00:  WOB Min 
 WITN.        Elmaddin Rahimov:  Customer Rep 
 WITN.         Haytham Mostafa:  Customer Rep 2 
 WOBA.klb                15.00:  WOB Avg 
 WOBX.klb                23.00:  WOB Max 
 YP  .lhf2               29.00:  Yield Point 
~Curve Information Block
#MNEM.UNIT                 API CODE     Curve Description
#---------               -----------    ---------------------------
 TIME.HHMMSS            00 000 000 000:  GT Time & Date
 GTDEPTH.m              00 000 000 000:  GT Depth
 GTPQH.psia             00 000 000 000:  GT HR Quartz Pressure
 GTTQ.degC              00 000 000 000:  GT Quartz Temperature
 GTTN.NONE              00 000 000 000:  GT Test Number
 GTET.sec               00 000 000 000:  GT Elapsed Test Time
 GTTVD.m                00 000 000 000:  GT True Vertical Depth
#Other Information
#
#WARRANTY: Halliburton will use its best efforts to furnish customers with 
#accurate information and interpretations that are part of, and incident to, the services 
#provided.  However, Halliburton cannot and does not warrant the accuracy 
#or correctness of such information and interpretations.  Under no circumstances should any 
#such information or interpretation be relied upon as the sole basis for any drilling, 
#completion, production, or financial decision or any procedure involving any risk to the 
#safety of any drilling venture, drilling rig or its crew or any other third party.  The 
#Customer has full responsibility for all drilling, completion and production operation.  
#Halliburton makes no representations or warranties, either expressed or 
#implied, including, but not limited to, the implied warranties of merchantability or fitness 
#for a particular purpose, with respect to the services rendered.  In no event will 
#Halliburton be liable for failure to obtain any particular results or for 
#any damages, including, but not limited to, indirect, special or consequential damages, 
#resulting from the use of any information or interpretation provided by Halliburton.
#
~A           TIME           GTDEPTH  GTPQH  GTTQ  GTTN   GTET   GTTVD  
# ...
   02:25:12.713.10-May-2021 4568.01  502.44 60.29 20.00 452.08 2998.98
   02:25:12.913.10-May-2021 4568.01  502.44 60.29 20.00 452.28 2998.98
   02:25:13.113.10-May-2021 4568.01  783.00 60.29 20.00 452.48 2998.98
   02:25:13.313.10-May-2021 4568.01 1392.23 60.29 20.00 452.68 2998.98
   02:25:13.513.10-May-2021 4568.01 6603.19 60.29 20.00 452.88 2998.98
   02:25:13.713.10-May-2021 4568.01 6597.37 60.29 20.00 453.08 2998.98
   02:25:13.913.10-May-2021 4568.01 6597.37 60.29 20.00 453.28 2998.98
   02:25:14.113.10-May-2021 4568.01 6594.55 60.30 20.00 453.48 2998.98
   02:25:14.313.10-May-2021 4568.01 6597.21 60.30 20.00 453.68 2998.98
   02:25:14.513.10-May-2021 4568.01 6596.92 60.30 20.00 453.88 2998.98
   02:25:14.713.10-May-2021 4568.01 6597.91 60.30 20.00 454.08 2998.98
   02:25:14.913.10-May-2021 4568.01 6597.91 60.30 20.00 454.28 2998.98
   02:25:15.113.10-May-2021 4568.01 6599.63 60.31 20.00 454.48 2998.98
   02:25:15.313.10-May-2021 4568.01 6600.99 60.31 20.00 454.68 2998.98
   02:25:15.513.10-May-2021 4568.01 6602.05 60.32 20.00 454.88 2998.98
   02:25:15.713.10-May-2021 4568.01 6603.57 60.32 20.00 455.08 2998.98
   02:25:15.913.10-May-2021 4568.01 6603.57 60.32 20.00 455.28 2998.98
   02:25:16.113.10-May-2021 4568.01 6611.85 60.33 20.00 455.48 2998.98
   02:25:16.313.10-May-2021 4568.01 6606.76 60.33 20.00 455.68 2998.98
   02:25:16.513.10-May-2021 4568.01 6606.87 60.34 20.00 455.88 2998.98
   02:25:16.713.10-May-2021 4568.01 6607.91 60.34 20.00 456.08 2998.98
   02:25:16.913.10-May-2021 4568.01 6607.91 60.34 20.00 456.28 2998.98
   02:25:17.113.10-May-2021 4568.01 6606.21 60.35 20.00 456.48 2998.98
   02:25:17.313.10-May-2021 4568.01 6611.18 60.35 20.00 456.68 2998.98
   02:25:17.514.10-May-2021 4568.01 6613.01 60.36 20.00 456.88 2998.98
   02:25:17.714.10-May-2021 4568.01 6608.39 60.36 20.00 457.08 2998.98
   02:25:17.914.10-May-2021 4568.01 6608.39 60.36 20.00 457.28 2998.98
   02:25:18.114.10-May-2021 4568.01 6608.09 60.37 20.00 457.48 2998.98
   02:25:18.314.10-May-2021 4568.01 6609.17 60.37 20.00 457.68 2998.98
   02:25:18.514.10-May-2021 4568.01 6611.62 60.38 20.00 457.88 2998.98
   02:25:18.714.10-May-2021 4568.01 6613.31 60.38 20.00 458.08 2998.98
   02:25:18.914.10-May-2021 4568.01 6613.31 60.38 20.00 458.28 2998.98
   02:25:19.114.10-May-2021 4568.01 6610.15 60.39 20.00 458.48 2998.98
   02:25:19.314.10-May-2021 4568.01 6608.30 60.39 20.00 458.68 2998.98
   02:25:19.514.10-May-2021 4568.01 6613.55 60.39 20.00 458.88 2998.98
   02:25:19.714.10-May-2021 4568.01 6614.57 60.40 20.00 459.08 2998.98
   02:25:19.914.10-May-2021 4568.01 6614.57 60.40 20.00 459.28 2998.98
   02:25:20.114.10-May-2021 4568.01 6608.98 60.40 20.00 459.48 2998.98
   02:25:20.314.10-May-2021 4568.01 6608.48 60.40 20.00 459.68 2998.98
   02:25:20.514.10-May-2021 4568.01 6608.01 60.41 20.00 459.88 2998.98
   02:25:20.714.10-May-2021 4568.01 6608.10 60.41 20.00 460.08 2998.98
   02:25:20.914.10-May-2021 4568.01 6608.10 60.41 20.00 460.28 2998.98
   02:25:21.114.10-May-2021 4568.01 6607.64 60.41 20.00 460.48 2998.98
   02:25:21.314.10-May-2021 4568.01 6607.56 60.42 20.00 460.68 2998.98
   02:25:21.514.10-May-2021 4568.01 6608.64 60.42 20.00 460.88 2998.98
   02:25:21.714.10-May-2021 4568.01 6608.84 60.42 20.00 461.08 2998.98
   02:25:21.914.10-May-2021 4568.01 6608.84 60.42 20.00 461.28 2998.98
   02:25:22.114.10-May-2021 4568.01 6613.60 60.42 20.00 461.48 2998.98
   02:25:22.314.10-May-2021 4568.01 6614.96 60.43 20.00 461.68 2998.98
   02:25:22.514.10-May-2021 4568.01 6610.00 60.43 20.00 461.88 2998.98
   02:25:22.714.10-May-2021 4568.01 6609.99 60.43 20.00 462.08 2998.98
   02:25:22.914.10-May-2021 4568.01 6609.99 60.43 20.00 462.28 2998.98
   02:25:23.115.10-May-2021 4568.01 6608.72 60.43 20.00 462.48 2998.98
   02:25:23.315.10-May-2021 4568.01 6608.71 60.43 20.00 462.68 2998.98
   02:25:23.515.10-May-2021 4568.01 6608.08 60.43 20.00 462.88 2998.98
   02:25:23.715.10-May-2021 4568.01 6607.98 60.43 20.00 463.08 2998.98
   02:25:23.915.10-May-2021 4568.01 6607.98 60.43 20.00 463.28 2998.98
   02:25:24.115.10-May-2021 4568.01 6609.09 60.44 20.00 463.48 2998.98
   02:25:24.315.10-May-2021 4568.01 6608.79 60.44 20.00 463.68 2998.98
   02:25:24.515.10-May-2021 4568.01 6607.75 60.44 20.00 463.88 2998.98
   02:25:24.715.10-May-2021 4568.01 6613.52 60.44 20.00 464.08 2998.98
   02:25:24.915.10-May-2021 4568.01 6613.52 60.44 20.00 464.28 2998.98
   02:25:25.115.10-May-2021 4568.01 6612.67 60.44 20.00 464.48 2998.98
   02:25:25.315.10-May-2021 4568.01 6610.42 60.44 20.00 464.68 2998.98
   02:25:25.515.10-May-2021 4568.01 6611.24 60.44 20.00 464.88 2998.98
   02:25:25.715.10-May-2021 4568.01 6615.97 60.44 20.00 465.08 2998.98
   02:25:25.915.10-May-2021 4568.01 6615.97 60.44 20.00 465.28 2998.98
   02:25:26.115.10-May-2021 4568.01 6610.96 60.44 20.00 465.48 2998.98
   02:25:26.315.10-May-2021 4568.01 6610.62 60.44 20.00 465.68 2998.98
   02:25:26.515.10-May-2021 4568.01 6610.32 60.44 20.00 465.88 2998.98
   02:25:26.715.10-May-2021 4568.01 6618.19 60.44 20.00 466.08 2998.98
   02:25:26.915.10-May-2021 4568.01 6618.19 60.44 20.00 466.28 2998.98
   02:25:27.115.10-May-2021 4568.01 6610.18 60.44 20.00 466.48 2998.98
   02:25:27.315.10-May-2021 4568.01 6610.74 60.44 20.00 466.68 2998.98
   02:25:27.515.10-May-2021 4568.01 6618.50 60.44 20.00 466.88 2998.98
   02:25:27.715.10-May-2021 4568.01 6614.73 60.44 20.00 467.08 2998.98
   02:25:27.915.10-May-2021 4568.01 6614.73 60.44 20.00 467.28 2998.98
   02:25:28.115.10-May-2021 4568.01 6610.48 60.44 20.00 467.48 2998.98
   02:25:28.315.10-May-2021 4568.01 6609.38 60.44 20.00 467.68 2998.98
   02:25:28.515.10-May-2021 4568.01 6608.73 60.44 20.00 467.88 2998.98
   02:25:28.716.10-May-2021 4568.01 6608.54 60.44 20.00 468.08 2998.98
   02:25:28.916.10-May-2021 4568.01 6608.54 60.44 20.00 468.28 2998.98
   02:25:29.116.10-May-2021 4568.01 6608.16 60.44 20.00 468.48 2998.98
   02:25:29.316.10-May-2021 4568.01 6608.08 60.44 20.00 468.68 2998.98
   02:25:29.516.10-May-2021 4568.01 6608.06 60.44 20.00 468.88 2998.98
   02:25:29.716.10-May-2021 4568.01 6608.06 60.44 20.00 469.08 2998.98
   02:25:29.916.10-May-2021 4568.01 6608.06 60.44 20.00 469.28 2998.98
   02:25:30.116.10-May-2021 4568.01 6617.14 60.44 20.00 469.48 2998.98
   02:25:30.316.10-May-2021 4568.01 6613.65 60.44 20.00 469.68 2998.98
   02:25:30.516.10-May-2021 4568.01 6610.70 60.44 20.00 469.88 2998.98
   02:25:30.716.10-May-2021 4568.01 6609.83 60.44 20.00 470.08 2998.98
   02:25:30.916.10-May-2021 4568.01 6609.83 60.44 20.00 470.28 2998.98
   02:25:31.116.10-May-2021 4568.01 6608.63 60.44 20.00 470.48 2998.98
   02:25:31.316.10-May-2021 4568.01 6608.63 60.44 20.00 470.68 2998.98
   02:25:31.516.10-May-2021 4568.01 6608.78 60.44 20.00 470.88 2998.98
   02:25:31.716.10-May-2021 4568.01 6608.47 60.44 20.00 471.08 2998.98
   02:25:31.916.10-May-2021 4568.01 6608.47 60.44 20.00 471.28 2998.98
   02:25:32.116.10-May-2021 4568.01 6608.03 60.44 20.00 471.48 2998.98
   02:25:32.316.10-May-2021 4568.01 6608.07 60.44 20.00 471.68 2998.98
   02:25:32.516.10-May-2021 4568.01 6608.13 60.44 20.00 471.88 2998.98
   02:25:32.716.10-May-2021 4568.01 6611.02 60.44 20.00 472.08 2998.98
   02:25:32.916.10-May-2021 4568.01 6611.02 60.44 20.00 472.28 2998.98
   02:25:33.116.10-May-2021 4568.01 6614.95 60.44 20.00 472.48 2998.98
   02:25:33.316.10-May-2021 4568.01 6608.53 60.44 20.00 472.68 2998.98
   02:25:33.516.10-May-2021 4568.01 6609.75 60.44 20.00 472.88 2998.98
   02:25:33.716.10-May-2021 4568.01 6615.25 60.44 20.00 473.08 2998.98
   02:25:33.916.10-May-2021 4568.01 6615.25 60.44 20.00 473.28 2998.98
   02:25:34.116.10-May-2021 4568.01 6612.53 60.44 20.00 473.48 2998.98
   02:25:34.317.10-May-2021 4568.01 6608.60 60.44 20.00 473.68 2998.98
   02:25:34.517.10-May-2021 4568.01 6610.03 60.44 20.00 473.88 2998.98
   02:25:34.717.10-May-2021 4568.01 6608.67 60.44 20.00 474.08 2998.98
   02:25:34.917.10-May-2021 4568.01 6608.67 60.44 20.00 474.28 2998.98
   02:25:35.117.10-May-2021 4568.01 6615.39 60.44 20.00 474.48 2998.98
