~Version Information
 VERS.                  2.0:   CWLS log ASCII Standard -VERSION 2.0
 WRAP.                   NO:   One line per depth step
~Well Information Block
#MNEM.UNIT     VALUE/NAME     DESCRIPTION
#---------     -----------    ---------------------------
 STRT.S             00:12:22 09-May-21: START TIME 00:12:22 09-May-21
 STOP.S             00:19:08 09-May-21: STOP TIME  00:19:08 09-May-21
 STEP.S                   0.00: STEP TIME
 NULL.                 -999.25: NULL VALUE
 PROV.                    Baku:  PROVINCE
 STAT.                    Baku:  STATE NAME
 SON .        AZ-XX-0906571588:  JOB NUMBER
 WTYP.                Deviated:  WELL TYPE
 COMP.     BP Exploration (Caspian Sea) ltd:  COMPANY
 BASE.              Azerbaijan:  LOGGING EQUIPMENT BASE LOCATION
 REGN.                   EESSA:  REGION
 CTRY.              Azerbaijan:  COUNTRY NAME
 FLD .                     ACG:  FIELD NAME
 WELL.                     J28:  WELL NAME
 RIG .             West Chirag:  RIG NAME
 DMF .             Drill Floor:  DRILL MEAS FROM
 PDAT.       Caspian Sea Level:  PERMANENT DATUM
 HPTY.       Minimum Curvature:  HOLE POS TYPE
 MDS .        Operator Entered:  MAG DATA SOURCE
 NREF.                    Grid:  NORTH REFERENCE
 SRVC.          TURAN DRILLING:  CONTRACTOR
 JOBN.        AZ-XX-0906571588:  JOB TICKET NUMB
 DCON.     Halliburton Sperry Drilling:  DIRECTNL CONTR
 STIM.      00.44.00 11-Feb-21:  START TIME
 DATE.      00.00.00 05-May-21:  END TIME
 SPUD.               13-Feb-21:  SPUD DATE
 MWDS.                    Baku:  MWD SHOP
 DOE .                     N/A:  DOE NUMBER
 UNIT.                     N/A:  LOGGING EQUIPMENT ID
 UWI .                     N/A:  UNIQUE WELL IDENTIFIER
 API .                     N/A:  API NUMBER
 CNTY.                        :  COUNTY
 LOC .                        :  LOCATION
 LMF .             Drill Floor:  LOG MEASURED FROM
 TVDS.m                  43.00:  TVDSS CORRECTN
 SDEP.m                 341.00:  START DEPTH
 EGL .m                   0.00:  GROUND ELEVATION
 WDMS.m                 169.80:  WD ELEV
 AGAP.m                  43.00:  AIR GAP
 EPD .m                   0.00:  ELEVATION
 APD .m                  43.00:  DEPTH ABOVE PD
 LATI.deg                40.13:  LATITUDE
 LONG.deg                51.22:  LONGITUDE
 UTMY.m             4443793.85:  UTM Y
 UTMX.m              519005.06:  UTM X
 WHEW.m                 -11.57:  WELL HEAD E/W
 WHNS.m                   8.57:  WELL HEAD N/S
 VSEW.m                 -11.57:  VERT SEC E/W
 VSNS.m                   8.57:  VERT SEC N/S
 DFWL.m                   0.00:  DISTANCE FWL
 DFSL.m                   0.00:  DISTANCE FSL
 VSDR.deg               299.34:  VERT SEC DIRECT
 GVFD.g                   1.00:  GRAVITY FIELD
 AZTC.deg                 6.36:  AZM TOTAL CORR
 MFLD.nT              50391.00:  MAGNETIC FIELD
 MDIP.deg                59.65:  MAGNETIC DIP
 MDEC.deg                 6.48:  MAGNETIC DECL
 GRDC.deg                 0.12:  GRID CORRECTION
 DEP .m                 334.96:  DEPTH
 TDD .m                1407.26:  TOTAL DEPTH (DRILLER)
 EKB .m                  43.00:  KB ELEVATION
 EDF .m                  43.00:  DF ELEVATION
 TDL .m                 228.00:  TOTAL DEPTH (LOGGER)
 VSC .                       0:  VS TO CLOSURE
 MAGU.                 1854484:  MAGUTM CHECKSUM
~Parameter Information Block
#MNEM.UNIT       Value        Description
#---------     -----------    ---------------------------
 AV  .mps                 4.00:  Ann Velocity 
 AVMX.mps                 4.73:  Max Ann Veloc 
 AZIF.deg               304.48:  Azm, Final 
 BHAT.        Rotary Steerable:  BHA Type 
 BREV.rev            257300.00:  Rev Bit Total 
 BROT.°/30m               0.00:  Build Rotating 
 BS  .in                  8.50:  Bit Size 
 BSZ .in                  8.50:  Bit Size 
 BTPL.psig              589.00:  Bit Press Loss 
 CABU.                      No:  Customer Abuse 
 CGEO.          Mubariz ghayev:  Customer Geo 
 COMM.                     <Š|:  Run Comments 1 
 TCS .hr                 64.25:  Time Ciculation Ended 
 CV  .mps                 3.50:  Crit Velocity 
 CVMX.mps                 4.52:  Max Crit Veloc 
 DD1 .             Aziz Aliyev:  Direct Drillr 1 
 DD2 .         Intigam Rahimov:  Direct Drillr 2 
 DD3 .          Rashad Habibov:  Direct Drillr 3 
 DDSV.               Geo-Pilot:  DD Service 
 DEFF.%                  98.00:  % Det Eff 
 DLRX.°/30m               0.00:  Dogleg Rot Max 
 DLSO.°/30m               0.00:  Dogleg Oriented 
 DLSX.°/30m               0.00:  Dogleg Str Max 
 DRET.      10.45.04 08-May-21:  Drill End Time 
 DRST.      03.30.04 04-May-21:  Drill Start Tim 
 DTIM.hr                 14.97:  Time Drilling 
 EDEP.m                4640.01:  End Depth 
 ENG1.         Dail Mahammadov:  Engineer 1 
 ENG2.           Eldar Hajiyev:  Engineer 2 
 ENG3.       Bakhtiar Jabbarli:  Engineer 3 
 ENG4.       Natik Hasanagayev:  Engineer 4 
 ETIM.      09.30.04 14-May-21:  End Time 
 FLOI.gpm               460.00:  Flow In 
 FLON.gpm               200.00:  Flow In Min 
 FLOS.cptm                0.00:  Fluid Loss 
 FLOX.gpm               505.00:  Flow In Max 
 HFLO.                      No:  High Flow 
 HPRE.                      No:  High Pressure 
 HTEM.                      No:  High Temp 
 HYDO.m                   1.80:  Hydro Offset 
 IFIN.deg                66.71:  Inc, Final 
 IMAX.deg                67.03:  Inc Max 
 IMIN.deg                66.63:  Inc Min 
 IMND.m                4550.58:  Inc Min Depth 
 IMXD.m                4439.01:  Inc Max Depth 
 JARR.                      No:  Jarring 
 LETM.      10.45.04 08-May-21:  Log End Time 
 LOST.hr                     0:  Lost Rig Time 
 LSTM.      03.30.04 04-May-21:  Log Start Time 
 MDCL.ppm             37000.00:  Mud Chlorides 
 MDES.     Inversion Oil/Synthetic:  Mud Desc 
 DFD .sg                  1.38:  Mud Density 
 MDMN.sg                  1.35:  Dens Mud Min 
 MDMX.sg                  1.40:  Dens Mud Max 
 MOIL.                   57.40:  Run Mud Oil % 
 MOWR.                   70:30:  Run Mud OWR 
 MSND.                    0.00:  Run Mud Sand % 
 MSOL.                   18.00:  Run Mud Solids% 
 DFV .spqt               71.00:  Mud Viscosity 
 MWOD.in                  6.75:  MWD Tool OD 
 MWSI.                      No:  Serv Intrp, MWD 
 OTIM.hr                242.76:  Time Operating 
 PCON.           Look Like New:  Pad Condition 
 PMAX.psia            12183.92:  Press Op, Max 
 PV  .cP                 27.00:  Mud PV 
 RUN .                    1300:  Run Number 
 ROPA.m/hr               15.00:  ROP Avg 
 ROPN.m/hr                9.00:  ROP Min 
 ROPX.m/hr               19.00:  ROP Max 
 RPMA.rpm               120.00:  RPM Surface Avg 
 RPMN.rpm               100.00:  RPM Surface Min 
 RPMX.rpm               120.00:  RPM Surface Max 
 RRUN.                    1300:  Rig Run Number 
 RTIM.hr                  5.00:  Time Reaming 
 SAZI.deg               304.73:  Azm, Start 
 SDEP.m                4412.01:  Start Depth 
 SIDD.                      No:  Serv Intrp, DD 
 SINC.deg                66.82:  Inc, Start 
 SPPA.psig             2800.00:  SPP Avg 
 SPPN.psig             2610.00:  SPP Min 
 SPPX.psig             3100.00:  SPP Max 
 STIM.      03.30.00 04-May-21:  Start Time 
 SVCS.                 DD, MWD:  Services 
 SVER.                    9.20:  Sperry Version 
 TDAT.m                 228.00:  Tot Depth Attmp 
 TDDF.                      No:  Trip for DD 
 TDLG.m                 228.00:  Tot Depth Loggd 
 TFF .                      No:  Trip for Fail 
 TQAA.f-kp               15.00:  Torque Abs Avg 
 TQAN.f-kp               12.00:  Torque Abs Min 
 TQAX.f-kp               22.00:  Torque Abs Max 
 TRRT.°/30m               0.00:  Turn Rotating 
 MRT .                    HCIM:  Maximum Recorded Temperature 
 TTMX.degC               90.20:  Max Tool Temp 
 VS01.                90627813:  Virtual Str1 SN 
 VS02.                90634712:  Virtual Str2 SN 
 VS03.                90643410:  Virtual Str3 SN 
 VS04.                90634712:  Virtual Str4 SN 
 WBMN.klb                 9.00:  WOB Min 
 WITN.        Elmaddin Rahimov:  Customer Rep 
 WITN.         Haytham Mostafa:  Customer Rep 2 
 WOBA.klb                15.00:  WOB Avg 
 WOBX.klb                23.00:  WOB Max 
 YP  .lhf2               29.00:  Yield Point 
~Curve Information Block
#MNEM.UNIT                 API CODE     Curve Description
#---------               -----------    ---------------------------
 TIME.HHMMSS            00 000 000 000:  GT Time & Date
 GTDEPTH.m              00 000 000 000:  GT Depth
 GTPQH.psia             00 000 000 000:  GT HR Quartz Pressure
 GTTQ.degC              00 000 000 000:  GT Quartz Temperature
 GTTN.NONE              00 000 000 000:  GT Test Number
 GTET.sec               00 000 000 000:  GT Elapsed Test Time
 GTTVD.m                00 000 000 000:  GT True Vertical Depth
#Other Information
#
#WARRANTY: Halliburton will use its best efforts to furnish customers with 
#accurate information and interpretations that are part of, and incident to, the services 
#provided.  However, Halliburton cannot and does not warrant the accuracy 
#or correctness of such information and interpretations.  Under no circumstances should any 
#such information or interpretation be relied upon as the sole basis for any drilling, 
#completion, production, or financial decision or any procedure involving any risk to the 
#safety of any drilling venture, drilling rig or its crew or any other third party.  The 
#Customer has full responsibility for all drilling, completion and production operation.  
#Halliburton makes no representations or warranties, either expressed or 
#implied, including, but not limited to, the implied warranties of merchantability or fitness 
#for a particular purpose, with respect to the services rendered.  In no event will 
#Halliburton be liable for failure to obtain any particular results or for 
#any damages, including, but not limited to, indirect, special or consequential damages, 
#resulting from the use of any information or interpretation provided by Halliburton.
#
~A           TIME           GTDEPTH  GTPQH  GTTQ  GTTN  GTET   GTTVD  
# ...
   00:15:49.541.09-May-2021 4527.01 3260.37 68.17 6.00 207.08 2982.74
   00:15:49.741.09-May-2021 4527.01 3260.37 68.17 6.00 207.28 2982.74
   00:15:49.942.09-May-2021 4527.01 3260.12 68.17 6.00 207.48 2982.74
   00:15:50.142.09-May-2021 4527.01 3260.19 68.17 6.00 207.68 2982.74
   00:15:50.342.09-May-2021 4527.01 3259.94 68.17 6.00 207.88 2982.74
   00:15:50.542.09-May-2021 4527.01 3260.50 68.17 6.00 208.08 2982.74
   00:15:50.742.09-May-2021 4527.01 3260.50 68.17 6.00 208.28 2982.74
   00:15:50.942.09-May-2021 4527.01 3260.31 68.17 6.00 208.48 2982.74
   00:15:51.142.09-May-2021 4527.01 3260.20 68.17 6.00 208.68 2982.74
   00:15:51.342.09-May-2021 4527.01 3260.22 68.17 6.00 208.88 2982.74
   00:15:51.542.09-May-2021 4527.01 3260.22 68.17 6.00 209.08 2982.74
   00:15:51.742.09-May-2021 4527.01 3260.22 68.17 6.00 209.28 2982.74
   00:15:51.942.09-May-2021 4527.01 3260.22 68.17 6.00 209.48 2982.74
   00:15:52.142.09-May-2021 4527.01 3260.21 68.17 6.00 209.68 2982.74
   00:15:52.342.09-May-2021 4527.01 3260.24 68.17 6.00 209.88 2982.74
   00:15:52.542.09-May-2021 4527.01 3260.21 68.17 6.00 210.08 2982.74
   00:15:52.743.09-May-2021 4527.01 3260.21 68.17 6.00 210.28 2982.74
   00:15:52.943.09-May-2021 4527.01 3259.93 68.17 6.00 210.48 2982.74
   00:15:53.143.09-May-2021 4527.01 3260.49 68.17 6.00 210.68 2982.74
   00:15:53.343.09-May-2021 4527.01 3260.07 68.17 6.00 210.88 2982.74
   00:15:53.543.09-May-2021 4527.01 3260.29 68.17 6.00 211.08 2982.74
   00:15:53.743.09-May-2021 4527.01 3260.29 68.17 6.00 211.28 2982.74
   00:15:53.943.09-May-2021 4527.01 3260.20 68.17 6.00 211.48 2982.74
   00:15:54.143.09-May-2021 4527.01 3260.19 68.17 6.00 211.68 2982.74
   00:15:54.343.09-May-2021 4527.01 3260.21 68.17 6.00 211.88 2982.74
   00:15:54.543.09-May-2021 4527.01 3260.20 68.17 6.00 212.08 2982.74
   00:15:54.743.09-May-2021 4527.01 3260.20 68.17 6.00 212.28 2982.74
   00:15:54.943.09-May-2021 4527.01 3260.21 68.17 6.00 212.48 2982.74
   00:15:55.143.09-May-2021 4527.01 3260.21 68.17 6.00 212.68 2982.74
   00:15:55.343.09-May-2021 4527.01 3260.18 68.17 6.00 212.88 2982.74
   00:15:55.544.09-May-2021 4527.01 3259.90 68.17 6.00 213.08 2982.74
   00:15:55.744.09-May-2021 4527.01 3259.90 68.17 6.00 213.28 2982.74
   00:15:55.944.09-May-2021 4527.01 3260.04 68.17 6.00 213.48 2982.74
   00:15:56.144.09-May-2021 4527.01 3260.30 68.17 6.00 213.68 2982.74
   00:15:56.344.09-May-2021 4527.01 3260.19 68.17 6.00 213.88 2982.74
   00:15:56.544.09-May-2021 4527.01 3260.15 68.17 6.00 214.08 2982.74
   00:15:56.744.09-May-2021 4527.01 3260.15 68.17 6.00 214.28 2982.74
   00:15:56.944.09-May-2021 4527.01 3260.63 68.16 6.00 214.48 2982.74
   00:15:57.144.09-May-2021 4527.01 3260.04 68.16 6.00 214.68 2982.74
   00:15:57.344.09-May-2021 4527.01 3260.17 68.16 6.00 214.88 2982.74
   00:15:57.544.09-May-2021 4527.01 3259.92 68.16 6.00 215.08 2982.74
   00:15:57.744.09-May-2021 4527.01 3259.92 68.16 6.00 215.28 2982.74
   00:15:57.944.09-May-2021 4527.01 3260.04 68.16 6.00 215.48 2982.74
   00:15:58.144.09-May-2021 4527.01 3260.29 68.16 6.00 215.68 2982.74
   00:15:58.345.09-May-2021 4527.01 3260.19 68.16 6.00 215.88 2982.74
   00:15:58.545.09-May-2021 4527.01 3260.14 68.16 6.00 216.08 2982.74
   00:15:58.745.09-May-2021 4527.01 3260.14 68.16 6.00 216.28 2982.74
   00:15:58.945.09-May-2021 4527.01 3260.42 68.16 6.00 216.48 2982.74
   00:15:59.145.09-May-2021 4527.01 3260.13 68.16 6.00 216.68 2982.74
   00:15:59.345.09-May-2021 4527.01 3260.08 68.16 6.00 216.88 2982.74
   00:15:59.545.09-May-2021 4527.01 3260.20 68.16 6.00 217.08 2982.74
   00:15:59.745.09-May-2021 4527.01 3260.20 68.16 6.00 217.28 2982.74
   00:15:59.945.09-May-2021 4527.01 3260.20 68.16 6.00 217.48 2982.74
   00:16:00.145.09-May-2021 4527.01 3260.20 68.16 6.00 217.68 2982.74
   00:16:00.345.09-May-2021 4527.01 3260.21 68.16 6.00 217.88 2982.74
   00:16:00.545.09-May-2021 4527.01 3260.18 68.16 6.00 218.08 2982.74
   00:16:00.745.09-May-2021 4527.01 3260.18 68.16 6.00 218.28 2982.74
   00:16:00.945.09-May-2021 4527.01 3260.18 68.16 6.00 218.48 2982.74
   00:16:01.146.09-May-2021 4527.01 3260.16 68.16 6.00 218.68 2982.74
   00:16:01.346.09-May-2021 4527.01 3260.07 68.16 6.00 218.88 2982.74
   00:16:01.546.09-May-2021 4527.01 3260.41 68.16 6.00 219.08 2982.74
   00:16:01.746.09-May-2021 4527.01 3260.41 68.16 6.00 219.28 2982.74
   00:16:01.946.09-May-2021 4527.01 3260.06 68.16 6.00 219.48 2982.74
   00:16:02.146.09-May-2021 4527.01 3260.21 68.16 6.00 219.68 2982.74
   00:16:02.346.09-May-2021 4527.01 3260.17 68.16 6.00 219.88 2982.74
   00:16:02.546.09-May-2021 4527.01 3260.18 68.16 6.00 220.08 2982.74
   00:16:02.746.09-May-2021 4527.01 3260.18 68.16 6.00 220.28 2982.74
   00:16:02.946.09-May-2021 4527.01 3260.17 68.16 6.00 220.48 2982.74
   00:16:03.146.09-May-2021 4527.01 3260.20 68.16 6.00 220.68 2982.74
   00:16:03.346.09-May-2021 4527.01 3260.20 68.16 6.00 220.88 2982.74
   00:16:03.546.09-May-2021 4527.01 3260.17 68.16 6.00 221.08 2982.74
   00:16:03.747.09-May-2021 4527.01 3260.17 68.16 6.00 221.28 2982.74
   00:16:03.947.09-May-2021 4527.01 3260.03 68.16 6.00 221.48 2982.74
   00:16:04.147.09-May-2021 4527.01 3260.42 68.16 6.00 221.68 2982.74
   00:16:04.347.09-May-2021 4527.01 3260.13 68.16 6.00 221.88 2982.74
   00:16:04.547.09-May-2021 4527.01 3260.06 68.16 6.00 222.08 2982.74
   00:16:04.747.09-May-2021 4527.01 3260.06 68.16 6.00 222.28 2982.74
   00:16:04.947.09-May-2021 4527.01 3260.12 68.16 6.00 222.48 2982.74
   00:16:05.147.09-May-2021 4527.01 3260.02 68.16 6.00 222.68 2982.74
   00:16:05.347.09-May-2021 4527.01 3260.35 68.16 6.00 222.88 2982.74
   00:16:05.547.09-May-2021 4527.01 3260.21 68.16 6.00 223.08 2982.74
   00:16:05.747.09-May-2021 4527.01 3260.21 68.16 6.00 223.28 2982.74
   00:16:05.947.09-May-2021 4527.01 3260.05 68.16 6.00 223.48 2982.74
   00:16:06.147.09-May-2021 4527.01 3260.42 68.16 6.00 223.68 2982.74
   00:16:06.347.09-May-2021 4527.01 3260.11 68.16 6.00 223.88 2982.74
   00:16:06.548.09-May-2021 4527.01 3260.06 68.16 6.00 224.08 2982.74
   00:16:06.748.09-May-2021 4527.01 3260.06 68.16 6.00 224.28 2982.74
   00:16:06.948.09-May-2021 4527.01 3259.88 68.16 6.00 224.48 2982.74
   00:16:07.148.09-May-2021 4527.01 3260.32 68.16 6.00 224.68 2982.74
   00:16:07.348.09-May-2021 4527.01 3260.16 68.16 6.00 224.88 2982.74
   00:16:07.548.09-May-2021 4527.01 3260.25 68.16 6.00 225.08 2982.74
   00:16:07.748.09-May-2021 4527.01 3260.25 68.16 6.00 225.28 2982.74
   00:16:07.948.09-May-2021 4527.01 3260.16 68.16 6.00 225.48 2982.74
   00:16:08.148.09-May-2021 4527.01 3260.18 68.16 6.00 225.68 2982.74
   00:16:08.348.09-May-2021 4527.01 3260.17 68.16 6.00 225.88 2982.74
   00:16:08.548.09-May-2021 4527.01 3260.17 68.16 6.00 226.08 2982.74
   00:16:08.748.09-May-2021 4527.01 3260.17 68.16 6.00 226.28 2982.74
   00:16:08.948.09-May-2021 4527.01 3260.17 68.16 6.00 226.48 2982.74
   00:16:09.148.09-May-2021 4527.01 3260.19 68.16 6.00 226.68 2982.74
   00:16:09.349.09-May-2021 4527.01 3260.16 68.16 6.00 226.88 2982.74
   00:16:09.549.09-May-2021 4527.01 3259.93 68.16 6.00 227.08 2982.74
   00:16:09.749.09-May-2021 4527.01 3259.93 68.16 6.00 227.28 2982.74
   00:16:09.949.09-May-2021 4527.01 3260.13 68.16 6.00 227.48 2982.74
   00:16:10.149.09-May-2021 4527.01 3260.27 68.16 6.00 227.68 2982.74
   00:16:10.349.09-May-2021 4527.01 3260.14 68.16 6.00 227.88 2982.74
   00:16:10.549.09-May-2021 4527.01 3260.16 68.16 6.00 228.08 2982.74
   00:16:10.749.09-May-2021 4527.01 3260.16 68.16 6.00 228.28 2982.74
   00:16:10.949.09-May-2021 4527.01 3260.15 68.16 6.00 228.48 2982.74
   00:16:11.149.09-May-2021 4527.01 3260.18 68.16 6.00 228.68 2982.74
   00:16:11.349.09-May-2021 4527.01 3260.17 68.16 6.00 228.88 2982.74
   00:16:11.549.09-May-2021 4527.01 3260.17 68.16 6.00 229.08 2982.74
   00:16:11.749.09-May-2021 4527.01 3260.17 68.16 6.00 229.28 2982.74
   00:16:11.949.09-May-2021 4527.01 3260.15 68.16 6.00 229.48 2982.74
   00:16:12.150.09-May-2021 4527.01 3259.93 68.16 6.00 229.68 2982.74
   00:16:12.350.09-May-2021 4527.01 3260.29 68.16 6.00 229.88 2982.74
