~Version Information
 VERS.                  2.0:   CWLS log ASCII Standard -VERSION 2.0
 WRAP.                   NO:   One line per depth step
~Well Information Block
#MNEM.UNIT     VALUE/NAME     DESCRIPTION
#---------     -----------    ---------------------------
 STRT.S             20:58:23 08-May-21: START TIME 20:58:23 08-May-21
 STOP.S             21:05:15 08-May-21: STOP TIME  21:05:15 08-May-21
 STEP.S                   0.00: STEP TIME
 NULL.                 -999.25: NULL VALUE
 PROV.                    Baku:  PROVINCE
 STAT.                    Baku:  STATE NAME
 SON .        AZ-XX-0906571588:  JOB NUMBER
 WTYP.                Deviated:  WELL TYPE
 COMP.     BP Exploration (Caspian Sea) ltd:  COMPANY
 BASE.              Azerbaijan:  LOGGING EQUIPMENT BASE LOCATION
 REGN.                   EESSA:  REGION
 CTRY.              Azerbaijan:  COUNTRY NAME
 FLD .                     ACG:  FIELD NAME
 WELL.                     J28:  WELL NAME
 RIG .             West Chirag:  RIG NAME
 DMF .             Drill Floor:  DRILL MEAS FROM
 PDAT.       Caspian Sea Level:  PERMANENT DATUM
 HPTY.       Minimum Curvature:  HOLE POS TYPE
 MDS .        Operator Entered:  MAG DATA SOURCE
 NREF.                    Grid:  NORTH REFERENCE
 SRVC.          TURAN DRILLING:  CONTRACTOR
 JOBN.        AZ-XX-0906571588:  JOB TICKET NUMB
 DCON.     Halliburton Sperry Drilling:  DIRECTNL CONTR
 STIM.      00.44.00 11-Feb-21:  START TIME
 DATE.      00.00.00 05-May-21:  END TIME
 SPUD.               13-Feb-21:  SPUD DATE
 MWDS.                    Baku:  MWD SHOP
 DOE .                     N/A:  DOE NUMBER
 UNIT.                     N/A:  LOGGING EQUIPMENT ID
 UWI .                     N/A:  UNIQUE WELL IDENTIFIER
 API .                     N/A:  API NUMBER
 CNTY.                        :  COUNTY
 LOC .                        :  LOCATION
 LMF .             Drill Floor:  LOG MEASURED FROM
 TVDS.m                  43.00:  TVDSS CORRECTN
 SDEP.m                 341.00:  START DEPTH
 EGL .m                   0.00:  GROUND ELEVATION
 WDMS.m                 169.80:  WD ELEV
 AGAP.m                  43.00:  AIR GAP
 EPD .m                   0.00:  ELEVATION
 APD .m                  43.00:  DEPTH ABOVE PD
 LATI.deg                40.13:  LATITUDE
 LONG.deg                51.22:  LONGITUDE
 UTMY.m             4443793.85:  UTM Y
 UTMX.m              519005.06:  UTM X
 WHEW.m                 -11.57:  WELL HEAD E/W
 WHNS.m                   8.57:  WELL HEAD N/S
 VSEW.m                 -11.57:  VERT SEC E/W
 VSNS.m                   8.57:  VERT SEC N/S
 DFWL.m                   0.00:  DISTANCE FWL
 DFSL.m                   0.00:  DISTANCE FSL
 VSDR.deg               299.34:  VERT SEC DIRECT
 GVFD.g                   1.00:  GRAVITY FIELD
 AZTC.deg                 6.36:  AZM TOTAL CORR
 MFLD.nT              50391.00:  MAGNETIC FIELD
 MDIP.deg                59.65:  MAGNETIC DIP
 MDEC.deg                 6.48:  MAGNETIC DECL
 GRDC.deg                 0.12:  GRID CORRECTION
 DEP .m                 334.96:  DEPTH
 TDD .m                1407.26:  TOTAL DEPTH (DRILLER)
 EKB .m                  43.00:  KB ELEVATION
 EDF .m                  43.00:  DF ELEVATION
 TDL .m                 228.00:  TOTAL DEPTH (LOGGER)
 VSC .                       0:  VS TO CLOSURE
 MAGU.                 1854484:  MAGUTM CHECKSUM
~Parameter Information Block
#MNEM.UNIT       Value        Description
#---------     -----------    ---------------------------
 AV  .mps                 4.00:  Ann Velocity 
 AVMX.mps                 4.73:  Max Ann Veloc 
 AZIF.deg               304.48:  Azm, Final 
 BHAT.        Rotary Steerable:  BHA Type 
 BREV.rev            257300.00:  Rev Bit Total 
 BROT.°/30m               0.00:  Build Rotating 
 BS  .in                  8.50:  Bit Size 
 BSZ .in                  8.50:  Bit Size 
 BTPL.psig              589.00:  Bit Press Loss 
 CABU.                      No:  Customer Abuse 
 CGEO.          Mubariz ghayev:  Customer Geo 
 COMM.                     ”<v:  Run Comments 1 
 TCS .hr                 64.25:  Time Ciculation Ended 
 CV  .mps                 3.50:  Crit Velocity 
 CVMX.mps                 4.52:  Max Crit Veloc 
 DD1 .             Aziz Aliyev:  Direct Drillr 1 
 DD2 .         Intigam Rahimov:  Direct Drillr 2 
 DD3 .          Rashad Habibov:  Direct Drillr 3 
 DDSV.               Geo-Pilot:  DD Service 
 DEFF.%                  98.00:  % Det Eff 
 DLRX.°/30m               0.00:  Dogleg Rot Max 
 DLSO.°/30m               0.00:  Dogleg Oriented 
 DLSX.°/30m               0.00:  Dogleg Str Max 
 DRET.      10.45.04 08-May-21:  Drill End Time 
 DRST.      03.30.04 04-May-21:  Drill Start Tim 
 DTIM.hr                 14.97:  Time Drilling 
 EDEP.m                4640.01:  End Depth 
 ENG1.         Dail Mahammadov:  Engineer 1 
 ENG2.           Eldar Hajiyev:  Engineer 2 
 ENG3.       Bakhtiar Jabbarli:  Engineer 3 
 ENG4.       Natik Hasanagayev:  Engineer 4 
 ETIM.      09.30.04 14-May-21:  End Time 
 FLOI.gpm               460.00:  Flow In 
 FLON.gpm               200.00:  Flow In Min 
 FLOS.cptm                0.00:  Fluid Loss 
 FLOX.gpm               505.00:  Flow In Max 
 HFLO.                      No:  High Flow 
 HPRE.                      No:  High Pressure 
 HTEM.                      No:  High Temp 
 HYDO.m                   1.80:  Hydro Offset 
 IFIN.deg                66.71:  Inc, Final 
 IMAX.deg                67.03:  Inc Max 
 IMIN.deg                66.63:  Inc Min 
 IMND.m                4550.58:  Inc Min Depth 
 IMXD.m                4439.01:  Inc Max Depth 
 JARR.                      No:  Jarring 
 LETM.      10.45.04 08-May-21:  Log End Time 
 LOST.hr                     0:  Lost Rig Time 
 LSTM.      03.30.04 04-May-21:  Log Start Time 
 MDCL.ppm             37000.00:  Mud Chlorides 
 MDES.     Inversion Oil/Synthetic:  Mud Desc 
 DFD .sg                  1.38:  Mud Density 
 MDMN.sg                  1.35:  Dens Mud Min 
 MDMX.sg                  1.40:  Dens Mud Max 
 MOIL.                   57.40:  Run Mud Oil % 
 MOWR.                   70:30:  Run Mud OWR 
 MSND.                    0.00:  Run Mud Sand % 
 MSOL.                   18.00:  Run Mud Solids% 
 DFV .spqt               71.00:  Mud Viscosity 
 MWOD.in                  6.75:  MWD Tool OD 
 MWSI.                      No:  Serv Intrp, MWD 
 OTIM.hr                242.76:  Time Operating 
 PCON.           Look Like New:  Pad Condition 
 PMAX.psia            12183.92:  Press Op, Max 
 PV  .cP                 27.00:  Mud PV 
 RUN .                    1300:  Run Number 
 ROPA.m/hr               15.00:  ROP Avg 
 ROPN.m/hr                9.00:  ROP Min 
 ROPX.m/hr               19.00:  ROP Max 
 RPMA.rpm               120.00:  RPM Surface Avg 
 RPMN.rpm               100.00:  RPM Surface Min 
 RPMX.rpm               120.00:  RPM Surface Max 
 RRUN.                    1300:  Rig Run Number 
 RTIM.hr                  5.00:  Time Reaming 
 SAZI.deg               304.73:  Azm, Start 
 SDEP.m                4412.01:  Start Depth 
 SIDD.                      No:  Serv Intrp, DD 
 SINC.deg                66.82:  Inc, Start 
 SPPA.psig             2800.00:  SPP Avg 
 SPPN.psig             2610.00:  SPP Min 
 SPPX.psig             3100.00:  SPP Max 
 STIM.      03.30.00 04-May-21:  Start Time 
 SVCS.                 DD, MWD:  Services 
 SVER.                    9.20:  Sperry Version 
 TDAT.m                 228.00:  Tot Depth Attmp 
 TDDF.                      No:  Trip for DD 
 TDLG.m                 228.00:  Tot Depth Loggd 
 TFF .                      No:  Trip for Fail 
 TQAA.f-kp               15.00:  Torque Abs Avg 
 TQAN.f-kp               12.00:  Torque Abs Min 
 TQAX.f-kp               22.00:  Torque Abs Max 
 TRRT.°/30m               0.00:  Turn Rotating 
 MRT .                    HCIM:  Maximum Recorded Temperature 
 TTMX.degC               90.20:  Max Tool Temp 
 VS01.                90627813:  Virtual Str1 SN 
 VS02.                90634712:  Virtual Str2 SN 
 VS03.                90643410:  Virtual Str3 SN 
 VS04.                90634712:  Virtual Str4 SN 
 WBMN.klb                 9.00:  WOB Min 
 WITN.        Elmaddin Rahimov:  Customer Rep 
 WITN.         Haytham Mostafa:  Customer Rep 2 
 WOBA.klb                15.00:  WOB Avg 
 WOBX.klb                23.00:  WOB Max 
 YP  .lhf2               29.00:  Yield Point 
~Curve Information Block
#MNEM.UNIT                 API CODE     Curve Description
#---------               -----------    ---------------------------
 TIME.HHMMSS            00 000 000 000:  GT Time & Date
 GTDEPTH.m              00 000 000 000:  GT Depth
 GTPQH.psia             00 000 000 000:  GT HR Quartz Pressure
 GTTQ.degC              00 000 000 000:  GT Quartz Temperature
 GTTN.NONE              00 000 000 000:  GT Test Number
 GTET.sec               00 000 000 000:  GT Elapsed Test Time
 GTTVD.m                00 000 000 000:  GT True Vertical Depth
#Other Information
#
#WARRANTY: Halliburton will use its best efforts to furnish customers with 
#accurate information and interpretations that are part of, and incident to, the services 
#provided.  However, Halliburton cannot and does not warrant the accuracy 
#or correctness of such information and interpretations.  Under no circumstances should any 
#such information or interpretation be relied upon as the sole basis for any drilling, 
#completion, production, or financial decision or any procedure involving any risk to the 
#safety of any drilling venture, drilling rig or its crew or any other third party.  The 
#Customer has full responsibility for all drilling, completion and production operation.  
#Halliburton makes no representations or warranties, either expressed or 
#implied, including, but not limited to, the implied warranties of merchantability or fitness 
#for a particular purpose, with respect to the services rendered.  In no event will 
#Halliburton be liable for failure to obtain any particular results or for 
#any damages, including, but not limited to, indirect, special or consequential damages, 
#resulting from the use of any information or interpretation provided by Halliburton.
#
~A           TIME           GTDEPTH  GTPQH  GTTQ  GTTN  GTET   GTTVD  
# ...
   21:04:54.820.08-May-2021 4593.01 6911.94 69.08 2.00 391.04 3008.90
   21:04:55.020.08-May-2021 4593.01 6911.94 69.08 2.00 391.24 3008.90
   21:04:55.220.08-May-2021 4593.01 6902.91 69.08 2.00 391.44 3008.90
   21:04:55.420.08-May-2021 4593.01 6916.11 69.08 2.00 391.64 3008.90
   21:04:55.620.08-May-2021 4593.01 6906.10 69.08 2.00 391.84 3008.90
   21:04:55.820.08-May-2021 4593.01 6903.52 69.08 2.00 392.04 3008.90
   21:04:56.020.08-May-2021 4593.01 6903.52 69.08 2.00 392.24 3008.90
   21:04:56.220.08-May-2021 4593.01 6902.10 69.08 2.00 392.44 3008.90
   21:04:56.420.08-May-2021 4593.01 6902.92 69.08 2.00 392.64 3008.90
   21:04:56.620.08-May-2021 4593.01 6902.58 69.08 2.00 392.84 3008.90
   21:04:56.820.08-May-2021 4593.01 6902.56 69.08 2.00 393.04 3008.90
   21:04:57.020.08-May-2021 4593.01 6902.56 69.08 2.00 393.24 3008.90
   21:04:57.220.08-May-2021 4593.01 6903.21 69.08 2.00 393.44 3008.90
   21:04:57.420.08-May-2021 4593.01 6903.57 69.08 2.00 393.64 3008.90
   21:04:57.620.08-May-2021 4593.01 6904.12 69.08 2.00 393.84 3008.90
   21:04:57.820.08-May-2021 4593.01 6904.74 69.08 2.00 394.04 3008.90
   21:04:58.020.08-May-2021 4593.01 6904.74 69.08 2.00 394.24 3008.90
   21:04:58.220.08-May-2021 4593.01 6906.26 69.08 2.00 394.44 3008.90
   21:04:58.420.08-May-2021 4593.01 6905.33 69.08 2.00 394.64 3008.90
   21:04:58.620.08-May-2021 4593.01 6906.72 69.08 2.00 394.84 3008.90
   21:04:58.821.08-May-2021 4593.01 6903.56 69.08 2.00 395.04 3008.90
   21:04:59.021.08-May-2021 4593.01 6903.56 69.08 2.00 395.24 3008.90
   21:04:59.221.08-May-2021 4593.01 6901.84 69.08 2.00 395.44 3008.90
   21:04:59.421.08-May-2021 4593.01 6901.36 69.08 2.00 395.64 3008.90
   21:04:59.621.08-May-2021 4593.01 6900.87 69.08 2.00 395.84 3008.90
   21:04:59.821.08-May-2021 4593.01 6901.08 69.08 2.00 396.04 3008.90
   21:05:00.021.08-May-2021 4593.01 6901.08 69.08 2.00 396.24 3008.90
   21:05:00.221.08-May-2021 4593.01 6901.97 69.08 2.00 396.44 3008.90
   21:05:00.421.08-May-2021 4593.01 6903.24 69.08 2.00 396.64 3008.90
   21:05:00.621.08-May-2021 4593.01 6909.88 69.08 2.00 396.84 3008.90
   21:05:00.821.08-May-2021 4593.01 6909.85 69.08 2.00 397.04 3008.90
   21:05:01.021.08-May-2021 4593.01 6909.85 69.08 2.00 397.24 3008.90
   21:05:01.221.08-May-2021 4593.01 6904.25 69.08 2.00 397.44 3008.90
   21:05:01.421.08-May-2021 4593.01 6905.18 69.08 2.00 397.64 3008.90
   21:05:01.621.08-May-2021 4593.01 6903.27 69.08 2.00 397.84 3008.90
   21:05:01.821.08-May-2021 4593.01 6912.52 69.08 2.00 398.04 3008.90
   21:05:02.021.08-May-2021 4593.01 6912.52 69.08 2.00 398.24 3008.90
   21:05:02.221.08-May-2021 4593.01 6902.98 69.08 2.00 398.44 3008.90
   21:05:02.421.08-May-2021 4593.01 6903.44 69.08 2.00 398.64 3008.90
   21:05:02.621.08-May-2021 4593.01 6901.86 69.08 2.00 398.84 3008.90
   21:05:02.821.08-May-2021 4593.01 6901.89 69.08 2.00 399.04 3008.90
   21:05:03.021.08-May-2021 4593.01 6901.89 69.08 2.00 399.24 3008.90
   21:05:03.221.08-May-2021 4593.01 6905.83 69.08 2.00 399.44 3008.90
   21:05:03.421.08-May-2021 4593.01 6902.90 69.08 2.00 399.64 3008.90
   21:05:03.621.08-May-2021 4593.01 6904.31 69.08 2.00 399.84 3008.90
   21:05:03.821.08-May-2021 4593.01 6905.78 69.08 2.00 400.04 3008.90
   21:05:04.021.08-May-2021 4593.01 6905.78 69.08 2.00 400.24 3008.90
   21:05:04.221.08-May-2021 4593.01 6905.21 69.08 2.00 400.44 3008.90
   21:05:04.421.08-May-2021 4593.01 6903.07 69.08 2.00 400.64 3008.90
   21:05:04.621.08-May-2021 4593.01 6904.00 69.08 2.00 400.84 3008.90
   21:05:04.821.08-May-2021 4593.01 6901.40 69.08 2.00 401.04 3008.90
   21:05:05.021.08-May-2021 4593.01 6901.40 69.08 2.00 401.24 3008.90
   21:05:05.221.08-May-2021 4593.01 6902.00 69.08 2.00 401.44 3008.90
   21:05:05.421.08-May-2021 4593.01 6902.02 69.08 2.00 401.64 3008.90
   21:05:05.621.08-May-2021 4593.01 6902.30 69.08 2.00 401.84 3008.90
   21:05:05.821.08-May-2021 4593.01 6902.70 69.08 2.00 402.04 3008.90
   21:05:06.021.08-May-2021 4593.01 6902.70 69.08 2.00 402.24 3008.90
   21:05:06.221.08-May-2021 4593.01 6902.87 69.08 2.00 402.44 3008.90
   21:05:06.421.08-May-2021 4593.01 6901.08 69.08 2.00 402.64 3008.90
   21:05:06.621.08-May-2021 4593.01 6915.24 69.08 2.00 402.84 3008.90
   21:05:06.821.08-May-2021 4593.01 6906.71 69.08 2.00 403.04 3008.90
   21:05:07.021.08-May-2021 4593.01 6906.71 69.08 2.00 403.24 3008.90
   21:05:07.221.08-May-2021 4593.01 6905.14 69.08 2.00 403.44 3008.90
   21:05:07.421.08-May-2021 4593.01 6901.87 69.08 2.00 403.64 3008.90
   21:05:07.621.08-May-2021 4593.01 6902.02 69.08 2.00 403.84 3008.90
   21:05:07.821.08-May-2021 4593.01 6901.84 69.08 2.00 404.04 3008.90
   21:05:08.021.08-May-2021 4593.01 6901.84 69.08 2.00 404.24 3008.90
   21:05:08.221.08-May-2021 4593.01 6901.67 69.08 2.00 404.44 3008.90
   21:05:08.422.08-May-2021 4593.01 6901.98 69.08 2.00 404.64 3008.90
   21:05:08.622.08-May-2021 4593.01 6903.14 69.08 2.00 404.84 3008.90
   21:05:08.822.08-May-2021 4593.01 6903.65 69.08 2.00 405.04 3008.90
   21:05:09.022.08-May-2021 4593.01 6903.65 69.08 2.00 405.24 3008.90
   21:05:09.222.08-May-2021 4593.01 6915.34 69.08 2.00 405.44 3008.90
   21:05:09.422.08-May-2021 4593.01 6906.51 69.08 2.00 405.64 3008.90
   21:05:09.622.08-May-2021 4593.01 6904.44 69.08 2.00 405.84 3008.90
   21:05:09.822.08-May-2021 4593.01 6907.25 69.08 2.00 406.04 3008.90
   21:05:10.022.08-May-2021 4593.01 6907.25 69.08 2.00 406.24 3008.90
   21:05:10.222.08-May-2021 4593.01 6907.30 69.08 2.00 406.44 3008.90
   21:05:10.422.08-May-2021 4593.01 6909.38 69.08 2.00 406.64 3008.90
   21:05:10.622.08-May-2021 4593.01 6905.11 69.08 2.00 406.84 3008.90
   21:05:10.822.08-May-2021 4593.01 6903.18 69.08 2.00 407.04 3008.90
   21:05:11.022.08-May-2021 4593.01 6903.18 69.08 2.00 407.24 3008.90
   21:05:11.222.08-May-2021 4593.01 6900.90 69.08 2.00 407.44 3008.90
   21:05:11.422.08-May-2021 4593.01 6906.44 69.08 2.00 407.64 3008.90
   21:05:11.622.08-May-2021 4593.01 6909.90 69.08 2.00 407.84 3008.90
   21:05:11.822.08-May-2021 4593.01 6906.00 69.08 2.00 408.04 3008.90
   21:05:12.022.08-May-2021 4593.01 6906.00 69.08 2.00 408.24 3008.90
   21:05:12.222.08-May-2021 4593.01 6913.51 69.08 2.00 408.44 3008.90
   21:05:12.422.08-May-2021 4593.01 6907.43 69.07 2.00 408.64 3008.90
   21:05:12.622.08-May-2021 4593.01 6904.75 69.07 2.00 408.84 3008.90
   21:05:12.822.08-May-2021 4593.01 6904.65 69.07 2.00 409.04 3008.90
   21:05:13.022.08-May-2021 4593.01 6904.65 69.07 2.00 409.24 3008.90
   21:05:13.222.08-May-2021 4593.01 6902.53 69.07 2.00 409.44 3008.90
   21:05:13.422.08-May-2021 4593.01 6901.55 69.07 2.00 409.64 3008.90
   21:05:13.622.08-May-2021 4593.01 6901.43 69.07 2.00 409.84 3008.90
   21:05:13.822.08-May-2021 4593.01 6901.69 69.07 2.00 410.04 3008.90
   21:05:14.022.08-May-2021 4593.01 6901.69 69.07 2.00 410.24 3008.90
   21:05:14.222.08-May-2021 4593.01 6902.24 69.07 2.00 410.44 3008.90
   21:05:14.422.08-May-2021 4593.01 6903.45 69.07 2.00 410.64 3008.90
   21:05:14.622.08-May-2021 4593.01 6903.67 69.07 2.00 410.84 3008.90
   21:05:14.822.08-May-2021 4593.01 6909.18 69.07 2.00 411.04 3008.90
   21:05:15.022.08-May-2021 4593.01 6909.18 69.07 2.00 411.24 3008.90
   21:05:15.222.08-May-2021 4593.01 6906.96 69.07 2.00 411.44 3008.90
   21:05:15.422.08-May-2021 4593.01 6903.62 69.07 2.00 411.64 3008.90
   21:05:15.622.08-May-2021 4593.01 6904.49 69.07 2.00 411.84 3008.90
