~Version Information
 VERS.                  2.0:   CWLS log ASCII Standard -VERSION 2.0
 WRAP.                   NO:   One line per depth step
~Well Information Block
#MNEM.UNIT     VALUE/NAME     DESCRIPTION
#---------     -----------    ---------------------------
 STRT.S             03:18:48 09-May-21: START TIME 03:18:48 09-May-21
 STOP.S             03:25:48 09-May-21: STOP TIME  03:25:48 09-May-21
 STEP.S                   0.00: STEP TIME
 NULL.                 -999.25: NULL VALUE
 PROV.                    Baku:  PROVINCE
 STAT.                    Baku:  STATE NAME
 SON .        AZ-XX-0906571588:  JOB NUMBER
 WTYP.                Deviated:  WELL TYPE
 COMP.     BP Exploration (Caspian Sea) ltd:  COMPANY
 BASE.              Azerbaijan:  LOGGING EQUIPMENT BASE LOCATION
 REGN.                   EESSA:  REGION
 CTRY.              Azerbaijan:  COUNTRY NAME
 FLD .                     ACG:  FIELD NAME
 WELL.                     J28:  WELL NAME
 RIG .             West Chirag:  RIG NAME
 DMF .             Drill Floor:  DRILL MEAS FROM
 PDAT.       Caspian Sea Level:  PERMANENT DATUM
 HPTY.       Minimum Curvature:  HOLE POS TYPE
 MDS .        Operator Entered:  MAG DATA SOURCE
 NREF.                    Grid:  NORTH REFERENCE
 SRVC.          TURAN DRILLING:  CONTRACTOR
 JOBN.        AZ-XX-0906571588:  JOB TICKET NUMB
 DCON.     Halliburton Sperry Drilling:  DIRECTNL CONTR
 STIM.      00.44.00 11-Feb-21:  START TIME
 DATE.      00.00.00 05-May-21:  END TIME
 SPUD.               13-Feb-21:  SPUD DATE
 MWDS.                    Baku:  MWD SHOP
 DOE .                     N/A:  DOE NUMBER
 UNIT.                     N/A:  LOGGING EQUIPMENT ID
 UWI .                     N/A:  UNIQUE WELL IDENTIFIER
 API .                     N/A:  API NUMBER
 CNTY.                        :  COUNTY
 LOC .                        :  LOCATION
 LMF .             Drill Floor:  LOG MEASURED FROM
 TVDS.m                  43.00:  TVDSS CORRECTN
 SDEP.m                 341.00:  START DEPTH
 EGL .m                   0.00:  GROUND ELEVATION
 WDMS.m                 169.80:  WD ELEV
 AGAP.m                  43.00:  AIR GAP
 EPD .m                   0.00:  ELEVATION
 APD .m                  43.00:  DEPTH ABOVE PD
 LATI.deg                40.13:  LATITUDE
 LONG.deg                51.22:  LONGITUDE
 UTMY.m             4443793.85:  UTM Y
 UTMX.m              519005.06:  UTM X
 WHEW.m                 -11.57:  WELL HEAD E/W
 WHNS.m                   8.57:  WELL HEAD N/S
 VSEW.m                 -11.57:  VERT SEC E/W
 VSNS.m                   8.57:  VERT SEC N/S
 DFWL.m                   0.00:  DISTANCE FWL
 DFSL.m                   0.00:  DISTANCE FSL
 VSDR.deg               299.34:  VERT SEC DIRECT
 GVFD.g                   1.00:  GRAVITY FIELD
 AZTC.deg                 6.36:  AZM TOTAL CORR
 MFLD.nT              50391.00:  MAGNETIC FIELD
 MDIP.deg                59.65:  MAGNETIC DIP
 MDEC.deg                 6.48:  MAGNETIC DECL
 GRDC.deg                 0.12:  GRID CORRECTION
 DEP .m                 334.96:  DEPTH
 TDD .m                1407.26:  TOTAL DEPTH (DRILLER)
 EKB .m                  43.00:  KB ELEVATION
 EDF .m                  43.00:  DF ELEVATION
 TDL .m                 228.00:  TOTAL DEPTH (LOGGER)
 VSC .                       0:  VS TO CLOSURE
 MAGU.                 1854484:  MAGUTM CHECKSUM
~Parameter Information Block
#MNEM.UNIT       Value        Description
#---------     -----------    ---------------------------
 AV  .mps                 4.00:  Ann Velocity 
 AVMX.mps                 4.73:  Max Ann Veloc 
 AZIF.deg               304.48:  Azm, Final 
 BHAT.        Rotary Steerable:  BHA Type 
 BREV.rev            257300.00:  Rev Bit Total 
 BROT.°/30m               0.00:  Build Rotating 
 BS  .in                  8.50:  Bit Size 
 BSZ .in                  8.50:  Bit Size 
 BTPL.psig              589.00:  Bit Press Loss 
 CABU.                      No:  Customer Abuse 
 CGEO.          Mubariz ghayev:  Customer Geo 
 COMM.                     ü>:  Run Comments 1 
 TCS .hr                 64.25:  Time Ciculation Ended 
 CV  .mps                 3.50:  Crit Velocity 
 CVMX.mps                 4.52:  Max Crit Veloc 
 DD1 .             Aziz Aliyev:  Direct Drillr 1 
 DD2 .         Intigam Rahimov:  Direct Drillr 2 
 DD3 .          Rashad Habibov:  Direct Drillr 3 
 DDSV.               Geo-Pilot:  DD Service 
 DEFF.%                  98.00:  % Det Eff 
 DLRX.°/30m               0.00:  Dogleg Rot Max 
 DLSO.°/30m               0.00:  Dogleg Oriented 
 DLSX.°/30m               0.00:  Dogleg Str Max 
 DRET.      10.45.04 08-May-21:  Drill End Time 
 DRST.      03.30.04 04-May-21:  Drill Start Tim 
 DTIM.hr                 14.97:  Time Drilling 
 EDEP.m                4640.01:  End Depth 
 ENG1.         Dail Mahammadov:  Engineer 1 
 ENG2.           Eldar Hajiyev:  Engineer 2 
 ENG3.       Bakhtiar Jabbarli:  Engineer 3 
 ENG4.       Natik Hasanagayev:  Engineer 4 
 ETIM.      09.30.04 14-May-21:  End Time 
 FLOI.gpm               460.00:  Flow In 
 FLON.gpm               200.00:  Flow In Min 
 FLOS.cptm                0.00:  Fluid Loss 
 FLOX.gpm               505.00:  Flow In Max 
 HFLO.                      No:  High Flow 
 HPRE.                      No:  High Pressure 
 HTEM.                      No:  High Temp 
 HYDO.m                   1.80:  Hydro Offset 
 IFIN.deg                66.71:  Inc, Final 
 IMAX.deg                67.03:  Inc Max 
 IMIN.deg                66.63:  Inc Min 
 IMND.m                4550.58:  Inc Min Depth 
 IMXD.m                4439.01:  Inc Max Depth 
 JARR.                      No:  Jarring 
 LETM.      10.45.04 08-May-21:  Log End Time 
 LOST.hr                     0:  Lost Rig Time 
 LSTM.      03.30.04 04-May-21:  Log Start Time 
 MDCL.ppm             37000.00:  Mud Chlorides 
 MDES.     Inversion Oil/Synthetic:  Mud Desc 
 DFD .sg                  1.38:  Mud Density 
 MDMN.sg                  1.35:  Dens Mud Min 
 MDMX.sg                  1.40:  Dens Mud Max 
 MOIL.                   57.40:  Run Mud Oil % 
 MOWR.                   70:30:  Run Mud OWR 
 MSND.                    0.00:  Run Mud Sand % 
 MSOL.                   18.00:  Run Mud Solids% 
 DFV .spqt               71.00:  Mud Viscosity 
 MWOD.in                  6.75:  MWD Tool OD 
 MWSI.                      No:  Serv Intrp, MWD 
 OTIM.hr                242.76:  Time Operating 
 PCON.           Look Like New:  Pad Condition 
 PMAX.psia            12183.92:  Press Op, Max 
 PV  .cP                 27.00:  Mud PV 
 RUN .                    1300:  Run Number 
 ROPA.m/hr               15.00:  ROP Avg 
 ROPN.m/hr                9.00:  ROP Min 
 ROPX.m/hr               19.00:  ROP Max 
 RPMA.rpm               120.00:  RPM Surface Avg 
 RPMN.rpm               100.00:  RPM Surface Min 
 RPMX.rpm               120.00:  RPM Surface Max 
 RRUN.                    1300:  Rig Run Number 
 RTIM.hr                  5.00:  Time Reaming 
 SAZI.deg               304.73:  Azm, Start 
 SDEP.m                4412.01:  Start Depth 
 SIDD.                      No:  Serv Intrp, DD 
 SINC.deg                66.82:  Inc, Start 
 SPPA.psig             2800.00:  SPP Avg 
 SPPN.psig             2610.00:  SPP Min 
 SPPX.psig             3100.00:  SPP Max 
 STIM.      03.30.00 04-May-21:  Start Time 
 SVCS.                 DD, MWD:  Services 
 SVER.                    9.20:  Sperry Version 
 TDAT.m                 228.00:  Tot Depth Attmp 
 TDDF.                      No:  Trip for DD 
 TDLG.m                 228.00:  Tot Depth Loggd 
 TFF .                      No:  Trip for Fail 
 TQAA.f-kp               15.00:  Torque Abs Avg 
 TQAN.f-kp               12.00:  Torque Abs Min 
 TQAX.f-kp               22.00:  Torque Abs Max 
 TRRT.°/30m               0.00:  Turn Rotating 
 MRT .                    HCIM:  Maximum Recorded Temperature 
 TTMX.degC               90.20:  Max Tool Temp 
 VS01.                90627813:  Virtual Str1 SN 
 VS02.                90634712:  Virtual Str2 SN 
 VS03.                90643410:  Virtual Str3 SN 
 VS04.                90634712:  Virtual Str4 SN 
 WBMN.klb                 9.00:  WOB Min 
 WITN.        Elmaddin Rahimov:  Customer Rep 
 WITN.         Haytham Mostafa:  Customer Rep 2 
 WOBA.klb                15.00:  WOB Avg 
 WOBX.klb                23.00:  WOB Max 
 YP  .lhf2               29.00:  Yield Point 
~Curve Information Block
#MNEM.UNIT                 API CODE     Curve Description
#---------               -----------    ---------------------------
 TIME.HHMMSS            00 000 000 000:  GT Time & Date
 GTDEPTH.m              00 000 000 000:  GT Depth
 GTPQH.psia             00 000 000 000:  GT HR Quartz Pressure
 GTTQ.degC              00 000 000 000:  GT Quartz Temperature
 GTTN.NONE              00 000 000 000:  GT Test Number
 GTET.sec               00 000 000 000:  GT Elapsed Test Time
 GTTVD.m                00 000 000 000:  GT True Vertical Depth
#Other Information
#
#WARRANTY: Halliburton will use its best efforts to furnish customers with 
#accurate information and interpretations that are part of, and incident to, the services 
#provided.  However, Halliburton cannot and does not warrant the accuracy 
#or correctness of such information and interpretations.  Under no circumstances should any 
#such information or interpretation be relied upon as the sole basis for any drilling, 
#completion, production, or financial decision or any procedure involving any risk to the 
#safety of any drilling venture, drilling rig or its crew or any other third party.  The 
#Customer has full responsibility for all drilling, completion and production operation.  
#Halliburton makes no representations or warranties, either expressed or 
#implied, including, but not limited to, the implied warranties of merchantability or fitness 
#for a particular purpose, with respect to the services rendered.  In no event will 
#Halliburton be liable for failure to obtain any particular results or for 
#any damages, including, but not limited to, indirect, special or consequential damages, 
#resulting from the use of any information or interpretation provided by Halliburton.
#
~A           TIME           GTDEPTH  GTPQH  GTTQ  GTTN   GTET   GTTVD  
# ...
   03:22:57.343.09-May-2021 4480.01 4113.08 67.54 12.00 248.64 2964.27
   03:22:57.543.09-May-2021 4480.01 4113.06 67.54 12.00 248.84 2964.27
   03:22:57.743.09-May-2021 4480.01 4113.07 67.54 12.00 249.04 2964.27
   03:22:57.943.09-May-2021 4480.01 4113.07 67.54 12.00 249.24 2964.27
   03:22:58.143.09-May-2021 4480.01 4113.06 67.54 12.00 249.44 2964.27
   03:22:58.343.09-May-2021 4480.01 4113.07 67.54 12.00 249.64 2964.27
   03:22:58.543.09-May-2021 4480.01 4113.06 67.54 12.00 249.84 2964.27
   03:22:58.743.09-May-2021 4480.01 4113.09 67.54 12.00 250.04 2964.27
   03:22:58.943.09-May-2021 4480.01 4113.09 67.54 12.00 250.24 2964.27
   03:22:59.143.09-May-2021 4480.01 4113.02 67.54 12.00 250.44 2964.27
   03:22:59.343.09-May-2021 4480.01 4113.11 67.54 12.00 250.64 2964.27
   03:22:59.543.09-May-2021 4480.01 4113.13 67.54 12.00 250.84 2964.27
   03:22:59.743.09-May-2021 4480.01 4113.00 67.54 12.00 251.04 2964.27
   03:22:59.943.09-May-2021 4480.01 4113.00 67.54 12.00 251.24 2964.27
   03:23:00.143.09-May-2021 4480.01 4113.10 67.54 12.00 251.44 2964.27
   03:23:00.343.09-May-2021 4480.01 4113.10 67.54 12.00 251.64 2964.27
   03:23:00.543.09-May-2021 4480.01 4113.02 67.54 12.00 251.84 2964.27
   03:23:00.743.09-May-2021 4480.01 4112.99 67.54 12.00 252.04 2964.27
   03:23:00.943.09-May-2021 4480.01 4112.99 67.54 12.00 252.24 2964.27
   03:23:01.143.09-May-2021 4480.01 4113.02 67.54 12.00 252.44 2964.27
   03:23:01.343.09-May-2021 4480.01 4113.07 67.54 12.00 252.64 2964.27
   03:23:01.543.09-May-2021 4480.01 4113.03 67.54 12.00 252.84 2964.27
   03:23:01.743.09-May-2021 4480.01 4113.06 67.54 12.00 253.04 2964.27
   03:23:01.943.09-May-2021 4480.01 4113.06 67.54 12.00 253.24 2964.27
   03:23:02.143.09-May-2021 4480.01 4113.06 67.54 12.00 253.44 2964.27
   03:23:02.343.09-May-2021 4480.01 4113.07 67.54 12.00 253.64 2964.27
   03:23:02.544.09-May-2021 4480.01 4113.06 67.54 12.00 253.84 2964.27
   03:23:02.744.09-May-2021 4480.01 4113.07 67.54 12.00 254.04 2964.27
   03:23:02.944.09-May-2021 4480.01 4113.07 67.54 12.00 254.24 2964.27
   03:23:03.144.09-May-2021 4480.01 4113.07 67.54 12.00 254.44 2964.27
   03:23:03.344.09-May-2021 4480.01 4113.06 67.54 12.00 254.64 2964.27
   03:23:03.544.09-May-2021 4480.01 4113.14 67.54 12.00 254.84 2964.27
   03:23:03.744.09-May-2021 4480.01 4113.12 67.54 12.00 255.04 2964.27
   03:23:03.944.09-May-2021 4480.01 4113.12 67.54 12.00 255.24 2964.27
   03:23:04.144.09-May-2021 4480.01 4113.07 67.54 12.00 255.44 2964.27
   03:23:04.344.09-May-2021 4480.01 4113.05 67.54 12.00 255.64 2964.27
   03:23:04.544.09-May-2021 4480.01 4112.72 67.54 12.00 255.84 2964.27
   03:23:04.744.09-May-2021 4480.01 3919.68 67.54 12.00 256.04 2964.27
   03:23:04.944.09-May-2021 4480.01 3919.68 67.54 12.00 256.24 2964.27
   03:23:05.144.09-May-2021 4480.01 3451.22 67.54 12.00 256.44 2964.27
   03:23:05.344.09-May-2021 4480.01 3340.43 67.54 12.00 256.64 2964.27
   03:23:05.544.09-May-2021 4480.01 3246.23 67.54 12.00 256.84 2964.27
   03:23:05.744.09-May-2021 4480.01 3148.43 67.54 12.00 257.04 2964.27
   03:23:05.944.09-May-2021 4480.01 3148.43 67.54 12.00 257.24 2964.27
   03:23:06.144.09-May-2021 4480.01 2904.77 67.54 12.00 257.44 2964.27
   03:23:06.344.09-May-2021 4480.01 2813.93 67.54 12.00 257.64 2964.27
   03:23:06.544.09-May-2021 4480.01 2757.45 67.54 12.00 257.84 2964.27
   03:23:06.744.09-May-2021 4480.01 2714.01 67.54 12.00 258.04 2964.27
   03:23:06.944.09-May-2021 4480.01 2714.01 67.54 12.00 258.24 2964.27
   03:23:07.144.09-May-2021 4480.01 2654.31 67.54 12.00 258.44 2964.27
   03:23:07.344.09-May-2021 4480.01 2628.60 67.54 12.00 258.64 2964.27
   03:23:07.544.09-May-2021 4480.01 2622.88 67.53 12.00 258.84 2964.27
   03:23:07.744.09-May-2021 4480.01 2593.02 67.53 12.00 259.04 2964.27
   03:23:07.944.09-May-2021 4480.01 2593.02 67.53 12.00 259.24 2964.27
   03:23:08.144.09-May-2021 4480.01 2538.87 67.53 12.00 259.44 2964.27
   03:23:08.344.09-May-2021 4480.01 2512.65 67.53 12.00 259.64 2964.27
   03:23:08.545.09-May-2021 4480.01 2488.85 67.53 12.00 259.84 2964.27
   03:23:08.745.09-May-2021 4480.01 2454.02 67.53 12.00 260.04 2964.27
   03:23:08.945.09-May-2021 4480.01 2454.02 67.53 12.00 260.24 2964.27
   03:23:09.145.09-May-2021 4480.01 2397.44 67.53 12.00 260.44 2964.27
   03:23:09.345.09-May-2021 4480.01 2377.38 67.53 12.00 260.64 2964.27
   03:23:09.545.09-May-2021 4480.01 2362.50 67.52 12.00 260.84 2964.27
   03:23:09.745.09-May-2021 4480.01 2347.32 67.52 12.00 261.04 2964.27
   03:23:09.945.09-May-2021 4480.01 2347.32 67.52 12.00 261.24 2964.27
   03:23:10.145.09-May-2021 4480.01 2325.14 67.52 12.00 261.44 2964.27
   03:23:10.345.09-May-2021 4480.01 2318.03 67.52 12.00 261.64 2964.27
   03:23:10.545.09-May-2021 4480.01 2311.44 67.52 12.00 261.84 2964.27
   03:23:10.745.09-May-2021 4480.01 2297.12 67.52 12.00 262.04 2964.27
   03:23:10.945.09-May-2021 4480.01 2297.12 67.52 12.00 262.24 2964.27
   03:23:11.145.09-May-2021 4480.01 2244.59 67.52 12.00 262.44 2964.27
   03:23:11.345.09-May-2021 4480.01 2219.47 67.52 12.00 262.64 2964.27
   03:23:11.545.09-May-2021 4480.01 2205.10 67.51 12.00 262.84 2964.27
   03:23:11.745.09-May-2021 4480.01 2191.69 67.51 12.00 263.04 2964.27
   03:23:11.945.09-May-2021 4480.01 2191.69 67.51 12.00 263.24 2964.27
   03:23:12.145.09-May-2021 4480.01 2170.60 67.51 12.00 263.44 2964.27
   03:23:12.345.09-May-2021 4480.01 2162.40 67.51 12.00 263.64 2964.27
   03:23:12.545.09-May-2021 4480.01 2154.03 67.51 12.00 263.84 2964.27
   03:23:12.745.09-May-2021 4480.01 2149.68 67.51 12.00 264.04 2964.27
   03:23:12.945.09-May-2021 4480.01 2149.68 67.51 12.00 264.24 2964.27
   03:23:13.145.09-May-2021 4480.01 2039.07 67.51 12.00 264.44 2964.27
   03:23:13.345.09-May-2021 4480.01 1995.39 67.51 12.00 264.64 2964.27
   03:23:13.545.09-May-2021 4480.01 1951.67 67.51 12.00 264.84 2964.27
   03:23:13.745.09-May-2021 4480.01 1916.89 67.51 12.00 265.04 2964.27
   03:23:13.945.09-May-2021 4480.01 1916.89 67.51 12.00 265.24 2964.27
   03:23:14.145.09-May-2021 4480.01 1813.70 67.50 12.00 265.44 2964.27
   03:23:14.346.09-May-2021 4480.01 1766.95 67.50 12.00 265.64 2964.27
   03:23:14.546.09-May-2021 4480.01 1727.07 67.50 12.00 265.84 2964.27
   03:23:14.746.09-May-2021 4480.01 1720.03 67.50 12.00 266.04 2964.27
   03:23:14.946.09-May-2021 4480.01 1720.03 67.50 12.00 266.24 2964.27
   03:23:15.146.09-May-2021 4480.01 2326.80 67.50 12.00 266.44 2964.27
   03:23:15.346.09-May-2021 4480.01 2628.17 67.50 12.00 266.64 2964.27
   03:23:15.546.09-May-2021 4480.01 2880.11 67.50 12.00 266.84 2964.27
   03:23:15.746.09-May-2021 4480.01 3087.16 67.50 12.00 267.04 2964.27
   03:23:15.946.09-May-2021 4480.01 3087.16 67.50 12.00 267.24 2964.27
   03:23:16.146.09-May-2021 4480.01 3401.61 67.50 12.00 267.44 2964.27
   03:23:16.346.09-May-2021 4480.01 3520.68 67.50 12.00 267.64 2964.27
   03:23:16.546.09-May-2021 4480.01 3621.20 67.50 12.00 267.84 2964.27
   03:23:16.746.09-May-2021 4480.01 3705.34 67.50 12.00 268.04 2964.27
   03:23:16.946.09-May-2021 4480.01 3705.34 67.50 12.00 268.24 2964.27
   03:23:17.146.09-May-2021 4480.01 3833.52 67.50 12.00 268.44 2964.27
   03:23:17.346.09-May-2021 4480.01 3881.90 67.50 12.00 268.64 2964.27
   03:23:17.546.09-May-2021 4480.01 3922.10 67.50 12.00 268.84 2964.27
   03:23:17.746.09-May-2021 4480.01 3955.58 67.50 12.00 269.04 2964.27
   03:23:17.946.09-May-2021 4480.01 3955.58 67.50 12.00 269.25 2964.27
   03:23:18.146.09-May-2021 4480.01 4006.79 67.50 12.00 269.45 2964.27
   03:23:18.346.09-May-2021 4480.01 4026.32 67.50 12.00 269.65 2964.27
   03:23:18.546.09-May-2021 4480.01 4042.63 67.50 12.00 269.85 2964.27
   03:23:18.746.09-May-2021 4480.01 4055.22 67.50 12.00 270.05 2964.27
   03:23:18.946.09-May-2021 4480.01 4055.22 67.50 12.00 270.25 2964.27
   03:23:19.146.09-May-2021 4480.01 4074.78 67.51 12.00 270.45 2964.27
   03:23:19.346.09-May-2021 4480.01 4081.85 67.51 12.00 270.65 2964.27
   03:23:19.546.09-May-2021 4480.01 4087.59 67.51 12.00 270.85 2964.27
   03:23:19.746.09-May-2021 4480.01 4092.15 67.51 12.00 271.05 2964.27
