~Version Information
 VERS.                  2.0:   CWLS log ASCII Standard -VERSION 2.0
 WRAP.                   NO:   One line per depth step
~Well Information Block
#MNEM.UNIT     VALUE/NAME     DESCRIPTION
#---------     -----------    ---------------------------
 STRT.S             00:12:22 09-May-21: START TIME 00:12:22 09-May-21
 STOP.S             00:19:08 09-May-21: STOP TIME  00:19:08 09-May-21
 STEP.S                   0.00: STEP TIME
 NULL.                 -999.25: NULL VALUE
 PROV.                    Baku:  PROVINCE
 STAT.                    Baku:  STATE NAME
 SON .        AZ-XX-0906571588:  JOB NUMBER
 WTYP.                Deviated:  WELL TYPE
 COMP.     BP Exploration (Caspian Sea) ltd:  COMPANY
 BASE.              Azerbaijan:  LOGGING EQUIPMENT BASE LOCATION
 REGN.                   EESSA:  REGION
 CTRY.              Azerbaijan:  COUNTRY NAME
 FLD .                     ACG:  FIELD NAME
 WELL.                     J28:  WELL NAME
 RIG .             West Chirag:  RIG NAME
 DMF .             Drill Floor:  DRILL MEAS FROM
 PDAT.       Caspian Sea Level:  PERMANENT DATUM
 HPTY.       Minimum Curvature:  HOLE POS TYPE
 MDS .        Operator Entered:  MAG DATA SOURCE
 NREF.                    Grid:  NORTH REFERENCE
 SRVC.          TURAN DRILLING:  CONTRACTOR
 JOBN.        AZ-XX-0906571588:  JOB TICKET NUMB
 DCON.     Halliburton Sperry Drilling:  DIRECTNL CONTR
 STIM.      00.44.00 11-Feb-21:  START TIME
 DATE.      00.00.00 05-May-21:  END TIME
 SPUD.               13-Feb-21:  SPUD DATE
 MWDS.                    Baku:  MWD SHOP
 DOE .                     N/A:  DOE NUMBER
 UNIT.                     N/A:  LOGGING EQUIPMENT ID
 UWI .                     N/A:  UNIQUE WELL IDENTIFIER
 API .                     N/A:  API NUMBER
 CNTY.                        :  COUNTY
 LOC .                        :  LOCATION
 LMF .             Drill Floor:  LOG MEASURED FROM
 TVDS.m                  43.00:  TVDSS CORRECTN
 SDEP.m                 341.00:  START DEPTH
 EGL .m                   0.00:  GROUND ELEVATION
 WDMS.m                 169.80:  WD ELEV
 AGAP.m                  43.00:  AIR GAP
 EPD .m                   0.00:  ELEVATION
 APD .m                  43.00:  DEPTH ABOVE PD
 LATI.deg                40.13:  LATITUDE
 LONG.deg                51.22:  LONGITUDE
 UTMY.m             4443793.85:  UTM Y
 UTMX.m              519005.06:  UTM X
 WHEW.m                 -11.57:  WELL HEAD E/W
 WHNS.m                   8.57:  WELL HEAD N/S
 VSEW.m                 -11.57:  VERT SEC E/W
 VSNS.m                   8.57:  VERT SEC N/S
 DFWL.m                   0.00:  DISTANCE FWL
 DFSL.m                   0.00:  DISTANCE FSL
 VSDR.deg               299.34:  VERT SEC DIRECT
 GVFD.g                   1.00:  GRAVITY FIELD
 AZTC.deg                 6.36:  AZM TOTAL CORR
 MFLD.nT              50391.00:  MAGNETIC FIELD
 MDIP.deg                59.65:  MAGNETIC DIP
 MDEC.deg                 6.48:  MAGNETIC DECL
 GRDC.deg                 0.12:  GRID CORRECTION
 DEP .m                 334.96:  DEPTH
 TDD .m                1407.26:  TOTAL DEPTH (DRILLER)
 EKB .m                  43.00:  KB ELEVATION
 EDF .m                  43.00:  DF ELEVATION
 TDL .m                 228.00:  TOTAL DEPTH (LOGGER)
 VSC .                       0:  VS TO CLOSURE
 MAGU.                 1854484:  MAGUTM CHECKSUM
~Parameter Information Block
#MNEM.UNIT       Value        Description
#---------     -----------    ---------------------------
 AV  .mps                 4.00:  Ann Velocity 
 AVMX.mps                 4.73:  Max Ann Veloc 
 AZIF.deg               304.48:  Azm, Final 
 BHAT.        Rotary Steerable:  BHA Type 
 BREV.rev            257300.00:  Rev Bit Total 
 BROT.°/30m               0.00:  Build Rotating 
 BS  .in                  8.50:  Bit Size 
 BSZ .in                  8.50:  Bit Size 
 BTPL.psig              589.00:  Bit Press Loss 
 CABU.                      No:  Customer Abuse 
 CGEO.          Mubariz ghayev:  Customer Geo 
 COMM.                     <Š|:  Run Comments 1 
 TCS .hr                 64.25:  Time Ciculation Ended 
 CV  .mps                 3.50:  Crit Velocity 
 CVMX.mps                 4.52:  Max Crit Veloc 
 DD1 .             Aziz Aliyev:  Direct Drillr 1 
 DD2 .         Intigam Rahimov:  Direct Drillr 2 
 DD3 .          Rashad Habibov:  Direct Drillr 3 
 DDSV.               Geo-Pilot:  DD Service 
 DEFF.%                  98.00:  % Det Eff 
 DLRX.°/30m               0.00:  Dogleg Rot Max 
 DLSO.°/30m               0.00:  Dogleg Oriented 
 DLSX.°/30m               0.00:  Dogleg Str Max 
 DRET.      10.45.04 08-May-21:  Drill End Time 
 DRST.      03.30.04 04-May-21:  Drill Start Tim 
 DTIM.hr                 14.97:  Time Drilling 
 EDEP.m                4640.01:  End Depth 
 ENG1.         Dail Mahammadov:  Engineer 1 
 ENG2.           Eldar Hajiyev:  Engineer 2 
 ENG3.       Bakhtiar Jabbarli:  Engineer 3 
 ENG4.       Natik Hasanagayev:  Engineer 4 
 ETIM.      09.30.04 14-May-21:  End Time 
 FLOI.gpm               460.00:  Flow In 
 FLON.gpm               200.00:  Flow In Min 
 FLOS.cptm                0.00:  Fluid Loss 
 FLOX.gpm               505.00:  Flow In Max 
 HFLO.                      No:  High Flow 
 HPRE.                      No:  High Pressure 
 HTEM.                      No:  High Temp 
 HYDO.m                   1.80:  Hydro Offset 
 IFIN.deg                66.71:  Inc, Final 
 IMAX.deg                67.03:  Inc Max 
 IMIN.deg                66.63:  Inc Min 
 IMND.m                4550.58:  Inc Min Depth 
 IMXD.m                4439.01:  Inc Max Depth 
 JARR.                      No:  Jarring 
 LETM.      10.45.04 08-May-21:  Log End Time 
 LOST.hr                     0:  Lost Rig Time 
 LSTM.      03.30.04 04-May-21:  Log Start Time 
 MDCL.ppm             37000.00:  Mud Chlorides 
 MDES.     Inversion Oil/Synthetic:  Mud Desc 
 DFD .sg                  1.38:  Mud Density 
 MDMN.sg                  1.35:  Dens Mud Min 
 MDMX.sg                  1.40:  Dens Mud Max 
 MOIL.                   57.40:  Run Mud Oil % 
 MOWR.                   70:30:  Run Mud OWR 
 MSND.                    0.00:  Run Mud Sand % 
 MSOL.                   18.00:  Run Mud Solids% 
 DFV .spqt               71.00:  Mud Viscosity 
 MWOD.in                  6.75:  MWD Tool OD 
 MWSI.                      No:  Serv Intrp, MWD 
 OTIM.hr                242.76:  Time Operating 
 PCON.           Look Like New:  Pad Condition 
 PMAX.psia            12183.92:  Press Op, Max 
 PV  .cP                 27.00:  Mud PV 
 RUN .                    1300:  Run Number 
 ROPA.m/hr               15.00:  ROP Avg 
 ROPN.m/hr                9.00:  ROP Min 
 ROPX.m/hr               19.00:  ROP Max 
 RPMA.rpm               120.00:  RPM Surface Avg 
 RPMN.rpm               100.00:  RPM Surface Min 
 RPMX.rpm               120.00:  RPM Surface Max 
 RRUN.                    1300:  Rig Run Number 
 RTIM.hr                  5.00:  Time Reaming 
 SAZI.deg               304.73:  Azm, Start 
 SDEP.m                4412.01:  Start Depth 
 SIDD.                      No:  Serv Intrp, DD 
 SINC.deg                66.82:  Inc, Start 
 SPPA.psig             2800.00:  SPP Avg 
 SPPN.psig             2610.00:  SPP Min 
 SPPX.psig             3100.00:  SPP Max 
 STIM.      03.30.00 04-May-21:  Start Time 
 SVCS.                 DD, MWD:  Services 
 SVER.                    9.20:  Sperry Version 
 TDAT.m                 228.00:  Tot Depth Attmp 
 TDDF.                      No:  Trip for DD 
 TDLG.m                 228.00:  Tot Depth Loggd 
 TFF .                      No:  Trip for Fail 
 TQAA.f-kp               15.00:  Torque Abs Avg 
 TQAN.f-kp               12.00:  Torque Abs Min 
 TQAX.f-kp               22.00:  Torque Abs Max 
 TRRT.°/30m               0.00:  Turn Rotating 
 MRT .                    HCIM:  Maximum Recorded Temperature 
 TTMX.degC               90.20:  Max Tool Temp 
 VS01.                90627813:  Virtual Str1 SN 
 VS02.                90634712:  Virtual Str2 SN 
 VS03.                90643410:  Virtual Str3 SN 
 VS04.                90634712:  Virtual Str4 SN 
 WBMN.klb                 9.00:  WOB Min 
 WITN.        Elmaddin Rahimov:  Customer Rep 
 WITN.         Haytham Mostafa:  Customer Rep 2 
 WOBA.klb                15.00:  WOB Avg 
 WOBX.klb                23.00:  WOB Max 
 YP  .lhf2               29.00:  Yield Point 
~Curve Information Block
#MNEM.UNIT                 API CODE     Curve Description
#---------               -----------    ---------------------------
 TIME.HHMMSS            00 000 000 000:  GT Time & Date
 GTDEPTH.m              00 000 000 000:  GT Depth
 GTPQH.psia             00 000 000 000:  GT HR Quartz Pressure
 GTTQ.degC              00 000 000 000:  GT Quartz Temperature
 GTTN.NONE              00 000 000 000:  GT Test Number
 GTET.sec               00 000 000 000:  GT Elapsed Test Time
 GTTVD.m                00 000 000 000:  GT True Vertical Depth
#Other Information
#
#WARRANTY: Halliburton will use its best efforts to furnish customers with 
#accurate information and interpretations that are part of, and incident to, the services 
#provided.  However, Halliburton cannot and does not warrant the accuracy 
#or correctness of such information and interpretations.  Under no circumstances should any 
#such information or interpretation be relied upon as the sole basis for any drilling, 
#completion, production, or financial decision or any procedure involving any risk to the 
#safety of any drilling venture, drilling rig or its crew or any other third party.  The 
#Customer has full responsibility for all drilling, completion and production operation.  
#Halliburton makes no representations or warranties, either expressed or 
#implied, including, but not limited to, the implied warranties of merchantability or fitness 
#for a particular purpose, with respect to the services rendered.  In no event will 
#Halliburton be liable for failure to obtain any particular results or for 
#any damages, including, but not limited to, indirect, special or consequential damages, 
#resulting from the use of any information or interpretation provided by Halliburton.
#
~A           TIME           GTDEPTH  GTPQH  GTTQ  GTTN  GTET   GTTVD  
# ...
   00:15:03.525.09-May-2021 4527.01 2203.47 68.12 6.00 161.06 2982.74
   00:15:03.725.09-May-2021 4527.01 2203.47 68.12 6.00 161.26 2982.74
   00:15:03.925.09-May-2021 4527.01 2350.42 68.12 6.00 161.46 2982.74
   00:15:04.125.09-May-2021 4527.01 2417.50 68.12 6.00 161.66 2982.74
   00:15:04.325.09-May-2021 4527.01 2479.91 68.12 6.00 161.86 2982.74
   00:15:04.525.09-May-2021 4527.01 2537.17 68.12 6.00 162.06 2982.74
   00:15:04.725.09-May-2021 4527.01 2537.17 68.12 6.00 162.26 2982.74
   00:15:04.925.09-May-2021 4527.01 2640.86 68.12 6.00 162.46 2982.74
   00:15:05.125.09-May-2021 4527.01 2687.51 68.12 6.00 162.66 2982.74
   00:15:05.325.09-May-2021 4527.01 2730.93 68.12 6.00 162.86 2982.74
   00:15:05.525.09-May-2021 4527.01 2771.30 68.12 6.00 163.06 2982.74
   00:15:05.725.09-May-2021 4527.01 2771.30 68.12 6.00 163.26 2982.74
   00:15:05.926.09-May-2021 4527.01 2843.91 68.12 6.00 163.46 2982.74
   00:15:06.126.09-May-2021 4527.01 2876.52 68.12 6.00 163.66 2982.74
   00:15:06.326.09-May-2021 4527.01 2906.94 68.13 6.00 163.86 2982.74
   00:15:06.526.09-May-2021 4527.01 2935.25 68.13 6.00 164.06 2982.74
   00:15:06.726.09-May-2021 4527.01 2935.25 68.13 6.00 164.26 2982.74
   00:15:06.926.09-May-2021 4527.01 2986.60 68.13 6.00 164.46 2982.74
   00:15:07.126.09-May-2021 4527.01 3009.59 68.13 6.00 164.66 2982.74
   00:15:07.326.09-May-2021 4527.01 3029.94 68.13 6.00 164.86 2982.74
   00:15:07.526.09-May-2021 4527.01 3050.70 68.13 6.00 165.06 2982.74
   00:15:07.726.09-May-2021 4527.01 3050.70 68.13 6.00 165.26 2982.74
   00:15:07.926.09-May-2021 4527.01 3085.88 68.14 6.00 165.46 2982.74
   00:15:08.126.09-May-2021 4527.01 3100.80 68.14 6.00 165.66 2982.74
   00:15:08.326.09-May-2021 4527.01 3115.74 68.14 6.00 165.86 2982.74
   00:15:08.527.09-May-2021 4527.01 3128.75 68.14 6.00 166.06 2982.74
   00:15:08.727.09-May-2021 4527.01 3128.75 68.14 6.00 166.26 2982.74
   00:15:08.927.09-May-2021 4527.01 3152.67 68.14 6.00 166.46 2982.74
   00:15:09.127.09-May-2021 4527.01 3162.47 68.14 6.00 166.66 2982.74
   00:15:09.327.09-May-2021 4527.01 3172.24 68.14 6.00 166.86 2982.74
   00:15:09.527.09-May-2021 4527.01 3180.76 68.15 6.00 167.06 2982.74
   00:15:09.727.09-May-2021 4527.01 3180.76 68.15 6.00 167.26 2982.74
   00:15:09.927.09-May-2021 4527.01 3194.71 68.15 6.00 167.46 2982.74
   00:15:10.127.09-May-2021 4527.01 3202.43 68.15 6.00 167.66 2982.74
   00:15:10.327.09-May-2021 4527.01 3208.42 68.15 6.00 167.86 2982.74
   00:15:10.527.09-May-2021 4527.01 3213.85 68.15 6.00 168.06 2982.74
   00:15:10.727.09-May-2021 4527.01 3213.85 68.15 6.00 168.26 2982.74
   00:15:10.927.09-May-2021 4527.01 3223.39 68.15 6.00 168.46 2982.74
   00:15:11.127.09-May-2021 4527.01 3227.33 68.15 6.00 168.66 2982.74
   00:15:11.328.09-May-2021 4527.01 3230.86 68.16 6.00 168.86 2982.74
   00:15:11.528.09-May-2021 4527.01 3233.93 68.16 6.00 169.06 2982.74
   00:15:11.728.09-May-2021 4527.01 3233.93 68.16 6.00 169.26 2982.74
   00:15:11.928.09-May-2021 4527.01 3238.88 68.16 6.00 169.46 2982.74
   00:15:12.128.09-May-2021 4527.01 3240.94 68.16 6.00 169.66 2982.74
   00:15:12.328.09-May-2021 4527.01 3242.89 68.16 6.00 169.86 2982.74
   00:15:12.528.09-May-2021 4527.01 3243.83 68.16 6.00 170.06 2982.74
   00:15:12.728.09-May-2021 4527.01 3243.83 68.16 6.00 170.26 2982.74
   00:15:12.928.09-May-2021 4527.01 3246.09 68.16 6.00 170.46 2982.74
   00:15:13.128.09-May-2021 4527.01 3248.50 68.16 6.00 170.66 2982.74
   00:15:13.328.09-May-2021 4527.01 3249.74 68.16 6.00 170.86 2982.74
   00:15:13.528.09-May-2021 4527.01 3250.68 68.16 6.00 171.06 2982.74
   00:15:13.728.09-May-2021 4527.01 3250.68 68.16 6.00 171.26 2982.74
   00:15:13.928.09-May-2021 4527.01 3252.33 68.17 6.00 171.46 2982.74
   00:15:14.129.09-May-2021 4527.01 3253.00 68.17 6.00 171.66 2982.74
   00:15:14.329.09-May-2021 4527.01 3253.58 68.17 6.00 171.86 2982.74
   00:15:14.529.09-May-2021 4527.01 3254.08 68.17 6.00 172.06 2982.74
   00:15:14.729.09-May-2021 4527.01 3254.08 68.17 6.00 172.26 2982.74
   00:15:14.929.09-May-2021 4527.01 3254.65 68.17 6.00 172.46 2982.74
   00:15:15.129.09-May-2021 4527.01 3254.70 68.17 6.00 172.66 2982.74
   00:15:15.329.09-May-2021 4527.01 3255.47 68.17 6.00 172.86 2982.74
   00:15:15.529.09-May-2021 4527.01 3255.47 68.17 6.00 173.06 2982.74
   00:15:15.729.09-May-2021 4527.01 3255.47 68.17 6.00 173.26 2982.74
   00:15:15.929.09-May-2021 4527.01 3256.47 68.17 6.00 173.46 2982.74
   00:15:16.129.09-May-2021 4527.01 3256.71 68.17 6.00 173.66 2982.74
   00:15:16.329.09-May-2021 4527.01 3256.72 68.17 6.00 173.86 2982.74
   00:15:16.529.09-May-2021 4527.01 3257.02 68.17 6.00 174.06 2982.74
   00:15:16.729.09-May-2021 4527.01 3257.02 68.17 6.00 174.26 2982.74
   00:15:16.930.09-May-2021 4527.01 3257.68 68.17 6.00 174.46 2982.74
   00:15:17.130.09-May-2021 4527.01 3257.68 68.17 6.00 174.66 2982.74
   00:15:17.330.09-May-2021 4527.01 3257.75 68.17 6.00 174.86 2982.74
   00:15:17.530.09-May-2021 4527.01 3258.10 68.17 6.00 175.06 2982.74
   00:15:17.730.09-May-2021 4527.01 3258.10 68.17 6.00 175.26 2982.74
   00:15:17.930.09-May-2021 4527.01 3259.58 68.17 6.00 175.46 2982.74
   00:15:18.130.09-May-2021 4527.01 3259.61 68.17 6.00 175.66 2982.74
   00:15:18.330.09-May-2021 4527.01 3259.80 68.17 6.00 175.86 2982.74
   00:15:18.530.09-May-2021 4527.01 3259.83 68.17 6.00 176.06 2982.74
   00:15:18.730.09-May-2021 4527.01 3259.83 68.17 6.00 176.26 2982.74
   00:15:18.930.09-May-2021 4527.01 3259.85 68.17 6.00 176.46 2982.74
   00:15:19.130.09-May-2021 4527.01 3259.89 68.17 6.00 176.66 2982.74
   00:15:19.330.09-May-2021 4527.01 3259.91 68.17 6.00 176.86 2982.74
   00:15:19.530.09-May-2021 4527.01 3259.89 68.17 6.00 177.06 2982.74
   00:15:19.731.09-May-2021 4527.01 3259.89 68.17 6.00 177.26 2982.74
   00:15:19.931.09-May-2021 4527.01 3259.61 68.17 6.00 177.46 2982.74
   00:15:20.131.09-May-2021 4527.01 3259.75 68.18 6.00 177.66 2982.74
   00:15:20.331.09-May-2021 4527.01 3260.17 68.18 6.00 177.86 2982.74
   00:15:20.531.09-May-2021 4527.01 3260.30 68.18 6.00 178.06 2982.74
   00:15:20.731.09-May-2021 4527.01 3260.30 68.18 6.00 178.26 2982.74
   00:15:20.931.09-May-2021 4527.01 3260.23 68.18 6.00 178.46 2982.74
   00:15:21.131.09-May-2021 4527.01 3260.26 68.18 6.00 178.66 2982.74
   00:15:21.331.09-May-2021 4527.01 3260.23 68.18 6.00 178.86 2982.74
   00:15:21.531.09-May-2021 4527.01 3260.23 68.18 6.00 179.06 2982.74
   00:15:21.731.09-May-2021 4527.01 3260.23 68.18 6.00 179.26 2982.74
   00:15:21.931.09-May-2021 4527.01 3260.23 68.18 6.00 179.47 2982.74
   00:15:22.131.09-May-2021 4527.01 3260.27 68.18 6.00 179.67 2982.74
   00:15:22.332.09-May-2021 4527.01 3260.26 68.18 6.00 179.87 2982.74
   00:15:22.532.09-May-2021 4527.01 3259.99 68.18 6.00 180.07 2982.74
   00:15:22.732.09-May-2021 4527.01 3259.99 68.18 6.00 180.27 2982.74
   00:15:22.932.09-May-2021 4527.01 3260.25 68.18 6.00 180.47 2982.74
   00:15:23.132.09-May-2021 4527.01 3260.33 68.18 6.00 180.67 2982.74
   00:15:23.332.09-May-2021 4527.01 3260.25 68.18 6.00 180.87 2982.74
   00:15:23.532.09-May-2021 4527.01 3260.28 68.18 6.00 181.07 2982.74
   00:15:23.732.09-May-2021 4527.01 3260.28 68.18 6.00 181.27 2982.74
   00:15:23.932.09-May-2021 4527.01 3260.27 68.18 6.00 181.47 2982.74
   00:15:24.132.09-May-2021 4527.01 3260.31 68.18 6.00 181.67 2982.74
   00:15:24.332.09-May-2021 4527.01 3260.40 68.18 6.00 181.87 2982.74
   00:15:24.532.09-May-2021 4527.01 3260.04 68.18 6.00 182.07 2982.74
   00:15:24.732.09-May-2021 4527.01 3260.04 68.18 6.00 182.27 2982.74
   00:15:24.932.09-May-2021 4527.01 3260.29 68.18 6.00 182.47 2982.74
   00:15:25.133.09-May-2021 4527.01 3260.20 68.18 6.00 182.67 2982.74
   00:15:25.333.09-May-2021 4527.01 3259.94 68.18 6.00 182.87 2982.74
   00:15:25.533.09-May-2021 4527.01 3260.70 68.18 6.00 183.07 2982.74
   00:15:25.733.09-May-2021 4527.01 3260.70 68.18 6.00 183.27 2982.74
   00:15:25.933.09-May-2021 4527.01 3260.30 68.18 6.00 183.47 2982.74
   00:15:26.133.09-May-2021 4527.01 3260.33 68.18 6.00 183.67 2982.74
   00:15:26.333.09-May-2021 4527.01 3260.29 68.18 6.00 183.87 2982.74
