~Version Information
 VERS.                  2.0:   CWLS log ASCII Standard -VERSION 2.0
 WRAP.                   NO:   One line per depth step
~Well Information Block
#MNEM.UNIT     VALUE/NAME     DESCRIPTION
#---------     -----------    ---------------------------
 STRT.S             07:52:13 09-May-21: START TIME 07:52:13 09-May-21
 STOP.S             07:59:09 09-May-21: STOP TIME  07:59:09 09-May-21
 STEP.S                   0.00: STEP TIME
 NULL.                 -999.25: NULL VALUE
 PROV.                    Baku:  PROVINCE
 STAT.                    Baku:  STATE NAME
 SON .        AZ-XX-0906571588:  JOB NUMBER
 WTYP.                Deviated:  WELL TYPE
 COMP.     BP Exploration (Caspian Sea) ltd:  COMPANY
 BASE.              Azerbaijan:  LOGGING EQUIPMENT BASE LOCATION
 REGN.                   EESSA:  REGION
 CTRY.              Azerbaijan:  COUNTRY NAME
 FLD .                     ACG:  FIELD NAME
 WELL.                     J28:  WELL NAME
 RIG .             West Chirag:  RIG NAME
 DMF .             Drill Floor:  DRILL MEAS FROM
 PDAT.       Caspian Sea Level:  PERMANENT DATUM
 HPTY.       Minimum Curvature:  HOLE POS TYPE
 MDS .        Operator Entered:  MAG DATA SOURCE
 NREF.                    Grid:  NORTH REFERENCE
 SRVC.          TURAN DRILLING:  CONTRACTOR
 JOBN.        AZ-XX-0906571588:  JOB TICKET NUMB
 DCON.     Halliburton Sperry Drilling:  DIRECTNL CONTR
 STIM.      00.44.00 11-Feb-21:  START TIME
 DATE.      00.00.00 05-May-21:  END TIME
 SPUD.               13-Feb-21:  SPUD DATE
 MWDS.                    Baku:  MWD SHOP
 DOE .                     N/A:  DOE NUMBER
 UNIT.                     N/A:  LOGGING EQUIPMENT ID
 UWI .                     N/A:  UNIQUE WELL IDENTIFIER
 API .                     N/A:  API NUMBER
 CNTY.                        :  COUNTY
 LOC .                        :  LOCATION
 LMF .             Drill Floor:  LOG MEASURED FROM
 TVDS.m                  43.00:  TVDSS CORRECTN
 SDEP.m                 341.00:  START DEPTH
 EGL .m                   0.00:  GROUND ELEVATION
 WDMS.m                 169.80:  WD ELEV
 AGAP.m                  43.00:  AIR GAP
 EPD .m                   0.00:  ELEVATION
 APD .m                  43.00:  DEPTH ABOVE PD
 LATI.deg                40.13:  LATITUDE
 LONG.deg                51.22:  LONGITUDE
 UTMY.m             4443793.85:  UTM Y
 UTMX.m              519005.06:  UTM X
 WHEW.m                 -11.57:  WELL HEAD E/W
 WHNS.m                   8.57:  WELL HEAD N/S
 VSEW.m                 -11.57:  VERT SEC E/W
 VSNS.m                   8.57:  VERT SEC N/S
 DFWL.m                   0.00:  DISTANCE FWL
 DFSL.m                   0.00:  DISTANCE FSL
 VSDR.deg               299.34:  VERT SEC DIRECT
 GVFD.g                   1.00:  GRAVITY FIELD
 AZTC.deg                 6.36:  AZM TOTAL CORR
 MFLD.nT              50391.00:  MAGNETIC FIELD
 MDIP.deg                59.65:  MAGNETIC DIP
 MDEC.deg                 6.48:  MAGNETIC DECL
 GRDC.deg                 0.12:  GRID CORRECTION
 DEP .m                 334.96:  DEPTH
 TDD .m                1407.26:  TOTAL DEPTH (DRILLER)
 EKB .m                  43.00:  KB ELEVATION
 EDF .m                  43.00:  DF ELEVATION
 TDL .m                 228.00:  TOTAL DEPTH (LOGGER)
 VSC .                       0:  VS TO CLOSURE
 MAGU.                 1854484:  MAGUTM CHECKSUM
~Parameter Information Block
#MNEM.UNIT       Value        Description
#---------     -----------    ---------------------------
 AV  .mps                 4.00:  Ann Velocity 
 AVMX.mps                 4.73:  Max Ann Veloc 
 AZIF.deg               304.48:  Azm, Final 
 BHAT.        Rotary Steerable:  BHA Type 
 BREV.rev            257300.00:  Rev Bit Total 
 BROT.°/30m               0.00:  Build Rotating 
 BS  .in                  8.50:  Bit Size 
 BSZ .in                  8.50:  Bit Size 
 BTPL.psig              589.00:  Bit Press Loss 
 CABU.                      No:  Customer Abuse 
 CGEO.          Mubariz ghayev:  Customer Geo 
 TCS .hr                 64.25:  Time Ciculation Ended 
 CV  .mps                 3.50:  Crit Velocity 
 CVMX.mps                 4.52:  Max Crit Veloc 
 DD1 .             Aziz Aliyev:  Direct Drillr 1 
 DD2 .         Intigam Rahimov:  Direct Drillr 2 
 DD3 .          Rashad Habibov:  Direct Drillr 3 
 DDSV.               Geo-Pilot:  DD Service 
 DEFF.%                  98.00:  % Det Eff 
 DLRX.°/30m               0.00:  Dogleg Rot Max 
 DLSO.°/30m               0.00:  Dogleg Oriented 
 DLSX.°/30m               0.00:  Dogleg Str Max 
 DRET.      10.45.04 08-May-21:  Drill End Time 
 DRST.      03.30.04 04-May-21:  Drill Start Tim 
 DTIM.hr                 14.97:  Time Drilling 
 EDEP.m                4640.01:  End Depth 
 ENG1.         Dail Mahammadov:  Engineer 1 
 ENG2.           Eldar Hajiyev:  Engineer 2 
 ENG3.       Bakhtiar Jabbarli:  Engineer 3 
 ENG4.       Natik Hasanagayev:  Engineer 4 
 ETIM.      09.30.04 14-May-21:  End Time 
 FLOI.gpm               460.00:  Flow In 
 FLON.gpm               200.00:  Flow In Min 
 FLOS.cptm                0.00:  Fluid Loss 
 FLOX.gpm               505.00:  Flow In Max 
 HFLO.                      No:  High Flow 
 HPRE.                      No:  High Pressure 
 HTEM.                      No:  High Temp 
 HYDO.m                   1.80:  Hydro Offset 
 IFIN.deg                66.71:  Inc, Final 
 IMAX.deg                67.03:  Inc Max 
 IMIN.deg                66.63:  Inc Min 
 IMND.m                4550.58:  Inc Min Depth 
 IMXD.m                4439.01:  Inc Max Depth 
 JARR.                      No:  Jarring 
 LETM.      10.45.04 08-May-21:  Log End Time 
 LOST.hr                     0:  Lost Rig Time 
 LSTM.      03.30.04 04-May-21:  Log Start Time 
 MDCL.ppm             37000.00:  Mud Chlorides 
 MDES.     Inversion Oil/Synthetic:  Mud Desc 
 DFD .sg                  1.38:  Mud Density 
 MDMN.sg                  1.35:  Dens Mud Min 
 MDMX.sg                  1.40:  Dens Mud Max 
 MOIL.                   57.40:  Run Mud Oil % 
 MOWR.                   70:30:  Run Mud OWR 
 MSND.                    0.00:  Run Mud Sand % 
 MSOL.                   18.00:  Run Mud Solids% 
 DFV .spqt               71.00:  Mud Viscosity 
 MWOD.in                  6.75:  MWD Tool OD 
 MWSI.                      No:  Serv Intrp, MWD 
 OTIM.hr                242.76:  Time Operating 
 PCON.           Look Like New:  Pad Condition 
 PMAX.psia            12183.92:  Press Op, Max 
 PV  .cP                 27.00:  Mud PV 
 RUN .                    1300:  Run Number 
 ROPA.m/hr               15.00:  ROP Avg 
 ROPN.m/hr                9.00:  ROP Min 
 ROPX.m/hr               19.00:  ROP Max 
 RPMA.rpm               120.00:  RPM Surface Avg 
 RPMN.rpm               100.00:  RPM Surface Min 
 RPMX.rpm               120.00:  RPM Surface Max 
 RRUN.                    1300:  Rig Run Number 
 RTIM.hr                  5.00:  Time Reaming 
 SAZI.deg               304.73:  Azm, Start 
 SDEP.m                4412.01:  Start Depth 
 SIDD.                      No:  Serv Intrp, DD 
 SINC.deg                66.82:  Inc, Start 
 SPPA.psig             2800.00:  SPP Avg 
 SPPN.psig             2610.00:  SPP Min 
 SPPX.psig             3100.00:  SPP Max 
 STIM.      03.30.00 04-May-21:  Start Time 
 SVCS.                 DD, MWD:  Services 
 SVER.                    9.20:  Sperry Version 
 TDAT.m                 228.00:  Tot Depth Attmp 
 TDDF.                      No:  Trip for DD 
 TDLG.m                 228.00:  Tot Depth Loggd 
 TFF .                      No:  Trip for Fail 
 TQAA.f-kp               15.00:  Torque Abs Avg 
 TQAN.f-kp               12.00:  Torque Abs Min 
 TQAX.f-kp               22.00:  Torque Abs Max 
 TRRT.°/30m               0.00:  Turn Rotating 
 MRT .                    HCIM:  Maximum Recorded Temperature 
 TTMX.degC               90.20:  Max Tool Temp 
 VS01.                90627813:  Virtual Str1 SN 
 VS02.                90634712:  Virtual Str2 SN 
 VS03.                90643410:  Virtual Str3 SN 
 VS04.                90634712:  Virtual Str4 SN 
 WBMN.klb                 9.00:  WOB Min 
 WITN.        Elmaddin Rahimov:  Customer Rep 
 WITN.         Haytham Mostafa:  Customer Rep 2 
 WOBA.klb                15.00:  WOB Avg 
 WOBX.klb                23.00:  WOB Max 
 YP  .lhf2               29.00:  Yield Point 
~Curve Information Block
#MNEM.UNIT                 API CODE     Curve Description
#---------               -----------    ---------------------------
 TIME.HHMMSS            00 000 000 000:  GT Time & Date
 GTDEPTH.m              00 000 000 000:  GT Depth
 GTPQH.psia             00 000 000 000:  GT HR Quartz Pressure
 GTTQ.degC              00 000 000 000:  GT Quartz Temperature
 GTTN.NONE              00 000 000 000:  GT Test Number
 GTET.sec               00 000 000 000:  GT Elapsed Test Time
 GTTVD.m                00 000 000 000:  GT True Vertical Depth
#Other Information
#
#WARRANTY: Halliburton will use its best efforts to furnish customers with 
#accurate information and interpretations that are part of, and incident to, the services 
#provided.  However, Halliburton cannot and does not warrant the accuracy 
#or correctness of such information and interpretations.  Under no circumstances should any 
#such information or interpretation be relied upon as the sole basis for any drilling, 
#completion, production, or financial decision or any procedure involving any risk to the 
#safety of any drilling venture, drilling rig or its crew or any other third party.  The 
#Customer has full responsibility for all drilling, completion and production operation.  
#Halliburton makes no representations or warranties, either expressed or 
#implied, including, but not limited to, the implied warranties of merchantability or fitness 
#for a particular purpose, with respect to the services rendered.  In no event will 
#Halliburton be liable for failure to obtain any particular results or for 
#any damages, including, but not limited to, indirect, special or consequential damages, 
#resulting from the use of any information or interpretation provided by Halliburton.
#
~A           TIME           GTDEPTH  GTPQH  GTTQ  GTTN   GTET   GTTVD  
# ...
   07:52:35.799.09-May-2021 4413.51 6480.65 65.64 16.00  22.60 2938.18
   07:52:35.999.09-May-2021 4413.51 6480.15 65.64 16.00  22.80 2938.18
   07:52:36.199.09-May-2021 4413.51 6479.83 65.64 16.00  23.00 2938.18
   07:52:36.399.09-May-2021 4413.51 6479.83 65.64 16.00  23.20 2938.18
   07:52:36.599.09-May-2021 4413.51 6479.96 65.64 16.00  23.40 2938.18
   07:52:36.799.09-May-2021 4413.51 6480.36 65.64 16.00  23.60 2938.18
   07:52:36.999.09-May-2021 4413.51 6481.05 65.64 16.00  23.80 2938.18
   07:52:37.199.09-May-2021 4413.51 6486.48 65.64 16.00  24.00 2938.18
   07:52:37.399.09-May-2021 4413.51 6486.48 65.64 16.00  24.20 2938.18
   07:52:37.599.09-May-2021 4413.51 6486.46 65.64 16.00  24.40 2938.18
   07:52:37.799.09-May-2021 4413.51 6482.97 65.64 16.00  24.60 2938.18
   07:52:37.999.09-May-2021 4413.51 6483.77 65.64 16.00  24.80 2938.18
   07:52:38.199.09-May-2021 4413.51 6482.17 65.64 16.00  25.00 2938.18
   07:52:38.399.09-May-2021 4413.51 6482.17 65.64 16.00  25.20 2938.18
   07:52:38.599.09-May-2021 4413.51 6481.77 65.64 16.00  25.40 2938.18
   07:52:38.799.09-May-2021 4413.51 6481.73 65.64 16.00  25.60 2938.18
   07:52:38.999.09-May-2021 4413.51 6481.90 65.64 16.00  25.80 2938.18
   07:52:39.199.09-May-2021 4413.51 6481.44 65.64 16.00  26.00 2938.18
   07:52:39.399.09-May-2021 4413.51 6481.44 65.64 16.00  26.20 2938.18
   07:52:39.599.09-May-2021 4413.51 6481.26 65.64 16.00  26.40 2938.18
   07:52:39.799.09-May-2021 4413.51 6488.84 65.64 16.00  26.60 2938.18
   07:52:39.999.09-May-2021 4413.51 6481.48 65.64 16.00  26.80 2938.18
   07:52:40.199.09-May-2021 4413.51 6483.66 65.64 16.00  27.00 2938.18
   07:52:40.399.09-May-2021 4413.51 6483.66 65.64 16.00  27.20 2938.18
   07:52:40.599.09-May-2021 4413.51 6488.82 65.64 16.00  27.40 2938.18
   07:52:40.799.09-May-2021 4413.51 6485.57 65.64 16.00  27.60 2938.18
   07:52:40.999.09-May-2021 4413.51 6488.34 65.64 16.00  27.80 2938.18
   07:52:41.199.09-May-2021 4413.51 6485.24 65.64 16.00  28.00 2938.18
   07:52:41.399.09-May-2021 4413.51 6485.24 65.64 16.00  28.20 2938.18
   07:52:41.599.09-May-2021 4413.51 6486.36 65.64 16.00  28.40 2938.18
   07:52:41.799.09-May-2021 4413.51 6483.10 65.64 16.00  28.60 2938.18
   07:52:41.999.09-May-2021 4413.51 6488.54 65.64 16.00  28.80 2938.18
   07:52:42.199.09-May-2021 4413.51 6484.01 65.64 16.00  29.00 2938.18
   07:52:42.399.09-May-2021 4413.51 6484.01 65.64 16.00  29.20 2938.18
   07:52:42.599.09-May-2021 4413.51 6489.46 65.64 16.00  29.40 2938.18
   07:52:42.799.09-May-2021 4413.51 6485.89 65.64 16.00  29.60 2938.18
   07:52:43.000.09-May-2021 4413.51 6489.27 65.64 16.00  29.80 2938.18
   07:52:43.200.09-May-2021 4413.51 6484.99 65.64 16.00  30.00 2938.18
   07:52:43.400.09-May-2021 4413.51 6484.99 65.64 16.00  30.20 2938.18
   07:52:43.600.09-May-2021 4413.51 6485.19 65.63 16.00  30.40 2938.18
   07:52:43.800.09-May-2021 4413.51 6483.82 65.63 16.00  30.60 2938.18
   07:52:44.000.09-May-2021 4413.51 6484.19 65.63 16.00  30.80 2938.18
   07:52:44.200.09-May-2021 4413.51 6483.75 65.63 16.00  31.00 2938.18
   07:52:44.400.09-May-2021 4413.51 6483.75 65.63 16.00  31.20 2938.18
   07:52:44.600.09-May-2021 4413.51 6483.87 65.63 16.00  31.40 2938.18
   07:52:44.800.09-May-2021 4413.51 6484.33 65.63 16.00  31.60 2938.18
   07:52:45.000.09-May-2021 4413.51 6484.63 65.63 16.00  31.80 2938.18
   07:52:45.200.09-May-2021 4413.51 6490.89 65.63 16.00  32.00 2938.18
   07:52:45.400.09-May-2021 4413.51 6490.89 65.63 16.00  32.20 2938.18
   07:52:45.600.09-May-2021 4413.51 6490.57 65.63 16.00  32.40 2938.18
   07:52:45.800.09-May-2021 4413.51 6486.09 65.63 16.00  32.60 2938.18
   07:52:46.000.09-May-2021 4413.51 6485.16 65.63 16.00  32.80 2938.18
   07:52:46.200.09-May-2021 4413.51 6486.59 65.63 16.00  33.00 2938.18
   07:52:46.400.09-May-2021 4413.51 6486.59 65.63 16.00  33.20 2938.18
   07:52:46.600.09-May-2021 4413.51 6486.02 65.63 16.00  33.40 2938.18
   07:52:46.800.09-May-2021 4413.51 6485.15 65.63 16.00  33.60 2938.18
   07:52:47.000.09-May-2021 4413.51 6485.68 65.63 16.00  33.80 2938.18
   07:52:47.200.09-May-2021 4413.51 6471.67 65.63 16.00  34.00 2938.18
   07:52:47.400.09-May-2021 4413.51 6471.67 65.63 16.00  34.20 2938.18
   07:52:47.600.09-May-2021 4413.51 6589.81 65.63 16.00  34.40 2938.18
   07:52:47.800.09-May-2021 4413.51 6703.44 65.63 16.00  34.60 2938.18
   07:52:48.000.09-May-2021 4413.51 6728.03 65.63 16.00  34.80 2938.18
   07:52:48.200.09-May-2021 4413.51 6732.43 65.63 16.00  35.00 2938.18
   07:52:48.400.09-May-2021 4413.51 6732.43 65.63 16.00  35.20 2938.18
   07:52:48.600.09-May-2021 4413.51 6747.84 65.63 16.00  35.40 2938.18
   07:52:48.800.09-May-2021 4413.51 6750.21 65.63 16.00  35.60 2938.18
   07:52:49.000.09-May-2021 4413.51 6753.16 65.63 16.00  35.80 2938.18
   07:52:49.200.09-May-2021 4413.51 6755.09 65.63 16.00  36.00 2938.18
   07:52:49.400.09-May-2021 4413.51 6755.09 65.63 16.00  36.21 2938.18
   07:52:49.600.09-May-2021 4413.51 6793.18 65.63 16.00  36.41 2938.18
   07:52:49.800.09-May-2021 4413.51 6800.55 65.63 16.00  36.61 2938.18
   07:52:50.000.09-May-2021 4413.51 6799.77 65.63 16.00  36.81 2938.18
   07:52:50.200.09-May-2021 4413.51 6799.12 65.63 16.00  37.01 2938.18
   07:52:50.401.09-May-2021 4413.51 6799.12 65.63 16.00  37.21 2938.18
   07:52:50.601.09-May-2021 4413.51 6797.08 65.63 16.00  37.41 2938.18
   07:52:50.801.09-May-2021 4413.51 6790.30 65.63 16.00  37.61 2938.18
   07:52:51.001.09-May-2021 4413.51 6794.84 65.63 16.00  37.81 2938.18
   07:52:51.201.09-May-2021 4413.51 6793.76 65.63 16.00  38.01 2938.18
   07:52:51.401.09-May-2021 4413.51 6793.76 65.63 16.00  38.21 2938.18
   07:52:51.601.09-May-2021 4413.51 6775.79 65.63 16.00  38.41 2938.18
   07:52:51.801.09-May-2021 4413.51 6750.79 65.63 16.00  38.61 2938.18
   07:52:52.001.09-May-2021 4413.51 6725.72 65.63 16.00  38.81 2938.18
   07:52:52.201.09-May-2021 4413.51 6704.18 65.63 16.00  39.01 2938.18
   07:52:52.401.09-May-2021 4413.51 6704.18 65.63 16.00  39.21 2938.18
   07:52:52.601.09-May-2021 4413.51 6666.70 65.63 16.00  39.41 2938.18
   07:52:52.801.09-May-2021 4413.51 6651.76 65.63 16.00  39.61 2938.18
   07:52:53.001.09-May-2021 4413.51 6639.95 65.63 16.00  39.81 2938.18
   07:52:53.201.09-May-2021 4413.51 6629.19 65.63 16.00  40.01 2938.18
   07:52:53.401.09-May-2021 4413.51 6629.19 65.63 16.00  40.21 2938.18
   07:52:53.601.09-May-2021 4413.51 6615.68 65.63 16.00  40.41 2938.18
   07:52:53.801.09-May-2021 4413.51 6610.76 65.63 16.00  40.61 2938.18
   07:52:54.001.09-May-2021 4413.51 6602.61 65.63 16.00  40.81 2938.18
   07:52:54.201.09-May-2021 4413.51 6588.08 65.63 16.00  41.01 2938.18
   07:52:54.401.09-May-2021 4413.51 6588.08 65.63 16.00  41.21 2938.18
   07:52:54.601.09-May-2021 4413.51 6417.13 65.63 16.00  41.41 2938.18
   07:52:54.801.09-May-2021 4413.51 6247.67 65.63 16.00  41.61 2938.18
   07:52:55.001.09-May-2021 4413.51 6002.22 65.63 16.00  41.81 2938.18
   07:52:55.201.09-May-2021 4413.51 5538.85 65.63 16.00  42.01 2938.18
   07:52:55.401.09-May-2021 4413.51 5538.85 65.63 16.00  42.21 2938.18
   07:52:55.601.09-May-2021 4413.51 4700.51 65.63 16.00  42.41 2938.18
   07:52:55.801.09-May-2021 4413.51 4478.58 65.63 16.00  42.61 2938.18
   07:52:56.001.09-May-2021 4413.51 4388.76 65.63 16.00  42.81 2938.18
   07:52:56.201.09-May-2021 4413.51 4272.49 65.63 16.00  43.01 2938.18
   07:52:56.401.09-May-2021 4413.51 4272.49 65.63 16.00  43.21 2938.18
   07:52:56.601.09-May-2021 4413.51 3376.74 65.63 16.00  43.41 2938.18
   07:52:56.801.09-May-2021 4413.51 3132.78 65.62 16.00  43.61 2938.18
   07:52:57.001.09-May-2021 4413.51 2999.88 65.62 16.00  43.81 2938.18
   07:52:57.201.09-May-2021 4413.51 2492.17 65.62 16.00  44.01 2938.18
   07:52:57.401.09-May-2021 4413.51 2492.17 65.62 16.00  44.21 2938.18
   07:52:57.602.09-May-2021 4413.51 2046.25 65.62 16.00  44.41 2938.18
   07:52:57.802.09-May-2021 4413.51 1694.93 65.61 16.00  44.61 2938.18
   07:52:58.002.09-May-2021 4413.51 3375.25 65.61 16.00  44.81 2938.18
   07:52:58.202.09-May-2021 4413.51 4272.31 65.61 16.00  45.01 2938.18
