~Version Information
 VERS.                  2.0:   CWLS log ASCII Standard -VERSION 2.0
 WRAP.                   NO:   One line per depth step
~Well Information Block
#MNEM.UNIT     VALUE/NAME     DESCRIPTION
#---------     -----------    ---------------------------
 STRT.S             00:12:22 09-May-21: START TIME 00:12:22 09-May-21
 STOP.S             00:19:08 09-May-21: STOP TIME  00:19:08 09-May-21
 STEP.S                   0.00: STEP TIME
 NULL.                 -999.25: NULL VALUE
 PROV.                    Baku:  PROVINCE
 STAT.                    Baku:  STATE NAME
 SON .        AZ-XX-0906571588:  JOB NUMBER
 WTYP.                Deviated:  WELL TYPE
 COMP.     BP Exploration (Caspian Sea) ltd:  COMPANY
 BASE.              Azerbaijan:  LOGGING EQUIPMENT BASE LOCATION
 REGN.                   EESSA:  REGION
 CTRY.              Azerbaijan:  COUNTRY NAME
 FLD .                     ACG:  FIELD NAME
 WELL.                     J28:  WELL NAME
 RIG .             West Chirag:  RIG NAME
 DMF .             Drill Floor:  DRILL MEAS FROM
 PDAT.       Caspian Sea Level:  PERMANENT DATUM
 HPTY.       Minimum Curvature:  HOLE POS TYPE
 MDS .        Operator Entered:  MAG DATA SOURCE
 NREF.                    Grid:  NORTH REFERENCE
 SRVC.          TURAN DRILLING:  CONTRACTOR
 JOBN.        AZ-XX-0906571588:  JOB TICKET NUMB
 DCON.     Halliburton Sperry Drilling:  DIRECTNL CONTR
 STIM.      00.44.00 11-Feb-21:  START TIME
 DATE.      00.00.00 05-May-21:  END TIME
 SPUD.               13-Feb-21:  SPUD DATE
 MWDS.                    Baku:  MWD SHOP
 DOE .                     N/A:  DOE NUMBER
 UNIT.                     N/A:  LOGGING EQUIPMENT ID
 UWI .                     N/A:  UNIQUE WELL IDENTIFIER
 API .                     N/A:  API NUMBER
 CNTY.                        :  COUNTY
 LOC .                        :  LOCATION
 LMF .             Drill Floor:  LOG MEASURED FROM
 TVDS.m                  43.00:  TVDSS CORRECTN
 SDEP.m                 341.00:  START DEPTH
 EGL .m                   0.00:  GROUND ELEVATION
 WDMS.m                 169.80:  WD ELEV
 AGAP.m                  43.00:  AIR GAP
 EPD .m                   0.00:  ELEVATION
 APD .m                  43.00:  DEPTH ABOVE PD
 LATI.deg                40.13:  LATITUDE
 LONG.deg                51.22:  LONGITUDE
 UTMY.m             4443793.85:  UTM Y
 UTMX.m              519005.06:  UTM X
 WHEW.m                 -11.57:  WELL HEAD E/W
 WHNS.m                   8.57:  WELL HEAD N/S
 VSEW.m                 -11.57:  VERT SEC E/W
 VSNS.m                   8.57:  VERT SEC N/S
 DFWL.m                   0.00:  DISTANCE FWL
 DFSL.m                   0.00:  DISTANCE FSL
 VSDR.deg               299.34:  VERT SEC DIRECT
 GVFD.g                   1.00:  GRAVITY FIELD
 AZTC.deg                 6.36:  AZM TOTAL CORR
 MFLD.nT              50391.00:  MAGNETIC FIELD
 MDIP.deg                59.65:  MAGNETIC DIP
 MDEC.deg                 6.48:  MAGNETIC DECL
 GRDC.deg                 0.12:  GRID CORRECTION
 DEP .m                 334.96:  DEPTH
 TDD .m                1407.26:  TOTAL DEPTH (DRILLER)
 EKB .m                  43.00:  KB ELEVATION
 EDF .m                  43.00:  DF ELEVATION
 TDL .m                 228.00:  TOTAL DEPTH (LOGGER)
 VSC .                       0:  VS TO CLOSURE
 MAGU.                 1854484:  MAGUTM CHECKSUM
~Parameter Information Block
#MNEM.UNIT       Value        Description
#---------     -----------    ---------------------------
 AV  .mps                 4.00:  Ann Velocity 
 AVMX.mps                 4.73:  Max Ann Veloc 
 AZIF.deg               304.48:  Azm, Final 
 BHAT.        Rotary Steerable:  BHA Type 
 BREV.rev            257300.00:  Rev Bit Total 
 BROT.°/30m               0.00:  Build Rotating 
 BS  .in                  8.50:  Bit Size 
 BSZ .in                  8.50:  Bit Size 
 BTPL.psig              589.00:  Bit Press Loss 
 CABU.                      No:  Customer Abuse 
 CGEO.          Mubariz ghayev:  Customer Geo 
 COMM.                     <Š|:  Run Comments 1 
 TCS .hr                 64.25:  Time Ciculation Ended 
 CV  .mps                 3.50:  Crit Velocity 
 CVMX.mps                 4.52:  Max Crit Veloc 
 DD1 .             Aziz Aliyev:  Direct Drillr 1 
 DD2 .         Intigam Rahimov:  Direct Drillr 2 
 DD3 .          Rashad Habibov:  Direct Drillr 3 
 DDSV.               Geo-Pilot:  DD Service 
 DEFF.%                  98.00:  % Det Eff 
 DLRX.°/30m               0.00:  Dogleg Rot Max 
 DLSO.°/30m               0.00:  Dogleg Oriented 
 DLSX.°/30m               0.00:  Dogleg Str Max 
 DRET.      10.45.04 08-May-21:  Drill End Time 
 DRST.      03.30.04 04-May-21:  Drill Start Tim 
 DTIM.hr                 14.97:  Time Drilling 
 EDEP.m                4640.01:  End Depth 
 ENG1.         Dail Mahammadov:  Engineer 1 
 ENG2.           Eldar Hajiyev:  Engineer 2 
 ENG3.       Bakhtiar Jabbarli:  Engineer 3 
 ENG4.       Natik Hasanagayev:  Engineer 4 
 ETIM.      09.30.04 14-May-21:  End Time 
 FLOI.gpm               460.00:  Flow In 
 FLON.gpm               200.00:  Flow In Min 
 FLOS.cptm                0.00:  Fluid Loss 
 FLOX.gpm               505.00:  Flow In Max 
 HFLO.                      No:  High Flow 
 HPRE.                      No:  High Pressure 
 HTEM.                      No:  High Temp 
 HYDO.m                   1.80:  Hydro Offset 
 IFIN.deg                66.71:  Inc, Final 
 IMAX.deg                67.03:  Inc Max 
 IMIN.deg                66.63:  Inc Min 
 IMND.m                4550.58:  Inc Min Depth 
 IMXD.m                4439.01:  Inc Max Depth 
 JARR.                      No:  Jarring 
 LETM.      10.45.04 08-May-21:  Log End Time 
 LOST.hr                     0:  Lost Rig Time 
 LSTM.      03.30.04 04-May-21:  Log Start Time 
 MDCL.ppm             37000.00:  Mud Chlorides 
 MDES.     Inversion Oil/Synthetic:  Mud Desc 
 DFD .sg                  1.38:  Mud Density 
 MDMN.sg                  1.35:  Dens Mud Min 
 MDMX.sg                  1.40:  Dens Mud Max 
 MOIL.                   57.40:  Run Mud Oil % 
 MOWR.                   70:30:  Run Mud OWR 
 MSND.                    0.00:  Run Mud Sand % 
 MSOL.                   18.00:  Run Mud Solids% 
 DFV .spqt               71.00:  Mud Viscosity 
 MWOD.in                  6.75:  MWD Tool OD 
 MWSI.                      No:  Serv Intrp, MWD 
 OTIM.hr                242.76:  Time Operating 
 PCON.           Look Like New:  Pad Condition 
 PMAX.psia            12183.92:  Press Op, Max 
 PV  .cP                 27.00:  Mud PV 
 RUN .                    1300:  Run Number 
 ROPA.m/hr               15.00:  ROP Avg 
 ROPN.m/hr                9.00:  ROP Min 
 ROPX.m/hr               19.00:  ROP Max 
 RPMA.rpm               120.00:  RPM Surface Avg 
 RPMN.rpm               100.00:  RPM Surface Min 
 RPMX.rpm               120.00:  RPM Surface Max 
 RRUN.                    1300:  Rig Run Number 
 RTIM.hr                  5.00:  Time Reaming 
 SAZI.deg               304.73:  Azm, Start 
 SDEP.m                4412.01:  Start Depth 
 SIDD.                      No:  Serv Intrp, DD 
 SINC.deg                66.82:  Inc, Start 
 SPPA.psig             2800.00:  SPP Avg 
 SPPN.psig             2610.00:  SPP Min 
 SPPX.psig             3100.00:  SPP Max 
 STIM.      03.30.00 04-May-21:  Start Time 
 SVCS.                 DD, MWD:  Services 
 SVER.                    9.20:  Sperry Version 
 TDAT.m                 228.00:  Tot Depth Attmp 
 TDDF.                      No:  Trip for DD 
 TDLG.m                 228.00:  Tot Depth Loggd 
 TFF .                      No:  Trip for Fail 
 TQAA.f-kp               15.00:  Torque Abs Avg 
 TQAN.f-kp               12.00:  Torque Abs Min 
 TQAX.f-kp               22.00:  Torque Abs Max 
 TRRT.°/30m               0.00:  Turn Rotating 
 MRT .                    HCIM:  Maximum Recorded Temperature 
 TTMX.degC               90.20:  Max Tool Temp 
 VS01.                90627813:  Virtual Str1 SN 
 VS02.                90634712:  Virtual Str2 SN 
 VS03.                90643410:  Virtual Str3 SN 
 VS04.                90634712:  Virtual Str4 SN 
 WBMN.klb                 9.00:  WOB Min 
 WITN.        Elmaddin Rahimov:  Customer Rep 
 WITN.         Haytham Mostafa:  Customer Rep 2 
 WOBA.klb                15.00:  WOB Avg 
 WOBX.klb                23.00:  WOB Max 
 YP  .lhf2               29.00:  Yield Point 
~Curve Information Block
#MNEM.UNIT                 API CODE     Curve Description
#---------               -----------    ---------------------------
 TIME.HHMMSS            00 000 000 000:  GT Time & Date
 GTDEPTH.m              00 000 000 000:  GT Depth
 GTPQH.psia             00 000 000 000:  GT HR Quartz Pressure
 GTTQ.degC              00 000 000 000:  GT Quartz Temperature
 GTTN.NONE              00 000 000 000:  GT Test Number
 GTET.sec               00 000 000 000:  GT Elapsed Test Time
 GTTVD.m                00 000 000 000:  GT True Vertical Depth
#Other Information
#
#WARRANTY: Halliburton will use its best efforts to furnish customers with 
#accurate information and interpretations that are part of, and incident to, the services 
#provided.  However, Halliburton cannot and does not warrant the accuracy 
#or correctness of such information and interpretations.  Under no circumstances should any 
#such information or interpretation be relied upon as the sole basis for any drilling, 
#completion, production, or financial decision or any procedure involving any risk to the 
#safety of any drilling venture, drilling rig or its crew or any other third party.  The 
#Customer has full responsibility for all drilling, completion and production operation.  
#Halliburton makes no representations or warranties, either expressed or 
#implied, including, but not limited to, the implied warranties of merchantability or fitness 
#for a particular purpose, with respect to the services rendered.  In no event will 
#Halliburton be liable for failure to obtain any particular results or for 
#any damages, including, but not limited to, indirect, special or consequential damages, 
#resulting from the use of any information or interpretation provided by Halliburton.
#
~A           TIME           GTDEPTH  GTPQH  GTTQ  GTTN  GTET   GTTVD  
# ...
   00:14:40.516.09-May-2021 4527.01 3260.40 68.18 6.00 138.05 2982.74
   00:14:40.716.09-May-2021 4527.01 3260.40 68.18 6.00 138.25 2982.74
   00:14:40.916.09-May-2021 4527.01 3260.39 68.18 6.00 138.45 2982.74
   00:14:41.117.09-May-2021 4527.01 3260.39 68.18 6.00 138.65 2982.74
   00:14:41.317.09-May-2021 4527.01 3260.40 68.18 6.00 138.85 2982.74
   00:14:41.517.09-May-2021 4527.01 3260.39 68.18 6.00 139.05 2982.74
   00:14:41.717.09-May-2021 4527.01 3260.39 68.18 6.00 139.25 2982.74
   00:14:41.917.09-May-2021 4527.01 3260.39 68.18 6.00 139.45 2982.74
   00:14:42.117.09-May-2021 4527.01 3260.38 68.18 6.00 139.65 2982.74
   00:14:42.317.09-May-2021 4527.01 3260.25 68.18 6.00 139.85 2982.74
   00:14:42.517.09-May-2021 4527.01 3260.59 68.18 6.00 140.05 2982.74
   00:14:42.717.09-May-2021 4527.01 3260.59 68.18 6.00 140.25 2982.74
   00:14:42.917.09-May-2021 4527.01 3260.45 68.18 6.00 140.45 2982.74
   00:14:43.117.09-May-2021 4527.01 3260.40 68.18 6.00 140.65 2982.74
   00:14:43.317.09-May-2021 4527.01 3260.37 68.18 6.00 140.85 2982.74
   00:14:43.517.09-May-2021 4527.01 3260.20 68.18 6.00 141.05 2982.74
   00:14:43.718.09-May-2021 4527.01 3260.20 68.18 6.00 141.25 2982.74
   00:14:43.918.09-May-2021 4527.01 3260.28 68.18 6.00 141.45 2982.74
   00:14:44.118.09-May-2021 4527.01 3260.34 68.18 6.00 141.65 2982.74
   00:14:44.318.09-May-2021 4527.01 3260.25 68.18 6.00 141.85 2982.74
   00:14:44.518.09-May-2021 4527.01 3260.60 68.18 6.00 142.05 2982.74
   00:14:44.718.09-May-2021 4527.01 3260.60 68.18 6.00 142.25 2982.74
   00:14:44.918.09-May-2021 4527.01 3260.44 68.18 6.00 142.45 2982.74
   00:14:45.118.09-May-2021 4527.01 3260.39 68.18 6.00 142.65 2982.74
   00:14:45.318.09-May-2021 4527.01 3260.36 68.18 6.00 142.85 2982.74
   00:14:45.518.09-May-2021 4527.01 3260.39 68.18 6.00 143.05 2982.74
   00:14:45.718.09-May-2021 4527.01 3260.39 68.18 6.00 143.25 2982.74
   00:14:45.918.09-May-2021 4527.01 3260.35 68.18 6.00 143.45 2982.74
   00:14:46.118.09-May-2021 4527.01 3260.28 68.18 6.00 143.65 2982.74
   00:14:46.318.09-May-2021 4527.01 3260.39 68.18 6.00 143.85 2982.74
   00:14:46.519.09-May-2021 4527.01 3260.36 68.18 6.00 144.05 2982.74
   00:14:46.719.09-May-2021 4527.01 3260.36 68.18 6.00 144.25 2982.74
   00:14:46.919.09-May-2021 4527.01 3260.37 68.18 6.00 144.45 2982.74
   00:14:47.119.09-May-2021 4527.01 3260.39 68.18 6.00 144.65 2982.74
   00:14:47.319.09-May-2021 4527.01 3260.38 68.18 6.00 144.85 2982.74
   00:14:47.519.09-May-2021 4527.01 3260.38 68.18 6.00 145.05 2982.74
   00:14:47.719.09-May-2021 4527.01 3260.38 68.18 6.00 145.25 2982.74
   00:14:47.919.09-May-2021 4527.01 3260.35 68.18 6.00 145.45 2982.74
   00:14:48.119.09-May-2021 4527.01 3260.41 68.18 6.00 145.65 2982.74
   00:14:48.319.09-May-2021 4527.01 3260.45 68.18 6.00 145.85 2982.74
   00:14:48.519.09-May-2021 4527.01 3260.35 68.18 6.00 146.05 2982.74
   00:14:48.719.09-May-2021 4527.01 3260.35 68.18 6.00 146.25 2982.74
   00:14:48.919.09-May-2021 4527.01 3260.38 68.18 6.00 146.45 2982.74
   00:14:49.119.09-May-2021 4527.01 3260.37 68.18 6.00 146.65 2982.74
   00:14:49.320.09-May-2021 4527.01 3260.37 68.18 6.00 146.85 2982.74
   00:14:49.520.09-May-2021 4527.01 3260.38 68.18 6.00 147.05 2982.74
   00:14:49.720.09-May-2021 4527.01 3260.38 68.18 6.00 147.25 2982.74
   00:14:49.920.09-May-2021 4527.01 3260.36 68.18 6.00 147.45 2982.74
   00:14:50.120.09-May-2021 4527.01 3260.39 68.18 6.00 147.65 2982.74
   00:14:50.320.09-May-2021 4527.01 3260.36 68.18 6.00 147.85 2982.74
   00:14:50.520.09-May-2021 4527.01 3260.35 68.18 6.00 148.05 2982.74
   00:14:50.720.09-May-2021 4527.01 3260.35 68.18 6.00 148.25 2982.74
   00:14:50.920.09-May-2021 4527.01 3260.44 68.18 6.00 148.45 2982.74
   00:14:51.120.09-May-2021 4527.01 3259.62 68.18 6.00 148.65 2982.74
   00:14:51.320.09-May-2021 4527.01 2985.00 68.18 6.00 148.85 2982.74
   00:14:51.520.09-May-2021 4527.01 2338.15 68.18 6.00 149.05 2982.74
   00:14:51.720.09-May-2021 4527.01 2338.15 68.18 6.00 149.25 2982.74
   00:14:51.920.09-May-2021 4527.01 1422.92 68.18 6.00 149.45 2982.74
   00:14:52.121.09-May-2021 4527.01 1150.54 68.18 6.00 149.65 2982.74
   00:14:52.321.09-May-2021 4527.01  942.33 68.17 6.00 149.85 2982.74
   00:14:52.521.09-May-2021 4527.01  882.70 68.17 6.00 150.05 2982.74
   00:14:52.721.09-May-2021 4527.01  882.70 68.17 6.00 150.25 2982.74
   00:14:52.921.09-May-2021 4527.01  951.11 68.17 6.00 150.45 2982.74
   00:14:53.121.09-May-2021 4527.01  961.40 68.17 6.00 150.65 2982.74
   00:14:53.321.09-May-2021 4527.01  952.79 68.17 6.00 150.85 2982.74
   00:14:53.521.09-May-2021 4527.01  943.14 68.17 6.00 151.05 2982.74
   00:14:53.721.09-May-2021 4527.01  943.14 68.17 6.00 151.25 2982.74
   00:14:53.921.09-May-2021 4527.01  915.40 68.17 6.00 151.45 2982.74
   00:14:54.121.09-May-2021 4527.01  898.58 68.16 6.00 151.65 2982.74
   00:14:54.321.09-May-2021 4527.01  877.66 68.16 6.00 151.86 2982.74
   00:14:54.521.09-May-2021 4527.01  854.41 68.16 6.00 152.06 2982.74
   00:14:54.722.09-May-2021 4527.01  854.41 68.16 6.00 152.26 2982.74
   00:14:54.922.09-May-2021 4527.01  834.43 68.16 6.00 152.46 2982.74
   00:14:55.122.09-May-2021 4527.01  830.64 68.16 6.00 152.66 2982.74
   00:14:55.322.09-May-2021 4527.01  831.08 68.15 6.00 152.86 2982.74
   00:14:55.522.09-May-2021 4527.01  834.18 68.15 6.00 153.06 2982.74
   00:14:55.722.09-May-2021 4527.01  834.18 68.15 6.00 153.26 2982.74
   00:14:55.922.09-May-2021 4527.01  821.66 68.15 6.00 153.46 2982.74
   00:14:56.122.09-May-2021 4527.01  826.81 68.15 6.00 153.66 2982.74
   00:14:56.322.09-May-2021 4527.01  834.10 68.15 6.00 153.86 2982.74
   00:14:56.522.09-May-2021 4527.01  840.72 68.14 6.00 154.06 2982.74
   00:14:56.722.09-May-2021 4527.01  840.72 68.14 6.00 154.26 2982.74
   00:14:56.922.09-May-2021 4527.01  822.69 68.14 6.00 154.46 2982.74
   00:14:57.122.09-May-2021 4527.01  810.80 68.14 6.00 154.66 2982.74
   00:14:57.322.09-May-2021 4527.01  809.51 68.14 6.00 154.86 2982.74
   00:14:57.523.09-May-2021 4527.01  810.62 68.14 6.00 155.06 2982.74
   00:14:57.723.09-May-2021 4527.01  810.62 68.14 6.00 155.26 2982.74
   00:14:57.923.09-May-2021 4527.01  811.83 68.13 6.00 155.46 2982.74
   00:14:58.123.09-May-2021 4527.01  813.56 68.13 6.00 155.66 2982.74
   00:14:58.323.09-May-2021 4527.01  818.91 68.13 6.00 155.86 2982.74
   00:14:58.523.09-May-2021 4527.01  821.37 68.13 6.00 156.06 2982.74
   00:14:58.723.09-May-2021 4527.01  821.37 68.13 6.00 156.26 2982.74
   00:14:58.923.09-May-2021 4527.01  817.55 68.13 6.00 156.46 2982.74
   00:14:59.123.09-May-2021 4527.01  821.97 68.13 6.00 156.66 2982.74
   00:14:59.323.09-May-2021 4527.01  815.37 68.13 6.00 156.86 2982.74
   00:14:59.523.09-May-2021 4527.01  803.64 68.13 6.00 157.06 2982.74
   00:14:59.723.09-May-2021 4527.01  803.64 68.13 6.00 157.26 2982.74
   00:14:59.923.09-May-2021 4527.01  787.23 68.12 6.00 157.46 2982.74
   00:15:00.123.09-May-2021 4527.01  795.06 68.12 6.00 157.66 2982.74
   00:15:00.324.09-May-2021 4527.01  844.59 68.12 6.00 157.86 2982.74
   00:15:00.524.09-May-2021 4527.01  889.19 68.12 6.00 158.06 2982.74
   00:15:00.724.09-May-2021 4527.01  889.19 68.12 6.00 158.26 2982.74
   00:15:00.924.09-May-2021 4527.01  923.42 68.12 6.00 158.46 2982.74
   00:15:01.124.09-May-2021 4527.01  917.98 68.12 6.00 158.66 2982.74
   00:15:01.324.09-May-2021 4527.01  909.55 68.12 6.00 158.86 2982.74
   00:15:01.524.09-May-2021 4527.01 1024.16 68.12 6.00 159.06 2982.74
   00:15:01.724.09-May-2021 4527.01 1024.16 68.12 6.00 159.26 2982.74
   00:15:01.924.09-May-2021 4527.01 1342.09 68.12 6.00 159.46 2982.74
   00:15:02.124.09-May-2021 4527.01 1481.48 68.12 6.00 159.66 2982.74
   00:15:02.324.09-May-2021 4527.01 1610.70 68.12 6.00 159.86 2982.74
   00:15:02.524.09-May-2021 4527.01 1729.40 68.12 6.00 160.06 2982.74
   00:15:02.724.09-May-2021 4527.01 1729.40 68.12 6.00 160.26 2982.74
   00:15:02.924.09-May-2021 4527.01 1940.93 68.12 6.00 160.46 2982.74
   00:15:03.125.09-May-2021 4527.01 2034.97 68.11 6.00 160.66 2982.74
   00:15:03.325.09-May-2021 4527.01 2122.39 68.12 6.00 160.86 2982.74
