~Version Information
 VERS.                  2.0:   CWLS log ASCII Standard -VERSION 2.0
 WRAP.                   NO:   One line per depth step
~Well Information Block
#MNEM.UNIT     VALUE/NAME     DESCRIPTION
#---------     -----------    ---------------------------
 STRT.S             07:52:13 09-May-21: START TIME 07:52:13 09-May-21
 STOP.S             07:59:09 09-May-21: STOP TIME  07:59:09 09-May-21
 STEP.S                   0.00: STEP TIME
 NULL.                 -999.25: NULL VALUE
 PROV.                    Baku:  PROVINCE
 STAT.                    Baku:  STATE NAME
 SON .        AZ-XX-0906571588:  JOB NUMBER
 WTYP.                Deviated:  WELL TYPE
 COMP.     BP Exploration (Caspian Sea) ltd:  COMPANY
 BASE.              Azerbaijan:  LOGGING EQUIPMENT BASE LOCATION
 REGN.                   EESSA:  REGION
 CTRY.              Azerbaijan:  COUNTRY NAME
 FLD .                     ACG:  FIELD NAME
 WELL.                     J28:  WELL NAME
 RIG .             West Chirag:  RIG NAME
 DMF .             Drill Floor:  DRILL MEAS FROM
 PDAT.       Caspian Sea Level:  PERMANENT DATUM
 HPTY.       Minimum Curvature:  HOLE POS TYPE
 MDS .        Operator Entered:  MAG DATA SOURCE
 NREF.                    Grid:  NORTH REFERENCE
 SRVC.          TURAN DRILLING:  CONTRACTOR
 JOBN.        AZ-XX-0906571588:  JOB TICKET NUMB
 DCON.     Halliburton Sperry Drilling:  DIRECTNL CONTR
 STIM.      00.44.00 11-Feb-21:  START TIME
 DATE.      00.00.00 05-May-21:  END TIME
 SPUD.               13-Feb-21:  SPUD DATE
 MWDS.                    Baku:  MWD SHOP
 DOE .                     N/A:  DOE NUMBER
 UNIT.                     N/A:  LOGGING EQUIPMENT ID
 UWI .                     N/A:  UNIQUE WELL IDENTIFIER
 API .                     N/A:  API NUMBER
 CNTY.                        :  COUNTY
 LOC .                        :  LOCATION
 LMF .             Drill Floor:  LOG MEASURED FROM
 TVDS.m                  43.00:  TVDSS CORRECTN
 SDEP.m                 341.00:  START DEPTH
 EGL .m                   0.00:  GROUND ELEVATION
 WDMS.m                 169.80:  WD ELEV
 AGAP.m                  43.00:  AIR GAP
 EPD .m                   0.00:  ELEVATION
 APD .m                  43.00:  DEPTH ABOVE PD
 LATI.deg                40.13:  LATITUDE
 LONG.deg                51.22:  LONGITUDE
 UTMY.m             4443793.85:  UTM Y
 UTMX.m              519005.06:  UTM X
 WHEW.m                 -11.57:  WELL HEAD E/W
 WHNS.m                   8.57:  WELL HEAD N/S
 VSEW.m                 -11.57:  VERT SEC E/W
 VSNS.m                   8.57:  VERT SEC N/S
 DFWL.m                   0.00:  DISTANCE FWL
 DFSL.m                   0.00:  DISTANCE FSL
 VSDR.deg               299.34:  VERT SEC DIRECT
 GVFD.g                   1.00:  GRAVITY FIELD
 AZTC.deg                 6.36:  AZM TOTAL CORR
 MFLD.nT              50391.00:  MAGNETIC FIELD
 MDIP.deg                59.65:  MAGNETIC DIP
 MDEC.deg                 6.48:  MAGNETIC DECL
 GRDC.deg                 0.12:  GRID CORRECTION
 DEP .m                 334.96:  DEPTH
 TDD .m                1407.26:  TOTAL DEPTH (DRILLER)
 EKB .m                  43.00:  KB ELEVATION
 EDF .m                  43.00:  DF ELEVATION
 TDL .m                 228.00:  TOTAL DEPTH (LOGGER)
 VSC .                       0:  VS TO CLOSURE
 MAGU.                 1854484:  MAGUTM CHECKSUM
~Parameter Information Block
#MNEM.UNIT       Value        Description
#---------     -----------    ---------------------------
 AV  .mps                 4.00:  Ann Velocity 
 AVMX.mps                 4.73:  Max Ann Veloc 
 AZIF.deg               304.48:  Azm, Final 
 BHAT.        Rotary Steerable:  BHA Type 
 BREV.rev            257300.00:  Rev Bit Total 
 BROT.°/30m               0.00:  Build Rotating 
 BS  .in                  8.50:  Bit Size 
 BSZ .in                  8.50:  Bit Size 
 BTPL.psig              589.00:  Bit Press Loss 
 CABU.                      No:  Customer Abuse 
 CGEO.          Mubariz ghayev:  Customer Geo 
 TCS .hr                 64.25:  Time Ciculation Ended 
 CV  .mps                 3.50:  Crit Velocity 
 CVMX.mps                 4.52:  Max Crit Veloc 
 DD1 .             Aziz Aliyev:  Direct Drillr 1 
 DD2 .         Intigam Rahimov:  Direct Drillr 2 
 DD3 .          Rashad Habibov:  Direct Drillr 3 
 DDSV.               Geo-Pilot:  DD Service 
 DEFF.%                  98.00:  % Det Eff 
 DLRX.°/30m               0.00:  Dogleg Rot Max 
 DLSO.°/30m               0.00:  Dogleg Oriented 
 DLSX.°/30m               0.00:  Dogleg Str Max 
 DRET.      10.45.04 08-May-21:  Drill End Time 
 DRST.      03.30.04 04-May-21:  Drill Start Tim 
 DTIM.hr                 14.97:  Time Drilling 
 EDEP.m                4640.01:  End Depth 
 ENG1.         Dail Mahammadov:  Engineer 1 
 ENG2.           Eldar Hajiyev:  Engineer 2 
 ENG3.       Bakhtiar Jabbarli:  Engineer 3 
 ENG4.       Natik Hasanagayev:  Engineer 4 
 ETIM.      09.30.04 14-May-21:  End Time 
 FLOI.gpm               460.00:  Flow In 
 FLON.gpm               200.00:  Flow In Min 
 FLOS.cptm                0.00:  Fluid Loss 
 FLOX.gpm               505.00:  Flow In Max 
 HFLO.                      No:  High Flow 
 HPRE.                      No:  High Pressure 
 HTEM.                      No:  High Temp 
 HYDO.m                   1.80:  Hydro Offset 
 IFIN.deg                66.71:  Inc, Final 
 IMAX.deg                67.03:  Inc Max 
 IMIN.deg                66.63:  Inc Min 
 IMND.m                4550.58:  Inc Min Depth 
 IMXD.m                4439.01:  Inc Max Depth 
 JARR.                      No:  Jarring 
 LETM.      10.45.04 08-May-21:  Log End Time 
 LOST.hr                     0:  Lost Rig Time 
 LSTM.      03.30.04 04-May-21:  Log Start Time 
 MDCL.ppm             37000.00:  Mud Chlorides 
 MDES.     Inversion Oil/Synthetic:  Mud Desc 
 DFD .sg                  1.38:  Mud Density 
 MDMN.sg                  1.35:  Dens Mud Min 
 MDMX.sg                  1.40:  Dens Mud Max 
 MOIL.                   57.40:  Run Mud Oil % 
 MOWR.                   70:30:  Run Mud OWR 
 MSND.                    0.00:  Run Mud Sand % 
 MSOL.                   18.00:  Run Mud Solids% 
 DFV .spqt               71.00:  Mud Viscosity 
 MWOD.in                  6.75:  MWD Tool OD 
 MWSI.                      No:  Serv Intrp, MWD 
 OTIM.hr                242.76:  Time Operating 
 PCON.           Look Like New:  Pad Condition 
 PMAX.psia            12183.92:  Press Op, Max 
 PV  .cP                 27.00:  Mud PV 
 RUN .                    1300:  Run Number 
 ROPA.m/hr               15.00:  ROP Avg 
 ROPN.m/hr                9.00:  ROP Min 
 ROPX.m/hr               19.00:  ROP Max 
 RPMA.rpm               120.00:  RPM Surface Avg 
 RPMN.rpm               100.00:  RPM Surface Min 
 RPMX.rpm               120.00:  RPM Surface Max 
 RRUN.                    1300:  Rig Run Number 
 RTIM.hr                  5.00:  Time Reaming 
 SAZI.deg               304.73:  Azm, Start 
 SDEP.m                4412.01:  Start Depth 
 SIDD.                      No:  Serv Intrp, DD 
 SINC.deg                66.82:  Inc, Start 
 SPPA.psig             2800.00:  SPP Avg 
 SPPN.psig             2610.00:  SPP Min 
 SPPX.psig             3100.00:  SPP Max 
 STIM.      03.30.00 04-May-21:  Start Time 
 SVCS.                 DD, MWD:  Services 
 SVER.                    9.20:  Sperry Version 
 TDAT.m                 228.00:  Tot Depth Attmp 
 TDDF.                      No:  Trip for DD 
 TDLG.m                 228.00:  Tot Depth Loggd 
 TFF .                      No:  Trip for Fail 
 TQAA.f-kp               15.00:  Torque Abs Avg 
 TQAN.f-kp               12.00:  Torque Abs Min 
 TQAX.f-kp               22.00:  Torque Abs Max 
 TRRT.°/30m               0.00:  Turn Rotating 
 MRT .                    HCIM:  Maximum Recorded Temperature 
 TTMX.degC               90.20:  Max Tool Temp 
 VS01.                90627813:  Virtual Str1 SN 
 VS02.                90634712:  Virtual Str2 SN 
 VS03.                90643410:  Virtual Str3 SN 
 VS04.                90634712:  Virtual Str4 SN 
 WBMN.klb                 9.00:  WOB Min 
 WITN.        Elmaddin Rahimov:  Customer Rep 
 WITN.         Haytham Mostafa:  Customer Rep 2 
 WOBA.klb                15.00:  WOB Avg 
 WOBX.klb                23.00:  WOB Max 
 YP  .lhf2               29.00:  Yield Point 
~Curve Information Block
#MNEM.UNIT                 API CODE     Curve Description
#---------               -----------    ---------------------------
 TIME.HHMMSS            00 000 000 000:  GT Time & Date
 GTDEPTH.m              00 000 000 000:  GT Depth
 GTPQH.psia             00 000 000 000:  GT HR Quartz Pressure
 GTTQ.degC              00 000 000 000:  GT Quartz Temperature
 GTTN.NONE              00 000 000 000:  GT Test Number
 GTET.sec               00 000 000 000:  GT Elapsed Test Time
 GTTVD.m                00 000 000 000:  GT True Vertical Depth
#Other Information
#
#WARRANTY: Halliburton will use its best efforts to furnish customers with 
#accurate information and interpretations that are part of, and incident to, the services 
#provided.  However, Halliburton cannot and does not warrant the accuracy 
#or correctness of such information and interpretations.  Under no circumstances should any 
#such information or interpretation be relied upon as the sole basis for any drilling, 
#completion, production, or financial decision or any procedure involving any risk to the 
#safety of any drilling venture, drilling rig or its crew or any other third party.  The 
#Customer has full responsibility for all drilling, completion and production operation.  
#Halliburton makes no representations or warranties, either expressed or 
#implied, including, but not limited to, the implied warranties of merchantability or fitness 
#for a particular purpose, with respect to the services rendered.  In no event will 
#Halliburton be liable for failure to obtain any particular results or for 
#any damages, including, but not limited to, indirect, special or consequential damages, 
#resulting from the use of any information or interpretation provided by Halliburton.
#
~A           TIME           GTDEPTH  GTPQH  GTTQ  GTTN   GTET   GTTVD  
# ...
   07:55:36.624.09-May-2021 4413.51 4428.83 65.53 16.00 203.43 2938.18
   07:55:36.824.09-May-2021 4413.51 4428.81 65.53 16.00 203.63 2938.18
   07:55:37.024.09-May-2021 4413.51 4428.82 65.53 16.00 203.83 2938.18
   07:55:37.224.09-May-2021 4413.51 4428.81 65.53 16.00 204.03 2938.18
   07:55:37.424.09-May-2021 4413.51 4428.81 65.53 16.00 204.23 2938.18
   07:55:37.624.09-May-2021 4413.51 4428.83 65.53 16.00 204.43 2938.18
   07:55:37.824.09-May-2021 4413.51 4428.83 65.53 16.00 204.63 2938.18
   07:55:38.024.09-May-2021 4413.51 4429.01 65.53 16.00 204.83 2938.18
   07:55:38.224.09-May-2021 4413.51 4428.70 65.53 16.00 205.03 2938.18
   07:55:38.424.09-May-2021 4413.51 4428.70 65.53 16.00 205.23 2938.18
   07:55:38.624.09-May-2021 4413.51 4428.86 65.53 16.00 205.43 2938.18
   07:55:38.824.09-May-2021 4413.51 4428.75 65.53 16.00 205.63 2938.18
   07:55:39.024.09-May-2021 4413.51 4428.75 65.53 16.00 205.83 2938.18
   07:55:39.224.09-May-2021 4413.51 4428.86 65.53 16.00 206.03 2938.18
   07:55:39.424.09-May-2021 4413.51 4428.86 65.53 16.00 206.23 2938.18
   07:55:39.624.09-May-2021 4413.51 4428.94 65.53 16.00 206.43 2938.18
   07:55:39.824.09-May-2021 4413.51 4428.74 65.53 16.00 206.63 2938.18
   07:55:40.024.09-May-2021 4413.51 4428.74 65.53 16.00 206.83 2938.18
   07:55:40.224.09-May-2021 4413.51 4428.88 65.53 16.00 207.03 2938.18
   07:55:40.424.09-May-2021 4413.51 4428.88 65.53 16.00 207.23 2938.18
   07:55:40.624.09-May-2021 4413.51 4428.84 65.53 16.00 207.43 2938.18
   07:55:40.824.09-May-2021 4413.51 4429.06 65.53 16.00 207.63 2938.18
   07:55:41.024.09-May-2021 4413.51 4428.63 65.53 16.00 207.83 2938.18
   07:55:41.224.09-May-2021 4413.51 4428.84 65.53 16.00 208.03 2938.18
   07:55:41.424.09-May-2021 4413.51 4428.84 65.53 16.00 208.23 2938.18
   07:55:41.624.09-May-2021 4413.51 4428.77 65.53 16.00 208.43 2938.18
   07:55:41.824.09-May-2021 4413.51 4428.80 65.53 16.00 208.63 2938.18
   07:55:42.024.09-May-2021 4413.51 4428.79 65.53 16.00 208.83 2938.18
   07:55:42.224.09-May-2021 4413.51 4428.81 65.53 16.00 209.03 2938.18
   07:55:42.424.09-May-2021 4413.51 4428.81 65.53 16.00 209.23 2938.18
   07:55:42.624.09-May-2021 4413.51 4428.80 65.53 16.00 209.43 2938.18
   07:55:42.824.09-May-2021 4413.51 4428.81 65.53 16.00 209.63 2938.18
   07:55:43.024.09-May-2021 4413.51 4428.81 65.53 16.00 209.83 2938.18
   07:55:43.225.09-May-2021 4413.51 4428.71 65.53 16.00 210.03 2938.18
   07:55:43.425.09-May-2021 4413.51 4428.71 65.53 16.00 210.23 2938.18
   07:55:43.625.09-May-2021 4413.51 4428.79 65.53 16.00 210.43 2938.18
   07:55:43.825.09-May-2021 4413.51 4428.95 65.53 16.00 210.63 2938.18
   07:55:44.025.09-May-2021 4413.51 4428.72 65.53 16.00 210.83 2938.18
   07:55:44.225.09-May-2021 4413.51 4428.81 65.53 16.00 211.03 2938.18
   07:55:44.425.09-May-2021 4413.51 4428.81 65.53 16.00 211.23 2938.18
   07:55:44.625.09-May-2021 4413.51 4428.79 65.53 16.00 211.43 2938.18
   07:55:44.825.09-May-2021 4413.51 4428.80 65.53 16.00 211.63 2938.18
   07:55:45.025.09-May-2021 4413.51 4428.80 65.52 16.00 211.83 2938.18
   07:55:45.225.09-May-2021 4413.51 4428.80 65.52 16.00 212.03 2938.18
   07:55:45.425.09-May-2021 4413.51 4428.80 65.52 16.00 212.23 2938.18
   07:55:45.625.09-May-2021 4413.51 4428.80 65.52 16.00 212.43 2938.18
   07:55:45.825.09-May-2021 4413.51 4428.82 65.52 16.00 212.63 2938.18
   07:55:46.025.09-May-2021 4413.51 4428.94 65.52 16.00 212.83 2938.18
   07:55:46.225.09-May-2021 4413.51 4428.80 65.52 16.00 213.03 2938.18
   07:55:46.425.09-May-2021 4413.51 4428.80 65.52 16.00 213.23 2938.18
   07:55:46.625.09-May-2021 4413.51 4428.77 65.52 16.00 213.43 2938.18
   07:55:46.825.09-May-2021 4413.51 4428.90 65.52 16.00 213.63 2938.18
   07:55:47.025.09-May-2021 4413.51 4428.81 65.52 16.00 213.83 2938.18
   07:55:47.225.09-May-2021 4413.51 4428.90 65.52 16.00 214.03 2938.18
   07:55:47.425.09-May-2021 4413.51 4428.90 65.52 16.00 214.23 2938.18
   07:55:47.625.09-May-2021 4413.51 4428.69 65.52 16.00 214.43 2938.18
   07:55:47.825.09-May-2021 4413.51 4428.93 65.52 16.00 214.63 2938.18
   07:55:48.025.09-May-2021 4413.51 4428.73 65.52 16.00 214.83 2938.18
   07:55:48.225.09-May-2021 4413.51 4428.93 65.52 16.00 215.03 2938.18
   07:55:48.425.09-May-2021 4413.51 4428.93 65.52 16.00 215.23 2938.18
   07:55:48.625.09-May-2021 4413.51 4428.81 65.52 16.00 215.43 2938.18
   07:55:48.825.09-May-2021 4413.51 4428.77 65.52 16.00 215.63 2938.18
   07:55:49.025.09-May-2021 4413.51 4428.87 65.52 16.00 215.83 2938.18
   07:55:49.225.09-May-2021 4413.51 4428.70 65.52 16.00 216.03 2938.18
   07:55:49.425.09-May-2021 4413.51 4428.70 65.52 16.00 216.23 2938.18
   07:55:49.625.09-May-2021 4413.51 4428.75 65.52 16.00 216.43 2938.18
   07:55:49.825.09-May-2021 4413.51 4428.82 65.52 16.00 216.63 2938.18
   07:55:50.025.09-May-2021 4413.51 4428.75 65.52 16.00 216.83 2938.18
   07:55:50.225.09-May-2021 4413.51 4428.78 65.52 16.00 217.03 2938.18
   07:55:50.426.09-May-2021 4413.51 4428.78 65.52 16.00 217.23 2938.18
   07:55:50.626.09-May-2021 4413.51 4428.78 65.52 16.00 217.43 2938.18
   07:55:50.826.09-May-2021 4413.51 4428.79 65.52 16.00 217.63 2938.18
   07:55:51.026.09-May-2021 4413.51 4428.80 65.52 16.00 217.83 2938.18
   07:55:51.226.09-May-2021 4413.51 4428.81 65.52 16.00 218.03 2938.18
   07:55:51.426.09-May-2021 4413.51 4428.81 65.52 16.00 218.23 2938.18
   07:55:51.626.09-May-2021 4413.51 4428.59 65.52 16.00 218.43 2938.18
   07:55:51.826.09-May-2021 4413.51 4428.84 65.52 16.00 218.63 2938.18
   07:55:52.026.09-May-2021 4413.51 4428.76 65.52 16.00 218.83 2938.18
   07:55:52.226.09-May-2021 4413.51 4428.75 65.52 16.00 219.03 2938.18
   07:55:52.426.09-May-2021 4413.51 4428.75 65.52 16.00 219.23 2938.18
   07:55:52.626.09-May-2021 4413.51 4428.78 65.52 16.00 219.43 2938.18
   07:55:52.826.09-May-2021 4413.51 4428.80 65.52 16.00 219.63 2938.18
   07:55:53.026.09-May-2021 4413.51 4428.79 65.52 16.00 219.83 2938.18
   07:55:53.226.09-May-2021 4413.51 4428.78 65.52 16.00 220.03 2938.18
   07:55:53.426.09-May-2021 4413.51 4428.78 65.52 16.00 220.23 2938.18
   07:55:53.626.09-May-2021 4413.51 4428.78 65.52 16.00 220.43 2938.18
   07:55:53.826.09-May-2021 4413.51 4428.81 65.52 16.00 220.63 2938.18
   07:55:54.026.09-May-2021 4413.51 4428.69 65.52 16.00 220.83 2938.18
   07:55:54.226.09-May-2021 4413.51 4428.97 65.52 16.00 221.03 2938.18
   07:55:54.426.09-May-2021 4413.51 4428.97 65.52 16.00 221.23 2938.18
   07:55:54.626.09-May-2021 4413.51 4428.96 65.52 16.00 221.43 2938.18
   07:55:54.826.09-May-2021 4413.51 4428.98 65.52 16.00 221.63 2938.18
   07:55:55.026.09-May-2021 4413.51 4428.59 65.52 16.00 221.83 2938.18
   07:55:55.226.09-May-2021 4413.51 4428.81 65.52 16.00 222.03 2938.18
   07:55:55.426.09-May-2021 4413.51 4428.81 65.52 16.00 222.23 2938.18
   07:55:55.626.09-May-2021 4413.51 4428.74 65.52 16.00 222.43 2938.18
   07:55:55.826.09-May-2021 4413.51 4429.07 65.52 16.00 222.63 2938.18
   07:55:56.026.09-May-2021 4413.51 4428.55 65.52 16.00 222.83 2938.18
   07:55:56.226.09-May-2021 4413.51 4428.83 65.52 16.00 223.03 2938.18
   07:55:56.426.09-May-2021 4413.51 4428.83 65.52 16.00 223.23 2938.18
   07:55:56.626.09-May-2021 4413.51 4428.73 65.52 16.00 223.43 2938.18
   07:55:56.826.09-May-2021 4413.51 4428.80 65.52 16.00 223.63 2938.18
   07:55:57.026.09-May-2021 4413.51 4428.92 65.52 16.00 223.83 2938.18
   07:55:57.226.09-May-2021 4413.51 4428.65 65.52 16.00 224.03 2938.18
   07:55:57.426.09-May-2021 4413.51 4428.65 65.52 16.00 224.23 2938.18
   07:55:57.627.09-May-2021 4413.51 4428.69 65.52 16.00 224.43 2938.18
   07:55:57.827.09-May-2021 4413.51 4428.75 65.52 16.00 224.63 2938.18
   07:55:58.027.09-May-2021 4413.51 4428.78 65.52 16.00 224.83 2938.18
   07:55:58.227.09-May-2021 4413.51 4428.76 65.52 16.00 225.03 2938.18
   07:55:58.427.09-May-2021 4413.51 4428.76 65.52 16.00 225.23 2938.18
   07:55:58.627.09-May-2021 4413.51 4428.77 65.52 16.00 225.43 2938.18
   07:55:58.827.09-May-2021 4413.51 4428.78 65.52 16.00 225.63 2938.18
   07:55:59.027.09-May-2021 4413.51 4428.79 65.52 16.00 225.83 2938.18
