~Version Information
 VERS.                  2.0:   CWLS log ASCII Standard -VERSION 2.0
 WRAP.                   NO:   One line per depth step
~Well Information Block
#MNEM.UNIT     VALUE/NAME     DESCRIPTION
#---------     -----------    ---------------------------
 STRT.S             21:53:52 08-May-21: START TIME 21:53:52 08-May-21
 STOP.S             22:00:27 08-May-21: STOP TIME  22:00:27 08-May-21
 STEP.S                   0.00: STEP TIME
 NULL.                 -999.25: NULL VALUE
 PROV.                    Baku:  PROVINCE
 STAT.                    Baku:  STATE NAME
 SON .        AZ-XX-0906571588:  JOB NUMBER
 WTYP.                Deviated:  WELL TYPE
 COMP.     BP Exploration (Caspian Sea) ltd:  COMPANY
 BASE.              Azerbaijan:  LOGGING EQUIPMENT BASE LOCATION
 REGN.                   EESSA:  REGION
 CTRY.              Azerbaijan:  COUNTRY NAME
 FLD .                     ACG:  FIELD NAME
 WELL.                     J28:  WELL NAME
 RIG .             West Chirag:  RIG NAME
 DMF .             Drill Floor:  DRILL MEAS FROM
 PDAT.       Caspian Sea Level:  PERMANENT DATUM
 HPTY.       Minimum Curvature:  HOLE POS TYPE
 MDS .        Operator Entered:  MAG DATA SOURCE
 NREF.                    Grid:  NORTH REFERENCE
 SRVC.          TURAN DRILLING:  CONTRACTOR
 JOBN.        AZ-XX-0906571588:  JOB TICKET NUMB
 DCON.     Halliburton Sperry Drilling:  DIRECTNL CONTR
 STIM.      00.44.00 11-Feb-21:  START TIME
 DATE.      00.00.00 05-May-21:  END TIME
 SPUD.               13-Feb-21:  SPUD DATE
 MWDS.                    Baku:  MWD SHOP
 DOE .                     N/A:  DOE NUMBER
 UNIT.                     N/A:  LOGGING EQUIPMENT ID
 UWI .                     N/A:  UNIQUE WELL IDENTIFIER
 API .                     N/A:  API NUMBER
 CNTY.                        :  COUNTY
 LOC .                        :  LOCATION
 LMF .             Drill Floor:  LOG MEASURED FROM
 TVDS.m                  43.00:  TVDSS CORRECTN
 SDEP.m                 341.00:  START DEPTH
 EGL .m                   0.00:  GROUND ELEVATION
 WDMS.m                 169.80:  WD ELEV
 AGAP.m                  43.00:  AIR GAP
 EPD .m                   0.00:  ELEVATION
 APD .m                  43.00:  DEPTH ABOVE PD
 LATI.deg                40.13:  LATITUDE
 LONG.deg                51.22:  LONGITUDE
 UTMY.m             4443793.85:  UTM Y
 UTMX.m              519005.06:  UTM X
 WHEW.m                 -11.57:  WELL HEAD E/W
 WHNS.m                   8.57:  WELL HEAD N/S
 VSEW.m                 -11.57:  VERT SEC E/W
 VSNS.m                   8.57:  VERT SEC N/S
 DFWL.m                   0.00:  DISTANCE FWL
 DFSL.m                   0.00:  DISTANCE FSL
 VSDR.deg               299.34:  VERT SEC DIRECT
 GVFD.g                   1.00:  GRAVITY FIELD
 AZTC.deg                 6.36:  AZM TOTAL CORR
 MFLD.nT              50391.00:  MAGNETIC FIELD
 MDIP.deg                59.65:  MAGNETIC DIP
 MDEC.deg                 6.48:  MAGNETIC DECL
 GRDC.deg                 0.12:  GRID CORRECTION
 DEP .m                 334.96:  DEPTH
 TDD .m                1407.26:  TOTAL DEPTH (DRILLER)
 EKB .m                  43.00:  KB ELEVATION
 EDF .m                  43.00:  DF ELEVATION
 TDL .m                 228.00:  TOTAL DEPTH (LOGGER)
 VSC .                       0:  VS TO CLOSURE
 MAGU.                 1854484:  MAGUTM CHECKSUM
~Parameter Information Block
#MNEM.UNIT       Value        Description
#---------     -----------    ---------------------------
 AV  .mps                 4.00:  Ann Velocity 
 AVMX.mps                 4.73:  Max Ann Veloc 
 AZIF.deg               304.48:  Azm, Final 
 BHAT.        Rotary Steerable:  BHA Type 
 BREV.rev            257300.00:  Rev Bit Total 
 BROT.°/30m               0.00:  Build Rotating 
 BS  .in                  8.50:  Bit Size 
 BSZ .in                  8.50:  Bit Size 
 BTPL.psig              589.00:  Bit Press Loss 
 CABU.                      No:  Customer Abuse 
 CGEO.          Mubariz ghayev:  Customer Geo 
 COMM.                     ¤=s:  Run Comments 1 
 TCS .hr                 64.25:  Time Ciculation Ended 
 CV  .mps                 3.50:  Crit Velocity 
 CVMX.mps                 4.52:  Max Crit Veloc 
 DD1 .             Aziz Aliyev:  Direct Drillr 1 
 DD2 .         Intigam Rahimov:  Direct Drillr 2 
 DD3 .          Rashad Habibov:  Direct Drillr 3 
 DDSV.               Geo-Pilot:  DD Service 
 DEFF.%                  98.00:  % Det Eff 
 DLRX.°/30m               0.00:  Dogleg Rot Max 
 DLSO.°/30m               0.00:  Dogleg Oriented 
 DLSX.°/30m               0.00:  Dogleg Str Max 
 DRET.      10.45.04 08-May-21:  Drill End Time 
 DRST.      03.30.04 04-May-21:  Drill Start Tim 
 DTIM.hr                 14.97:  Time Drilling 
 EDEP.m                4640.01:  End Depth 
 ENG1.         Dail Mahammadov:  Engineer 1 
 ENG2.           Eldar Hajiyev:  Engineer 2 
 ENG3.       Bakhtiar Jabbarli:  Engineer 3 
 ENG4.       Natik Hasanagayev:  Engineer 4 
 ETIM.      09.30.04 14-May-21:  End Time 
 FLOI.gpm               460.00:  Flow In 
 FLON.gpm               200.00:  Flow In Min 
 FLOS.cptm                0.00:  Fluid Loss 
 FLOX.gpm               505.00:  Flow In Max 
 HFLO.                      No:  High Flow 
 HPRE.                      No:  High Pressure 
 HTEM.                      No:  High Temp 
 HYDO.m                   1.80:  Hydro Offset 
 IFIN.deg                66.71:  Inc, Final 
 IMAX.deg                67.03:  Inc Max 
 IMIN.deg                66.63:  Inc Min 
 IMND.m                4550.58:  Inc Min Depth 
 IMXD.m                4439.01:  Inc Max Depth 
 JARR.                      No:  Jarring 
 LETM.      10.45.04 08-May-21:  Log End Time 
 LOST.hr                     0:  Lost Rig Time 
 LSTM.      03.30.04 04-May-21:  Log Start Time 
 MDCL.ppm             37000.00:  Mud Chlorides 
 MDES.     Inversion Oil/Synthetic:  Mud Desc 
 DFD .sg                  1.38:  Mud Density 
 MDMN.sg                  1.35:  Dens Mud Min 
 MDMX.sg                  1.40:  Dens Mud Max 
 MOIL.                   57.40:  Run Mud Oil % 
 MOWR.                   70:30:  Run Mud OWR 
 MSND.                    0.00:  Run Mud Sand % 
 MSOL.                   18.00:  Run Mud Solids% 
 DFV .spqt               71.00:  Mud Viscosity 
 MWOD.in                  6.75:  MWD Tool OD 
 MWSI.                      No:  Serv Intrp, MWD 
 OTIM.hr                242.76:  Time Operating 
 PCON.           Look Like New:  Pad Condition 
 PMAX.psia            12183.92:  Press Op, Max 
 PV  .cP                 27.00:  Mud PV 
 RUN .                    1300:  Run Number 
 ROPA.m/hr               15.00:  ROP Avg 
 ROPN.m/hr                9.00:  ROP Min 
 ROPX.m/hr               19.00:  ROP Max 
 RPMA.rpm               120.00:  RPM Surface Avg 
 RPMN.rpm               100.00:  RPM Surface Min 
 RPMX.rpm               120.00:  RPM Surface Max 
 RRUN.                    1300:  Rig Run Number 
 RTIM.hr                  5.00:  Time Reaming 
 SAZI.deg               304.73:  Azm, Start 
 SDEP.m                4412.01:  Start Depth 
 SIDD.                      No:  Serv Intrp, DD 
 SINC.deg                66.82:  Inc, Start 
 SPPA.psig             2800.00:  SPP Avg 
 SPPN.psig             2610.00:  SPP Min 
 SPPX.psig             3100.00:  SPP Max 
 STIM.      03.30.00 04-May-21:  Start Time 
 SVCS.                 DD, MWD:  Services 
 SVER.                    9.20:  Sperry Version 
 TDAT.m                 228.00:  Tot Depth Attmp 
 TDDF.                      No:  Trip for DD 
 TDLG.m                 228.00:  Tot Depth Loggd 
 TFF .                      No:  Trip for Fail 
 TQAA.f-kp               15.00:  Torque Abs Avg 
 TQAN.f-kp               12.00:  Torque Abs Min 
 TQAX.f-kp               22.00:  Torque Abs Max 
 TRRT.°/30m               0.00:  Turn Rotating 
 MRT .                    HCIM:  Maximum Recorded Temperature 
 TTMX.degC               90.20:  Max Tool Temp 
 VS01.                90627813:  Virtual Str1 SN 
 VS02.                90634712:  Virtual Str2 SN 
 VS03.                90643410:  Virtual Str3 SN 
 VS04.                90634712:  Virtual Str4 SN 
 WBMN.klb                 9.00:  WOB Min 
 WITN.        Elmaddin Rahimov:  Customer Rep 
 WITN.         Haytham Mostafa:  Customer Rep 2 
 WOBA.klb                15.00:  WOB Avg 
 WOBX.klb                23.00:  WOB Max 
 YP  .lhf2               29.00:  Yield Point 
~Curve Information Block
#MNEM.UNIT                 API CODE     Curve Description
#---------               -----------    ---------------------------
 TIME.HHMMSS            00 000 000 000:  GT Time & Date
 GTDEPTH.m              00 000 000 000:  GT Depth
 GTPQH.psia             00 000 000 000:  GT HR Quartz Pressure
 GTTQ.degC              00 000 000 000:  GT Quartz Temperature
 GTTN.NONE              00 000 000 000:  GT Test Number
 GTET.sec               00 000 000 000:  GT Elapsed Test Time
 GTTVD.m                00 000 000 000:  GT True Vertical Depth
#Other Information
#
#WARRANTY: Halliburton will use its best efforts to furnish customers with 
#accurate information and interpretations that are part of, and incident to, the services 
#provided.  However, Halliburton cannot and does not warrant the accuracy 
#or correctness of such information and interpretations.  Under no circumstances should any 
#such information or interpretation be relied upon as the sole basis for any drilling, 
#completion, production, or financial decision or any procedure involving any risk to the 
#safety of any drilling venture, drilling rig or its crew or any other third party.  The 
#Customer has full responsibility for all drilling, completion and production operation.  
#Halliburton makes no representations or warranties, either expressed or 
#implied, including, but not limited to, the implied warranties of merchantability or fitness 
#for a particular purpose, with respect to the services rendered.  In no event will 
#Halliburton be liable for failure to obtain any particular results or for 
#any damages, including, but not limited to, indirect, special or consequential damages, 
#resulting from the use of any information or interpretation provided by Halliburton.
#
~A           TIME           GTDEPTH  GTPQH  GTTQ  GTTN  GTET   GTTVD  
# ...
   21:55:24.000.08-May-2021 4568.51  844.29 68.97 3.00  92.00 2999.18
   21:55:24.200.08-May-2021 4568.51  844.29 68.97 3.00  92.20 2999.18
   21:55:24.400.08-May-2021 4568.51  844.35 68.97 3.00  92.40 2999.18
   21:55:24.600.08-May-2021 4568.51  844.94 68.97 3.00  92.60 2999.18
   21:55:24.800.08-May-2021 4568.51  845.45 68.97 3.00  92.80 2999.18
   21:55:25.000.08-May-2021 4568.51  845.52 68.97 3.00  93.00 2999.18
   21:55:25.200.08-May-2021 4568.51  845.52 68.97 3.00  93.20 2999.18
   21:55:25.400.08-May-2021 4568.51  845.34 68.97 3.00  93.40 2999.18
   21:55:25.600.08-May-2021 4568.51  846.34 68.97 3.00  93.60 2999.18
   21:55:25.800.08-May-2021 4568.51  846.10 68.97 3.00  93.80 2999.18
   21:55:26.000.08-May-2021 4568.51  845.84 68.97 3.00  94.00 2999.18
   21:55:26.200.08-May-2021 4568.51  845.84 68.97 3.00  94.20 2999.18
   21:55:26.400.08-May-2021 4568.51  846.67 68.97 3.00  94.40 2999.18
   21:55:26.600.08-May-2021 4568.51  846.96 68.97 3.00  94.60 2999.18
   21:55:26.800.08-May-2021 4568.51  847.05 68.97 3.00  94.80 2999.18
   21:55:27.000.08-May-2021 4568.51  847.22 68.97 3.00  95.00 2999.18
   21:55:27.200.08-May-2021 4568.51  847.22 68.97 3.00  95.20 2999.18
   21:55:27.400.08-May-2021 4568.51  847.65 68.97 3.00  95.40 2999.18
   21:55:27.600.08-May-2021 4568.51  847.87 68.97 3.00  95.60 2999.18
   21:55:27.800.08-May-2021 4568.51  848.06 68.97 3.00  95.80 2999.18
   21:55:28.000.08-May-2021 4568.51  848.28 68.97 3.00  96.00 2999.18
   21:55:28.200.08-May-2021 4568.51  848.28 68.97 3.00  96.20 2999.18
   21:55:28.400.08-May-2021 4568.51  848.64 68.97 3.00  96.40 2999.18
   21:55:28.600.08-May-2021 4568.51  848.43 68.97 3.00  96.60 2999.18
   21:55:28.800.08-May-2021 4568.51  849.45 68.97 3.00  96.80 2999.18
   21:55:29.000.08-May-2021 4568.51  849.35 68.97 3.00  97.00 2999.18
   21:55:29.200.08-May-2021 4568.51  849.35 68.97 3.00  97.20 2999.18
   21:55:29.400.08-May-2021 4568.51  849.48 68.97 3.00  97.40 2999.18
   21:55:29.600.08-May-2021 4568.51  849.81 68.97 3.00  97.60 2999.18
   21:55:29.800.08-May-2021 4568.51  850.01 68.97 3.00  97.80 2999.18
   21:55:30.000.08-May-2021 4568.51  850.19 68.97 3.00  98.00 2999.18
   21:55:30.200.08-May-2021 4568.51  850.19 68.97 3.00  98.20 2999.18
   21:55:30.400.08-May-2021 4568.51  850.53 68.97 3.00  98.40 2999.18
   21:55:30.600.08-May-2021 4568.51  850.71 68.97 3.00  98.60 2999.18
   21:55:30.800.08-May-2021 4568.51  850.88 68.97 3.00  98.80 2999.18
   21:55:31.000.08-May-2021 4568.51  850.74 68.97 3.00  99.00 2999.18
   21:55:31.200.08-May-2021 4568.51  850.74 68.97 3.00  99.20 2999.18
   21:55:31.400.08-May-2021 4568.51  851.73 68.97 3.00  99.40 2999.18
   21:55:31.600.08-May-2021 4568.51  851.78 68.97 3.00  99.60 2999.18
   21:55:31.800.08-May-2021 4568.51  851.49 68.97 3.00  99.80 2999.18
   21:55:32.000.08-May-2021 4568.51  852.29 68.97 3.00 100.00 2999.18
   21:55:32.200.08-May-2021 4568.51  852.29 68.97 3.00 100.20 2999.18
   21:55:32.400.08-May-2021 4568.51  852.48 68.97 3.00 100.40 2999.18
   21:55:32.600.08-May-2021 4568.51  852.60 68.97 3.00 100.60 2999.18
   21:55:32.800.08-May-2021 4568.51  852.13 68.97 3.00 100.80 2999.18
   21:55:33.000.08-May-2021 4568.51  853.16 68.97 3.00 101.00 2999.18
   21:55:33.200.08-May-2021 4568.51  853.16 68.97 3.00 101.20 2999.18
   21:55:33.400.08-May-2021 4568.51  853.07 68.97 3.00 101.40 2999.18
   21:55:33.600.08-May-2021 4568.51  853.34 68.97 3.00 101.60 2999.18
   21:55:33.800.08-May-2021 4568.51  853.12 68.97 3.00 101.80 2999.18
   21:55:34.000.08-May-2021 4568.51  854.00 68.97 3.00 102.00 2999.18
   21:55:34.200.08-May-2021 4568.51  854.00 68.97 3.00 102.20 2999.18
   21:55:34.400.08-May-2021 4568.51  853.96 68.97 3.00 102.40 2999.18
   21:55:34.600.08-May-2021 4568.51  854.16 68.97 3.00 102.60 2999.18
   21:55:34.800.08-May-2021 4568.51  854.28 68.97 3.00 102.80 2999.18
   21:55:35.000.08-May-2021 4568.51  854.47 68.97 3.00 103.00 2999.18
   21:55:35.200.08-May-2021 4568.51  854.47 68.97 3.00 103.20 2999.18
   21:55:35.400.08-May-2021 4568.51  854.80 68.97 3.00 103.40 2999.18
   21:55:35.600.08-May-2021 4568.51  854.97 68.97 3.00 103.60 2999.18
   21:55:35.800.08-May-2021 4568.51  855.13 68.97 3.00 103.80 2999.18
   21:55:36.000.08-May-2021 4568.51  855.30 68.97 3.00 104.00 2999.18
   21:55:36.200.08-May-2021 4568.51  855.30 68.97 3.00 104.20 2999.18
   21:55:36.400.08-May-2021 4568.51  855.29 68.97 3.00 104.40 2999.18
   21:55:36.600.08-May-2021 4568.51  856.28 68.97 3.00 104.60 2999.18
   21:55:36.800.08-May-2021 4568.51  856.00 68.97 3.00 104.80 2999.18
   21:55:37.000.08-May-2021 4568.51  856.14 68.97 3.00 105.00 2999.18
   21:55:37.200.08-May-2021 4568.51  856.14 68.97 3.00 105.20 2999.18
   21:55:37.400.08-May-2021 4568.51  856.36 68.97 3.00 105.40 2999.18
   21:55:37.600.08-May-2021 4568.51  856.61 68.97 3.00 105.60 2999.18
   21:55:37.800.08-May-2021 4568.51  856.74 68.97 3.00 105.80 2999.18
   21:55:38.000.08-May-2021 4568.51  856.89 68.97 3.00 106.00 2999.18
   21:55:38.200.08-May-2021 4568.51  856.89 68.97 3.00 106.20 2999.18
   21:55:38.400.08-May-2021 4568.51  857.16 68.97 3.00 106.40 2999.18
   21:55:38.600.08-May-2021 4568.51  857.32 68.97 3.00 106.60 2999.18
   21:55:38.800.08-May-2021 4568.51  857.15 68.97 3.00 106.80 2999.18
   21:55:39.000.08-May-2021 4568.51  857.70 68.97 3.00 107.00 2999.18
   21:55:39.200.08-May-2021 4568.51  857.70 68.97 3.00 107.20 2999.18
   21:55:39.400.08-May-2021 4568.51  857.63 68.97 3.00 107.40 2999.18
   21:55:39.600.08-May-2021 4568.51  858.14 68.97 3.00 107.60 2999.18
   21:55:39.800.08-May-2021 4568.51  858.54 68.97 3.00 107.80 2999.18
   21:55:40.000.08-May-2021 4568.51  858.45 68.97 3.00 108.00 2999.18
   21:55:40.200.08-May-2021 4568.51  858.45 68.97 3.00 108.20 2999.18
   21:55:40.400.08-May-2021 4568.51  858.65 68.97 3.00 108.40 2999.18
   21:55:40.600.08-May-2021 4568.51  858.46 68.97 3.00 108.60 2999.18
   21:55:40.800.08-May-2021 4568.51  859.25 68.97 3.00 108.80 2999.18
   21:55:41.000.08-May-2021 4568.51  858.98 68.97 3.00 109.00 2999.18
   21:55:41.200.08-May-2021 4568.51  858.98 68.97 3.00 109.20 2999.18
   21:55:41.400.08-May-2021 4568.51  859.16 68.97 3.00 109.40 2999.18
   21:55:41.600.08-May-2021 4568.51  859.03 68.97 3.00 109.60 2999.18
   21:55:41.800.08-May-2021 4568.51  860.04 68.97 3.00 109.80 2999.18
   21:55:42.000.08-May-2021 4568.51  859.76 68.97 3.00 110.00 2999.18
   21:55:42.200.08-May-2021 4568.51  859.76 68.97 3.00 110.20 2999.18
   21:55:42.400.08-May-2021 4568.51  860.05 68.97 3.00 110.40 2999.18
   21:55:42.600.08-May-2021 4568.51  860.15 68.97 3.00 110.60 2999.18
   21:55:42.800.08-May-2021 4568.51  860.30 68.97 3.00 110.80 2999.18
   21:55:43.000.08-May-2021 4568.51  860.44 68.97 3.00 111.00 2999.18
   21:55:43.200.08-May-2021 4568.51  860.44 68.97 3.00 111.20 2999.18
   21:55:43.400.08-May-2021 4568.51  860.71 68.97 3.00 111.40 2999.18
   21:55:43.600.08-May-2021 4568.51  860.85 68.97 3.00 111.60 2999.18
   21:55:43.800.08-May-2021 4568.51  861.00 68.97 3.00 111.80 2999.18
   21:55:44.000.08-May-2021 4568.51  860.80 68.97 3.00 112.00 2999.18
   21:55:44.200.08-May-2021 4568.51  860.80 68.97 3.00 112.20 2999.18
   21:55:44.400.08-May-2021 4568.51  861.72 68.97 3.00 112.40 2999.18
   21:55:44.600.08-May-2021 4568.51  861.59 68.97 3.00 112.60 2999.18
   21:55:44.800.08-May-2021 4568.51  861.69 68.97 3.00 112.80 2999.18
   21:55:45.000.08-May-2021 4568.51  861.83 68.97 3.00 113.00 2999.18
   21:55:45.200.08-May-2021 4568.51  861.83 68.97 3.00 113.20 2999.18
   21:55:45.400.08-May-2021 4568.51  862.07 68.97 3.00 113.40 2999.18
   21:55:45.600.08-May-2021 4568.51  862.18 68.97 3.00 113.60 2999.18
   21:55:45.800.08-May-2021 4568.51  862.28 68.97 3.00 113.80 2999.18
   21:55:46.000.08-May-2021 4568.51  862.39 68.97 3.00 114.00 2999.18
   21:55:46.200.08-May-2021 4568.51  862.39 68.97 3.00 114.20 2999.18
   21:55:46.400.08-May-2021 4568.51  862.67 68.97 3.00 114.40 2999.18
   21:55:46.600.08-May-2021 4568.51  862.44 68.97 3.00 114.60 2999.18
   21:55:46.800.08-May-2021 4568.51  863.25 68.97 3.00 114.80 2999.18
