~Version Information
 VERS.                  2.0:   CWLS log ASCII Standard -VERSION 2.0
 WRAP.                   NO:   One line per depth step
~Well Information Block
#MNEM.UNIT     VALUE/NAME     DESCRIPTION
#---------     -----------    ---------------------------
 STRT.S             01:50:25 10-May-21: START TIME 01:50:25 10-May-21
 STOP.S             01:58:33 10-May-21: STOP TIME  01:58:33 10-May-21
 STEP.S                   0.00: STEP TIME
 NULL.                 -999.25: NULL VALUE
 PROV.                    Baku:  PROVINCE
 STAT.                    Baku:  STATE NAME
 SON .        AZ-XX-0906571588:  JOB NUMBER
 WTYP.                Deviated:  WELL TYPE
 COMP.     BP Exploration (Caspian Sea) ltd:  COMPANY
 BASE.              Azerbaijan:  LOGGING EQUIPMENT BASE LOCATION
 REGN.                   EESSA:  REGION
 CTRY.              Azerbaijan:  COUNTRY NAME
 FLD .                     ACG:  FIELD NAME
 WELL.                     J28:  WELL NAME
 RIG .             West Chirag:  RIG NAME
 DMF .             Drill Floor:  DRILL MEAS FROM
 PDAT.       Caspian Sea Level:  PERMANENT DATUM
 HPTY.       Minimum Curvature:  HOLE POS TYPE
 MDS .        Operator Entered:  MAG DATA SOURCE
 NREF.                    Grid:  NORTH REFERENCE
 SRVC.          TURAN DRILLING:  CONTRACTOR
 JOBN.        AZ-XX-0906571588:  JOB TICKET NUMB
 DCON.     Halliburton Sperry Drilling:  DIRECTNL CONTR
 STIM.      00.44.00 11-Feb-21:  START TIME
 DATE.      00.00.00 05-May-21:  END TIME
 SPUD.               13-Feb-21:  SPUD DATE
 MWDS.                    Baku:  MWD SHOP
 DOE .                     N/A:  DOE NUMBER
 UNIT.                     N/A:  LOGGING EQUIPMENT ID
 UWI .                     N/A:  UNIQUE WELL IDENTIFIER
 API .                     N/A:  API NUMBER
 CNTY.                        :  COUNTY
 LOC .                        :  LOCATION
 LMF .             Drill Floor:  LOG MEASURED FROM
 TVDS.m                  43.00:  TVDSS CORRECTN
 SDEP.m                 341.00:  START DEPTH
 EGL .m                   0.00:  GROUND ELEVATION
 WDMS.m                 169.80:  WD ELEV
 AGAP.m                  43.00:  AIR GAP
 EPD .m                   0.00:  ELEVATION
 APD .m                  43.00:  DEPTH ABOVE PD
 LATI.deg                40.13:  LATITUDE
 LONG.deg                51.22:  LONGITUDE
 UTMY.m             4443793.85:  UTM Y
 UTMX.m              519005.06:  UTM X
 WHEW.m                 -11.57:  WELL HEAD E/W
 WHNS.m                   8.57:  WELL HEAD N/S
 VSEW.m                 -11.57:  VERT SEC E/W
 VSNS.m                   8.57:  VERT SEC N/S
 DFWL.m                   0.00:  DISTANCE FWL
 DFSL.m                   0.00:  DISTANCE FSL
 VSDR.deg               299.34:  VERT SEC DIRECT
 GVFD.g                   1.00:  GRAVITY FIELD
 AZTC.deg                 6.36:  AZM TOTAL CORR
 MFLD.nT              50391.00:  MAGNETIC FIELD
 MDIP.deg                59.65:  MAGNETIC DIP
 MDEC.deg                 6.48:  MAGNETIC DECL
 GRDC.deg                 0.12:  GRID CORRECTION
 DEP .m                 334.96:  DEPTH
 TDD .m                1407.26:  TOTAL DEPTH (DRILLER)
 EKB .m                  43.00:  KB ELEVATION
 EDF .m                  43.00:  DF ELEVATION
 TDL .m                 228.00:  TOTAL DEPTH (LOGGER)
 VSC .                       0:  VS TO CLOSURE
 MAGU.                 1854484:  MAGUTM CHECKSUM
~Parameter Information Block
#MNEM.UNIT       Value        Description
#---------     -----------    ---------------------------
 AV  .mps                 4.00:  Ann Velocity 
 AVMX.mps                 4.73:  Max Ann Veloc 
 AZIF.deg               304.48:  Azm, Final 
 BHAT.        Rotary Steerable:  BHA Type 
 BREV.rev            257300.00:  Rev Bit Total 
 BROT.°/30m               0.00:  Build Rotating 
 BS  .in                  8.50:  Bit Size 
 BSZ .in                  8.50:  Bit Size 
 BTPL.psig              589.00:  Bit Press Loss 
 CABU.                      No:  Customer Abuse 
 CGEO.          Mubariz ghayev:  Customer Geo 
 COMM.                     Í‚:  Run Comments 1 
 TCS .hr                 64.25:  Time Ciculation Ended 
 CV  .mps                 3.50:  Crit Velocity 
 CVMX.mps                 4.52:  Max Crit Veloc 
 DD1 .             Aziz Aliyev:  Direct Drillr 1 
 DD2 .         Intigam Rahimov:  Direct Drillr 2 
 DD3 .          Rashad Habibov:  Direct Drillr 3 
 DDSV.               Geo-Pilot:  DD Service 
 DEFF.%                  98.00:  % Det Eff 
 DLRX.°/30m               0.00:  Dogleg Rot Max 
 DLSO.°/30m               0.00:  Dogleg Oriented 
 DLSX.°/30m               0.00:  Dogleg Str Max 
 DRET.      10.45.04 08-May-21:  Drill End Time 
 DRST.      03.30.04 04-May-21:  Drill Start Tim 
 DTIM.hr                 14.97:  Time Drilling 
 EDEP.m                4640.01:  End Depth 
 ENG1.         Dail Mahammadov:  Engineer 1 
 ENG2.           Eldar Hajiyev:  Engineer 2 
 ENG3.       Bakhtiar Jabbarli:  Engineer 3 
 ENG4.       Natik Hasanagayev:  Engineer 4 
 ETIM.      09.30.04 14-May-21:  End Time 
 FLOI.gpm               460.00:  Flow In 
 FLON.gpm               200.00:  Flow In Min 
 FLOS.cptm                0.00:  Fluid Loss 
 FLOX.gpm               505.00:  Flow In Max 
 HFLO.                      No:  High Flow 
 HPRE.                      No:  High Pressure 
 HTEM.                      No:  High Temp 
 HYDO.m                   1.80:  Hydro Offset 
 IFIN.deg                66.71:  Inc, Final 
 IMAX.deg                67.03:  Inc Max 
 IMIN.deg                66.63:  Inc Min 
 IMND.m                4550.58:  Inc Min Depth 
 IMXD.m                4439.01:  Inc Max Depth 
 JARR.                      No:  Jarring 
 LETM.      10.45.04 08-May-21:  Log End Time 
 LOST.hr                     0:  Lost Rig Time 
 LSTM.      03.30.04 04-May-21:  Log Start Time 
 MDCL.ppm             37000.00:  Mud Chlorides 
 MDES.     Inversion Oil/Synthetic:  Mud Desc 
 DFD .sg                  1.38:  Mud Density 
 MDMN.sg                  1.35:  Dens Mud Min 
 MDMX.sg                  1.40:  Dens Mud Max 
 MOIL.                   57.40:  Run Mud Oil % 
 MOWR.                   70:30:  Run Mud OWR 
 MSND.                    0.00:  Run Mud Sand % 
 MSOL.                   18.00:  Run Mud Solids% 
 DFV .spqt               71.00:  Mud Viscosity 
 MWOD.in                  6.75:  MWD Tool OD 
 MWSI.                      No:  Serv Intrp, MWD 
 OTIM.hr                242.76:  Time Operating 
 PCON.           Look Like New:  Pad Condition 
 PMAX.psia            12183.92:  Press Op, Max 
 PV  .cP                 27.00:  Mud PV 
 RUN .                    1300:  Run Number 
 ROPA.m/hr               15.00:  ROP Avg 
 ROPN.m/hr                9.00:  ROP Min 
 ROPX.m/hr               19.00:  ROP Max 
 RPMA.rpm               120.00:  RPM Surface Avg 
 RPMN.rpm               100.00:  RPM Surface Min 
 RPMX.rpm               120.00:  RPM Surface Max 
 RRUN.                    1300:  Rig Run Number 
 RTIM.hr                  5.00:  Time Reaming 
 SAZI.deg               304.73:  Azm, Start 
 SDEP.m                4412.01:  Start Depth 
 SIDD.                      No:  Serv Intrp, DD 
 SINC.deg                66.82:  Inc, Start 
 SPPA.psig             2800.00:  SPP Avg 
 SPPN.psig             2610.00:  SPP Min 
 SPPX.psig             3100.00:  SPP Max 
 STIM.      03.30.00 04-May-21:  Start Time 
 SVCS.                 DD, MWD:  Services 
 SVER.                    9.20:  Sperry Version 
 TDAT.m                 228.00:  Tot Depth Attmp 
 TDDF.                      No:  Trip for DD 
 TDLG.m                 228.00:  Tot Depth Loggd 
 TFF .                      No:  Trip for Fail 
 TQAA.f-kp               15.00:  Torque Abs Avg 
 TQAN.f-kp               12.00:  Torque Abs Min 
 TQAX.f-kp               22.00:  Torque Abs Max 
 TRRT.°/30m               0.00:  Turn Rotating 
 MRT .                    HCIM:  Maximum Recorded Temperature 
 TTMX.degC               90.20:  Max Tool Temp 
 VS01.                90627813:  Virtual Str1 SN 
 VS02.                90634712:  Virtual Str2 SN 
 VS03.                90643410:  Virtual Str3 SN 
 VS04.                90634712:  Virtual Str4 SN 
 WBMN.klb                 9.00:  WOB Min 
 WITN.        Elmaddin Rahimov:  Customer Rep 
 WITN.         Haytham Mostafa:  Customer Rep 2 
 WOBA.klb                15.00:  WOB Avg 
 WOBX.klb                23.00:  WOB Max 
 YP  .lhf2               29.00:  Yield Point 
~Curve Information Block
#MNEM.UNIT                 API CODE     Curve Description
#---------               -----------    ---------------------------
 TIME.HHMMSS            00 000 000 000:  GT Time & Date
 GTDEPTH.m              00 000 000 000:  GT Depth
 GTPQH.psia             00 000 000 000:  GT HR Quartz Pressure
 GTTQ.degC              00 000 000 000:  GT Quartz Temperature
 GTTN.NONE              00 000 000 000:  GT Test Number
 GTET.sec               00 000 000 000:  GT Elapsed Test Time
 GTTVD.m                00 000 000 000:  GT True Vertical Depth
#Other Information
#
#WARRANTY: Halliburton will use its best efforts to furnish customers with 
#accurate information and interpretations that are part of, and incident to, the services 
#provided.  However, Halliburton cannot and does not warrant the accuracy 
#or correctness of such information and interpretations.  Under no circumstances should any 
#such information or interpretation be relied upon as the sole basis for any drilling, 
#completion, production, or financial decision or any procedure involving any risk to the 
#safety of any drilling venture, drilling rig or its crew or any other third party.  The 
#Customer has full responsibility for all drilling, completion and production operation.  
#Halliburton makes no representations or warranties, either expressed or 
#implied, including, but not limited to, the implied warranties of merchantability or fitness 
#for a particular purpose, with respect to the services rendered.  In no event will 
#Halliburton be liable for failure to obtain any particular results or for 
#any damages, including, but not limited to, indirect, special or consequential damages, 
#resulting from the use of any information or interpretation provided by Halliburton.
#
~A           TIME           GTDEPTH  GTPQH  GTTQ  GTTN   GTET   GTTVD  
# ...
   01:58:20.026.10-May-2021 4567.51 6610.75 60.99 19.00 474.68 2998.78
   01:58:20.226.10-May-2021 4567.51 6610.23 60.99 19.00 474.88 2998.78
   01:58:20.426.10-May-2021 4567.51 6611.36 60.99 19.00 475.08 2998.78
   01:58:20.626.10-May-2021 4567.51 6611.36 60.99 19.00 475.28 2998.78
   01:58:20.826.10-May-2021 4567.51 6614.33 60.99 19.00 475.48 2998.78
   01:58:21.026.10-May-2021 4567.51 6610.12 60.99 19.00 475.68 2998.78
   01:58:21.226.10-May-2021 4567.51 6610.60 60.98 19.00 475.88 2998.78
   01:58:21.426.10-May-2021 4567.51 6608.45 60.98 19.00 476.08 2998.78
   01:58:21.626.10-May-2021 4567.51 6608.45 60.98 19.00 476.28 2998.78
   01:58:21.826.10-May-2021 4567.51 6611.41 60.98 19.00 476.48 2998.78
   01:58:22.026.10-May-2021 4567.51 6610.18 60.98 19.00 476.68 2998.78
   01:58:22.226.10-May-2021 4567.51 6610.00 60.98 19.00 476.88 2998.78
   01:58:22.426.10-May-2021 4567.51 6610.54 60.98 19.00 477.08 2998.78
   01:58:22.626.10-May-2021 4567.51 6610.54 60.98 19.00 477.28 2998.78
   01:58:22.826.10-May-2021 4567.51 6613.96 60.98 19.00 477.49 2998.78
   01:58:23.026.10-May-2021 4567.51 6610.29 60.98 19.00 477.69 2998.78
   01:58:23.226.10-May-2021 4567.51 6609.05 60.98 19.00 477.89 2998.78
   01:58:23.426.10-May-2021 4567.51 6608.15 60.98 19.00 478.09 2998.78
   01:58:23.626.10-May-2021 4567.51 6608.15 60.98 19.00 478.29 2998.78
   01:58:23.826.10-May-2021 4567.51 6607.74 60.98 19.00 478.49 2998.78
   01:58:24.026.10-May-2021 4567.51 6607.70 60.98 19.00 478.69 2998.78
   01:58:24.226.10-May-2021 4567.51 6607.49 60.98 19.00 478.89 2998.78
   01:58:24.426.10-May-2021 4567.51 6607.28 60.98 19.00 479.09 2998.78
   01:58:24.626.10-May-2021 4567.51 6607.28 60.98 19.00 479.29 2998.78
   01:58:24.826.10-May-2021 4567.51 6607.41 60.98 19.00 479.49 2998.78
   01:58:25.026.10-May-2021 4567.51 6608.42 60.98 19.00 479.69 2998.78
   01:58:25.226.10-May-2021 4567.51 6614.14 60.98 19.00 479.89 2998.78
   01:58:25.427.10-May-2021 4567.51 6613.97 60.98 19.00 480.09 2998.78
   01:58:25.627.10-May-2021 4567.51 6613.97 60.98 19.00 480.29 2998.78
   01:58:25.827.10-May-2021 4567.51 6609.20 60.97 19.00 480.49 2998.78
   01:58:26.027.10-May-2021 4567.51 6608.54 60.97 19.00 480.69 2998.78
   01:58:26.227.10-May-2021 4567.51 6608.15 60.97 19.00 480.89 2998.78
   01:58:26.427.10-May-2021 4567.51 6607.98 60.97 19.00 481.09 2998.78
   01:58:26.627.10-May-2021 4567.51 6607.98 60.97 19.00 481.29 2998.78
   01:58:26.827.10-May-2021 4567.51 6607.18 60.97 19.00 481.49 2998.78
   01:58:27.027.10-May-2021 4567.51 6607.22 60.97 19.00 481.69 2998.78
   01:58:27.227.10-May-2021 4567.51 6607.01 60.97 19.00 481.89 2998.78
   01:58:27.427.10-May-2021 4567.51 6607.53 60.97 19.00 482.09 2998.78
   01:58:27.627.10-May-2021 4567.51 6607.53 60.97 19.00 482.29 2998.78
   01:58:27.827.10-May-2021 4567.51 6613.89 60.97 19.00 482.49 2998.78
   01:58:28.027.10-May-2021 4567.51 6611.01 60.97 19.00 482.69 2998.78
   01:58:28.227.10-May-2021 4567.51 6612.38 60.97 19.00 482.89 2998.78
   01:58:28.427.10-May-2021 4567.51 6608.60 60.97 19.00 483.09 2998.78
   01:58:28.627.10-May-2021 4567.51 6608.60 60.97 19.00 483.29 2998.78
   01:58:28.827.10-May-2021 4567.51 6610.78 60.97 19.00 483.49 2998.78
   01:58:29.027.10-May-2021 4567.51 6613.60 60.97 19.00 483.69 2998.78
   01:58:29.227.10-May-2021 4567.51 6614.33 60.97 19.00 483.89 2998.78
   01:58:29.427.10-May-2021 4567.51 6609.11 60.97 19.00 484.09 2998.78
   01:58:29.627.10-May-2021 4567.51 6609.11 60.97 19.00 484.29 2998.78
   01:58:29.827.10-May-2021 4567.51 6610.88 60.97 19.00 484.49 2998.78
   01:58:30.027.10-May-2021 4567.51 6615.01 60.97 19.00 484.69 2998.78
   01:58:30.227.10-May-2021 4567.51 6614.85 60.96 19.00 484.89 2998.78
   01:58:30.427.10-May-2021 4567.51 6611.26 60.96 19.00 485.09 2998.78
   01:58:30.627.10-May-2021 4567.51 6611.26 60.96 19.00 485.29 2998.78
   01:58:30.827.10-May-2021 4567.51 6615.13 60.96 19.00 485.49 2998.78
   01:58:31.028.10-May-2021 4567.51 6611.47 60.96 19.00 485.69 2998.78
   01:58:31.228.10-May-2021 4567.51 6613.10 60.96 19.00 485.89 2998.78
   01:58:31.428.10-May-2021 4567.51 6607.87 60.96 19.00 486.09 2998.78
   01:58:31.628.10-May-2021 4567.51 6607.87 60.96 19.00 486.29 2998.78
   01:58:31.828.10-May-2021 4567.51 6607.43 60.96 19.00 486.49 2998.78
   01:58:32.028.10-May-2021 4567.51 6607.59 60.96 19.00 486.69 2998.78
   01:58:32.228.10-May-2021 4567.51 6607.39 60.96 19.00 486.89 2998.78
   01:58:32.428.10-May-2021 4567.51 6607.06 60.96 19.00 487.09 2998.78
   01:58:32.628.10-May-2021 4567.51 6607.06 60.96 19.00 487.29 2998.78
   01:58:32.828.10-May-2021 4567.51 6606.98 60.96 19.00 487.49 2998.78
   01:58:33.028.10-May-2021 4567.51 6607.55 60.96 19.00 487.69 2998.78
   01:58:33.228.10-May-2021 4567.51 6608.13 60.96 19.00 487.89 2998.78
