~Version Information
 VERS.                  2.0:   CWLS log ASCII Standard -VERSION 2.0
 WRAP.                   NO:   One line per depth step
~Well Information Block
#MNEM.UNIT     VALUE/NAME     DESCRIPTION
#---------     -----------    ---------------------------
 STRT.S             00:12:22 09-May-21: START TIME 00:12:22 09-May-21
 STOP.S             00:19:08 09-May-21: STOP TIME  00:19:08 09-May-21
 STEP.S                   0.00: STEP TIME
 NULL.                 -999.25: NULL VALUE
 PROV.                    Baku:  PROVINCE
 STAT.                    Baku:  STATE NAME
 SON .        AZ-XX-0906571588:  JOB NUMBER
 WTYP.                Deviated:  WELL TYPE
 COMP.     BP Exploration (Caspian Sea) ltd:  COMPANY
 BASE.              Azerbaijan:  LOGGING EQUIPMENT BASE LOCATION
 REGN.                   EESSA:  REGION
 CTRY.              Azerbaijan:  COUNTRY NAME
 FLD .                     ACG:  FIELD NAME
 WELL.                     J28:  WELL NAME
 RIG .             West Chirag:  RIG NAME
 DMF .             Drill Floor:  DRILL MEAS FROM
 PDAT.       Caspian Sea Level:  PERMANENT DATUM
 HPTY.       Minimum Curvature:  HOLE POS TYPE
 MDS .        Operator Entered:  MAG DATA SOURCE
 NREF.                    Grid:  NORTH REFERENCE
 SRVC.          TURAN DRILLING:  CONTRACTOR
 JOBN.        AZ-XX-0906571588:  JOB TICKET NUMB
 DCON.     Halliburton Sperry Drilling:  DIRECTNL CONTR
 STIM.      00.44.00 11-Feb-21:  START TIME
 DATE.      00.00.00 05-May-21:  END TIME
 SPUD.               13-Feb-21:  SPUD DATE
 MWDS.                    Baku:  MWD SHOP
 DOE .                     N/A:  DOE NUMBER
 UNIT.                     N/A:  LOGGING EQUIPMENT ID
 UWI .                     N/A:  UNIQUE WELL IDENTIFIER
 API .                     N/A:  API NUMBER
 CNTY.                        :  COUNTY
 LOC .                        :  LOCATION
 LMF .             Drill Floor:  LOG MEASURED FROM
 TVDS.m                  43.00:  TVDSS CORRECTN
 SDEP.m                 341.00:  START DEPTH
 EGL .m                   0.00:  GROUND ELEVATION
 WDMS.m                 169.80:  WD ELEV
 AGAP.m                  43.00:  AIR GAP
 EPD .m                   0.00:  ELEVATION
 APD .m                  43.00:  DEPTH ABOVE PD
 LATI.deg                40.13:  LATITUDE
 LONG.deg                51.22:  LONGITUDE
 UTMY.m             4443793.85:  UTM Y
 UTMX.m              519005.06:  UTM X
 WHEW.m                 -11.57:  WELL HEAD E/W
 WHNS.m                   8.57:  WELL HEAD N/S
 VSEW.m                 -11.57:  VERT SEC E/W
 VSNS.m                   8.57:  VERT SEC N/S
 DFWL.m                   0.00:  DISTANCE FWL
 DFSL.m                   0.00:  DISTANCE FSL
 VSDR.deg               299.34:  VERT SEC DIRECT
 GVFD.g                   1.00:  GRAVITY FIELD
 AZTC.deg                 6.36:  AZM TOTAL CORR
 MFLD.nT              50391.00:  MAGNETIC FIELD
 MDIP.deg                59.65:  MAGNETIC DIP
 MDEC.deg                 6.48:  MAGNETIC DECL
 GRDC.deg                 0.12:  GRID CORRECTION
 DEP .m                 334.96:  DEPTH
 TDD .m                1407.26:  TOTAL DEPTH (DRILLER)
 EKB .m                  43.00:  KB ELEVATION
 EDF .m                  43.00:  DF ELEVATION
 TDL .m                 228.00:  TOTAL DEPTH (LOGGER)
 VSC .                       0:  VS TO CLOSURE
 MAGU.                 1854484:  MAGUTM CHECKSUM
~Parameter Information Block
#MNEM.UNIT       Value        Description
#---------     -----------    ---------------------------
 AV  .mps                 4.00:  Ann Velocity 
 AVMX.mps                 4.73:  Max Ann Veloc 
 AZIF.deg               304.48:  Azm, Final 
 BHAT.        Rotary Steerable:  BHA Type 
 BREV.rev            257300.00:  Rev Bit Total 
 BROT.°/30m               0.00:  Build Rotating 
 BS  .in                  8.50:  Bit Size 
 BSZ .in                  8.50:  Bit Size 
 BTPL.psig              589.00:  Bit Press Loss 
 CABU.                      No:  Customer Abuse 
 CGEO.          Mubariz ghayev:  Customer Geo 
 COMM.                     <Š|:  Run Comments 1 
 TCS .hr                 64.25:  Time Ciculation Ended 
 CV  .mps                 3.50:  Crit Velocity 
 CVMX.mps                 4.52:  Max Crit Veloc 
 DD1 .             Aziz Aliyev:  Direct Drillr 1 
 DD2 .         Intigam Rahimov:  Direct Drillr 2 
 DD3 .          Rashad Habibov:  Direct Drillr 3 
 DDSV.               Geo-Pilot:  DD Service 
 DEFF.%                  98.00:  % Det Eff 
 DLRX.°/30m               0.00:  Dogleg Rot Max 
 DLSO.°/30m               0.00:  Dogleg Oriented 
 DLSX.°/30m               0.00:  Dogleg Str Max 
 DRET.      10.45.04 08-May-21:  Drill End Time 
 DRST.      03.30.04 04-May-21:  Drill Start Tim 
 DTIM.hr                 14.97:  Time Drilling 
 EDEP.m                4640.01:  End Depth 
 ENG1.         Dail Mahammadov:  Engineer 1 
 ENG2.           Eldar Hajiyev:  Engineer 2 
 ENG3.       Bakhtiar Jabbarli:  Engineer 3 
 ENG4.       Natik Hasanagayev:  Engineer 4 
 ETIM.      09.30.04 14-May-21:  End Time 
 FLOI.gpm               460.00:  Flow In 
 FLON.gpm               200.00:  Flow In Min 
 FLOS.cptm                0.00:  Fluid Loss 
 FLOX.gpm               505.00:  Flow In Max 
 HFLO.                      No:  High Flow 
 HPRE.                      No:  High Pressure 
 HTEM.                      No:  High Temp 
 HYDO.m                   1.80:  Hydro Offset 
 IFIN.deg                66.71:  Inc, Final 
 IMAX.deg                67.03:  Inc Max 
 IMIN.deg                66.63:  Inc Min 
 IMND.m                4550.58:  Inc Min Depth 
 IMXD.m                4439.01:  Inc Max Depth 
 JARR.                      No:  Jarring 
 LETM.      10.45.04 08-May-21:  Log End Time 
 LOST.hr                     0:  Lost Rig Time 
 LSTM.      03.30.04 04-May-21:  Log Start Time 
 MDCL.ppm             37000.00:  Mud Chlorides 
 MDES.     Inversion Oil/Synthetic:  Mud Desc 
 DFD .sg                  1.38:  Mud Density 
 MDMN.sg                  1.35:  Dens Mud Min 
 MDMX.sg                  1.40:  Dens Mud Max 
 MOIL.                   57.40:  Run Mud Oil % 
 MOWR.                   70:30:  Run Mud OWR 
 MSND.                    0.00:  Run Mud Sand % 
 MSOL.                   18.00:  Run Mud Solids% 
 DFV .spqt               71.00:  Mud Viscosity 
 MWOD.in                  6.75:  MWD Tool OD 
 MWSI.                      No:  Serv Intrp, MWD 
 OTIM.hr                242.76:  Time Operating 
 PCON.           Look Like New:  Pad Condition 
 PMAX.psia            12183.92:  Press Op, Max 
 PV  .cP                 27.00:  Mud PV 
 RUN .                    1300:  Run Number 
 ROPA.m/hr               15.00:  ROP Avg 
 ROPN.m/hr                9.00:  ROP Min 
 ROPX.m/hr               19.00:  ROP Max 
 RPMA.rpm               120.00:  RPM Surface Avg 
 RPMN.rpm               100.00:  RPM Surface Min 
 RPMX.rpm               120.00:  RPM Surface Max 
 RRUN.                    1300:  Rig Run Number 
 RTIM.hr                  5.00:  Time Reaming 
 SAZI.deg               304.73:  Azm, Start 
 SDEP.m                4412.01:  Start Depth 
 SIDD.                      No:  Serv Intrp, DD 
 SINC.deg                66.82:  Inc, Start 
 SPPA.psig             2800.00:  SPP Avg 
 SPPN.psig             2610.00:  SPP Min 
 SPPX.psig             3100.00:  SPP Max 
 STIM.      03.30.00 04-May-21:  Start Time 
 SVCS.                 DD, MWD:  Services 
 SVER.                    9.20:  Sperry Version 
 TDAT.m                 228.00:  Tot Depth Attmp 
 TDDF.                      No:  Trip for DD 
 TDLG.m                 228.00:  Tot Depth Loggd 
 TFF .                      No:  Trip for Fail 
 TQAA.f-kp               15.00:  Torque Abs Avg 
 TQAN.f-kp               12.00:  Torque Abs Min 
 TQAX.f-kp               22.00:  Torque Abs Max 
 TRRT.°/30m               0.00:  Turn Rotating 
 MRT .                    HCIM:  Maximum Recorded Temperature 
 TTMX.degC               90.20:  Max Tool Temp 
 VS01.                90627813:  Virtual Str1 SN 
 VS02.                90634712:  Virtual Str2 SN 
 VS03.                90643410:  Virtual Str3 SN 
 VS04.                90634712:  Virtual Str4 SN 
 WBMN.klb                 9.00:  WOB Min 
 WITN.        Elmaddin Rahimov:  Customer Rep 
 WITN.         Haytham Mostafa:  Customer Rep 2 
 WOBA.klb                15.00:  WOB Avg 
 WOBX.klb                23.00:  WOB Max 
 YP  .lhf2               29.00:  Yield Point 
~Curve Information Block
#MNEM.UNIT                 API CODE     Curve Description
#---------               -----------    ---------------------------
 TIME.HHMMSS            00 000 000 000:  GT Time & Date
 GTDEPTH.m              00 000 000 000:  GT Depth
 GTPQH.psia             00 000 000 000:  GT HR Quartz Pressure
 GTTQ.degC              00 000 000 000:  GT Quartz Temperature
 GTTN.NONE              00 000 000 000:  GT Test Number
 GTET.sec               00 000 000 000:  GT Elapsed Test Time
 GTTVD.m                00 000 000 000:  GT True Vertical Depth
#Other Information
#
#WARRANTY: Halliburton will use its best efforts to furnish customers with 
#accurate information and interpretations that are part of, and incident to, the services 
#provided.  However, Halliburton cannot and does not warrant the accuracy 
#or correctness of such information and interpretations.  Under no circumstances should any 
#such information or interpretation be relied upon as the sole basis for any drilling, 
#completion, production, or financial decision or any procedure involving any risk to the 
#safety of any drilling venture, drilling rig or its crew or any other third party.  The 
#Customer has full responsibility for all drilling, completion and production operation.  
#Halliburton makes no representations or warranties, either expressed or 
#implied, including, but not limited to, the implied warranties of merchantability or fitness 
#for a particular purpose, with respect to the services rendered.  In no event will 
#Halliburton be liable for failure to obtain any particular results or for 
#any damages, including, but not limited to, indirect, special or consequential damages, 
#resulting from the use of any information or interpretation provided by Halliburton.
#
~A           TIME           GTDEPTH  GTPQH  GTTQ  GTTN  GTET   GTTVD  
# ...
   00:13:08.483.09-May-2021 4527.01  887.04 68.25 6.00  46.02 2982.74
   00:13:08.683.09-May-2021 4527.01  887.04 68.25 6.00  46.22 2982.74
   00:13:08.883.09-May-2021 4527.01  863.23 68.24 6.00  46.42 2982.74
   00:13:09.083.09-May-2021 4527.01  852.88 68.24 6.00  46.62 2982.74
   00:13:09.283.09-May-2021 4527.01  853.67 68.24 6.00  46.82 2982.74
   00:13:09.483.09-May-2021 4527.01  859.09 68.23 6.00  47.02 2982.74
   00:13:09.683.09-May-2021 4527.01  859.09 68.23 6.00  47.22 2982.74
   00:13:09.884.09-May-2021 4527.01  847.28 68.22 6.00  47.42 2982.74
   00:13:10.084.09-May-2021 4527.01  843.58 68.22 6.00  47.62 2982.74
   00:13:10.284.09-May-2021 4527.01  833.82 68.22 6.00  47.82 2982.74
   00:13:10.484.09-May-2021 4527.01  821.87 68.21 6.00  48.02 2982.74
   00:13:10.684.09-May-2021 4527.01  821.87 68.21 6.00  48.22 2982.74
   00:13:10.884.09-May-2021 4527.01  802.35 68.20 6.00  48.42 2982.74
   00:13:11.084.09-May-2021 4527.01  798.40 68.20 6.00  48.62 2982.74
   00:13:11.284.09-May-2021 4527.01  801.51 68.20 6.00  48.82 2982.74
   00:13:11.484.09-May-2021 4527.01  803.38 68.19 6.00  49.02 2982.74
   00:13:11.684.09-May-2021 4527.01  803.38 68.19 6.00  49.22 2982.74
   00:13:11.884.09-May-2021 4527.01  784.61 68.18 6.00  49.42 2982.74
   00:13:12.084.09-May-2021 4527.01  782.92 68.18 6.00  49.62 2982.74
   00:13:12.284.09-May-2021 4527.01  783.12 68.18 6.00  49.82 2982.74
   00:13:12.484.09-May-2021 4527.01  798.27 68.18 6.00  50.02 2982.74
   00:13:12.685.09-May-2021 4527.01  798.27 68.18 6.00  50.22 2982.74
   00:13:12.885.09-May-2021 4527.01  826.49 68.17 6.00  50.42 2982.74
   00:13:13.085.09-May-2021 4527.01  827.50 68.17 6.00  50.62 2982.74
   00:13:13.285.09-May-2021 4527.01  818.43 68.16 6.00  50.82 2982.74
   00:13:13.485.09-May-2021 4527.01  799.20 68.16 6.00  51.02 2982.74
   00:13:13.685.09-May-2021 4527.01  799.20 68.16 6.00  51.22 2982.74
   00:13:13.885.09-May-2021 4527.01  754.60 68.16 6.00  51.42 2982.74
   00:13:14.085.09-May-2021 4527.01  754.39 68.15 6.00  51.62 2982.74
   00:13:14.285.09-May-2021 4527.01  781.39 68.15 6.00  51.82 2982.74
   00:13:14.485.09-May-2021 4527.01  893.01 68.15 6.00  52.02 2982.74
   00:13:14.685.09-May-2021 4527.01  893.01 68.15 6.00  52.22 2982.74
   00:13:14.885.09-May-2021 4527.01 1240.48 68.14 6.00  52.42 2982.74
   00:13:15.085.09-May-2021 4527.01 1394.35 68.14 6.00  52.62 2982.74
   00:13:15.285.09-May-2021 4527.01 1535.78 68.14 6.00  52.82 2982.74
   00:13:15.486.09-May-2021 4527.01 1667.19 68.14 6.00  53.02 2982.74
   00:13:15.686.09-May-2021 4527.01 1667.19 68.14 6.00  53.22 2982.74
   00:13:15.886.09-May-2021 4527.01 1904.04 68.14 6.00  53.42 2982.74
   00:13:16.086.09-May-2021 4527.01 2012.62 68.14 6.00  53.62 2982.74
   00:13:16.286.09-May-2021 4527.01 2114.20 68.13 6.00  53.82 2982.74
   00:13:16.486.09-May-2021 4527.01 2209.06 68.13 6.00  54.02 2982.74
   00:13:16.686.09-May-2021 4527.01 2209.06 68.13 6.00  54.22 2982.74
   00:13:16.886.09-May-2021 4527.01 2380.09 68.13 6.00  54.42 2982.74
   00:13:17.086.09-May-2021 4527.01 2456.42 68.13 6.00  54.62 2982.74
   00:13:17.286.09-May-2021 4527.01 2527.17 68.13 6.00  54.82 2982.74
   00:13:17.486.09-May-2021 4527.01 2592.57 68.13 6.00  55.02 2982.74
   00:13:17.686.09-May-2021 4527.01 2592.57 68.13 6.00  55.22 2982.74
   00:13:17.886.09-May-2021 4527.01 2709.50 68.13 6.00  55.42 2982.74
   00:13:18.086.09-May-2021 4527.01 2762.83 68.13 6.00  55.62 2982.74
   00:13:18.287.09-May-2021 4527.01 2812.96 68.13 6.00  55.82 2982.74
   00:13:18.487.09-May-2021 4527.01 2858.80 68.13 6.00  56.02 2982.74
   00:13:18.687.09-May-2021 4527.01 2858.80 68.13 6.00  56.22 2982.74
   00:13:18.887.09-May-2021 4527.01 2938.43 68.13 6.00  56.42 2982.74
   00:13:19.087.09-May-2021 4527.01 2973.33 68.13 6.00  56.62 2982.74
   00:13:19.287.09-May-2021 4527.01 3005.06 68.13 6.00  56.82 2982.74
   00:13:19.487.09-May-2021 4527.01 3034.11 68.14 6.00  57.02 2982.74
   00:13:19.687.09-May-2021 4527.01 3034.11 68.14 6.00  57.22 2982.74
   00:13:19.887.09-May-2021 4527.01 3084.77 68.14 6.00  57.42 2982.74
   00:13:20.087.09-May-2021 4527.01 3106.73 68.14 6.00  57.62 2982.74
   00:13:20.287.09-May-2021 4527.01 3126.46 68.14 6.00  57.82 2982.74
   00:13:20.487.09-May-2021 4527.01 3143.28 68.14 6.00  58.02 2982.74
   00:13:20.687.09-May-2021 4527.01 3143.28 68.14 6.00  58.22 2982.74
   00:13:20.888.09-May-2021 4527.01 3174.00 68.14 6.00  58.42 2982.74
   00:13:21.088.09-May-2021 4527.01 3186.81 68.14 6.00  58.62 2982.74
   00:13:21.288.09-May-2021 4527.01 3196.58 68.14 6.00  58.82 2982.74
   00:13:21.488.09-May-2021 4527.01 3206.91 68.15 6.00  59.02 2982.74
   00:13:21.688.09-May-2021 4527.01 3206.91 68.15 6.00  59.22 2982.74
   00:13:21.888.09-May-2021 4527.01 3221.42 68.15 6.00  59.42 2982.74
   00:13:22.088.09-May-2021 4527.01 3228.36 68.15 6.00  59.62 2982.74
   00:13:22.288.09-May-2021 4527.01 3233.20 68.15 6.00  59.82 2982.74
   00:13:22.488.09-May-2021 4527.01 3237.85 68.15 6.00  60.02 2982.74
   00:13:22.688.09-May-2021 4527.01 3237.85 68.15 6.00  60.22 2982.74
   00:13:22.888.09-May-2021 4527.01 3244.66 68.15 6.00  60.42 2982.74
   00:13:23.088.09-May-2021 4527.01 3247.02 68.15 6.00  60.62 2982.74
   00:13:23.288.09-May-2021 4527.01 3249.50 68.16 6.00  60.82 2982.74
   00:13:23.488.09-May-2021 4527.01 3251.20 68.16 6.00  61.02 2982.74
   00:13:23.689.09-May-2021 4527.01 3251.20 68.16 6.00  61.22 2982.74
   00:13:23.889.09-May-2021 4527.01 3253.93 68.16 6.00  61.42 2982.74
   00:13:24.089.09-May-2021 4527.01 3254.97 68.16 6.00  61.62 2982.74
   00:13:24.289.09-May-2021 4527.01 3255.76 68.16 6.00  61.82 2982.74
   00:13:24.489.09-May-2021 4527.01 3256.44 68.16 6.00  62.02 2982.74
   00:13:24.689.09-May-2021 4527.01 3256.44 68.16 6.00  62.22 2982.74
   00:13:24.889.09-May-2021 4527.01 3257.49 68.16 6.00  62.42 2982.74
   00:13:25.089.09-May-2021 4527.01 3257.88 68.16 6.00  62.62 2982.74
   00:13:25.289.09-May-2021 4527.01 3257.65 68.16 6.00  62.82 2982.74
   00:13:25.489.09-May-2021 4527.01 3258.44 68.17 6.00  63.02 2982.74
   00:13:25.689.09-May-2021 4527.01 3258.44 68.17 6.00  63.22 2982.74
   00:13:25.889.09-May-2021 4527.01 3260.00 68.17 6.00  63.42 2982.74
   00:13:26.089.09-May-2021 4527.01 3259.96 68.17 6.00  63.62 2982.74
   00:13:26.289.09-May-2021 4527.01 3260.05 68.17 6.00  63.82 2982.74
   00:13:26.490.09-May-2021 4527.01 3260.11 68.17 6.00  64.02 2982.74
   00:13:26.690.09-May-2021 4527.01 3260.11 68.17 6.00  64.22 2982.74
   00:13:26.890.09-May-2021 4527.01 3260.13 68.17 6.00  64.42 2982.74
   00:13:27.090.09-May-2021 4527.01 3260.18 68.17 6.00  64.62 2982.74
   00:13:27.290.09-May-2021 4527.01 3260.17 68.17 6.00  64.82 2982.74
   00:13:27.490.09-May-2021 4527.01 3260.20 68.17 6.00  65.02 2982.74
   00:13:27.690.09-May-2021 4527.01 3260.20 68.17 6.00  65.22 2982.74
   00:13:27.890.09-May-2021 4527.01 3259.92 68.17 6.00  65.42 2982.74
   00:13:28.090.09-May-2021 4527.01 3260.30 68.17 6.00  65.62 2982.74
   00:13:28.290.09-May-2021 4527.01 3260.21 68.17 6.00  65.82 2982.74
   00:13:28.490.09-May-2021 4527.01 3260.20 68.17 6.00  66.02 2982.74
   00:13:28.690.09-May-2021 4527.01 3260.20 68.17 6.00  66.22 2982.74
   00:13:28.890.09-May-2021 4527.01 3260.30 68.18 6.00  66.42 2982.74
   00:13:29.090.09-May-2021 4527.01 3260.28 68.18 6.00  66.62 2982.74
   00:13:29.291.09-May-2021 4527.01 3260.43 68.18 6.00  66.82 2982.74
   00:13:29.491.09-May-2021 4527.01 3260.36 68.18 6.00  67.02 2982.74
   00:13:29.691.09-May-2021 4527.01 3260.36 68.18 6.00  67.22 2982.74
   00:13:29.891.09-May-2021 4527.01 3260.44 68.18 6.00  67.42 2982.74
   00:13:30.091.09-May-2021 4527.01 3260.34 68.18 6.00  67.62 2982.74
   00:13:30.291.09-May-2021 4527.01 3260.30 68.18 6.00  67.82 2982.74
   00:13:30.491.09-May-2021 4527.01 3260.19 68.18 6.00  68.02 2982.74
   00:13:30.691.09-May-2021 4527.01 3260.19 68.18 6.00  68.22 2982.74
   00:13:30.891.09-May-2021 4527.01 3260.28 68.18 6.00  68.42 2982.74
   00:13:31.091.09-May-2021 4527.01 3260.41 68.18 6.00  68.62 2982.74
   00:13:31.291.09-May-2021 4527.01 3260.45 68.18 6.00  68.82 2982.74
