~Version Information
 VERS.                  2.0:   CWLS log ASCII Standard -VERSION 2.0
 WRAP.                   NO:   One line per depth step
~Well Information Block
#MNEM.UNIT     VALUE/NAME     DESCRIPTION
#---------     -----------    ---------------------------
 STRT.S             00:47:21 09-May-21: START TIME 00:47:21 09-May-21
 STOP.S             00:54:19 09-May-21: STOP TIME  00:54:19 09-May-21
 STEP.S                   0.00: STEP TIME
 NULL.                 -999.25: NULL VALUE
 PROV.                    Baku:  PROVINCE
 STAT.                    Baku:  STATE NAME
 SON .        AZ-XX-0906571588:  JOB NUMBER
 WTYP.                Deviated:  WELL TYPE
 COMP.     BP Exploration (Caspian Sea) ltd:  COMPANY
 BASE.              Azerbaijan:  LOGGING EQUIPMENT BASE LOCATION
 REGN.                   EESSA:  REGION
 CTRY.              Azerbaijan:  COUNTRY NAME
 FLD .                     ACG:  FIELD NAME
 WELL.                     J28:  WELL NAME
 RIG .             West Chirag:  RIG NAME
 DMF .             Drill Floor:  DRILL MEAS FROM
 PDAT.       Caspian Sea Level:  PERMANENT DATUM
 HPTY.       Minimum Curvature:  HOLE POS TYPE
 MDS .        Operator Entered:  MAG DATA SOURCE
 NREF.                    Grid:  NORTH REFERENCE
 SRVC.          TURAN DRILLING:  CONTRACTOR
 JOBN.        AZ-XX-0906571588:  JOB TICKET NUMB
 DCON.     Halliburton Sperry Drilling:  DIRECTNL CONTR
 STIM.      00.44.00 11-Feb-21:  START TIME
 DATE.      00.00.00 05-May-21:  END TIME
 SPUD.               13-Feb-21:  SPUD DATE
 MWDS.                    Baku:  MWD SHOP
 DOE .                     N/A:  DOE NUMBER
 UNIT.                     N/A:  LOGGING EQUIPMENT ID
 UWI .                     N/A:  UNIQUE WELL IDENTIFIER
 API .                     N/A:  API NUMBER
 CNTY.                        :  COUNTY
 LOC .                        :  LOCATION
 LMF .             Drill Floor:  LOG MEASURED FROM
 TVDS.m                  43.00:  TVDSS CORRECTN
 SDEP.m                 341.00:  START DEPTH
 EGL .m                   0.00:  GROUND ELEVATION
 WDMS.m                 169.80:  WD ELEV
 AGAP.m                  43.00:  AIR GAP
 EPD .m                   0.00:  ELEVATION
 APD .m                  43.00:  DEPTH ABOVE PD
 LATI.deg                40.13:  LATITUDE
 LONG.deg                51.22:  LONGITUDE
 UTMY.m             4443793.85:  UTM Y
 UTMX.m              519005.06:  UTM X
 WHEW.m                 -11.57:  WELL HEAD E/W
 WHNS.m                   8.57:  WELL HEAD N/S
 VSEW.m                 -11.57:  VERT SEC E/W
 VSNS.m                   8.57:  VERT SEC N/S
 DFWL.m                   0.00:  DISTANCE FWL
 DFSL.m                   0.00:  DISTANCE FSL
 VSDR.deg               299.34:  VERT SEC DIRECT
 GVFD.g                   1.00:  GRAVITY FIELD
 AZTC.deg                 6.36:  AZM TOTAL CORR
 MFLD.nT              50391.00:  MAGNETIC FIELD
 MDIP.deg                59.65:  MAGNETIC DIP
 MDEC.deg                 6.48:  MAGNETIC DECL
 GRDC.deg                 0.12:  GRID CORRECTION
 DEP .m                 334.96:  DEPTH
 TDD .m                1407.26:  TOTAL DEPTH (DRILLER)
 EKB .m                  43.00:  KB ELEVATION
 EDF .m                  43.00:  DF ELEVATION
 TDL .m                 228.00:  TOTAL DEPTH (LOGGER)
 VSC .                       0:  VS TO CLOSURE
 MAGU.                 1854484:  MAGUTM CHECKSUM
~Parameter Information Block
#MNEM.UNIT       Value        Description
#---------     -----------    ---------------------------
 AV  .mps                 4.00:  Ann Velocity 
 AVMX.mps                 4.73:  Max Ann Veloc 
 AZIF.deg               304.48:  Azm, Final 
 BHAT.        Rotary Steerable:  BHA Type 
 BREV.rev            257300.00:  Rev Bit Total 
 BROT.°/30m               0.00:  Build Rotating 
 BS  .in                  8.50:  Bit Size 
 BSZ .in                  8.50:  Bit Size 
 BTPL.psig              589.00:  Bit Press Loss 
 CABU.                      No:  Customer Abuse 
 CGEO.          Mubariz ghayev:  Customer Geo 
 COMM.                     ­R:  Run Comments 1 
 TCS .hr                 64.25:  Time Ciculation Ended 
 CV  .mps                 3.50:  Crit Velocity 
 CVMX.mps                 4.52:  Max Crit Veloc 
 DD1 .             Aziz Aliyev:  Direct Drillr 1 
 DD2 .         Intigam Rahimov:  Direct Drillr 2 
 DD3 .          Rashad Habibov:  Direct Drillr 3 
 DDSV.               Geo-Pilot:  DD Service 
 DEFF.%                  98.00:  % Det Eff 
 DLRX.°/30m               0.00:  Dogleg Rot Max 
 DLSO.°/30m               0.00:  Dogleg Oriented 
 DLSX.°/30m               0.00:  Dogleg Str Max 
 DRET.      10.45.04 08-May-21:  Drill End Time 
 DRST.      03.30.04 04-May-21:  Drill Start Tim 
 DTIM.hr                 14.97:  Time Drilling 
 EDEP.m                4640.01:  End Depth 
 ENG1.         Dail Mahammadov:  Engineer 1 
 ENG2.           Eldar Hajiyev:  Engineer 2 
 ENG3.       Bakhtiar Jabbarli:  Engineer 3 
 ENG4.       Natik Hasanagayev:  Engineer 4 
 ETIM.      09.30.04 14-May-21:  End Time 
 FLOI.gpm               460.00:  Flow In 
 FLON.gpm               200.00:  Flow In Min 
 FLOS.cptm                0.00:  Fluid Loss 
 FLOX.gpm               505.00:  Flow In Max 
 HFLO.                      No:  High Flow 
 HPRE.                      No:  High Pressure 
 HTEM.                      No:  High Temp 
 HYDO.m                   1.80:  Hydro Offset 
 IFIN.deg                66.71:  Inc, Final 
 IMAX.deg                67.03:  Inc Max 
 IMIN.deg                66.63:  Inc Min 
 IMND.m                4550.58:  Inc Min Depth 
 IMXD.m                4439.01:  Inc Max Depth 
 JARR.                      No:  Jarring 
 LETM.      10.45.04 08-May-21:  Log End Time 
 LOST.hr                     0:  Lost Rig Time 
 LSTM.      03.30.04 04-May-21:  Log Start Time 
 MDCL.ppm             37000.00:  Mud Chlorides 
 MDES.     Inversion Oil/Synthetic:  Mud Desc 
 DFD .sg                  1.38:  Mud Density 
 MDMN.sg                  1.35:  Dens Mud Min 
 MDMX.sg                  1.40:  Dens Mud Max 
 MOIL.                   57.40:  Run Mud Oil % 
 MOWR.                   70:30:  Run Mud OWR 
 MSND.                    0.00:  Run Mud Sand % 
 MSOL.                   18.00:  Run Mud Solids% 
 DFV .spqt               71.00:  Mud Viscosity 
 MWOD.in                  6.75:  MWD Tool OD 
 MWSI.                      No:  Serv Intrp, MWD 
 OTIM.hr                242.76:  Time Operating 
 PCON.           Look Like New:  Pad Condition 
 PMAX.psia            12183.92:  Press Op, Max 
 PV  .cP                 27.00:  Mud PV 
 RUN .                    1300:  Run Number 
 ROPA.m/hr               15.00:  ROP Avg 
 ROPN.m/hr                9.00:  ROP Min 
 ROPX.m/hr               19.00:  ROP Max 
 RPMA.rpm               120.00:  RPM Surface Avg 
 RPMN.rpm               100.00:  RPM Surface Min 
 RPMX.rpm               120.00:  RPM Surface Max 
 RRUN.                    1300:  Rig Run Number 
 RTIM.hr                  5.00:  Time Reaming 
 SAZI.deg               304.73:  Azm, Start 
 SDEP.m                4412.01:  Start Depth 
 SIDD.                      No:  Serv Intrp, DD 
 SINC.deg                66.82:  Inc, Start 
 SPPA.psig             2800.00:  SPP Avg 
 SPPN.psig             2610.00:  SPP Min 
 SPPX.psig             3100.00:  SPP Max 
 STIM.      03.30.00 04-May-21:  Start Time 
 SVCS.                 DD, MWD:  Services 
 SVER.                    9.20:  Sperry Version 
 TDAT.m                 228.00:  Tot Depth Attmp 
 TDDF.                      No:  Trip for DD 
 TDLG.m                 228.00:  Tot Depth Loggd 
 TFF .                      No:  Trip for Fail 
 TQAA.f-kp               15.00:  Torque Abs Avg 
 TQAN.f-kp               12.00:  Torque Abs Min 
 TQAX.f-kp               22.00:  Torque Abs Max 
 TRRT.°/30m               0.00:  Turn Rotating 
 MRT .                    HCIM:  Maximum Recorded Temperature 
 TTMX.degC               90.20:  Max Tool Temp 
 VS01.                90627813:  Virtual Str1 SN 
 VS02.                90634712:  Virtual Str2 SN 
 VS03.                90643410:  Virtual Str3 SN 
 VS04.                90634712:  Virtual Str4 SN 
 WBMN.klb                 9.00:  WOB Min 
 WITN.        Elmaddin Rahimov:  Customer Rep 
 WITN.         Haytham Mostafa:  Customer Rep 2 
 WOBA.klb                15.00:  WOB Avg 
 WOBX.klb                23.00:  WOB Max 
 YP  .lhf2               29.00:  Yield Point 
~Curve Information Block
#MNEM.UNIT                 API CODE     Curve Description
#---------               -----------    ---------------------------
 TIME.HHMMSS            00 000 000 000:  GT Time & Date
 GTDEPTH.m              00 000 000 000:  GT Depth
 GTPQH.psia             00 000 000 000:  GT HR Quartz Pressure
 GTTQ.degC              00 000 000 000:  GT Quartz Temperature
 GTTN.NONE              00 000 000 000:  GT Test Number
 GTET.sec               00 000 000 000:  GT Elapsed Test Time
 GTTVD.m                00 000 000 000:  GT True Vertical Depth
#Other Information
#
#WARRANTY: Halliburton will use its best efforts to furnish customers with 
#accurate information and interpretations that are part of, and incident to, the services 
#provided.  However, Halliburton cannot and does not warrant the accuracy 
#or correctness of such information and interpretations.  Under no circumstances should any 
#such information or interpretation be relied upon as the sole basis for any drilling, 
#completion, production, or financial decision or any procedure involving any risk to the 
#safety of any drilling venture, drilling rig or its crew or any other third party.  The 
#Customer has full responsibility for all drilling, completion and production operation.  
#Halliburton makes no representations or warranties, either expressed or 
#implied, including, but not limited to, the implied warranties of merchantability or fitness 
#for a particular purpose, with respect to the services rendered.  In no event will 
#Halliburton be liable for failure to obtain any particular results or for 
#any damages, including, but not limited to, indirect, special or consequential damages, 
#resulting from the use of any information or interpretation provided by Halliburton.
#
~A           TIME           GTDEPTH  GTPQH  GTTQ  GTTN  GTET   GTTVD  
# ...
   00:53:52.368.09-May-2021 4512.01 6800.29 67.64 8.00 391.14 2976.83
   00:53:52.569.09-May-2021 4512.01 6800.29 67.64 8.00 391.34 2976.83
   00:53:52.769.09-May-2021 4512.01 6809.22 67.64 8.00 391.54 2976.83
   00:53:52.969.09-May-2021 4512.01 6809.45 67.64 8.00 391.74 2976.83
   00:53:53.169.09-May-2021 4512.01 6807.24 67.64 8.00 391.94 2976.83
   00:53:53.369.09-May-2021 4512.01 6800.20 67.64 8.00 392.14 2976.83
   00:53:53.569.09-May-2021 4512.01 6800.20 67.64 8.00 392.34 2976.83
   00:53:53.769.09-May-2021 4512.01 6801.02 67.64 8.00 392.54 2976.83
   00:53:53.969.09-May-2021 4512.01 6800.78 67.64 8.00 392.74 2976.83
   00:53:54.169.09-May-2021 4512.01 6799.54 67.64 8.00 392.94 2976.83
   00:53:54.369.09-May-2021 4512.01 6799.42 67.64 8.00 393.14 2976.83
   00:53:54.569.09-May-2021 4512.01 6799.42 67.64 8.00 393.34 2976.83
   00:53:54.769.09-May-2021 4512.01 6798.59 67.64 8.00 393.54 2976.83
   00:53:54.969.09-May-2021 4512.01 6798.85 67.63 8.00 393.74 2976.83
   00:53:55.169.09-May-2021 4512.01 6798.45 67.63 8.00 393.94 2976.83
   00:53:55.370.09-May-2021 4512.01 6807.47 67.63 8.00 394.14 2976.83
   00:53:55.570.09-May-2021 4512.01 6807.47 67.63 8.00 394.34 2976.83
   00:53:55.770.09-May-2021 4512.01 6804.06 67.63 8.00 394.54 2976.83
   00:53:55.970.09-May-2021 4512.01 6803.52 67.63 8.00 394.74 2976.83
   00:53:56.170.09-May-2021 4512.01 6801.26 67.63 8.00 394.94 2976.83
   00:53:56.370.09-May-2021 4512.01 6808.99 67.63 8.00 395.14 2976.83
   00:53:56.570.09-May-2021 4512.01 6808.99 67.63 8.00 395.34 2976.83
   00:53:56.770.09-May-2021 4512.01 6803.74 67.63 8.00 395.54 2976.83
   00:53:56.970.09-May-2021 4512.01 6803.15 67.63 8.00 395.74 2976.83
   00:53:57.170.09-May-2021 4512.01 6809.45 67.63 8.00 395.94 2976.83
   00:53:57.370.09-May-2021 4512.01 6804.19 67.63 8.00 396.14 2976.83
   00:53:57.570.09-May-2021 4512.01 6804.19 67.63 8.00 396.34 2976.83
   00:53:57.770.09-May-2021 4512.01 6803.29 67.63 8.00 396.54 2976.83
   00:53:57.971.09-May-2021 4512.01 6801.62 67.63 8.00 396.74 2976.83
   00:53:58.171.09-May-2021 4512.01 6808.09 67.63 8.00 396.94 2976.83
   00:53:58.371.09-May-2021 4512.01 6806.72 67.63 8.00 397.14 2976.83
   00:53:58.571.09-May-2021 4512.01 6806.72 67.63 8.00 397.34 2976.83
   00:53:58.771.09-May-2021 4512.01 6798.78 67.63 8.00 397.54 2976.83
   00:53:58.971.09-May-2021 4512.01 6800.78 67.63 8.00 397.74 2976.83
   00:53:59.171.09-May-2021 4512.01 6799.84 67.63 8.00 397.94 2976.83
   00:53:59.371.09-May-2021 4512.01 6800.00 67.63 8.00 398.14 2976.83
   00:53:59.571.09-May-2021 4512.01 6800.00 67.63 8.00 398.34 2976.83
   00:53:59.771.09-May-2021 4512.01 6799.18 67.63 8.00 398.54 2976.83
   00:53:59.971.09-May-2021 4512.01 6799.13 67.63 8.00 398.74 2976.83
   00:54:00.171.09-May-2021 4512.01 6799.28 67.63 8.00 398.94 2976.83
   00:54:00.371.09-May-2021 4512.01 6800.12 67.63 8.00 399.14 2976.83
   00:54:00.571.09-May-2021 4512.01 6800.12 67.63 8.00 399.34 2976.83
   00:54:00.772.09-May-2021 4512.01 6812.52 67.63 8.00 399.54 2976.83
   00:54:00.972.09-May-2021 4512.01 6802.91 67.63 8.00 399.74 2976.83
   00:54:01.172.09-May-2021 4512.01 6804.82 67.63 8.00 399.94 2976.83
   00:54:01.372.09-May-2021 4512.01 6802.16 67.63 8.00 400.14 2976.83
   00:54:01.572.09-May-2021 4512.01 6802.16 67.63 8.00 400.35 2976.83
   00:54:01.772.09-May-2021 4512.01 6801.93 67.63 8.00 400.55 2976.83
   00:54:01.972.09-May-2021 4512.01 6801.05 67.63 8.00 400.75 2976.83
   00:54:02.172.09-May-2021 4512.01 6799.98 67.63 8.00 400.95 2976.83
   00:54:02.372.09-May-2021 4512.01 6799.95 67.63 8.00 401.15 2976.83
   00:54:02.572.09-May-2021 4512.01 6799.95 67.63 8.00 401.35 2976.83
   00:54:02.772.09-May-2021 4512.01 6799.18 67.63 8.00 401.55 2976.83
   00:54:02.972.09-May-2021 4512.01 6798.80 67.63 8.00 401.75 2976.83
   00:54:03.172.09-May-2021 4512.01 6799.27 67.63 8.00 401.95 2976.83
   00:54:03.372.09-May-2021 4512.01 6805.05 67.63 8.00 402.15 2976.83
   00:54:03.573.09-May-2021 4512.01 6805.05 67.63 8.00 402.35 2976.83
   00:54:03.773.09-May-2021 4512.01 6805.46 67.63 8.00 402.55 2976.83
   00:54:03.973.09-May-2021 4512.01 6804.10 67.63 8.00 402.75 2976.83
   00:54:04.173.09-May-2021 4512.01 6801.14 67.63 8.00 402.95 2976.83
   00:54:04.373.09-May-2021 4512.01 6808.55 67.63 8.00 403.15 2976.83
   00:54:04.573.09-May-2021 4512.01 6808.55 67.63 8.00 403.35 2976.83
   00:54:04.773.09-May-2021 4512.01 6803.05 67.63 8.00 403.55 2976.83
   00:54:04.973.09-May-2021 4512.01 6803.04 67.63 8.00 403.75 2976.83
   00:54:05.173.09-May-2021 4512.01 6801.68 67.63 8.00 403.95 2976.83
   00:54:05.373.09-May-2021 4512.01 6807.97 67.63 8.00 404.15 2976.83
   00:54:05.573.09-May-2021 4512.01 6807.97 67.63 8.00 404.35 2976.83
   00:54:05.773.09-May-2021 4512.01 6805.20 67.63 8.00 404.55 2976.83
   00:54:05.973.09-May-2021 4512.01 6807.49 67.63 8.00 404.75 2976.83
   00:54:06.173.09-May-2021 4512.01 6808.27 67.63 8.00 404.95 2976.83
   00:54:06.374.09-May-2021 4512.01 6806.59 67.63 8.00 405.15 2976.83
   00:54:06.574.09-May-2021 4512.01 6806.59 67.63 8.00 405.35 2976.83
   00:54:06.774.09-May-2021 4512.01 6799.91 67.63 8.00 405.55 2976.83
   00:54:06.974.09-May-2021 4512.01 6799.83 67.63 8.00 405.75 2976.83
   00:54:07.174.09-May-2021 4512.01 6799.87 67.63 8.00 405.95 2976.83
   00:54:07.374.09-May-2021 4512.01 6800.01 67.63 8.00 406.15 2976.83
   00:54:07.574.09-May-2021 4512.01 6800.01 67.63 8.00 406.35 2976.83
   00:54:07.774.09-May-2021 4512.01 6799.81 67.63 8.00 406.55 2976.83
   00:54:07.974.09-May-2021 4512.01 6799.76 67.63 8.00 406.75 2976.83
   00:54:08.174.09-May-2021 4512.01 6800.28 67.63 8.00 406.95 2976.83
   00:54:08.374.09-May-2021 4512.01 6800.39 67.63 8.00 407.15 2976.83
   00:54:08.574.09-May-2021 4512.01 6800.39 67.63 8.00 407.35 2976.83
   00:54:08.774.09-May-2021 4512.01 6809.34 67.62 8.00 407.55 2976.83
   00:54:08.974.09-May-2021 4512.01 6807.06 67.62 8.00 407.75 2976.83
   00:54:09.175.09-May-2021 4512.01 6800.15 67.62 8.00 407.95 2976.83
   00:54:09.375.09-May-2021 4512.01 6801.80 67.62 8.00 408.15 2976.83
   00:54:09.575.09-May-2021 4512.01 6801.80 67.62 8.00 408.35 2976.83
   00:54:09.775.09-May-2021 4512.01 6800.86 67.62 8.00 408.55 2976.83
   00:54:09.975.09-May-2021 4512.01 6799.86 67.62 8.00 408.75 2976.83
   00:54:10.175.09-May-2021 4512.01 6799.54 67.62 8.00 408.95 2976.83
   00:54:10.375.09-May-2021 4512.01 6798.93 67.62 8.00 409.15 2976.83
   00:54:10.575.09-May-2021 4512.01 6798.93 67.62 8.00 409.35 2976.83
   00:54:10.775.09-May-2021 4512.01 6798.52 67.62 8.00 409.55 2976.83
   00:54:10.975.09-May-2021 4512.01 6798.39 67.62 8.00 409.75 2976.83
   00:54:11.175.09-May-2021 4512.01 6807.27 67.62 8.00 409.95 2976.83
   00:54:11.375.09-May-2021 4512.01 6802.91 67.62 8.00 410.15 2976.83
   00:54:11.575.09-May-2021 4512.01 6802.91 67.62 8.00 410.35 2976.83
   00:54:11.776.09-May-2021 4512.01 6803.16 67.62 8.00 410.55 2976.83
   00:54:11.976.09-May-2021 4512.01 6800.75 67.62 8.00 410.75 2976.83
   00:54:12.176.09-May-2021 4512.01 6808.23 67.62 8.00 410.95 2976.83
   00:54:12.376.09-May-2021 4512.01 6803.02 67.62 8.00 411.15 2976.83
   00:54:12.576.09-May-2021 4512.01 6803.02 67.62 8.00 411.35 2976.83
   00:54:12.776.09-May-2021 4512.01 6802.69 67.62 8.00 411.55 2976.83
   00:54:12.976.09-May-2021 4512.01 6805.73 67.62 8.00 411.75 2976.83
   00:54:13.176.09-May-2021 4512.01 6803.68 67.62 8.00 411.95 2976.83
   00:54:13.376.09-May-2021 4512.01 6805.77 67.62 8.00 412.15 2976.83
   00:54:13.576.09-May-2021 4512.01 6805.77 67.62 8.00 412.35 2976.83
   00:54:13.776.09-May-2021 4512.01 6800.86 67.62 8.00 412.55 2976.83
   00:54:13.976.09-May-2021 4512.01 6799.08 67.62 8.00 412.75 2976.83
   00:54:14.176.09-May-2021 4512.01 6806.64 67.62 8.00 412.95 2976.83
   00:54:14.376.09-May-2021 4512.01 6801.31 67.62 8.00 413.15 2976.83
   00:54:14.577.09-May-2021 4512.01 6801.31 67.62 8.00 413.35 2976.83
   00:54:14.777.09-May-2021 4512.01 6803.54 67.62 8.00 413.55 2976.83
   00:54:14.977.09-May-2021 4512.01 6801.81 67.62 8.00 413.75 2976.83
   00:54:15.177.09-May-2021 4512.01 6800.47 67.62 8.00 413.95 2976.83
