~Version Information
 VERS.                  2.0:   CWLS log ASCII Standard -VERSION 2.0
 WRAP.                   NO:   One line per depth step
~Well Information Block
#MNEM.UNIT     VALUE/NAME     DESCRIPTION
#---------     -----------    ---------------------------
 STRT.S             21:53:52 08-May-21: START TIME 21:53:52 08-May-21
 STOP.S             22:00:27 08-May-21: STOP TIME  22:00:27 08-May-21
 STEP.S                   0.00: STEP TIME
 NULL.                 -999.25: NULL VALUE
 PROV.                    Baku:  PROVINCE
 STAT.                    Baku:  STATE NAME
 SON .        AZ-XX-0906571588:  JOB NUMBER
 WTYP.                Deviated:  WELL TYPE
 COMP.     BP Exploration (Caspian Sea) ltd:  COMPANY
 BASE.              Azerbaijan:  LOGGING EQUIPMENT BASE LOCATION
 REGN.                   EESSA:  REGION
 CTRY.              Azerbaijan:  COUNTRY NAME
 FLD .                     ACG:  FIELD NAME
 WELL.                     J28:  WELL NAME
 RIG .             West Chirag:  RIG NAME
 DMF .             Drill Floor:  DRILL MEAS FROM
 PDAT.       Caspian Sea Level:  PERMANENT DATUM
 HPTY.       Minimum Curvature:  HOLE POS TYPE
 MDS .        Operator Entered:  MAG DATA SOURCE
 NREF.                    Grid:  NORTH REFERENCE
 SRVC.          TURAN DRILLING:  CONTRACTOR
 JOBN.        AZ-XX-0906571588:  JOB TICKET NUMB
 DCON.     Halliburton Sperry Drilling:  DIRECTNL CONTR
 STIM.      00.44.00 11-Feb-21:  START TIME
 DATE.      00.00.00 05-May-21:  END TIME
 SPUD.               13-Feb-21:  SPUD DATE
 MWDS.                    Baku:  MWD SHOP
 DOE .                     N/A:  DOE NUMBER
 UNIT.                     N/A:  LOGGING EQUIPMENT ID
 UWI .                     N/A:  UNIQUE WELL IDENTIFIER
 API .                     N/A:  API NUMBER
 CNTY.                        :  COUNTY
 LOC .                        :  LOCATION
 LMF .             Drill Floor:  LOG MEASURED FROM
 TVDS.m                  43.00:  TVDSS CORRECTN
 SDEP.m                 341.00:  START DEPTH
 EGL .m                   0.00:  GROUND ELEVATION
 WDMS.m                 169.80:  WD ELEV
 AGAP.m                  43.00:  AIR GAP
 EPD .m                   0.00:  ELEVATION
 APD .m                  43.00:  DEPTH ABOVE PD
 LATI.deg                40.13:  LATITUDE
 LONG.deg                51.22:  LONGITUDE
 UTMY.m             4443793.85:  UTM Y
 UTMX.m              519005.06:  UTM X
 WHEW.m                 -11.57:  WELL HEAD E/W
 WHNS.m                   8.57:  WELL HEAD N/S
 VSEW.m                 -11.57:  VERT SEC E/W
 VSNS.m                   8.57:  VERT SEC N/S
 DFWL.m                   0.00:  DISTANCE FWL
 DFSL.m                   0.00:  DISTANCE FSL
 VSDR.deg               299.34:  VERT SEC DIRECT
 GVFD.g                   1.00:  GRAVITY FIELD
 AZTC.deg                 6.36:  AZM TOTAL CORR
 MFLD.nT              50391.00:  MAGNETIC FIELD
 MDIP.deg                59.65:  MAGNETIC DIP
 MDEC.deg                 6.48:  MAGNETIC DECL
 GRDC.deg                 0.12:  GRID CORRECTION
 DEP .m                 334.96:  DEPTH
 TDD .m                1407.26:  TOTAL DEPTH (DRILLER)
 EKB .m                  43.00:  KB ELEVATION
 EDF .m                  43.00:  DF ELEVATION
 TDL .m                 228.00:  TOTAL DEPTH (LOGGER)
 VSC .                       0:  VS TO CLOSURE
 MAGU.                 1854484:  MAGUTM CHECKSUM
~Parameter Information Block
#MNEM.UNIT       Value        Description
#---------     -----------    ---------------------------
 AV  .mps                 4.00:  Ann Velocity 
 AVMX.mps                 4.73:  Max Ann Veloc 
 AZIF.deg               304.48:  Azm, Final 
 BHAT.        Rotary Steerable:  BHA Type 
 BREV.rev            257300.00:  Rev Bit Total 
 BROT.°/30m               0.00:  Build Rotating 
 BS  .in                  8.50:  Bit Size 
 BSZ .in                  8.50:  Bit Size 
 BTPL.psig              589.00:  Bit Press Loss 
 CABU.                      No:  Customer Abuse 
 CGEO.          Mubariz ghayev:  Customer Geo 
 COMM.                     ¤=s:  Run Comments 1 
 TCS .hr                 64.25:  Time Ciculation Ended 
 CV  .mps                 3.50:  Crit Velocity 
 CVMX.mps                 4.52:  Max Crit Veloc 
 DD1 .             Aziz Aliyev:  Direct Drillr 1 
 DD2 .         Intigam Rahimov:  Direct Drillr 2 
 DD3 .          Rashad Habibov:  Direct Drillr 3 
 DDSV.               Geo-Pilot:  DD Service 
 DEFF.%                  98.00:  % Det Eff 
 DLRX.°/30m               0.00:  Dogleg Rot Max 
 DLSO.°/30m               0.00:  Dogleg Oriented 
 DLSX.°/30m               0.00:  Dogleg Str Max 
 DRET.      10.45.04 08-May-21:  Drill End Time 
 DRST.      03.30.04 04-May-21:  Drill Start Tim 
 DTIM.hr                 14.97:  Time Drilling 
 EDEP.m                4640.01:  End Depth 
 ENG1.         Dail Mahammadov:  Engineer 1 
 ENG2.           Eldar Hajiyev:  Engineer 2 
 ENG3.       Bakhtiar Jabbarli:  Engineer 3 
 ENG4.       Natik Hasanagayev:  Engineer 4 
 ETIM.      09.30.04 14-May-21:  End Time 
 FLOI.gpm               460.00:  Flow In 
 FLON.gpm               200.00:  Flow In Min 
 FLOS.cptm                0.00:  Fluid Loss 
 FLOX.gpm               505.00:  Flow In Max 
 HFLO.                      No:  High Flow 
 HPRE.                      No:  High Pressure 
 HTEM.                      No:  High Temp 
 HYDO.m                   1.80:  Hydro Offset 
 IFIN.deg                66.71:  Inc, Final 
 IMAX.deg                67.03:  Inc Max 
 IMIN.deg                66.63:  Inc Min 
 IMND.m                4550.58:  Inc Min Depth 
 IMXD.m                4439.01:  Inc Max Depth 
 JARR.                      No:  Jarring 
 LETM.      10.45.04 08-May-21:  Log End Time 
 LOST.hr                     0:  Lost Rig Time 
 LSTM.      03.30.04 04-May-21:  Log Start Time 
 MDCL.ppm             37000.00:  Mud Chlorides 
 MDES.     Inversion Oil/Synthetic:  Mud Desc 
 DFD .sg                  1.38:  Mud Density 
 MDMN.sg                  1.35:  Dens Mud Min 
 MDMX.sg                  1.40:  Dens Mud Max 
 MOIL.                   57.40:  Run Mud Oil % 
 MOWR.                   70:30:  Run Mud OWR 
 MSND.                    0.00:  Run Mud Sand % 
 MSOL.                   18.00:  Run Mud Solids% 
 DFV .spqt               71.00:  Mud Viscosity 
 MWOD.in                  6.75:  MWD Tool OD 
 MWSI.                      No:  Serv Intrp, MWD 
 OTIM.hr                242.76:  Time Operating 
 PCON.           Look Like New:  Pad Condition 
 PMAX.psia            12183.92:  Press Op, Max 
 PV  .cP                 27.00:  Mud PV 
 RUN .                    1300:  Run Number 
 ROPA.m/hr               15.00:  ROP Avg 
 ROPN.m/hr                9.00:  ROP Min 
 ROPX.m/hr               19.00:  ROP Max 
 RPMA.rpm               120.00:  RPM Surface Avg 
 RPMN.rpm               100.00:  RPM Surface Min 
 RPMX.rpm               120.00:  RPM Surface Max 
 RRUN.                    1300:  Rig Run Number 
 RTIM.hr                  5.00:  Time Reaming 
 SAZI.deg               304.73:  Azm, Start 
 SDEP.m                4412.01:  Start Depth 
 SIDD.                      No:  Serv Intrp, DD 
 SINC.deg                66.82:  Inc, Start 
 SPPA.psig             2800.00:  SPP Avg 
 SPPN.psig             2610.00:  SPP Min 
 SPPX.psig             3100.00:  SPP Max 
 STIM.      03.30.00 04-May-21:  Start Time 
 SVCS.                 DD, MWD:  Services 
 SVER.                    9.20:  Sperry Version 
 TDAT.m                 228.00:  Tot Depth Attmp 
 TDDF.                      No:  Trip for DD 
 TDLG.m                 228.00:  Tot Depth Loggd 
 TFF .                      No:  Trip for Fail 
 TQAA.f-kp               15.00:  Torque Abs Avg 
 TQAN.f-kp               12.00:  Torque Abs Min 
 TQAX.f-kp               22.00:  Torque Abs Max 
 TRRT.°/30m               0.00:  Turn Rotating 
 MRT .                    HCIM:  Maximum Recorded Temperature 
 TTMX.degC               90.20:  Max Tool Temp 
 VS01.                90627813:  Virtual Str1 SN 
 VS02.                90634712:  Virtual Str2 SN 
 VS03.                90643410:  Virtual Str3 SN 
 VS04.                90634712:  Virtual Str4 SN 
 WBMN.klb                 9.00:  WOB Min 
 WITN.        Elmaddin Rahimov:  Customer Rep 
 WITN.         Haytham Mostafa:  Customer Rep 2 
 WOBA.klb                15.00:  WOB Avg 
 WOBX.klb                23.00:  WOB Max 
 YP  .lhf2               29.00:  Yield Point 
~Curve Information Block
#MNEM.UNIT                 API CODE     Curve Description
#---------               -----------    ---------------------------
 TIME.HHMMSS            00 000 000 000:  GT Time & Date
 GTDEPTH.m              00 000 000 000:  GT Depth
 GTPQH.psia             00 000 000 000:  GT HR Quartz Pressure
 GTTQ.degC              00 000 000 000:  GT Quartz Temperature
 GTTN.NONE              00 000 000 000:  GT Test Number
 GTET.sec               00 000 000 000:  GT Elapsed Test Time
 GTTVD.m                00 000 000 000:  GT True Vertical Depth
#Other Information
#
#WARRANTY: Halliburton will use its best efforts to furnish customers with 
#accurate information and interpretations that are part of, and incident to, the services 
#provided.  However, Halliburton cannot and does not warrant the accuracy 
#or correctness of such information and interpretations.  Under no circumstances should any 
#such information or interpretation be relied upon as the sole basis for any drilling, 
#completion, production, or financial decision or any procedure involving any risk to the 
#safety of any drilling venture, drilling rig or its crew or any other third party.  The 
#Customer has full responsibility for all drilling, completion and production operation.  
#Halliburton makes no representations or warranties, either expressed or 
#implied, including, but not limited to, the implied warranties of merchantability or fitness 
#for a particular purpose, with respect to the services rendered.  In no event will 
#Halliburton be liable for failure to obtain any particular results or for 
#any damages, including, but not limited to, indirect, special or consequential damages, 
#resulting from the use of any information or interpretation provided by Halliburton.
#
~A           TIME           GTDEPTH  GTPQH  GTTQ  GTTN  GTET   GTTVD  
# ...
   21:57:42.000.08-May-2021 4568.51  732.67 68.96 3.00 230.00 2999.18
   21:57:42.200.08-May-2021 4568.51  732.67 68.96 3.00 230.20 2999.18
   21:57:42.400.08-May-2021 4568.51  732.78 68.96 3.00 230.40 2999.18
   21:57:42.600.08-May-2021 4568.51  732.31 68.96 3.00 230.60 2999.18
   21:57:42.800.08-May-2021 4568.51  733.15 68.96 3.00 230.80 2999.18
   21:57:43.000.08-May-2021 4568.51  732.91 68.96 3.00 231.00 2999.18
   21:57:43.200.08-May-2021 4568.51  732.91 68.96 3.00 231.20 2999.18
   21:57:43.400.08-May-2021 4568.51  733.00 68.95 3.00 231.40 2999.18
   21:57:43.600.08-May-2021 4568.51  732.98 68.95 3.00 231.60 2999.18
   21:57:43.800.08-May-2021 4568.51  733.03 68.95 3.00 231.80 2999.18
   21:57:44.000.08-May-2021 4568.51  733.04 68.95 3.00 232.00 2999.18
   21:57:44.200.08-May-2021 4568.51  733.04 68.95 3.00 232.20 2999.18
   21:57:44.400.08-May-2021 4568.51  733.10 68.95 3.00 232.40 2999.18
   21:57:44.600.08-May-2021 4568.51  733.15 68.95 3.00 232.60 2999.18
   21:57:44.800.08-May-2021 4568.51  733.24 68.95 3.00 232.80 2999.18
   21:57:45.000.08-May-2021 4568.51  732.85 68.95 3.00 233.00 2999.18
   21:57:45.200.08-May-2021 4568.51  732.85 68.95 3.00 233.20 2999.18
   21:57:45.400.08-May-2021 4568.51  733.28 68.95 3.00 233.40 2999.18
   21:57:45.600.08-May-2021 4568.51  733.51 68.95 3.00 233.60 2999.18
   21:57:45.800.08-May-2021 4568.51  733.45 68.95 3.00 233.80 2999.18
   21:57:46.000.08-May-2021 4568.51  733.10 68.95 3.00 234.00 2999.18
   21:57:46.200.08-May-2021 4568.51  733.10 68.95 3.00 234.20 2999.18
   21:57:46.400.08-May-2021 4568.51  733.62 68.95 3.00 234.40 2999.18
   21:57:46.600.08-May-2021 4568.51  733.56 68.95 3.00 234.60 2999.18
   21:57:46.800.08-May-2021 4568.51  733.57 68.95 3.00 234.80 2999.18
   21:57:47.000.08-May-2021 4568.51  733.56 68.95 3.00 235.00 2999.18
   21:57:47.200.08-May-2021 4568.51  733.56 68.95 3.00 235.20 2999.18
   21:57:47.400.08-May-2021 4568.51  733.97 68.95 3.00 235.40 2999.18
   21:57:47.600.08-May-2021 4568.51  733.54 68.95 3.00 235.60 2999.18
   21:57:47.800.08-May-2021 4568.51  733.86 68.95 3.00 235.80 2999.18
   21:57:48.000.08-May-2021 4568.51  733.77 68.95 3.00 236.00 2999.18
   21:57:48.200.08-May-2021 4568.51  733.77 68.95 3.00 236.20 2999.18
   21:57:48.400.08-May-2021 4568.51  733.28 68.95 3.00 236.40 2999.18
   21:57:48.600.08-May-2021 4568.51  734.17 68.95 3.00 236.60 2999.18
   21:57:48.800.08-May-2021 4568.51  733.94 68.95 3.00 236.80 2999.18
   21:57:49.000.08-May-2021 4568.51  733.94 68.95 3.00 237.00 2999.18
   21:57:49.200.08-May-2021 4568.51  733.94 68.95 3.00 237.20 2999.18
   21:57:49.400.08-May-2021 4568.51  734.02 68.95 3.00 237.40 2999.18
   21:57:49.600.08-May-2021 4568.51  734.04 68.95 3.00 237.60 2999.18
   21:57:49.800.08-May-2021 4568.51  734.09 68.95 3.00 237.80 2999.18
   21:57:50.000.08-May-2021 4568.51  734.11 68.95 3.00 238.00 2999.18
   21:57:50.200.08-May-2021 4568.51  734.11 68.95 3.00 238.20 2999.18
   21:57:50.400.08-May-2021 4568.51  734.25 68.95 3.00 238.40 2999.18
   21:57:50.600.08-May-2021 4568.51  734.26 68.95 3.00 238.60 2999.18
   21:57:50.800.08-May-2021 4568.51  733.90 68.95 3.00 238.80 2999.18
   21:57:51.000.08-May-2021 4568.51  734.27 68.95 3.00 239.00 2999.18
   21:57:51.200.08-May-2021 4568.51  734.27 68.95 3.00 239.20 2999.18
   21:57:51.400.08-May-2021 4568.51  734.50 68.95 3.00 239.40 2999.18
   21:57:51.600.08-May-2021 4568.51  734.45 68.95 3.00 239.60 2999.18
   21:57:51.800.08-May-2021 4568.51  734.51 68.95 3.00 239.80 2999.18
   21:57:52.000.08-May-2021 4568.51  734.51 68.95 3.00 240.00 2999.18
   21:57:52.200.08-May-2021 4568.51  734.51 68.95 3.00 240.20 2999.18
   21:57:52.400.08-May-2021 4568.51  734.56 68.95 3.00 240.40 2999.18
   21:57:52.600.08-May-2021 4568.51  734.56 68.95 3.00 240.60 2999.18
   21:57:52.800.08-May-2021 4568.51  734.63 68.95 3.00 240.80 2999.18
   21:57:53.000.08-May-2021 4568.51  734.67 68.95 3.00 241.00 2999.18
   21:57:53.200.08-May-2021 4568.51  734.67 68.95 3.00 241.20 2999.18
   21:57:53.400.08-May-2021 4568.51  734.08 68.95 3.00 241.40 2999.18
   21:57:53.600.08-May-2021 4568.51  735.13 68.95 3.00 241.60 2999.18
   21:57:53.800.08-May-2021 4568.51  734.76 68.95 3.00 241.80 2999.18
   21:57:54.000.08-May-2021 4568.51  735.02 68.95 3.00 242.00 2999.18
   21:57:54.200.08-May-2021 4568.51  735.02 68.95 3.00 242.20 2999.18
   21:57:54.400.08-May-2021 4568.51  734.28 68.95 3.00 242.40 2999.18
   21:57:54.600.08-May-2021 4568.51  735.27 68.95 3.00 242.60 2999.18
   21:57:54.800.08-May-2021 4568.51  734.89 68.95 3.00 242.80 2999.18
   21:57:55.000.08-May-2021 4568.51  735.16 68.95 3.00 243.00 2999.18
   21:57:55.200.08-May-2021 4568.51  735.16 68.95 3.00 243.20 2999.18
   21:57:55.400.08-May-2021 4568.51  734.99 68.95 3.00 243.40 2999.18
   21:57:55.600.08-May-2021 4568.51  734.38 68.95 3.00 243.60 2999.18
   21:57:55.800.08-May-2021 4568.51  735.48 68.95 3.00 243.80 2999.18
   21:57:56.000.08-May-2021 4568.51  735.06 68.95 3.00 244.00 2999.18
   21:57:56.200.08-May-2021 4568.51  735.06 68.95 3.00 244.20 2999.18
   21:57:56.400.08-May-2021 4568.51  735.25 68.95 3.00 244.40 2999.18
   21:57:56.600.08-May-2021 4568.51  735.17 68.95 3.00 244.60 2999.18
   21:57:56.800.08-May-2021 4568.51  734.79 68.95 3.00 244.80 2999.18
   21:57:57.000.08-May-2021 4568.51  735.69 68.95 3.00 245.00 2999.18
   21:57:57.200.08-May-2021 4568.51  735.69 68.95 3.00 245.20 2999.18
   21:57:57.400.08-May-2021 4568.51  735.43 68.95 3.00 245.40 2999.18
   21:57:57.600.08-May-2021 4568.51  735.50 68.95 3.00 245.60 2999.18
   21:57:57.800.08-May-2021 4568.51  735.51 68.95 3.00 245.80 2999.18
   21:57:58.000.08-May-2021 4568.51  735.53 68.95 3.00 246.00 2999.18
   21:57:58.200.08-May-2021 4568.51  735.53 68.95 3.00 246.20 2999.18
   21:57:58.400.08-May-2021 4568.51  735.61 68.95 3.00 246.40 2999.18
   21:57:58.600.08-May-2021 4568.51  735.67 68.95 3.00 246.60 2999.18
   21:57:58.800.08-May-2021 4568.51  735.75 68.95 3.00 246.80 2999.18
   21:57:59.000.08-May-2021 4568.51  735.75 68.95 3.00 247.00 2999.18
   21:57:59.200.08-May-2021 4568.51  735.75 68.95 3.00 247.20 2999.18
   21:57:59.400.08-May-2021 4568.51  735.78 68.95 3.00 247.40 2999.18
   21:57:59.600.08-May-2021 4568.51  736.09 68.95 3.00 247.60 2999.18
   21:57:59.800.08-May-2021 4568.51  736.00 68.95 3.00 247.80 2999.18
   21:58:00.000.08-May-2021 4568.51  735.94 68.95 3.00 248.00 2999.18
   21:58:00.200.08-May-2021 4568.51  735.94 68.95 3.00 248.20 2999.18
   21:58:00.400.08-May-2021 4568.51  735.98 68.95 3.00 248.40 2999.18
   21:58:00.600.08-May-2021 4568.51  736.00 68.95 3.00 248.60 2999.18
   21:58:00.800.08-May-2021 4568.51  736.03 68.95 3.00 248.80 2999.18
   21:58:01.000.08-May-2021 4568.51  736.03 68.95 3.00 249.00 2999.18
   21:58:01.200.08-May-2021 4568.51  736.03 68.95 3.00 249.20 2999.18
   21:58:01.400.08-May-2021 4568.51  736.14 68.95 3.00 249.40 2999.18
   21:58:01.600.08-May-2021 4568.51  736.12 68.95 3.00 249.60 2999.18
   21:58:01.800.08-May-2021 4568.51  735.53 68.95 3.00 249.80 2999.18
   21:58:02.000.08-May-2021 4568.51  736.59 68.95 3.00 250.00 2999.18
   21:58:02.200.08-May-2021 4568.51  736.59 68.95 3.00 250.20 2999.18
   21:58:02.400.08-May-2021 4568.51  736.49 68.95 3.00 250.40 2999.18
   21:58:02.600.08-May-2021 4568.51  736.37 68.95 3.00 250.60 2999.18
   21:58:02.800.08-May-2021 4568.51  735.92 68.95 3.00 250.80 2999.18
   21:58:03.000.08-May-2021 4568.51  736.55 68.95 3.00 251.00 2999.18
   21:58:03.200.08-May-2021 4568.51  736.55 68.95 3.00 251.20 2999.18
   21:58:03.400.08-May-2021 4568.51  736.66 68.95 3.00 251.40 2999.18
   21:58:03.600.08-May-2021 4568.51  736.54 68.95 3.00 251.60 2999.18
   21:58:03.800.08-May-2021 4568.51  736.49 68.95 3.00 251.80 2999.18
   21:58:04.000.08-May-2021 4568.51  735.88 68.95 3.00 252.00 2999.18
   21:58:04.200.08-May-2021 4568.51  735.88 68.95 3.00 252.20 2999.18
   21:58:04.400.08-May-2021 4568.51  736.59 68.95 3.00 252.40 2999.18
   21:58:04.600.08-May-2021 4568.51  736.87 68.95 3.00 252.60 2999.18
   21:58:04.800.08-May-2021 4568.51  736.78 68.95 3.00 252.80 2999.18
