~Version Information
 VERS.                  2.0:   CWLS log ASCII Standard -VERSION 2.0
 WRAP.                   NO:   One line per depth step
~Well Information Block
#MNEM.UNIT     VALUE/NAME     DESCRIPTION
#---------     -----------    ---------------------------
 STRT.S             00:30:13 09-May-21: START TIME 00:30:13 09-May-21
 STOP.S             00:37:03 09-May-21: STOP TIME  00:37:03 09-May-21
 STEP.S                   0.00: STEP TIME
 NULL.                 -999.25: NULL VALUE
 PROV.                    Baku:  PROVINCE
 STAT.                    Baku:  STATE NAME
 SON .        AZ-XX-0906571588:  JOB NUMBER
 WTYP.                Deviated:  WELL TYPE
 COMP.     BP Exploration (Caspian Sea) ltd:  COMPANY
 BASE.              Azerbaijan:  LOGGING EQUIPMENT BASE LOCATION
 REGN.                   EESSA:  REGION
 CTRY.              Azerbaijan:  COUNTRY NAME
 FLD .                     ACG:  FIELD NAME
 WELL.                     J28:  WELL NAME
 RIG .             West Chirag:  RIG NAME
 DMF .             Drill Floor:  DRILL MEAS FROM
 PDAT.       Caspian Sea Level:  PERMANENT DATUM
 HPTY.       Minimum Curvature:  HOLE POS TYPE
 MDS .        Operator Entered:  MAG DATA SOURCE
 NREF.                    Grid:  NORTH REFERENCE
 SRVC.          TURAN DRILLING:  CONTRACTOR
 JOBN.        AZ-XX-0906571588:  JOB TICKET NUMB
 DCON.     Halliburton Sperry Drilling:  DIRECTNL CONTR
 STIM.      00.44.00 11-Feb-21:  START TIME
 DATE.      00.00.00 05-May-21:  END TIME
 SPUD.               13-Feb-21:  SPUD DATE
 MWDS.                    Baku:  MWD SHOP
 DOE .                     N/A:  DOE NUMBER
 UNIT.                     N/A:  LOGGING EQUIPMENT ID
 UWI .                     N/A:  UNIQUE WELL IDENTIFIER
 API .                     N/A:  API NUMBER
 CNTY.                        :  COUNTY
 LOC .                        :  LOCATION
 LMF .             Drill Floor:  LOG MEASURED FROM
 TVDS.m                  43.00:  TVDSS CORRECTN
 SDEP.m                 341.00:  START DEPTH
 EGL .m                   0.00:  GROUND ELEVATION
 WDMS.m                 169.80:  WD ELEV
 AGAP.m                  43.00:  AIR GAP
 EPD .m                   0.00:  ELEVATION
 APD .m                  43.00:  DEPTH ABOVE PD
 LATI.deg                40.13:  LATITUDE
 LONG.deg                51.22:  LONGITUDE
 UTMY.m             4443793.85:  UTM Y
 UTMX.m              519005.06:  UTM X
 WHEW.m                 -11.57:  WELL HEAD E/W
 WHNS.m                   8.57:  WELL HEAD N/S
 VSEW.m                 -11.57:  VERT SEC E/W
 VSNS.m                   8.57:  VERT SEC N/S
 DFWL.m                   0.00:  DISTANCE FWL
 DFSL.m                   0.00:  DISTANCE FSL
 VSDR.deg               299.34:  VERT SEC DIRECT
 GVFD.g                   1.00:  GRAVITY FIELD
 AZTC.deg                 6.36:  AZM TOTAL CORR
 MFLD.nT              50391.00:  MAGNETIC FIELD
 MDIP.deg                59.65:  MAGNETIC DIP
 MDEC.deg                 6.48:  MAGNETIC DECL
 GRDC.deg                 0.12:  GRID CORRECTION
 DEP .m                 334.96:  DEPTH
 TDD .m                1407.26:  TOTAL DEPTH (DRILLER)
 EKB .m                  43.00:  KB ELEVATION
 EDF .m                  43.00:  DF ELEVATION
 TDL .m                 228.00:  TOTAL DEPTH (LOGGER)
 VSC .                       0:  VS TO CLOSURE
 MAGU.                 1854484:  MAGUTM CHECKSUM
~Parameter Information Block
#MNEM.UNIT       Value        Description
#---------     -----------    ---------------------------
 AV  .mps                 4.00:  Ann Velocity 
 AVMX.mps                 4.73:  Max Ann Veloc 
 AZIF.deg               304.48:  Azm, Final 
 BHAT.        Rotary Steerable:  BHA Type 
 BREV.rev            257300.00:  Rev Bit Total 
 BROT.°/30m               0.00:  Build Rotating 
 BS  .in                  8.50:  Bit Size 
 BSZ .in                  8.50:  Bit Size 
 BTPL.psig              589.00:  Bit Press Loss 
 CABU.                      No:  Customer Abuse 
 CGEO.          Mubariz ghayev:  Customer Geo 
 TCS .hr                 64.25:  Time Ciculation Ended 
 CV  .mps                 3.50:  Crit Velocity 
 CVMX.mps                 4.52:  Max Crit Veloc 
 DD1 .             Aziz Aliyev:  Direct Drillr 1 
 DD2 .         Intigam Rahimov:  Direct Drillr 2 
 DD3 .          Rashad Habibov:  Direct Drillr 3 
 DDSV.               Geo-Pilot:  DD Service 
 DEFF.%                  98.00:  % Det Eff 
 DLRX.°/30m               0.00:  Dogleg Rot Max 
 DLSO.°/30m               0.00:  Dogleg Oriented 
 DLSX.°/30m               0.00:  Dogleg Str Max 
 DRET.      10.45.04 08-May-21:  Drill End Time 
 DRST.      03.30.04 04-May-21:  Drill Start Tim 
 DTIM.hr                 14.97:  Time Drilling 
 EDEP.m                4640.01:  End Depth 
 ENG1.         Dail Mahammadov:  Engineer 1 
 ENG2.           Eldar Hajiyev:  Engineer 2 
 ENG3.       Bakhtiar Jabbarli:  Engineer 3 
 ENG4.       Natik Hasanagayev:  Engineer 4 
 ETIM.      09.30.04 14-May-21:  End Time 
 FLOI.gpm               460.00:  Flow In 
 FLON.gpm               200.00:  Flow In Min 
 FLOS.cptm                0.00:  Fluid Loss 
 FLOX.gpm               505.00:  Flow In Max 
 HFLO.                      No:  High Flow 
 HPRE.                      No:  High Pressure 
 HTEM.                      No:  High Temp 
 HYDO.m                   1.80:  Hydro Offset 
 IFIN.deg                66.71:  Inc, Final 
 IMAX.deg                67.03:  Inc Max 
 IMIN.deg                66.63:  Inc Min 
 IMND.m                4550.58:  Inc Min Depth 
 IMXD.m                4439.01:  Inc Max Depth 
 JARR.                      No:  Jarring 
 LETM.      10.45.04 08-May-21:  Log End Time 
 LOST.hr                     0:  Lost Rig Time 
 LSTM.      03.30.04 04-May-21:  Log Start Time 
 MDCL.ppm             37000.00:  Mud Chlorides 
 MDES.     Inversion Oil/Synthetic:  Mud Desc 
 DFD .sg                  1.38:  Mud Density 
 MDMN.sg                  1.35:  Dens Mud Min 
 MDMX.sg                  1.40:  Dens Mud Max 
 MOIL.                   57.40:  Run Mud Oil % 
 MOWR.                   70:30:  Run Mud OWR 
 MSND.                    0.00:  Run Mud Sand % 
 MSOL.                   18.00:  Run Mud Solids% 
 DFV .spqt               71.00:  Mud Viscosity 
 MWOD.in                  6.75:  MWD Tool OD 
 MWSI.                      No:  Serv Intrp, MWD 
 OTIM.hr                242.76:  Time Operating 
 PCON.           Look Like New:  Pad Condition 
 PMAX.psia            12183.92:  Press Op, Max 
 PV  .cP                 27.00:  Mud PV 
 RUN .                    1300:  Run Number 
 ROPA.m/hr               15.00:  ROP Avg 
 ROPN.m/hr                9.00:  ROP Min 
 ROPX.m/hr               19.00:  ROP Max 
 RPMA.rpm               120.00:  RPM Surface Avg 
 RPMN.rpm               100.00:  RPM Surface Min 
 RPMX.rpm               120.00:  RPM Surface Max 
 RRUN.                    1300:  Rig Run Number 
 RTIM.hr                  5.00:  Time Reaming 
 SAZI.deg               304.73:  Azm, Start 
 SDEP.m                4412.01:  Start Depth 
 SIDD.                      No:  Serv Intrp, DD 
 SINC.deg                66.82:  Inc, Start 
 SPPA.psig             2800.00:  SPP Avg 
 SPPN.psig             2610.00:  SPP Min 
 SPPX.psig             3100.00:  SPP Max 
 STIM.      03.30.00 04-May-21:  Start Time 
 SVCS.                 DD, MWD:  Services 
 SVER.                    9.20:  Sperry Version 
 TDAT.m                 228.00:  Tot Depth Attmp 
 TDDF.                      No:  Trip for DD 
 TDLG.m                 228.00:  Tot Depth Loggd 
 TFF .                      No:  Trip for Fail 
 TQAA.f-kp               15.00:  Torque Abs Avg 
 TQAN.f-kp               12.00:  Torque Abs Min 
 TQAX.f-kp               22.00:  Torque Abs Max 
 TRRT.°/30m               0.00:  Turn Rotating 
 MRT .                    HCIM:  Maximum Recorded Temperature 
 TTMX.degC               90.20:  Max Tool Temp 
 VS01.                90627813:  Virtual Str1 SN 
 VS02.                90634712:  Virtual Str2 SN 
 VS03.                90643410:  Virtual Str3 SN 
 VS04.                90634712:  Virtual Str4 SN 
 WBMN.klb                 9.00:  WOB Min 
 WITN.        Elmaddin Rahimov:  Customer Rep 
 WITN.         Haytham Mostafa:  Customer Rep 2 
 WOBA.klb                15.00:  WOB Avg 
 WOBX.klb                23.00:  WOB Max 
 YP  .lhf2               29.00:  Yield Point 
~Curve Information Block
#MNEM.UNIT                 API CODE     Curve Description
#---------               -----------    ---------------------------
 TIME.HHMMSS            00 000 000 000:  GT Time & Date
 GTDEPTH.m              00 000 000 000:  GT Depth
 GTPQH.psia             00 000 000 000:  GT HR Quartz Pressure
 GTTQ.degC              00 000 000 000:  GT Quartz Temperature
 GTTN.NONE              00 000 000 000:  GT Test Number
 GTET.sec               00 000 000 000:  GT Elapsed Test Time
 GTTVD.m                00 000 000 000:  GT True Vertical Depth
#Other Information
#
#WARRANTY: Halliburton will use its best efforts to furnish customers with 
#accurate information and interpretations that are part of, and incident to, the services 
#provided.  However, Halliburton cannot and does not warrant the accuracy 
#or correctness of such information and interpretations.  Under no circumstances should any 
#such information or interpretation be relied upon as the sole basis for any drilling, 
#completion, production, or financial decision or any procedure involving any risk to the 
#safety of any drilling venture, drilling rig or its crew or any other third party.  The 
#Customer has full responsibility for all drilling, completion and production operation.  
#Halliburton makes no representations or warranties, either expressed or 
#implied, including, but not limited to, the implied warranties of merchantability or fitness 
#for a particular purpose, with respect to the services rendered.  In no event will 
#Halliburton be liable for failure to obtain any particular results or for 
#any damages, including, but not limited to, indirect, special or consequential damages, 
#resulting from the use of any information or interpretation provided by Halliburton.
#
~A           TIME           GTDEPTH  GTPQH  GTTQ  GTTN  GTET   GTTVD  
# ...
   00:30:59.871.09-May-2021 4516.51 1547.81 67.83 7.00  46.02 2978.60
   00:31:00.071.09-May-2021 4516.51 1547.81 67.83 7.00  46.22 2978.60
   00:31:00.271.09-May-2021 4516.51 1514.47 67.82 7.00  46.42 2978.60
   00:31:00.471.09-May-2021 4516.51 1504.19 67.82 7.00  46.62 2978.60
   00:31:00.671.09-May-2021 4516.51 1484.12 67.81 7.00  46.82 2978.60
   00:31:00.872.09-May-2021 4516.51 1482.84 67.81 7.00  47.02 2978.60
   00:31:01.072.09-May-2021 4516.51 1482.84 67.81 7.00  47.22 2978.60
   00:31:01.272.09-May-2021 4516.51 1428.33 67.80 7.00  47.42 2978.60
   00:31:01.472.09-May-2021 4516.51 1383.78 67.80 7.00  47.62 2978.60
   00:31:01.672.09-May-2021 4516.51 1340.57 67.79 7.00  47.82 2978.60
   00:31:01.872.09-May-2021 4516.51 1301.66 67.79 7.00  48.02 2978.60
   00:31:02.072.09-May-2021 4516.51 1301.66 67.79 7.00  48.22 2978.60
   00:31:02.272.09-May-2021 4516.51 1267.98 67.78 7.00  48.42 2978.60
   00:31:02.472.09-May-2021 4516.51 1232.71 67.78 7.00  48.62 2978.60
   00:31:02.672.09-May-2021 4516.51 1198.21 67.78 7.00  48.82 2978.60
   00:31:02.872.09-May-2021 4516.51 1162.23 67.77 7.00  49.02 2978.60
   00:31:03.072.09-May-2021 4516.51 1162.23 67.77 7.00  49.22 2978.60
   00:31:03.272.09-May-2021 4516.51 1131.99 67.77 7.00  49.42 2978.60
   00:31:03.472.09-May-2021 4516.51 1116.31 67.76 7.00  49.62 2978.60
   00:31:03.673.09-May-2021 4516.51 1098.51 67.76 7.00  49.82 2978.60
   00:31:03.873.09-May-2021 4516.51 1082.04 67.76 7.00  50.02 2978.60
   00:31:04.073.09-May-2021 4516.51 1082.04 67.76 7.00  50.22 2978.60
   00:31:04.273.09-May-2021 4516.51 1064.41 67.75 7.00  50.42 2978.60
   00:31:04.473.09-May-2021 4516.51 1086.02 67.75 7.00  50.62 2978.60
   00:31:04.673.09-May-2021 4516.51 1107.09 67.75 7.00  50.82 2978.60
   00:31:04.873.09-May-2021 4516.51 1087.57 67.75 7.00  51.02 2978.60
   00:31:05.073.09-May-2021 4516.51 1087.57 67.75 7.00  51.22 2978.60
   00:31:05.273.09-May-2021 4516.51 1047.82 67.74 7.00  51.42 2978.60
   00:31:05.473.09-May-2021 4516.51 1021.40 67.74 7.00  51.62 2978.60
   00:31:05.673.09-May-2021 4516.51 1239.56 67.74 7.00  51.82 2978.60
   00:31:05.873.09-May-2021 4516.51 1691.28 67.73 7.00  52.02 2978.60
   00:31:06.073.09-May-2021 4516.51 1691.28 67.73 7.00  52.22 2978.60
   00:31:06.274.09-May-2021 4516.51 2321.17 67.73 7.00  52.42 2978.60
   00:31:06.474.09-May-2021 4516.51 2533.54 67.73 7.00  52.62 2978.60
   00:31:06.674.09-May-2021 4516.51 2698.80 67.73 7.00  52.82 2978.60
   00:31:06.874.09-May-2021 4516.51 2827.37 67.73 7.00  53.02 2978.60
   00:31:07.074.09-May-2021 4516.51 2827.37 67.73 7.00  53.22 2978.60
   00:31:07.274.09-May-2021 4516.51 3004.09 67.73 7.00  53.42 2978.60
   00:31:07.474.09-May-2021 4516.51 3065.08 67.72 7.00  53.62 2978.60
   00:31:07.674.09-May-2021 4516.51 3112.26 67.72 7.00  53.82 2978.60
   00:31:07.874.09-May-2021 4516.51 3148.48 67.72 7.00  54.02 2978.60
   00:31:08.074.09-May-2021 4516.51 3148.48 67.72 7.00  54.22 2978.60
   00:31:08.274.09-May-2021 4516.51 3199.62 67.72 7.00  54.42 2978.60
   00:31:08.474.09-May-2021 4516.51 3216.98 67.72 7.00  54.62 2978.60
   00:31:08.674.09-May-2021 4516.51 3230.06 67.72 7.00  54.82 2978.60
   00:31:08.874.09-May-2021 4516.51 3241.64 67.73 7.00  55.02 2978.60
   00:31:09.075.09-May-2021 4516.51 3241.64 67.73 7.00  55.22 2978.60
   00:31:09.275.09-May-2021 4516.51 3256.06 67.73 7.00  55.42 2978.60
   00:31:09.475.09-May-2021 4516.51 3262.46 67.73 7.00  55.62 2978.60
   00:31:09.675.09-May-2021 4516.51 3267.20 67.73 7.00  55.82 2978.60
   00:31:09.875.09-May-2021 4516.51 3270.66 67.73 7.00  56.02 2978.60
   00:31:10.075.09-May-2021 4516.51 3270.66 67.73 7.00  56.22 2978.60
   00:31:10.275.09-May-2021 4516.51 3274.77 67.73 7.00  56.42 2978.60
   00:31:10.475.09-May-2021 4516.51 3276.24 67.73 7.00  56.62 2978.60
   00:31:10.675.09-May-2021 4516.51 3277.39 67.73 7.00  56.82 2978.60
   00:31:10.875.09-May-2021 4516.51 3278.34 67.73 7.00  57.02 2978.60
   00:31:11.075.09-May-2021 4516.51 3278.34 67.73 7.00  57.22 2978.60
   00:31:11.275.09-May-2021 4516.51 3279.82 67.73 7.00  57.42 2978.60
   00:31:11.475.09-May-2021 4516.51 3280.45 67.74 7.00  57.62 2978.60
   00:31:11.675.09-May-2021 4516.51 3280.98 67.74 7.00  57.82 2978.60
   00:31:11.876.09-May-2021 4516.51 3280.91 67.74 7.00  58.02 2978.60
   00:31:12.076.09-May-2021 4516.51 3280.91 67.74 7.00  58.22 2978.60
   00:31:12.276.09-May-2021 4516.51 3282.10 67.74 7.00  58.42 2978.60
   00:31:12.476.09-May-2021 4516.51 3282.64 67.74 7.00  58.62 2978.60
   00:31:12.676.09-May-2021 4516.51 3282.86 67.74 7.00  58.82 2978.60
   00:31:12.876.09-May-2021 4516.51 3283.23 67.74 7.00  59.02 2978.60
   00:31:13.076.09-May-2021 4516.51 3283.23 67.74 7.00  59.22 2978.60
   00:31:13.276.09-May-2021 4516.51 3283.97 67.74 7.00  59.42 2978.60
   00:31:13.476.09-May-2021 4516.51 3284.30 67.74 7.00  59.62 2978.60
   00:31:13.676.09-May-2021 4516.51 3284.58 67.74 7.00  59.82 2978.60
   00:31:13.876.09-May-2021 4516.51 3284.90 67.74 7.00  60.02 2978.60
   00:31:14.076.09-May-2021 4516.51 3284.90 67.74 7.00  60.22 2978.60
   00:31:14.276.09-May-2021 4516.51 3285.42 67.75 7.00  60.42 2978.60
   00:31:14.476.09-May-2021 4516.51 3285.11 67.75 7.00  60.62 2978.60
   00:31:14.677.09-May-2021 4516.51 3286.29 67.75 7.00  60.82 2978.60
   00:31:14.877.09-May-2021 4516.51 3285.89 67.75 7.00  61.02 2978.60
   00:31:15.077.09-May-2021 4516.51 3285.89 67.75 7.00  61.22 2978.60
   00:31:15.277.09-May-2021 4516.51 3285.89 67.75 7.00  61.42 2978.60
   00:31:15.477.09-May-2021 4516.51 3286.65 67.75 7.00  61.62 2978.60
   00:31:15.677.09-May-2021 4516.51 3286.51 67.75 7.00  61.82 2978.60
   00:31:15.877.09-May-2021 4516.51 3286.51 67.75 7.00  62.02 2978.60
   00:31:16.077.09-May-2021 4516.51 3286.51 67.75 7.00  62.22 2978.60
   00:31:16.277.09-May-2021 4516.51 3286.86 67.75 7.00  62.42 2978.60
   00:31:16.477.09-May-2021 4516.51 3287.02 67.75 7.00  62.62 2978.60
   00:31:16.677.09-May-2021 4516.51 3287.26 67.75 7.00  62.82 2978.60
   00:31:16.877.09-May-2021 4516.51 3287.40 67.75 7.00  63.02 2978.60
   00:31:17.077.09-May-2021 4516.51 3287.40 67.75 7.00  63.22 2978.60
   00:31:17.277.09-May-2021 4516.51 3287.73 67.75 7.00  63.42 2978.60
   00:31:17.478.09-May-2021 4516.51 3287.98 67.76 7.00  63.62 2978.60
   00:31:17.678.09-May-2021 4516.51 3288.16 67.76 7.00  63.82 2978.60
   00:31:17.878.09-May-2021 4516.51 3288.37 67.76 7.00  64.02 2978.60
   00:31:18.078.09-May-2021 4516.51 3288.37 67.76 7.00  64.22 2978.60
   00:31:18.278.09-May-2021 4516.51 3288.70 67.76 7.00  64.42 2978.60
   00:31:18.478.09-May-2021 4516.51 3288.91 67.76 7.00  64.62 2978.60
   00:31:18.678.09-May-2021 4516.51 3289.01 67.76 7.00  64.82 2978.60
   00:31:18.878.09-May-2021 4516.51 3289.14 67.76 7.00  65.02 2978.60
   00:31:19.078.09-May-2021 4516.51 3289.14 67.76 7.00  65.22 2978.60
   00:31:19.278.09-May-2021 4516.51 3289.43 67.76 7.00  65.42 2978.60
   00:31:19.478.09-May-2021 4516.51 3289.63 67.76 7.00  65.62 2978.60
   00:31:19.678.09-May-2021 4516.51 3289.71 67.76 7.00  65.82 2978.60
   00:31:19.878.09-May-2021 4516.51 3289.62 67.76 7.00  66.02 2978.60
   00:31:20.079.09-May-2021 4516.51 3289.62 67.76 7.00  66.22 2978.60
   00:31:20.279.09-May-2021 4516.51 3289.79 67.76 7.00  66.42 2978.60
   00:31:20.479.09-May-2021 4516.51 3289.92 67.76 7.00  66.62 2978.60
   00:31:20.679.09-May-2021 4516.51 3290.03 67.76 7.00  66.82 2978.60
   00:31:20.879.09-May-2021 4516.51 3290.15 67.76 7.00  67.02 2978.60
   00:31:21.079.09-May-2021 4516.51 3290.15 67.76 7.00  67.22 2978.60
   00:31:21.279.09-May-2021 4516.51 3290.32 67.76 7.00  67.42 2978.60
   00:31:21.479.09-May-2021 4516.51 3290.44 67.76 7.00  67.62 2978.60
   00:31:21.679.09-May-2021 4516.51 3290.17 67.76 7.00  67.82 2978.60
   00:31:21.879.09-May-2021 4516.51 3290.70 67.76 7.00  68.02 2978.60
   00:31:22.079.09-May-2021 4516.51 3290.70 67.76 7.00  68.22 2978.60
   00:31:22.279.09-May-2021 4516.51 3290.92 67.76 7.00  68.42 2978.60
   00:31:22.479.09-May-2021 4516.51 3290.80 67.76 7.00  68.62 2978.60
   00:31:22.679.09-May-2021 4516.51 3290.81 67.76 7.00  68.82 2978.60
