~Version Information
 VERS.                  2.0:   CWLS log ASCII Standard -VERSION 2.0
 WRAP.                   NO:   One line per depth step
~Well Information Block
#MNEM.UNIT     VALUE/NAME     DESCRIPTION
#---------     -----------    ---------------------------
 STRT.S             02:17:40 10-May-21: START TIME 02:17:40 10-May-21
 STOP.S             02:25:48 10-May-21: STOP TIME  02:25:48 10-May-21
 STEP.S                   0.00: STEP TIME
 NULL.                 -999.25: NULL VALUE
 PROV.                    Baku:  PROVINCE
 STAT.                    Baku:  STATE NAME
 SON .        AZ-XX-0906571588:  JOB NUMBER
 WTYP.                Deviated:  WELL TYPE
 COMP.     BP Exploration (Caspian Sea) ltd:  COMPANY
 BASE.              Azerbaijan:  LOGGING EQUIPMENT BASE LOCATION
 REGN.                   EESSA:  REGION
 CTRY.              Azerbaijan:  COUNTRY NAME
 FLD .                     ACG:  FIELD NAME
 WELL.                     J28:  WELL NAME
 RIG .             West Chirag:  RIG NAME
 DMF .             Drill Floor:  DRILL MEAS FROM
 PDAT.       Caspian Sea Level:  PERMANENT DATUM
 HPTY.       Minimum Curvature:  HOLE POS TYPE
 MDS .        Operator Entered:  MAG DATA SOURCE
 NREF.                    Grid:  NORTH REFERENCE
 SRVC.          TURAN DRILLING:  CONTRACTOR
 JOBN.        AZ-XX-0906571588:  JOB TICKET NUMB
 DCON.     Halliburton Sperry Drilling:  DIRECTNL CONTR
 STIM.      00.44.00 11-Feb-21:  START TIME
 DATE.      00.00.00 05-May-21:  END TIME
 SPUD.               13-Feb-21:  SPUD DATE
 MWDS.                    Baku:  MWD SHOP
 DOE .                     N/A:  DOE NUMBER
 UNIT.                     N/A:  LOGGING EQUIPMENT ID
 UWI .                     N/A:  UNIQUE WELL IDENTIFIER
 API .                     N/A:  API NUMBER
 CNTY.                        :  COUNTY
 LOC .                        :  LOCATION
 LMF .             Drill Floor:  LOG MEASURED FROM
 TVDS.m                  43.00:  TVDSS CORRECTN
 SDEP.m                 341.00:  START DEPTH
 EGL .m                   0.00:  GROUND ELEVATION
 WDMS.m                 169.80:  WD ELEV
 AGAP.m                  43.00:  AIR GAP
 EPD .m                   0.00:  ELEVATION
 APD .m                  43.00:  DEPTH ABOVE PD
 LATI.deg                40.13:  LATITUDE
 LONG.deg                51.22:  LONGITUDE
 UTMY.m             4443793.85:  UTM Y
 UTMX.m              519005.06:  UTM X
 WHEW.m                 -11.57:  WELL HEAD E/W
 WHNS.m                   8.57:  WELL HEAD N/S
 VSEW.m                 -11.57:  VERT SEC E/W
 VSNS.m                   8.57:  VERT SEC N/S
 DFWL.m                   0.00:  DISTANCE FWL
 DFSL.m                   0.00:  DISTANCE FSL
 VSDR.deg               299.34:  VERT SEC DIRECT
 GVFD.g                   1.00:  GRAVITY FIELD
 AZTC.deg                 6.36:  AZM TOTAL CORR
 MFLD.nT              50391.00:  MAGNETIC FIELD
 MDIP.deg                59.65:  MAGNETIC DIP
 MDEC.deg                 6.48:  MAGNETIC DECL
 GRDC.deg                 0.12:  GRID CORRECTION
 DEP .m                 334.96:  DEPTH
 TDD .m                1407.26:  TOTAL DEPTH (DRILLER)
 EKB .m                  43.00:  KB ELEVATION
 EDF .m                  43.00:  DF ELEVATION
 TDL .m                 228.00:  TOTAL DEPTH (LOGGER)
 VSC .                       0:  VS TO CLOSURE
 MAGU.                 1854484:  MAGUTM CHECKSUM
~Parameter Information Block
#MNEM.UNIT       Value        Description
#---------     -----------    ---------------------------
 AV  .mps                 4.00:  Ann Velocity 
 AVMX.mps                 4.73:  Max Ann Veloc 
 AZIF.deg               304.48:  Azm, Final 
 BHAT.        Rotary Steerable:  BHA Type 
 BREV.rev            257300.00:  Rev Bit Total 
 BROT.°/30m               0.00:  Build Rotating 
 BS  .in                  8.50:  Bit Size 
 BSZ .in                  8.50:  Bit Size 
 BTPL.psig              589.00:  Bit Press Loss 
 CABU.                      No:  Customer Abuse 
 CGEO.          Mubariz ghayev:  Customer Geo 
 COMM.                     …:  Run Comments 1 
 TCS .hr                 64.25:  Time Ciculation Ended 
 CV  .mps                 3.50:  Crit Velocity 
 CVMX.mps                 4.52:  Max Crit Veloc 
 DD1 .             Aziz Aliyev:  Direct Drillr 1 
 DD2 .         Intigam Rahimov:  Direct Drillr 2 
 DD3 .          Rashad Habibov:  Direct Drillr 3 
 DDSV.               Geo-Pilot:  DD Service 
 DEFF.%                  98.00:  % Det Eff 
 DLRX.°/30m               0.00:  Dogleg Rot Max 
 DLSO.°/30m               0.00:  Dogleg Oriented 
 DLSX.°/30m               0.00:  Dogleg Str Max 
 DRET.      10.45.04 08-May-21:  Drill End Time 
 DRST.      03.30.04 04-May-21:  Drill Start Tim 
 DTIM.hr                 14.97:  Time Drilling 
 EDEP.m                4640.01:  End Depth 
 ENG1.         Dail Mahammadov:  Engineer 1 
 ENG2.           Eldar Hajiyev:  Engineer 2 
 ENG3.       Bakhtiar Jabbarli:  Engineer 3 
 ENG4.       Natik Hasanagayev:  Engineer 4 
 ETIM.      09.30.04 14-May-21:  End Time 
 FLOI.gpm               460.00:  Flow In 
 FLON.gpm               200.00:  Flow In Min 
 FLOS.cptm                0.00:  Fluid Loss 
 FLOX.gpm               505.00:  Flow In Max 
 HFLO.                      No:  High Flow 
 HPRE.                      No:  High Pressure 
 HTEM.                      No:  High Temp 
 HYDO.m                   1.80:  Hydro Offset 
 IFIN.deg                66.71:  Inc, Final 
 IMAX.deg                67.03:  Inc Max 
 IMIN.deg                66.63:  Inc Min 
 IMND.m                4550.58:  Inc Min Depth 
 IMXD.m                4439.01:  Inc Max Depth 
 JARR.                      No:  Jarring 
 LETM.      10.45.04 08-May-21:  Log End Time 
 LOST.hr                     0:  Lost Rig Time 
 LSTM.      03.30.04 04-May-21:  Log Start Time 
 MDCL.ppm             37000.00:  Mud Chlorides 
 MDES.     Inversion Oil/Synthetic:  Mud Desc 
 DFD .sg                  1.38:  Mud Density 
 MDMN.sg                  1.35:  Dens Mud Min 
 MDMX.sg                  1.40:  Dens Mud Max 
 MOIL.                   57.40:  Run Mud Oil % 
 MOWR.                   70:30:  Run Mud OWR 
 MSND.                    0.00:  Run Mud Sand % 
 MSOL.                   18.00:  Run Mud Solids% 
 DFV .spqt               71.00:  Mud Viscosity 
 MWOD.in                  6.75:  MWD Tool OD 
 MWSI.                      No:  Serv Intrp, MWD 
 OTIM.hr                242.76:  Time Operating 
 PCON.           Look Like New:  Pad Condition 
 PMAX.psia            12183.92:  Press Op, Max 
 PV  .cP                 27.00:  Mud PV 
 RUN .                    1300:  Run Number 
 ROPA.m/hr               15.00:  ROP Avg 
 ROPN.m/hr                9.00:  ROP Min 
 ROPX.m/hr               19.00:  ROP Max 
 RPMA.rpm               120.00:  RPM Surface Avg 
 RPMN.rpm               100.00:  RPM Surface Min 
 RPMX.rpm               120.00:  RPM Surface Max 
 RRUN.                    1300:  Rig Run Number 
 RTIM.hr                  5.00:  Time Reaming 
 SAZI.deg               304.73:  Azm, Start 
 SDEP.m                4412.01:  Start Depth 
 SIDD.                      No:  Serv Intrp, DD 
 SINC.deg                66.82:  Inc, Start 
 SPPA.psig             2800.00:  SPP Avg 
 SPPN.psig             2610.00:  SPP Min 
 SPPX.psig             3100.00:  SPP Max 
 STIM.      03.30.00 04-May-21:  Start Time 
 SVCS.                 DD, MWD:  Services 
 SVER.                    9.20:  Sperry Version 
 TDAT.m                 228.00:  Tot Depth Attmp 
 TDDF.                      No:  Trip for DD 
 TDLG.m                 228.00:  Tot Depth Loggd 
 TFF .                      No:  Trip for Fail 
 TQAA.f-kp               15.00:  Torque Abs Avg 
 TQAN.f-kp               12.00:  Torque Abs Min 
 TQAX.f-kp               22.00:  Torque Abs Max 
 TRRT.°/30m               0.00:  Turn Rotating 
 MRT .                    HCIM:  Maximum Recorded Temperature 
 TTMX.degC               90.20:  Max Tool Temp 
 VS01.                90627813:  Virtual Str1 SN 
 VS02.                90634712:  Virtual Str2 SN 
 VS03.                90643410:  Virtual Str3 SN 
 VS04.                90634712:  Virtual Str4 SN 
 WBMN.klb                 9.00:  WOB Min 
 WITN.        Elmaddin Rahimov:  Customer Rep 
 WITN.         Haytham Mostafa:  Customer Rep 2 
 WOBA.klb                15.00:  WOB Avg 
 WOBX.klb                23.00:  WOB Max 
 YP  .lhf2               29.00:  Yield Point 
~Curve Information Block
#MNEM.UNIT                 API CODE     Curve Description
#---------               -----------    ---------------------------
 TIME.HHMMSS            00 000 000 000:  GT Time & Date
 GTDEPTH.m              00 000 000 000:  GT Depth
 GTPQH.psia             00 000 000 000:  GT HR Quartz Pressure
 GTTQ.degC              00 000 000 000:  GT Quartz Temperature
 GTTN.NONE              00 000 000 000:  GT Test Number
 GTET.sec               00 000 000 000:  GT Elapsed Test Time
 GTTVD.m                00 000 000 000:  GT True Vertical Depth
#Other Information
#
#WARRANTY: Halliburton will use its best efforts to furnish customers with 
#accurate information and interpretations that are part of, and incident to, the services 
#provided.  However, Halliburton cannot and does not warrant the accuracy 
#or correctness of such information and interpretations.  Under no circumstances should any 
#such information or interpretation be relied upon as the sole basis for any drilling, 
#completion, production, or financial decision or any procedure involving any risk to the 
#safety of any drilling venture, drilling rig or its crew or any other third party.  The 
#Customer has full responsibility for all drilling, completion and production operation.  
#Halliburton makes no representations or warranties, either expressed or 
#implied, including, but not limited to, the implied warranties of merchantability or fitness 
#for a particular purpose, with respect to the services rendered.  In no event will 
#Halliburton be liable for failure to obtain any particular results or for 
#any damages, including, but not limited to, indirect, special or consequential damages, 
#resulting from the use of any information or interpretation provided by Halliburton.
#
~A           TIME           GTDEPTH  GTPQH  GTTQ  GTTN   GTET   GTTVD  
# ...
   02:21:26.672.10-May-2021 4568.01  509.06 60.31 20.00 226.04 2998.98
   02:21:26.872.10-May-2021 4568.01  509.06 60.31 20.00 226.24 2998.98
   02:21:27.073.10-May-2021 4568.01  509.38 60.31 20.00 226.44 2998.98
   02:21:27.273.10-May-2021 4568.01  509.11 60.31 20.00 226.64 2998.98
   02:21:27.473.10-May-2021 4568.01  509.17 60.31 20.00 226.84 2998.98
   02:21:27.673.10-May-2021 4568.01  509.25 60.31 20.00 227.04 2998.98
   02:21:27.873.10-May-2021 4568.01  509.25 60.31 20.00 227.24 2998.98
   02:21:28.073.10-May-2021 4568.01  509.48 60.31 20.00 227.44 2998.98
   02:21:28.273.10-May-2021 4568.01  509.30 60.31 20.00 227.64 2998.98
   02:21:28.473.10-May-2021 4568.01  509.49 60.31 20.00 227.84 2998.98
   02:21:28.673.10-May-2021 4568.01  509.40 60.31 20.00 228.04 2998.98
   02:21:28.873.10-May-2021 4568.01  509.40 60.31 20.00 228.24 2998.98
   02:21:29.073.10-May-2021 4568.01  509.67 60.31 20.00 228.44 2998.98
   02:21:29.273.10-May-2021 4568.01  511.33 60.31 20.00 228.64 2998.98
   02:21:29.473.10-May-2021 4568.01  512.51 60.31 20.00 228.84 2998.98
   02:21:29.673.10-May-2021 4568.01  512.82 60.31 20.00 229.04 2998.98
   02:21:29.873.10-May-2021 4568.01  512.82 60.31 20.00 229.24 2998.98
   02:21:30.073.10-May-2021 4568.01  512.86 60.31 20.00 229.44 2998.98
   02:21:30.273.10-May-2021 4568.01  512.87 60.31 20.00 229.64 2998.98
   02:21:30.473.10-May-2021 4568.01  512.89 60.31 20.00 229.84 2998.98
   02:21:30.673.10-May-2021 4568.01  512.92 60.31 20.00 230.04 2998.98
   02:21:30.873.10-May-2021 4568.01  512.92 60.31 20.00 230.24 2998.98
   02:21:31.073.10-May-2021 4568.01  513.04 60.31 20.00 230.44 2998.98
   02:21:31.273.10-May-2021 4568.01  512.73 60.31 20.00 230.64 2998.98
   02:21:31.473.10-May-2021 4568.01  513.09 60.31 20.00 230.84 2998.98
   02:21:31.673.10-May-2021 4568.01  512.99 60.31 20.00 231.04 2998.98
   02:21:31.873.10-May-2021 4568.01  512.99 60.31 20.00 231.24 2998.98
   02:21:32.073.10-May-2021 4568.01  513.09 60.31 20.00 231.44 2998.98
   02:21:32.273.10-May-2021 4568.01  513.13 60.31 20.00 231.64 2998.98
   02:21:32.473.10-May-2021 4568.01  513.17 60.31 20.00 231.84 2998.98
   02:21:32.673.10-May-2021 4568.01  513.19 60.31 20.00 232.04 2998.98
   02:21:32.874.10-May-2021 4568.01  513.19 60.31 20.00 232.24 2998.98
   02:21:33.074.10-May-2021 4568.01  513.23 60.31 20.00 232.44 2998.98
   02:21:33.274.10-May-2021 4568.01  513.27 60.31 20.00 232.64 2998.98
   02:21:33.474.10-May-2021 4568.01  513.34 60.31 20.00 232.84 2998.98
   02:21:33.674.10-May-2021 4568.01  513.37 60.31 20.00 233.04 2998.98
   02:21:33.874.10-May-2021 4568.01  513.37 60.31 20.00 233.24 2998.98
   02:21:34.074.10-May-2021 4568.01  513.72 60.31 20.00 233.44 2998.98
   02:21:34.274.10-May-2021 4568.01  513.34 60.31 20.00 233.64 2998.98
   02:21:34.474.10-May-2021 4568.01  513.57 60.31 20.00 233.84 2998.98
   02:21:34.674.10-May-2021 4568.01  513.53 60.31 20.00 234.04 2998.98
   02:21:34.874.10-May-2021 4568.01  513.53 60.31 20.00 234.24 2998.98
   02:21:35.074.10-May-2021 4568.01  513.27 60.31 20.00 234.44 2998.98
   02:21:35.274.10-May-2021 4568.01  513.80 60.31 20.00 234.64 2998.98
   02:21:35.474.10-May-2021 4568.01  513.58 60.31 20.00 234.84 2998.98
   02:21:35.674.10-May-2021 4568.01  513.65 60.31 20.00 235.04 2998.98
   02:21:35.874.10-May-2021 4568.01  513.65 60.31 20.00 235.24 2998.98
   02:21:36.074.10-May-2021 4568.01  513.72 60.31 20.00 235.44 2998.98
   02:21:36.274.10-May-2021 4568.01  513.35 60.31 20.00 235.64 2998.98
   02:21:36.474.10-May-2021 4568.01  514.00 60.31 20.00 235.84 2998.98
   02:21:36.674.10-May-2021 4568.01  513.84 60.31 20.00 236.04 2998.98
   02:21:36.874.10-May-2021 4568.01  513.84 60.31 20.00 236.24 2998.98
   02:21:37.074.10-May-2021 4568.01  513.44 60.31 20.00 236.44 2998.98
   02:21:37.274.10-May-2021 4568.01  514.18 60.31 20.00 236.64 2998.98
   02:21:37.474.10-May-2021 4568.01  513.80 60.31 20.00 236.84 2998.98
   02:21:37.674.10-May-2021 4568.01  514.04 60.31 20.00 237.04 2998.98
   02:21:37.874.10-May-2021 4568.01  514.04 60.31 20.00 237.24 2998.98
   02:21:38.074.10-May-2021 4568.01  513.98 60.31 20.00 237.44 2998.98
   02:21:38.274.10-May-2021 4568.01  514.01 60.31 20.00 237.64 2998.98
   02:21:38.475.10-May-2021 4568.01  514.03 60.31 20.00 237.84 2998.98
   02:21:38.675.10-May-2021 4568.01  514.05 60.31 20.00 238.04 2998.98
   02:21:38.875.10-May-2021 4568.01  514.05 60.31 20.00 238.24 2998.98
   02:21:39.075.10-May-2021 4568.01  514.12 60.31 20.00 238.44 2998.98
   02:21:39.275.10-May-2021 4568.01  514.19 60.31 20.00 238.64 2998.98
   02:21:39.475.10-May-2021 4568.01  514.21 60.31 20.00 238.84 2998.98
   02:21:39.675.10-May-2021 4568.01  513.88 60.31 20.00 239.04 2998.98
   02:21:39.875.10-May-2021 4568.01  513.88 60.31 20.00 239.24 2998.98
   02:21:40.075.10-May-2021 4568.01  514.26 60.31 20.00 239.44 2998.98
   02:21:40.275.10-May-2021 4568.01  514.34 60.31 20.00 239.64 2998.98
   02:21:40.475.10-May-2021 4568.01  514.39 60.31 20.00 239.84 2998.98
   02:21:40.675.10-May-2021 4568.01  514.36 60.31 20.00 240.04 2998.98
   02:21:40.875.10-May-2021 4568.01  514.36 60.31 20.00 240.24 2998.98
   02:21:41.075.10-May-2021 4568.01  514.43 60.31 20.00 240.44 2998.98
   02:21:41.275.10-May-2021 4568.01  514.46 60.31 20.00 240.64 2998.98
   02:21:41.475.10-May-2021 4568.01  514.48 60.31 20.00 240.84 2998.98
   02:21:41.675.10-May-2021 4568.01  514.53 60.31 20.00 241.04 2998.98
   02:21:41.875.10-May-2021 4568.01  514.53 60.31 20.00 241.24 2998.98
   02:21:42.075.10-May-2021 4568.01  514.39 60.31 20.00 241.44 2998.98
   02:21:42.275.10-May-2021 4568.01  514.50 60.31 20.00 241.64 2998.98
   02:21:42.475.10-May-2021 4568.01  514.78 60.31 20.00 241.84 2998.98
   02:21:42.675.10-May-2021 4568.01  514.52 60.31 20.00 242.04 2998.98
   02:21:42.875.10-May-2021 4568.01  514.52 60.31 20.00 242.24 2998.98
   02:21:43.075.10-May-2021 4568.01  515.01 60.31 20.00 242.44 2998.98
   02:21:43.275.10-May-2021 4568.01  514.92 60.31 20.00 242.64 2998.98
   02:21:43.475.10-May-2021 4568.01  514.46 60.31 20.00 242.84 2998.98
   02:21:43.675.10-May-2021 4568.01  515.15 60.31 20.00 243.04 2998.98
   02:21:43.875.10-May-2021 4568.01  515.15 60.31 20.00 243.24 2998.98
   02:21:44.076.10-May-2021 4568.01  514.93 60.31 20.00 243.44 2998.98
   02:21:44.276.10-May-2021 4568.01  515.03 60.31 20.00 243.64 2998.98
   02:21:44.476.10-May-2021 4568.01  514.59 60.31 20.00 243.84 2998.98
   02:21:44.676.10-May-2021 4568.01  515.25 60.31 20.00 244.04 2998.98
   02:21:44.876.10-May-2021 4568.01  515.25 60.31 20.00 244.24 2998.98
   02:21:45.076.10-May-2021 4568.01  515.08 60.31 20.00 244.44 2998.98
   02:21:45.276.10-May-2021 4568.01  515.14 60.31 20.00 244.64 2998.98
   02:21:45.476.10-May-2021 4568.01  515.08 60.31 20.00 244.84 2998.98
   02:21:45.676.10-May-2021 4568.01  515.11 60.31 20.00 245.04 2998.98
   02:21:45.876.10-May-2021 4568.01  515.11 60.31 20.00 245.24 2998.98
   02:21:46.076.10-May-2021 4568.01  515.17 60.31 20.00 245.44 2998.98
   02:21:46.276.10-May-2021 4568.01  515.21 60.31 20.00 245.64 2998.98
   02:21:46.476.10-May-2021 4568.01  515.24 60.31 20.00 245.84 2998.98
   02:21:46.676.10-May-2021 4568.01  515.25 60.31 20.00 246.04 2998.98
   02:21:46.876.10-May-2021 4568.01  515.25 60.31 20.00 246.24 2998.98
   02:21:47.076.10-May-2021 4568.01  515.22 60.31 20.00 246.44 2998.98
   02:21:47.276.10-May-2021 4568.01  515.50 60.31 20.00 246.64 2998.98
   02:21:47.476.10-May-2021 4568.01  515.47 60.31 20.00 246.84 2998.98
   02:21:47.676.10-May-2021 4568.01  515.48 60.31 20.00 247.04 2998.98
   02:21:47.876.10-May-2021 4568.01  515.48 60.31 20.00 247.24 2998.98
   02:21:48.076.10-May-2021 4568.01  515.42 60.31 20.00 247.44 2998.98
   02:21:48.276.10-May-2021 4568.01  515.42 60.31 20.00 247.64 2998.98
   02:21:48.476.10-May-2021 4568.01  515.47 60.31 20.00 247.84 2998.98
   02:21:48.676.10-May-2021 4568.01  515.51 60.31 20.00 248.04 2998.98
   02:21:48.876.10-May-2021 4568.01  515.51 60.31 20.00 248.24 2998.98
   02:21:49.076.10-May-2021 4568.01  515.57 60.31 20.00 248.44 2998.98
