~Version Information
 VERS.                  2.0:   CWLS log ASCII Standard -VERSION 2.0
 WRAP.                   NO:   One line per depth step
~Well Information Block
#MNEM.UNIT     VALUE/NAME     DESCRIPTION
#---------     -----------    ---------------------------
 STRT.S             23:15:39 08-May-21: START TIME 23:15:39 08-May-21
 STOP.S             23:22:30 08-May-21: STOP TIME  23:22:30 08-May-21
 STEP.S                   0.00: STEP TIME
 NULL.                 -999.25: NULL VALUE
 PROV.                    Baku:  PROVINCE
 STAT.                    Baku:  STATE NAME
 SON .        AZ-XX-0906571588:  JOB NUMBER
 WTYP.                Deviated:  WELL TYPE
 COMP.     BP Exploration (Caspian Sea) ltd:  COMPANY
 BASE.              Azerbaijan:  LOGGING EQUIPMENT BASE LOCATION
 REGN.                   EESSA:  REGION
 CTRY.              Azerbaijan:  COUNTRY NAME
 FLD .                     ACG:  FIELD NAME
 WELL.                     J28:  WELL NAME
 RIG .             West Chirag:  RIG NAME
 DMF .             Drill Floor:  DRILL MEAS FROM
 PDAT.       Caspian Sea Level:  PERMANENT DATUM
 HPTY.       Minimum Curvature:  HOLE POS TYPE
 MDS .        Operator Entered:  MAG DATA SOURCE
 NREF.                    Grid:  NORTH REFERENCE
 SRVC.          TURAN DRILLING:  CONTRACTOR
 JOBN.        AZ-XX-0906571588:  JOB TICKET NUMB
 DCON.     Halliburton Sperry Drilling:  DIRECTNL CONTR
 STIM.      00.44.00 11-Feb-21:  START TIME
 DATE.      00.00.00 05-May-21:  END TIME
 SPUD.               13-Feb-21:  SPUD DATE
 MWDS.                    Baku:  MWD SHOP
 DOE .                     N/A:  DOE NUMBER
 UNIT.                     N/A:  LOGGING EQUIPMENT ID
 UWI .                     N/A:  UNIQUE WELL IDENTIFIER
 API .                     N/A:  API NUMBER
 CNTY.                        :  COUNTY
 LOC .                        :  LOCATION
 LMF .             Drill Floor:  LOG MEASURED FROM
 TVDS.m                  43.00:  TVDSS CORRECTN
 SDEP.m                 341.00:  START DEPTH
 EGL .m                   0.00:  GROUND ELEVATION
 WDMS.m                 169.80:  WD ELEV
 AGAP.m                  43.00:  AIR GAP
 EPD .m                   0.00:  ELEVATION
 APD .m                  43.00:  DEPTH ABOVE PD
 LATI.deg                40.13:  LATITUDE
 LONG.deg                51.22:  LONGITUDE
 UTMY.m             4443793.85:  UTM Y
 UTMX.m              519005.06:  UTM X
 WHEW.m                 -11.57:  WELL HEAD E/W
 WHNS.m                   8.57:  WELL HEAD N/S
 VSEW.m                 -11.57:  VERT SEC E/W
 VSNS.m                   8.57:  VERT SEC N/S
 DFWL.m                   0.00:  DISTANCE FWL
 DFSL.m                   0.00:  DISTANCE FSL
 VSDR.deg               299.34:  VERT SEC DIRECT
 GVFD.g                   1.00:  GRAVITY FIELD
 AZTC.deg                 6.36:  AZM TOTAL CORR
 MFLD.nT              50391.00:  MAGNETIC FIELD
 MDIP.deg                59.65:  MAGNETIC DIP
 MDEC.deg                 6.48:  MAGNETIC DECL
 GRDC.deg                 0.12:  GRID CORRECTION
 DEP .m                 334.96:  DEPTH
 TDD .m                1407.26:  TOTAL DEPTH (DRILLER)
 EKB .m                  43.00:  KB ELEVATION
 EDF .m                  43.00:  DF ELEVATION
 TDL .m                 228.00:  TOTAL DEPTH (LOGGER)
 VSC .                       0:  VS TO CLOSURE
 MAGU.                 1854484:  MAGUTM CHECKSUM
~Parameter Information Block
#MNEM.UNIT       Value        Description
#---------     -----------    ---------------------------
 AV  .mps                 4.00:  Ann Velocity 
 AVMX.mps                 4.73:  Max Ann Veloc 
 AZIF.deg               304.48:  Azm, Final 
 BHAT.        Rotary Steerable:  BHA Type 
 BREV.rev            257300.00:  Rev Bit Total 
 BROT.°/30m               0.00:  Build Rotating 
 BS  .in                  8.50:  Bit Size 
 BSZ .in                  8.50:  Bit Size 
 BTPL.psig              589.00:  Bit Press Loss 
 CABU.                      No:  Customer Abuse 
 CGEO.          Mubariz ghayev:  Customer Geo 
 COMM.                     dˆ[:  Run Comments 1 
 TCS .hr                 64.25:  Time Ciculation Ended 
 CV  .mps                 3.50:  Crit Velocity 
 CVMX.mps                 4.52:  Max Crit Veloc 
 DD1 .             Aziz Aliyev:  Direct Drillr 1 
 DD2 .         Intigam Rahimov:  Direct Drillr 2 
 DD3 .          Rashad Habibov:  Direct Drillr 3 
 DDSV.               Geo-Pilot:  DD Service 
 DEFF.%                  98.00:  % Det Eff 
 DLRX.°/30m               0.00:  Dogleg Rot Max 
 DLSO.°/30m               0.00:  Dogleg Oriented 
 DLSX.°/30m               0.00:  Dogleg Str Max 
 DRET.      10.45.04 08-May-21:  Drill End Time 
 DRST.      03.30.04 04-May-21:  Drill Start Tim 
 DTIM.hr                 14.97:  Time Drilling 
 EDEP.m                4640.01:  End Depth 
 ENG1.         Dail Mahammadov:  Engineer 1 
 ENG2.           Eldar Hajiyev:  Engineer 2 
 ENG3.       Bakhtiar Jabbarli:  Engineer 3 
 ENG4.       Natik Hasanagayev:  Engineer 4 
 ETIM.      09.30.04 14-May-21:  End Time 
 FLOI.gpm               460.00:  Flow In 
 FLON.gpm               200.00:  Flow In Min 
 FLOS.cptm                0.00:  Fluid Loss 
 FLOX.gpm               505.00:  Flow In Max 
 HFLO.                      No:  High Flow 
 HPRE.                      No:  High Pressure 
 HTEM.                      No:  High Temp 
 HYDO.m                   1.80:  Hydro Offset 
 IFIN.deg                66.71:  Inc, Final 
 IMAX.deg                67.03:  Inc Max 
 IMIN.deg                66.63:  Inc Min 
 IMND.m                4550.58:  Inc Min Depth 
 IMXD.m                4439.01:  Inc Max Depth 
 JARR.                      No:  Jarring 
 LETM.      10.45.04 08-May-21:  Log End Time 
 LOST.hr                     0:  Lost Rig Time 
 LSTM.      03.30.04 04-May-21:  Log Start Time 
 MDCL.ppm             37000.00:  Mud Chlorides 
 MDES.     Inversion Oil/Synthetic:  Mud Desc 
 DFD .sg                  1.38:  Mud Density 
 MDMN.sg                  1.35:  Dens Mud Min 
 MDMX.sg                  1.40:  Dens Mud Max 
 MOIL.                   57.40:  Run Mud Oil % 
 MOWR.                   70:30:  Run Mud OWR 
 MSND.                    0.00:  Run Mud Sand % 
 MSOL.                   18.00:  Run Mud Solids% 
 DFV .spqt               71.00:  Mud Viscosity 
 MWOD.in                  6.75:  MWD Tool OD 
 MWSI.                      No:  Serv Intrp, MWD 
 OTIM.hr                242.76:  Time Operating 
 PCON.           Look Like New:  Pad Condition 
 PMAX.psia            12183.92:  Press Op, Max 
 PV  .cP                 27.00:  Mud PV 
 RUN .                    1300:  Run Number 
 ROPA.m/hr               15.00:  ROP Avg 
 ROPN.m/hr                9.00:  ROP Min 
 ROPX.m/hr               19.00:  ROP Max 
 RPMA.rpm               120.00:  RPM Surface Avg 
 RPMN.rpm               100.00:  RPM Surface Min 
 RPMX.rpm               120.00:  RPM Surface Max 
 RRUN.                    1300:  Rig Run Number 
 RTIM.hr                  5.00:  Time Reaming 
 SAZI.deg               304.73:  Azm, Start 
 SDEP.m                4412.01:  Start Depth 
 SIDD.                      No:  Serv Intrp, DD 
 SINC.deg                66.82:  Inc, Start 
 SPPA.psig             2800.00:  SPP Avg 
 SPPN.psig             2610.00:  SPP Min 
 SPPX.psig             3100.00:  SPP Max 
 STIM.      03.30.00 04-May-21:  Start Time 
 SVCS.                 DD, MWD:  Services 
 SVER.                    9.20:  Sperry Version 
 TDAT.m                 228.00:  Tot Depth Attmp 
 TDDF.                      No:  Trip for DD 
 TDLG.m                 228.00:  Tot Depth Loggd 
 TFF .                      No:  Trip for Fail 
 TQAA.f-kp               15.00:  Torque Abs Avg 
 TQAN.f-kp               12.00:  Torque Abs Min 
 TQAX.f-kp               22.00:  Torque Abs Max 
 TRRT.°/30m               0.00:  Turn Rotating 
 MRT .                    HCIM:  Maximum Recorded Temperature 
 TTMX.degC               90.20:  Max Tool Temp 
 VS01.                90627813:  Virtual Str1 SN 
 VS02.                90634712:  Virtual Str2 SN 
 VS03.                90643410:  Virtual Str3 SN 
 VS04.                90634712:  Virtual Str4 SN 
 WBMN.klb                 9.00:  WOB Min 
 WITN.        Elmaddin Rahimov:  Customer Rep 
 WITN.         Haytham Mostafa:  Customer Rep 2 
 WOBA.klb                15.00:  WOB Avg 
 WOBX.klb                23.00:  WOB Max 
 YP  .lhf2               29.00:  Yield Point 
~Curve Information Block
#MNEM.UNIT                 API CODE     Curve Description
#---------               -----------    ---------------------------
 TIME.HHMMSS            00 000 000 000:  GT Time & Date
 GTDEPTH.m              00 000 000 000:  GT Depth
 GTPQH.psia             00 000 000 000:  GT HR Quartz Pressure
 GTTQ.degC              00 000 000 000:  GT Quartz Temperature
 GTTN.NONE              00 000 000 000:  GT Test Number
 GTET.sec               00 000 000 000:  GT Elapsed Test Time
 GTTVD.m                00 000 000 000:  GT True Vertical Depth
#Other Information
#
#WARRANTY: Halliburton will use its best efforts to furnish customers with 
#accurate information and interpretations that are part of, and incident to, the services 
#provided.  However, Halliburton cannot and does not warrant the accuracy 
#or correctness of such information and interpretations.  Under no circumstances should any 
#such information or interpretation be relied upon as the sole basis for any drilling, 
#completion, production, or financial decision or any procedure involving any risk to the 
#safety of any drilling venture, drilling rig or its crew or any other third party.  The 
#Customer has full responsibility for all drilling, completion and production operation.  
#Halliburton makes no representations or warranties, either expressed or 
#implied, including, but not limited to, the implied warranties of merchantability or fitness 
#for a particular purpose, with respect to the services rendered.  In no event will 
#Halliburton be liable for failure to obtain any particular results or for 
#any damages, including, but not limited to, indirect, special or consequential damages, 
#resulting from the use of any information or interpretation provided by Halliburton.
#
~A           TIME           GTDEPTH  GTPQH  GTTQ  GTTN  GTET   GTTVD  
# ...
   23:18:20.608.08-May-2021 4549.51 1285.02 68.51 5.00 160.95 2991.64
   23:18:20.808.08-May-2021 4549.51 1285.02 68.51 5.00 161.15 2991.64
   23:18:21.008.08-May-2021 4549.51 1516.72 68.51 5.00 161.35 2991.64
   23:18:21.208.08-May-2021 4549.51 1624.62 68.51 5.00 161.55 2991.64
   23:18:21.408.08-May-2021 4549.51 1729.52 68.51 5.00 161.75 2991.64
   23:18:21.608.08-May-2021 4549.51 1826.73 68.51 5.00 161.95 2991.64
   23:18:21.808.08-May-2021 4549.51 1826.73 68.51 5.00 162.15 2991.64
   23:18:22.008.08-May-2021 4549.51 2003.04 68.51 5.00 162.35 2991.64
   23:18:22.208.08-May-2021 4549.51 2085.25 68.51 5.00 162.55 2991.64
   23:18:22.408.08-May-2021 4549.51 2161.83 68.51 5.00 162.75 2991.64
   23:18:22.608.08-May-2021 4549.51 2232.77 68.51 5.00 162.95 2991.64
   23:18:22.808.08-May-2021 4549.51 2232.77 68.51 5.00 163.15 2991.64
   23:18:23.007.08-May-2021 4549.51 2362.52 68.51 5.00 163.35 2991.64
   23:18:23.207.08-May-2021 4549.51 2422.45 68.51 5.00 163.55 2991.64
   23:18:23.407.08-May-2021 4549.51 2482.68 68.51 5.00 163.75 2991.64
   23:18:23.607.08-May-2021 4549.51 2537.07 68.51 5.00 163.95 2991.64
   23:18:23.807.08-May-2021 4549.51 2537.07 68.51 5.00 164.15 2991.64
   23:18:24.007.08-May-2021 4549.51 2636.09 68.51 5.00 164.35 2991.64
   23:18:24.207.08-May-2021 4549.51 2680.88 68.52 5.00 164.55 2991.64
   23:18:24.407.08-May-2021 4549.51 2728.21 68.52 5.00 164.75 2991.64
   23:18:24.607.08-May-2021 4549.51 2772.24 68.52 5.00 164.95 2991.64
   23:18:24.807.08-May-2021 4549.51 2772.24 68.52 5.00 165.15 2991.64
   23:18:25.007.08-May-2021 4549.51 2850.42 68.52 5.00 165.35 2991.64
   23:18:25.207.08-May-2021 4549.51 2885.68 68.52 5.00 165.55 2991.64
   23:18:25.407.08-May-2021 4549.51 2918.58 68.52 5.00 165.75 2991.64
   23:18:25.607.08-May-2021 4549.51 2949.20 68.52 5.00 165.95 2991.64
   23:18:25.807.08-May-2021 4549.51 2949.20 68.52 5.00 166.15 2991.64
   23:18:26.007.08-May-2021 4549.51 3004.21 68.53 5.00 166.35 2991.64
   23:18:26.206.08-May-2021 4549.51 3029.01 68.53 5.00 166.55 2991.64
   23:18:26.406.08-May-2021 4549.51 3052.25 68.53 5.00 166.75 2991.64
   23:18:26.606.08-May-2021 4549.51 3074.04 68.53 5.00 166.95 2991.64
   23:18:26.806.08-May-2021 4549.51 3074.04 68.53 5.00 167.15 2991.64
   23:18:27.006.08-May-2021 4549.51 3115.54 68.53 5.00 167.35 2991.64
   23:18:27.206.08-May-2021 4549.51 3133.98 68.53 5.00 167.55 2991.64
   23:18:27.406.08-May-2021 4549.51 3149.74 68.53 5.00 167.75 2991.64
   23:18:27.606.08-May-2021 4549.51 3163.84 68.54 5.00 167.95 2991.64
   23:18:27.806.08-May-2021 4549.51 3163.84 68.54 5.00 168.15 2991.64
   23:18:28.006.08-May-2021 4549.51 3187.00 68.54 5.00 168.35 2991.64
   23:18:28.206.08-May-2021 4549.51 3196.69 68.54 5.00 168.55 2991.64
   23:18:28.406.08-May-2021 4549.51 3205.44 68.54 5.00 168.75 2991.64
   23:18:28.606.08-May-2021 4549.51 3212.94 68.54 5.00 168.95 2991.64
   23:18:28.806.08-May-2021 4549.51 3212.94 68.54 5.00 169.15 2991.64
   23:18:29.006.08-May-2021 4549.51 3224.67 68.54 5.00 169.35 2991.64
   23:18:29.206.08-May-2021 4549.51 3229.26 68.54 5.00 169.55 2991.64
   23:18:29.405.08-May-2021 4549.51 3232.86 68.55 5.00 169.75 2991.64
   23:18:29.605.08-May-2021 4549.51 3237.37 68.55 5.00 169.95 2991.64
   23:18:29.805.08-May-2021 4549.51 3237.37 68.55 5.00 170.15 2991.64
   23:18:30.005.08-May-2021 4549.51 3242.09 68.55 5.00 170.35 2991.64
   23:18:30.205.08-May-2021 4549.51 3243.20 68.55 5.00 170.55 2991.64
   23:18:30.405.08-May-2021 4549.51 3245.04 68.55 5.00 170.75 2991.64
   23:18:30.605.08-May-2021 4549.51 3245.70 68.55 5.00 170.95 2991.64
   23:18:30.805.08-May-2021 4549.51 3245.70 68.55 5.00 171.15 2991.64
   23:18:31.005.08-May-2021 4549.51 3246.63 68.55 5.00 171.35 2991.64
   23:18:31.205.08-May-2021 4549.51 3247.73 68.55 5.00 171.55 2991.64
   23:18:31.405.08-May-2021 4549.51 3247.80 68.56 5.00 171.75 2991.64
   23:18:31.605.08-May-2021 4549.51 3247.82 68.56 5.00 171.95 2991.64
   23:18:31.805.08-May-2021 4549.51 3247.82 68.56 5.00 172.15 2991.64
   23:18:32.005.08-May-2021 4549.51 3248.67 68.56 5.00 172.35 2991.64
   23:18:32.205.08-May-2021 4549.51 3248.75 68.56 5.00 172.55 2991.64
   23:18:32.405.08-May-2021 4549.51 3248.76 68.56 5.00 172.75 2991.64
   23:18:32.604.08-May-2021 4549.51 3248.75 68.56 5.00 172.95 2991.64
   23:18:32.804.08-May-2021 4549.51 3248.75 68.56 5.00 173.15 2991.64
   23:18:33.004.08-May-2021 4549.51 3248.78 68.56 5.00 173.35 2991.64
   23:18:33.204.08-May-2021 4549.51 3248.80 68.56 5.00 173.55 2991.64
   23:18:33.404.08-May-2021 4549.51 3248.81 68.56 5.00 173.75 2991.64
   23:18:33.604.08-May-2021 4549.51 3248.81 68.56 5.00 173.95 2991.64
   23:18:33.804.08-May-2021 4549.51 3248.81 68.56 5.00 174.15 2991.64
   23:18:34.004.08-May-2021 4549.51 3248.84 68.56 5.00 174.35 2991.64
   23:18:34.204.08-May-2021 4549.51 3248.76 68.56 5.00 174.55 2991.64
   23:18:34.404.08-May-2021 4549.51 3248.91 68.56 5.00 174.75 2991.64
   23:18:34.604.08-May-2021 4549.51 3248.85 68.56 5.00 174.95 2991.64
   23:18:34.804.08-May-2021 4549.51 3248.85 68.56 5.00 175.15 2991.64
   23:18:35.004.08-May-2021 4549.51 3248.87 68.57 5.00 175.35 2991.64
   23:18:35.204.08-May-2021 4549.51 3248.86 68.57 5.00 175.55 2991.64
   23:18:35.404.08-May-2021 4549.51 3248.87 68.57 5.00 175.75 2991.64
   23:18:35.604.08-May-2021 4549.51 3248.87 68.57 5.00 175.95 2991.64
   23:18:35.803.08-May-2021 4549.51 3248.87 68.57 5.00 176.15 2991.64
   23:18:36.003.08-May-2021 4549.51 3248.87 68.57 5.00 176.35 2991.64
   23:18:36.203.08-May-2021 4549.51 3248.88 68.57 5.00 176.54 2991.64
   23:18:36.403.08-May-2021 4549.51 3248.88 68.57 5.00 176.74 2991.64
   23:18:36.603.08-May-2021 4549.51 3248.88 68.57 5.00 176.94 2991.64
   23:18:36.803.08-May-2021 4549.51 3248.88 68.57 5.00 177.14 2991.64
   23:18:37.003.08-May-2021 4549.51 3248.97 68.57 5.00 177.34 2991.64
   23:18:37.203.08-May-2021 4549.51 3248.87 68.57 5.00 177.54 2991.64
   23:18:37.403.08-May-2021 4549.51 3248.90 68.57 5.00 177.74 2991.64
   23:18:37.603.08-May-2021 4549.51 3248.88 68.57 5.00 177.94 2991.64
   23:18:37.803.08-May-2021 4549.51 3248.88 68.57 5.00 178.14 2991.64
   23:18:38.003.08-May-2021 4549.51 3248.91 68.57 5.00 178.34 2991.64
   23:18:38.203.08-May-2021 4549.51 3248.91 68.57 5.00 178.54 2991.64
   23:18:38.403.08-May-2021 4549.51 3248.86 68.57 5.00 178.74 2991.64
   23:18:38.603.08-May-2021 4549.51 3248.86 68.57 5.00 178.94 2991.64
   23:18:38.803.08-May-2021 4549.51 3248.86 68.57 5.00 179.14 2991.64
   23:18:39.002.08-May-2021 4549.51 3248.87 68.57 5.00 179.34 2991.64
   23:18:39.202.08-May-2021 4549.51 3248.88 68.57 5.00 179.54 2991.64
   23:18:39.402.08-May-2021 4549.51 3248.90 68.57 5.00 179.74 2991.64
   23:18:39.602.08-May-2021 4549.51 3248.88 68.57 5.00 179.94 2991.64
   23:18:39.802.08-May-2021 4549.51 3248.88 68.57 5.00 180.14 2991.64
   23:18:40.002.08-May-2021 4549.51 3248.91 68.57 5.00 180.34 2991.64
   23:18:40.202.08-May-2021 4549.51 3248.90 68.57 5.00 180.54 2991.64
   23:18:40.402.08-May-2021 4549.51 3248.87 68.57 5.00 180.74 2991.64
   23:18:40.602.08-May-2021 4549.51 3248.88 68.57 5.00 180.94 2991.64
   23:18:40.802.08-May-2021 4549.51 3248.88 68.57 5.00 181.14 2991.64
   23:18:41.002.08-May-2021 4549.51 3248.88 68.57 5.00 181.34 2991.64
   23:18:41.202.08-May-2021 4549.51 3248.88 68.57 5.00 181.54 2991.64
   23:18:41.402.08-May-2021 4549.51 3248.87 68.57 5.00 181.74 2991.64
   23:18:41.602.08-May-2021 4549.51 3248.88 68.57 5.00 181.94 2991.64
   23:18:41.802.08-May-2021 4549.51 3248.88 68.57 5.00 182.14 2991.64
   23:18:42.002.08-May-2021 4549.51 3248.88 68.57 5.00 182.34 2991.64
   23:18:42.201.08-May-2021 4549.51 3248.87 68.57 5.00 182.54 2991.64
   23:18:42.401.08-May-2021 4549.51 3248.87 68.57 5.00 182.74 2991.64
   23:18:42.601.08-May-2021 4549.51 3248.89 68.57 5.00 182.94 2991.64
   23:18:42.801.08-May-2021 4549.51 3248.89 68.57 5.00 183.14 2991.64
   23:18:43.001.08-May-2021 4549.51 3248.85 68.57 5.00 183.34 2991.64
   23:18:43.201.08-May-2021 4549.51 3248.86 68.57 5.00 183.54 2991.64
   23:18:43.401.08-May-2021 4549.51 3248.85 68.57 5.00 183.74 2991.64
