~Version Information
 VERS.                  2.0:   CWLS log ASCII Standard -VERSION 2.0
 WRAP.                   NO:   One line per depth step
~Well Information Block
#MNEM.UNIT     VALUE/NAME     DESCRIPTION
#---------     -----------    ---------------------------
 STRT.S             00:12:22 09-May-21: START TIME 00:12:22 09-May-21
 STOP.S             00:19:08 09-May-21: STOP TIME  00:19:08 09-May-21
 STEP.S                   0.00: STEP TIME
 NULL.                 -999.25: NULL VALUE
 PROV.                    Baku:  PROVINCE
 STAT.                    Baku:  STATE NAME
 SON .        AZ-XX-0906571588:  JOB NUMBER
 WTYP.                Deviated:  WELL TYPE
 COMP.     BP Exploration (Caspian Sea) ltd:  COMPANY
 BASE.              Azerbaijan:  LOGGING EQUIPMENT BASE LOCATION
 REGN.                   EESSA:  REGION
 CTRY.              Azerbaijan:  COUNTRY NAME
 FLD .                     ACG:  FIELD NAME
 WELL.                     J28:  WELL NAME
 RIG .             West Chirag:  RIG NAME
 DMF .             Drill Floor:  DRILL MEAS FROM
 PDAT.       Caspian Sea Level:  PERMANENT DATUM
 HPTY.       Minimum Curvature:  HOLE POS TYPE
 MDS .        Operator Entered:  MAG DATA SOURCE
 NREF.                    Grid:  NORTH REFERENCE
 SRVC.          TURAN DRILLING:  CONTRACTOR
 JOBN.        AZ-XX-0906571588:  JOB TICKET NUMB
 DCON.     Halliburton Sperry Drilling:  DIRECTNL CONTR
 STIM.      00.44.00 11-Feb-21:  START TIME
 DATE.      00.00.00 05-May-21:  END TIME
 SPUD.               13-Feb-21:  SPUD DATE
 MWDS.                    Baku:  MWD SHOP
 DOE .                     N/A:  DOE NUMBER
 UNIT.                     N/A:  LOGGING EQUIPMENT ID
 UWI .                     N/A:  UNIQUE WELL IDENTIFIER
 API .                     N/A:  API NUMBER
 CNTY.                        :  COUNTY
 LOC .                        :  LOCATION
 LMF .             Drill Floor:  LOG MEASURED FROM
 TVDS.m                  43.00:  TVDSS CORRECTN
 SDEP.m                 341.00:  START DEPTH
 EGL .m                   0.00:  GROUND ELEVATION
 WDMS.m                 169.80:  WD ELEV
 AGAP.m                  43.00:  AIR GAP
 EPD .m                   0.00:  ELEVATION
 APD .m                  43.00:  DEPTH ABOVE PD
 LATI.deg                40.13:  LATITUDE
 LONG.deg                51.22:  LONGITUDE
 UTMY.m             4443793.85:  UTM Y
 UTMX.m              519005.06:  UTM X
 WHEW.m                 -11.57:  WELL HEAD E/W
 WHNS.m                   8.57:  WELL HEAD N/S
 VSEW.m                 -11.57:  VERT SEC E/W
 VSNS.m                   8.57:  VERT SEC N/S
 DFWL.m                   0.00:  DISTANCE FWL
 DFSL.m                   0.00:  DISTANCE FSL
 VSDR.deg               299.34:  VERT SEC DIRECT
 GVFD.g                   1.00:  GRAVITY FIELD
 AZTC.deg                 6.36:  AZM TOTAL CORR
 MFLD.nT              50391.00:  MAGNETIC FIELD
 MDIP.deg                59.65:  MAGNETIC DIP
 MDEC.deg                 6.48:  MAGNETIC DECL
 GRDC.deg                 0.12:  GRID CORRECTION
 DEP .m                 334.96:  DEPTH
 TDD .m                1407.26:  TOTAL DEPTH (DRILLER)
 EKB .m                  43.00:  KB ELEVATION
 EDF .m                  43.00:  DF ELEVATION
 TDL .m                 228.00:  TOTAL DEPTH (LOGGER)
 VSC .                       0:  VS TO CLOSURE
 MAGU.                 1854484:  MAGUTM CHECKSUM
~Parameter Information Block
#MNEM.UNIT       Value        Description
#---------     -----------    ---------------------------
 AV  .mps                 4.00:  Ann Velocity 
 AVMX.mps                 4.73:  Max Ann Veloc 
 AZIF.deg               304.48:  Azm, Final 
 BHAT.        Rotary Steerable:  BHA Type 
 BREV.rev            257300.00:  Rev Bit Total 
 BROT.°/30m               0.00:  Build Rotating 
 BS  .in                  8.50:  Bit Size 
 BSZ .in                  8.50:  Bit Size 
 BTPL.psig              589.00:  Bit Press Loss 
 CABU.                      No:  Customer Abuse 
 CGEO.          Mubariz ghayev:  Customer Geo 
 COMM.                     <Š|:  Run Comments 1 
 TCS .hr                 64.25:  Time Ciculation Ended 
 CV  .mps                 3.50:  Crit Velocity 
 CVMX.mps                 4.52:  Max Crit Veloc 
 DD1 .             Aziz Aliyev:  Direct Drillr 1 
 DD2 .         Intigam Rahimov:  Direct Drillr 2 
 DD3 .          Rashad Habibov:  Direct Drillr 3 
 DDSV.               Geo-Pilot:  DD Service 
 DEFF.%                  98.00:  % Det Eff 
 DLRX.°/30m               0.00:  Dogleg Rot Max 
 DLSO.°/30m               0.00:  Dogleg Oriented 
 DLSX.°/30m               0.00:  Dogleg Str Max 
 DRET.      10.45.04 08-May-21:  Drill End Time 
 DRST.      03.30.04 04-May-21:  Drill Start Tim 
 DTIM.hr                 14.97:  Time Drilling 
 EDEP.m                4640.01:  End Depth 
 ENG1.         Dail Mahammadov:  Engineer 1 
 ENG2.           Eldar Hajiyev:  Engineer 2 
 ENG3.       Bakhtiar Jabbarli:  Engineer 3 
 ENG4.       Natik Hasanagayev:  Engineer 4 
 ETIM.      09.30.04 14-May-21:  End Time 
 FLOI.gpm               460.00:  Flow In 
 FLON.gpm               200.00:  Flow In Min 
 FLOS.cptm                0.00:  Fluid Loss 
 FLOX.gpm               505.00:  Flow In Max 
 HFLO.                      No:  High Flow 
 HPRE.                      No:  High Pressure 
 HTEM.                      No:  High Temp 
 HYDO.m                   1.80:  Hydro Offset 
 IFIN.deg                66.71:  Inc, Final 
 IMAX.deg                67.03:  Inc Max 
 IMIN.deg                66.63:  Inc Min 
 IMND.m                4550.58:  Inc Min Depth 
 IMXD.m                4439.01:  Inc Max Depth 
 JARR.                      No:  Jarring 
 LETM.      10.45.04 08-May-21:  Log End Time 
 LOST.hr                     0:  Lost Rig Time 
 LSTM.      03.30.04 04-May-21:  Log Start Time 
 MDCL.ppm             37000.00:  Mud Chlorides 
 MDES.     Inversion Oil/Synthetic:  Mud Desc 
 DFD .sg                  1.38:  Mud Density 
 MDMN.sg                  1.35:  Dens Mud Min 
 MDMX.sg                  1.40:  Dens Mud Max 
 MOIL.                   57.40:  Run Mud Oil % 
 MOWR.                   70:30:  Run Mud OWR 
 MSND.                    0.00:  Run Mud Sand % 
 MSOL.                   18.00:  Run Mud Solids% 
 DFV .spqt               71.00:  Mud Viscosity 
 MWOD.in                  6.75:  MWD Tool OD 
 MWSI.                      No:  Serv Intrp, MWD 
 OTIM.hr                242.76:  Time Operating 
 PCON.           Look Like New:  Pad Condition 
 PMAX.psia            12183.92:  Press Op, Max 
 PV  .cP                 27.00:  Mud PV 
 RUN .                    1300:  Run Number 
 ROPA.m/hr               15.00:  ROP Avg 
 ROPN.m/hr                9.00:  ROP Min 
 ROPX.m/hr               19.00:  ROP Max 
 RPMA.rpm               120.00:  RPM Surface Avg 
 RPMN.rpm               100.00:  RPM Surface Min 
 RPMX.rpm               120.00:  RPM Surface Max 
 RRUN.                    1300:  Rig Run Number 
 RTIM.hr                  5.00:  Time Reaming 
 SAZI.deg               304.73:  Azm, Start 
 SDEP.m                4412.01:  Start Depth 
 SIDD.                      No:  Serv Intrp, DD 
 SINC.deg                66.82:  Inc, Start 
 SPPA.psig             2800.00:  SPP Avg 
 SPPN.psig             2610.00:  SPP Min 
 SPPX.psig             3100.00:  SPP Max 
 STIM.      03.30.00 04-May-21:  Start Time 
 SVCS.                 DD, MWD:  Services 
 SVER.                    9.20:  Sperry Version 
 TDAT.m                 228.00:  Tot Depth Attmp 
 TDDF.                      No:  Trip for DD 
 TDLG.m                 228.00:  Tot Depth Loggd 
 TFF .                      No:  Trip for Fail 
 TQAA.f-kp               15.00:  Torque Abs Avg 
 TQAN.f-kp               12.00:  Torque Abs Min 
 TQAX.f-kp               22.00:  Torque Abs Max 
 TRRT.°/30m               0.00:  Turn Rotating 
 MRT .                    HCIM:  Maximum Recorded Temperature 
 TTMX.degC               90.20:  Max Tool Temp 
 VS01.                90627813:  Virtual Str1 SN 
 VS02.                90634712:  Virtual Str2 SN 
 VS03.                90643410:  Virtual Str3 SN 
 VS04.                90634712:  Virtual Str4 SN 
 WBMN.klb                 9.00:  WOB Min 
 WITN.        Elmaddin Rahimov:  Customer Rep 
 WITN.         Haytham Mostafa:  Customer Rep 2 
 WOBA.klb                15.00:  WOB Avg 
 WOBX.klb                23.00:  WOB Max 
 YP  .lhf2               29.00:  Yield Point 
~Curve Information Block
#MNEM.UNIT                 API CODE     Curve Description
#---------               -----------    ---------------------------
 TIME.HHMMSS            00 000 000 000:  GT Time & Date
 GTDEPTH.m              00 000 000 000:  GT Depth
 GTPQH.psia             00 000 000 000:  GT HR Quartz Pressure
 GTTQ.degC              00 000 000 000:  GT Quartz Temperature
 GTTN.NONE              00 000 000 000:  GT Test Number
 GTET.sec               00 000 000 000:  GT Elapsed Test Time
 GTTVD.m                00 000 000 000:  GT True Vertical Depth
#Other Information
#
#WARRANTY: Halliburton will use its best efforts to furnish customers with 
#accurate information and interpretations that are part of, and incident to, the services 
#provided.  However, Halliburton cannot and does not warrant the accuracy 
#or correctness of such information and interpretations.  Under no circumstances should any 
#such information or interpretation be relied upon as the sole basis for any drilling, 
#completion, production, or financial decision or any procedure involving any risk to the 
#safety of any drilling venture, drilling rig or its crew or any other third party.  The 
#Customer has full responsibility for all drilling, completion and production operation.  
#Halliburton makes no representations or warranties, either expressed or 
#implied, including, but not limited to, the implied warranties of merchantability or fitness 
#for a particular purpose, with respect to the services rendered.  In no event will 
#Halliburton be liable for failure to obtain any particular results or for 
#any damages, including, but not limited to, indirect, special or consequential damages, 
#resulting from the use of any information or interpretation provided by Halliburton.
#
~A           TIME           GTDEPTH  GTPQH  GTTQ  GTTN  GTET   GTTVD  
   00:12:22.466.09-May-2021 4527.01 6700.20 68.31 6.00   0.00 2982.74
   00:12:22.666.09-May-2021 4527.01 6700.20 68.31 6.00   0.20 2982.74
   00:12:22.866.09-May-2021 4527.01 6699.33 68.31 6.00   0.40 2982.74
   00:12:23.067.09-May-2021 4527.01 6698.39 68.31 6.00   0.60 2982.74
   00:12:23.267.09-May-2021 4527.01 6698.35 68.31 6.00   0.80 2982.74
   00:12:23.467.09-May-2021 4527.01 6698.33 68.31 6.00   1.00 2982.74
   00:12:23.667.09-May-2021 4527.01 6698.33 68.31 6.00   1.20 2982.74
   00:12:23.867.09-May-2021 4527.01 6708.05 68.31 6.00   1.40 2982.74
   00:12:24.067.09-May-2021 4527.01 6703.16 68.31 6.00   1.60 2982.74
   00:12:24.267.09-May-2021 4527.01 6705.68 68.31 6.00   1.80 2982.74
   00:12:24.467.09-May-2021 4527.01 6703.19 68.30 6.00   2.00 2982.74
   00:12:24.667.09-May-2021 4527.01 6703.19 68.30 6.00   2.20 2982.74
   00:12:24.867.09-May-2021 4527.01 6713.07 68.30 6.00   2.40 2982.74
   00:12:25.067.09-May-2021 4527.01 6709.00 68.30 6.00   2.60 2982.74
   00:12:25.267.09-May-2021 4527.01 6705.41 68.30 6.00   2.80 2982.74
   00:12:25.467.09-May-2021 4527.01 6716.76 68.30 6.00   3.00 2982.74
   00:12:25.667.09-May-2021 4527.01 6716.76 68.30 6.00   3.20 2982.74
   00:12:25.868.09-May-2021 4527.01 6712.04 68.30 6.00   3.40 2982.74
   00:12:26.068.09-May-2021 4527.01 6714.92 68.30 6.00   3.60 2982.74
   00:12:26.268.09-May-2021 4527.01 6712.39 68.30 6.00   3.80 2982.74
   00:12:26.468.09-May-2021 4527.01 6716.38 68.30 6.00   4.00 2982.74
   00:12:26.668.09-May-2021 4527.01 6716.38 68.30 6.00   4.20 2982.74
   00:12:26.868.09-May-2021 4527.01 6719.90 68.30 6.00   4.40 2982.74
   00:12:27.068.09-May-2021 4527.01 6713.24 68.30 6.00   4.60 2982.74
   00:12:27.268.09-May-2021 4527.01 6716.37 68.30 6.00   4.80 2982.74
   00:12:27.468.09-May-2021 4527.01 6715.37 68.30 6.00   5.00 2982.74
   00:12:27.668.09-May-2021 4527.01 6715.37 68.30 6.00   5.20 2982.74
   00:12:27.868.09-May-2021 4527.01 6721.21 68.30 6.00   5.40 2982.74
   00:12:28.068.09-May-2021 4527.01 6717.42 68.30 6.00   5.60 2982.74
   00:12:28.268.09-May-2021 4527.01 6713.24 68.30 6.00   5.80 2982.74
   00:12:28.469.09-May-2021 4527.01 6722.87 68.30 6.00   6.00 2982.74
   00:12:28.669.09-May-2021 4527.01 6722.87 68.30 6.00   6.20 2982.74
   00:12:28.869.09-May-2021 4527.01 6717.74 68.30 6.00   6.40 2982.74
   00:12:29.069.09-May-2021 4527.01 6714.66 68.30 6.00   6.60 2982.74
   00:12:29.269.09-May-2021 4527.01 6716.62 68.30 6.00   6.80 2982.74
   00:12:29.469.09-May-2021 4527.01 6719.38 68.30 6.00   7.00 2982.74
   00:12:29.669.09-May-2021 4527.01 6719.38 68.30 6.00   7.20 2982.74
   00:12:29.869.09-May-2021 4527.01 6726.59 68.30 6.00   7.40 2982.74
   00:12:30.069.09-May-2021 4527.01 6723.68 68.30 6.00   7.60 2982.74
   00:12:30.269.09-May-2021 4527.01 6719.93 68.30 6.00   7.80 2982.74
   00:12:30.469.09-May-2021 4527.01 6726.76 68.30 6.00   8.00 2982.74
   00:12:30.669.09-May-2021 4527.01 6726.76 68.30 6.00   8.20 2982.74
   00:12:30.869.09-May-2021 4527.01 6726.32 68.30 6.00   8.40 2982.74
   00:12:31.069.09-May-2021 4527.01 6721.55 68.30 6.00   8.60 2982.74
   00:12:31.270.09-May-2021 4527.01 6722.27 68.30 6.00   8.80 2982.74
   00:12:31.470.09-May-2021 4527.01 6722.15 68.30 6.00   9.00 2982.74
   00:12:31.670.09-May-2021 4527.01 6722.15 68.30 6.00   9.20 2982.74
   00:12:31.870.09-May-2021 4527.01 6723.14 68.30 6.00   9.40 2982.74
   00:12:32.070.09-May-2021 4527.01 6722.91 68.30 6.00   9.60 2982.74
   00:12:32.270.09-May-2021 4527.01 6722.40 68.30 6.00   9.80 2982.74
   00:12:32.470.09-May-2021 4527.01 6723.20 68.30 6.00  10.00 2982.74
   00:12:32.670.09-May-2021 4527.01 6723.20 68.30 6.00  10.20 2982.74
   00:12:32.870.09-May-2021 4527.01 6723.83 68.30 6.00  10.40 2982.74
   00:12:33.070.09-May-2021 4527.01 6723.33 68.30 6.00  10.60 2982.74
   00:12:33.270.09-May-2021 4527.01 6733.40 68.30 6.00  10.80 2982.74
   00:12:33.470.09-May-2021 4527.01 6732.75 68.30 6.00  11.00 2982.74
   00:12:33.670.09-May-2021 4527.01 6732.75 68.30 6.00  11.20 2982.74
   00:12:33.870.09-May-2021 4527.01 6724.82 68.30 6.00  11.40 2982.74
   00:12:34.071.09-May-2021 4527.01 6726.66 68.30 6.00  11.60 2982.74
   00:12:34.271.09-May-2021 4527.01 6725.91 68.30 6.00  11.80 2982.74
   00:12:34.471.09-May-2021 4527.01 6724.67 68.30 6.00  12.00 2982.74
   00:12:34.671.09-May-2021 4527.01 6724.67 68.30 6.00  12.20 2982.74
   00:12:34.871.09-May-2021 4527.01 6724.67 68.30 6.00  12.40 2982.74
   00:12:35.071.09-May-2021 4527.01 6725.76 68.30 6.00  12.60 2982.74
   00:12:35.271.09-May-2021 4527.01 6725.13 68.30 6.00  12.80 2982.74
   00:12:35.471.09-May-2021 4527.01 6725.38 68.30 6.00  13.00 2982.74
   00:12:35.671.09-May-2021 4527.01 6725.38 68.30 6.00  13.20 2982.74
   00:12:35.871.09-May-2021 4527.01 6725.65 68.30 6.00  13.40 2982.74
   00:12:36.071.09-May-2021 4527.01 6733.45 68.30 6.00  13.60 2982.74
   00:12:36.271.09-May-2021 4527.01 6735.92 68.30 6.00  13.81 2982.74
   00:12:36.471.09-May-2021 4527.01 6734.01 68.30 6.00  14.01 2982.74
   00:12:36.671.09-May-2021 4527.01 6734.01 68.30 6.00  14.21 2982.74
   00:12:36.872.09-May-2021 4527.01 6728.30 68.30 6.00  14.41 2982.74
   00:12:37.072.09-May-2021 4527.01 6736.23 68.30 6.00  14.61 2982.74
   00:12:37.272.09-May-2021 4527.01 6738.83 68.30 6.00  14.81 2982.74
   00:12:37.472.09-May-2021 4527.01 6736.47 68.30 6.00  15.01 2982.74
   00:12:37.672.09-May-2021 4527.01 6736.47 68.30 6.00  15.21 2982.74
   00:12:37.872.09-May-2021 4527.01 6734.37 68.29 6.00  15.41 2982.74
   00:12:38.072.09-May-2021 4527.01 6736.47 68.29 6.00  15.61 2982.74
   00:12:38.272.09-May-2021 4527.01 6741.41 68.29 6.00  15.81 2982.74
   00:12:38.472.09-May-2021 4527.01 6739.52 68.29 6.00  16.01 2982.74
   00:12:38.672.09-May-2021 4527.01 6739.52 68.29 6.00  16.21 2982.74
   00:12:38.872.09-May-2021 4527.01 6742.73 68.29 6.00  16.41 2982.74
   00:12:39.072.09-May-2021 4527.01 6738.10 68.29 6.00  16.61 2982.74
   00:12:39.272.09-May-2021 4527.01 6739.66 68.29 6.00  16.81 2982.74
   00:12:39.472.09-May-2021 4527.01 6744.51 68.29 6.00  17.01 2982.74
   00:12:39.673.09-May-2021 4527.01 6744.51 68.29 6.00  17.21 2982.74
   00:12:39.873.09-May-2021 4527.01 6743.33 68.29 6.00  17.41 2982.74
   00:12:40.073.09-May-2021 4527.01 6740.25 68.29 6.00  17.61 2982.74
   00:12:40.273.09-May-2021 4527.01 6739.82 68.29 6.00  17.81 2982.74
   00:12:40.473.09-May-2021 4527.01 6738.17 68.29 6.00  18.01 2982.74
   00:12:40.673.09-May-2021 4527.01 6738.17 68.29 6.00  18.21 2982.74
   00:12:40.873.09-May-2021 4527.01 6742.72 68.29 6.00  18.41 2982.74
   00:12:41.073.09-May-2021 4527.01 6745.46 68.29 6.00  18.61 2982.74
   00:12:41.273.09-May-2021 4527.01 6743.08 68.29 6.00  18.81 2982.74
   00:12:41.473.09-May-2021 4527.01 6743.44 68.29 6.00  19.01 2982.74
   00:12:41.673.09-May-2021 4527.01 6743.44 68.29 6.00  19.21 2982.74
   00:12:41.873.09-May-2021 4527.01 6741.65 68.29 6.00  19.41 2982.74
   00:12:42.073.09-May-2021 4527.01 6742.12 68.29 6.00  19.61 2982.74
   00:12:42.274.09-May-2021 4527.01 6742.58 68.29 6.00  19.81 2982.74
   00:12:42.474.09-May-2021 4527.01 6742.77 68.29 6.00  20.01 2982.74
   00:12:42.674.09-May-2021 4527.01 6742.77 68.29 6.00  20.21 2982.74
   00:12:42.874.09-May-2021 4527.01 6742.57 68.29 6.00  20.41 2982.74
   00:12:43.074.09-May-2021 4527.01 6742.76 68.29 6.00  20.61 2982.74
   00:12:43.274.09-May-2021 4527.01 6750.38 68.29 6.00  20.81 2982.74
   00:12:43.474.09-May-2021 4527.01 6745.93 68.29 6.00  21.01 2982.74
   00:12:43.674.09-May-2021 4527.01 6745.93 68.29 6.00  21.21 2982.74
   00:12:43.874.09-May-2021 4527.01 6748.68 68.29 6.00  21.41 2982.74
   00:12:44.074.09-May-2021 4527.01 6748.29 68.29 6.00  21.61 2982.74
   00:12:44.274.09-May-2021 4527.01 6745.45 68.29 6.00  21.81 2982.74
   00:12:44.474.09-May-2021 4527.01 6744.60 68.29 6.00  22.01 2982.74
   00:12:44.674.09-May-2021 4527.01 6744.60 68.29 6.00  22.21 2982.74
   00:12:44.874.09-May-2021 4527.01 6745.61 68.29 6.00  22.41 2982.74
   00:12:45.075.09-May-2021 4527.01 6745.79 68.29 6.00  22.61 2982.74
   00:12:45.275.09-May-2021 4527.01 6744.67 68.29 6.00  22.81 2982.74
