~Version Information
 VERS.                  2.0:   CWLS log ASCII Standard -VERSION 2.0
 WRAP.                   NO:   One line per depth step
~Well Information Block
#MNEM.UNIT     VALUE/NAME     DESCRIPTION
#---------     -----------    ---------------------------
 STRT.S             00:24:13 10-May-21: START TIME 00:24:13 10-May-21
 STOP.S             00:32:26 10-May-21: STOP TIME  00:32:26 10-May-21
 STEP.S                   0.00: STEP TIME
 NULL.                 -999.25: NULL VALUE
 PROV.                    Baku:  PROVINCE
 STAT.                    Baku:  STATE NAME
 SON .        AZ-XX-0906571588:  JOB NUMBER
 WTYP.                Deviated:  WELL TYPE
 COMP.     BP Exploration (Caspian Sea) ltd:  COMPANY
 BASE.              Azerbaijan:  LOGGING EQUIPMENT BASE LOCATION
 REGN.                   EESSA:  REGION
 CTRY.              Azerbaijan:  COUNTRY NAME
 FLD .                     ACG:  FIELD NAME
 WELL.                     J28:  WELL NAME
 RIG .             West Chirag:  RIG NAME
 DMF .             Drill Floor:  DRILL MEAS FROM
 PDAT.       Caspian Sea Level:  PERMANENT DATUM
 HPTY.       Minimum Curvature:  HOLE POS TYPE
 MDS .        Operator Entered:  MAG DATA SOURCE
 NREF.                    Grid:  NORTH REFERENCE
 SRVC.          TURAN DRILLING:  CONTRACTOR
 JOBN.        AZ-XX-0906571588:  JOB TICKET NUMB
 DCON.     Halliburton Sperry Drilling:  DIRECTNL CONTR
 STIM.      00.44.00 11-Feb-21:  START TIME
 DATE.      00.00.00 05-May-21:  END TIME
 SPUD.               13-Feb-21:  SPUD DATE
 MWDS.                    Baku:  MWD SHOP
 DOE .                     N/A:  DOE NUMBER
 UNIT.                     N/A:  LOGGING EQUIPMENT ID
 UWI .                     N/A:  UNIQUE WELL IDENTIFIER
 API .                     N/A:  API NUMBER
 CNTY.                        :  COUNTY
 LOC .                        :  LOCATION
 LMF .             Drill Floor:  LOG MEASURED FROM
 TVDS.m                  43.00:  TVDSS CORRECTN
 SDEP.m                 341.00:  START DEPTH
 EGL .m                   0.00:  GROUND ELEVATION
 WDMS.m                 169.80:  WD ELEV
 AGAP.m                  43.00:  AIR GAP
 EPD .m                   0.00:  ELEVATION
 APD .m                  43.00:  DEPTH ABOVE PD
 LATI.deg                40.13:  LATITUDE
 LONG.deg                51.22:  LONGITUDE
 UTMY.m             4443793.85:  UTM Y
 UTMX.m              519005.06:  UTM X
 WHEW.m                 -11.57:  WELL HEAD E/W
 WHNS.m                   8.57:  WELL HEAD N/S
 VSEW.m                 -11.57:  VERT SEC E/W
 VSNS.m                   8.57:  VERT SEC N/S
 DFWL.m                   0.00:  DISTANCE FWL
 DFSL.m                   0.00:  DISTANCE FSL
 VSDR.deg               299.34:  VERT SEC DIRECT
 GVFD.g                   1.00:  GRAVITY FIELD
 AZTC.deg                 6.36:  AZM TOTAL CORR
 MFLD.nT              50391.00:  MAGNETIC FIELD
 MDIP.deg                59.65:  MAGNETIC DIP
 MDEC.deg                 6.48:  MAGNETIC DECL
 GRDC.deg                 0.12:  GRID CORRECTION
 DEP .m                 334.96:  DEPTH
 TDD .m                1407.26:  TOTAL DEPTH (DRILLER)
 EKB .m                  43.00:  KB ELEVATION
 EDF .m                  43.00:  DF ELEVATION
 TDL .m                 228.00:  TOTAL DEPTH (LOGGER)
 VSC .                       0:  VS TO CLOSURE
 MAGU.                 1854484:  MAGUTM CHECKSUM
~Parameter Information Block
#MNEM.UNIT       Value        Description
#---------     -----------    ---------------------------
 AV  .mps                 4.00:  Ann Velocity 
 AVMX.mps                 4.73:  Max Ann Veloc 
 AZIF.deg               304.48:  Azm, Final 
 BHAT.        Rotary Steerable:  BHA Type 
 BREV.rev            257300.00:  Rev Bit Total 
 BROT.°/30m               0.00:  Build Rotating 
 BS  .in                  8.50:  Bit Size 
 BSZ .in                  8.50:  Bit Size 
 BTPL.psig              589.00:  Bit Press Loss 
 CABU.                      No:  Customer Abuse 
 CGEO.          Mubariz ghayev:  Customer Geo 
 TCS .hr                 64.25:  Time Ciculation Ended 
 CV  .mps                 3.50:  Crit Velocity 
 CVMX.mps                 4.52:  Max Crit Veloc 
 DD1 .             Aziz Aliyev:  Direct Drillr 1 
 DD2 .         Intigam Rahimov:  Direct Drillr 2 
 DD3 .          Rashad Habibov:  Direct Drillr 3 
 DDSV.               Geo-Pilot:  DD Service 
 DEFF.%                  98.00:  % Det Eff 
 DLRX.°/30m               0.00:  Dogleg Rot Max 
 DLSO.°/30m               0.00:  Dogleg Oriented 
 DLSX.°/30m               0.00:  Dogleg Str Max 
 DRET.      10.45.04 08-May-21:  Drill End Time 
 DRST.      03.30.04 04-May-21:  Drill Start Tim 
 DTIM.hr                 14.97:  Time Drilling 
 EDEP.m                4640.01:  End Depth 
 ENG1.         Dail Mahammadov:  Engineer 1 
 ENG2.           Eldar Hajiyev:  Engineer 2 
 ENG3.       Bakhtiar Jabbarli:  Engineer 3 
 ENG4.       Natik Hasanagayev:  Engineer 4 
 ETIM.      09.30.04 14-May-21:  End Time 
 FLOI.gpm               460.00:  Flow In 
 FLON.gpm               200.00:  Flow In Min 
 FLOS.cptm                0.00:  Fluid Loss 
 FLOX.gpm               505.00:  Flow In Max 
 HFLO.                      No:  High Flow 
 HPRE.                      No:  High Pressure 
 HTEM.                      No:  High Temp 
 HYDO.m                   1.80:  Hydro Offset 
 IFIN.deg                66.71:  Inc, Final 
 IMAX.deg                67.03:  Inc Max 
 IMIN.deg                66.63:  Inc Min 
 IMND.m                4550.58:  Inc Min Depth 
 IMXD.m                4439.01:  Inc Max Depth 
 JARR.                      No:  Jarring 
 LETM.      10.45.04 08-May-21:  Log End Time 
 LOST.hr                     0:  Lost Rig Time 
 LSTM.      03.30.04 04-May-21:  Log Start Time 
 MDCL.ppm             37000.00:  Mud Chlorides 
 MDES.     Inversion Oil/Synthetic:  Mud Desc 
 DFD .sg                  1.38:  Mud Density 
 MDMN.sg                  1.35:  Dens Mud Min 
 MDMX.sg                  1.40:  Dens Mud Max 
 MOIL.                   57.40:  Run Mud Oil % 
 MOWR.                   70:30:  Run Mud OWR 
 MSND.                    0.00:  Run Mud Sand % 
 MSOL.                   18.00:  Run Mud Solids% 
 DFV .spqt               71.00:  Mud Viscosity 
 MWOD.in                  6.75:  MWD Tool OD 
 MWSI.                      No:  Serv Intrp, MWD 
 OTIM.hr                242.76:  Time Operating 
 PCON.           Look Like New:  Pad Condition 
 PMAX.psia            12183.92:  Press Op, Max 
 PV  .cP                 27.00:  Mud PV 
 RUN .                    1300:  Run Number 
 ROPA.m/hr               15.00:  ROP Avg 
 ROPN.m/hr                9.00:  ROP Min 
 ROPX.m/hr               19.00:  ROP Max 
 RPMA.rpm               120.00:  RPM Surface Avg 
 RPMN.rpm               100.00:  RPM Surface Min 
 RPMX.rpm               120.00:  RPM Surface Max 
 RRUN.                    1300:  Rig Run Number 
 RTIM.hr                  5.00:  Time Reaming 
 SAZI.deg               304.73:  Azm, Start 
 SDEP.m                4412.01:  Start Depth 
 SIDD.                      No:  Serv Intrp, DD 
 SINC.deg                66.82:  Inc, Start 
 SPPA.psig             2800.00:  SPP Avg 
 SPPN.psig             2610.00:  SPP Min 
 SPPX.psig             3100.00:  SPP Max 
 STIM.      03.30.00 04-May-21:  Start Time 
 SVCS.                 DD, MWD:  Services 
 SVER.                    9.20:  Sperry Version 
 TDAT.m                 228.00:  Tot Depth Attmp 
 TDDF.                      No:  Trip for DD 
 TDLG.m                 228.00:  Tot Depth Loggd 
 TFF .                      No:  Trip for Fail 
 TQAA.f-kp               15.00:  Torque Abs Avg 
 TQAN.f-kp               12.00:  Torque Abs Min 
 TQAX.f-kp               22.00:  Torque Abs Max 
 TRRT.°/30m               0.00:  Turn Rotating 
 MRT .                    HCIM:  Maximum Recorded Temperature 
 TTMX.degC               90.20:  Max Tool Temp 
 VS01.                90627813:  Virtual Str1 SN 
 VS02.                90634712:  Virtual Str2 SN 
 VS03.                90643410:  Virtual Str3 SN 
 VS04.                90634712:  Virtual Str4 SN 
 WBMN.klb                 9.00:  WOB Min 
 WITN.        Elmaddin Rahimov:  Customer Rep 
 WITN.         Haytham Mostafa:  Customer Rep 2 
 WOBA.klb                15.00:  WOB Avg 
 WOBX.klb                23.00:  WOB Max 
 YP  .lhf2               29.00:  Yield Point 
~Curve Information Block
#MNEM.UNIT                 API CODE     Curve Description
#---------               -----------    ---------------------------
 TIME.HHMMSS            00 000 000 000:  GT Time & Date
 GTDEPTH.m              00 000 000 000:  GT Depth
 GTPQH.psia             00 000 000 000:  GT HR Quartz Pressure
 GTTQ.degC              00 000 000 000:  GT Quartz Temperature
 GTTN.NONE              00 000 000 000:  GT Test Number
 GTET.sec               00 000 000 000:  GT Elapsed Test Time
 GTTVD.m                00 000 000 000:  GT True Vertical Depth
#Other Information
#
#WARRANTY: Halliburton will use its best efforts to furnish customers with 
#accurate information and interpretations that are part of, and incident to, the services 
#provided.  However, Halliburton cannot and does not warrant the accuracy 
#or correctness of such information and interpretations.  Under no circumstances should any 
#such information or interpretation be relied upon as the sole basis for any drilling, 
#completion, production, or financial decision or any procedure involving any risk to the 
#safety of any drilling venture, drilling rig or its crew or any other third party.  The 
#Customer has full responsibility for all drilling, completion and production operation.  
#Halliburton makes no representations or warranties, either expressed or 
#implied, including, but not limited to, the implied warranties of merchantability or fitness 
#for a particular purpose, with respect to the services rendered.  In no event will 
#Halliburton be liable for failure to obtain any particular results or for 
#any damages, including, but not limited to, indirect, special or consequential damages, 
#resulting from the use of any information or interpretation provided by Halliburton.
#
~A           TIME           GTDEPTH  GTPQH  GTTQ  GTTN   GTET   GTTVD  
# ...
   00:31:45.801.10-May-2021 4497.51  571.42 60.42 18.00 452.19 2971.13
   00:31:46.001.10-May-2021 4497.51  571.42 60.42 18.00 452.39 2971.13
   00:31:46.201.10-May-2021 4497.51  571.69 60.42 18.00 452.59 2971.13
   00:31:46.401.10-May-2021 4497.51  571.86 60.42 18.00 452.79 2971.13
   00:31:46.601.10-May-2021 4497.51  572.04 60.42 18.00 452.99 2971.13
   00:31:46.802.10-May-2021 4497.51  572.28 60.42 18.00 453.19 2971.13
   00:31:47.002.10-May-2021 4497.51  572.28 60.42 18.00 453.39 2971.13
   00:31:47.202.10-May-2021 4497.51  572.71 60.42 18.00 453.59 2971.13
   00:31:47.402.10-May-2021 4497.51  572.96 60.42 18.00 453.79 2971.13
   00:31:47.602.10-May-2021 4497.51  573.17 60.42 18.00 453.99 2971.13
   00:31:47.802.10-May-2021 4497.51  573.40 60.42 18.00 454.19 2971.13
   00:31:48.002.10-May-2021 4497.51  573.40 60.42 18.00 454.39 2971.13
   00:31:48.202.10-May-2021 4497.51  573.40 60.42 18.00 454.59 2971.13
   00:31:48.402.10-May-2021 4497.51  574.29 60.42 18.00 454.79 2971.13
   00:31:48.602.10-May-2021 4497.51  574.43 60.42 18.00 454.99 2971.13
   00:31:48.802.10-May-2021 4497.51  574.51 60.42 18.00 455.19 2971.13
   00:31:49.002.10-May-2021 4497.51  574.51 60.42 18.00 455.39 2971.13
   00:31:49.203.10-May-2021 4497.51  574.51 60.42 18.00 455.59 2971.13
   00:31:49.403.10-May-2021 4497.51  575.20 60.42 18.00 455.79 2971.13
   00:31:49.603.10-May-2021 4497.51  575.40 60.42 18.00 456.00 2971.13
   00:31:49.803.10-May-2021 4497.51  575.63 60.42 18.00 456.20 2971.13
   00:31:50.003.10-May-2021 4497.51  575.63 60.42 18.00 456.40 2971.13
   00:31:50.203.10-May-2021 4497.51  596.64 60.42 18.00 456.60 2971.13
   00:31:50.403.10-May-2021 4497.51  631.24 60.42 18.00 456.80 2971.13
   00:31:50.603.10-May-2021 4497.51  725.39 60.42 18.00 457.00 2971.13
   00:31:50.803.10-May-2021 4497.51 5764.13 60.42 18.00 457.20 2971.13
   00:31:51.003.10-May-2021 4497.51 5764.13 60.42 18.00 457.40 2971.13
   00:31:51.203.10-May-2021 4497.51 6549.42 60.42 18.00 457.60 2971.13
   00:31:51.404.10-May-2021 4497.51 6552.99 60.42 18.00 457.80 2971.13
   00:31:51.604.10-May-2021 4497.51 6547.47 60.42 18.00 458.00 2971.13
   00:31:51.804.10-May-2021 4497.51 6550.23 60.43 18.00 458.20 2971.13
   00:31:52.004.10-May-2021 4497.51 6550.23 60.43 18.00 458.40 2971.13
   00:31:52.204.10-May-2021 4497.51 6553.10 60.43 18.00 458.60 2971.13
   00:31:52.404.10-May-2021 4497.51 6558.50 60.43 18.00 458.80 2971.13
   00:31:52.604.10-May-2021 4497.51 6556.61 60.44 18.00 459.00 2971.13
   00:31:52.804.10-May-2021 4497.51 6559.16 60.44 18.00 459.20 2971.13
   00:31:53.004.10-May-2021 4497.51 6559.16 60.44 18.00 459.40 2971.13
   00:31:53.204.10-May-2021 4497.51 6562.85 60.45 18.00 459.60 2971.13
   00:31:53.404.10-May-2021 4497.51 6557.65 60.45 18.00 459.80 2971.13
   00:31:53.604.10-May-2021 4497.51 6561.54 60.46 18.00 460.00 2971.13
   00:31:53.805.10-May-2021 4497.51 6557.29 60.46 18.00 460.20 2971.13
   00:31:54.005.10-May-2021 4497.51 6557.29 60.46 18.00 460.40 2971.13
   00:31:54.205.10-May-2021 4497.51 6556.56 60.47 18.00 460.60 2971.13
   00:31:54.405.10-May-2021 4497.51 6556.19 60.47 18.00 460.80 2971.13
   00:31:54.605.10-May-2021 4497.51 6556.12 60.48 18.00 461.00 2971.13
   00:31:54.805.10-May-2021 4497.51 6556.40 60.48 18.00 461.20 2971.13
   00:31:55.005.10-May-2021 4497.51 6556.40 60.48 18.00 461.40 2971.13
   00:31:55.205.10-May-2021 4497.51 6556.45 60.49 18.00 461.60 2971.13
   00:31:55.405.10-May-2021 4497.51 6556.38 60.49 18.00 461.80 2971.13
   00:31:55.605.10-May-2021 4497.51 6556.59 60.50 18.00 462.00 2971.13
   00:31:55.805.10-May-2021 4497.51 6563.45 60.50 18.00 462.20 2971.13
   00:31:56.005.10-May-2021 4497.51 6563.45 60.50 18.00 462.40 2971.13
   00:31:56.206.10-May-2021 4497.51 6564.83 60.51 18.00 462.60 2971.13
   00:31:56.406.10-May-2021 4497.51 6557.98 60.51 18.00 462.80 2971.13
   00:31:56.606.10-May-2021 4497.51 6559.01 60.52 18.00 463.00 2971.13
   00:31:56.806.10-May-2021 4497.51 6558.58 60.52 18.00 463.20 2971.13
   00:31:57.006.10-May-2021 4497.51 6558.58 60.52 18.00 463.40 2971.13
   00:31:57.206.10-May-2021 4497.51 6558.26 60.52 18.00 463.60 2971.13
   00:31:57.406.10-May-2021 4497.51 6558.13 60.53 18.00 463.80 2971.13
   00:31:57.606.10-May-2021 4497.51 6558.15 60.53 18.00 464.00 2971.13
   00:31:57.806.10-May-2021 4497.51 6557.84 60.53 18.00 464.20 2971.13
   00:31:58.006.10-May-2021 4497.51 6557.84 60.53 18.00 464.40 2971.13
   00:31:58.206.10-May-2021 4497.51 6562.67 60.54 18.00 464.60 2971.13
   00:31:58.407.10-May-2021 4497.51 6562.31 60.54 18.00 464.80 2971.13
   00:31:58.607.10-May-2021 4497.51 6561.15 60.54 18.00 465.00 2971.13
   00:31:58.807.10-May-2021 4497.51 6563.29 60.54 18.00 465.20 2971.13
   00:31:59.007.10-May-2021 4497.51 6563.29 60.54 18.00 465.40 2971.13
   00:31:59.207.10-May-2021 4497.51 6565.05 60.55 18.00 465.60 2971.13
   00:31:59.407.10-May-2021 4497.51 6563.53 60.55 18.00 465.80 2971.13
   00:31:59.607.10-May-2021 4497.51 6564.30 60.55 18.00 466.00 2971.13
   00:31:59.807.10-May-2021 4497.51 6558.89 60.55 18.00 466.20 2971.13
   00:32:00.007.10-May-2021 4497.51 6558.89 60.55 18.00 466.40 2971.13
   00:32:00.207.10-May-2021 4497.51 6561.76 60.55 18.00 466.60 2971.13
   00:32:00.407.10-May-2021 4497.51 6564.37 60.55 18.00 466.80 2971.13
   00:32:00.607.10-May-2021 4497.51 6560.19 60.56 18.00 467.00 2971.13
   00:32:00.808.10-May-2021 4497.51 6560.07 60.56 18.00 467.20 2971.13
   00:32:01.008.10-May-2021 4497.51 6560.07 60.56 18.00 467.40 2971.13
   00:32:01.208.10-May-2021 4497.51 6566.61 60.56 18.00 467.60 2971.13
   00:32:01.408.10-May-2021 4497.51 6560.27 60.56 18.00 467.80 2971.13
   00:32:01.608.10-May-2021 4497.51 6563.15 60.56 18.00 468.00 2971.13
   00:32:01.808.10-May-2021 4497.51 6558.83 60.56 18.00 468.20 2971.13
   00:32:02.008.10-May-2021 4497.51 6558.83 60.56 18.00 468.40 2971.13
   00:32:02.208.10-May-2021 4497.51 6558.73 60.56 18.00 468.60 2971.13
   00:32:02.408.10-May-2021 4497.51 6558.03 60.56 18.00 468.80 2971.13
   00:32:02.608.10-May-2021 4497.51 6557.73 60.56 18.00 469.00 2971.13
   00:32:02.808.10-May-2021 4497.51 6557.71 60.56 18.00 469.20 2971.13
   00:32:03.008.10-May-2021 4497.51 6557.71 60.56 18.00 469.40 2971.13
   00:32:03.209.10-May-2021 4497.51 6557.42 60.57 18.00 469.60 2971.13
   00:32:03.409.10-May-2021 4497.51 6557.70 60.57 18.00 469.80 2971.13
   00:32:03.609.10-May-2021 4497.51 6558.30 60.57 18.00 470.00 2971.13
   00:32:03.809.10-May-2021 4497.51 6565.89 60.57 18.00 470.20 2971.13
   00:32:04.009.10-May-2021 4497.51 6565.89 60.57 18.00 470.40 2971.13
   00:32:04.209.10-May-2021 4497.51 6562.82 60.57 18.00 470.60 2971.13
   00:32:04.409.10-May-2021 4497.51 6558.87 60.57 18.00 470.80 2971.13
   00:32:04.609.10-May-2021 4497.51 6559.79 60.57 18.00 471.00 2971.13
   00:32:04.809.10-May-2021 4497.51 6559.29 60.57 18.00 471.20 2971.13
   00:32:05.009.10-May-2021 4497.51 6559.29 60.57 18.00 471.40 2971.13
   00:32:05.209.10-May-2021 4497.51 6558.31 60.57 18.00 471.60 2971.13
   00:32:05.410.10-May-2021 4497.51 6558.04 60.57 18.00 471.80 2971.13
   00:32:05.610.10-May-2021 4497.51 6557.77 60.57 18.00 472.00 2971.13
   00:32:05.810.10-May-2021 4497.51 6557.58 60.57 18.00 472.20 2971.13
   00:32:06.010.10-May-2021 4497.51 6557.58 60.57 18.00 472.40 2971.13
   00:32:06.210.10-May-2021 4497.51 6558.12 60.57 18.00 472.60 2971.13
   00:32:06.410.10-May-2021 4497.51 6559.40 60.57 18.00 472.80 2971.13
   00:32:06.610.10-May-2021 4497.51 6563.44 60.57 18.00 473.00 2971.13
   00:32:06.810.10-May-2021 4497.51 6561.85 60.57 18.00 473.20 2971.13
   00:32:07.010.10-May-2021 4497.51 6561.85 60.57 18.00 473.40 2971.13
   00:32:07.210.10-May-2021 4497.51 6558.42 60.57 18.00 473.60 2971.13
   00:32:07.410.10-May-2021 4497.51 6558.20 60.57 18.00 473.80 2971.13
   00:32:07.610.10-May-2021 4497.51 6565.77 60.57 18.00 474.00 2971.13
   00:32:07.811.10-May-2021 4497.51 6559.68 60.57 18.00 474.20 2971.13
   00:32:08.011.10-May-2021 4497.51 6559.68 60.57 18.00 474.40 2971.13
   00:32:08.211.10-May-2021 4497.51 6566.64 60.57 18.00 474.60 2971.13
