~Version Information
 VERS.                  2.0:   CWLS log ASCII Standard -VERSION 2.0
 WRAP.                   NO:   One line per depth step
~Well Information Block
#MNEM.UNIT     VALUE/NAME     DESCRIPTION
#---------     -----------    ---------------------------
 STRT.S             01:38:21 09-May-21: START TIME 01:38:21 09-May-21
 STOP.S             01:44:59 09-May-21: STOP TIME  01:44:59 09-May-21
 STEP.S                   0.00: STEP TIME
 NULL.                 -999.25: NULL VALUE
 PROV.                    Baku:  PROVINCE
 STAT.                    Baku:  STATE NAME
 SON .        AZ-XX-0906571588:  JOB NUMBER
 WTYP.                Deviated:  WELL TYPE
 COMP.     BP Exploration (Caspian Sea) ltd:  COMPANY
 BASE.              Azerbaijan:  LOGGING EQUIPMENT BASE LOCATION
 REGN.                   EESSA:  REGION
 CTRY.              Azerbaijan:  COUNTRY NAME
 FLD .                     ACG:  FIELD NAME
 WELL.                     J28:  WELL NAME
 RIG .             West Chirag:  RIG NAME
 DMF .             Drill Floor:  DRILL MEAS FROM
 PDAT.       Caspian Sea Level:  PERMANENT DATUM
 HPTY.       Minimum Curvature:  HOLE POS TYPE
 MDS .        Operator Entered:  MAG DATA SOURCE
 NREF.                    Grid:  NORTH REFERENCE
 SRVC.          TURAN DRILLING:  CONTRACTOR
 JOBN.        AZ-XX-0906571588:  JOB TICKET NUMB
 DCON.     Halliburton Sperry Drilling:  DIRECTNL CONTR
 STIM.      00.44.00 11-Feb-21:  START TIME
 DATE.      00.00.00 05-May-21:  END TIME
 SPUD.               13-Feb-21:  SPUD DATE
 MWDS.                    Baku:  MWD SHOP
 DOE .                     N/A:  DOE NUMBER
 UNIT.                     N/A:  LOGGING EQUIPMENT ID
 UWI .                     N/A:  UNIQUE WELL IDENTIFIER
 API .                     N/A:  API NUMBER
 CNTY.                        :  COUNTY
 LOC .                        :  LOCATION
 LMF .             Drill Floor:  LOG MEASURED FROM
 TVDS.m                  43.00:  TVDSS CORRECTN
 SDEP.m                 341.00:  START DEPTH
 EGL .m                   0.00:  GROUND ELEVATION
 WDMS.m                 169.80:  WD ELEV
 AGAP.m                  43.00:  AIR GAP
 EPD .m                   0.00:  ELEVATION
 APD .m                  43.00:  DEPTH ABOVE PD
 LATI.deg                40.13:  LATITUDE
 LONG.deg                51.22:  LONGITUDE
 UTMY.m             4443793.85:  UTM Y
 UTMX.m              519005.06:  UTM X
 WHEW.m                 -11.57:  WELL HEAD E/W
 WHNS.m                   8.57:  WELL HEAD N/S
 VSEW.m                 -11.57:  VERT SEC E/W
 VSNS.m                   8.57:  VERT SEC N/S
 DFWL.m                   0.00:  DISTANCE FWL
 DFSL.m                   0.00:  DISTANCE FSL
 VSDR.deg               299.34:  VERT SEC DIRECT
 GVFD.g                   1.00:  GRAVITY FIELD
 AZTC.deg                 6.36:  AZM TOTAL CORR
 MFLD.nT              50391.00:  MAGNETIC FIELD
 MDIP.deg                59.65:  MAGNETIC DIP
 MDEC.deg                 6.48:  MAGNETIC DECL
 GRDC.deg                 0.12:  GRID CORRECTION
 DEP .m                 334.96:  DEPTH
 TDD .m                1407.26:  TOTAL DEPTH (DRILLER)
 EKB .m                  43.00:  KB ELEVATION
 EDF .m                  43.00:  DF ELEVATION
 TDL .m                 228.00:  TOTAL DEPTH (LOGGER)
 VSC .                       0:  VS TO CLOSURE
 MAGU.                 1854484:  MAGUTM CHECKSUM
~Parameter Information Block
#MNEM.UNIT       Value        Description
#---------     -----------    ---------------------------
 AV  .mps                 4.00:  Ann Velocity 
 AVMX.mps                 4.73:  Max Ann Veloc 
 AZIF.deg               304.48:  Azm, Final 
 BHAT.        Rotary Steerable:  BHA Type 
 BREV.rev            257300.00:  Rev Bit Total 
 BROT.°/30m               0.00:  Build Rotating 
 BS  .in                  8.50:  Bit Size 
 BSZ .in                  8.50:  Bit Size 
 BTPL.psig              589.00:  Bit Press Loss 
 CABU.                      No:  Customer Abuse 
 CGEO.          Mubariz ghayev:  Customer Geo 
 TCS .hr                 64.25:  Time Ciculation Ended 
 CV  .mps                 3.50:  Crit Velocity 
 CVMX.mps                 4.52:  Max Crit Veloc 
 DD1 .             Aziz Aliyev:  Direct Drillr 1 
 DD2 .         Intigam Rahimov:  Direct Drillr 2 
 DD3 .          Rashad Habibov:  Direct Drillr 3 
 DDSV.               Geo-Pilot:  DD Service 
 DEFF.%                  98.00:  % Det Eff 
 DLRX.°/30m               0.00:  Dogleg Rot Max 
 DLSO.°/30m               0.00:  Dogleg Oriented 
 DLSX.°/30m               0.00:  Dogleg Str Max 
 DRET.      10.45.04 08-May-21:  Drill End Time 
 DRST.      03.30.04 04-May-21:  Drill Start Tim 
 DTIM.hr                 14.97:  Time Drilling 
 EDEP.m                4640.01:  End Depth 
 ENG1.         Dail Mahammadov:  Engineer 1 
 ENG2.           Eldar Hajiyev:  Engineer 2 
 ENG3.       Bakhtiar Jabbarli:  Engineer 3 
 ENG4.       Natik Hasanagayev:  Engineer 4 
 ETIM.      09.30.04 14-May-21:  End Time 
 FLOI.gpm               460.00:  Flow In 
 FLON.gpm               200.00:  Flow In Min 
 FLOS.cptm                0.00:  Fluid Loss 
 FLOX.gpm               505.00:  Flow In Max 
 HFLO.                      No:  High Flow 
 HPRE.                      No:  High Pressure 
 HTEM.                      No:  High Temp 
 HYDO.m                   1.80:  Hydro Offset 
 IFIN.deg                66.71:  Inc, Final 
 IMAX.deg                67.03:  Inc Max 
 IMIN.deg                66.63:  Inc Min 
 IMND.m                4550.58:  Inc Min Depth 
 IMXD.m                4439.01:  Inc Max Depth 
 JARR.                      No:  Jarring 
 LETM.      10.45.04 08-May-21:  Log End Time 
 LOST.hr                     0:  Lost Rig Time 
 LSTM.      03.30.04 04-May-21:  Log Start Time 
 MDCL.ppm             37000.00:  Mud Chlorides 
 MDES.     Inversion Oil/Synthetic:  Mud Desc 
 DFD .sg                  1.38:  Mud Density 
 MDMN.sg                  1.35:  Dens Mud Min 
 MDMX.sg                  1.40:  Dens Mud Max 
 MOIL.                   57.40:  Run Mud Oil % 
 MOWR.                   70:30:  Run Mud OWR 
 MSND.                    0.00:  Run Mud Sand % 
 MSOL.                   18.00:  Run Mud Solids% 
 DFV .spqt               71.00:  Mud Viscosity 
 MWOD.in                  6.75:  MWD Tool OD 
 MWSI.                      No:  Serv Intrp, MWD 
 OTIM.hr                242.76:  Time Operating 
 PCON.           Look Like New:  Pad Condition 
 PMAX.psia            12183.92:  Press Op, Max 
 PV  .cP                 27.00:  Mud PV 
 RUN .                    1300:  Run Number 
 ROPA.m/hr               15.00:  ROP Avg 
 ROPN.m/hr                9.00:  ROP Min 
 ROPX.m/hr               19.00:  ROP Max 
 RPMA.rpm               120.00:  RPM Surface Avg 
 RPMN.rpm               100.00:  RPM Surface Min 
 RPMX.rpm               120.00:  RPM Surface Max 
 RRUN.                    1300:  Rig Run Number 
 RTIM.hr                  5.00:  Time Reaming 
 SAZI.deg               304.73:  Azm, Start 
 SDEP.m                4412.01:  Start Depth 
 SIDD.                      No:  Serv Intrp, DD 
 SINC.deg                66.82:  Inc, Start 
 SPPA.psig             2800.00:  SPP Avg 
 SPPN.psig             2610.00:  SPP Min 
 SPPX.psig             3100.00:  SPP Max 
 STIM.      03.30.00 04-May-21:  Start Time 
 SVCS.                 DD, MWD:  Services 
 SVER.                    9.20:  Sperry Version 
 TDAT.m                 228.00:  Tot Depth Attmp 
 TDDF.                      No:  Trip for DD 
 TDLG.m                 228.00:  Tot Depth Loggd 
 TFF .                      No:  Trip for Fail 
 TQAA.f-kp               15.00:  Torque Abs Avg 
 TQAN.f-kp               12.00:  Torque Abs Min 
 TQAX.f-kp               22.00:  Torque Abs Max 
 TRRT.°/30m               0.00:  Turn Rotating 
 MRT .                    HCIM:  Maximum Recorded Temperature 
 TTMX.degC               90.20:  Max Tool Temp 
 VS01.                90627813:  Virtual Str1 SN 
 VS02.                90634712:  Virtual Str2 SN 
 VS03.                90643410:  Virtual Str3 SN 
 VS04.                90634712:  Virtual Str4 SN 
 WBMN.klb                 9.00:  WOB Min 
 WITN.        Elmaddin Rahimov:  Customer Rep 
 WITN.         Haytham Mostafa:  Customer Rep 2 
 WOBA.klb                15.00:  WOB Avg 
 WOBX.klb                23.00:  WOB Max 
 YP  .lhf2               29.00:  Yield Point 
~Curve Information Block
#MNEM.UNIT                 API CODE     Curve Description
#---------               -----------    ---------------------------
 TIME.HHMMSS            00 000 000 000:  GT Time & Date
 GTDEPTH.m              00 000 000 000:  GT Depth
 GTPQH.psia             00 000 000 000:  GT HR Quartz Pressure
 GTTQ.degC              00 000 000 000:  GT Quartz Temperature
 GTTN.NONE              00 000 000 000:  GT Test Number
 GTET.sec               00 000 000 000:  GT Elapsed Test Time
 GTTVD.m                00 000 000 000:  GT True Vertical Depth
#Other Information
#
#WARRANTY: Halliburton will use its best efforts to furnish customers with 
#accurate information and interpretations that are part of, and incident to, the services 
#provided.  However, Halliburton cannot and does not warrant the accuracy 
#or correctness of such information and interpretations.  Under no circumstances should any 
#such information or interpretation be relied upon as the sole basis for any drilling, 
#completion, production, or financial decision or any procedure involving any risk to the 
#safety of any drilling venture, drilling rig or its crew or any other third party.  The 
#Customer has full responsibility for all drilling, completion and production operation.  
#Halliburton makes no representations or warranties, either expressed or 
#implied, including, but not limited to, the implied warranties of merchantability or fitness 
#for a particular purpose, with respect to the services rendered.  In no event will 
#Halliburton be liable for failure to obtain any particular results or for 
#any damages, including, but not limited to, indirect, special or consequential damages, 
#resulting from the use of any information or interpretation provided by Halliburton.
#
~A           TIME           GTDEPTH  GTPQH  GTTQ  GTTN   GTET   GTTVD  
# ...
   01:39:06.552.09-May-2021 4502.51  672.83 67.56 10.00  45.22 2973.10
   01:39:06.752.09-May-2021 4502.51  698.35 67.55 10.00  45.42 2973.10
   01:39:06.952.09-May-2021 4502.51  686.90 67.54 10.00  45.62 2973.10
   01:39:07.152.09-May-2021 4502.51  662.22 67.54 10.00  45.82 2973.10
   01:39:07.352.09-May-2021 4502.51  648.04 67.54 10.00  46.02 2973.10
   01:39:07.552.09-May-2021 4502.51  648.04 67.54 10.00  46.22 2973.10
   01:39:07.752.09-May-2021 4502.51  679.83 67.53 10.00  46.42 2973.10
   01:39:07.952.09-May-2021 4502.51  670.32 67.52 10.00  46.62 2973.10
   01:39:08.152.09-May-2021 4502.51  675.94 67.52 10.00  46.82 2973.10
   01:39:08.353.09-May-2021 4502.51  677.36 67.52 10.00  47.02 2973.10
   01:39:08.553.09-May-2021 4502.51  677.36 67.52 10.00  47.22 2973.10
   01:39:08.753.09-May-2021 4502.51  629.05 67.51 10.00  47.42 2973.10
   01:39:08.953.09-May-2021 4502.51  610.55 67.51 10.00  47.62 2973.10
   01:39:09.153.09-May-2021 4502.51  603.27 67.50 10.00  47.82 2973.10
   01:39:09.353.09-May-2021 4502.51  623.36 67.50 10.00  48.02 2973.10
   01:39:09.553.09-May-2021 4502.51  623.36 67.50 10.00  48.22 2973.10
   01:39:09.753.09-May-2021 4502.51  647.29 67.49 10.00  48.42 2973.10
   01:39:09.953.09-May-2021 4502.51  639.31 67.49 10.00  48.62 2973.10
   01:39:10.153.09-May-2021 4502.51  630.57 67.49 10.00  48.82 2973.10
   01:39:10.353.09-May-2021 4502.51  622.17 67.48 10.00  49.02 2973.10
   01:39:10.553.09-May-2021 4502.51  622.17 67.48 10.00  49.22 2973.10
   01:39:10.753.09-May-2021 4502.51  614.55 67.48 10.00  49.42 2973.10
   01:39:10.953.09-May-2021 4502.51  613.17 67.48 10.00  49.62 2973.10
   01:39:11.154.09-May-2021 4502.51  608.29 67.47 10.00  49.82 2973.10
   01:39:11.354.09-May-2021 4502.51  601.91 67.47 10.00  50.02 2973.10
   01:39:11.554.09-May-2021 4502.51  601.91 67.47 10.00  50.22 2973.10
   01:39:11.754.09-May-2021 4502.51  598.12 67.47 10.00  50.42 2973.10
   01:39:11.954.09-May-2021 4502.51  613.22 67.46 10.00  50.62 2973.10
   01:39:12.154.09-May-2021 4502.51  643.53 67.46 10.00  50.82 2973.10
   01:39:12.354.09-May-2021 4502.51  677.29 67.46 10.00  51.02 2973.10
   01:39:12.554.09-May-2021 4502.51  677.29 67.46 10.00  51.22 2973.10
   01:39:12.754.09-May-2021 4502.51  723.94 67.46 10.00  51.42 2973.10
   01:39:12.954.09-May-2021 4502.51  745.86 67.45 10.00  51.62 2973.10
   01:39:13.154.09-May-2021 4502.51  766.38 67.45 10.00  51.82 2973.10
   01:39:13.354.09-May-2021 4502.51  785.56 67.45 10.00  52.02 2973.10
   01:39:13.554.09-May-2021 4502.51  785.56 67.45 10.00  52.22 2973.10
   01:39:13.754.09-May-2021 4502.51  821.76 67.45 10.00  52.42 2973.10
   01:39:13.955.09-May-2021 4502.51  838.49 67.45 10.00  52.62 2973.10
   01:39:14.155.09-May-2021 4502.51  855.33 67.45 10.00  52.82 2973.10
   01:39:14.355.09-May-2021 4502.51  872.41 67.45 10.00  53.02 2973.10
   01:39:14.555.09-May-2021 4502.51  872.41 67.45 10.00  53.22 2973.10
   01:39:14.755.09-May-2021 4502.51  925.67 67.44 10.00  53.42 2973.10
   01:39:14.955.09-May-2021 4502.51  933.48 67.44 10.00  53.62 2973.10
   01:39:15.155.09-May-2021 4502.51  943.34 67.44 10.00  53.82 2973.10
   01:39:15.355.09-May-2021 4502.51  959.42 67.44 10.00  54.02 2973.10
   01:39:15.555.09-May-2021 4502.51  959.42 67.44 10.00  54.22 2973.10
   01:39:15.755.09-May-2021 4502.51  969.31 67.44 10.00  54.42 2973.10
   01:39:15.955.09-May-2021 4502.51  983.10 67.44 10.00  54.62 2973.10
   01:39:16.155.09-May-2021 4502.51  990.59 67.44 10.00  54.82 2973.10
   01:39:16.355.09-May-2021 4502.51  994.79 67.44 10.00  55.02 2973.10
   01:39:16.555.09-May-2021 4502.51  994.79 67.44 10.00  55.22 2973.10
   01:39:16.756.09-May-2021 4502.51 1004.13 67.44 10.00  55.42 2973.10
   01:39:16.956.09-May-2021 4502.51 1008.37 67.44 10.00  55.62 2973.10
   01:39:17.156.09-May-2021 4502.51 1011.89 67.44 10.00  55.82 2973.10
   01:39:17.356.09-May-2021 4502.51 1015.50 67.44 10.00  56.02 2973.10
   01:39:17.556.09-May-2021 4502.51 1015.50 67.44 10.00  56.22 2973.10
   01:39:17.756.09-May-2021 4502.51 1022.52 67.44 10.00  56.42 2973.10
   01:39:17.956.09-May-2021 4502.51 1025.95 67.44 10.00  56.62 2973.10
   01:39:18.156.09-May-2021 4502.51 1029.35 67.44 10.00  56.82 2973.10
   01:39:18.356.09-May-2021 4502.51 1032.66 67.44 10.00  57.02 2973.10
   01:39:18.556.09-May-2021 4502.51 1032.66 67.44 10.00  57.22 2973.10
   01:39:18.756.09-May-2021 4502.51 1039.26 67.44 10.00  57.42 2973.10
   01:39:18.956.09-May-2021 4502.51 1041.87 67.44 10.00  57.62 2973.10
   01:39:19.156.09-May-2021 4502.51 1045.21 67.44 10.00  57.82 2973.10
   01:39:19.357.09-May-2021 4502.51 1048.08 67.44 10.00  58.02 2973.10
   01:39:19.557.09-May-2021 4502.51 1048.08 67.44 10.00  58.22 2973.10
   01:39:19.757.09-May-2021 4502.51 1054.66 67.44 10.00  58.42 2973.10
   01:39:19.957.09-May-2021 4502.51 1057.77 67.44 10.00  58.62 2973.10
   01:39:20.157.09-May-2021 4502.51 1060.87 67.44 10.00  58.82 2973.10
   01:39:20.357.09-May-2021 4502.51 1063.91 67.44 10.00  59.02 2973.10
   01:39:20.557.09-May-2021 4502.51 1063.91 67.44 10.00  59.22 2973.10
   01:39:20.757.09-May-2021 4502.51 1069.98 67.44 10.00  59.42 2973.10
   01:39:20.957.09-May-2021 4502.51 1072.92 67.44 10.00  59.62 2973.10
   01:39:21.157.09-May-2021 4502.51 1075.83 67.44 10.00  59.82 2973.10
   01:39:21.357.09-May-2021 4502.51 1078.64 67.44 10.00  60.02 2973.10
   01:39:21.557.09-May-2021 4502.51 1078.64 67.44 10.00  60.22 2973.10
   01:39:21.757.09-May-2021 4502.51 1084.06 67.44 10.00  60.42 2973.10
   01:39:21.957.09-May-2021 4502.51 1086.80 67.44 10.00  60.62 2973.10
   01:39:22.158.09-May-2021 4502.51 1089.08 67.44 10.00  60.82 2973.10
   01:39:22.358.09-May-2021 4502.51 1096.20 67.44 10.00  61.02 2973.10
   01:39:22.558.09-May-2021 4502.51 1096.20 67.44 10.00  61.22 2973.10
   01:39:22.758.09-May-2021 4502.51 1103.70 67.44 10.00  61.42 2973.10
   01:39:22.958.09-May-2021 4502.51 1106.84 67.44 10.00  61.62 2973.10
   01:39:23.158.09-May-2021 4502.51 1109.86 67.44 10.00  61.82 2973.10
   01:39:23.358.09-May-2021 4502.51 1112.23 67.44 10.00  62.02 2973.10
   01:39:23.558.09-May-2021 4502.51 1112.23 67.44 10.00  62.22 2973.10
   01:39:23.758.09-May-2021 4502.51 1118.88 67.44 10.00  62.42 2973.10
   01:39:23.958.09-May-2021 4502.51 1121.30 67.44 10.00  62.62 2973.10
   01:39:24.158.09-May-2021 4502.51 1129.83 67.44 10.00  62.82 2973.10
   01:39:24.358.09-May-2021 4502.51 1133.37 67.44 10.00  63.02 2973.10
   01:39:24.558.09-May-2021 4502.51 1133.37 67.44 10.00  63.22 2973.10
   01:39:24.758.09-May-2021 4502.51 1139.63 67.44 10.00  63.42 2973.10
   01:39:24.959.09-May-2021 4502.51 1142.66 67.44 10.00  63.62 2973.10
   01:39:25.159.09-May-2021 4502.51 1145.67 67.44 10.00  63.82 2973.10
   01:39:25.359.09-May-2021 4502.51 1148.54 67.44 10.00  64.02 2973.10
   01:39:25.559.09-May-2021 4502.51 1148.54 67.44 10.00  64.22 2973.10
   01:39:25.759.09-May-2021 4502.51 1154.22 67.44 10.00  64.42 2973.10
   01:39:25.959.09-May-2021 4502.51 1156.99 67.44 10.00  64.62 2973.10
   01:39:26.159.09-May-2021 4502.51 1159.68 67.44 10.00  64.82 2973.10
   01:39:26.359.09-May-2021 4502.51 1163.67 67.44 10.00  65.02 2973.10
   01:39:26.559.09-May-2021 4502.51 1163.67 67.44 10.00  65.22 2973.10
   01:39:26.759.09-May-2021 4502.51 1170.32 67.45 10.00  65.42 2973.10
   01:39:26.959.09-May-2021 4502.51 1173.45 67.45 10.00  65.62 2973.10
   01:39:27.159.09-May-2021 4502.51 1176.24 67.45 10.00  65.82 2973.10
   01:39:27.359.09-May-2021 4502.51 1179.22 67.45 10.00  66.02 2973.10
   01:39:27.559.09-May-2021 4502.51 1179.22 67.45 10.00  66.22 2973.10
   01:39:27.760.09-May-2021 4502.51 1184.89 67.45 10.00  66.42 2973.10
   01:39:27.960.09-May-2021 4502.51 1187.63 67.45 10.00  66.62 2973.10
   01:39:28.160.09-May-2021 4502.51 1190.25 67.45 10.00  66.82 2973.10
   01:39:28.360.09-May-2021 4502.51 1192.69 67.45 10.00  67.02 2973.10
   01:39:28.560.09-May-2021 4502.51 1192.69 67.45 10.00  67.22 2973.10
   01:39:28.760.09-May-2021 4502.51 1197.44 67.45 10.00  67.42 2973.10
   01:39:28.960.09-May-2021 4502.51 1199.74 67.45 10.00  67.62 2973.10
