~Version Information
 VERS.                  2.0:   CWLS log ASCII Standard -VERSION 2.0
 WRAP.                   NO:   One line per depth step
~Well Information Block
#MNEM.UNIT     VALUE/NAME     DESCRIPTION
#---------     -----------    ---------------------------
 STRT.S             02:35:25 09-May-21: START TIME 02:35:25 09-May-21
 STOP.S             02:42:01 09-May-21: STOP TIME  02:42:01 09-May-21
 STEP.S                   0.00: STEP TIME
 NULL.                 -999.25: NULL VALUE
 PROV.                    Baku:  PROVINCE
 STAT.                    Baku:  STATE NAME
 SON .        AZ-XX-0906571588:  JOB NUMBER
 WTYP.                Deviated:  WELL TYPE
 COMP.     BP Exploration (Caspian Sea) ltd:  COMPANY
 BASE.              Azerbaijan:  LOGGING EQUIPMENT BASE LOCATION
 REGN.                   EESSA:  REGION
 CTRY.              Azerbaijan:  COUNTRY NAME
 FLD .                     ACG:  FIELD NAME
 WELL.                     J28:  WELL NAME
 RIG .             West Chirag:  RIG NAME
 DMF .             Drill Floor:  DRILL MEAS FROM
 PDAT.       Caspian Sea Level:  PERMANENT DATUM
 HPTY.       Minimum Curvature:  HOLE POS TYPE
 MDS .        Operator Entered:  MAG DATA SOURCE
 NREF.                    Grid:  NORTH REFERENCE
 SRVC.          TURAN DRILLING:  CONTRACTOR
 JOBN.        AZ-XX-0906571588:  JOB TICKET NUMB
 DCON.     Halliburton Sperry Drilling:  DIRECTNL CONTR
 STIM.      00.44.00 11-Feb-21:  START TIME
 DATE.      00.00.00 05-May-21:  END TIME
 SPUD.               13-Feb-21:  SPUD DATE
 MWDS.                    Baku:  MWD SHOP
 DOE .                     N/A:  DOE NUMBER
 UNIT.                     N/A:  LOGGING EQUIPMENT ID
 UWI .                     N/A:  UNIQUE WELL IDENTIFIER
 API .                     N/A:  API NUMBER
 CNTY.                        :  COUNTY
 LOC .                        :  LOCATION
 LMF .             Drill Floor:  LOG MEASURED FROM
 TVDS.m                  43.00:  TVDSS CORRECTN
 SDEP.m                 341.00:  START DEPTH
 EGL .m                   0.00:  GROUND ELEVATION
 WDMS.m                 169.80:  WD ELEV
 AGAP.m                  43.00:  AIR GAP
 EPD .m                   0.00:  ELEVATION
 APD .m                  43.00:  DEPTH ABOVE PD
 LATI.deg                40.13:  LATITUDE
 LONG.deg                51.22:  LONGITUDE
 UTMY.m             4443793.85:  UTM Y
 UTMX.m              519005.06:  UTM X
 WHEW.m                 -11.57:  WELL HEAD E/W
 WHNS.m                   8.57:  WELL HEAD N/S
 VSEW.m                 -11.57:  VERT SEC E/W
 VSNS.m                   8.57:  VERT SEC N/S
 DFWL.m                   0.00:  DISTANCE FWL
 DFSL.m                   0.00:  DISTANCE FSL
 VSDR.deg               299.34:  VERT SEC DIRECT
 GVFD.g                   1.00:  GRAVITY FIELD
 AZTC.deg                 6.36:  AZM TOTAL CORR
 MFLD.nT              50391.00:  MAGNETIC FIELD
 MDIP.deg                59.65:  MAGNETIC DIP
 MDEC.deg                 6.48:  MAGNETIC DECL
 GRDC.deg                 0.12:  GRID CORRECTION
 DEP .m                 334.96:  DEPTH
 TDD .m                1407.26:  TOTAL DEPTH (DRILLER)
 EKB .m                  43.00:  KB ELEVATION
 EDF .m                  43.00:  DF ELEVATION
 TDL .m                 228.00:  TOTAL DEPTH (LOGGER)
 VSC .                       0:  VS TO CLOSURE
 MAGU.                 1854484:  MAGUTM CHECKSUM
~Parameter Information Block
#MNEM.UNIT       Value        Description
#---------     -----------    ---------------------------
 AV  .mps                 4.00:  Ann Velocity 
 AVMX.mps                 4.73:  Max Ann Veloc 
 AZIF.deg               304.48:  Azm, Final 
 BHAT.        Rotary Steerable:  BHA Type 
 BREV.rev            257300.00:  Rev Bit Total 
 BROT.°/30m               0.00:  Build Rotating 
 BS  .in                  8.50:  Bit Size 
 BSZ .in                  8.50:  Bit Size 
 BTPL.psig              589.00:  Bit Press Loss 
 CABU.                      No:  Customer Abuse 
 CGEO.          Mubariz ghayev:  Customer Geo 
 COMM.                     LÑz:  Run Comments 1 
 TCS .hr                 64.25:  Time Ciculation Ended 
 CV  .mps                 3.50:  Crit Velocity 
 CVMX.mps                 4.52:  Max Crit Veloc 
 DD1 .             Aziz Aliyev:  Direct Drillr 1 
 DD2 .         Intigam Rahimov:  Direct Drillr 2 
 DD3 .          Rashad Habibov:  Direct Drillr 3 
 DDSV.               Geo-Pilot:  DD Service 
 DEFF.%                  98.00:  % Det Eff 
 DLRX.°/30m               0.00:  Dogleg Rot Max 
 DLSO.°/30m               0.00:  Dogleg Oriented 
 DLSX.°/30m               0.00:  Dogleg Str Max 
 DRET.      10.45.04 08-May-21:  Drill End Time 
 DRST.      03.30.04 04-May-21:  Drill Start Tim 
 DTIM.hr                 14.97:  Time Drilling 
 EDEP.m                4640.01:  End Depth 
 ENG1.         Dail Mahammadov:  Engineer 1 
 ENG2.           Eldar Hajiyev:  Engineer 2 
 ENG3.       Bakhtiar Jabbarli:  Engineer 3 
 ENG4.       Natik Hasanagayev:  Engineer 4 
 ETIM.      09.30.04 14-May-21:  End Time 
 FLOI.gpm               460.00:  Flow In 
 FLON.gpm               200.00:  Flow In Min 
 FLOS.cptm                0.00:  Fluid Loss 
 FLOX.gpm               505.00:  Flow In Max 
 HFLO.                      No:  High Flow 
 HPRE.                      No:  High Pressure 
 HTEM.                      No:  High Temp 
 HYDO.m                   1.80:  Hydro Offset 
 IFIN.deg                66.71:  Inc, Final 
 IMAX.deg                67.03:  Inc Max 
 IMIN.deg                66.63:  Inc Min 
 IMND.m                4550.58:  Inc Min Depth 
 IMXD.m                4439.01:  Inc Max Depth 
 JARR.                      No:  Jarring 
 LETM.      10.45.04 08-May-21:  Log End Time 
 LOST.hr                     0:  Lost Rig Time 
 LSTM.      03.30.04 04-May-21:  Log Start Time 
 MDCL.ppm             37000.00:  Mud Chlorides 
 MDES.     Inversion Oil/Synthetic:  Mud Desc 
 DFD .sg                  1.38:  Mud Density 
 MDMN.sg                  1.35:  Dens Mud Min 
 MDMX.sg                  1.40:  Dens Mud Max 
 MOIL.                   57.40:  Run Mud Oil % 
 MOWR.                   70:30:  Run Mud OWR 
 MSND.                    0.00:  Run Mud Sand % 
 MSOL.                   18.00:  Run Mud Solids% 
 DFV .spqt               71.00:  Mud Viscosity 
 MWOD.in                  6.75:  MWD Tool OD 
 MWSI.                      No:  Serv Intrp, MWD 
 OTIM.hr                242.76:  Time Operating 
 PCON.           Look Like New:  Pad Condition 
 PMAX.psia            12183.92:  Press Op, Max 
 PV  .cP                 27.00:  Mud PV 
 RUN .                    1300:  Run Number 
 ROPA.m/hr               15.00:  ROP Avg 
 ROPN.m/hr                9.00:  ROP Min 
 ROPX.m/hr               19.00:  ROP Max 
 RPMA.rpm               120.00:  RPM Surface Avg 
 RPMN.rpm               100.00:  RPM Surface Min 
 RPMX.rpm               120.00:  RPM Surface Max 
 RRUN.                    1300:  Rig Run Number 
 RTIM.hr                  5.00:  Time Reaming 
 SAZI.deg               304.73:  Azm, Start 
 SDEP.m                4412.01:  Start Depth 
 SIDD.                      No:  Serv Intrp, DD 
 SINC.deg                66.82:  Inc, Start 
 SPPA.psig             2800.00:  SPP Avg 
 SPPN.psig             2610.00:  SPP Min 
 SPPX.psig             3100.00:  SPP Max 
 STIM.      03.30.00 04-May-21:  Start Time 
 SVCS.                 DD, MWD:  Services 
 SVER.                    9.20:  Sperry Version 
 TDAT.m                 228.00:  Tot Depth Attmp 
 TDDF.                      No:  Trip for DD 
 TDLG.m                 228.00:  Tot Depth Loggd 
 TFF .                      No:  Trip for Fail 
 TQAA.f-kp               15.00:  Torque Abs Avg 
 TQAN.f-kp               12.00:  Torque Abs Min 
 TQAX.f-kp               22.00:  Torque Abs Max 
 TRRT.°/30m               0.00:  Turn Rotating 
 MRT .                    HCIM:  Maximum Recorded Temperature 
 TTMX.degC               90.20:  Max Tool Temp 
 VS01.                90627813:  Virtual Str1 SN 
 VS02.                90634712:  Virtual Str2 SN 
 VS03.                90643410:  Virtual Str3 SN 
 VS04.                90634712:  Virtual Str4 SN 
 WBMN.klb                 9.00:  WOB Min 
 WITN.        Elmaddin Rahimov:  Customer Rep 
 WITN.         Haytham Mostafa:  Customer Rep 2 
 WOBA.klb                15.00:  WOB Avg 
 WOBX.klb                23.00:  WOB Max 
 YP  .lhf2               29.00:  Yield Point 
~Curve Information Block
#MNEM.UNIT                 API CODE     Curve Description
#---------               -----------    ---------------------------
 TIME.HHMMSS            00 000 000 000:  GT Time & Date
 GTDEPTH.m              00 000 000 000:  GT Depth
 GTPQH.psia             00 000 000 000:  GT HR Quartz Pressure
 GTTQ.degC              00 000 000 000:  GT Quartz Temperature
 GTTN.NONE              00 000 000 000:  GT Test Number
 GTET.sec               00 000 000 000:  GT Elapsed Test Time
 GTTVD.m                00 000 000 000:  GT True Vertical Depth
#Other Information
#
#WARRANTY: Halliburton will use its best efforts to furnish customers with 
#accurate information and interpretations that are part of, and incident to, the services 
#provided.  However, Halliburton cannot and does not warrant the accuracy 
#or correctness of such information and interpretations.  Under no circumstances should any 
#such information or interpretation be relied upon as the sole basis for any drilling, 
#completion, production, or financial decision or any procedure involving any risk to the 
#safety of any drilling venture, drilling rig or its crew or any other third party.  The 
#Customer has full responsibility for all drilling, completion and production operation.  
#Halliburton makes no representations or warranties, either expressed or 
#implied, including, but not limited to, the implied warranties of merchantability or fitness 
#for a particular purpose, with respect to the services rendered.  In no event will 
#Halliburton be liable for failure to obtain any particular results or for 
#any damages, including, but not limited to, indirect, special or consequential damages, 
#resulting from the use of any information or interpretation provided by Halliburton.
#
~A           TIME           GTDEPTH  GTPQH  GTTQ  GTTN   GTET   GTTVD  
# ...
   02:38:48.700.09-May-2021 4482.51 1135.33 67.67 11.00 203.43 2965.25
   02:38:48.900.09-May-2021 4482.51 1136.72 67.67 11.00 203.63 2965.25
   02:38:49.100.09-May-2021 4482.51 1137.82 67.67 11.00 203.83 2965.25
   02:38:49.300.09-May-2021 4482.51 1140.06 67.67 11.00 204.03 2965.25
   02:38:49.500.09-May-2021 4482.51 1140.06 67.67 11.00 204.23 2965.25
   02:38:49.700.09-May-2021 4482.51 1143.03 67.67 11.00 204.43 2965.25
   02:38:49.900.09-May-2021 4482.51 1144.40 67.67 11.00 204.63 2965.25
   02:38:50.100.09-May-2021 4482.51 1145.90 67.67 11.00 204.83 2965.25
   02:38:50.300.09-May-2021 4482.51 1147.45 67.67 11.00 205.03 2965.25
   02:38:50.500.09-May-2021 4482.51 1147.45 67.67 11.00 205.23 2965.25
   02:38:50.700.09-May-2021 4482.51 1150.52 67.67 11.00 205.43 2965.25
   02:38:50.900.09-May-2021 4482.51 1152.04 67.67 11.00 205.63 2965.25
   02:38:51.100.09-May-2021 4482.51 1153.57 67.67 11.00 205.83 2965.25
   02:38:51.300.09-May-2021 4482.51 1155.11 67.67 11.00 206.03 2965.25
   02:38:51.500.09-May-2021 4482.51 1155.11 67.67 11.00 206.23 2965.25
   02:38:51.700.09-May-2021 4482.51 1157.75 67.67 11.00 206.43 2965.25
   02:38:51.900.09-May-2021 4482.51 1159.79 67.67 11.00 206.63 2965.25
   02:38:52.100.09-May-2021 4482.51 1161.27 67.67 11.00 206.83 2965.25
   02:38:52.300.09-May-2021 4482.51 1162.25 67.67 11.00 207.03 2965.25
   02:38:52.500.09-May-2021 4482.51 1162.25 67.67 11.00 207.23 2965.25
   02:38:52.700.09-May-2021 4482.51 1164.35 67.67 11.00 207.43 2965.25
   02:38:52.900.09-May-2021 4482.51 1165.46 67.67 11.00 207.63 2965.25
   02:38:53.100.09-May-2021 4482.51 1166.59 67.67 11.00 207.83 2965.25
   02:38:53.300.09-May-2021 4482.51 1167.97 67.67 11.00 208.03 2965.25
   02:38:53.500.09-May-2021 4482.51 1167.97 67.67 11.00 208.23 2965.25
   02:38:53.701.09-May-2021 4482.51 1170.80 67.67 11.00 208.43 2965.25
   02:38:53.901.09-May-2021 4482.51 1172.19 67.67 11.00 208.63 2965.25
   02:38:54.101.09-May-2021 4482.51 1173.50 67.67 11.00 208.83 2965.25
   02:38:54.301.09-May-2021 4482.51 1174.71 67.67 11.00 209.03 2965.25
   02:38:54.501.09-May-2021 4482.51 1174.71 67.67 11.00 209.23 2965.25
   02:38:54.701.09-May-2021 4482.51 1178.21 67.67 11.00 209.44 2965.25
   02:38:54.901.09-May-2021 4482.51 1178.81 67.67 11.00 209.64 2965.25
   02:38:55.101.09-May-2021 4482.51 1181.15 67.67 11.00 209.84 2965.25
   02:38:55.301.09-May-2021 4482.51 1182.30 67.67 11.00 210.04 2965.25
   02:38:55.501.09-May-2021 4482.51 1182.30 67.67 11.00 210.24 2965.25
   02:38:55.701.09-May-2021 4482.51 1185.00 67.67 11.00 210.44 2965.25
   02:38:55.901.09-May-2021 4482.51 1186.25 67.67 11.00 210.64 2965.25
   02:38:56.101.09-May-2021 4482.51 1188.26 67.67 11.00 210.84 2965.25
   02:38:56.301.09-May-2021 4482.51 1189.67 67.67 11.00 211.04 2965.25
   02:38:56.501.09-May-2021 4482.51 1189.67 67.67 11.00 211.24 2965.25
   02:38:56.701.09-May-2021 4482.51 1194.65 67.67 11.00 211.44 2965.25
   02:38:56.901.09-May-2021 4482.51 1195.98 67.67 11.00 211.64 2965.25
   02:38:57.101.09-May-2021 4482.51 1197.20 67.67 11.00 211.84 2965.25
   02:38:57.301.09-May-2021 4482.51 1198.65 67.67 11.00 212.04 2965.25
   02:38:57.501.09-May-2021 4482.51 1198.65 67.67 11.00 212.24 2965.25
   02:38:57.701.09-May-2021 4482.51 1201.44 67.67 11.00 212.44 2965.25
   02:38:57.901.09-May-2021 4482.51 1202.78 67.67 11.00 212.64 2965.25
   02:38:58.101.09-May-2021 4482.51 1204.15 67.67 11.00 212.84 2965.25
   02:38:58.301.09-May-2021 4482.51 1205.51 67.67 11.00 213.04 2965.25
   02:38:58.501.09-May-2021 4482.51 1205.51 67.67 11.00 213.24 2965.25
   02:38:58.701.09-May-2021 4482.51 1208.23 67.67 11.00 213.44 2965.25
   02:38:58.901.09-May-2021 4482.51 1209.17 67.67 11.00 213.64 2965.25
   02:38:59.101.09-May-2021 4482.51 1210.90 67.67 11.00 213.84 2965.25
   02:38:59.301.09-May-2021 4482.51 1212.29 67.67 11.00 214.04 2965.25
   02:38:59.501.09-May-2021 4482.51 1212.29 67.67 11.00 214.24 2965.25
   02:38:59.702.09-May-2021 4482.51 1214.81 67.67 11.00 214.44 2965.25
   02:38:59.902.09-May-2021 4482.51 1216.18 67.67 11.00 214.64 2965.25
   02:39:00.102.09-May-2021 4482.51 1217.48 67.67 11.00 214.84 2965.25
   02:39:00.302.09-May-2021 4482.51 1218.78 67.67 11.00 215.04 2965.25
   02:39:00.502.09-May-2021 4482.51 1218.78 67.67 11.00 215.24 2965.25
   02:39:00.702.09-May-2021 4482.51 1221.39 67.67 11.00 215.44 2965.25
   02:39:00.902.09-May-2021 4482.51 1222.68 67.67 11.00 215.64 2965.25
   02:39:01.102.09-May-2021 4482.51 1223.98 67.67 11.00 215.84 2965.25
   02:39:01.302.09-May-2021 4482.51 1225.25 67.67 11.00 216.04 2965.25
   02:39:01.502.09-May-2021 4482.51 1225.25 67.67 11.00 216.24 2965.25
   02:39:01.702.09-May-2021 4482.51 1227.86 67.67 11.00 216.44 2965.25
   02:39:01.902.09-May-2021 4482.51 1229.21 67.67 11.00 216.64 2965.25
   02:39:02.102.09-May-2021 4482.51 1230.66 67.67 11.00 216.84 2965.25
   02:39:02.302.09-May-2021 4482.51 1231.57 67.67 11.00 217.04 2965.25
   02:39:02.502.09-May-2021 4482.51 1231.57 67.67 11.00 217.24 2965.25
   02:39:02.702.09-May-2021 4482.51 1234.48 67.67 11.00 217.44 2965.25
   02:39:02.902.09-May-2021 4482.51 1235.48 67.67 11.00 217.64 2965.25
   02:39:03.102.09-May-2021 4482.51 1236.25 67.67 11.00 217.84 2965.25
   02:39:03.302.09-May-2021 4482.51 1238.17 67.67 11.00 218.04 2965.25
   02:39:03.502.09-May-2021 4482.51 1238.17 67.67 11.00 218.24 2965.25
   02:39:03.702.09-May-2021 4482.51 1240.01 67.67 11.00 218.44 2965.25
   02:39:03.902.09-May-2021 4482.51 1240.24 67.67 11.00 218.64 2965.25
   02:39:04.102.09-May-2021 4482.51 1240.50 67.67 11.00 218.84 2965.25
   02:39:04.302.09-May-2021 4482.51 1242.06 67.67 11.00 219.04 2965.25
   02:39:04.502.09-May-2021 4482.51 1242.06 67.67 11.00 219.24 2965.25
   02:39:04.702.09-May-2021 4482.51 1244.18 67.67 11.00 219.44 2965.25
   02:39:04.902.09-May-2021 4482.51 1245.52 67.67 11.00 219.64 2965.25
   02:39:05.102.09-May-2021 4482.51 1246.70 67.67 11.00 219.84 2965.25
   02:39:05.302.09-May-2021 4482.51 1247.90 67.67 11.00 220.04 2965.25
   02:39:05.502.09-May-2021 4482.51 1247.90 67.67 11.00 220.24 2965.25
   02:39:05.703.09-May-2021 4482.51 1250.39 67.67 11.00 220.44 2965.25
   02:39:05.903.09-May-2021 4482.51 1251.65 67.67 11.00 220.64 2965.25
   02:39:06.103.09-May-2021 4482.51 1252.91 67.67 11.00 220.84 2965.25
   02:39:06.303.09-May-2021 4482.51 1254.14 67.67 11.00 221.04 2965.25
   02:39:06.503.09-May-2021 4482.51 1254.14 67.67 11.00 221.24 2965.25
   02:39:06.703.09-May-2021 4482.51 1256.73 67.67 11.00 221.44 2965.25
   02:39:06.903.09-May-2021 4482.51 1258.01 67.67 11.00 221.64 2965.25
   02:39:07.103.09-May-2021 4482.51 1259.34 67.67 11.00 221.84 2965.25
   02:39:07.303.09-May-2021 4482.51 1260.30 67.67 11.00 222.04 2965.25
   02:39:07.503.09-May-2021 4482.51 1260.30 67.67 11.00 222.24 2965.25
   02:39:07.703.09-May-2021 4482.51 1262.82 67.67 11.00 222.44 2965.25
   02:39:07.903.09-May-2021 4482.51 1264.15 67.67 11.00 222.64 2965.25
   02:39:08.103.09-May-2021 4482.51 1265.41 67.67 11.00 222.84 2965.25
   02:39:08.303.09-May-2021 4482.51 1266.63 67.67 11.00 223.04 2965.25
   02:39:08.503.09-May-2021 4482.51 1266.63 67.67 11.00 223.24 2965.25
   02:39:08.703.09-May-2021 4482.51 1269.09 67.67 11.00 223.44 2965.25
   02:39:08.903.09-May-2021 4482.51 1270.35 67.67 11.00 223.64 2965.25
   02:39:09.103.09-May-2021 4482.51 1271.19 67.67 11.00 223.84 2965.25
   02:39:09.303.09-May-2021 4482.51 1272.87 67.67 11.00 224.04 2965.25
   02:39:09.503.09-May-2021 4482.51 1272.87 67.67 11.00 224.24 2965.25
   02:39:09.703.09-May-2021 4482.51 1275.44 67.67 11.00 224.44 2965.25
   02:39:09.903.09-May-2021 4482.51 1276.45 67.67 11.00 224.64 2965.25
   02:39:10.103.09-May-2021 4482.51 1277.74 67.67 11.00 224.84 2965.25
   02:39:10.303.09-May-2021 4482.51 1278.41 67.67 11.00 225.04 2965.25
   02:39:10.503.09-May-2021 4482.51 1278.41 67.67 11.00 225.24 2965.25
   02:39:10.703.09-May-2021 4482.51 1281.24 67.67 11.00 225.44 2965.25
   02:39:10.903.09-May-2021 4482.51 1282.77 67.67 11.00 225.64 2965.25
   02:39:11.103.09-May-2021 4482.51 1283.17 67.67 11.00 225.84 2965.25
