~Version Information
 VERS.                  2.0:   CWLS log ASCII Standard -VERSION 2.0
 WRAP.                   NO:   One line per depth step
~Well Information Block
#MNEM.UNIT     VALUE/NAME     DESCRIPTION
#---------     -----------    ---------------------------
 STRT.S             00:30:13 09-May-21: START TIME 00:30:13 09-May-21
 STOP.S             00:37:03 09-May-21: STOP TIME  00:37:03 09-May-21
 STEP.S                   0.00: STEP TIME
 NULL.                 -999.25: NULL VALUE
 PROV.                    Baku:  PROVINCE
 STAT.                    Baku:  STATE NAME
 SON .        AZ-XX-0906571588:  JOB NUMBER
 WTYP.                Deviated:  WELL TYPE
 COMP.     BP Exploration (Caspian Sea) ltd:  COMPANY
 BASE.              Azerbaijan:  LOGGING EQUIPMENT BASE LOCATION
 REGN.                   EESSA:  REGION
 CTRY.              Azerbaijan:  COUNTRY NAME
 FLD .                     ACG:  FIELD NAME
 WELL.                     J28:  WELL NAME
 RIG .             West Chirag:  RIG NAME
 DMF .             Drill Floor:  DRILL MEAS FROM
 PDAT.       Caspian Sea Level:  PERMANENT DATUM
 HPTY.       Minimum Curvature:  HOLE POS TYPE
 MDS .        Operator Entered:  MAG DATA SOURCE
 NREF.                    Grid:  NORTH REFERENCE
 SRVC.          TURAN DRILLING:  CONTRACTOR
 JOBN.        AZ-XX-0906571588:  JOB TICKET NUMB
 DCON.     Halliburton Sperry Drilling:  DIRECTNL CONTR
 STIM.      00.44.00 11-Feb-21:  START TIME
 DATE.      00.00.00 05-May-21:  END TIME
 SPUD.               13-Feb-21:  SPUD DATE
 MWDS.                    Baku:  MWD SHOP
 DOE .                     N/A:  DOE NUMBER
 UNIT.                     N/A:  LOGGING EQUIPMENT ID
 UWI .                     N/A:  UNIQUE WELL IDENTIFIER
 API .                     N/A:  API NUMBER
 CNTY.                        :  COUNTY
 LOC .                        :  LOCATION
 LMF .             Drill Floor:  LOG MEASURED FROM
 TVDS.m                  43.00:  TVDSS CORRECTN
 SDEP.m                 341.00:  START DEPTH
 EGL .m                   0.00:  GROUND ELEVATION
 WDMS.m                 169.80:  WD ELEV
 AGAP.m                  43.00:  AIR GAP
 EPD .m                   0.00:  ELEVATION
 APD .m                  43.00:  DEPTH ABOVE PD
 LATI.deg                40.13:  LATITUDE
 LONG.deg                51.22:  LONGITUDE
 UTMY.m             4443793.85:  UTM Y
 UTMX.m              519005.06:  UTM X
 WHEW.m                 -11.57:  WELL HEAD E/W
 WHNS.m                   8.57:  WELL HEAD N/S
 VSEW.m                 -11.57:  VERT SEC E/W
 VSNS.m                   8.57:  VERT SEC N/S
 DFWL.m                   0.00:  DISTANCE FWL
 DFSL.m                   0.00:  DISTANCE FSL
 VSDR.deg               299.34:  VERT SEC DIRECT
 GVFD.g                   1.00:  GRAVITY FIELD
 AZTC.deg                 6.36:  AZM TOTAL CORR
 MFLD.nT              50391.00:  MAGNETIC FIELD
 MDIP.deg                59.65:  MAGNETIC DIP
 MDEC.deg                 6.48:  MAGNETIC DECL
 GRDC.deg                 0.12:  GRID CORRECTION
 DEP .m                 334.96:  DEPTH
 TDD .m                1407.26:  TOTAL DEPTH (DRILLER)
 EKB .m                  43.00:  KB ELEVATION
 EDF .m                  43.00:  DF ELEVATION
 TDL .m                 228.00:  TOTAL DEPTH (LOGGER)
 VSC .                       0:  VS TO CLOSURE
 MAGU.                 1854484:  MAGUTM CHECKSUM
~Parameter Information Block
#MNEM.UNIT       Value        Description
#---------     -----------    ---------------------------
 AV  .mps                 4.00:  Ann Velocity 
 AVMX.mps                 4.73:  Max Ann Veloc 
 AZIF.deg               304.48:  Azm, Final 
 BHAT.        Rotary Steerable:  BHA Type 
 BREV.rev            257300.00:  Rev Bit Total 
 BROT.°/30m               0.00:  Build Rotating 
 BS  .in                  8.50:  Bit Size 
 BSZ .in                  8.50:  Bit Size 
 BTPL.psig              589.00:  Bit Press Loss 
 CABU.                      No:  Customer Abuse 
 CGEO.          Mubariz ghayev:  Customer Geo 
 TCS .hr                 64.25:  Time Ciculation Ended 
 CV  .mps                 3.50:  Crit Velocity 
 CVMX.mps                 4.52:  Max Crit Veloc 
 DD1 .             Aziz Aliyev:  Direct Drillr 1 
 DD2 .         Intigam Rahimov:  Direct Drillr 2 
 DD3 .          Rashad Habibov:  Direct Drillr 3 
 DDSV.               Geo-Pilot:  DD Service 
 DEFF.%                  98.00:  % Det Eff 
 DLRX.°/30m               0.00:  Dogleg Rot Max 
 DLSO.°/30m               0.00:  Dogleg Oriented 
 DLSX.°/30m               0.00:  Dogleg Str Max 
 DRET.      10.45.04 08-May-21:  Drill End Time 
 DRST.      03.30.04 04-May-21:  Drill Start Tim 
 DTIM.hr                 14.97:  Time Drilling 
 EDEP.m                4640.01:  End Depth 
 ENG1.         Dail Mahammadov:  Engineer 1 
 ENG2.           Eldar Hajiyev:  Engineer 2 
 ENG3.       Bakhtiar Jabbarli:  Engineer 3 
 ENG4.       Natik Hasanagayev:  Engineer 4 
 ETIM.      09.30.04 14-May-21:  End Time 
 FLOI.gpm               460.00:  Flow In 
 FLON.gpm               200.00:  Flow In Min 
 FLOS.cptm                0.00:  Fluid Loss 
 FLOX.gpm               505.00:  Flow In Max 
 HFLO.                      No:  High Flow 
 HPRE.                      No:  High Pressure 
 HTEM.                      No:  High Temp 
 HYDO.m                   1.80:  Hydro Offset 
 IFIN.deg                66.71:  Inc, Final 
 IMAX.deg                67.03:  Inc Max 
 IMIN.deg                66.63:  Inc Min 
 IMND.m                4550.58:  Inc Min Depth 
 IMXD.m                4439.01:  Inc Max Depth 
 JARR.                      No:  Jarring 
 LETM.      10.45.04 08-May-21:  Log End Time 
 LOST.hr                     0:  Lost Rig Time 
 LSTM.      03.30.04 04-May-21:  Log Start Time 
 MDCL.ppm             37000.00:  Mud Chlorides 
 MDES.     Inversion Oil/Synthetic:  Mud Desc 
 DFD .sg                  1.38:  Mud Density 
 MDMN.sg                  1.35:  Dens Mud Min 
 MDMX.sg                  1.40:  Dens Mud Max 
 MOIL.                   57.40:  Run Mud Oil % 
 MOWR.                   70:30:  Run Mud OWR 
 MSND.                    0.00:  Run Mud Sand % 
 MSOL.                   18.00:  Run Mud Solids% 
 DFV .spqt               71.00:  Mud Viscosity 
 MWOD.in                  6.75:  MWD Tool OD 
 MWSI.                      No:  Serv Intrp, MWD 
 OTIM.hr                242.76:  Time Operating 
 PCON.           Look Like New:  Pad Condition 
 PMAX.psia            12183.92:  Press Op, Max 
 PV  .cP                 27.00:  Mud PV 
 RUN .                    1300:  Run Number 
 ROPA.m/hr               15.00:  ROP Avg 
 ROPN.m/hr                9.00:  ROP Min 
 ROPX.m/hr               19.00:  ROP Max 
 RPMA.rpm               120.00:  RPM Surface Avg 
 RPMN.rpm               100.00:  RPM Surface Min 
 RPMX.rpm               120.00:  RPM Surface Max 
 RRUN.                    1300:  Rig Run Number 
 RTIM.hr                  5.00:  Time Reaming 
 SAZI.deg               304.73:  Azm, Start 
 SDEP.m                4412.01:  Start Depth 
 SIDD.                      No:  Serv Intrp, DD 
 SINC.deg                66.82:  Inc, Start 
 SPPA.psig             2800.00:  SPP Avg 
 SPPN.psig             2610.00:  SPP Min 
 SPPX.psig             3100.00:  SPP Max 
 STIM.      03.30.00 04-May-21:  Start Time 
 SVCS.                 DD, MWD:  Services 
 SVER.                    9.20:  Sperry Version 
 TDAT.m                 228.00:  Tot Depth Attmp 
 TDDF.                      No:  Trip for DD 
 TDLG.m                 228.00:  Tot Depth Loggd 
 TFF .                      No:  Trip for Fail 
 TQAA.f-kp               15.00:  Torque Abs Avg 
 TQAN.f-kp               12.00:  Torque Abs Min 
 TQAX.f-kp               22.00:  Torque Abs Max 
 TRRT.°/30m               0.00:  Turn Rotating 
 MRT .                    HCIM:  Maximum Recorded Temperature 
 TTMX.degC               90.20:  Max Tool Temp 
 VS01.                90627813:  Virtual Str1 SN 
 VS02.                90634712:  Virtual Str2 SN 
 VS03.                90643410:  Virtual Str3 SN 
 VS04.                90634712:  Virtual Str4 SN 
 WBMN.klb                 9.00:  WOB Min 
 WITN.        Elmaddin Rahimov:  Customer Rep 
 WITN.         Haytham Mostafa:  Customer Rep 2 
 WOBA.klb                15.00:  WOB Avg 
 WOBX.klb                23.00:  WOB Max 
 YP  .lhf2               29.00:  Yield Point 
~Curve Information Block
#MNEM.UNIT                 API CODE     Curve Description
#---------               -----------    ---------------------------
 TIME.HHMMSS            00 000 000 000:  GT Time & Date
 GTDEPTH.m              00 000 000 000:  GT Depth
 GTPQH.psia             00 000 000 000:  GT HR Quartz Pressure
 GTTQ.degC              00 000 000 000:  GT Quartz Temperature
 GTTN.NONE              00 000 000 000:  GT Test Number
 GTET.sec               00 000 000 000:  GT Elapsed Test Time
 GTTVD.m                00 000 000 000:  GT True Vertical Depth
#Other Information
#
#WARRANTY: Halliburton will use its best efforts to furnish customers with 
#accurate information and interpretations that are part of, and incident to, the services 
#provided.  However, Halliburton cannot and does not warrant the accuracy 
#or correctness of such information and interpretations.  Under no circumstances should any 
#such information or interpretation be relied upon as the sole basis for any drilling, 
#completion, production, or financial decision or any procedure involving any risk to the 
#safety of any drilling venture, drilling rig or its crew or any other third party.  The 
#Customer has full responsibility for all drilling, completion and production operation.  
#Halliburton makes no representations or warranties, either expressed or 
#implied, including, but not limited to, the implied warranties of merchantability or fitness 
#for a particular purpose, with respect to the services rendered.  In no event will 
#Halliburton be liable for failure to obtain any particular results or for 
#any damages, including, but not limited to, indirect, special or consequential damages, 
#resulting from the use of any information or interpretation provided by Halliburton.
#
~A           TIME           GTDEPTH  GTPQH  GTTQ  GTTN  GTET   GTTVD  
# ...
   00:33:17.921.09-May-2021 4516.51 3296.04 67.77 7.00 184.07 2978.60
   00:33:18.121.09-May-2021 4516.51 3296.04 67.77 7.00 184.27 2978.60
   00:33:18.321.09-May-2021 4516.51 3296.30 67.77 7.00 184.47 2978.60
   00:33:18.521.09-May-2021 4516.51 3296.08 67.77 7.00 184.67 2978.60
   00:33:18.722.09-May-2021 4516.51 3296.07 67.77 7.00 184.87 2978.60
   00:33:18.922.09-May-2021 4516.51 3296.15 67.77 7.00 185.07 2978.60
   00:33:19.122.09-May-2021 4516.51 3296.15 67.77 7.00 185.27 2978.60
   00:33:19.322.09-May-2021 4516.51 3296.19 67.77 7.00 185.47 2978.60
   00:33:19.522.09-May-2021 4516.51 3296.37 67.77 7.00 185.67 2978.60
   00:33:19.722.09-May-2021 4516.51 3296.41 67.77 7.00 185.87 2978.60
   00:33:19.922.09-May-2021 4516.51 3296.20 67.77 7.00 186.07 2978.60
   00:33:20.122.09-May-2021 4516.51 3296.20 67.77 7.00 186.27 2978.60
   00:33:20.322.09-May-2021 4516.51 3295.97 67.77 7.00 186.47 2978.60
   00:33:20.522.09-May-2021 4516.51 3296.42 67.77 7.00 186.67 2978.60
   00:33:20.722.09-May-2021 4516.51 3296.55 67.77 7.00 186.87 2978.60
   00:33:20.922.09-May-2021 4516.51 3296.59 67.77 7.00 187.07 2978.60
   00:33:21.122.09-May-2021 4516.51 3296.59 67.77 7.00 187.27 2978.60
   00:33:21.322.09-May-2021 4516.51 3296.45 67.77 7.00 187.47 2978.60
   00:33:21.523.09-May-2021 4516.51 3296.49 67.77 7.00 187.67 2978.60
   00:33:21.723.09-May-2021 4516.51 3296.49 67.77 7.00 187.87 2978.60
   00:33:21.923.09-May-2021 4516.51 3296.54 67.77 7.00 188.07 2978.60
   00:33:22.123.09-May-2021 4516.51 3296.54 67.77 7.00 188.27 2978.60
   00:33:22.323.09-May-2021 4516.51 3296.61 67.77 7.00 188.47 2978.60
   00:33:22.523.09-May-2021 4516.51 3296.60 67.77 7.00 188.67 2978.60
   00:33:22.723.09-May-2021 4516.51 3296.60 67.77 7.00 188.87 2978.60
   00:33:22.923.09-May-2021 4516.51 3296.34 67.77 7.00 189.07 2978.60
   00:33:23.123.09-May-2021 4516.51 3296.34 67.77 7.00 189.27 2978.60
   00:33:23.323.09-May-2021 4516.51 3296.91 67.77 7.00 189.47 2978.60
   00:33:23.523.09-May-2021 4516.51 3296.93 67.77 7.00 189.67 2978.60
   00:33:23.723.09-May-2021 4516.51 3296.71 67.77 7.00 189.87 2978.60
   00:33:23.923.09-May-2021 4516.51 3296.77 67.77 7.00 190.07 2978.60
   00:33:24.123.09-May-2021 4516.51 3296.77 67.77 7.00 190.27 2978.60
   00:33:24.324.09-May-2021 4516.51 3296.77 67.77 7.00 190.47 2978.60
   00:33:24.524.09-May-2021 4516.51 3296.80 67.77 7.00 190.67 2978.60
   00:33:24.724.09-May-2021 4516.51 3296.84 67.77 7.00 190.87 2978.60
   00:33:24.924.09-May-2021 4516.51 3296.88 67.77 7.00 191.07 2978.60
   00:33:25.124.09-May-2021 4516.51 3296.88 67.77 7.00 191.27 2978.60
   00:33:25.324.09-May-2021 4516.51 3296.86 67.77 7.00 191.47 2978.60
   00:33:25.524.09-May-2021 4516.51 3296.60 67.77 7.00 191.67 2978.60
   00:33:25.724.09-May-2021 4516.51 3297.05 67.77 7.00 191.87 2978.60
   00:33:25.924.09-May-2021 4516.51 3297.21 67.77 7.00 192.07 2978.60
   00:33:26.124.09-May-2021 4516.51 3297.21 67.77 7.00 192.27 2978.60
   00:33:26.324.09-May-2021 4516.51 3296.92 67.77 7.00 192.47 2978.60
   00:33:26.524.09-May-2021 4516.51 3296.96 67.77 7.00 192.67 2978.60
   00:33:26.724.09-May-2021 4516.51 3296.68 67.77 7.00 192.87 2978.60
   00:33:26.924.09-May-2021 4516.51 3297.43 67.77 7.00 193.07 2978.60
   00:33:27.125.09-May-2021 4516.51 3297.43 67.77 7.00 193.27 2978.60
   00:33:27.325.09-May-2021 4516.51 3296.94 67.77 7.00 193.47 2978.60
   00:33:27.525.09-May-2021 4516.51 3297.05 67.77 7.00 193.67 2978.60
   00:33:27.725.09-May-2021 4516.51 3297.03 67.77 7.00 193.87 2978.60
   00:33:27.925.09-May-2021 4516.51 3296.79 67.77 7.00 194.07 2978.60
   00:33:28.125.09-May-2021 4516.51 3296.79 67.77 7.00 194.27 2978.60
   00:33:28.325.09-May-2021 4516.51 3297.28 67.77 7.00 194.47 2978.60
   00:33:28.525.09-May-2021 4516.51 3297.07 67.77 7.00 194.67 2978.60
   00:33:28.725.09-May-2021 4516.51 3297.16 67.77 7.00 194.87 2978.60
   00:33:28.925.09-May-2021 4516.51 3296.95 67.77 7.00 195.07 2978.60
   00:33:29.125.09-May-2021 4516.51 3296.95 67.77 7.00 195.27 2978.60
   00:33:29.325.09-May-2021 4516.51 3297.27 67.77 7.00 195.47 2978.60
   00:33:29.525.09-May-2021 4516.51 3297.20 67.77 7.00 195.67 2978.60
   00:33:29.725.09-May-2021 4516.51 3297.29 67.77 7.00 195.87 2978.60
   00:33:29.926.09-May-2021 4516.51 3297.25 67.77 7.00 196.07 2978.60
   00:33:30.126.09-May-2021 4516.51 3297.25 67.77 7.00 196.27 2978.60
   00:33:30.326.09-May-2021 4516.51 3297.32 67.76 7.00 196.47 2978.60
   00:33:30.526.09-May-2021 4516.51 3297.34 67.77 7.00 196.67 2978.60
   00:33:30.726.09-May-2021 4516.51 3297.38 67.76 7.00 196.87 2978.60
   00:33:30.926.09-May-2021 4516.51 3297.40 67.76 7.00 197.07 2978.60
   00:33:31.126.09-May-2021 4516.51 3297.40 67.76 7.00 197.27 2978.60
   00:33:31.326.09-May-2021 4516.51 3297.39 67.76 7.00 197.47 2978.60
   00:33:31.526.09-May-2021 4516.51 3297.19 67.76 7.00 197.67 2978.60
   00:33:31.726.09-May-2021 4516.51 3297.80 67.76 7.00 197.87 2978.60
   00:33:31.926.09-May-2021 4516.51 3297.51 67.76 7.00 198.07 2978.60
   00:33:32.126.09-May-2021 4516.51 3297.51 67.76 7.00 198.27 2978.60
   00:33:32.326.09-May-2021 4516.51 3297.54 67.76 7.00 198.47 2978.60
   00:33:32.527.09-May-2021 4516.51 3297.46 67.76 7.00 198.67 2978.60
   00:33:32.727.09-May-2021 4516.51 3297.50 67.76 7.00 198.87 2978.60
   00:33:32.927.09-May-2021 4516.51 3297.50 67.76 7.00 199.07 2978.60
   00:33:33.127.09-May-2021 4516.51 3297.50 67.76 7.00 199.27 2978.60
   00:33:33.327.09-May-2021 4516.51 3297.57 67.76 7.00 199.47 2978.60
   00:33:33.527.09-May-2021 4516.51 3297.58 67.76 7.00 199.67 2978.60
   00:33:33.727.09-May-2021 4516.51 3297.56 67.76 7.00 199.87 2978.60
   00:33:33.927.09-May-2021 4516.51 3297.55 67.76 7.00 200.07 2978.60
   00:33:34.127.09-May-2021 4516.51 3297.55 67.76 7.00 200.27 2978.60
   00:33:34.327.09-May-2021 4516.51 3297.99 67.76 7.00 200.47 2978.60
   00:33:34.527.09-May-2021 4516.51 3297.68 67.76 7.00 200.67 2978.60
   00:33:34.727.09-May-2021 4516.51 3297.59 67.76 7.00 200.87 2978.60
   00:33:34.927.09-May-2021 4516.51 3297.63 67.76 7.00 201.07 2978.60
   00:33:35.127.09-May-2021 4516.51 3297.63 67.76 7.00 201.27 2978.60
   00:33:35.328.09-May-2021 4516.51 3297.95 67.76 7.00 201.47 2978.60
   00:33:35.528.09-May-2021 4516.51 3297.71 67.76 7.00 201.67 2978.60
   00:33:35.728.09-May-2021 4516.51 3297.92 67.76 7.00 201.87 2978.60
   00:33:35.928.09-May-2021 4516.51 3297.64 67.76 7.00 202.07 2978.60
   00:33:36.128.09-May-2021 4516.51 3297.64 67.76 7.00 202.27 2978.60
   00:33:36.328.09-May-2021 4516.51 3297.42 67.76 7.00 202.47 2978.60
   00:33:36.528.09-May-2021 4516.51 3297.75 67.76 7.00 202.67 2978.60
   00:33:36.728.09-May-2021 4516.51 3297.73 67.76 7.00 202.87 2978.60
   00:33:36.928.09-May-2021 4516.51 3297.46 67.76 7.00 203.07 2978.60
   00:33:37.128.09-May-2021 4516.51 3297.46 67.76 7.00 203.27 2978.60
   00:33:37.328.09-May-2021 4516.51 3297.94 67.76 7.00 203.47 2978.60
   00:33:37.528.09-May-2021 4516.51 3297.95 67.76 7.00 203.67 2978.60
   00:33:37.728.09-May-2021 4516.51 3297.76 67.76 7.00 203.87 2978.60
   00:33:37.928.09-May-2021 4516.51 3297.78 67.76 7.00 204.07 2978.60
   00:33:38.129.09-May-2021 4516.51 3297.78 67.76 7.00 204.27 2978.60
   00:33:38.329.09-May-2021 4516.51 3297.81 67.76 7.00 204.47 2978.60
   00:33:38.529.09-May-2021 4516.51 3297.83 67.76 7.00 204.67 2978.60
   00:33:38.729.09-May-2021 4516.51 3297.87 67.76 7.00 204.87 2978.60
   00:33:38.929.09-May-2021 4516.51 3297.87 67.76 7.00 205.07 2978.60
   00:33:39.129.09-May-2021 4516.51 3297.87 67.76 7.00 205.27 2978.60
   00:33:39.329.09-May-2021 4516.51 3297.95 67.76 7.00 205.47 2978.60
   00:33:39.529.09-May-2021 4516.51 3297.61 67.76 7.00 205.67 2978.60
   00:33:39.729.09-May-2021 4516.51 3298.00 67.76 7.00 205.87 2978.60
   00:33:39.929.09-May-2021 4516.51 3298.12 67.76 7.00 206.07 2978.60
   00:33:40.129.09-May-2021 4516.51 3298.12 67.76 7.00 206.27 2978.60
   00:33:40.329.09-May-2021 4516.51 3297.93 67.76 7.00 206.47 2978.60
   00:33:40.529.09-May-2021 4516.51 3297.95 67.76 7.00 206.67 2978.60
   00:33:40.729.09-May-2021 4516.51 3297.95 67.76 7.00 206.87 2978.60
