~Version Information
 VERS.                  2.0:   CWLS log ASCII Standard -VERSION 2.0
 WRAP.                   NO:   One line per depth step
~Well Information Block
#MNEM.UNIT     VALUE/NAME     DESCRIPTION
#---------     -----------    ---------------------------
 STRT.S             07:52:13 09-May-21: START TIME 07:52:13 09-May-21
 STOP.S             07:59:09 09-May-21: STOP TIME  07:59:09 09-May-21
 STEP.S                   0.00: STEP TIME
 NULL.                 -999.25: NULL VALUE
 PROV.                    Baku:  PROVINCE
 STAT.                    Baku:  STATE NAME
 SON .        AZ-XX-0906571588:  JOB NUMBER
 WTYP.                Deviated:  WELL TYPE
 COMP.     BP Exploration (Caspian Sea) ltd:  COMPANY
 BASE.              Azerbaijan:  LOGGING EQUIPMENT BASE LOCATION
 REGN.                   EESSA:  REGION
 CTRY.              Azerbaijan:  COUNTRY NAME
 FLD .                     ACG:  FIELD NAME
 WELL.                     J28:  WELL NAME
 RIG .             West Chirag:  RIG NAME
 DMF .             Drill Floor:  DRILL MEAS FROM
 PDAT.       Caspian Sea Level:  PERMANENT DATUM
 HPTY.       Minimum Curvature:  HOLE POS TYPE
 MDS .        Operator Entered:  MAG DATA SOURCE
 NREF.                    Grid:  NORTH REFERENCE
 SRVC.          TURAN DRILLING:  CONTRACTOR
 JOBN.        AZ-XX-0906571588:  JOB TICKET NUMB
 DCON.     Halliburton Sperry Drilling:  DIRECTNL CONTR
 STIM.      00.44.00 11-Feb-21:  START TIME
 DATE.      00.00.00 05-May-21:  END TIME
 SPUD.               13-Feb-21:  SPUD DATE
 MWDS.                    Baku:  MWD SHOP
 DOE .                     N/A:  DOE NUMBER
 UNIT.                     N/A:  LOGGING EQUIPMENT ID
 UWI .                     N/A:  UNIQUE WELL IDENTIFIER
 API .                     N/A:  API NUMBER
 CNTY.                        :  COUNTY
 LOC .                        :  LOCATION
 LMF .             Drill Floor:  LOG MEASURED FROM
 TVDS.m                  43.00:  TVDSS CORRECTN
 SDEP.m                 341.00:  START DEPTH
 EGL .m                   0.00:  GROUND ELEVATION
 WDMS.m                 169.80:  WD ELEV
 AGAP.m                  43.00:  AIR GAP
 EPD .m                   0.00:  ELEVATION
 APD .m                  43.00:  DEPTH ABOVE PD
 LATI.deg                40.13:  LATITUDE
 LONG.deg                51.22:  LONGITUDE
 UTMY.m             4443793.85:  UTM Y
 UTMX.m              519005.06:  UTM X
 WHEW.m                 -11.57:  WELL HEAD E/W
 WHNS.m                   8.57:  WELL HEAD N/S
 VSEW.m                 -11.57:  VERT SEC E/W
 VSNS.m                   8.57:  VERT SEC N/S
 DFWL.m                   0.00:  DISTANCE FWL
 DFSL.m                   0.00:  DISTANCE FSL
 VSDR.deg               299.34:  VERT SEC DIRECT
 GVFD.g                   1.00:  GRAVITY FIELD
 AZTC.deg                 6.36:  AZM TOTAL CORR
 MFLD.nT              50391.00:  MAGNETIC FIELD
 MDIP.deg                59.65:  MAGNETIC DIP
 MDEC.deg                 6.48:  MAGNETIC DECL
 GRDC.deg                 0.12:  GRID CORRECTION
 DEP .m                 334.96:  DEPTH
 TDD .m                1407.26:  TOTAL DEPTH (DRILLER)
 EKB .m                  43.00:  KB ELEVATION
 EDF .m                  43.00:  DF ELEVATION
 TDL .m                 228.00:  TOTAL DEPTH (LOGGER)
 VSC .                       0:  VS TO CLOSURE
 MAGU.                 1854484:  MAGUTM CHECKSUM
~Parameter Information Block
#MNEM.UNIT       Value        Description
#---------     -----------    ---------------------------
 AV  .mps                 4.00:  Ann Velocity 
 AVMX.mps                 4.73:  Max Ann Veloc 
 AZIF.deg               304.48:  Azm, Final 
 BHAT.        Rotary Steerable:  BHA Type 
 BREV.rev            257300.00:  Rev Bit Total 
 BROT.°/30m               0.00:  Build Rotating 
 BS  .in                  8.50:  Bit Size 
 BSZ .in                  8.50:  Bit Size 
 BTPL.psig              589.00:  Bit Press Loss 
 CABU.                      No:  Customer Abuse 
 CGEO.          Mubariz ghayev:  Customer Geo 
 TCS .hr                 64.25:  Time Ciculation Ended 
 CV  .mps                 3.50:  Crit Velocity 
 CVMX.mps                 4.52:  Max Crit Veloc 
 DD1 .             Aziz Aliyev:  Direct Drillr 1 
 DD2 .         Intigam Rahimov:  Direct Drillr 2 
 DD3 .          Rashad Habibov:  Direct Drillr 3 
 DDSV.               Geo-Pilot:  DD Service 
 DEFF.%                  98.00:  % Det Eff 
 DLRX.°/30m               0.00:  Dogleg Rot Max 
 DLSO.°/30m               0.00:  Dogleg Oriented 
 DLSX.°/30m               0.00:  Dogleg Str Max 
 DRET.      10.45.04 08-May-21:  Drill End Time 
 DRST.      03.30.04 04-May-21:  Drill Start Tim 
 DTIM.hr                 14.97:  Time Drilling 
 EDEP.m                4640.01:  End Depth 
 ENG1.         Dail Mahammadov:  Engineer 1 
 ENG2.           Eldar Hajiyev:  Engineer 2 
 ENG3.       Bakhtiar Jabbarli:  Engineer 3 
 ENG4.       Natik Hasanagayev:  Engineer 4 
 ETIM.      09.30.04 14-May-21:  End Time 
 FLOI.gpm               460.00:  Flow In 
 FLON.gpm               200.00:  Flow In Min 
 FLOS.cptm                0.00:  Fluid Loss 
 FLOX.gpm               505.00:  Flow In Max 
 HFLO.                      No:  High Flow 
 HPRE.                      No:  High Pressure 
 HTEM.                      No:  High Temp 
 HYDO.m                   1.80:  Hydro Offset 
 IFIN.deg                66.71:  Inc, Final 
 IMAX.deg                67.03:  Inc Max 
 IMIN.deg                66.63:  Inc Min 
 IMND.m                4550.58:  Inc Min Depth 
 IMXD.m                4439.01:  Inc Max Depth 
 JARR.                      No:  Jarring 
 LETM.      10.45.04 08-May-21:  Log End Time 
 LOST.hr                     0:  Lost Rig Time 
 LSTM.      03.30.04 04-May-21:  Log Start Time 
 MDCL.ppm             37000.00:  Mud Chlorides 
 MDES.     Inversion Oil/Synthetic:  Mud Desc 
 DFD .sg                  1.38:  Mud Density 
 MDMN.sg                  1.35:  Dens Mud Min 
 MDMX.sg                  1.40:  Dens Mud Max 
 MOIL.                   57.40:  Run Mud Oil % 
 MOWR.                   70:30:  Run Mud OWR 
 MSND.                    0.00:  Run Mud Sand % 
 MSOL.                   18.00:  Run Mud Solids% 
 DFV .spqt               71.00:  Mud Viscosity 
 MWOD.in                  6.75:  MWD Tool OD 
 MWSI.                      No:  Serv Intrp, MWD 
 OTIM.hr                242.76:  Time Operating 
 PCON.           Look Like New:  Pad Condition 
 PMAX.psia            12183.92:  Press Op, Max 
 PV  .cP                 27.00:  Mud PV 
 RUN .                    1300:  Run Number 
 ROPA.m/hr               15.00:  ROP Avg 
 ROPN.m/hr                9.00:  ROP Min 
 ROPX.m/hr               19.00:  ROP Max 
 RPMA.rpm               120.00:  RPM Surface Avg 
 RPMN.rpm               100.00:  RPM Surface Min 
 RPMX.rpm               120.00:  RPM Surface Max 
 RRUN.                    1300:  Rig Run Number 
 RTIM.hr                  5.00:  Time Reaming 
 SAZI.deg               304.73:  Azm, Start 
 SDEP.m                4412.01:  Start Depth 
 SIDD.                      No:  Serv Intrp, DD 
 SINC.deg                66.82:  Inc, Start 
 SPPA.psig             2800.00:  SPP Avg 
 SPPN.psig             2610.00:  SPP Min 
 SPPX.psig             3100.00:  SPP Max 
 STIM.      03.30.00 04-May-21:  Start Time 
 SVCS.                 DD, MWD:  Services 
 SVER.                    9.20:  Sperry Version 
 TDAT.m                 228.00:  Tot Depth Attmp 
 TDDF.                      No:  Trip for DD 
 TDLG.m                 228.00:  Tot Depth Loggd 
 TFF .                      No:  Trip for Fail 
 TQAA.f-kp               15.00:  Torque Abs Avg 
 TQAN.f-kp               12.00:  Torque Abs Min 
 TQAX.f-kp               22.00:  Torque Abs Max 
 TRRT.°/30m               0.00:  Turn Rotating 
 MRT .                    HCIM:  Maximum Recorded Temperature 
 TTMX.degC               90.20:  Max Tool Temp 
 VS01.                90627813:  Virtual Str1 SN 
 VS02.                90634712:  Virtual Str2 SN 
 VS03.                90643410:  Virtual Str3 SN 
 VS04.                90634712:  Virtual Str4 SN 
 WBMN.klb                 9.00:  WOB Min 
 WITN.        Elmaddin Rahimov:  Customer Rep 
 WITN.         Haytham Mostafa:  Customer Rep 2 
 WOBA.klb                15.00:  WOB Avg 
 WOBX.klb                23.00:  WOB Max 
 YP  .lhf2               29.00:  Yield Point 
~Curve Information Block
#MNEM.UNIT                 API CODE     Curve Description
#---------               -----------    ---------------------------
 TIME.HHMMSS            00 000 000 000:  GT Time & Date
 GTDEPTH.m              00 000 000 000:  GT Depth
 GTPQH.psia             00 000 000 000:  GT HR Quartz Pressure
 GTTQ.degC              00 000 000 000:  GT Quartz Temperature
 GTTN.NONE              00 000 000 000:  GT Test Number
 GTET.sec               00 000 000 000:  GT Elapsed Test Time
 GTTVD.m                00 000 000 000:  GT True Vertical Depth
#Other Information
#
#WARRANTY: Halliburton will use its best efforts to furnish customers with 
#accurate information and interpretations that are part of, and incident to, the services 
#provided.  However, Halliburton cannot and does not warrant the accuracy 
#or correctness of such information and interpretations.  Under no circumstances should any 
#such information or interpretation be relied upon as the sole basis for any drilling, 
#completion, production, or financial decision or any procedure involving any risk to the 
#safety of any drilling venture, drilling rig or its crew or any other third party.  The 
#Customer has full responsibility for all drilling, completion and production operation.  
#Halliburton makes no representations or warranties, either expressed or 
#implied, including, but not limited to, the implied warranties of merchantability or fitness 
#for a particular purpose, with respect to the services rendered.  In no event will 
#Halliburton be liable for failure to obtain any particular results or for 
#any damages, including, but not limited to, indirect, special or consequential damages, 
#resulting from the use of any information or interpretation provided by Halliburton.
#
~A           TIME           GTDEPTH  GTPQH  GTTQ  GTTN   GTET   GTTVD  
# ...
   07:56:44.433.09-May-2021 4413.51 4428.60 65.50 16.00 271.24 2938.18
   07:56:44.633.09-May-2021 4413.51 4428.67 65.50 16.00 271.44 2938.18
   07:56:44.833.09-May-2021 4413.51 4428.45 65.50 16.00 271.64 2938.18
   07:56:45.033.09-May-2021 4413.51 4428.50 65.50 16.00 271.84 2938.18
   07:56:45.233.09-May-2021 4413.51 4428.62 65.50 16.00 272.04 2938.18
   07:56:45.433.09-May-2021 4413.51 4428.62 65.50 16.00 272.24 2938.18
   07:56:45.633.09-May-2021 4413.51 4428.56 65.50 16.00 272.44 2938.18
   07:56:45.833.09-May-2021 4413.51 4428.68 65.50 16.00 272.64 2938.18
   07:56:46.033.09-May-2021 4413.51 4428.42 65.50 16.00 272.84 2938.18
   07:56:46.233.09-May-2021 4413.51 4428.73 65.50 16.00 273.04 2938.18
   07:56:46.433.09-May-2021 4413.51 4428.73 65.50 16.00 273.24 2938.18
   07:56:46.633.09-May-2021 4413.51 4428.55 65.50 16.00 273.44 2938.18
   07:56:46.833.09-May-2021 4413.51 4428.57 65.50 16.00 273.64 2938.18
   07:56:47.033.09-May-2021 4413.51 4428.55 65.50 16.00 273.84 2938.18
   07:56:47.233.09-May-2021 4413.51 4428.59 65.50 16.00 274.04 2938.18
   07:56:47.433.09-May-2021 4413.51 4428.59 65.50 16.00 274.24 2938.18
   07:56:47.633.09-May-2021 4413.51 4428.59 65.50 16.00 274.44 2938.18
   07:56:47.833.09-May-2021 4413.51 4428.60 65.50 16.00 274.64 2938.18
   07:56:48.034.09-May-2021 4413.51 4428.58 65.50 16.00 274.84 2938.18
   07:56:48.234.09-May-2021 4413.51 4428.58 65.50 16.00 275.04 2938.18
   07:56:48.434.09-May-2021 4413.51 4428.58 65.50 16.00 275.24 2938.18
   07:56:48.634.09-May-2021 4413.51 4428.51 65.50 16.00 275.44 2938.18
   07:56:48.834.09-May-2021 4413.51 4428.71 65.50 16.00 275.64 2938.18
   07:56:49.034.09-May-2021 4413.51 4428.56 65.50 16.00 275.84 2938.18
   07:56:49.234.09-May-2021 4413.51 4428.63 65.50 16.00 276.04 2938.18
   07:56:49.434.09-May-2021 4413.51 4428.63 65.50 16.00 276.24 2938.18
   07:56:49.634.09-May-2021 4413.51 4428.59 65.50 16.00 276.44 2938.18
   07:56:49.834.09-May-2021 4413.51 4428.60 65.50 16.00 276.64 2938.18
   07:56:50.034.09-May-2021 4413.51 4428.60 65.50 16.00 276.84 2938.18
   07:56:50.234.09-May-2021 4413.51 4428.62 65.50 16.00 277.04 2938.18
   07:56:50.434.09-May-2021 4413.51 4428.62 65.50 16.00 277.24 2938.18
   07:56:50.634.09-May-2021 4413.51 4428.61 65.50 16.00 277.44 2938.18
   07:56:50.834.09-May-2021 4413.51 4428.61 65.50 16.00 277.64 2938.18
   07:56:51.034.09-May-2021 4413.51 4428.91 65.50 16.00 277.84 2938.18
   07:56:51.234.09-May-2021 4413.51 4428.42 65.50 16.00 278.04 2938.18
   07:56:51.434.09-May-2021 4413.51 4428.42 65.50 16.00 278.24 2938.18
   07:56:51.634.09-May-2021 4413.51 4428.62 65.50 16.00 278.44 2938.18
   07:56:51.834.09-May-2021 4413.51 4428.66 65.50 16.00 278.64 2938.18
   07:56:52.034.09-May-2021 4413.51 4428.56 65.50 16.00 278.84 2938.18
   07:56:52.234.09-May-2021 4413.51 4428.69 65.50 16.00 279.04 2938.18
   07:56:52.434.09-May-2021 4413.51 4428.69 65.50 16.00 279.24 2938.18
   07:56:52.634.09-May-2021 4413.51 4428.65 65.50 16.00 279.44 2938.18
   07:56:52.834.09-May-2021 4413.51 4428.68 65.50 16.00 279.64 2938.18
   07:56:53.034.09-May-2021 4413.51 4428.53 65.50 16.00 279.84 2938.18
   07:56:53.234.09-May-2021 4413.51 4428.71 65.50 16.00 280.04 2938.18
   07:56:53.434.09-May-2021 4413.51 4428.71 65.50 16.00 280.24 2938.18
   07:56:53.634.09-May-2021 4413.51 4428.67 65.50 16.00 280.44 2938.18
   07:56:53.834.09-May-2021 4413.51 4428.70 65.50 16.00 280.64 2938.18
   07:56:54.034.09-May-2021 4413.51 4428.62 65.50 16.00 280.84 2938.18
   07:56:54.234.09-May-2021 4413.51 4428.53 65.50 16.00 281.04 2938.18
   07:56:54.434.09-May-2021 4413.51 4428.53 65.50 16.00 281.24 2938.18
   07:56:54.634.09-May-2021 4413.51 4428.58 65.50 16.00 281.44 2938.18
   07:56:54.834.09-May-2021 4413.51 4428.66 65.50 16.00 281.64 2938.18
   07:56:55.034.09-May-2021 4413.51 4428.60 65.50 16.00 281.84 2938.18
   07:56:55.235.09-May-2021 4413.51 4428.64 65.50 16.00 282.04 2938.18
   07:56:55.435.09-May-2021 4413.51 4428.64 65.50 16.00 282.24 2938.18
   07:56:55.635.09-May-2021 4413.51 4428.63 65.50 16.00 282.44 2938.18
   07:56:55.835.09-May-2021 4413.51 4428.65 65.50 16.00 282.64 2938.18
   07:56:56.035.09-May-2021 4413.51 4428.65 65.50 16.00 282.84 2938.18
   07:56:56.235.09-May-2021 4413.51 4428.66 65.50 16.00 283.04 2938.18
   07:56:56.435.09-May-2021 4413.51 4428.66 65.50 16.00 283.24 2938.18
   07:56:56.635.09-May-2021 4413.51 4428.53 65.50 16.00 283.44 2938.18
   07:56:56.835.09-May-2021 4413.51 4428.81 65.50 16.00 283.64 2938.18
   07:56:57.035.09-May-2021 4413.51 4428.54 65.50 16.00 283.84 2938.18
   07:56:57.235.09-May-2021 4413.51 4428.62 65.50 16.00 284.04 2938.18
   07:56:57.435.09-May-2021 4413.51 4428.62 65.50 16.00 284.24 2938.18
   07:56:57.635.09-May-2021 4413.51 4428.62 65.50 16.00 284.44 2938.18
   07:56:57.835.09-May-2021 4413.51 4428.65 65.49 16.00 284.64 2938.18
   07:56:58.035.09-May-2021 4413.51 4428.62 65.49 16.00 284.84 2938.18
   07:56:58.235.09-May-2021 4413.51 4428.66 65.49 16.00 285.04 2938.18
   07:56:58.435.09-May-2021 4413.51 4428.66 65.49 16.00 285.24 2938.18
   07:56:58.635.09-May-2021 4413.51 4428.66 65.49 16.00 285.44 2938.18
   07:56:58.835.09-May-2021 4413.51 4428.65 65.49 16.00 285.64 2938.18
   07:56:59.035.09-May-2021 4413.51 4428.66 65.49 16.00 285.84 2938.18
   07:56:59.235.09-May-2021 4413.51 4428.78 65.49 16.00 286.04 2938.18
   07:56:59.435.09-May-2021 4413.51 4428.78 65.49 16.00 286.24 2938.18
   07:56:59.635.09-May-2021 4413.51 4428.77 65.49 16.00 286.44 2938.18
   07:56:59.835.09-May-2021 4413.51 4428.74 65.49 16.00 286.64 2938.18
   07:57:00.035.09-May-2021 4413.51 4428.57 65.49 16.00 286.84 2938.18
   07:57:00.235.09-May-2021 4413.51 4428.76 65.49 16.00 287.04 2938.18
   07:57:00.435.09-May-2021 4413.51 4428.76 65.49 16.00 287.24 2938.18
   07:57:00.635.09-May-2021 4413.51 4428.61 65.49 16.00 287.44 2938.18
   07:57:00.835.09-May-2021 4413.51 4428.82 65.49 16.00 287.64 2938.18
   07:57:01.035.09-May-2021 4413.51 4428.47 65.49 16.00 287.84 2938.18
   07:57:01.235.09-May-2021 4413.51 4428.83 65.49 16.00 288.04 2938.18
   07:57:01.435.09-May-2021 4413.51 4428.83 65.49 16.00 288.24 2938.18
   07:57:01.635.09-May-2021 4413.51 4428.63 65.49 16.00 288.44 2938.18
   07:57:01.835.09-May-2021 4413.51 4428.54 65.49 16.00 288.64 2938.18
   07:57:02.035.09-May-2021 4413.51 4428.78 65.49 16.00 288.84 2938.18
   07:57:02.235.09-May-2021 4413.51 4428.60 65.49 16.00 289.04 2938.18
   07:57:02.436.09-May-2021 4413.51 4428.60 65.49 16.00 289.24 2938.18
   07:57:02.636.09-May-2021 4413.51 4428.56 65.49 16.00 289.44 2938.18
   07:57:02.836.09-May-2021 4413.51 4428.65 65.49 16.00 289.64 2938.18
   07:57:03.036.09-May-2021 4413.51 4428.64 65.49 16.00 289.84 2938.18
   07:57:03.236.09-May-2021 4413.51 4428.62 65.49 16.00 290.04 2938.18
   07:57:03.436.09-May-2021 4413.51 4428.62 65.49 16.00 290.24 2938.18
   07:57:03.636.09-May-2021 4413.51 4428.64 65.49 16.00 290.44 2938.18
   07:57:03.836.09-May-2021 4413.51 4428.65 65.49 16.00 290.64 2938.18
   07:57:04.036.09-May-2021 4413.51 4428.66 65.49 16.00 290.84 2938.18
   07:57:04.236.09-May-2021 4413.51 4428.67 65.49 16.00 291.04 2938.18
   07:57:04.436.09-May-2021 4413.51 4428.67 65.49 16.00 291.24 2938.18
   07:57:04.636.09-May-2021 4413.51 4428.64 65.49 16.00 291.44 2938.18
   07:57:04.836.09-May-2021 4413.51 4428.58 65.49 16.00 291.64 2938.18
   07:57:05.036.09-May-2021 4413.51 4428.73 65.49 16.00 291.84 2938.18
   07:57:05.236.09-May-2021 4413.51 4428.61 65.49 16.00 292.04 2938.18
   07:57:05.436.09-May-2021 4413.51 4428.61 65.49 16.00 292.24 2938.18
   07:57:05.636.09-May-2021 4413.51 4428.62 65.49 16.00 292.44 2938.18
   07:57:05.836.09-May-2021 4413.51 4428.65 65.49 16.00 292.64 2938.18
   07:57:06.036.09-May-2021 4413.51 4428.65 65.49 16.00 292.84 2938.18
   07:57:06.236.09-May-2021 4413.51 4428.65 65.49 16.00 293.04 2938.18
   07:57:06.436.09-May-2021 4413.51 4428.65 65.49 16.00 293.24 2938.18
   07:57:06.636.09-May-2021 4413.51 4428.64 65.49 16.00 293.44 2938.18
   07:57:06.836.09-May-2021 4413.51 4428.67 65.49 16.00 293.64 2938.18
