~Version Information
 VERS.                  2.0:   CWLS log ASCII Standard -VERSION 2.0
 WRAP.                   NO:   One line per depth step
~Well Information Block
#MNEM.UNIT     VALUE/NAME     DESCRIPTION
#---------     -----------    ---------------------------
 STRT.S             07:52:13 09-May-21: START TIME 07:52:13 09-May-21
 STOP.S             07:59:09 09-May-21: STOP TIME  07:59:09 09-May-21
 STEP.S                   0.00: STEP TIME
 NULL.                 -999.25: NULL VALUE
 PROV.                    Baku:  PROVINCE
 STAT.                    Baku:  STATE NAME
 SON .        AZ-XX-0906571588:  JOB NUMBER
 WTYP.                Deviated:  WELL TYPE
 COMP.     BP Exploration (Caspian Sea) ltd:  COMPANY
 BASE.              Azerbaijan:  LOGGING EQUIPMENT BASE LOCATION
 REGN.                   EESSA:  REGION
 CTRY.              Azerbaijan:  COUNTRY NAME
 FLD .                     ACG:  FIELD NAME
 WELL.                     J28:  WELL NAME
 RIG .             West Chirag:  RIG NAME
 DMF .             Drill Floor:  DRILL MEAS FROM
 PDAT.       Caspian Sea Level:  PERMANENT DATUM
 HPTY.       Minimum Curvature:  HOLE POS TYPE
 MDS .        Operator Entered:  MAG DATA SOURCE
 NREF.                    Grid:  NORTH REFERENCE
 SRVC.          TURAN DRILLING:  CONTRACTOR
 JOBN.        AZ-XX-0906571588:  JOB TICKET NUMB
 DCON.     Halliburton Sperry Drilling:  DIRECTNL CONTR
 STIM.      00.44.00 11-Feb-21:  START TIME
 DATE.      00.00.00 05-May-21:  END TIME
 SPUD.               13-Feb-21:  SPUD DATE
 MWDS.                    Baku:  MWD SHOP
 DOE .                     N/A:  DOE NUMBER
 UNIT.                     N/A:  LOGGING EQUIPMENT ID
 UWI .                     N/A:  UNIQUE WELL IDENTIFIER
 API .                     N/A:  API NUMBER
 CNTY.                        :  COUNTY
 LOC .                        :  LOCATION
 LMF .             Drill Floor:  LOG MEASURED FROM
 TVDS.m                  43.00:  TVDSS CORRECTN
 SDEP.m                 341.00:  START DEPTH
 EGL .m                   0.00:  GROUND ELEVATION
 WDMS.m                 169.80:  WD ELEV
 AGAP.m                  43.00:  AIR GAP
 EPD .m                   0.00:  ELEVATION
 APD .m                  43.00:  DEPTH ABOVE PD
 LATI.deg                40.13:  LATITUDE
 LONG.deg                51.22:  LONGITUDE
 UTMY.m             4443793.85:  UTM Y
 UTMX.m              519005.06:  UTM X
 WHEW.m                 -11.57:  WELL HEAD E/W
 WHNS.m                   8.57:  WELL HEAD N/S
 VSEW.m                 -11.57:  VERT SEC E/W
 VSNS.m                   8.57:  VERT SEC N/S
 DFWL.m                   0.00:  DISTANCE FWL
 DFSL.m                   0.00:  DISTANCE FSL
 VSDR.deg               299.34:  VERT SEC DIRECT
 GVFD.g                   1.00:  GRAVITY FIELD
 AZTC.deg                 6.36:  AZM TOTAL CORR
 MFLD.nT              50391.00:  MAGNETIC FIELD
 MDIP.deg                59.65:  MAGNETIC DIP
 MDEC.deg                 6.48:  MAGNETIC DECL
 GRDC.deg                 0.12:  GRID CORRECTION
 DEP .m                 334.96:  DEPTH
 TDD .m                1407.26:  TOTAL DEPTH (DRILLER)
 EKB .m                  43.00:  KB ELEVATION
 EDF .m                  43.00:  DF ELEVATION
 TDL .m                 228.00:  TOTAL DEPTH (LOGGER)
 VSC .                       0:  VS TO CLOSURE
 MAGU.                 1854484:  MAGUTM CHECKSUM
~Parameter Information Block
#MNEM.UNIT       Value        Description
#---------     -----------    ---------------------------
 AV  .mps                 4.00:  Ann Velocity 
 AVMX.mps                 4.73:  Max Ann Veloc 
 AZIF.deg               304.48:  Azm, Final 
 BHAT.        Rotary Steerable:  BHA Type 
 BREV.rev            257300.00:  Rev Bit Total 
 BROT.°/30m               0.00:  Build Rotating 
 BS  .in                  8.50:  Bit Size 
 BSZ .in                  8.50:  Bit Size 
 BTPL.psig              589.00:  Bit Press Loss 
 CABU.                      No:  Customer Abuse 
 CGEO.          Mubariz ghayev:  Customer Geo 
 TCS .hr                 64.25:  Time Ciculation Ended 
 CV  .mps                 3.50:  Crit Velocity 
 CVMX.mps                 4.52:  Max Crit Veloc 
 DD1 .             Aziz Aliyev:  Direct Drillr 1 
 DD2 .         Intigam Rahimov:  Direct Drillr 2 
 DD3 .          Rashad Habibov:  Direct Drillr 3 
 DDSV.               Geo-Pilot:  DD Service 
 DEFF.%                  98.00:  % Det Eff 
 DLRX.°/30m               0.00:  Dogleg Rot Max 
 DLSO.°/30m               0.00:  Dogleg Oriented 
 DLSX.°/30m               0.00:  Dogleg Str Max 
 DRET.      10.45.04 08-May-21:  Drill End Time 
 DRST.      03.30.04 04-May-21:  Drill Start Tim 
 DTIM.hr                 14.97:  Time Drilling 
 EDEP.m                4640.01:  End Depth 
 ENG1.         Dail Mahammadov:  Engineer 1 
 ENG2.           Eldar Hajiyev:  Engineer 2 
 ENG3.       Bakhtiar Jabbarli:  Engineer 3 
 ENG4.       Natik Hasanagayev:  Engineer 4 
 ETIM.      09.30.04 14-May-21:  End Time 
 FLOI.gpm               460.00:  Flow In 
 FLON.gpm               200.00:  Flow In Min 
 FLOS.cptm                0.00:  Fluid Loss 
 FLOX.gpm               505.00:  Flow In Max 
 HFLO.                      No:  High Flow 
 HPRE.                      No:  High Pressure 
 HTEM.                      No:  High Temp 
 HYDO.m                   1.80:  Hydro Offset 
 IFIN.deg                66.71:  Inc, Final 
 IMAX.deg                67.03:  Inc Max 
 IMIN.deg                66.63:  Inc Min 
 IMND.m                4550.58:  Inc Min Depth 
 IMXD.m                4439.01:  Inc Max Depth 
 JARR.                      No:  Jarring 
 LETM.      10.45.04 08-May-21:  Log End Time 
 LOST.hr                     0:  Lost Rig Time 
 LSTM.      03.30.04 04-May-21:  Log Start Time 
 MDCL.ppm             37000.00:  Mud Chlorides 
 MDES.     Inversion Oil/Synthetic:  Mud Desc 
 DFD .sg                  1.38:  Mud Density 
 MDMN.sg                  1.35:  Dens Mud Min 
 MDMX.sg                  1.40:  Dens Mud Max 
 MOIL.                   57.40:  Run Mud Oil % 
 MOWR.                   70:30:  Run Mud OWR 
 MSND.                    0.00:  Run Mud Sand % 
 MSOL.                   18.00:  Run Mud Solids% 
 DFV .spqt               71.00:  Mud Viscosity 
 MWOD.in                  6.75:  MWD Tool OD 
 MWSI.                      No:  Serv Intrp, MWD 
 OTIM.hr                242.76:  Time Operating 
 PCON.           Look Like New:  Pad Condition 
 PMAX.psia            12183.92:  Press Op, Max 
 PV  .cP                 27.00:  Mud PV 
 RUN .                    1300:  Run Number 
 ROPA.m/hr               15.00:  ROP Avg 
 ROPN.m/hr                9.00:  ROP Min 
 ROPX.m/hr               19.00:  ROP Max 
 RPMA.rpm               120.00:  RPM Surface Avg 
 RPMN.rpm               100.00:  RPM Surface Min 
 RPMX.rpm               120.00:  RPM Surface Max 
 RRUN.                    1300:  Rig Run Number 
 RTIM.hr                  5.00:  Time Reaming 
 SAZI.deg               304.73:  Azm, Start 
 SDEP.m                4412.01:  Start Depth 
 SIDD.                      No:  Serv Intrp, DD 
 SINC.deg                66.82:  Inc, Start 
 SPPA.psig             2800.00:  SPP Avg 
 SPPN.psig             2610.00:  SPP Min 
 SPPX.psig             3100.00:  SPP Max 
 STIM.      03.30.00 04-May-21:  Start Time 
 SVCS.                 DD, MWD:  Services 
 SVER.                    9.20:  Sperry Version 
 TDAT.m                 228.00:  Tot Depth Attmp 
 TDDF.                      No:  Trip for DD 
 TDLG.m                 228.00:  Tot Depth Loggd 
 TFF .                      No:  Trip for Fail 
 TQAA.f-kp               15.00:  Torque Abs Avg 
 TQAN.f-kp               12.00:  Torque Abs Min 
 TQAX.f-kp               22.00:  Torque Abs Max 
 TRRT.°/30m               0.00:  Turn Rotating 
 MRT .                    HCIM:  Maximum Recorded Temperature 
 TTMX.degC               90.20:  Max Tool Temp 
 VS01.                90627813:  Virtual Str1 SN 
 VS02.                90634712:  Virtual Str2 SN 
 VS03.                90643410:  Virtual Str3 SN 
 VS04.                90634712:  Virtual Str4 SN 
 WBMN.klb                 9.00:  WOB Min 
 WITN.        Elmaddin Rahimov:  Customer Rep 
 WITN.         Haytham Mostafa:  Customer Rep 2 
 WOBA.klb                15.00:  WOB Avg 
 WOBX.klb                23.00:  WOB Max 
 YP  .lhf2               29.00:  Yield Point 
~Curve Information Block
#MNEM.UNIT                 API CODE     Curve Description
#---------               -----------    ---------------------------
 TIME.HHMMSS            00 000 000 000:  GT Time & Date
 GTDEPTH.m              00 000 000 000:  GT Depth
 GTPQH.psia             00 000 000 000:  GT HR Quartz Pressure
 GTTQ.degC              00 000 000 000:  GT Quartz Temperature
 GTTN.NONE              00 000 000 000:  GT Test Number
 GTET.sec               00 000 000 000:  GT Elapsed Test Time
 GTTVD.m                00 000 000 000:  GT True Vertical Depth
#Other Information
#
#WARRANTY: Halliburton will use its best efforts to furnish customers with 
#accurate information and interpretations that are part of, and incident to, the services 
#provided.  However, Halliburton cannot and does not warrant the accuracy 
#or correctness of such information and interpretations.  Under no circumstances should any 
#such information or interpretation be relied upon as the sole basis for any drilling, 
#completion, production, or financial decision or any procedure involving any risk to the 
#safety of any drilling venture, drilling rig or its crew or any other third party.  The 
#Customer has full responsibility for all drilling, completion and production operation.  
#Halliburton makes no representations or warranties, either expressed or 
#implied, including, but not limited to, the implied warranties of merchantability or fitness 
#for a particular purpose, with respect to the services rendered.  In no event will 
#Halliburton be liable for failure to obtain any particular results or for 
#any damages, including, but not limited to, indirect, special or consequential damages, 
#resulting from the use of any information or interpretation provided by Halliburton.
#
~A           TIME           GTDEPTH  GTPQH  GTTQ  GTTN   GTET   GTTVD  
# ...
   07:58:14.846.09-May-2021 4413.51 4428.61 65.47 16.00 361.65 2938.18
   07:58:15.046.09-May-2021 4413.51 4423.46 65.47 16.00 361.85 2938.18
   07:58:15.246.09-May-2021 4413.51 4439.84 65.47 16.00 362.05 2938.18
   07:58:15.446.09-May-2021 4413.51 4439.84 65.47 16.00 362.25 2938.18
   07:58:15.646.09-May-2021 4413.51 6404.65 65.47 16.00 362.45 2938.18
   07:58:15.846.09-May-2021 4413.51 6481.21 65.47 16.00 362.65 2938.18
   07:58:16.046.09-May-2021 4413.51 6482.54 65.47 16.00 362.85 2938.18
   07:58:16.246.09-May-2021 4413.51 6481.76 65.47 16.00 363.05 2938.18
   07:58:16.446.09-May-2021 4413.51 6481.76 65.47 16.00 363.25 2938.18
   07:58:16.646.09-May-2021 4413.51 6483.19 65.47 16.00 363.45 2938.18
   07:58:16.846.09-May-2021 4413.51 6484.53 65.47 16.00 363.65 2938.18
   07:58:17.046.09-May-2021 4413.51 6484.88 65.47 16.00 363.85 2938.18
   07:58:17.246.09-May-2021 4413.51 6491.49 65.47 16.00 364.05 2938.18
   07:58:17.446.09-May-2021 4413.51 6491.49 65.47 16.00 364.25 2938.18
   07:58:17.646.09-May-2021 4413.51 6491.65 65.47 16.00 364.45 2938.18
   07:58:17.846.09-May-2021 4413.51 6486.28 65.47 16.00 364.65 2938.18
   07:58:18.046.09-May-2021 4413.51 6486.73 65.48 16.00 364.85 2938.18
   07:58:18.246.09-May-2021 4413.51 6487.25 65.48 16.00 365.05 2938.18
   07:58:18.446.09-May-2021 4413.51 6487.25 65.48 16.00 365.25 2938.18
   07:58:18.646.09-May-2021 4413.51 6486.67 65.48 16.00 365.45 2938.18
   07:58:18.846.09-May-2021 4413.51 6486.27 65.48 16.00 365.65 2938.18
   07:58:19.046.09-May-2021 4413.51 6486.51 65.48 16.00 365.85 2938.18
   07:58:19.246.09-May-2021 4413.51 6486.16 65.48 16.00 366.05 2938.18
   07:58:19.446.09-May-2021 4413.51 6486.16 65.48 16.00 366.25 2938.18
   07:58:19.646.09-May-2021 4413.51 6486.74 65.49 16.00 366.45 2938.18
   07:58:19.846.09-May-2021 4413.51 6492.69 65.49 16.00 366.65 2938.18
   07:58:20.046.09-May-2021 4413.51 6488.69 65.49 16.00 366.85 2938.18
   07:58:20.246.09-May-2021 4413.51 6488.15 65.49 16.00 367.05 2938.18
   07:58:20.446.09-May-2021 4413.51 6488.15 65.49 16.00 367.25 2938.18
   07:58:20.646.09-May-2021 4413.51 6494.90 65.49 16.00 367.45 2938.18
   07:58:20.846.09-May-2021 4413.51 6490.59 65.49 16.00 367.65 2938.18
   07:58:21.046.09-May-2021 4413.51 6493.16 65.50 16.00 367.85 2938.18
   07:58:21.246.09-May-2021 4413.51 6488.92 65.50 16.00 368.05 2938.18
   07:58:21.446.09-May-2021 4413.51 6488.92 65.50 16.00 368.25 2938.18
   07:58:21.647.09-May-2021 4413.51 6495.00 65.50 16.00 368.45 2938.18
   07:58:21.847.09-May-2021 4413.51 6489.00 65.50 16.00 368.65 2938.18
   07:58:22.047.09-May-2021 4413.51 6493.55 65.50 16.00 368.85 2938.18
   07:58:22.247.09-May-2021 4413.51 6488.25 65.50 16.00 369.05 2938.18
   07:58:22.447.09-May-2021 4413.51 6488.25 65.50 16.00 369.25 2938.18
   07:58:22.647.09-May-2021 4413.51 6490.00 65.50 16.00 369.45 2938.18
   07:58:22.847.09-May-2021 4413.51 6493.15 65.50 16.00 369.65 2938.18
   07:58:23.047.09-May-2021 4413.51 6488.38 65.50 16.00 369.85 2938.18
   07:58:23.247.09-May-2021 4413.51 6492.27 65.50 16.00 370.05 2938.18
   07:58:23.447.09-May-2021 4413.51 6492.27 65.50 16.00 370.25 2938.18
   07:58:23.647.09-May-2021 4413.51 6489.33 65.51 16.00 370.45 2938.18
   07:58:23.847.09-May-2021 4413.51 6487.10 65.51 16.00 370.65 2938.18
   07:58:24.047.09-May-2021 4413.51 6487.52 65.51 16.00 370.85 2938.18
   07:58:24.247.09-May-2021 4413.51 6487.07 65.51 16.00 371.05 2938.18
   07:58:24.447.09-May-2021 4413.51 6487.07 65.51 16.00 371.25 2938.18
   07:58:24.647.09-May-2021 4413.51 6486.64 65.51 16.00 371.45 2938.18
   07:58:24.847.09-May-2021 4413.51 6487.17 65.51 16.00 371.65 2938.18
   07:58:25.047.09-May-2021 4413.51 6487.23 65.51 16.00 371.85 2938.18
   07:58:25.247.09-May-2021 4413.51 6488.66 65.51 16.00 372.05 2938.18
   07:58:25.447.09-May-2021 4413.51 6488.66 65.51 16.00 372.25 2938.18
   07:58:25.647.09-May-2021 4413.51 6487.79 65.51 16.00 372.45 2938.18
   07:58:25.847.09-May-2021 4413.51 6491.60 65.51 16.00 372.65 2938.18
   07:58:26.047.09-May-2021 4413.51 6487.90 65.51 16.00 372.85 2938.18
   07:58:26.247.09-May-2021 4413.51 6489.33 65.51 16.00 373.05 2938.18
   07:58:26.447.09-May-2021 4413.51 6489.33 65.51 16.00 373.25 2938.18
   07:58:26.647.09-May-2021 4413.51 6487.60 65.51 16.00 373.45 2938.18
   07:58:26.847.09-May-2021 4413.51 6487.00 65.51 16.00 373.65 2938.18
   07:58:27.047.09-May-2021 4413.51 6487.04 65.51 16.00 373.85 2938.18
   07:58:27.247.09-May-2021 4413.51 6486.68 65.51 16.00 374.05 2938.18
   07:58:27.447.09-May-2021 4413.51 6486.68 65.51 16.00 374.25 2938.18
   07:58:27.647.09-May-2021 4413.51 6487.45 65.51 16.00 374.45 2938.18
   07:58:27.847.09-May-2021 4413.51 6487.96 65.51 16.00 374.65 2938.18
   07:58:28.047.09-May-2021 4413.51 6494.30 65.51 16.00 374.85 2938.18
   07:58:28.247.09-May-2021 4413.51 6487.46 65.51 16.00 375.05 2938.18
   07:58:28.447.09-May-2021 4413.51 6487.46 65.51 16.00 375.25 2938.18
   07:58:28.647.09-May-2021 4413.51 6491.72 65.51 16.00 375.45 2938.18
   07:58:28.848.09-May-2021 4413.51 6493.33 65.51 16.00 375.65 2938.18
   07:58:29.048.09-May-2021 4413.51 6490.61 65.51 16.00 375.85 2938.18
   07:58:29.248.09-May-2021 4413.51 6493.21 65.51 16.00 376.05 2938.18
   07:58:29.448.09-May-2021 4413.51 6493.21 65.51 16.00 376.25 2938.18
   07:58:29.648.09-May-2021 4413.51 6488.37 65.51 16.00 376.45 2938.18
   07:58:29.848.09-May-2021 4413.51 6494.04 65.51 16.00 376.65 2938.18
   07:58:30.048.09-May-2021 4413.51 6489.13 65.51 16.00 376.85 2938.18
   07:58:30.248.09-May-2021 4413.51 6487.43 65.51 16.00 377.05 2938.18
   07:58:30.448.09-May-2021 4413.51 6487.43 65.51 16.00 377.25 2938.18
   07:58:30.648.09-May-2021 4413.51 6489.81 65.51 16.00 377.45 2938.18
   07:58:30.848.09-May-2021 4413.51 6495.69 65.51 16.00 377.65 2938.18
   07:58:31.048.09-May-2021 4413.51 6487.91 65.51 16.00 377.85 2938.18
   07:58:31.248.09-May-2021 4413.51 6493.71 65.51 16.00 378.05 2938.18
   07:58:31.448.09-May-2021 4413.51 6493.71 65.51 16.00 378.25 2938.18
   07:58:31.648.09-May-2021 4413.51 6489.54 65.51 16.00 378.45 2938.18
   07:58:31.848.09-May-2021 4413.51 6487.33 65.51 16.00 378.65 2938.18
   07:58:32.048.09-May-2021 4413.51 6487.43 65.51 16.00 378.85 2938.18
   07:58:32.248.09-May-2021 4413.51 6487.26 65.51 16.00 379.05 2938.18
   07:58:32.448.09-May-2021 4413.51 6487.26 65.51 16.00 379.25 2938.18
   07:58:32.648.09-May-2021 4413.51 6486.72 65.51 16.00 379.45 2938.18
   07:58:32.848.09-May-2021 4413.51 6486.58 65.51 16.00 379.65 2938.18
   07:58:33.048.09-May-2021 4413.51 6487.13 65.51 16.00 379.85 2938.18
   07:58:33.248.09-May-2021 4413.51 6488.29 65.51 16.00 380.05 2938.18
   07:58:33.448.09-May-2021 4413.51 6488.29 65.51 16.00 380.25 2938.18
   07:58:33.648.09-May-2021 4413.51 6487.85 65.51 16.00 380.45 2938.18
   07:58:33.848.09-May-2021 4413.51 6492.21 65.51 16.00 380.65 2938.18
   07:58:34.048.09-May-2021 4413.51 6487.41 65.51 16.00 380.85 2938.18
   07:58:34.248.09-May-2021 4413.51 6488.99 65.51 16.00 381.05 2938.18
   07:58:34.448.09-May-2021 4413.51 6488.99 65.51 16.00 381.25 2938.18
   07:58:34.648.09-May-2021 4413.51 6487.07 65.51 16.00 381.45 2938.18
   07:58:34.848.09-May-2021 4413.51 6486.94 65.51 16.00 381.65 2938.18
   07:58:35.048.09-May-2021 4413.51 6486.32 65.51 16.00 381.85 2938.18
   07:58:35.248.09-May-2021 4413.51 6486.21 65.51 16.00 382.05 2938.18
   07:58:35.448.09-May-2021 4413.51 6486.21 65.51 16.00 382.25 2938.18
   07:58:35.648.09-May-2021 4413.51 6486.22 65.51 16.00 382.45 2938.18
   07:58:35.848.09-May-2021 4413.51 6486.63 65.51 16.00 382.65 2938.18
   07:58:36.049.09-May-2021 4413.51 6494.27 65.51 16.00 382.85 2938.18
   07:58:36.249.09-May-2021 4413.51 6486.43 65.51 16.00 383.05 2938.18
   07:58:36.449.09-May-2021 4413.51 6486.43 65.51 16.00 383.25 2938.18
   07:58:36.649.09-May-2021 4413.51 6491.26 65.51 16.00 383.45 2938.18
   07:58:36.849.09-May-2021 4413.51 6493.23 65.51 16.00 383.65 2938.18
   07:58:37.049.09-May-2021 4413.51 6489.99 65.51 16.00 383.85 2938.18
   07:58:37.249.09-May-2021 4413.51 6492.74 65.51 16.00 384.05 2938.18
