~Version Information
 VERS.                  2.0:   CWLS log ASCII Standard -VERSION 2.0
 WRAP.                   NO:   One line per depth step
~Well Information Block
#MNEM.UNIT     VALUE/NAME     DESCRIPTION
#---------     -----------    ---------------------------
 STRT.S             00:24:13 10-May-21: START TIME 00:24:13 10-May-21
 STOP.S             00:32:26 10-May-21: STOP TIME  00:32:26 10-May-21
 STEP.S                   0.00: STEP TIME
 NULL.                 -999.25: NULL VALUE
 PROV.                    Baku:  PROVINCE
 STAT.                    Baku:  STATE NAME
 SON .        AZ-XX-0906571588:  JOB NUMBER
 WTYP.                Deviated:  WELL TYPE
 COMP.     BP Exploration (Caspian Sea) ltd:  COMPANY
 BASE.              Azerbaijan:  LOGGING EQUIPMENT BASE LOCATION
 REGN.                   EESSA:  REGION
 CTRY.              Azerbaijan:  COUNTRY NAME
 FLD .                     ACG:  FIELD NAME
 WELL.                     J28:  WELL NAME
 RIG .             West Chirag:  RIG NAME
 DMF .             Drill Floor:  DRILL MEAS FROM
 PDAT.       Caspian Sea Level:  PERMANENT DATUM
 HPTY.       Minimum Curvature:  HOLE POS TYPE
 MDS .        Operator Entered:  MAG DATA SOURCE
 NREF.                    Grid:  NORTH REFERENCE
 SRVC.          TURAN DRILLING:  CONTRACTOR
 JOBN.        AZ-XX-0906571588:  JOB TICKET NUMB
 DCON.     Halliburton Sperry Drilling:  DIRECTNL CONTR
 STIM.      00.44.00 11-Feb-21:  START TIME
 DATE.      00.00.00 05-May-21:  END TIME
 SPUD.               13-Feb-21:  SPUD DATE
 MWDS.                    Baku:  MWD SHOP
 DOE .                     N/A:  DOE NUMBER
 UNIT.                     N/A:  LOGGING EQUIPMENT ID
 UWI .                     N/A:  UNIQUE WELL IDENTIFIER
 API .                     N/A:  API NUMBER
 CNTY.                        :  COUNTY
 LOC .                        :  LOCATION
 LMF .             Drill Floor:  LOG MEASURED FROM
 TVDS.m                  43.00:  TVDSS CORRECTN
 SDEP.m                 341.00:  START DEPTH
 EGL .m                   0.00:  GROUND ELEVATION
 WDMS.m                 169.80:  WD ELEV
 AGAP.m                  43.00:  AIR GAP
 EPD .m                   0.00:  ELEVATION
 APD .m                  43.00:  DEPTH ABOVE PD
 LATI.deg                40.13:  LATITUDE
 LONG.deg                51.22:  LONGITUDE
 UTMY.m             4443793.85:  UTM Y
 UTMX.m              519005.06:  UTM X
 WHEW.m                 -11.57:  WELL HEAD E/W
 WHNS.m                   8.57:  WELL HEAD N/S
 VSEW.m                 -11.57:  VERT SEC E/W
 VSNS.m                   8.57:  VERT SEC N/S
 DFWL.m                   0.00:  DISTANCE FWL
 DFSL.m                   0.00:  DISTANCE FSL
 VSDR.deg               299.34:  VERT SEC DIRECT
 GVFD.g                   1.00:  GRAVITY FIELD
 AZTC.deg                 6.36:  AZM TOTAL CORR
 MFLD.nT              50391.00:  MAGNETIC FIELD
 MDIP.deg                59.65:  MAGNETIC DIP
 MDEC.deg                 6.48:  MAGNETIC DECL
 GRDC.deg                 0.12:  GRID CORRECTION
 DEP .m                 334.96:  DEPTH
 TDD .m                1407.26:  TOTAL DEPTH (DRILLER)
 EKB .m                  43.00:  KB ELEVATION
 EDF .m                  43.00:  DF ELEVATION
 TDL .m                 228.00:  TOTAL DEPTH (LOGGER)
 VSC .                       0:  VS TO CLOSURE
 MAGU.                 1854484:  MAGUTM CHECKSUM
~Parameter Information Block
#MNEM.UNIT       Value        Description
#---------     -----------    ---------------------------
 AV  .mps                 4.00:  Ann Velocity 
 AVMX.mps                 4.73:  Max Ann Veloc 
 AZIF.deg               304.48:  Azm, Final 
 BHAT.        Rotary Steerable:  BHA Type 
 BREV.rev            257300.00:  Rev Bit Total 
 BROT.°/30m               0.00:  Build Rotating 
 BS  .in                  8.50:  Bit Size 
 BSZ .in                  8.50:  Bit Size 
 BTPL.psig              589.00:  Bit Press Loss 
 CABU.                      No:  Customer Abuse 
 CGEO.          Mubariz ghayev:  Customer Geo 
 TCS .hr                 64.25:  Time Ciculation Ended 
 CV  .mps                 3.50:  Crit Velocity 
 CVMX.mps                 4.52:  Max Crit Veloc 
 DD1 .             Aziz Aliyev:  Direct Drillr 1 
 DD2 .         Intigam Rahimov:  Direct Drillr 2 
 DD3 .          Rashad Habibov:  Direct Drillr 3 
 DDSV.               Geo-Pilot:  DD Service 
 DEFF.%                  98.00:  % Det Eff 
 DLRX.°/30m               0.00:  Dogleg Rot Max 
 DLSO.°/30m               0.00:  Dogleg Oriented 
 DLSX.°/30m               0.00:  Dogleg Str Max 
 DRET.      10.45.04 08-May-21:  Drill End Time 
 DRST.      03.30.04 04-May-21:  Drill Start Tim 
 DTIM.hr                 14.97:  Time Drilling 
 EDEP.m                4640.01:  End Depth 
 ENG1.         Dail Mahammadov:  Engineer 1 
 ENG2.           Eldar Hajiyev:  Engineer 2 
 ENG3.       Bakhtiar Jabbarli:  Engineer 3 
 ENG4.       Natik Hasanagayev:  Engineer 4 
 ETIM.      09.30.04 14-May-21:  End Time 
 FLOI.gpm               460.00:  Flow In 
 FLON.gpm               200.00:  Flow In Min 
 FLOS.cptm                0.00:  Fluid Loss 
 FLOX.gpm               505.00:  Flow In Max 
 HFLO.                      No:  High Flow 
 HPRE.                      No:  High Pressure 
 HTEM.                      No:  High Temp 
 HYDO.m                   1.80:  Hydro Offset 
 IFIN.deg                66.71:  Inc, Final 
 IMAX.deg                67.03:  Inc Max 
 IMIN.deg                66.63:  Inc Min 
 IMND.m                4550.58:  Inc Min Depth 
 IMXD.m                4439.01:  Inc Max Depth 
 JARR.                      No:  Jarring 
 LETM.      10.45.04 08-May-21:  Log End Time 
 LOST.hr                     0:  Lost Rig Time 
 LSTM.      03.30.04 04-May-21:  Log Start Time 
 MDCL.ppm             37000.00:  Mud Chlorides 
 MDES.     Inversion Oil/Synthetic:  Mud Desc 
 DFD .sg                  1.38:  Mud Density 
 MDMN.sg                  1.35:  Dens Mud Min 
 MDMX.sg                  1.40:  Dens Mud Max 
 MOIL.                   57.40:  Run Mud Oil % 
 MOWR.                   70:30:  Run Mud OWR 
 MSND.                    0.00:  Run Mud Sand % 
 MSOL.                   18.00:  Run Mud Solids% 
 DFV .spqt               71.00:  Mud Viscosity 
 MWOD.in                  6.75:  MWD Tool OD 
 MWSI.                      No:  Serv Intrp, MWD 
 OTIM.hr                242.76:  Time Operating 
 PCON.           Look Like New:  Pad Condition 
 PMAX.psia            12183.92:  Press Op, Max 
 PV  .cP                 27.00:  Mud PV 
 RUN .                    1300:  Run Number 
 ROPA.m/hr               15.00:  ROP Avg 
 ROPN.m/hr                9.00:  ROP Min 
 ROPX.m/hr               19.00:  ROP Max 
 RPMA.rpm               120.00:  RPM Surface Avg 
 RPMN.rpm               100.00:  RPM Surface Min 
 RPMX.rpm               120.00:  RPM Surface Max 
 RRUN.                    1300:  Rig Run Number 
 RTIM.hr                  5.00:  Time Reaming 
 SAZI.deg               304.73:  Azm, Start 
 SDEP.m                4412.01:  Start Depth 
 SIDD.                      No:  Serv Intrp, DD 
 SINC.deg                66.82:  Inc, Start 
 SPPA.psig             2800.00:  SPP Avg 
 SPPN.psig             2610.00:  SPP Min 
 SPPX.psig             3100.00:  SPP Max 
 STIM.      03.30.00 04-May-21:  Start Time 
 SVCS.                 DD, MWD:  Services 
 SVER.                    9.20:  Sperry Version 
 TDAT.m                 228.00:  Tot Depth Attmp 
 TDDF.                      No:  Trip for DD 
 TDLG.m                 228.00:  Tot Depth Loggd 
 TFF .                      No:  Trip for Fail 
 TQAA.f-kp               15.00:  Torque Abs Avg 
 TQAN.f-kp               12.00:  Torque Abs Min 
 TQAX.f-kp               22.00:  Torque Abs Max 
 TRRT.°/30m               0.00:  Turn Rotating 
 MRT .                    HCIM:  Maximum Recorded Temperature 
 TTMX.degC               90.20:  Max Tool Temp 
 VS01.                90627813:  Virtual Str1 SN 
 VS02.                90634712:  Virtual Str2 SN 
 VS03.                90643410:  Virtual Str3 SN 
 VS04.                90634712:  Virtual Str4 SN 
 WBMN.klb                 9.00:  WOB Min 
 WITN.        Elmaddin Rahimov:  Customer Rep 
 WITN.         Haytham Mostafa:  Customer Rep 2 
 WOBA.klb                15.00:  WOB Avg 
 WOBX.klb                23.00:  WOB Max 
 YP  .lhf2               29.00:  Yield Point 
~Curve Information Block
#MNEM.UNIT                 API CODE     Curve Description
#---------               -----------    ---------------------------
 TIME.HHMMSS            00 000 000 000:  GT Time & Date
 GTDEPTH.m              00 000 000 000:  GT Depth
 GTPQH.psia             00 000 000 000:  GT HR Quartz Pressure
 GTTQ.degC              00 000 000 000:  GT Quartz Temperature
 GTTN.NONE              00 000 000 000:  GT Test Number
 GTET.sec               00 000 000 000:  GT Elapsed Test Time
 GTTVD.m                00 000 000 000:  GT True Vertical Depth
#Other Information
#
#WARRANTY: Halliburton will use its best efforts to furnish customers with 
#accurate information and interpretations that are part of, and incident to, the services 
#provided.  However, Halliburton cannot and does not warrant the accuracy 
#or correctness of such information and interpretations.  Under no circumstances should any 
#such information or interpretation be relied upon as the sole basis for any drilling, 
#completion, production, or financial decision or any procedure involving any risk to the 
#safety of any drilling venture, drilling rig or its crew or any other third party.  The 
#Customer has full responsibility for all drilling, completion and production operation.  
#Halliburton makes no representations or warranties, either expressed or 
#implied, including, but not limited to, the implied warranties of merchantability or fitness 
#for a particular purpose, with respect to the services rendered.  In no event will 
#Halliburton be liable for failure to obtain any particular results or for 
#any damages, including, but not limited to, indirect, special or consequential damages, 
#resulting from the use of any information or interpretation provided by Halliburton.
#
~A           TIME           GTDEPTH  GTPQH  GTTQ  GTTN   GTET   GTTVD  
# ...
   00:24:36.217.10-May-2021 4497.51 6541.19 60.62 18.00  22.61 2971.13
   00:24:36.417.10-May-2021 4497.51 6541.35 60.62 18.00  22.81 2971.13
   00:24:36.618.10-May-2021 4497.51 6541.36 60.62 18.00  23.01 2971.13
   00:24:36.818.10-May-2021 4497.51 6541.36 60.62 18.00  23.21 2971.13
   00:24:37.018.10-May-2021 4497.51 6541.27 60.62 18.00  23.41 2971.13
   00:24:37.218.10-May-2021 4497.51 6546.20 60.62 18.00  23.61 2971.13
   00:24:37.418.10-May-2021 4497.51 6546.35 60.62 18.00  23.81 2971.13
   00:24:37.618.10-May-2021 4497.51 6545.13 60.62 18.00  24.01 2971.13
   00:24:37.818.10-May-2021 4497.51 6545.13 60.62 18.00  24.21 2971.13
   00:24:38.018.10-May-2021 4497.51 6544.04 60.62 18.00  24.41 2971.13
   00:24:38.218.10-May-2021 4497.51 6543.05 60.62 18.00  24.61 2971.13
   00:24:38.418.10-May-2021 4497.51 6542.88 60.62 18.00  24.81 2971.13
   00:24:38.618.10-May-2021 4497.51 6542.89 60.62 18.00  25.01 2971.13
   00:24:38.818.10-May-2021 4497.51 6542.89 60.62 18.00  25.21 2971.13
   00:24:39.019.10-May-2021 4497.51 6543.25 60.62 18.00  25.41 2971.13
   00:24:39.219.10-May-2021 4497.51 6543.42 60.62 18.00  25.61 2971.13
   00:24:39.419.10-May-2021 4497.51 6543.19 60.62 18.00  25.81 2971.13
   00:24:39.619.10-May-2021 4497.51 6543.12 60.62 18.00  26.01 2971.13
   00:24:39.819.10-May-2021 4497.51 6543.12 60.62 18.00  26.21 2971.13
   00:24:40.019.10-May-2021 4497.51 6550.98 60.62 18.00  26.41 2971.13
   00:24:40.219.10-May-2021 4497.51 6545.82 60.62 18.00  26.61 2971.13
   00:24:40.419.10-May-2021 4497.51 6549.42 60.62 18.00  26.81 2971.13
   00:24:40.619.10-May-2021 4497.51 6546.09 60.62 18.00  27.01 2971.13
   00:24:40.819.10-May-2021 4497.51 6546.09 60.62 18.00  27.21 2971.13
   00:24:41.019.10-May-2021 4497.51 6552.89 60.62 18.00  27.41 2971.13
   00:24:41.219.10-May-2021 4497.51 6546.66 60.62 18.00  27.61 2971.13
   00:24:41.420.10-May-2021 4497.51 6550.47 60.62 18.00  27.81 2971.13
   00:24:41.620.10-May-2021 4497.51 6554.69 60.62 18.00  28.01 2971.13
   00:24:41.820.10-May-2021 4497.51 6554.69 60.62 18.00  28.21 2971.13
   00:24:42.020.10-May-2021 4497.51 6552.05 60.62 18.00  28.41 2971.13
   00:24:42.220.10-May-2021 4497.51 6547.68 60.62 18.00  28.61 2971.13
   00:24:42.420.10-May-2021 4497.51 6548.03 60.62 18.00  28.81 2971.13
   00:24:42.620.10-May-2021 4497.51 6554.20 60.62 18.00  29.01 2971.13
   00:24:42.820.10-May-2021 4497.51 6554.20 60.62 18.00  29.21 2971.13
   00:24:43.020.10-May-2021 4497.51 6549.39 60.62 18.00  29.41 2971.13
   00:24:43.220.10-May-2021 4497.51 6549.42 60.62 18.00  29.61 2971.13
   00:24:43.420.10-May-2021 4497.51 6547.26 60.62 18.00  29.81 2971.13
   00:24:43.621.10-May-2021 4497.51 6546.65 60.62 18.00  30.01 2971.13
   00:24:43.821.10-May-2021 4497.51 6546.65 60.62 18.00  30.21 2971.13
   00:24:44.021.10-May-2021 4497.51 6546.05 60.62 18.00  30.41 2971.13
   00:24:44.221.10-May-2021 4497.51 6546.11 60.62 18.00  30.61 2971.13
   00:24:44.421.10-May-2021 4497.51 6546.13 60.62 18.00  30.81 2971.13
   00:24:44.621.10-May-2021 4497.51 6546.02 60.62 18.00  31.01 2971.13
   00:24:44.821.10-May-2021 4497.51 6546.02 60.62 18.00  31.21 2971.13
   00:24:45.021.10-May-2021 4497.51 6546.58 60.62 18.00  31.41 2971.13
   00:24:45.221.10-May-2021 4497.51 6553.97 60.62 18.00  31.61 2971.13
   00:24:45.421.10-May-2021 4497.51 6549.16 60.62 18.00  31.81 2971.13
   00:24:45.621.10-May-2021 4497.51 6550.17 60.62 18.00  32.01 2971.13
   00:24:45.821.10-May-2021 4497.51 6550.17 60.62 18.00  32.21 2971.13
   00:24:46.022.10-May-2021 4497.51 6548.53 60.62 18.00  32.41 2971.13
   00:24:46.222.10-May-2021 4497.51 6548.10 60.62 18.00  32.61 2971.13
   00:24:46.422.10-May-2021 4497.51 6547.51 60.62 18.00  32.81 2971.13
   00:24:46.622.10-May-2021 4497.51 6547.68 60.62 18.00  33.01 2971.13
   00:24:46.822.10-May-2021 4497.51 6547.68 60.62 18.00  33.21 2971.13
   00:24:47.022.10-May-2021 4497.51 6547.50 60.61 18.00  33.41 2971.13
   00:24:47.222.10-May-2021 4497.51 6547.49 60.61 18.00  33.61 2971.13
   00:24:47.422.10-May-2021 4497.51 6547.38 60.61 18.00  33.81 2971.13
   00:24:47.622.10-May-2021 4497.51 6547.77 60.61 18.00  34.01 2971.13
   00:24:47.822.10-May-2021 4497.51 6547.77 60.61 18.00  34.21 2971.13
   00:24:48.022.10-May-2021 4497.51 6555.48 60.61 18.00  34.41 2971.13
   00:24:48.222.10-May-2021 4497.51 6552.05 60.61 18.00  34.61 2971.13
   00:24:48.423.10-May-2021 4497.51 6555.38 60.61 18.00  34.81 2971.13
   00:24:48.623.10-May-2021 4497.51 6548.40 60.61 18.00  35.01 2971.13
   00:24:48.823.10-May-2021 4497.51 6548.40 60.61 18.00  35.22 2971.13
   00:24:49.023.10-May-2021 4497.51 6548.40 60.61 18.00  35.42 2971.13
   00:24:49.223.10-May-2021 4497.51 6552.58 60.61 18.00  35.62 2971.13
   00:24:49.423.10-May-2021 4497.51 6554.56 60.61 18.00  35.82 2971.13
   00:24:49.623.10-May-2021 4497.51 6555.88 60.61 18.00  36.02 2971.13
   00:24:49.823.10-May-2021 4497.51 6555.88 60.61 18.00  36.22 2971.13
   00:24:50.023.10-May-2021 4497.51 6552.32 60.61 18.00  36.42 2971.13
   00:24:50.223.10-May-2021 4497.51 6564.94 60.61 18.00  36.62 2971.13
   00:24:50.423.10-May-2021 4497.51 6646.40 60.61 18.00  36.82 2971.13
   00:24:50.624.10-May-2021 4497.51 6660.71 60.61 18.00  37.02 2971.13
   00:24:50.824.10-May-2021 4497.51 6660.71 60.61 18.00  37.22 2971.13
   00:24:51.024.10-May-2021 4497.51 6827.14 60.61 18.00  37.42 2971.13
   00:24:51.224.10-May-2021 4497.51 6882.73 60.61 18.00  37.62 2971.13
   00:24:51.424.10-May-2021 4497.51 6890.89 60.61 18.00  37.82 2971.13
   00:24:51.624.10-May-2021 4497.51 6897.24 60.61 18.00  38.02 2971.13
   00:24:51.824.10-May-2021 4497.51 6897.24 60.61 18.00  38.22 2971.13
   00:24:52.024.10-May-2021 4497.51 6906.91 60.61 18.00  38.42 2971.13
   00:24:52.224.10-May-2021 4497.51 6908.45 60.61 18.00  38.62 2971.13
   00:24:52.424.10-May-2021 4497.51 6912.84 60.61 18.00  38.82 2971.13
   00:24:52.624.10-May-2021 4497.51 6918.63 60.61 18.00  39.02 2971.13
   00:24:52.824.10-May-2021 4497.51 6918.63 60.61 18.00  39.22 2971.13
   00:24:53.025.10-May-2021 4497.51 6968.65 60.61 18.00  39.42 2971.13
   00:24:53.225.10-May-2021 4497.51 6978.01 60.61 18.00  39.62 2971.13
   00:24:53.425.10-May-2021 4497.51 6967.90 60.61 18.00  39.82 2971.13
   00:24:53.625.10-May-2021 4497.51 6953.25 60.61 18.00  40.02 2971.13
   00:24:53.825.10-May-2021 4497.51 6953.25 60.61 18.00  40.22 2971.13
   00:24:54.025.10-May-2021 4497.51 6897.86 60.61 18.00  40.42 2971.13
   00:24:54.225.10-May-2021 4497.51 6867.68 60.61 18.00  40.62 2971.13
   00:24:54.425.10-May-2021 4497.51 6856.90 60.61 18.00  40.82 2971.13
   00:24:54.625.10-May-2021 4497.51 6855.68 60.61 18.00  41.02 2971.13
   00:24:54.825.10-May-2021 4497.51 6855.68 60.61 18.00  41.22 2971.13
   00:24:55.025.10-May-2021 4497.51 6834.13 60.61 18.00  41.42 2971.13
   00:24:55.225.10-May-2021 4497.51 6817.67 60.61 18.00  41.62 2971.13
   00:24:55.426.10-May-2021 4497.51 6796.97 60.61 18.00  41.82 2971.13
   00:24:55.626.10-May-2021 4497.51 6774.22 60.61 18.00  42.02 2971.13
   00:24:55.826.10-May-2021 4497.51 6774.22 60.61 18.00  42.22 2971.13
   00:24:56.026.10-May-2021 4497.51 6751.57 60.61 18.00  42.42 2971.13
   00:24:56.226.10-May-2021 4497.51 6757.01 60.61 18.00  42.62 2971.13
   00:24:56.426.10-May-2021 4497.51 6777.00 60.61 18.00  42.82 2971.13
   00:24:56.626.10-May-2021 4497.51 6790.51 60.61 18.00  43.02 2971.13
   00:24:56.826.10-May-2021 4497.51 6790.51 60.61 18.00  43.22 2971.13
   00:24:57.026.10-May-2021 4497.51 6772.79 60.61 18.00  43.42 2971.13
   00:24:57.226.10-May-2021 4497.51 6761.49 60.61 18.00  43.62 2971.13
   00:24:57.426.10-May-2021 4497.51 6749.58 60.61 18.00  43.82 2971.13
   00:24:57.627.10-May-2021 4497.51 6738.56 60.61 18.00  44.02 2971.13
   00:24:57.827.10-May-2021 4497.51 6738.56 60.61 18.00  44.22 2971.13
   00:24:58.027.10-May-2021 4497.51 6425.89 60.61 18.00  44.42 2971.13
   00:24:58.227.10-May-2021 4497.51 6268.55 60.61 18.00  44.62 2971.13
   00:24:58.427.10-May-2021 4497.51 5964.54 60.61 18.00  44.82 2971.13
   00:24:58.627.10-May-2021 4497.51 5459.46 60.61 18.00  45.02 2971.13
