~Version Information
 VERS.                  2.0:   CWLS log ASCII Standard -VERSION 2.0
 WRAP.                   NO:   One line per depth step
~Well Information Block
#MNEM.UNIT     VALUE/NAME     DESCRIPTION
#---------     -----------    ---------------------------
 STRT.S             21:53:52 08-May-21: START TIME 21:53:52 08-May-21
 STOP.S             22:00:27 08-May-21: STOP TIME  22:00:27 08-May-21
 STEP.S                   0.00: STEP TIME
 NULL.                 -999.25: NULL VALUE
 PROV.                    Baku:  PROVINCE
 STAT.                    Baku:  STATE NAME
 SON .        AZ-XX-0906571588:  JOB NUMBER
 WTYP.                Deviated:  WELL TYPE
 COMP.     BP Exploration (Caspian Sea) ltd:  COMPANY
 BASE.              Azerbaijan:  LOGGING EQUIPMENT BASE LOCATION
 REGN.                   EESSA:  REGION
 CTRY.              Azerbaijan:  COUNTRY NAME
 FLD .                     ACG:  FIELD NAME
 WELL.                     J28:  WELL NAME
 RIG .             West Chirag:  RIG NAME
 DMF .             Drill Floor:  DRILL MEAS FROM
 PDAT.       Caspian Sea Level:  PERMANENT DATUM
 HPTY.       Minimum Curvature:  HOLE POS TYPE
 MDS .        Operator Entered:  MAG DATA SOURCE
 NREF.                    Grid:  NORTH REFERENCE
 SRVC.          TURAN DRILLING:  CONTRACTOR
 JOBN.        AZ-XX-0906571588:  JOB TICKET NUMB
 DCON.     Halliburton Sperry Drilling:  DIRECTNL CONTR
 STIM.      00.44.00 11-Feb-21:  START TIME
 DATE.      00.00.00 05-May-21:  END TIME
 SPUD.               13-Feb-21:  SPUD DATE
 MWDS.                    Baku:  MWD SHOP
 DOE .                     N/A:  DOE NUMBER
 UNIT.                     N/A:  LOGGING EQUIPMENT ID
 UWI .                     N/A:  UNIQUE WELL IDENTIFIER
 API .                     N/A:  API NUMBER
 CNTY.                        :  COUNTY
 LOC .                        :  LOCATION
 LMF .             Drill Floor:  LOG MEASURED FROM
 TVDS.m                  43.00:  TVDSS CORRECTN
 SDEP.m                 341.00:  START DEPTH
 EGL .m                   0.00:  GROUND ELEVATION
 WDMS.m                 169.80:  WD ELEV
 AGAP.m                  43.00:  AIR GAP
 EPD .m                   0.00:  ELEVATION
 APD .m                  43.00:  DEPTH ABOVE PD
 LATI.deg                40.13:  LATITUDE
 LONG.deg                51.22:  LONGITUDE
 UTMY.m             4443793.85:  UTM Y
 UTMX.m              519005.06:  UTM X
 WHEW.m                 -11.57:  WELL HEAD E/W
 WHNS.m                   8.57:  WELL HEAD N/S
 VSEW.m                 -11.57:  VERT SEC E/W
 VSNS.m                   8.57:  VERT SEC N/S
 DFWL.m                   0.00:  DISTANCE FWL
 DFSL.m                   0.00:  DISTANCE FSL
 VSDR.deg               299.34:  VERT SEC DIRECT
 GVFD.g                   1.00:  GRAVITY FIELD
 AZTC.deg                 6.36:  AZM TOTAL CORR
 MFLD.nT              50391.00:  MAGNETIC FIELD
 MDIP.deg                59.65:  MAGNETIC DIP
 MDEC.deg                 6.48:  MAGNETIC DECL
 GRDC.deg                 0.12:  GRID CORRECTION
 DEP .m                 334.96:  DEPTH
 TDD .m                1407.26:  TOTAL DEPTH (DRILLER)
 EKB .m                  43.00:  KB ELEVATION
 EDF .m                  43.00:  DF ELEVATION
 TDL .m                 228.00:  TOTAL DEPTH (LOGGER)
 VSC .                       0:  VS TO CLOSURE
 MAGU.                 1854484:  MAGUTM CHECKSUM
~Parameter Information Block
#MNEM.UNIT       Value        Description
#---------     -----------    ---------------------------
 AV  .mps                 4.00:  Ann Velocity 
 AVMX.mps                 4.73:  Max Ann Veloc 
 AZIF.deg               304.48:  Azm, Final 
 BHAT.        Rotary Steerable:  BHA Type 
 BREV.rev            257300.00:  Rev Bit Total 
 BROT.°/30m               0.00:  Build Rotating 
 BS  .in                  8.50:  Bit Size 
 BSZ .in                  8.50:  Bit Size 
 BTPL.psig              589.00:  Bit Press Loss 
 CABU.                      No:  Customer Abuse 
 CGEO.          Mubariz ghayev:  Customer Geo 
 COMM.                     ¤=s:  Run Comments 1 
 TCS .hr                 64.25:  Time Ciculation Ended 
 CV  .mps                 3.50:  Crit Velocity 
 CVMX.mps                 4.52:  Max Crit Veloc 
 DD1 .             Aziz Aliyev:  Direct Drillr 1 
 DD2 .         Intigam Rahimov:  Direct Drillr 2 
 DD3 .          Rashad Habibov:  Direct Drillr 3 
 DDSV.               Geo-Pilot:  DD Service 
 DEFF.%                  98.00:  % Det Eff 
 DLRX.°/30m               0.00:  Dogleg Rot Max 
 DLSO.°/30m               0.00:  Dogleg Oriented 
 DLSX.°/30m               0.00:  Dogleg Str Max 
 DRET.      10.45.04 08-May-21:  Drill End Time 
 DRST.      03.30.04 04-May-21:  Drill Start Tim 
 DTIM.hr                 14.97:  Time Drilling 
 EDEP.m                4640.01:  End Depth 
 ENG1.         Dail Mahammadov:  Engineer 1 
 ENG2.           Eldar Hajiyev:  Engineer 2 
 ENG3.       Bakhtiar Jabbarli:  Engineer 3 
 ENG4.       Natik Hasanagayev:  Engineer 4 
 ETIM.      09.30.04 14-May-21:  End Time 
 FLOI.gpm               460.00:  Flow In 
 FLON.gpm               200.00:  Flow In Min 
 FLOS.cptm                0.00:  Fluid Loss 
 FLOX.gpm               505.00:  Flow In Max 
 HFLO.                      No:  High Flow 
 HPRE.                      No:  High Pressure 
 HTEM.                      No:  High Temp 
 HYDO.m                   1.80:  Hydro Offset 
 IFIN.deg                66.71:  Inc, Final 
 IMAX.deg                67.03:  Inc Max 
 IMIN.deg                66.63:  Inc Min 
 IMND.m                4550.58:  Inc Min Depth 
 IMXD.m                4439.01:  Inc Max Depth 
 JARR.                      No:  Jarring 
 LETM.      10.45.04 08-May-21:  Log End Time 
 LOST.hr                     0:  Lost Rig Time 
 LSTM.      03.30.04 04-May-21:  Log Start Time 
 MDCL.ppm             37000.00:  Mud Chlorides 
 MDES.     Inversion Oil/Synthetic:  Mud Desc 
 DFD .sg                  1.38:  Mud Density 
 MDMN.sg                  1.35:  Dens Mud Min 
 MDMX.sg                  1.40:  Dens Mud Max 
 MOIL.                   57.40:  Run Mud Oil % 
 MOWR.                   70:30:  Run Mud OWR 
 MSND.                    0.00:  Run Mud Sand % 
 MSOL.                   18.00:  Run Mud Solids% 
 DFV .spqt               71.00:  Mud Viscosity 
 MWOD.in                  6.75:  MWD Tool OD 
 MWSI.                      No:  Serv Intrp, MWD 
 OTIM.hr                242.76:  Time Operating 
 PCON.           Look Like New:  Pad Condition 
 PMAX.psia            12183.92:  Press Op, Max 
 PV  .cP                 27.00:  Mud PV 
 RUN .                    1300:  Run Number 
 ROPA.m/hr               15.00:  ROP Avg 
 ROPN.m/hr                9.00:  ROP Min 
 ROPX.m/hr               19.00:  ROP Max 
 RPMA.rpm               120.00:  RPM Surface Avg 
 RPMN.rpm               100.00:  RPM Surface Min 
 RPMX.rpm               120.00:  RPM Surface Max 
 RRUN.                    1300:  Rig Run Number 
 RTIM.hr                  5.00:  Time Reaming 
 SAZI.deg               304.73:  Azm, Start 
 SDEP.m                4412.01:  Start Depth 
 SIDD.                      No:  Serv Intrp, DD 
 SINC.deg                66.82:  Inc, Start 
 SPPA.psig             2800.00:  SPP Avg 
 SPPN.psig             2610.00:  SPP Min 
 SPPX.psig             3100.00:  SPP Max 
 STIM.      03.30.00 04-May-21:  Start Time 
 SVCS.                 DD, MWD:  Services 
 SVER.                    9.20:  Sperry Version 
 TDAT.m                 228.00:  Tot Depth Attmp 
 TDDF.                      No:  Trip for DD 
 TDLG.m                 228.00:  Tot Depth Loggd 
 TFF .                      No:  Trip for Fail 
 TQAA.f-kp               15.00:  Torque Abs Avg 
 TQAN.f-kp               12.00:  Torque Abs Min 
 TQAX.f-kp               22.00:  Torque Abs Max 
 TRRT.°/30m               0.00:  Turn Rotating 
 MRT .                    HCIM:  Maximum Recorded Temperature 
 TTMX.degC               90.20:  Max Tool Temp 
 VS01.                90627813:  Virtual Str1 SN 
 VS02.                90634712:  Virtual Str2 SN 
 VS03.                90643410:  Virtual Str3 SN 
 VS04.                90634712:  Virtual Str4 SN 
 WBMN.klb                 9.00:  WOB Min 
 WITN.        Elmaddin Rahimov:  Customer Rep 
 WITN.         Haytham Mostafa:  Customer Rep 2 
 WOBA.klb                15.00:  WOB Avg 
 WOBX.klb                23.00:  WOB Max 
 YP  .lhf2               29.00:  Yield Point 
~Curve Information Block
#MNEM.UNIT                 API CODE     Curve Description
#---------               -----------    ---------------------------
 TIME.HHMMSS            00 000 000 000:  GT Time & Date
 GTDEPTH.m              00 000 000 000:  GT Depth
 GTPQH.psia             00 000 000 000:  GT HR Quartz Pressure
 GTTQ.degC              00 000 000 000:  GT Quartz Temperature
 GTTN.NONE              00 000 000 000:  GT Test Number
 GTET.sec               00 000 000 000:  GT Elapsed Test Time
 GTTVD.m                00 000 000 000:  GT True Vertical Depth
#Other Information
#
#WARRANTY: Halliburton will use its best efforts to furnish customers with 
#accurate information and interpretations that are part of, and incident to, the services 
#provided.  However, Halliburton cannot and does not warrant the accuracy 
#or correctness of such information and interpretations.  Under no circumstances should any 
#such information or interpretation be relied upon as the sole basis for any drilling, 
#completion, production, or financial decision or any procedure involving any risk to the 
#safety of any drilling venture, drilling rig or its crew or any other third party.  The 
#Customer has full responsibility for all drilling, completion and production operation.  
#Halliburton makes no representations or warranties, either expressed or 
#implied, including, but not limited to, the implied warranties of merchantability or fitness 
#for a particular purpose, with respect to the services rendered.  In no event will 
#Halliburton be liable for failure to obtain any particular results or for 
#any damages, including, but not limited to, indirect, special or consequential damages, 
#resulting from the use of any information or interpretation provided by Halliburton.
#
~A           TIME           GTDEPTH  GTPQH  GTTQ  GTTN  GTET   GTTVD  
# ...
   22:00:00.000.08-May-2021 4568.51 6854.76 69.04 3.00 368.00 2999.18
   22:00:00.200.08-May-2021 4568.51 6854.76 69.04 3.00 368.20 2999.18
   22:00:00.400.08-May-2021 4568.51 6853.35 69.05 3.00 368.40 2999.18
   22:00:00.600.08-May-2021 4568.51 6852.92 69.05 3.00 368.60 2999.18
   22:00:00.800.08-May-2021 4568.51 6853.11 69.05 3.00 368.80 2999.18
   22:00:01.000.08-May-2021 4568.51 6853.35 69.05 3.00 369.00 2999.18
   22:00:01.200.08-May-2021 4568.51 6853.35 69.05 3.00 369.20 2999.18
   22:00:01.400.08-May-2021 4568.51 6853.97 69.06 3.00 369.40 2999.18
   22:00:01.600.08-May-2021 4568.51 6854.28 69.06 3.00 369.60 2999.18
   22:00:01.800.08-May-2021 4568.51 6854.92 69.06 3.00 369.80 2999.18
   22:00:02.000.08-May-2021 4568.51 6865.14 69.06 3.00 370.00 2999.18
   22:00:02.200.08-May-2021 4568.51 6865.14 69.06 3.00 370.20 2999.18
   22:00:02.400.08-May-2021 4568.51 6858.20 69.06 3.00 370.40 2999.18
   22:00:02.600.08-May-2021 4568.51 6856.31 69.06 3.00 370.60 2999.18
   22:00:02.800.08-May-2021 4568.51 6856.52 69.07 3.00 370.80 2999.18
   22:00:03.000.08-May-2021 4568.51 6854.53 69.07 3.00 371.00 2999.18
   22:00:03.200.08-May-2021 4568.51 6854.53 69.07 3.00 371.20 2999.18
   22:00:03.400.08-May-2021 4568.51 6853.17 69.07 3.00 371.40 2999.18
   22:00:03.600.08-May-2021 4568.51 6852.52 69.07 3.00 371.60 2999.18
   22:00:03.800.08-May-2021 4568.51 6852.00 69.07 3.00 371.80 2999.18
   22:00:04.000.08-May-2021 4568.51 6852.09 69.07 3.00 372.00 2999.18
   22:00:04.200.08-May-2021 4568.51 6852.09 69.07 3.00 372.20 2999.18
   22:00:04.400.08-May-2021 4568.51 6852.99 69.07 3.00 372.40 2999.18
   22:00:04.600.08-May-2021 4568.51 6852.71 69.07 3.00 372.60 2999.18
   22:00:04.800.08-May-2021 4568.51 6861.21 69.07 3.00 372.80 2999.18
   22:00:05.000.08-May-2021 4568.51 6860.49 69.08 3.00 373.00 2999.18
   22:00:05.200.08-May-2021 4568.51 6860.49 69.08 3.00 373.20 2999.18
   22:00:05.400.08-May-2021 4568.51 6854.53 69.08 3.00 373.40 2999.18
   22:00:05.600.08-May-2021 4568.51 6853.53 69.08 3.00 373.60 2999.18
   22:00:05.800.08-May-2021 4568.51 6851.09 69.08 3.00 373.80 2999.18
   22:00:06.000.08-May-2021 4568.51 6860.75 69.08 3.00 374.00 2999.18
   22:00:06.200.08-May-2021 4568.51 6860.75 69.08 3.00 374.20 2999.18
   22:00:06.400.08-May-2021 4568.51 6854.18 69.08 3.00 374.40 2999.18
   22:00:06.600.08-May-2021 4568.51 6858.86 69.08 3.00 374.60 2999.18
   22:00:06.800.08-May-2021 4568.51 6859.62 69.08 3.00 374.80 2999.18
   22:00:07.000.08-May-2021 4568.51 6859.84 69.08 3.00 375.00 2999.18
   22:00:07.200.08-May-2021 4568.51 6859.84 69.08 3.00 375.20 2999.18
   22:00:07.400.08-May-2021 4568.51 6855.90 69.08 3.00 375.40 2999.18
   22:00:07.600.08-May-2021 4568.51 6853.01 69.08 3.00 375.60 2999.18
   22:00:07.800.08-May-2021 4568.51 6855.74 69.08 3.00 375.80 2999.18
   22:00:08.000.08-May-2021 4568.51 6860.02 69.08 3.00 376.00 2999.18
   22:00:08.200.08-May-2021 4568.51 6860.02 69.08 3.00 376.20 2999.18
   22:00:08.400.08-May-2021 4568.51 6853.33 69.08 3.00 376.40 2999.18
   22:00:08.600.08-May-2021 4568.51 6855.92 69.08 3.00 376.60 2999.18
   22:00:08.800.08-May-2021 4568.51 6853.63 69.08 3.00 376.80 2999.18
   22:00:09.000.08-May-2021 4568.51 6853.48 69.08 3.00 377.00 2999.18
   22:00:09.200.08-May-2021 4568.51 6853.48 69.08 3.00 377.20 2999.18
   22:00:09.400.08-May-2021 4568.51 6853.46 69.08 3.00 377.40 2999.18
   22:00:09.600.08-May-2021 4568.51 6853.40 69.08 3.00 377.60 2999.18
   22:00:09.800.08-May-2021 4568.51 6854.01 69.08 3.00 377.80 2999.18
   22:00:10.000.08-May-2021 4568.51 6855.02 69.08 3.00 378.00 2999.18
   22:00:10.200.08-May-2021 4568.51 6855.02 69.08 3.00 378.20 2999.18
   22:00:10.400.08-May-2021 4568.51 6852.54 69.08 3.00 378.40 2999.18
   22:00:10.600.08-May-2021 4568.51 6863.24 69.08 3.00 378.60 2999.18
   22:00:10.800.08-May-2021 4568.51 6862.61 69.08 3.00 378.80 2999.18
   22:00:11.000.08-May-2021 4568.51 6855.32 69.08 3.00 379.00 2999.18
   22:00:11.200.08-May-2021 4568.51 6855.32 69.08 3.00 379.20 2999.18
   22:00:11.400.08-May-2021 4568.51 6853.81 69.08 3.00 379.40 2999.18
   22:00:11.600.08-May-2021 4568.51 6852.94 69.08 3.00 379.60 2999.18
   22:00:11.800.08-May-2021 4568.51 6852.61 69.08 3.00 379.80 2999.18
   22:00:12.000.08-May-2021 4568.51 6852.38 69.08 3.00 380.00 2999.18
   22:00:12.200.08-May-2021 4568.51 6852.38 69.08 3.00 380.20 2999.18
   22:00:12.400.08-May-2021 4568.51 6852.23 69.08 3.00 380.40 2999.18
   22:00:12.600.08-May-2021 4568.51 6853.29 69.07 3.00 380.60 2999.18
   22:00:12.800.08-May-2021 4568.51 6853.47 69.07 3.00 380.80 2999.18
   22:00:13.000.08-May-2021 4568.51 6851.66 69.07 3.00 381.00 2999.18
   22:00:13.200.08-May-2021 4568.51 6851.66 69.07 3.00 381.20 2999.18
   22:00:13.400.08-May-2021 4568.51 6856.29 69.07 3.00 381.40 2999.18
   22:00:13.600.08-May-2021 4568.51 6855.49 69.07 3.00 381.60 2999.18
   22:00:13.800.08-May-2021 4568.51 6855.83 69.07 3.00 381.80 2999.18
   22:00:14.000.08-May-2021 4568.51 6854.45 69.07 3.00 382.00 2999.18
   22:00:14.200.08-May-2021 4568.51 6854.45 69.07 3.00 382.20 2999.18
   22:00:14.400.08-May-2021 4568.51 6854.84 69.07 3.00 382.40 2999.18
   22:00:14.600.08-May-2021 4568.51 6856.24 69.07 3.00 382.60 2999.18
   22:00:14.800.08-May-2021 4568.51 6855.50 69.07 3.00 382.80 2999.18
   22:00:15.000.08-May-2021 4568.51 6852.22 69.07 3.00 383.00 2999.18
   22:00:15.200.08-May-2021 4568.51 6852.22 69.07 3.00 383.20 2999.18
   22:00:15.400.08-May-2021 4568.51 6862.35 69.07 3.00 383.40 2999.18
   22:00:15.600.08-May-2021 4568.51 6854.46 69.07 3.00 383.60 2999.18
   22:00:15.800.08-May-2021 4568.51 6864.55 69.07 3.00 383.80 2999.18
   22:00:16.000.08-May-2021 4568.51 6860.56 69.07 3.00 384.00 2999.18
   22:00:16.200.08-May-2021 4568.51 6860.56 69.07 3.00 384.20 2999.18
   22:00:16.400.08-May-2021 4568.51 6853.44 69.07 3.00 384.40 2999.18
   22:00:16.600.08-May-2021 4568.51 6854.97 69.07 3.00 384.60 2999.18
   22:00:16.800.08-May-2021 4568.51 6853.33 69.07 3.00 384.80 2999.18
   22:00:17.000.08-May-2021 4568.51 6853.04 69.07 3.00 385.00 2999.18
   22:00:17.200.08-May-2021 4568.51 6853.04 69.07 3.00 385.20 2999.18
   22:00:17.400.08-May-2021 4568.51 6852.78 69.07 3.00 385.40 2999.18
   22:00:17.600.08-May-2021 4568.51 6852.54 69.07 3.00 385.60 2999.18
   22:00:17.800.08-May-2021 4568.51 6852.94 69.07 3.00 385.80 2999.18
   22:00:18.000.08-May-2021 4568.51 6852.79 69.06 3.00 386.00 2999.18
   22:00:18.200.08-May-2021 4568.51 6852.79 69.06 3.00 386.20 2999.18
   22:00:18.400.08-May-2021 4568.51 6858.22 69.06 3.00 386.40 2999.18
   22:00:18.600.08-May-2021 4568.51 6862.35 69.06 3.00 386.60 2999.18
   22:00:18.800.08-May-2021 4568.51 6861.64 69.06 3.00 386.80 2999.18
   22:00:19.000.08-May-2021 4568.51 6853.10 69.06 3.00 387.00 2999.18
   22:00:19.200.08-May-2021 4568.51 6853.10 69.06 3.00 387.20 2999.18
   22:00:19.400.08-May-2021 4568.51 6853.32 69.06 3.00 387.40 2999.18
   22:00:19.600.08-May-2021 4568.51 6853.43 69.06 3.00 387.60 2999.18
   22:00:19.800.08-May-2021 4568.51 6853.41 69.06 3.00 387.80 2999.18
   22:00:20.000.08-May-2021 4568.51 6852.49 69.06 3.00 388.00 2999.18
   22:00:20.200.08-May-2021 4568.51 6852.49 69.06 3.00 388.20 2999.18
   22:00:20.400.08-May-2021 4568.51 6852.14 69.06 3.00 388.40 2999.18
   22:00:20.600.08-May-2021 4568.51 6851.98 69.06 3.00 388.60 2999.18
   22:00:20.800.08-May-2021 4568.51 6852.07 69.06 3.00 388.80 2999.18
   22:00:21.000.08-May-2021 4568.51 6852.38 69.06 3.00 389.00 2999.18
   22:00:21.200.08-May-2021 4568.51 6852.38 69.06 3.00 389.20 2999.18
   22:00:21.400.08-May-2021 4568.51 6860.15 69.06 3.00 389.40 2999.18
   22:00:21.600.08-May-2021 4568.51 6853.63 69.06 3.00 389.60 2999.18
   22:00:21.800.08-May-2021 4568.51 6853.58 69.06 3.00 389.80 2999.18
   22:00:22.000.08-May-2021 4568.51 6852.79 69.06 3.00 390.00 2999.18
   22:00:22.200.08-May-2021 4568.51 6852.79 69.06 3.00 390.20 2999.18
   22:00:22.400.08-May-2021 4568.51 6861.07 69.06 3.00 390.40 2999.18
   22:00:22.600.08-May-2021 4568.51 6851.95 69.06 3.00 390.60 2999.18
   22:00:22.800.08-May-2021 4568.51 6852.16 69.06 3.00 390.80 2999.18
