~Version Information
 VERS.                  2.0:   CWLS log ASCII Standard -VERSION 2.0
 WRAP.                   NO:   One line per depth step
~Well Information Block
#MNEM.UNIT     VALUE/NAME     DESCRIPTION
#---------     -----------    ---------------------------
 STRT.S             00:24:13 10-May-21: START TIME 00:24:13 10-May-21
 STOP.S             00:32:26 10-May-21: STOP TIME  00:32:26 10-May-21
 STEP.S                   0.00: STEP TIME
 NULL.                 -999.25: NULL VALUE
 PROV.                    Baku:  PROVINCE
 STAT.                    Baku:  STATE NAME
 SON .        AZ-XX-0906571588:  JOB NUMBER
 WTYP.                Deviated:  WELL TYPE
 COMP.     BP Exploration (Caspian Sea) ltd:  COMPANY
 BASE.              Azerbaijan:  LOGGING EQUIPMENT BASE LOCATION
 REGN.                   EESSA:  REGION
 CTRY.              Azerbaijan:  COUNTRY NAME
 FLD .                     ACG:  FIELD NAME
 WELL.                     J28:  WELL NAME
 RIG .             West Chirag:  RIG NAME
 DMF .             Drill Floor:  DRILL MEAS FROM
 PDAT.       Caspian Sea Level:  PERMANENT DATUM
 HPTY.       Minimum Curvature:  HOLE POS TYPE
 MDS .        Operator Entered:  MAG DATA SOURCE
 NREF.                    Grid:  NORTH REFERENCE
 SRVC.          TURAN DRILLING:  CONTRACTOR
 JOBN.        AZ-XX-0906571588:  JOB TICKET NUMB
 DCON.     Halliburton Sperry Drilling:  DIRECTNL CONTR
 STIM.      00.44.00 11-Feb-21:  START TIME
 DATE.      00.00.00 05-May-21:  END TIME
 SPUD.               13-Feb-21:  SPUD DATE
 MWDS.                    Baku:  MWD SHOP
 DOE .                     N/A:  DOE NUMBER
 UNIT.                     N/A:  LOGGING EQUIPMENT ID
 UWI .                     N/A:  UNIQUE WELL IDENTIFIER
 API .                     N/A:  API NUMBER
 CNTY.                        :  COUNTY
 LOC .                        :  LOCATION
 LMF .             Drill Floor:  LOG MEASURED FROM
 TVDS.m                  43.00:  TVDSS CORRECTN
 SDEP.m                 341.00:  START DEPTH
 EGL .m                   0.00:  GROUND ELEVATION
 WDMS.m                 169.80:  WD ELEV
 AGAP.m                  43.00:  AIR GAP
 EPD .m                   0.00:  ELEVATION
 APD .m                  43.00:  DEPTH ABOVE PD
 LATI.deg                40.13:  LATITUDE
 LONG.deg                51.22:  LONGITUDE
 UTMY.m             4443793.85:  UTM Y
 UTMX.m              519005.06:  UTM X
 WHEW.m                 -11.57:  WELL HEAD E/W
 WHNS.m                   8.57:  WELL HEAD N/S
 VSEW.m                 -11.57:  VERT SEC E/W
 VSNS.m                   8.57:  VERT SEC N/S
 DFWL.m                   0.00:  DISTANCE FWL
 DFSL.m                   0.00:  DISTANCE FSL
 VSDR.deg               299.34:  VERT SEC DIRECT
 GVFD.g                   1.00:  GRAVITY FIELD
 AZTC.deg                 6.36:  AZM TOTAL CORR
 MFLD.nT              50391.00:  MAGNETIC FIELD
 MDIP.deg                59.65:  MAGNETIC DIP
 MDEC.deg                 6.48:  MAGNETIC DECL
 GRDC.deg                 0.12:  GRID CORRECTION
 DEP .m                 334.96:  DEPTH
 TDD .m                1407.26:  TOTAL DEPTH (DRILLER)
 EKB .m                  43.00:  KB ELEVATION
 EDF .m                  43.00:  DF ELEVATION
 TDL .m                 228.00:  TOTAL DEPTH (LOGGER)
 VSC .                       0:  VS TO CLOSURE
 MAGU.                 1854484:  MAGUTM CHECKSUM
~Parameter Information Block
#MNEM.UNIT       Value        Description
#---------     -----------    ---------------------------
 AV  .mps                 4.00:  Ann Velocity 
 AVMX.mps                 4.73:  Max Ann Veloc 
 AZIF.deg               304.48:  Azm, Final 
 BHAT.        Rotary Steerable:  BHA Type 
 BREV.rev            257300.00:  Rev Bit Total 
 BROT.°/30m               0.00:  Build Rotating 
 BS  .in                  8.50:  Bit Size 
 BSZ .in                  8.50:  Bit Size 
 BTPL.psig              589.00:  Bit Press Loss 
 CABU.                      No:  Customer Abuse 
 CGEO.          Mubariz ghayev:  Customer Geo 
 TCS .hr                 64.25:  Time Ciculation Ended 
 CV  .mps                 3.50:  Crit Velocity 
 CVMX.mps                 4.52:  Max Crit Veloc 
 DD1 .             Aziz Aliyev:  Direct Drillr 1 
 DD2 .         Intigam Rahimov:  Direct Drillr 2 
 DD3 .          Rashad Habibov:  Direct Drillr 3 
 DDSV.               Geo-Pilot:  DD Service 
 DEFF.%                  98.00:  % Det Eff 
 DLRX.°/30m               0.00:  Dogleg Rot Max 
 DLSO.°/30m               0.00:  Dogleg Oriented 
 DLSX.°/30m               0.00:  Dogleg Str Max 
 DRET.      10.45.04 08-May-21:  Drill End Time 
 DRST.      03.30.04 04-May-21:  Drill Start Tim 
 DTIM.hr                 14.97:  Time Drilling 
 EDEP.m                4640.01:  End Depth 
 ENG1.         Dail Mahammadov:  Engineer 1 
 ENG2.           Eldar Hajiyev:  Engineer 2 
 ENG3.       Bakhtiar Jabbarli:  Engineer 3 
 ENG4.       Natik Hasanagayev:  Engineer 4 
 ETIM.      09.30.04 14-May-21:  End Time 
 FLOI.gpm               460.00:  Flow In 
 FLON.gpm               200.00:  Flow In Min 
 FLOS.cptm                0.00:  Fluid Loss 
 FLOX.gpm               505.00:  Flow In Max 
 HFLO.                      No:  High Flow 
 HPRE.                      No:  High Pressure 
 HTEM.                      No:  High Temp 
 HYDO.m                   1.80:  Hydro Offset 
 IFIN.deg                66.71:  Inc, Final 
 IMAX.deg                67.03:  Inc Max 
 IMIN.deg                66.63:  Inc Min 
 IMND.m                4550.58:  Inc Min Depth 
 IMXD.m                4439.01:  Inc Max Depth 
 JARR.                      No:  Jarring 
 LETM.      10.45.04 08-May-21:  Log End Time 
 LOST.hr                     0:  Lost Rig Time 
 LSTM.      03.30.04 04-May-21:  Log Start Time 
 MDCL.ppm             37000.00:  Mud Chlorides 
 MDES.     Inversion Oil/Synthetic:  Mud Desc 
 DFD .sg                  1.38:  Mud Density 
 MDMN.sg                  1.35:  Dens Mud Min 
 MDMX.sg                  1.40:  Dens Mud Max 
 MOIL.                   57.40:  Run Mud Oil % 
 MOWR.                   70:30:  Run Mud OWR 
 MSND.                    0.00:  Run Mud Sand % 
 MSOL.                   18.00:  Run Mud Solids% 
 DFV .spqt               71.00:  Mud Viscosity 
 MWOD.in                  6.75:  MWD Tool OD 
 MWSI.                      No:  Serv Intrp, MWD 
 OTIM.hr                242.76:  Time Operating 
 PCON.           Look Like New:  Pad Condition 
 PMAX.psia            12183.92:  Press Op, Max 
 PV  .cP                 27.00:  Mud PV 
 RUN .                    1300:  Run Number 
 ROPA.m/hr               15.00:  ROP Avg 
 ROPN.m/hr                9.00:  ROP Min 
 ROPX.m/hr               19.00:  ROP Max 
 RPMA.rpm               120.00:  RPM Surface Avg 
 RPMN.rpm               100.00:  RPM Surface Min 
 RPMX.rpm               120.00:  RPM Surface Max 
 RRUN.                    1300:  Rig Run Number 
 RTIM.hr                  5.00:  Time Reaming 
 SAZI.deg               304.73:  Azm, Start 
 SDEP.m                4412.01:  Start Depth 
 SIDD.                      No:  Serv Intrp, DD 
 SINC.deg                66.82:  Inc, Start 
 SPPA.psig             2800.00:  SPP Avg 
 SPPN.psig             2610.00:  SPP Min 
 SPPX.psig             3100.00:  SPP Max 
 STIM.      03.30.00 04-May-21:  Start Time 
 SVCS.                 DD, MWD:  Services 
 SVER.                    9.20:  Sperry Version 
 TDAT.m                 228.00:  Tot Depth Attmp 
 TDDF.                      No:  Trip for DD 
 TDLG.m                 228.00:  Tot Depth Loggd 
 TFF .                      No:  Trip for Fail 
 TQAA.f-kp               15.00:  Torque Abs Avg 
 TQAN.f-kp               12.00:  Torque Abs Min 
 TQAX.f-kp               22.00:  Torque Abs Max 
 TRRT.°/30m               0.00:  Turn Rotating 
 MRT .                    HCIM:  Maximum Recorded Temperature 
 TTMX.degC               90.20:  Max Tool Temp 
 VS01.                90627813:  Virtual Str1 SN 
 VS02.                90634712:  Virtual Str2 SN 
 VS03.                90643410:  Virtual Str3 SN 
 VS04.                90634712:  Virtual Str4 SN 
 WBMN.klb                 9.00:  WOB Min 
 WITN.        Elmaddin Rahimov:  Customer Rep 
 WITN.         Haytham Mostafa:  Customer Rep 2 
 WOBA.klb                15.00:  WOB Avg 
 WOBX.klb                23.00:  WOB Max 
 YP  .lhf2               29.00:  Yield Point 
~Curve Information Block
#MNEM.UNIT                 API CODE     Curve Description
#---------               -----------    ---------------------------
 TIME.HHMMSS            00 000 000 000:  GT Time & Date
 GTDEPTH.m              00 000 000 000:  GT Depth
 GTPQH.psia             00 000 000 000:  GT HR Quartz Pressure
 GTTQ.degC              00 000 000 000:  GT Quartz Temperature
 GTTN.NONE              00 000 000 000:  GT Test Number
 GTET.sec               00 000 000 000:  GT Elapsed Test Time
 GTTVD.m                00 000 000 000:  GT True Vertical Depth
#Other Information
#
#WARRANTY: Halliburton will use its best efforts to furnish customers with 
#accurate information and interpretations that are part of, and incident to, the services 
#provided.  However, Halliburton cannot and does not warrant the accuracy 
#or correctness of such information and interpretations.  Under no circumstances should any 
#such information or interpretation be relied upon as the sole basis for any drilling, 
#completion, production, or financial decision or any procedure involving any risk to the 
#safety of any drilling venture, drilling rig or its crew or any other third party.  The 
#Customer has full responsibility for all drilling, completion and production operation.  
#Halliburton makes no representations or warranties, either expressed or 
#implied, including, but not limited to, the implied warranties of merchantability or fitness 
#for a particular purpose, with respect to the services rendered.  In no event will 
#Halliburton be liable for failure to obtain any particular results or for 
#any damages, including, but not limited to, indirect, special or consequential damages, 
#resulting from the use of any information or interpretation provided by Halliburton.
#
~A           TIME           GTDEPTH  GTPQH  GTTQ  GTTN   GTET   GTTVD  
# ...
   00:32:08.411.10-May-2021 4497.51 6563.62 60.57 18.00 474.80 2971.13
   00:32:08.611.10-May-2021 4497.51 6560.72 60.57 18.00 475.00 2971.13
   00:32:08.811.10-May-2021 4497.51 6562.83 60.57 18.00 475.20 2971.13
   00:32:09.011.10-May-2021 4497.51 6562.83 60.57 18.00 475.40 2971.13
   00:32:09.211.10-May-2021 4497.51 6562.83 60.57 18.00 475.60 2971.13
   00:32:09.411.10-May-2021 4497.51 6562.50 60.56 18.00 475.80 2971.13
   00:32:09.611.10-May-2021 4497.51 6562.16 60.56 18.00 476.00 2971.13
   00:32:09.811.10-May-2021 4497.51 6559.44 60.56 18.00 476.20 2971.13
   00:32:10.011.10-May-2021 4497.51 6559.44 60.56 18.00 476.40 2971.13
   00:32:10.212.10-May-2021 4497.51 6558.07 60.56 18.00 476.60 2971.13
   00:32:10.412.10-May-2021 4497.51 6558.26 60.56 18.00 476.80 2971.13
   00:32:10.612.10-May-2021 4497.51 6558.19 60.56 18.00 477.00 2971.13
   00:32:10.812.10-May-2021 4497.51 6558.12 60.56 18.00 477.20 2971.13
   00:32:11.012.10-May-2021 4497.51 6558.12 60.56 18.00 477.40 2971.13
   00:32:11.212.10-May-2021 4497.51 6557.61 60.56 18.00 477.60 2971.13
   00:32:11.412.10-May-2021 4497.51 6557.88 60.56 18.00 477.80 2971.13
   00:32:11.612.10-May-2021 4497.51 6565.52 60.56 18.00 478.00 2971.13
   00:32:11.812.10-May-2021 4497.51 6560.57 60.56 18.00 478.20 2971.13
   00:32:12.012.10-May-2021 4497.51 6560.57 60.56 18.00 478.40 2971.13
   00:32:12.212.10-May-2021 4497.51 6561.68 60.56 18.00 478.60 2971.13
   00:32:12.413.10-May-2021 4497.51 6559.23 60.56 18.00 478.80 2971.13
   00:32:12.613.10-May-2021 4497.51 6558.55 60.56 18.00 479.00 2971.13
   00:32:12.813.10-May-2021 4497.51 6557.66 60.56 18.00 479.21 2971.13
   00:32:13.013.10-May-2021 4497.51 6557.66 60.56 18.00 479.41 2971.13
   00:32:13.213.10-May-2021 4497.51 6557.61 60.56 18.00 479.61 2971.13
   00:32:13.413.10-May-2021 4497.51 6557.62 60.56 18.00 479.81 2971.13
   00:32:13.613.10-May-2021 4497.51 6556.96 60.56 18.00 480.01 2971.13
   00:32:13.813.10-May-2021 4497.51 6556.96 60.56 18.00 480.21 2971.13
   00:32:14.013.10-May-2021 4497.51 6556.96 60.56 18.00 480.41 2971.13
   00:32:14.213.10-May-2021 4497.51 6557.39 60.56 18.00 480.61 2971.13
   00:32:14.413.10-May-2021 4497.51 6564.03 60.56 18.00 480.81 2971.13
   00:32:14.613.10-May-2021 4497.51 6561.33 60.56 18.00 481.01 2971.13
   00:32:14.814.10-May-2021 4497.51 6563.76 60.55 18.00 481.21 2971.13
   00:32:15.014.10-May-2021 4497.51 6563.76 60.55 18.00 481.41 2971.13
   00:32:15.214.10-May-2021 4497.51 6558.28 60.55 18.00 481.61 2971.13
   00:32:15.414.10-May-2021 4497.51 6566.40 60.55 18.00 481.81 2971.13
   00:32:15.614.10-May-2021 4497.51 6560.63 60.55 18.00 482.01 2971.13
   00:32:15.814.10-May-2021 4497.51 6563.48 60.55 18.00 482.21 2971.13
   00:32:16.014.10-May-2021 4497.51 6563.48 60.55 18.00 482.41 2971.13
   00:32:16.214.10-May-2021 4497.51 6564.94 60.55 18.00 482.61 2971.13
   00:32:16.414.10-May-2021 4497.51 6562.79 60.55 18.00 482.81 2971.13
   00:32:16.614.10-May-2021 4497.51 6560.39 60.55 18.00 483.01 2971.13
   00:32:16.814.10-May-2021 4497.51 6563.98 60.55 18.00 483.21 2971.13
   00:32:17.014.10-May-2021 4497.51 6563.98 60.55 18.00 483.41 2971.13
   00:32:17.215.10-May-2021 4497.51 6562.59 60.55 18.00 483.61 2971.13
   00:32:17.415.10-May-2021 4497.51 6563.80 60.55 18.00 483.81 2971.13
   00:32:17.615.10-May-2021 4497.51 6557.41 60.55 18.00 484.01 2971.13
   00:32:17.815.10-May-2021 4497.51 6558.20 60.55 18.00 484.21 2971.13
   00:32:18.015.10-May-2021 4497.51 6558.20 60.55 18.00 484.41 2971.13
   00:32:18.215.10-May-2021 4497.51 6557.50 60.55 18.00 484.61 2971.13
   00:32:18.415.10-May-2021 4497.51 6557.16 60.55 18.00 484.81 2971.13
   00:32:18.615.10-May-2021 4497.51 6557.19 60.55 18.00 485.01 2971.13
   00:32:18.815.10-May-2021 4497.51 6556.73 60.55 18.00 485.21 2971.13
   00:32:19.015.10-May-2021 4497.51 6556.73 60.55 18.00 485.41 2971.13
   00:32:19.215.10-May-2021 4497.51 6556.76 60.55 18.00 485.61 2971.13
   00:32:19.416.10-May-2021 4497.51 6558.89 60.55 18.00 485.81 2971.13
   00:32:19.616.10-May-2021 4497.51 6564.07 60.55 18.00 486.01 2971.13
   00:32:19.816.10-May-2021 4497.51 6562.01 60.54 18.00 486.21 2971.13
   00:32:20.016.10-May-2021 4497.51 6562.01 60.54 18.00 486.41 2971.13
   00:32:20.216.10-May-2021 4497.51 6557.61 60.54 18.00 486.61 2971.13
   00:32:20.416.10-May-2021 4497.51 6557.78 60.54 18.00 486.81 2971.13
   00:32:20.616.10-May-2021 4497.51 6558.28 60.54 18.00 487.01 2971.13
   00:32:20.816.10-May-2021 4497.51 6557.74 60.54 18.00 487.21 2971.13
   00:32:21.016.10-May-2021 4497.51 6557.74 60.54 18.00 487.41 2971.13
   00:32:21.216.10-May-2021 4497.51 6557.36 60.54 18.00 487.61 2971.13
   00:32:21.416.10-May-2021 4497.51 6557.08 60.54 18.00 487.81 2971.13
   00:32:21.616.10-May-2021 4497.51 6556.93 60.54 18.00 488.01 2971.13
   00:32:21.817.10-May-2021 4497.51 6558.80 60.54 18.00 488.21 2971.13
   00:32:22.017.10-May-2021 4497.51 6558.80 60.54 18.00 488.41 2971.13
   00:32:22.217.10-May-2021 4497.51 6565.97 60.54 18.00 488.61 2971.13
   00:32:22.417.10-May-2021 4497.51 6560.91 60.54 18.00 488.81 2971.13
   00:32:22.617.10-May-2021 4497.51 6561.97 60.54 18.00 489.01 2971.13
   00:32:22.817.10-May-2021 4497.51 6561.92 60.54 18.00 489.21 2971.13
   00:32:23.017.10-May-2021 4497.51 6561.92 60.54 18.00 489.41 2971.13
   00:32:23.217.10-May-2021 4497.51 6561.26 60.54 18.00 489.61 2971.13
   00:32:23.417.10-May-2021 4497.51 6565.52 60.54 18.00 489.81 2971.13
   00:32:23.617.10-May-2021 4497.51 6562.84 60.54 18.00 490.01 2971.13
   00:32:23.817.10-May-2021 4497.51 6563.61 60.54 18.00 490.21 2971.13
   00:32:24.017.10-May-2021 4497.51 6563.61 60.54 18.00 490.41 2971.13
   00:32:24.218.10-May-2021 4497.51 6560.87 60.54 18.00 490.61 2971.13
   00:32:24.418.10-May-2021 4497.51 6562.75 60.54 18.00 490.81 2971.13
   00:32:24.618.10-May-2021 4497.51 6562.43 60.54 18.00 491.01 2971.13
   00:32:24.818.10-May-2021 4497.51 6568.24 60.54 18.00 491.21 2971.13
   00:32:25.018.10-May-2021 4497.51 6568.24 60.54 18.00 491.41 2971.13
   00:32:25.218.10-May-2021 4497.51 6563.78 60.53 18.00 491.61 2971.13
   00:32:25.418.10-May-2021 4497.51 6559.09 60.53 18.00 491.81 2971.13
   00:32:25.618.10-May-2021 4497.51 6559.88 60.53 18.00 492.01 2971.13
   00:32:25.818.10-May-2021 4497.51 6558.87 60.53 18.00 492.21 2971.13
   00:32:26.018.10-May-2021 4497.51 6558.87 60.53 18.00 492.41 2971.13
   00:32:26.218.10-May-2021 4497.51 6557.61 60.53 18.00 492.61 2971.13
   00:32:26.419.10-May-2021 4497.51 6557.80 60.53 18.00 492.81 2971.13
   00:32:26.619.10-May-2021 4497.51 6557.20 60.53 18.00 493.01 2971.13
