~Version Information
 VERS.                  2.0:   CWLS log ASCII Standard -VERSION 2.0
 WRAP.                   NO:   One line per depth step
~Well Information Block
#MNEM.UNIT     VALUE/NAME     DESCRIPTION
#---------     -----------    ---------------------------
 STRT.S             00:47:21 09-May-21: START TIME 00:47:21 09-May-21
 STOP.S             00:54:19 09-May-21: STOP TIME  00:54:19 09-May-21
 STEP.S                   0.00: STEP TIME
 NULL.                 -999.25: NULL VALUE
 PROV.                    Baku:  PROVINCE
 STAT.                    Baku:  STATE NAME
 SON .        AZ-XX-0906571588:  JOB NUMBER
 WTYP.                Deviated:  WELL TYPE
 COMP.     BP Exploration (Caspian Sea) ltd:  COMPANY
 BASE.              Azerbaijan:  LOGGING EQUIPMENT BASE LOCATION
 REGN.                   EESSA:  REGION
 CTRY.              Azerbaijan:  COUNTRY NAME
 FLD .                     ACG:  FIELD NAME
 WELL.                     J28:  WELL NAME
 RIG .             West Chirag:  RIG NAME
 DMF .             Drill Floor:  DRILL MEAS FROM
 PDAT.       Caspian Sea Level:  PERMANENT DATUM
 HPTY.       Minimum Curvature:  HOLE POS TYPE
 MDS .        Operator Entered:  MAG DATA SOURCE
 NREF.                    Grid:  NORTH REFERENCE
 SRVC.          TURAN DRILLING:  CONTRACTOR
 JOBN.        AZ-XX-0906571588:  JOB TICKET NUMB
 DCON.     Halliburton Sperry Drilling:  DIRECTNL CONTR
 STIM.      00.44.00 11-Feb-21:  START TIME
 DATE.      00.00.00 05-May-21:  END TIME
 SPUD.               13-Feb-21:  SPUD DATE
 MWDS.                    Baku:  MWD SHOP
 DOE .                     N/A:  DOE NUMBER
 UNIT.                     N/A:  LOGGING EQUIPMENT ID
 UWI .                     N/A:  UNIQUE WELL IDENTIFIER
 API .                     N/A:  API NUMBER
 CNTY.                        :  COUNTY
 LOC .                        :  LOCATION
 LMF .             Drill Floor:  LOG MEASURED FROM
 TVDS.m                  43.00:  TVDSS CORRECTN
 SDEP.m                 341.00:  START DEPTH
 EGL .m                   0.00:  GROUND ELEVATION
 WDMS.m                 169.80:  WD ELEV
 AGAP.m                  43.00:  AIR GAP
 EPD .m                   0.00:  ELEVATION
 APD .m                  43.00:  DEPTH ABOVE PD
 LATI.deg                40.13:  LATITUDE
 LONG.deg                51.22:  LONGITUDE
 UTMY.m             4443793.85:  UTM Y
 UTMX.m              519005.06:  UTM X
 WHEW.m                 -11.57:  WELL HEAD E/W
 WHNS.m                   8.57:  WELL HEAD N/S
 VSEW.m                 -11.57:  VERT SEC E/W
 VSNS.m                   8.57:  VERT SEC N/S
 DFWL.m                   0.00:  DISTANCE FWL
 DFSL.m                   0.00:  DISTANCE FSL
 VSDR.deg               299.34:  VERT SEC DIRECT
 GVFD.g                   1.00:  GRAVITY FIELD
 AZTC.deg                 6.36:  AZM TOTAL CORR
 MFLD.nT              50391.00:  MAGNETIC FIELD
 MDIP.deg                59.65:  MAGNETIC DIP
 MDEC.deg                 6.48:  MAGNETIC DECL
 GRDC.deg                 0.12:  GRID CORRECTION
 DEP .m                 334.96:  DEPTH
 TDD .m                1407.26:  TOTAL DEPTH (DRILLER)
 EKB .m                  43.00:  KB ELEVATION
 EDF .m                  43.00:  DF ELEVATION
 TDL .m                 228.00:  TOTAL DEPTH (LOGGER)
 VSC .                       0:  VS TO CLOSURE
 MAGU.                 1854484:  MAGUTM CHECKSUM
~Parameter Information Block
#MNEM.UNIT       Value        Description
#---------     -----------    ---------------------------
 AV  .mps                 4.00:  Ann Velocity 
 AVMX.mps                 4.73:  Max Ann Veloc 
 AZIF.deg               304.48:  Azm, Final 
 BHAT.        Rotary Steerable:  BHA Type 
 BREV.rev            257300.00:  Rev Bit Total 
 BROT.°/30m               0.00:  Build Rotating 
 BS  .in                  8.50:  Bit Size 
 BSZ .in                  8.50:  Bit Size 
 BTPL.psig              589.00:  Bit Press Loss 
 CABU.                      No:  Customer Abuse 
 CGEO.          Mubariz ghayev:  Customer Geo 
 COMM.                     ­R:  Run Comments 1 
 TCS .hr                 64.25:  Time Ciculation Ended 
 CV  .mps                 3.50:  Crit Velocity 
 CVMX.mps                 4.52:  Max Crit Veloc 
 DD1 .             Aziz Aliyev:  Direct Drillr 1 
 DD2 .         Intigam Rahimov:  Direct Drillr 2 
 DD3 .          Rashad Habibov:  Direct Drillr 3 
 DDSV.               Geo-Pilot:  DD Service 
 DEFF.%                  98.00:  % Det Eff 
 DLRX.°/30m               0.00:  Dogleg Rot Max 
 DLSO.°/30m               0.00:  Dogleg Oriented 
 DLSX.°/30m               0.00:  Dogleg Str Max 
 DRET.      10.45.04 08-May-21:  Drill End Time 
 DRST.      03.30.04 04-May-21:  Drill Start Tim 
 DTIM.hr                 14.97:  Time Drilling 
 EDEP.m                4640.01:  End Depth 
 ENG1.         Dail Mahammadov:  Engineer 1 
 ENG2.           Eldar Hajiyev:  Engineer 2 
 ENG3.       Bakhtiar Jabbarli:  Engineer 3 
 ENG4.       Natik Hasanagayev:  Engineer 4 
 ETIM.      09.30.04 14-May-21:  End Time 
 FLOI.gpm               460.00:  Flow In 
 FLON.gpm               200.00:  Flow In Min 
 FLOS.cptm                0.00:  Fluid Loss 
 FLOX.gpm               505.00:  Flow In Max 
 HFLO.                      No:  High Flow 
 HPRE.                      No:  High Pressure 
 HTEM.                      No:  High Temp 
 HYDO.m                   1.80:  Hydro Offset 
 IFIN.deg                66.71:  Inc, Final 
 IMAX.deg                67.03:  Inc Max 
 IMIN.deg                66.63:  Inc Min 
 IMND.m                4550.58:  Inc Min Depth 
 IMXD.m                4439.01:  Inc Max Depth 
 JARR.                      No:  Jarring 
 LETM.      10.45.04 08-May-21:  Log End Time 
 LOST.hr                     0:  Lost Rig Time 
 LSTM.      03.30.04 04-May-21:  Log Start Time 
 MDCL.ppm             37000.00:  Mud Chlorides 
 MDES.     Inversion Oil/Synthetic:  Mud Desc 
 DFD .sg                  1.38:  Mud Density 
 MDMN.sg                  1.35:  Dens Mud Min 
 MDMX.sg                  1.40:  Dens Mud Max 
 MOIL.                   57.40:  Run Mud Oil % 
 MOWR.                   70:30:  Run Mud OWR 
 MSND.                    0.00:  Run Mud Sand % 
 MSOL.                   18.00:  Run Mud Solids% 
 DFV .spqt               71.00:  Mud Viscosity 
 MWOD.in                  6.75:  MWD Tool OD 
 MWSI.                      No:  Serv Intrp, MWD 
 OTIM.hr                242.76:  Time Operating 
 PCON.           Look Like New:  Pad Condition 
 PMAX.psia            12183.92:  Press Op, Max 
 PV  .cP                 27.00:  Mud PV 
 RUN .                    1300:  Run Number 
 ROPA.m/hr               15.00:  ROP Avg 
 ROPN.m/hr                9.00:  ROP Min 
 ROPX.m/hr               19.00:  ROP Max 
 RPMA.rpm               120.00:  RPM Surface Avg 
 RPMN.rpm               100.00:  RPM Surface Min 
 RPMX.rpm               120.00:  RPM Surface Max 
 RRUN.                    1300:  Rig Run Number 
 RTIM.hr                  5.00:  Time Reaming 
 SAZI.deg               304.73:  Azm, Start 
 SDEP.m                4412.01:  Start Depth 
 SIDD.                      No:  Serv Intrp, DD 
 SINC.deg                66.82:  Inc, Start 
 SPPA.psig             2800.00:  SPP Avg 
 SPPN.psig             2610.00:  SPP Min 
 SPPX.psig             3100.00:  SPP Max 
 STIM.      03.30.00 04-May-21:  Start Time 
 SVCS.                 DD, MWD:  Services 
 SVER.                    9.20:  Sperry Version 
 TDAT.m                 228.00:  Tot Depth Attmp 
 TDDF.                      No:  Trip for DD 
 TDLG.m                 228.00:  Tot Depth Loggd 
 TFF .                      No:  Trip for Fail 
 TQAA.f-kp               15.00:  Torque Abs Avg 
 TQAN.f-kp               12.00:  Torque Abs Min 
 TQAX.f-kp               22.00:  Torque Abs Max 
 TRRT.°/30m               0.00:  Turn Rotating 
 MRT .                    HCIM:  Maximum Recorded Temperature 
 TTMX.degC               90.20:  Max Tool Temp 
 VS01.                90627813:  Virtual Str1 SN 
 VS02.                90634712:  Virtual Str2 SN 
 VS03.                90643410:  Virtual Str3 SN 
 VS04.                90634712:  Virtual Str4 SN 
 WBMN.klb                 9.00:  WOB Min 
 WITN.        Elmaddin Rahimov:  Customer Rep 
 WITN.         Haytham Mostafa:  Customer Rep 2 
 WOBA.klb                15.00:  WOB Avg 
 WOBX.klb                23.00:  WOB Max 
 YP  .lhf2               29.00:  Yield Point 
~Curve Information Block
#MNEM.UNIT                 API CODE     Curve Description
#---------               -----------    ---------------------------
 TIME.HHMMSS            00 000 000 000:  GT Time & Date
 GTDEPTH.m              00 000 000 000:  GT Depth
 GTPQH.psia             00 000 000 000:  GT HR Quartz Pressure
 GTTQ.degC              00 000 000 000:  GT Quartz Temperature
 GTTN.NONE              00 000 000 000:  GT Test Number
 GTET.sec               00 000 000 000:  GT Elapsed Test Time
 GTTVD.m                00 000 000 000:  GT True Vertical Depth
#Other Information
#
#WARRANTY: Halliburton will use its best efforts to furnish customers with 
#accurate information and interpretations that are part of, and incident to, the services 
#provided.  However, Halliburton cannot and does not warrant the accuracy 
#or correctness of such information and interpretations.  Under no circumstances should any 
#such information or interpretation be relied upon as the sole basis for any drilling, 
#completion, production, or financial decision or any procedure involving any risk to the 
#safety of any drilling venture, drilling rig or its crew or any other third party.  The 
#Customer has full responsibility for all drilling, completion and production operation.  
#Halliburton makes no representations or warranties, either expressed or 
#implied, including, but not limited to, the implied warranties of merchantability or fitness 
#for a particular purpose, with respect to the services rendered.  In no event will 
#Halliburton be liable for failure to obtain any particular results or for 
#any damages, including, but not limited to, indirect, special or consequential damages, 
#resulting from the use of any information or interpretation provided by Halliburton.
#
~A           TIME           GTDEPTH  GTPQH  GTTQ  GTTN  GTET   GTTVD  
# ...
   00:50:48.302.09-May-2021 4512.01 3259.81 67.55 8.00 207.08 2976.83
   00:50:48.502.09-May-2021 4512.01 3259.81 67.55 8.00 207.28 2976.83
   00:50:48.702.09-May-2021 4512.01 3259.82 67.55 8.00 207.48 2976.83
   00:50:48.902.09-May-2021 4512.01 3259.82 67.55 8.00 207.68 2976.83
   00:50:49.102.09-May-2021 4512.01 3259.82 67.55 8.00 207.88 2976.83
   00:50:49.302.09-May-2021 4512.01 3259.81 67.55 8.00 208.08 2976.83
   00:50:49.502.09-May-2021 4512.01 3259.81 67.55 8.00 208.28 2976.83
   00:50:49.702.09-May-2021 4512.01 3259.92 67.55 8.00 208.48 2976.83
   00:50:49.902.09-May-2021 4512.01 3259.76 67.55 8.00 208.68 2976.83
   00:50:50.102.09-May-2021 4512.01 3259.82 67.55 8.00 208.88 2976.83
   00:50:50.303.09-May-2021 4512.01 3259.84 67.55 8.00 209.08 2976.83
   00:50:50.503.09-May-2021 4512.01 3259.84 67.55 8.00 209.28 2976.83
   00:50:50.703.09-May-2021 4512.01 3259.82 67.55 8.00 209.48 2976.83
   00:50:50.903.09-May-2021 4512.01 3259.80 67.55 8.00 209.68 2976.83
   00:50:51.103.09-May-2021 4512.01 3259.82 67.55 8.00 209.88 2976.83
   00:50:51.303.09-May-2021 4512.01 3259.82 67.55 8.00 210.08 2976.83
   00:50:51.503.09-May-2021 4512.01 3259.82 67.55 8.00 210.28 2976.83
   00:50:51.703.09-May-2021 4512.01 3259.82 67.55 8.00 210.48 2976.83
   00:50:51.903.09-May-2021 4512.01 3259.80 67.55 8.00 210.68 2976.83
   00:50:52.103.09-May-2021 4512.01 3259.77 67.55 8.00 210.88 2976.83
   00:50:52.303.09-May-2021 4512.01 3259.91 67.55 8.00 211.08 2976.83
   00:50:52.503.09-May-2021 4512.01 3259.91 67.55 8.00 211.28 2976.83
   00:50:52.703.09-May-2021 4512.01 3259.84 67.55 8.00 211.48 2976.83
   00:50:52.903.09-May-2021 4512.01 3259.83 67.55 8.00 211.68 2976.83
   00:50:53.104.09-May-2021 4512.01 3259.80 67.55 8.00 211.88 2976.83
   00:50:53.304.09-May-2021 4512.01 3259.77 67.55 8.00 212.08 2976.83
   00:50:53.504.09-May-2021 4512.01 3259.77 67.55 8.00 212.28 2976.83
   00:50:53.704.09-May-2021 4512.01 3259.76 67.55 8.00 212.48 2976.83
   00:50:53.904.09-May-2021 4512.01 3259.81 67.55 8.00 212.68 2976.83
   00:50:54.104.09-May-2021 4512.01 3259.80 67.55 8.00 212.88 2976.83
   00:50:54.304.09-May-2021 4512.01 3259.89 67.55 8.00 213.08 2976.83
   00:50:54.504.09-May-2021 4512.01 3259.89 67.55 8.00 213.28 2976.83
   00:50:54.704.09-May-2021 4512.01 3259.76 67.55 8.00 213.48 2976.83
   00:50:54.904.09-May-2021 4512.01 3259.82 67.55 8.00 213.68 2976.83
   00:50:55.104.09-May-2021 4512.01 3259.80 67.55 8.00 213.88 2976.83
   00:50:55.304.09-May-2021 4512.01 3259.78 67.55 8.00 214.08 2976.83
   00:50:55.504.09-May-2021 4512.01 3259.78 67.55 8.00 214.28 2976.83
   00:50:55.704.09-May-2021 4512.01 3259.76 67.55 8.00 214.48 2976.83
   00:50:55.905.09-May-2021 4512.01 3259.83 67.55 8.00 214.68 2976.83
   00:50:56.105.09-May-2021 4512.01 3259.84 67.55 8.00 214.88 2976.83
   00:50:56.305.09-May-2021 4512.01 3259.81 67.55 8.00 215.08 2976.83
   00:50:56.505.09-May-2021 4512.01 3259.81 67.55 8.00 215.28 2976.83
   00:50:56.705.09-May-2021 4512.01 3259.81 67.55 8.00 215.48 2976.83
   00:50:56.905.09-May-2021 4512.01 3259.81 67.55 8.00 215.68 2976.83
   00:50:57.105.09-May-2021 4512.01 3259.81 67.55 8.00 215.88 2976.83
   00:50:57.305.09-May-2021 4512.01 3259.83 67.55 8.00 216.08 2976.83
   00:50:57.505.09-May-2021 4512.01 3259.83 67.55 8.00 216.28 2976.83
   00:50:57.705.09-May-2021 4512.01 3259.81 67.55 8.00 216.48 2976.83
   00:50:57.905.09-May-2021 4512.01 3259.78 67.55 8.00 216.68 2976.83
   00:50:58.105.09-May-2021 4512.01 3259.91 67.55 8.00 216.88 2976.83
   00:50:58.305.09-May-2021 4512.01 3259.76 67.55 8.00 217.08 2976.83
   00:50:58.505.09-May-2021 4512.01 3259.76 67.55 8.00 217.28 2976.83
   00:50:58.706.09-May-2021 4512.01 3259.84 67.55 8.00 217.48 2976.83
   00:50:58.906.09-May-2021 4512.01 3259.79 67.55 8.00 217.68 2976.83
   00:50:59.106.09-May-2021 4512.01 3259.82 67.55 8.00 217.88 2976.83
   00:50:59.306.09-May-2021 4512.01 3259.80 67.55 8.00 218.08 2976.83
   00:50:59.506.09-May-2021 4512.01 3259.80 67.55 8.00 218.28 2976.83
   00:50:59.706.09-May-2021 4512.01 3259.82 67.55 8.00 218.48 2976.83
   00:50:59.906.09-May-2021 4512.01 3259.81 67.55 8.00 218.68 2976.83
   00:51:00.106.09-May-2021 4512.01 3259.82 67.55 8.00 218.88 2976.83
   00:51:00.306.09-May-2021 4512.01 3259.80 67.55 8.00 219.08 2976.83
   00:51:00.506.09-May-2021 4512.01 3259.80 67.55 8.00 219.28 2976.83
   00:51:00.706.09-May-2021 4512.01 3259.91 67.55 8.00 219.48 2976.83
   00:51:00.906.09-May-2021 4512.01 3259.75 67.55 8.00 219.68 2976.83
   00:51:01.106.09-May-2021 4512.01 3259.83 67.55 8.00 219.88 2976.83
   00:51:01.306.09-May-2021 4512.01 3259.85 67.55 8.00 220.08 2976.83
   00:51:01.507.09-May-2021 4512.01 3259.85 67.55 8.00 220.28 2976.83
   00:51:01.707.09-May-2021 4512.01 3259.78 67.55 8.00 220.48 2976.83
   00:51:01.907.09-May-2021 4512.01 3259.89 67.55 8.00 220.68 2976.83
   00:51:02.107.09-May-2021 4512.01 3259.76 67.55 8.00 220.88 2976.83
   00:51:02.307.09-May-2021 4512.01 3259.82 67.55 8.00 221.08 2976.83
   00:51:02.507.09-May-2021 4512.01 3259.82 67.55 8.00 221.28 2976.83
   00:51:02.707.09-May-2021 4512.01 3259.90 67.55 8.00 221.48 2976.83
   00:51:02.907.09-May-2021 4512.01 3259.75 67.55 8.00 221.68 2976.83
   00:51:03.107.09-May-2021 4512.01 3259.82 67.55 8.00 221.88 2976.83
   00:51:03.307.09-May-2021 4512.01 3259.84 67.55 8.00 222.08 2976.83
   00:51:03.507.09-May-2021 4512.01 3259.84 67.55 8.00 222.28 2976.83
   00:51:03.707.09-May-2021 4512.01 3259.77 67.55 8.00 222.48 2976.83
   00:51:03.907.09-May-2021 4512.01 3259.88 67.55 8.00 222.68 2976.83
   00:51:04.108.09-May-2021 4512.01 3259.76 67.55 8.00 222.88 2976.83
   00:51:04.308.09-May-2021 4512.01 3259.82 67.55 8.00 223.08 2976.83
   00:51:04.508.09-May-2021 4512.01 3259.82 67.55 8.00 223.28 2976.83
   00:51:04.708.09-May-2021 4512.01 3259.80 67.55 8.00 223.48 2976.83
   00:51:04.908.09-May-2021 4512.01 3259.81 67.55 8.00 223.68 2976.83
   00:51:05.108.09-May-2021 4512.01 3259.81 67.55 8.00 223.88 2976.83
   00:51:05.308.09-May-2021 4512.01 3259.81 67.55 8.00 224.08 2976.83
   00:51:05.508.09-May-2021 4512.01 3259.81 67.55 8.00 224.28 2976.83
   00:51:05.708.09-May-2021 4512.01 3259.82 67.55 8.00 224.48 2976.83
   00:51:05.908.09-May-2021 4512.01 3259.80 67.55 8.00 224.68 2976.83
   00:51:06.108.09-May-2021 4512.01 3259.81 67.55 8.00 224.88 2976.83
   00:51:06.308.09-May-2021 4512.01 3259.77 67.55 8.00 225.08 2976.83
   00:51:06.508.09-May-2021 4512.01 3259.77 67.55 8.00 225.28 2976.83
   00:51:06.708.09-May-2021 4512.01 3259.75 67.55 8.00 225.48 2976.83
   00:51:06.909.09-May-2021 4512.01 3259.82 67.55 8.00 225.68 2976.83
   00:51:07.109.09-May-2021 4512.01 3259.83 67.55 8.00 225.88 2976.83
   00:51:07.309.09-May-2021 4512.01 3259.79 67.55 8.00 226.08 2976.83
   00:51:07.509.09-May-2021 4512.01 3259.79 67.55 8.00 226.28 2976.83
   00:51:07.709.09-May-2021 4512.01 3259.80 67.55 8.00 226.48 2976.83
   00:51:07.909.09-May-2021 4512.01 3259.80 67.55 8.00 226.68 2976.83
   00:51:08.109.09-May-2021 4512.01 3259.81 67.55 8.00 226.88 2976.83
   00:51:08.309.09-May-2021 4512.01 3259.82 67.55 8.00 227.08 2976.83
   00:51:08.509.09-May-2021 4512.01 3259.82 67.55 8.00 227.28 2976.83
   00:51:08.709.09-May-2021 4512.01 3259.80 67.55 8.00 227.48 2976.83
   00:51:08.909.09-May-2021 4512.01 3259.76 67.55 8.00 227.68 2976.83
   00:51:09.109.09-May-2021 4512.01 3259.90 67.55 8.00 227.88 2976.83
   00:51:09.309.09-May-2021 4512.01 3259.76 67.55 8.00 228.08 2976.83
   00:51:09.509.09-May-2021 4512.01 3259.76 67.55 8.00 228.28 2976.83
   00:51:09.710.09-May-2021 4512.01 3259.83 67.55 8.00 228.48 2976.83
   00:51:09.910.09-May-2021 4512.01 3259.78 67.55 8.00 228.68 2976.83
   00:51:10.110.09-May-2021 4512.01 3259.77 67.55 8.00 228.88 2976.83
   00:51:10.310.09-May-2021 4512.01 3259.89 67.55 8.00 229.08 2976.83
   00:51:10.510.09-May-2021 4512.01 3259.89 67.55 8.00 229.28 2976.83
   00:51:10.710.09-May-2021 4512.01 3259.81 67.55 8.00 229.48 2976.83
   00:51:10.910.09-May-2021 4512.01 3259.80 67.55 8.00 229.68 2976.83
   00:51:11.110.09-May-2021 4512.01 3259.89 67.55 8.00 229.88 2976.83
