~Version Information
 VERS.                  2.0:   CWLS log ASCII Standard -VERSION 2.0
 WRAP.                   NO:   One line per depth step
~Well Information Block
#MNEM.UNIT     VALUE/NAME     DESCRIPTION
#---------     -----------    ---------------------------
 STRT.S             20:19:26 08-May-21: START TIME 20:19:26 08-May-21
 STOP.S             20:26:06 08-May-21: STOP TIME  20:26:06 08-May-21
 STEP.S                   0.00: STEP TIME
 NULL.                 -999.25: NULL VALUE
 PROV.                    Baku:  PROVINCE
 STAT.                    Baku:  STATE NAME
 SON .        AZ-XX-0906571588:  JOB NUMBER
 WTYP.                Deviated:  WELL TYPE
 COMP.     BP Exploration (Caspian Sea) ltd:  COMPANY
 BASE.              Azerbaijan:  LOGGING EQUIPMENT BASE LOCATION
 REGN.                   EESSA:  REGION
 CTRY.              Azerbaijan:  COUNTRY NAME
 FLD .                     ACG:  FIELD NAME
 WELL.                     J28:  WELL NAME
 RIG .             West Chirag:  RIG NAME
 DMF .             Drill Floor:  DRILL MEAS FROM
 PDAT.       Caspian Sea Level:  PERMANENT DATUM
 HPTY.       Minimum Curvature:  HOLE POS TYPE
 MDS .        Operator Entered:  MAG DATA SOURCE
 NREF.                    Grid:  NORTH REFERENCE
 SRVC.          TURAN DRILLING:  CONTRACTOR
 JOBN.        AZ-XX-0906571588:  JOB TICKET NUMB
 DCON.     Halliburton Sperry Drilling:  DIRECTNL CONTR
 STIM.      00.44.00 11-Feb-21:  START TIME
 DATE.      00.00.00 05-May-21:  END TIME
 SPUD.               13-Feb-21:  SPUD DATE
 MWDS.                    Baku:  MWD SHOP
 DOE .                     N/A:  DOE NUMBER
 UNIT.                     N/A:  LOGGING EQUIPMENT ID
 UWI .                     N/A:  UNIQUE WELL IDENTIFIER
 API .                     N/A:  API NUMBER
 CNTY.                        :  COUNTY
 LOC .                        :  LOCATION
 LMF .             Drill Floor:  LOG MEASURED FROM
 TVDS.m                  43.00:  TVDSS CORRECTN
 SDEP.m                 341.00:  START DEPTH
 EGL .m                   0.00:  GROUND ELEVATION
 WDMS.m                 169.80:  WD ELEV
 AGAP.m                  43.00:  AIR GAP
 EPD .m                   0.00:  ELEVATION
 APD .m                  43.00:  DEPTH ABOVE PD
 LATI.deg                40.13:  LATITUDE
 LONG.deg                51.22:  LONGITUDE
 UTMY.m             4443793.85:  UTM Y
 UTMX.m              519005.06:  UTM X
 WHEW.m                 -11.57:  WELL HEAD E/W
 WHNS.m                   8.57:  WELL HEAD N/S
 VSEW.m                 -11.57:  VERT SEC E/W
 VSNS.m                   8.57:  VERT SEC N/S
 DFWL.m                   0.00:  DISTANCE FWL
 DFSL.m                   0.00:  DISTANCE FSL
 VSDR.deg               299.34:  VERT SEC DIRECT
 GVFD.g                   1.00:  GRAVITY FIELD
 AZTC.deg                 6.36:  AZM TOTAL CORR
 MFLD.nT              50391.00:  MAGNETIC FIELD
 MDIP.deg                59.65:  MAGNETIC DIP
 MDEC.deg                 6.48:  MAGNETIC DECL
 GRDC.deg                 0.12:  GRID CORRECTION
 DEP .m                 334.96:  DEPTH
 TDD .m                1407.26:  TOTAL DEPTH (DRILLER)
 EKB .m                  43.00:  KB ELEVATION
 EDF .m                  43.00:  DF ELEVATION
 TDL .m                 228.00:  TOTAL DEPTH (LOGGER)
 VSC .                       0:  VS TO CLOSURE
 MAGU.                 1854484:  MAGUTM CHECKSUM
~Parameter Information Block
#MNEM.UNIT       Value        Description
#---------     -----------    ---------------------------
 AV  .mps                 4.00:  Ann Velocity 
 AVMX.mps                 4.73:  Max Ann Veloc 
 AZIF.deg               304.48:  Azm, Final 
 BHAT.        Rotary Steerable:  BHA Type 
 BREV.rev            257300.00:  Rev Bit Total 
 BROT.°/30m               0.00:  Build Rotating 
 BS  .in                  8.50:  Bit Size 
 BSZ .in                  8.50:  Bit Size 
 BTPL.psig              589.00:  Bit Press Loss 
 CABU.                      No:  Customer Abuse 
 CGEO.          Mubariz ghayev:  Customer Geo 
 COMM.                     $w`:  Run Comments 1 
 TCS .hr                 64.25:  Time Ciculation Ended 
 CV  .mps                 3.50:  Crit Velocity 
 CVMX.mps                 4.52:  Max Crit Veloc 
 DD1 .             Aziz Aliyev:  Direct Drillr 1 
 DD2 .         Intigam Rahimov:  Direct Drillr 2 
 DD3 .          Rashad Habibov:  Direct Drillr 3 
 DDSV.               Geo-Pilot:  DD Service 
 DEFF.%                  98.00:  % Det Eff 
 DLRX.°/30m               0.00:  Dogleg Rot Max 
 DLSO.°/30m               0.00:  Dogleg Oriented 
 DLSX.°/30m               0.00:  Dogleg Str Max 
 DRET.      10.45.04 08-May-21:  Drill End Time 
 DRST.      03.30.04 04-May-21:  Drill Start Tim 
 DTIM.hr                 14.97:  Time Drilling 
 EDEP.m                4640.01:  End Depth 
 ENG1.         Dail Mahammadov:  Engineer 1 
 ENG2.           Eldar Hajiyev:  Engineer 2 
 ENG3.       Bakhtiar Jabbarli:  Engineer 3 
 ENG4.       Natik Hasanagayev:  Engineer 4 
 ETIM.      09.30.04 14-May-21:  End Time 
 FLOI.gpm               460.00:  Flow In 
 FLON.gpm               200.00:  Flow In Min 
 FLOS.cptm                0.00:  Fluid Loss 
 FLOX.gpm               505.00:  Flow In Max 
 HFLO.                      No:  High Flow 
 HPRE.                      No:  High Pressure 
 HTEM.                      No:  High Temp 
 HYDO.m                   1.80:  Hydro Offset 
 IFIN.deg                66.71:  Inc, Final 
 IMAX.deg                67.03:  Inc Max 
 IMIN.deg                66.63:  Inc Min 
 IMND.m                4550.58:  Inc Min Depth 
 IMXD.m                4439.01:  Inc Max Depth 
 JARR.                      No:  Jarring 
 LETM.      10.45.04 08-May-21:  Log End Time 
 LOST.hr                     0:  Lost Rig Time 
 LSTM.      03.30.04 04-May-21:  Log Start Time 
 MDCL.ppm             37000.00:  Mud Chlorides 
 MDES.     Inversion Oil/Synthetic:  Mud Desc 
 DFD .sg                  1.38:  Mud Density 
 MDMN.sg                  1.35:  Dens Mud Min 
 MDMX.sg                  1.40:  Dens Mud Max 
 MOIL.                   57.40:  Run Mud Oil % 
 MOWR.                   70:30:  Run Mud OWR 
 MSND.                    0.00:  Run Mud Sand % 
 MSOL.                   18.00:  Run Mud Solids% 
 DFV .spqt               71.00:  Mud Viscosity 
 MWOD.in                  6.75:  MWD Tool OD 
 MWSI.                      No:  Serv Intrp, MWD 
 OTIM.hr                242.76:  Time Operating 
 PCON.           Look Like New:  Pad Condition 
 PMAX.psia            12183.92:  Press Op, Max 
 PV  .cP                 27.00:  Mud PV 
 RUN .                    1300:  Run Number 
 ROPA.m/hr               15.00:  ROP Avg 
 ROPN.m/hr                9.00:  ROP Min 
 ROPX.m/hr               19.00:  ROP Max 
 RPMA.rpm               120.00:  RPM Surface Avg 
 RPMN.rpm               100.00:  RPM Surface Min 
 RPMX.rpm               120.00:  RPM Surface Max 
 RRUN.                    1300:  Rig Run Number 
 RTIM.hr                  5.00:  Time Reaming 
 SAZI.deg               304.73:  Azm, Start 
 SDEP.m                4412.01:  Start Depth 
 SIDD.                      No:  Serv Intrp, DD 
 SINC.deg                66.82:  Inc, Start 
 SPPA.psig             2800.00:  SPP Avg 
 SPPN.psig             2610.00:  SPP Min 
 SPPX.psig             3100.00:  SPP Max 
 STIM.      03.30.00 04-May-21:  Start Time 
 SVCS.                 DD, MWD:  Services 
 SVER.                    9.20:  Sperry Version 
 TDAT.m                 228.00:  Tot Depth Attmp 
 TDDF.                      No:  Trip for DD 
 TDLG.m                 228.00:  Tot Depth Loggd 
 TFF .                      No:  Trip for Fail 
 TQAA.f-kp               15.00:  Torque Abs Avg 
 TQAN.f-kp               12.00:  Torque Abs Min 
 TQAX.f-kp               22.00:  Torque Abs Max 
 TRRT.°/30m               0.00:  Turn Rotating 
 MRT .                    HCIM:  Maximum Recorded Temperature 
 TTMX.degC               90.20:  Max Tool Temp 
 VS01.                90627813:  Virtual Str1 SN 
 VS02.                90634712:  Virtual Str2 SN 
 VS03.                90643410:  Virtual Str3 SN 
 VS04.                90634712:  Virtual Str4 SN 
 WBMN.klb                 9.00:  WOB Min 
 WITN.        Elmaddin Rahimov:  Customer Rep 
 WITN.         Haytham Mostafa:  Customer Rep 2 
 WOBA.klb                15.00:  WOB Avg 
 WOBX.klb                23.00:  WOB Max 
 YP  .lhf2               29.00:  Yield Point 
~Curve Information Block
#MNEM.UNIT                 API CODE     Curve Description
#---------               -----------    ---------------------------
 TIME.HHMMSS            00 000 000 000:  GT Time & Date
 GTDEPTH.m              00 000 000 000:  GT Depth
 GTPQH.psia             00 000 000 000:  GT HR Quartz Pressure
 GTTQ.degC              00 000 000 000:  GT Quartz Temperature
 GTTN.NONE              00 000 000 000:  GT Test Number
 GTET.sec               00 000 000 000:  GT Elapsed Test Time
 GTTVD.m                00 000 000 000:  GT True Vertical Depth
#Other Information
#
#WARRANTY: Halliburton will use its best efforts to furnish customers with 
#accurate information and interpretations that are part of, and incident to, the services 
#provided.  However, Halliburton cannot and does not warrant the accuracy 
#or correctness of such information and interpretations.  Under no circumstances should any 
#such information or interpretation be relied upon as the sole basis for any drilling, 
#completion, production, or financial decision or any procedure involving any risk to the 
#safety of any drilling venture, drilling rig or its crew or any other third party.  The 
#Customer has full responsibility for all drilling, completion and production operation.  
#Halliburton makes no representations or warranties, either expressed or 
#implied, including, but not limited to, the implied warranties of merchantability or fitness 
#for a particular purpose, with respect to the services rendered.  In no event will 
#Halliburton be liable for failure to obtain any particular results or for 
#any damages, including, but not limited to, indirect, special or consequential damages, 
#resulting from the use of any information or interpretation provided by Halliburton.
#
~A           TIME           GTDEPTH  GTPQH  GTTQ  GTTN  GTET   GTTVD  
# ...
   20:25:11.574.08-May-2021 4592.01 3776.33 69.13 1.00 345.04 3008.50
   20:25:11.774.08-May-2021 4592.01 3776.33 69.13 1.00 345.24 3008.50
   20:25:11.974.08-May-2021 4592.01 3776.43 69.13 1.00 345.44 3008.50
   20:25:12.174.08-May-2021 4592.01 3776.26 69.13 1.00 345.64 3008.50
   20:25:12.374.08-May-2021 4592.01 3776.27 69.13 1.00 345.84 3008.50
   20:25:12.574.08-May-2021 4592.01 3776.34 69.13 1.00 346.04 3008.50
   20:25:12.774.08-May-2021 4592.01 3776.34 69.13 1.00 346.24 3008.50
   20:25:12.974.08-May-2021 4592.01 3776.56 69.13 1.00 346.44 3008.50
   20:25:13.174.08-May-2021 4592.01 3776.50 69.13 1.00 346.64 3008.50
   20:25:13.374.08-May-2021 4592.01 3776.18 69.13 1.00 346.84 3008.50
   20:25:13.574.08-May-2021 4592.01 3776.32 69.13 1.00 347.04 3008.50
   20:25:13.774.08-May-2021 4592.01 3776.32 69.13 1.00 347.24 3008.50
   20:25:13.974.08-May-2021 4592.01 3776.30 69.13 1.00 347.44 3008.50
   20:25:14.174.08-May-2021 4592.01 3776.32 69.13 1.00 347.64 3008.50
   20:25:14.374.08-May-2021 4592.01 3776.27 69.13 1.00 347.84 3008.50
   20:25:14.574.08-May-2021 4592.01 3776.34 69.13 1.00 348.04 3008.50
   20:25:14.774.08-May-2021 4592.01 3776.34 69.13 1.00 348.24 3008.50
   20:25:14.974.08-May-2021 4592.01 3776.22 69.13 1.00 348.44 3008.50
   20:25:15.174.08-May-2021 4592.01 3776.32 69.13 1.00 348.64 3008.50
   20:25:15.374.08-May-2021 4592.01 3776.61 69.13 1.00 348.84 3008.50
   20:25:15.574.08-May-2021 4592.01 3776.11 69.13 1.00 349.04 3008.50
   20:25:15.774.08-May-2021 4592.01 3776.11 69.13 1.00 349.24 3008.50
   20:25:15.974.08-May-2021 4592.01 3776.24 69.13 1.00 349.44 3008.50
   20:25:16.174.08-May-2021 4592.01 3776.45 69.13 1.00 349.64 3008.50
   20:25:16.374.08-May-2021 4592.01 3776.15 69.13 1.00 349.84 3008.50
   20:25:16.574.08-May-2021 4592.01 3776.55 69.13 1.00 350.04 3008.50
   20:25:16.774.08-May-2021 4592.01 3776.55 69.13 1.00 350.24 3008.50
   20:25:16.974.08-May-2021 4592.01 3776.14 69.13 1.00 350.44 3008.50
   20:25:17.174.08-May-2021 4592.01 3776.60 69.13 1.00 350.64 3008.50
   20:25:17.374.08-May-2021 4592.01 3775.97 69.13 1.00 350.84 3008.50
   20:25:17.574.08-May-2021 4592.01 3776.51 69.13 1.00 351.04 3008.50
   20:25:17.774.08-May-2021 4592.01 3776.51 69.13 1.00 351.24 3008.50
   20:25:17.974.08-May-2021 4592.01 3776.60 69.13 1.00 351.44 3008.50
   20:25:18.174.08-May-2021 4592.01 3776.18 69.13 1.00 351.64 3008.50
   20:25:18.374.08-May-2021 4592.01 3776.34 69.13 1.00 351.84 3008.50
   20:25:18.574.08-May-2021 4592.01 3776.30 69.13 1.00 352.04 3008.50
   20:25:18.774.08-May-2021 4592.01 3776.30 69.13 1.00 352.24 3008.50
   20:25:18.974.08-May-2021 4592.01 3776.39 69.13 1.00 352.44 3008.50
   20:25:19.174.08-May-2021 4592.01 3776.31 69.13 1.00 352.64 3008.50
   20:25:19.374.08-May-2021 4592.01 3776.32 69.13 1.00 352.84 3008.50
   20:25:19.575.08-May-2021 4592.01 3776.35 69.13 1.00 353.04 3008.50
   20:25:19.775.08-May-2021 4592.01 3776.35 69.13 1.00 353.24 3008.50
   20:25:19.975.08-May-2021 4592.01 3776.34 69.13 1.00 353.44 3008.50
   20:25:20.175.08-May-2021 4592.01 3776.30 69.13 1.00 353.64 3008.50
   20:25:20.375.08-May-2021 4592.01 3776.38 69.13 1.00 353.84 3008.50
   20:25:20.575.08-May-2021 4592.01 3776.17 69.13 1.00 354.04 3008.50
   20:25:20.775.08-May-2021 4592.01 3776.17 69.13 1.00 354.24 3008.50
   20:25:20.975.08-May-2021 4592.01 3776.64 69.13 1.00 354.44 3008.50
   20:25:21.175.08-May-2021 4592.01 3776.37 69.13 1.00 354.64 3008.50
   20:25:21.375.08-May-2021 4592.01 3776.18 69.13 1.00 354.84 3008.50
   20:25:21.575.08-May-2021 4592.01 3776.35 69.13 1.00 355.04 3008.50
   20:25:21.775.08-May-2021 4592.01 3776.35 69.13 1.00 355.24 3008.50
   20:25:21.975.08-May-2021 4592.01 3776.26 69.13 1.00 355.44 3008.50
   20:25:22.175.08-May-2021 4592.01 3776.27 69.13 1.00 355.64 3008.50
   20:25:22.375.08-May-2021 4592.01 3776.34 69.13 1.00 355.84 3008.50
   20:25:22.575.08-May-2021 4592.01 3776.30 69.13 1.00 356.04 3008.50
   20:25:22.775.08-May-2021 4592.01 3776.30 69.13 1.00 356.24 3008.50
   20:25:22.975.08-May-2021 4592.01 3776.34 69.13 1.00 356.44 3008.50
   20:25:23.175.08-May-2021 4592.01 3776.20 69.13 1.00 356.64 3008.50
   20:25:23.375.08-May-2021 4592.01 3776.58 69.13 1.00 356.84 3008.50
   20:25:23.575.08-May-2021 4592.01 3773.86 69.13 1.00 357.04 3008.50
   20:25:23.775.08-May-2021 4592.01 3773.86 69.13 1.00 357.24 3008.50
   20:25:23.975.08-May-2021 4592.01 3825.92 69.13 1.00 357.44 3008.50
   20:25:24.175.08-May-2021 4592.01 6226.97 69.13 1.00 357.64 3008.50
   20:25:24.375.08-May-2021 4592.01 6886.09 69.13 1.00 357.84 3008.50
   20:25:24.575.08-May-2021 4592.01 6879.24 69.13 1.00 358.04 3008.50
   20:25:24.775.08-May-2021 4592.01 6879.24 69.13 1.00 358.24 3008.50
   20:25:24.975.08-May-2021 4592.01 6889.10 69.13 1.00 358.44 3008.50
   20:25:25.175.08-May-2021 4592.01 6888.17 69.13 1.00 358.64 3008.50
   20:25:25.375.08-May-2021 4592.01 6882.36 69.13 1.00 358.84 3008.50
   20:25:25.575.08-May-2021 4592.01 6882.35 69.13 1.00 359.04 3008.50
   20:25:25.775.08-May-2021 4592.01 6882.35 69.13 1.00 359.24 3008.50
   20:25:25.975.08-May-2021 4592.01 6897.57 69.14 1.00 359.44 3008.50
   20:25:26.175.08-May-2021 4592.01 6890.76 69.14 1.00 359.64 3008.50
   20:25:26.375.08-May-2021 4592.01 6886.15 69.14 1.00 359.84 3008.50
   20:25:26.575.08-May-2021 4592.01 6890.31 69.14 1.00 360.04 3008.50
   20:25:26.775.08-May-2021 4592.01 6890.31 69.14 1.00 360.24 3008.50
   20:25:26.975.08-May-2021 4592.01 6887.73 69.15 1.00 360.44 3008.50
   20:25:27.175.08-May-2021 4592.01 6888.54 69.15 1.00 360.64 3008.50
   20:25:27.375.08-May-2021 4592.01 6887.93 69.15 1.00 360.84 3008.50
   20:25:27.575.08-May-2021 4592.01 6887.83 69.15 1.00 361.04 3008.50
   20:25:27.775.08-May-2021 4592.01 6887.83 69.15 1.00 361.24 3008.50
   20:25:27.975.08-May-2021 4592.01 6887.86 69.16 1.00 361.44 3008.50
   20:25:28.175.08-May-2021 4592.01 6888.53 69.16 1.00 361.64 3008.50
   20:25:28.375.08-May-2021 4592.01 6888.74 69.16 1.00 361.84 3008.50
   20:25:28.575.08-May-2021 4592.01 6903.42 69.16 1.00 362.04 3008.50
   20:25:28.775.08-May-2021 4592.01 6903.42 69.16 1.00 362.24 3008.50
   20:25:28.975.08-May-2021 4592.01 6889.39 69.17 1.00 362.44 3008.50
   20:25:29.176.08-May-2021 4592.01 6892.33 69.17 1.00 362.64 3008.50
   20:25:29.376.08-May-2021 4592.01 6889.48 69.17 1.00 362.84 3008.50
   20:25:29.576.08-May-2021 4592.01 6889.08 69.17 1.00 363.04 3008.50
   20:25:29.776.08-May-2021 4592.01 6889.08 69.17 1.00 363.24 3008.50
   20:25:29.976.08-May-2021 4592.01 6887.89 69.18 1.00 363.44 3008.50
   20:25:30.176.08-May-2021 4592.01 6887.41 69.18 1.00 363.64 3008.50
   20:25:30.376.08-May-2021 4592.01 6887.38 69.18 1.00 363.84 3008.50
   20:25:30.576.08-May-2021 4592.01 6887.08 69.18 1.00 364.04 3008.50
   20:25:30.776.08-May-2021 4592.01 6887.08 69.18 1.00 364.24 3008.50
   20:25:30.976.08-May-2021 4592.01 6887.90 69.18 1.00 364.44 3008.50
   20:25:31.176.08-May-2021 4592.01 6902.56 69.19 1.00 364.64 3008.50
   20:25:31.376.08-May-2021 4592.01 6894.34 69.19 1.00 364.84 3008.50
   20:25:31.576.08-May-2021 4592.01 6888.61 69.19 1.00 365.04 3008.50
   20:25:31.776.08-May-2021 4592.01 6888.61 69.19 1.00 365.24 3008.50
   20:25:31.976.08-May-2021 4592.01 6889.62 69.19 1.00 365.44 3008.50
   20:25:32.176.08-May-2021 4592.01 6903.74 69.19 1.00 365.64 3008.50
   20:25:32.376.08-May-2021 4592.01 6894.24 69.19 1.00 365.84 3008.50
   20:25:32.576.08-May-2021 4592.01 6889.10 69.19 1.00 366.04 3008.50
   20:25:32.776.08-May-2021 4592.01 6889.10 69.19 1.00 366.24 3008.50
   20:25:32.976.08-May-2021 4592.01 6891.55 69.19 1.00 366.44 3008.50
   20:25:33.176.08-May-2021 4592.01 6896.98 69.19 1.00 366.64 3008.50
   20:25:33.376.08-May-2021 4592.01 6890.43 69.20 1.00 366.84 3008.50
   20:25:33.576.08-May-2021 4592.01 6889.58 69.20 1.00 367.04 3008.50
   20:25:33.776.08-May-2021 4592.01 6889.58 69.20 1.00 367.24 3008.50
   20:25:33.976.08-May-2021 4592.01 6902.59 69.20 1.00 367.44 3008.50
   20:25:34.176.08-May-2021 4592.01 6895.37 69.20 1.00 367.64 3008.50
   20:25:34.376.08-May-2021 4592.01 6890.10 69.20 1.00 367.84 3008.50
