~Version Information
 VERS.                  2.0:   CWLS log ASCII Standard -VERSION 2.0
 WRAP.                   NO:   One line per depth step
~Well Information Block
#MNEM.UNIT     VALUE/NAME     DESCRIPTION
#---------     -----------    ---------------------------
 STRT.S             00:30:13 09-May-21: START TIME 00:30:13 09-May-21
 STOP.S             00:37:03 09-May-21: STOP TIME  00:37:03 09-May-21
 STEP.S                   0.00: STEP TIME
 NULL.                 -999.25: NULL VALUE
 PROV.                    Baku:  PROVINCE
 STAT.                    Baku:  STATE NAME
 SON .        AZ-XX-0906571588:  JOB NUMBER
 WTYP.                Deviated:  WELL TYPE
 COMP.     BP Exploration (Caspian Sea) ltd:  COMPANY
 BASE.              Azerbaijan:  LOGGING EQUIPMENT BASE LOCATION
 REGN.                   EESSA:  REGION
 CTRY.              Azerbaijan:  COUNTRY NAME
 FLD .                     ACG:  FIELD NAME
 WELL.                     J28:  WELL NAME
 RIG .             West Chirag:  RIG NAME
 DMF .             Drill Floor:  DRILL MEAS FROM
 PDAT.       Caspian Sea Level:  PERMANENT DATUM
 HPTY.       Minimum Curvature:  HOLE POS TYPE
 MDS .        Operator Entered:  MAG DATA SOURCE
 NREF.                    Grid:  NORTH REFERENCE
 SRVC.          TURAN DRILLING:  CONTRACTOR
 JOBN.        AZ-XX-0906571588:  JOB TICKET NUMB
 DCON.     Halliburton Sperry Drilling:  DIRECTNL CONTR
 STIM.      00.44.00 11-Feb-21:  START TIME
 DATE.      00.00.00 05-May-21:  END TIME
 SPUD.               13-Feb-21:  SPUD DATE
 MWDS.                    Baku:  MWD SHOP
 DOE .                     N/A:  DOE NUMBER
 UNIT.                     N/A:  LOGGING EQUIPMENT ID
 UWI .                     N/A:  UNIQUE WELL IDENTIFIER
 API .                     N/A:  API NUMBER
 CNTY.                        :  COUNTY
 LOC .                        :  LOCATION
 LMF .             Drill Floor:  LOG MEASURED FROM
 TVDS.m                  43.00:  TVDSS CORRECTN
 SDEP.m                 341.00:  START DEPTH
 EGL .m                   0.00:  GROUND ELEVATION
 WDMS.m                 169.80:  WD ELEV
 AGAP.m                  43.00:  AIR GAP
 EPD .m                   0.00:  ELEVATION
 APD .m                  43.00:  DEPTH ABOVE PD
 LATI.deg                40.13:  LATITUDE
 LONG.deg                51.22:  LONGITUDE
 UTMY.m             4443793.85:  UTM Y
 UTMX.m              519005.06:  UTM X
 WHEW.m                 -11.57:  WELL HEAD E/W
 WHNS.m                   8.57:  WELL HEAD N/S
 VSEW.m                 -11.57:  VERT SEC E/W
 VSNS.m                   8.57:  VERT SEC N/S
 DFWL.m                   0.00:  DISTANCE FWL
 DFSL.m                   0.00:  DISTANCE FSL
 VSDR.deg               299.34:  VERT SEC DIRECT
 GVFD.g                   1.00:  GRAVITY FIELD
 AZTC.deg                 6.36:  AZM TOTAL CORR
 MFLD.nT              50391.00:  MAGNETIC FIELD
 MDIP.deg                59.65:  MAGNETIC DIP
 MDEC.deg                 6.48:  MAGNETIC DECL
 GRDC.deg                 0.12:  GRID CORRECTION
 DEP .m                 334.96:  DEPTH
 TDD .m                1407.26:  TOTAL DEPTH (DRILLER)
 EKB .m                  43.00:  KB ELEVATION
 EDF .m                  43.00:  DF ELEVATION
 TDL .m                 228.00:  TOTAL DEPTH (LOGGER)
 VSC .                       0:  VS TO CLOSURE
 MAGU.                 1854484:  MAGUTM CHECKSUM
~Parameter Information Block
#MNEM.UNIT       Value        Description
#---------     -----------    ---------------------------
 AV  .mps                 4.00:  Ann Velocity 
 AVMX.mps                 4.73:  Max Ann Veloc 
 AZIF.deg               304.48:  Azm, Final 
 BHAT.        Rotary Steerable:  BHA Type 
 BREV.rev            257300.00:  Rev Bit Total 
 BROT.°/30m               0.00:  Build Rotating 
 BS  .in                  8.50:  Bit Size 
 BSZ .in                  8.50:  Bit Size 
 BTPL.psig              589.00:  Bit Press Loss 
 CABU.                      No:  Customer Abuse 
 CGEO.          Mubariz ghayev:  Customer Geo 
 TCS .hr                 64.25:  Time Ciculation Ended 
 CV  .mps                 3.50:  Crit Velocity 
 CVMX.mps                 4.52:  Max Crit Veloc 
 DD1 .             Aziz Aliyev:  Direct Drillr 1 
 DD2 .         Intigam Rahimov:  Direct Drillr 2 
 DD3 .          Rashad Habibov:  Direct Drillr 3 
 DDSV.               Geo-Pilot:  DD Service 
 DEFF.%                  98.00:  % Det Eff 
 DLRX.°/30m               0.00:  Dogleg Rot Max 
 DLSO.°/30m               0.00:  Dogleg Oriented 
 DLSX.°/30m               0.00:  Dogleg Str Max 
 DRET.      10.45.04 08-May-21:  Drill End Time 
 DRST.      03.30.04 04-May-21:  Drill Start Tim 
 DTIM.hr                 14.97:  Time Drilling 
 EDEP.m                4640.01:  End Depth 
 ENG1.         Dail Mahammadov:  Engineer 1 
 ENG2.           Eldar Hajiyev:  Engineer 2 
 ENG3.       Bakhtiar Jabbarli:  Engineer 3 
 ENG4.       Natik Hasanagayev:  Engineer 4 
 ETIM.      09.30.04 14-May-21:  End Time 
 FLOI.gpm               460.00:  Flow In 
 FLON.gpm               200.00:  Flow In Min 
 FLOS.cptm                0.00:  Fluid Loss 
 FLOX.gpm               505.00:  Flow In Max 
 HFLO.                      No:  High Flow 
 HPRE.                      No:  High Pressure 
 HTEM.                      No:  High Temp 
 HYDO.m                   1.80:  Hydro Offset 
 IFIN.deg                66.71:  Inc, Final 
 IMAX.deg                67.03:  Inc Max 
 IMIN.deg                66.63:  Inc Min 
 IMND.m                4550.58:  Inc Min Depth 
 IMXD.m                4439.01:  Inc Max Depth 
 JARR.                      No:  Jarring 
 LETM.      10.45.04 08-May-21:  Log End Time 
 LOST.hr                     0:  Lost Rig Time 
 LSTM.      03.30.04 04-May-21:  Log Start Time 
 MDCL.ppm             37000.00:  Mud Chlorides 
 MDES.     Inversion Oil/Synthetic:  Mud Desc 
 DFD .sg                  1.38:  Mud Density 
 MDMN.sg                  1.35:  Dens Mud Min 
 MDMX.sg                  1.40:  Dens Mud Max 
 MOIL.                   57.40:  Run Mud Oil % 
 MOWR.                   70:30:  Run Mud OWR 
 MSND.                    0.00:  Run Mud Sand % 
 MSOL.                   18.00:  Run Mud Solids% 
 DFV .spqt               71.00:  Mud Viscosity 
 MWOD.in                  6.75:  MWD Tool OD 
 MWSI.                      No:  Serv Intrp, MWD 
 OTIM.hr                242.76:  Time Operating 
 PCON.           Look Like New:  Pad Condition 
 PMAX.psia            12183.92:  Press Op, Max 
 PV  .cP                 27.00:  Mud PV 
 RUN .                    1300:  Run Number 
 ROPA.m/hr               15.00:  ROP Avg 
 ROPN.m/hr                9.00:  ROP Min 
 ROPX.m/hr               19.00:  ROP Max 
 RPMA.rpm               120.00:  RPM Surface Avg 
 RPMN.rpm               100.00:  RPM Surface Min 
 RPMX.rpm               120.00:  RPM Surface Max 
 RRUN.                    1300:  Rig Run Number 
 RTIM.hr                  5.00:  Time Reaming 
 SAZI.deg               304.73:  Azm, Start 
 SDEP.m                4412.01:  Start Depth 
 SIDD.                      No:  Serv Intrp, DD 
 SINC.deg                66.82:  Inc, Start 
 SPPA.psig             2800.00:  SPP Avg 
 SPPN.psig             2610.00:  SPP Min 
 SPPX.psig             3100.00:  SPP Max 
 STIM.      03.30.00 04-May-21:  Start Time 
 SVCS.                 DD, MWD:  Services 
 SVER.                    9.20:  Sperry Version 
 TDAT.m                 228.00:  Tot Depth Attmp 
 TDDF.                      No:  Trip for DD 
 TDLG.m                 228.00:  Tot Depth Loggd 
 TFF .                      No:  Trip for Fail 
 TQAA.f-kp               15.00:  Torque Abs Avg 
 TQAN.f-kp               12.00:  Torque Abs Min 
 TQAX.f-kp               22.00:  Torque Abs Max 
 TRRT.°/30m               0.00:  Turn Rotating 
 MRT .                    HCIM:  Maximum Recorded Temperature 
 TTMX.degC               90.20:  Max Tool Temp 
 VS01.                90627813:  Virtual Str1 SN 
 VS02.                90634712:  Virtual Str2 SN 
 VS03.                90643410:  Virtual Str3 SN 
 VS04.                90634712:  Virtual Str4 SN 
 WBMN.klb                 9.00:  WOB Min 
 WITN.        Elmaddin Rahimov:  Customer Rep 
 WITN.         Haytham Mostafa:  Customer Rep 2 
 WOBA.klb                15.00:  WOB Avg 
 WOBX.klb                23.00:  WOB Max 
 YP  .lhf2               29.00:  Yield Point 
~Curve Information Block
#MNEM.UNIT                 API CODE     Curve Description
#---------               -----------    ---------------------------
 TIME.HHMMSS            00 000 000 000:  GT Time & Date
 GTDEPTH.m              00 000 000 000:  GT Depth
 GTPQH.psia             00 000 000 000:  GT HR Quartz Pressure
 GTTQ.degC              00 000 000 000:  GT Quartz Temperature
 GTTN.NONE              00 000 000 000:  GT Test Number
 GTET.sec               00 000 000 000:  GT Elapsed Test Time
 GTTVD.m                00 000 000 000:  GT True Vertical Depth
#Other Information
#
#WARRANTY: Halliburton will use its best efforts to furnish customers with 
#accurate information and interpretations that are part of, and incident to, the services 
#provided.  However, Halliburton cannot and does not warrant the accuracy 
#or correctness of such information and interpretations.  Under no circumstances should any 
#such information or interpretation be relied upon as the sole basis for any drilling, 
#completion, production, or financial decision or any procedure involving any risk to the 
#safety of any drilling venture, drilling rig or its crew or any other third party.  The 
#Customer has full responsibility for all drilling, completion and production operation.  
#Halliburton makes no representations or warranties, either expressed or 
#implied, including, but not limited to, the implied warranties of merchantability or fitness 
#for a particular purpose, with respect to the services rendered.  In no event will 
#Halliburton be liable for failure to obtain any particular results or for 
#any damages, including, but not limited to, indirect, special or consequential damages, 
#resulting from the use of any information or interpretation provided by Halliburton.
#
~A           TIME           GTDEPTH  GTPQH  GTTQ  GTTN  GTET   GTTVD  
# ...
   00:32:54.913.09-May-2021 4516.51 2258.53 67.71 7.00 161.06 2978.60
   00:32:55.113.09-May-2021 4516.51 2258.53 67.71 7.00 161.26 2978.60
   00:32:55.313.09-May-2021 4516.51 2391.63 67.71 7.00 161.46 2978.60
   00:32:55.513.09-May-2021 4516.51 2451.57 67.71 7.00 161.66 2978.60
   00:32:55.713.09-May-2021 4516.51 2507.38 67.71 7.00 161.86 2978.60
   00:32:55.913.09-May-2021 4516.51 2559.73 67.71 7.00 162.06 2978.60
   00:32:56.113.09-May-2021 4516.51 2559.73 67.71 7.00 162.26 2978.60
   00:32:56.313.09-May-2021 4516.51 2653.89 67.71 7.00 162.46 2978.60
   00:32:56.513.09-May-2021 4516.51 2696.27 67.71 7.00 162.66 2978.60
   00:32:56.714.09-May-2021 4516.51 2735.88 67.71 7.00 162.86 2978.60
   00:32:56.914.09-May-2021 4516.51 2773.32 67.71 7.00 163.06 2978.60
   00:32:57.114.09-May-2021 4516.51 2773.32 67.71 7.00 163.26 2978.60
   00:32:57.314.09-May-2021 4516.51 2840.75 67.71 7.00 163.46 2978.60
   00:32:57.514.09-May-2021 4516.51 2871.22 67.72 7.00 163.66 2978.60
   00:32:57.714.09-May-2021 4516.51 2899.77 67.72 7.00 163.86 2978.60
   00:32:57.914.09-May-2021 4516.51 2926.45 67.72 7.00 164.06 2978.60
   00:32:58.114.09-May-2021 4516.51 2926.45 67.72 7.00 164.26 2978.60
   00:32:58.314.09-May-2021 4516.51 2974.96 67.72 7.00 164.46 2978.60
   00:32:58.514.09-May-2021 4516.51 2996.48 67.72 7.00 164.66 2978.60
   00:32:58.714.09-May-2021 4516.51 3017.01 67.72 7.00 164.86 2978.60
   00:32:58.914.09-May-2021 4516.51 3036.78 67.72 7.00 165.06 2978.60
   00:32:59.114.09-May-2021 4516.51 3036.78 67.72 7.00 165.26 2978.60
   00:32:59.314.09-May-2021 4516.51 3072.04 67.73 7.00 165.46 2978.60
   00:32:59.515.09-May-2021 4516.51 3088.29 67.73 7.00 165.66 2978.60
   00:32:59.715.09-May-2021 4516.51 3103.25 67.73 7.00 165.86 2978.60
   00:32:59.915.09-May-2021 4516.51 3117.14 67.73 7.00 166.06 2978.60
   00:33:00.115.09-May-2021 4516.51 3117.14 67.73 7.00 166.26 2978.60
   00:33:00.315.09-May-2021 4516.51 3142.98 67.73 7.00 166.46 2978.60
   00:33:00.515.09-May-2021 4516.51 3154.11 67.73 7.00 166.66 2978.60
   00:33:00.715.09-May-2021 4516.51 3165.00 67.73 7.00 166.86 2978.60
   00:33:00.915.09-May-2021 4516.51 3175.14 67.74 7.00 167.06 2978.60
   00:33:01.115.09-May-2021 4516.51 3175.14 67.74 7.00 167.26 2978.60
   00:33:01.315.09-May-2021 4516.51 3192.86 67.74 7.00 167.46 2978.60
   00:33:01.515.09-May-2021 4516.51 3200.85 67.74 7.00 167.66 2978.60
   00:33:01.715.09-May-2021 4516.51 3209.03 67.74 7.00 167.86 2978.60
   00:33:01.915.09-May-2021 4516.51 3215.63 67.74 7.00 168.06 2978.60
   00:33:02.115.09-May-2021 4516.51 3215.63 67.74 7.00 168.26 2978.60
   00:33:02.316.09-May-2021 4516.51 3229.10 67.74 7.00 168.46 2978.60
   00:33:02.516.09-May-2021 4516.51 3234.98 67.74 7.00 168.66 2978.60
   00:33:02.716.09-May-2021 4516.51 3239.63 67.75 7.00 168.86 2978.60
   00:33:02.916.09-May-2021 4516.51 3244.25 67.75 7.00 169.06 2978.60
   00:33:03.116.09-May-2021 4516.51 3244.25 67.75 7.00 169.26 2978.60
   00:33:03.316.09-May-2021 4516.51 3253.34 67.75 7.00 169.46 2978.60
   00:33:03.516.09-May-2021 4516.51 3257.06 67.75 7.00 169.66 2978.60
   00:33:03.716.09-May-2021 4516.51 3260.47 67.75 7.00 169.86 2978.60
   00:33:03.916.09-May-2021 4516.51 3263.70 67.75 7.00 170.06 2978.60
   00:33:04.116.09-May-2021 4516.51 3263.70 67.75 7.00 170.26 2978.60
   00:33:04.316.09-May-2021 4516.51 3269.65 67.75 7.00 170.46 2978.60
   00:33:04.516.09-May-2021 4516.51 3271.80 67.75 7.00 170.66 2978.60
   00:33:04.716.09-May-2021 4516.51 3274.26 67.75 7.00 170.86 2978.60
   00:33:04.916.09-May-2021 4516.51 3276.12 67.75 7.00 171.06 2978.60
   00:33:05.117.09-May-2021 4516.51 3276.12 67.75 7.00 171.26 2978.60
   00:33:05.317.09-May-2021 4516.51 3279.42 67.76 7.00 171.46 2978.60
   00:33:05.517.09-May-2021 4516.51 3280.77 67.76 7.00 171.66 2978.60
   00:33:05.717.09-May-2021 4516.51 3282.02 67.76 7.00 171.86 2978.60
   00:33:05.917.09-May-2021 4516.51 3283.07 67.76 7.00 172.06 2978.60
   00:33:06.117.09-May-2021 4516.51 3283.07 67.76 7.00 172.26 2978.60
   00:33:06.317.09-May-2021 4516.51 3285.00 67.76 7.00 172.46 2978.60
   00:33:06.517.09-May-2021 4516.51 3285.79 67.76 7.00 172.66 2978.60
   00:33:06.717.09-May-2021 4516.51 3286.19 67.76 7.00 172.86 2978.60
   00:33:06.917.09-May-2021 4516.51 3288.85 67.76 7.00 173.06 2978.60
   00:33:07.117.09-May-2021 4516.51 3288.85 67.76 7.00 173.26 2978.60
   00:33:07.317.09-May-2021 4516.51 3291.17 67.76 7.00 173.46 2978.60
   00:33:07.517.09-May-2021 4516.51 3291.82 67.76 7.00 173.66 2978.60
   00:33:07.718.09-May-2021 4516.51 3292.32 67.76 7.00 173.86 2978.60
   00:33:07.918.09-May-2021 4516.51 3292.69 67.76 7.00 174.06 2978.60
   00:33:08.118.09-May-2021 4516.51 3292.69 67.76 7.00 174.26 2978.60
   00:33:08.318.09-May-2021 4516.51 3293.19 67.76 7.00 174.46 2978.60
   00:33:08.518.09-May-2021 4516.51 3293.38 67.76 7.00 174.66 2978.60
   00:33:08.718.09-May-2021 4516.51 3293.54 67.76 7.00 174.86 2978.60
   00:33:08.918.09-May-2021 4516.51 3293.67 67.76 7.00 175.06 2978.60
   00:33:09.118.09-May-2021 4516.51 3293.67 67.76 7.00 175.26 2978.60
   00:33:09.318.09-May-2021 4516.51 3293.31 67.76 7.00 175.46 2978.60
   00:33:09.518.09-May-2021 4516.51 3294.42 67.76 7.00 175.66 2978.60
   00:33:09.718.09-May-2021 4516.51 3294.06 67.76 7.00 175.86 2978.60
   00:33:09.918.09-May-2021 4516.51 3294.27 67.76 7.00 176.06 2978.60
   00:33:10.118.09-May-2021 4516.51 3294.27 67.76 7.00 176.26 2978.60
   00:33:10.318.09-May-2021 4516.51 3294.53 67.77 7.00 176.46 2978.60
   00:33:10.519.09-May-2021 4516.51 3294.38 67.77 7.00 176.66 2978.60
   00:33:10.719.09-May-2021 4516.51 3294.32 67.77 7.00 176.86 2978.60
   00:33:10.919.09-May-2021 4516.51 3293.97 67.77 7.00 177.06 2978.60
   00:33:11.119.09-May-2021 4516.51 3293.97 67.77 7.00 177.26 2978.60
   00:33:11.319.09-May-2021 4516.51 3294.43 67.77 7.00 177.46 2978.60
   00:33:11.519.09-May-2021 4516.51 3294.67 67.77 7.00 177.66 2978.60
   00:33:11.719.09-May-2021 4516.51 3294.66 67.77 7.00 177.86 2978.60
   00:33:11.919.09-May-2021 4516.51 3294.41 67.77 7.00 178.06 2978.60
   00:33:12.119.09-May-2021 4516.51 3294.41 67.77 7.00 178.26 2978.60
   00:33:12.319.09-May-2021 4516.51 3294.90 67.77 7.00 178.46 2978.60
   00:33:12.519.09-May-2021 4516.51 3294.79 67.77 7.00 178.66 2978.60
   00:33:12.719.09-May-2021 4516.51 3294.95 67.77 7.00 178.86 2978.60
   00:33:12.919.09-May-2021 4516.51 3294.96 67.77 7.00 179.06 2978.60
   00:33:13.119.09-May-2021 4516.51 3294.96 67.77 7.00 179.26 2978.60
   00:33:13.320.09-May-2021 4516.51 3295.09 67.77 7.00 179.47 2978.60
   00:33:13.520.09-May-2021 4516.51 3295.15 67.77 7.00 179.67 2978.60
   00:33:13.720.09-May-2021 4516.51 3295.21 67.77 7.00 179.87 2978.60
   00:33:13.920.09-May-2021 4516.51 3295.23 67.77 7.00 180.07 2978.60
   00:33:14.120.09-May-2021 4516.51 3295.23 67.77 7.00 180.27 2978.60
   00:33:14.320.09-May-2021 4516.51 3295.36 67.77 7.00 180.47 2978.60
   00:33:14.520.09-May-2021 4516.51 3295.12 67.77 7.00 180.67 2978.60
   00:33:14.720.09-May-2021 4516.51 3295.83 67.77 7.00 180.87 2978.60
   00:33:14.920.09-May-2021 4516.51 3295.83 67.77 7.00 181.07 2978.60
   00:33:15.120.09-May-2021 4516.51 3295.55 67.77 7.00 181.27 2978.60
   00:33:15.320.09-May-2021 4516.51 3295.55 67.77 7.00 181.47 2978.60
   00:33:15.520.09-May-2021 4516.51 3295.57 67.77 7.00 181.67 2978.60
   00:33:15.720.09-May-2021 4516.51 3295.60 67.77 7.00 181.87 2978.60
   00:33:15.920.09-May-2021 4516.51 3295.63 67.77 7.00 182.07 2978.60
   00:33:16.121.09-May-2021 4516.51 3295.63 67.77 7.00 182.27 2978.60
   00:33:16.321.09-May-2021 4516.51 3295.70 67.77 7.00 182.47 2978.60
   00:33:16.521.09-May-2021 4516.51 3295.76 67.77 7.00 182.67 2978.60
   00:33:16.721.09-May-2021 4516.51 3295.79 67.77 7.00 182.87 2978.60
   00:33:16.921.09-May-2021 4516.51 3295.84 67.77 7.00 183.07 2978.60
   00:33:17.121.09-May-2021 4516.51 3295.84 67.77 7.00 183.27 2978.60
   00:33:17.321.09-May-2021 4516.51 3296.30 67.77 7.00 183.47 2978.60
   00:33:17.521.09-May-2021 4516.51 3296.04 67.77 7.00 183.67 2978.60
   00:33:17.721.09-May-2021 4516.51 3295.91 67.77 7.00 183.87 2978.60
