~Version Information
 VERS.                  2.0:   CWLS log ASCII Standard -VERSION 2.0
 WRAP.                   NO:   One line per depth step
~Well Information Block
#MNEM.UNIT     VALUE/NAME     DESCRIPTION
#---------     -----------    ---------------------------
 STRT.S             01:38:21 09-May-21: START TIME 01:38:21 09-May-21
 STOP.S             01:44:59 09-May-21: STOP TIME  01:44:59 09-May-21
 STEP.S                   0.00: STEP TIME
 NULL.                 -999.25: NULL VALUE
 PROV.                    Baku:  PROVINCE
 STAT.                    Baku:  STATE NAME
 SON .        AZ-XX-0906571588:  JOB NUMBER
 WTYP.                Deviated:  WELL TYPE
 COMP.     BP Exploration (Caspian Sea) ltd:  COMPANY
 BASE.              Azerbaijan:  LOGGING EQUIPMENT BASE LOCATION
 REGN.                   EESSA:  REGION
 CTRY.              Azerbaijan:  COUNTRY NAME
 FLD .                     ACG:  FIELD NAME
 WELL.                     J28:  WELL NAME
 RIG .             West Chirag:  RIG NAME
 DMF .             Drill Floor:  DRILL MEAS FROM
 PDAT.       Caspian Sea Level:  PERMANENT DATUM
 HPTY.       Minimum Curvature:  HOLE POS TYPE
 MDS .        Operator Entered:  MAG DATA SOURCE
 NREF.                    Grid:  NORTH REFERENCE
 SRVC.          TURAN DRILLING:  CONTRACTOR
 JOBN.        AZ-XX-0906571588:  JOB TICKET NUMB
 DCON.     Halliburton Sperry Drilling:  DIRECTNL CONTR
 STIM.      00.44.00 11-Feb-21:  START TIME
 DATE.      00.00.00 05-May-21:  END TIME
 SPUD.               13-Feb-21:  SPUD DATE
 MWDS.                    Baku:  MWD SHOP
 DOE .                     N/A:  DOE NUMBER
 UNIT.                     N/A:  LOGGING EQUIPMENT ID
 UWI .                     N/A:  UNIQUE WELL IDENTIFIER
 API .                     N/A:  API NUMBER
 CNTY.                        :  COUNTY
 LOC .                        :  LOCATION
 LMF .             Drill Floor:  LOG MEASURED FROM
 TVDS.m                  43.00:  TVDSS CORRECTN
 SDEP.m                 341.00:  START DEPTH
 EGL .m                   0.00:  GROUND ELEVATION
 WDMS.m                 169.80:  WD ELEV
 AGAP.m                  43.00:  AIR GAP
 EPD .m                   0.00:  ELEVATION
 APD .m                  43.00:  DEPTH ABOVE PD
 LATI.deg                40.13:  LATITUDE
 LONG.deg                51.22:  LONGITUDE
 UTMY.m             4443793.85:  UTM Y
 UTMX.m              519005.06:  UTM X
 WHEW.m                 -11.57:  WELL HEAD E/W
 WHNS.m                   8.57:  WELL HEAD N/S
 VSEW.m                 -11.57:  VERT SEC E/W
 VSNS.m                   8.57:  VERT SEC N/S
 DFWL.m                   0.00:  DISTANCE FWL
 DFSL.m                   0.00:  DISTANCE FSL
 VSDR.deg               299.34:  VERT SEC DIRECT
 GVFD.g                   1.00:  GRAVITY FIELD
 AZTC.deg                 6.36:  AZM TOTAL CORR
 MFLD.nT              50391.00:  MAGNETIC FIELD
 MDIP.deg                59.65:  MAGNETIC DIP
 MDEC.deg                 6.48:  MAGNETIC DECL
 GRDC.deg                 0.12:  GRID CORRECTION
 DEP .m                 334.96:  DEPTH
 TDD .m                1407.26:  TOTAL DEPTH (DRILLER)
 EKB .m                  43.00:  KB ELEVATION
 EDF .m                  43.00:  DF ELEVATION
 TDL .m                 228.00:  TOTAL DEPTH (LOGGER)
 VSC .                       0:  VS TO CLOSURE
 MAGU.                 1854484:  MAGUTM CHECKSUM
~Parameter Information Block
#MNEM.UNIT       Value        Description
#---------     -----------    ---------------------------
 AV  .mps                 4.00:  Ann Velocity 
 AVMX.mps                 4.73:  Max Ann Veloc 
 AZIF.deg               304.48:  Azm, Final 
 BHAT.        Rotary Steerable:  BHA Type 
 BREV.rev            257300.00:  Rev Bit Total 
 BROT.°/30m               0.00:  Build Rotating 
 BS  .in                  8.50:  Bit Size 
 BSZ .in                  8.50:  Bit Size 
 BTPL.psig              589.00:  Bit Press Loss 
 CABU.                      No:  Customer Abuse 
 CGEO.          Mubariz ghayev:  Customer Geo 
 TCS .hr                 64.25:  Time Ciculation Ended 
 CV  .mps                 3.50:  Crit Velocity 
 CVMX.mps                 4.52:  Max Crit Veloc 
 DD1 .             Aziz Aliyev:  Direct Drillr 1 
 DD2 .         Intigam Rahimov:  Direct Drillr 2 
 DD3 .          Rashad Habibov:  Direct Drillr 3 
 DDSV.               Geo-Pilot:  DD Service 
 DEFF.%                  98.00:  % Det Eff 
 DLRX.°/30m               0.00:  Dogleg Rot Max 
 DLSO.°/30m               0.00:  Dogleg Oriented 
 DLSX.°/30m               0.00:  Dogleg Str Max 
 DRET.      10.45.04 08-May-21:  Drill End Time 
 DRST.      03.30.04 04-May-21:  Drill Start Tim 
 DTIM.hr                 14.97:  Time Drilling 
 EDEP.m                4640.01:  End Depth 
 ENG1.         Dail Mahammadov:  Engineer 1 
 ENG2.           Eldar Hajiyev:  Engineer 2 
 ENG3.       Bakhtiar Jabbarli:  Engineer 3 
 ENG4.       Natik Hasanagayev:  Engineer 4 
 ETIM.      09.30.04 14-May-21:  End Time 
 FLOI.gpm               460.00:  Flow In 
 FLON.gpm               200.00:  Flow In Min 
 FLOS.cptm                0.00:  Fluid Loss 
 FLOX.gpm               505.00:  Flow In Max 
 HFLO.                      No:  High Flow 
 HPRE.                      No:  High Pressure 
 HTEM.                      No:  High Temp 
 HYDO.m                   1.80:  Hydro Offset 
 IFIN.deg                66.71:  Inc, Final 
 IMAX.deg                67.03:  Inc Max 
 IMIN.deg                66.63:  Inc Min 
 IMND.m                4550.58:  Inc Min Depth 
 IMXD.m                4439.01:  Inc Max Depth 
 JARR.                      No:  Jarring 
 LETM.      10.45.04 08-May-21:  Log End Time 
 LOST.hr                     0:  Lost Rig Time 
 LSTM.      03.30.04 04-May-21:  Log Start Time 
 MDCL.ppm             37000.00:  Mud Chlorides 
 MDES.     Inversion Oil/Synthetic:  Mud Desc 
 DFD .sg                  1.38:  Mud Density 
 MDMN.sg                  1.35:  Dens Mud Min 
 MDMX.sg                  1.40:  Dens Mud Max 
 MOIL.                   57.40:  Run Mud Oil % 
 MOWR.                   70:30:  Run Mud OWR 
 MSND.                    0.00:  Run Mud Sand % 
 MSOL.                   18.00:  Run Mud Solids% 
 DFV .spqt               71.00:  Mud Viscosity 
 MWOD.in                  6.75:  MWD Tool OD 
 MWSI.                      No:  Serv Intrp, MWD 
 OTIM.hr                242.76:  Time Operating 
 PCON.           Look Like New:  Pad Condition 
 PMAX.psia            12183.92:  Press Op, Max 
 PV  .cP                 27.00:  Mud PV 
 RUN .                    1300:  Run Number 
 ROPA.m/hr               15.00:  ROP Avg 
 ROPN.m/hr                9.00:  ROP Min 
 ROPX.m/hr               19.00:  ROP Max 
 RPMA.rpm               120.00:  RPM Surface Avg 
 RPMN.rpm               100.00:  RPM Surface Min 
 RPMX.rpm               120.00:  RPM Surface Max 
 RRUN.                    1300:  Rig Run Number 
 RTIM.hr                  5.00:  Time Reaming 
 SAZI.deg               304.73:  Azm, Start 
 SDEP.m                4412.01:  Start Depth 
 SIDD.                      No:  Serv Intrp, DD 
 SINC.deg                66.82:  Inc, Start 
 SPPA.psig             2800.00:  SPP Avg 
 SPPN.psig             2610.00:  SPP Min 
 SPPX.psig             3100.00:  SPP Max 
 STIM.      03.30.00 04-May-21:  Start Time 
 SVCS.                 DD, MWD:  Services 
 SVER.                    9.20:  Sperry Version 
 TDAT.m                 228.00:  Tot Depth Attmp 
 TDDF.                      No:  Trip for DD 
 TDLG.m                 228.00:  Tot Depth Loggd 
 TFF .                      No:  Trip for Fail 
 TQAA.f-kp               15.00:  Torque Abs Avg 
 TQAN.f-kp               12.00:  Torque Abs Min 
 TQAX.f-kp               22.00:  Torque Abs Max 
 TRRT.°/30m               0.00:  Turn Rotating 
 MRT .                    HCIM:  Maximum Recorded Temperature 
 TTMX.degC               90.20:  Max Tool Temp 
 VS01.                90627813:  Virtual Str1 SN 
 VS02.                90634712:  Virtual Str2 SN 
 VS03.                90643410:  Virtual Str3 SN 
 VS04.                90634712:  Virtual Str4 SN 
 WBMN.klb                 9.00:  WOB Min 
 WITN.        Elmaddin Rahimov:  Customer Rep 
 WITN.         Haytham Mostafa:  Customer Rep 2 
 WOBA.klb                15.00:  WOB Avg 
 WOBX.klb                23.00:  WOB Max 
 YP  .lhf2               29.00:  Yield Point 
~Curve Information Block
#MNEM.UNIT                 API CODE     Curve Description
#---------               -----------    ---------------------------
 TIME.HHMMSS            00 000 000 000:  GT Time & Date
 GTDEPTH.m              00 000 000 000:  GT Depth
 GTPQH.psia             00 000 000 000:  GT HR Quartz Pressure
 GTTQ.degC              00 000 000 000:  GT Quartz Temperature
 GTTN.NONE              00 000 000 000:  GT Test Number
 GTET.sec               00 000 000 000:  GT Elapsed Test Time
 GTTVD.m                00 000 000 000:  GT True Vertical Depth
#Other Information
#
#WARRANTY: Halliburton will use its best efforts to furnish customers with 
#accurate information and interpretations that are part of, and incident to, the services 
#provided.  However, Halliburton cannot and does not warrant the accuracy 
#or correctness of such information and interpretations.  Under no circumstances should any 
#such information or interpretation be relied upon as the sole basis for any drilling, 
#completion, production, or financial decision or any procedure involving any risk to the 
#safety of any drilling venture, drilling rig or its crew or any other third party.  The 
#Customer has full responsibility for all drilling, completion and production operation.  
#Halliburton makes no representations or warranties, either expressed or 
#implied, including, but not limited to, the implied warranties of merchantability or fitness 
#for a particular purpose, with respect to the services rendered.  In no event will 
#Halliburton be liable for failure to obtain any particular results or for 
#any damages, including, but not limited to, indirect, special or consequential damages, 
#resulting from the use of any information or interpretation provided by Halliburton.
#
~A           TIME           GTDEPTH  GTPQH  GTTQ  GTTN   GTET   GTTVD  
# ...
   01:40:36.985.09-May-2021 4502.51 1658.61 67.50 10.00 135.65 2973.10
   01:40:37.185.09-May-2021 4502.51 1659.06 67.50 10.00 135.85 2973.10
   01:40:37.385.09-May-2021 4502.51 1659.74 67.50 10.00 136.05 2973.10
   01:40:37.585.09-May-2021 4502.51 1659.74 67.50 10.00 136.25 2973.10
   01:40:37.785.09-May-2021 4502.51 1661.11 67.50 10.00 136.45 2973.10
   01:40:37.985.09-May-2021 4502.51 1661.75 67.50 10.00 136.65 2973.10
   01:40:38.185.09-May-2021 4502.51 1662.43 67.50 10.00 136.85 2973.10
   01:40:38.385.09-May-2021 4502.51 1663.04 67.50 10.00 137.05 2973.10
   01:40:38.585.09-May-2021 4502.51 1663.04 67.50 10.00 137.25 2973.10
   01:40:38.785.09-May-2021 4502.51 1664.38 67.50 10.00 137.45 2973.10
   01:40:38.985.09-May-2021 4502.51 1664.83 67.50 10.00 137.65 2973.10
   01:40:39.185.09-May-2021 4502.51 1665.37 67.50 10.00 137.85 2973.10
   01:40:39.386.09-May-2021 4502.51 1666.52 67.50 10.00 138.05 2973.10
   01:40:39.586.09-May-2021 4502.51 1666.52 67.50 10.00 138.25 2973.10
   01:40:39.786.09-May-2021 4502.51 1667.28 67.50 10.00 138.45 2973.10
   01:40:39.986.09-May-2021 4502.51 1669.28 67.50 10.00 138.65 2973.10
   01:40:40.186.09-May-2021 4502.51 1673.30 67.50 10.00 138.85 2973.10
   01:40:40.386.09-May-2021 4502.51 1673.97 67.50 10.00 139.05 2973.10
   01:40:40.586.09-May-2021 4502.51 1673.97 67.50 10.00 139.25 2973.10
   01:40:40.786.09-May-2021 4502.51 1675.03 67.50 10.00 139.45 2973.10
   01:40:40.986.09-May-2021 4502.51 1676.56 67.50 10.00 139.65 2973.10
   01:40:41.186.09-May-2021 4502.51 1677.07 67.50 10.00 139.85 2973.10
   01:40:41.386.09-May-2021 4502.51 1678.02 67.50 10.00 140.05 2973.10
   01:40:41.586.09-May-2021 4502.51 1678.02 67.50 10.00 140.25 2973.10
   01:40:41.786.09-May-2021 4502.51 1679.85 67.50 10.00 140.45 2973.10
   01:40:41.986.09-May-2021 4502.51 1680.41 67.50 10.00 140.65 2973.10
   01:40:42.187.09-May-2021 4502.51 1681.18 67.50 10.00 140.85 2973.10
   01:40:42.387.09-May-2021 4502.51 1687.68 67.50 10.00 141.05 2973.10
   01:40:42.587.09-May-2021 4502.51 1687.68 67.50 10.00 141.25 2973.10
   01:40:42.787.09-May-2021 4502.51 1694.35 67.50 10.00 141.45 2973.10
   01:40:42.987.09-May-2021 4502.51 1694.80 67.50 10.00 141.65 2973.10
   01:40:43.187.09-May-2021 4502.51 1695.38 67.50 10.00 141.85 2973.10
   01:40:43.387.09-May-2021 4502.51 1695.93 67.50 10.00 142.05 2973.10
   01:40:43.587.09-May-2021 4502.51 1695.93 67.50 10.00 142.25 2973.10
   01:40:43.787.09-May-2021 4502.51 1697.07 67.50 10.00 142.45 2973.10
   01:40:43.987.09-May-2021 4502.51 1697.78 67.50 10.00 142.65 2973.10
   01:40:44.187.09-May-2021 4502.51 1698.05 67.50 10.00 142.85 2973.10
   01:40:44.387.09-May-2021 4502.51 1699.45 67.50 10.00 143.05 2973.10
   01:40:44.587.09-May-2021 4502.51 1699.45 67.50 10.00 143.25 2973.10
   01:40:44.787.09-May-2021 4502.51 1700.45 67.50 10.00 143.45 2973.10
   01:40:44.988.09-May-2021 4502.51 1701.25 67.50 10.00 143.65 2973.10
   01:40:45.188.09-May-2021 4502.51 1701.85 67.50 10.00 143.85 2973.10
   01:40:45.388.09-May-2021 4502.51 1702.48 67.50 10.00 144.05 2973.10
   01:40:45.588.09-May-2021 4502.51 1702.48 67.50 10.00 144.25 2973.10
   01:40:45.788.09-May-2021 4502.51 1703.69 67.50 10.00 144.45 2973.10
   01:40:45.988.09-May-2021 4502.51 1704.27 67.50 10.00 144.65 2973.10
   01:40:46.188.09-May-2021 4502.51 1704.87 67.50 10.00 144.85 2973.10
   01:40:46.388.09-May-2021 4502.51 1705.42 67.50 10.00 145.05 2973.10
   01:40:46.588.09-May-2021 4502.51 1705.42 67.50 10.00 145.25 2973.10
   01:40:46.788.09-May-2021 4502.51 1706.16 67.50 10.00 145.45 2973.10
   01:40:46.988.09-May-2021 4502.51 1707.44 67.50 10.00 145.65 2973.10
   01:40:47.188.09-May-2021 4502.51 1707.84 67.50 10.00 145.85 2973.10
   01:40:47.388.09-May-2021 4502.51 1708.18 67.50 10.00 146.05 2973.10
   01:40:47.588.09-May-2021 4502.51 1708.18 67.50 10.00 146.25 2973.10
   01:40:47.789.09-May-2021 4502.51 1709.61 67.50 10.00 146.45 2973.10
   01:40:47.989.09-May-2021 4502.51 1709.88 67.50 10.00 146.65 2973.10
   01:40:48.189.09-May-2021 4502.51 1710.71 67.50 10.00 146.85 2973.10
   01:40:48.389.09-May-2021 4502.51 1711.01 67.50 10.00 147.05 2973.10
   01:40:48.589.09-May-2021 4502.51 1711.01 67.50 10.00 147.25 2973.10
   01:40:48.789.09-May-2021 4502.51 1688.28 67.50 10.00 147.45 2973.10
   01:40:48.989.09-May-2021 4502.51 1525.64 67.50 10.00 147.65 2973.10
   01:40:49.189.09-May-2021 4502.51 1228.64 67.50 10.00 147.85 2973.10
   01:40:49.389.09-May-2021 4502.51  965.09 67.50 10.00 148.05 2973.10
   01:40:49.589.09-May-2021 4502.51  965.09 67.50 10.00 148.25 2973.10
   01:40:49.789.09-May-2021 4502.51  699.47 67.50 10.00 148.45 2973.10
   01:40:49.989.09-May-2021 4502.51  687.97 67.50 10.00 148.65 2973.10
   01:40:50.189.09-May-2021 4502.51  680.42 67.50 10.00 148.85 2973.10
   01:40:50.389.09-May-2021 4502.51  664.00 67.50 10.00 149.05 2973.10
   01:40:50.590.09-May-2021 4502.51  664.00 67.50 10.00 149.25 2973.10
   01:40:50.790.09-May-2021 4502.51  643.23 67.50 10.00 149.45 2973.10
   01:40:50.990.09-May-2021 4502.51  638.93 67.50 10.00 149.65 2973.10
   01:40:51.190.09-May-2021 4502.51  636.32 67.50 10.00 149.85 2973.10
   01:40:51.390.09-May-2021 4502.51  634.49 67.50 10.00 150.05 2973.10
   01:40:51.590.09-May-2021 4502.51  634.49 67.50 10.00 150.25 2973.10
   01:40:51.790.09-May-2021 4502.51  632.88 67.50 10.00 150.45 2973.10
   01:40:51.990.09-May-2021 4502.51  631.70 67.50 10.00 150.65 2973.10
   01:40:52.190.09-May-2021 4502.51  630.46 67.50 10.00 150.85 2973.10
   01:40:52.390.09-May-2021 4502.51  628.69 67.50 10.00 151.05 2973.10
   01:40:52.590.09-May-2021 4502.51  628.69 67.50 10.00 151.25 2973.10
   01:40:52.790.09-May-2021 4502.51  627.16 67.50 10.00 151.45 2973.10
   01:40:52.990.09-May-2021 4502.51  626.98 67.49 10.00 151.65 2973.10
   01:40:53.191.09-May-2021 4502.51  627.05 67.49 10.00 151.86 2973.10
   01:40:53.391.09-May-2021 4502.51  626.98 67.49 10.00 152.06 2973.10
   01:40:53.591.09-May-2021 4502.51  626.98 67.49 10.00 152.26 2973.10
   01:40:53.791.09-May-2021 4502.51  627.54 67.49 10.00 152.46 2973.10
   01:40:53.991.09-May-2021 4502.51  627.76 67.49 10.00 152.66 2973.10
   01:40:54.191.09-May-2021 4502.51  627.67 67.49 10.00 152.86 2973.10
   01:40:54.391.09-May-2021 4502.51  627.65 67.49 10.00 153.06 2973.10
   01:40:54.591.09-May-2021 4502.51  627.65 67.49 10.00 153.26 2973.10
   01:40:54.791.09-May-2021 4502.51  627.62 67.49 10.00 153.46 2973.10
   01:40:54.991.09-May-2021 4502.51  626.52 67.49 10.00 153.66 2973.10
   01:40:55.191.09-May-2021 4502.51  624.55 67.49 10.00 153.86 2973.10
   01:40:55.391.09-May-2021 4502.51  624.06 67.49 10.00 154.06 2973.10
   01:40:55.591.09-May-2021 4502.51  624.06 67.49 10.00 154.26 2973.10
   01:40:55.791.09-May-2021 4502.51  620.91 67.49 10.00 154.46 2973.10
   01:40:55.992.09-May-2021 4502.51  617.95 67.49 10.00 154.66 2973.10
   01:40:56.192.09-May-2021 4502.51  617.05 67.48 10.00 154.86 2973.10
   01:40:56.392.09-May-2021 4502.51  616.68 67.48 10.00 155.06 2973.10
   01:40:56.592.09-May-2021 4502.51  616.68 67.48 10.00 155.26 2973.10
   01:40:56.792.09-May-2021 4502.51  617.18 67.48 10.00 155.46 2973.10
   01:40:56.992.09-May-2021 4502.51  621.55 67.48 10.00 155.66 2973.10
   01:40:57.192.09-May-2021 4502.51  624.21 67.48 10.00 155.86 2973.10
   01:40:57.392.09-May-2021 4502.51  624.13 67.48 10.00 156.06 2973.10
   01:40:57.592.09-May-2021 4502.51  624.13 67.48 10.00 156.26 2973.10
   01:40:57.792.09-May-2021 4502.51  624.57 67.48 10.00 156.46 2973.10
   01:40:57.992.09-May-2021 4502.51  624.63 67.48 10.00 156.66 2973.10
   01:40:58.192.09-May-2021 4502.51  623.83 67.48 10.00 156.86 2973.10
   01:40:58.392.09-May-2021 4502.51  624.27 67.48 10.00 157.06 2973.10
   01:40:58.592.09-May-2021 4502.51  624.27 67.48 10.00 157.26 2973.10
   01:40:58.793.09-May-2021 4502.51  624.30 67.48 10.00 157.46 2973.10
   01:40:58.993.09-May-2021 4502.51  624.64 67.48 10.00 157.66 2973.10
   01:40:59.193.09-May-2021 4502.51  625.24 67.48 10.00 157.86 2973.10
   01:40:59.393.09-May-2021 4502.51  631.57 67.48 10.00 158.06 2973.10
