~Version Information
 VERS.                  2.0:   CWLS log ASCII Standard -VERSION 2.0
 WRAP.                   NO:   One line per depth step
~Well Information Block
#MNEM.UNIT     VALUE/NAME     DESCRIPTION
#---------     -----------    ---------------------------
 STRT.S             21:53:52 08-May-21: START TIME 21:53:52 08-May-21
 STOP.S             22:00:27 08-May-21: STOP TIME  22:00:27 08-May-21
 STEP.S                   0.00: STEP TIME
 NULL.                 -999.25: NULL VALUE
 PROV.                    Baku:  PROVINCE
 STAT.                    Baku:  STATE NAME
 SON .        AZ-XX-0906571588:  JOB NUMBER
 WTYP.                Deviated:  WELL TYPE
 COMP.     BP Exploration (Caspian Sea) ltd:  COMPANY
 BASE.              Azerbaijan:  LOGGING EQUIPMENT BASE LOCATION
 REGN.                   EESSA:  REGION
 CTRY.              Azerbaijan:  COUNTRY NAME
 FLD .                     ACG:  FIELD NAME
 WELL.                     J28:  WELL NAME
 RIG .             West Chirag:  RIG NAME
 DMF .             Drill Floor:  DRILL MEAS FROM
 PDAT.       Caspian Sea Level:  PERMANENT DATUM
 HPTY.       Minimum Curvature:  HOLE POS TYPE
 MDS .        Operator Entered:  MAG DATA SOURCE
 NREF.                    Grid:  NORTH REFERENCE
 SRVC.          TURAN DRILLING:  CONTRACTOR
 JOBN.        AZ-XX-0906571588:  JOB TICKET NUMB
 DCON.     Halliburton Sperry Drilling:  DIRECTNL CONTR
 STIM.      00.44.00 11-Feb-21:  START TIME
 DATE.      00.00.00 05-May-21:  END TIME
 SPUD.               13-Feb-21:  SPUD DATE
 MWDS.                    Baku:  MWD SHOP
 DOE .                     N/A:  DOE NUMBER
 UNIT.                     N/A:  LOGGING EQUIPMENT ID
 UWI .                     N/A:  UNIQUE WELL IDENTIFIER
 API .                     N/A:  API NUMBER
 CNTY.                        :  COUNTY
 LOC .                        :  LOCATION
 LMF .             Drill Floor:  LOG MEASURED FROM
 TVDS.m                  43.00:  TVDSS CORRECTN
 SDEP.m                 341.00:  START DEPTH
 EGL .m                   0.00:  GROUND ELEVATION
 WDMS.m                 169.80:  WD ELEV
 AGAP.m                  43.00:  AIR GAP
 EPD .m                   0.00:  ELEVATION
 APD .m                  43.00:  DEPTH ABOVE PD
 LATI.deg                40.13:  LATITUDE
 LONG.deg                51.22:  LONGITUDE
 UTMY.m             4443793.85:  UTM Y
 UTMX.m              519005.06:  UTM X
 WHEW.m                 -11.57:  WELL HEAD E/W
 WHNS.m                   8.57:  WELL HEAD N/S
 VSEW.m                 -11.57:  VERT SEC E/W
 VSNS.m                   8.57:  VERT SEC N/S
 DFWL.m                   0.00:  DISTANCE FWL
 DFSL.m                   0.00:  DISTANCE FSL
 VSDR.deg               299.34:  VERT SEC DIRECT
 GVFD.g                   1.00:  GRAVITY FIELD
 AZTC.deg                 6.36:  AZM TOTAL CORR
 MFLD.nT              50391.00:  MAGNETIC FIELD
 MDIP.deg                59.65:  MAGNETIC DIP
 MDEC.deg                 6.48:  MAGNETIC DECL
 GRDC.deg                 0.12:  GRID CORRECTION
 DEP .m                 334.96:  DEPTH
 TDD .m                1407.26:  TOTAL DEPTH (DRILLER)
 EKB .m                  43.00:  KB ELEVATION
 EDF .m                  43.00:  DF ELEVATION
 TDL .m                 228.00:  TOTAL DEPTH (LOGGER)
 VSC .                       0:  VS TO CLOSURE
 MAGU.                 1854484:  MAGUTM CHECKSUM
~Parameter Information Block
#MNEM.UNIT       Value        Description
#---------     -----------    ---------------------------
 AV  .mps                 4.00:  Ann Velocity 
 AVMX.mps                 4.73:  Max Ann Veloc 
 AZIF.deg               304.48:  Azm, Final 
 BHAT.        Rotary Steerable:  BHA Type 
 BREV.rev            257300.00:  Rev Bit Total 
 BROT.°/30m               0.00:  Build Rotating 
 BS  .in                  8.50:  Bit Size 
 BSZ .in                  8.50:  Bit Size 
 BTPL.psig              589.00:  Bit Press Loss 
 CABU.                      No:  Customer Abuse 
 CGEO.          Mubariz ghayev:  Customer Geo 
 COMM.                     ¤=s:  Run Comments 1 
 TCS .hr                 64.25:  Time Ciculation Ended 
 CV  .mps                 3.50:  Crit Velocity 
 CVMX.mps                 4.52:  Max Crit Veloc 
 DD1 .             Aziz Aliyev:  Direct Drillr 1 
 DD2 .         Intigam Rahimov:  Direct Drillr 2 
 DD3 .          Rashad Habibov:  Direct Drillr 3 
 DDSV.               Geo-Pilot:  DD Service 
 DEFF.%                  98.00:  % Det Eff 
 DLRX.°/30m               0.00:  Dogleg Rot Max 
 DLSO.°/30m               0.00:  Dogleg Oriented 
 DLSX.°/30m               0.00:  Dogleg Str Max 
 DRET.      10.45.04 08-May-21:  Drill End Time 
 DRST.      03.30.04 04-May-21:  Drill Start Tim 
 DTIM.hr                 14.97:  Time Drilling 
 EDEP.m                4640.01:  End Depth 
 ENG1.         Dail Mahammadov:  Engineer 1 
 ENG2.           Eldar Hajiyev:  Engineer 2 
 ENG3.       Bakhtiar Jabbarli:  Engineer 3 
 ENG4.       Natik Hasanagayev:  Engineer 4 
 ETIM.      09.30.04 14-May-21:  End Time 
 FLOI.gpm               460.00:  Flow In 
 FLON.gpm               200.00:  Flow In Min 
 FLOS.cptm                0.00:  Fluid Loss 
 FLOX.gpm               505.00:  Flow In Max 
 HFLO.                      No:  High Flow 
 HPRE.                      No:  High Pressure 
 HTEM.                      No:  High Temp 
 HYDO.m                   1.80:  Hydro Offset 
 IFIN.deg                66.71:  Inc, Final 
 IMAX.deg                67.03:  Inc Max 
 IMIN.deg                66.63:  Inc Min 
 IMND.m                4550.58:  Inc Min Depth 
 IMXD.m                4439.01:  Inc Max Depth 
 JARR.                      No:  Jarring 
 LETM.      10.45.04 08-May-21:  Log End Time 
 LOST.hr                     0:  Lost Rig Time 
 LSTM.      03.30.04 04-May-21:  Log Start Time 
 MDCL.ppm             37000.00:  Mud Chlorides 
 MDES.     Inversion Oil/Synthetic:  Mud Desc 
 DFD .sg                  1.38:  Mud Density 
 MDMN.sg                  1.35:  Dens Mud Min 
 MDMX.sg                  1.40:  Dens Mud Max 
 MOIL.                   57.40:  Run Mud Oil % 
 MOWR.                   70:30:  Run Mud OWR 
 MSND.                    0.00:  Run Mud Sand % 
 MSOL.                   18.00:  Run Mud Solids% 
 DFV .spqt               71.00:  Mud Viscosity 
 MWOD.in                  6.75:  MWD Tool OD 
 MWSI.                      No:  Serv Intrp, MWD 
 OTIM.hr                242.76:  Time Operating 
 PCON.           Look Like New:  Pad Condition 
 PMAX.psia            12183.92:  Press Op, Max 
 PV  .cP                 27.00:  Mud PV 
 RUN .                    1300:  Run Number 
 ROPA.m/hr               15.00:  ROP Avg 
 ROPN.m/hr                9.00:  ROP Min 
 ROPX.m/hr               19.00:  ROP Max 
 RPMA.rpm               120.00:  RPM Surface Avg 
 RPMN.rpm               100.00:  RPM Surface Min 
 RPMX.rpm               120.00:  RPM Surface Max 
 RRUN.                    1300:  Rig Run Number 
 RTIM.hr                  5.00:  Time Reaming 
 SAZI.deg               304.73:  Azm, Start 
 SDEP.m                4412.01:  Start Depth 
 SIDD.                      No:  Serv Intrp, DD 
 SINC.deg                66.82:  Inc, Start 
 SPPA.psig             2800.00:  SPP Avg 
 SPPN.psig             2610.00:  SPP Min 
 SPPX.psig             3100.00:  SPP Max 
 STIM.      03.30.00 04-May-21:  Start Time 
 SVCS.                 DD, MWD:  Services 
 SVER.                    9.20:  Sperry Version 
 TDAT.m                 228.00:  Tot Depth Attmp 
 TDDF.                      No:  Trip for DD 
 TDLG.m                 228.00:  Tot Depth Loggd 
 TFF .                      No:  Trip for Fail 
 TQAA.f-kp               15.00:  Torque Abs Avg 
 TQAN.f-kp               12.00:  Torque Abs Min 
 TQAX.f-kp               22.00:  Torque Abs Max 
 TRRT.°/30m               0.00:  Turn Rotating 
 MRT .                    HCIM:  Maximum Recorded Temperature 
 TTMX.degC               90.20:  Max Tool Temp 
 VS01.                90627813:  Virtual Str1 SN 
 VS02.                90634712:  Virtual Str2 SN 
 VS03.                90643410:  Virtual Str3 SN 
 VS04.                90634712:  Virtual Str4 SN 
 WBMN.klb                 9.00:  WOB Min 
 WITN.        Elmaddin Rahimov:  Customer Rep 
 WITN.         Haytham Mostafa:  Customer Rep 2 
 WOBA.klb                15.00:  WOB Avg 
 WOBX.klb                23.00:  WOB Max 
 YP  .lhf2               29.00:  Yield Point 
~Curve Information Block
#MNEM.UNIT                 API CODE     Curve Description
#---------               -----------    ---------------------------
 TIME.HHMMSS            00 000 000 000:  GT Time & Date
 GTDEPTH.m              00 000 000 000:  GT Depth
 GTPQH.psia             00 000 000 000:  GT HR Quartz Pressure
 GTTQ.degC              00 000 000 000:  GT Quartz Temperature
 GTTN.NONE              00 000 000 000:  GT Test Number
 GTET.sec               00 000 000 000:  GT Elapsed Test Time
 GTTVD.m                00 000 000 000:  GT True Vertical Depth
#Other Information
#
#WARRANTY: Halliburton will use its best efforts to furnish customers with 
#accurate information and interpretations that are part of, and incident to, the services 
#provided.  However, Halliburton cannot and does not warrant the accuracy 
#or correctness of such information and interpretations.  Under no circumstances should any 
#such information or interpretation be relied upon as the sole basis for any drilling, 
#completion, production, or financial decision or any procedure involving any risk to the 
#safety of any drilling venture, drilling rig or its crew or any other third party.  The 
#Customer has full responsibility for all drilling, completion and production operation.  
#Halliburton makes no representations or warranties, either expressed or 
#implied, including, but not limited to, the implied warranties of merchantability or fitness 
#for a particular purpose, with respect to the services rendered.  In no event will 
#Halliburton be liable for failure to obtain any particular results or for 
#any damages, including, but not limited to, indirect, special or consequential damages, 
#resulting from the use of any information or interpretation provided by Halliburton.
#
~A           TIME           GTDEPTH  GTPQH  GTTQ  GTTN  GTET   GTTVD  
# ...
   21:54:15.000.08-May-2021 4568.51 6767.80 69.12 3.00  23.00 2999.18
   21:54:15.200.08-May-2021 4568.51 6767.80 69.12 3.00  23.20 2999.18
   21:54:15.400.08-May-2021 4568.51 6777.87 69.12 3.00  23.40 2999.18
   21:54:15.600.08-May-2021 4568.51 6778.99 69.12 3.00  23.60 2999.18
   21:54:15.800.08-May-2021 4568.51 6769.89 69.12 3.00  23.80 2999.18
   21:54:16.000.08-May-2021 4568.51 6772.06 69.11 3.00  24.00 2999.18
   21:54:16.200.08-May-2021 4568.51 6772.06 69.11 3.00  24.20 2999.18
   21:54:16.400.08-May-2021 4568.51 6771.44 69.11 3.00  24.40 2999.18
   21:54:16.600.08-May-2021 4568.51 6771.43 69.11 3.00  24.60 2999.18
   21:54:16.800.08-May-2021 4568.51 6771.24 69.11 3.00  24.80 2999.18
   21:54:17.000.08-May-2021 4568.51 6770.71 69.11 3.00  25.00 2999.18
   21:54:17.200.08-May-2021 4568.51 6770.71 69.11 3.00  25.20 2999.18
   21:54:17.400.08-May-2021 4568.51 6770.99 69.11 3.00  25.40 2999.18
   21:54:17.600.08-May-2021 4568.51 6770.92 69.11 3.00  25.60 2999.18
   21:54:17.800.08-May-2021 4568.51 6771.14 69.11 3.00  25.80 2999.18
   21:54:18.000.08-May-2021 4568.51 6783.11 69.11 3.00  26.00 2999.18
   21:54:18.200.08-May-2021 4568.51 6783.11 69.11 3.00  26.20 2999.18
   21:54:18.400.08-May-2021 4568.51 6774.64 69.11 3.00  26.40 2999.18
   21:54:18.600.08-May-2021 4568.51 6774.29 69.11 3.00  26.60 2999.18
   21:54:18.800.08-May-2021 4568.51 6787.11 69.11 3.00  26.80 2999.18
   21:54:19.000.08-May-2021 4568.51 6776.96 69.11 3.00  27.00 2999.18
   21:54:19.200.08-May-2021 4568.51 6776.96 69.11 3.00  27.20 2999.18
   21:54:19.400.08-May-2021 4568.51 6776.67 69.11 3.00  27.40 2999.18
   21:54:19.600.08-May-2021 4568.51 6775.38 69.11 3.00  27.60 2999.18
   21:54:19.800.08-May-2021 4568.51 6784.54 69.11 3.00  27.80 2999.18
   21:54:20.000.08-May-2021 4568.51 6781.78 69.11 3.00  28.00 2999.18
   21:54:20.200.08-May-2021 4568.51 6781.78 69.11 3.00  28.20 2999.18
   21:54:20.400.08-May-2021 4568.51 6775.61 69.11 3.00  28.40 2999.18
   21:54:20.600.08-May-2021 4568.51 6782.65 69.11 3.00  28.60 2999.18
   21:54:20.800.08-May-2021 4568.51 6785.15 69.11 3.00  28.80 2999.18
   21:54:21.000.08-May-2021 4568.51 6784.89 69.11 3.00  29.00 2999.18
   21:54:21.200.08-May-2021 4568.51 6784.89 69.11 3.00  29.20 2999.18
   21:54:21.400.08-May-2021 4568.51 6779.49 69.11 3.00  29.40 2999.18
   21:54:21.600.08-May-2021 4568.51 6777.28 69.11 3.00  29.60 2999.18
   21:54:21.800.08-May-2021 4568.51 6778.51 69.11 3.00  29.80 2999.18
   21:54:22.000.08-May-2021 4568.51 6778.49 69.11 3.00  30.00 2999.18
   21:54:22.200.08-May-2021 4568.51 6778.49 69.11 3.00  30.20 2999.18
   21:54:22.400.08-May-2021 4568.51 6778.83 69.11 3.00  30.40 2999.18
   21:54:22.600.08-May-2021 4568.51 6779.37 69.11 3.00  30.60 2999.18
   21:54:22.800.08-May-2021 4568.51 6779.67 69.11 3.00  30.80 2999.18
   21:54:23.000.08-May-2021 4568.51 6780.06 69.11 3.00  31.00 2999.18
   21:54:23.200.08-May-2021 4568.51 6780.06 69.11 3.00  31.20 2999.18
   21:54:23.400.08-May-2021 4568.51 6792.09 69.11 3.00  31.40 2999.18
   21:54:23.600.08-May-2021 4568.51 6789.79 69.11 3.00  31.60 2999.18
   21:54:23.800.08-May-2021 4568.51 6782.40 69.11 3.00  31.80 2999.18
   21:54:24.000.08-May-2021 4568.51 6783.06 69.11 3.00  32.00 2999.18
   21:54:24.200.08-May-2021 4568.51 6783.06 69.11 3.00  32.20 2999.18
   21:54:24.400.08-May-2021 4568.51 6781.49 69.11 3.00  32.40 2999.18
   21:54:24.600.08-May-2021 4568.51 6781.51 69.11 3.00  32.60 2999.18
   21:54:24.800.08-May-2021 4568.51 6781.17 69.11 3.00  32.80 2999.18
   21:54:25.000.08-May-2021 4568.51 6780.62 69.11 3.00  33.00 2999.18
   21:54:25.200.08-May-2021 4568.51 6780.62 69.11 3.00  33.20 2999.18
   21:54:25.400.08-May-2021 4568.51 6781.08 69.11 3.00  33.40 2999.18
   21:54:25.600.08-May-2021 4568.51 6794.41 69.11 3.00  33.60 2999.18
   21:54:25.800.08-May-2021 4568.51 6846.09 69.11 3.00  33.80 2999.18
   21:54:26.000.08-May-2021 4568.51 6866.47 69.11 3.00  34.00 2999.18
   21:54:26.200.08-May-2021 4568.51 6866.47 69.11 3.00  34.20 2999.18
   21:54:26.400.08-May-2021 4568.51 6865.29 69.11 3.00  34.40 2999.18
   21:54:26.600.08-May-2021 4568.51 6881.63 69.11 3.00  34.60 2999.18
   21:54:26.800.08-May-2021 4568.51 6892.03 69.11 3.00  34.80 2999.18
   21:54:27.000.08-May-2021 4568.51 6895.99 69.11 3.00  35.00 2999.18
   21:54:27.200.08-May-2021 4568.51 6895.99 69.11 3.00  35.20 2999.18
   21:54:27.400.08-May-2021 4568.51 6890.47 69.11 3.00  35.40 2999.18
   21:54:27.600.08-May-2021 4568.51 6894.25 69.11 3.00  35.60 2999.18
   21:54:27.800.08-May-2021 4568.51 6893.91 69.11 3.00  35.80 2999.18
   21:54:28.000.08-May-2021 4568.51 6905.99 69.11 3.00  36.00 2999.18
   21:54:28.200.08-May-2021 4568.51 6905.99 69.11 3.00  36.20 2999.18
   21:54:28.400.08-May-2021 4568.51 6900.47 69.11 3.00  36.40 2999.18
   21:54:28.600.08-May-2021 4568.51 6902.57 69.11 3.00  36.60 2999.18
   21:54:28.800.08-May-2021 4568.51 6903.11 69.11 3.00  36.80 2999.18
   21:54:29.000.08-May-2021 4568.51 6911.12 69.11 3.00  37.00 2999.18
   21:54:29.200.08-May-2021 4568.51 6911.12 69.11 3.00  37.20 2999.18
   21:54:29.400.08-May-2021 4568.51 6911.66 69.11 3.00  37.40 2999.18
   21:54:29.600.08-May-2021 4568.51 6911.73 69.11 3.00  37.60 2999.18
   21:54:29.800.08-May-2021 4568.51 6914.44 69.11 3.00  37.80 2999.18
   21:54:30.000.08-May-2021 4568.51 6912.54 69.11 3.00  38.00 2999.18
   21:54:30.200.08-May-2021 4568.51 6912.54 69.11 3.00  38.20 2999.18
   21:54:30.400.08-May-2021 4568.51 6913.20 69.11 3.00  38.40 2999.18
   21:54:30.600.08-May-2021 4568.51 6913.68 69.11 3.00  38.60 2999.18
   21:54:30.800.08-May-2021 4568.51 6912.80 69.11 3.00  38.80 2999.18
   21:54:31.000.08-May-2021 4568.51 6912.02 69.10 3.00  39.00 2999.18
   21:54:31.200.08-May-2021 4568.51 6912.02 69.10 3.00  39.20 2999.18
   21:54:31.400.08-May-2021 4568.51 6909.29 69.10 3.00  39.40 2999.18
   21:54:31.600.08-May-2021 4568.51 6906.53 69.10 3.00  39.60 2999.18
   21:54:31.800.08-May-2021 4568.51 6873.33 69.10 3.00  39.80 2999.18
   21:54:32.000.08-May-2021 4568.51 6730.92 69.10 3.00  40.00 2999.18
   21:54:32.200.08-May-2021 4568.51 6730.92 69.10 3.00  40.20 2999.18
   21:54:32.400.08-May-2021 4568.51 5669.47 69.10 3.00  40.40 2999.18
   21:54:32.600.08-May-2021 4568.51 5027.94 69.10 3.00  40.60 2999.18
   21:54:32.800.08-May-2021 4568.51 4411.73 69.10 3.00  40.80 2999.18
   21:54:33.000.08-May-2021 4568.51 3748.14 69.10 3.00  41.00 2999.18
   21:54:33.200.08-May-2021 4568.51 3748.14 69.10 3.00  41.20 2999.18
   21:54:33.400.08-May-2021 4568.51 3062.29 69.10 3.00  41.40 2999.18
   21:54:33.600.08-May-2021 4568.51 2237.75 69.10 3.00  41.60 2999.18
   21:54:33.800.08-May-2021 4568.51 1554.67 69.10 3.00  41.80 2999.18
   21:54:34.000.08-May-2021 4568.51 1118.34 69.10 3.00  42.00 2999.18
   21:54:34.200.08-May-2021 4568.51 1118.34 69.10 3.00  42.20 2999.18
   21:54:34.400.08-May-2021 4568.51  751.01 69.09 3.00  42.40 2999.18
   21:54:34.600.08-May-2021 4568.51  723.87 69.09 3.00  42.60 2999.18
   21:54:34.800.08-May-2021 4568.51  725.24 69.08 3.00  42.80 2999.18
   21:54:35.000.08-May-2021 4568.51  725.10 69.08 3.00  43.00 2999.18
   21:54:35.200.08-May-2021 4568.51  725.10 69.08 3.00  43.20 2999.18
   21:54:35.400.08-May-2021 4568.51  702.10 69.07 3.00  43.40 2999.18
   21:54:35.600.08-May-2021 4568.51  684.66 69.07 3.00  43.60 2999.18
   21:54:35.800.08-May-2021 4568.51  685.08 69.06 3.00  43.80 2999.18
   21:54:36.000.08-May-2021 4568.51  687.63 69.06 3.00  44.00 2999.18
   21:54:36.200.08-May-2021 4568.51  687.63 69.06 3.00  44.20 2999.18
   21:54:36.400.08-May-2021 4568.51  702.23 69.05 3.00  44.40 2999.18
   21:54:36.600.08-May-2021 4568.51  686.18 69.05 3.00  44.60 2999.18
   21:54:36.800.08-May-2021 4568.51  684.15 69.04 3.00  44.80 2999.18
   21:54:37.000.08-May-2021 4568.51  684.18 69.04 3.00  45.00 2999.18
   21:54:37.200.08-May-2021 4568.51  684.18 69.04 3.00  45.20 2999.18
   21:54:37.400.08-May-2021 4568.51  681.91 69.04 3.00  45.40 2999.18
   21:54:37.600.08-May-2021 4568.51  666.14 69.03 3.00  45.60 2999.18
   21:54:37.800.08-May-2021 4568.51  669.84 69.02 3.00  45.80 2999.18
