~Version Information
 VERS.                  2.0:   CWLS log ASCII Standard -VERSION 2.0
 WRAP.                   NO:   One line per depth step
~Well Information Block
#MNEM.UNIT     VALUE/NAME     DESCRIPTION
#---------     -----------    ---------------------------
 STRT.S             07:52:13 09-May-21: START TIME 07:52:13 09-May-21
 STOP.S             07:59:09 09-May-21: STOP TIME  07:59:09 09-May-21
 STEP.S                   0.00: STEP TIME
 NULL.                 -999.25: NULL VALUE
 PROV.                    Baku:  PROVINCE
 STAT.                    Baku:  STATE NAME
 SON .        AZ-XX-0906571588:  JOB NUMBER
 WTYP.                Deviated:  WELL TYPE
 COMP.     BP Exploration (Caspian Sea) ltd:  COMPANY
 BASE.              Azerbaijan:  LOGGING EQUIPMENT BASE LOCATION
 REGN.                   EESSA:  REGION
 CTRY.              Azerbaijan:  COUNTRY NAME
 FLD .                     ACG:  FIELD NAME
 WELL.                     J28:  WELL NAME
 RIG .             West Chirag:  RIG NAME
 DMF .             Drill Floor:  DRILL MEAS FROM
 PDAT.       Caspian Sea Level:  PERMANENT DATUM
 HPTY.       Minimum Curvature:  HOLE POS TYPE
 MDS .        Operator Entered:  MAG DATA SOURCE
 NREF.                    Grid:  NORTH REFERENCE
 SRVC.          TURAN DRILLING:  CONTRACTOR
 JOBN.        AZ-XX-0906571588:  JOB TICKET NUMB
 DCON.     Halliburton Sperry Drilling:  DIRECTNL CONTR
 STIM.      00.44.00 11-Feb-21:  START TIME
 DATE.      00.00.00 05-May-21:  END TIME
 SPUD.               13-Feb-21:  SPUD DATE
 MWDS.                    Baku:  MWD SHOP
 DOE .                     N/A:  DOE NUMBER
 UNIT.                     N/A:  LOGGING EQUIPMENT ID
 UWI .                     N/A:  UNIQUE WELL IDENTIFIER
 API .                     N/A:  API NUMBER
 CNTY.                        :  COUNTY
 LOC .                        :  LOCATION
 LMF .             Drill Floor:  LOG MEASURED FROM
 TVDS.m                  43.00:  TVDSS CORRECTN
 SDEP.m                 341.00:  START DEPTH
 EGL .m                   0.00:  GROUND ELEVATION
 WDMS.m                 169.80:  WD ELEV
 AGAP.m                  43.00:  AIR GAP
 EPD .m                   0.00:  ELEVATION
 APD .m                  43.00:  DEPTH ABOVE PD
 LATI.deg                40.13:  LATITUDE
 LONG.deg                51.22:  LONGITUDE
 UTMY.m             4443793.85:  UTM Y
 UTMX.m              519005.06:  UTM X
 WHEW.m                 -11.57:  WELL HEAD E/W
 WHNS.m                   8.57:  WELL HEAD N/S
 VSEW.m                 -11.57:  VERT SEC E/W
 VSNS.m                   8.57:  VERT SEC N/S
 DFWL.m                   0.00:  DISTANCE FWL
 DFSL.m                   0.00:  DISTANCE FSL
 VSDR.deg               299.34:  VERT SEC DIRECT
 GVFD.g                   1.00:  GRAVITY FIELD
 AZTC.deg                 6.36:  AZM TOTAL CORR
 MFLD.nT              50391.00:  MAGNETIC FIELD
 MDIP.deg                59.65:  MAGNETIC DIP
 MDEC.deg                 6.48:  MAGNETIC DECL
 GRDC.deg                 0.12:  GRID CORRECTION
 DEP .m                 334.96:  DEPTH
 TDD .m                1407.26:  TOTAL DEPTH (DRILLER)
 EKB .m                  43.00:  KB ELEVATION
 EDF .m                  43.00:  DF ELEVATION
 TDL .m                 228.00:  TOTAL DEPTH (LOGGER)
 VSC .                       0:  VS TO CLOSURE
 MAGU.                 1854484:  MAGUTM CHECKSUM
~Parameter Information Block
#MNEM.UNIT       Value        Description
#---------     -----------    ---------------------------
 AV  .mps                 4.00:  Ann Velocity 
 AVMX.mps                 4.73:  Max Ann Veloc 
 AZIF.deg               304.48:  Azm, Final 
 BHAT.        Rotary Steerable:  BHA Type 
 BREV.rev            257300.00:  Rev Bit Total 
 BROT.°/30m               0.00:  Build Rotating 
 BS  .in                  8.50:  Bit Size 
 BSZ .in                  8.50:  Bit Size 
 BTPL.psig              589.00:  Bit Press Loss 
 CABU.                      No:  Customer Abuse 
 CGEO.          Mubariz ghayev:  Customer Geo 
 TCS .hr                 64.25:  Time Ciculation Ended 
 CV  .mps                 3.50:  Crit Velocity 
 CVMX.mps                 4.52:  Max Crit Veloc 
 DD1 .             Aziz Aliyev:  Direct Drillr 1 
 DD2 .         Intigam Rahimov:  Direct Drillr 2 
 DD3 .          Rashad Habibov:  Direct Drillr 3 
 DDSV.               Geo-Pilot:  DD Service 
 DEFF.%                  98.00:  % Det Eff 
 DLRX.°/30m               0.00:  Dogleg Rot Max 
 DLSO.°/30m               0.00:  Dogleg Oriented 
 DLSX.°/30m               0.00:  Dogleg Str Max 
 DRET.      10.45.04 08-May-21:  Drill End Time 
 DRST.      03.30.04 04-May-21:  Drill Start Tim 
 DTIM.hr                 14.97:  Time Drilling 
 EDEP.m                4640.01:  End Depth 
 ENG1.         Dail Mahammadov:  Engineer 1 
 ENG2.           Eldar Hajiyev:  Engineer 2 
 ENG3.       Bakhtiar Jabbarli:  Engineer 3 
 ENG4.       Natik Hasanagayev:  Engineer 4 
 ETIM.      09.30.04 14-May-21:  End Time 
 FLOI.gpm               460.00:  Flow In 
 FLON.gpm               200.00:  Flow In Min 
 FLOS.cptm                0.00:  Fluid Loss 
 FLOX.gpm               505.00:  Flow In Max 
 HFLO.                      No:  High Flow 
 HPRE.                      No:  High Pressure 
 HTEM.                      No:  High Temp 
 HYDO.m                   1.80:  Hydro Offset 
 IFIN.deg                66.71:  Inc, Final 
 IMAX.deg                67.03:  Inc Max 
 IMIN.deg                66.63:  Inc Min 
 IMND.m                4550.58:  Inc Min Depth 
 IMXD.m                4439.01:  Inc Max Depth 
 JARR.                      No:  Jarring 
 LETM.      10.45.04 08-May-21:  Log End Time 
 LOST.hr                     0:  Lost Rig Time 
 LSTM.      03.30.04 04-May-21:  Log Start Time 
 MDCL.ppm             37000.00:  Mud Chlorides 
 MDES.     Inversion Oil/Synthetic:  Mud Desc 
 DFD .sg                  1.38:  Mud Density 
 MDMN.sg                  1.35:  Dens Mud Min 
 MDMX.sg                  1.40:  Dens Mud Max 
 MOIL.                   57.40:  Run Mud Oil % 
 MOWR.                   70:30:  Run Mud OWR 
 MSND.                    0.00:  Run Mud Sand % 
 MSOL.                   18.00:  Run Mud Solids% 
 DFV .spqt               71.00:  Mud Viscosity 
 MWOD.in                  6.75:  MWD Tool OD 
 MWSI.                      No:  Serv Intrp, MWD 
 OTIM.hr                242.76:  Time Operating 
 PCON.           Look Like New:  Pad Condition 
 PMAX.psia            12183.92:  Press Op, Max 
 PV  .cP                 27.00:  Mud PV 
 RUN .                    1300:  Run Number 
 ROPA.m/hr               15.00:  ROP Avg 
 ROPN.m/hr                9.00:  ROP Min 
 ROPX.m/hr               19.00:  ROP Max 
 RPMA.rpm               120.00:  RPM Surface Avg 
 RPMN.rpm               100.00:  RPM Surface Min 
 RPMX.rpm               120.00:  RPM Surface Max 
 RRUN.                    1300:  Rig Run Number 
 RTIM.hr                  5.00:  Time Reaming 
 SAZI.deg               304.73:  Azm, Start 
 SDEP.m                4412.01:  Start Depth 
 SIDD.                      No:  Serv Intrp, DD 
 SINC.deg                66.82:  Inc, Start 
 SPPA.psig             2800.00:  SPP Avg 
 SPPN.psig             2610.00:  SPP Min 
 SPPX.psig             3100.00:  SPP Max 
 STIM.      03.30.00 04-May-21:  Start Time 
 SVCS.                 DD, MWD:  Services 
 SVER.                    9.20:  Sperry Version 
 TDAT.m                 228.00:  Tot Depth Attmp 
 TDDF.                      No:  Trip for DD 
 TDLG.m                 228.00:  Tot Depth Loggd 
 TFF .                      No:  Trip for Fail 
 TQAA.f-kp               15.00:  Torque Abs Avg 
 TQAN.f-kp               12.00:  Torque Abs Min 
 TQAX.f-kp               22.00:  Torque Abs Max 
 TRRT.°/30m               0.00:  Turn Rotating 
 MRT .                    HCIM:  Maximum Recorded Temperature 
 TTMX.degC               90.20:  Max Tool Temp 
 VS01.                90627813:  Virtual Str1 SN 
 VS02.                90634712:  Virtual Str2 SN 
 VS03.                90643410:  Virtual Str3 SN 
 VS04.                90634712:  Virtual Str4 SN 
 WBMN.klb                 9.00:  WOB Min 
 WITN.        Elmaddin Rahimov:  Customer Rep 
 WITN.         Haytham Mostafa:  Customer Rep 2 
 WOBA.klb                15.00:  WOB Avg 
 WOBX.klb                23.00:  WOB Max 
 YP  .lhf2               29.00:  Yield Point 
~Curve Information Block
#MNEM.UNIT                 API CODE     Curve Description
#---------               -----------    ---------------------------
 TIME.HHMMSS            00 000 000 000:  GT Time & Date
 GTDEPTH.m              00 000 000 000:  GT Depth
 GTPQH.psia             00 000 000 000:  GT HR Quartz Pressure
 GTTQ.degC              00 000 000 000:  GT Quartz Temperature
 GTTN.NONE              00 000 000 000:  GT Test Number
 GTET.sec               00 000 000 000:  GT Elapsed Test Time
 GTTVD.m                00 000 000 000:  GT True Vertical Depth
#Other Information
#
#WARRANTY: Halliburton will use its best efforts to furnish customers with 
#accurate information and interpretations that are part of, and incident to, the services 
#provided.  However, Halliburton cannot and does not warrant the accuracy 
#or correctness of such information and interpretations.  Under no circumstances should any 
#such information or interpretation be relied upon as the sole basis for any drilling, 
#completion, production, or financial decision or any procedure involving any risk to the 
#safety of any drilling venture, drilling rig or its crew or any other third party.  The 
#Customer has full responsibility for all drilling, completion and production operation.  
#Halliburton makes no representations or warranties, either expressed or 
#implied, including, but not limited to, the implied warranties of merchantability or fitness 
#for a particular purpose, with respect to the services rendered.  In no event will 
#Halliburton be liable for failure to obtain any particular results or for 
#any damages, including, but not limited to, indirect, special or consequential damages, 
#resulting from the use of any information or interpretation provided by Halliburton.
#
~A           TIME           GTDEPTH  GTPQH  GTTQ  GTTN   GTET   GTTVD  
# ...
   07:52:58.402.09-May-2021 4413.51 4272.31 65.61 16.00  45.21 2938.18
   07:52:58.602.09-May-2021 4413.51 3991.99 65.60 16.00  45.41 2938.18
   07:52:58.802.09-May-2021 4413.51 3300.14 65.60 16.00  45.61 2938.18
   07:52:59.002.09-May-2021 4413.51 2740.39 65.60 16.00  45.81 2938.18
   07:52:59.202.09-May-2021 4413.51 2696.45 65.59 16.00  46.01 2938.18
   07:52:59.402.09-May-2021 4413.51 2696.45 65.59 16.00  46.21 2938.18
   07:52:59.602.09-May-2021 4413.51 2971.79 65.59 16.00  46.41 2938.18
   07:52:59.802.09-May-2021 4413.51 2963.11 65.59 16.00  46.61 2938.18
   07:53:00.002.09-May-2021 4413.51 2880.51 65.59 16.00  46.81 2938.18
   07:53:00.202.09-May-2021 4413.51 2555.32 65.58 16.00  47.01 2938.18
   07:53:00.402.09-May-2021 4413.51 2555.32 65.58 16.00  47.21 2938.18
   07:53:00.602.09-May-2021 4413.51 1698.80 65.58 16.00  47.41 2938.18
   07:53:00.802.09-May-2021 4413.51 2180.91 65.58 16.00  47.61 2938.18
   07:53:01.002.09-May-2021 4413.51 3458.62 65.57 16.00  47.81 2938.18
   07:53:01.202.09-May-2021 4413.51 3077.31 65.57 16.00  48.01 2938.18
   07:53:01.402.09-May-2021 4413.51 3077.31 65.57 16.00  48.21 2938.18
   07:53:01.602.09-May-2021 4413.51 3992.02 65.57 16.00  48.41 2938.18
   07:53:01.802.09-May-2021 4413.51 4239.42 65.56 16.00  48.61 2938.18
   07:53:02.002.09-May-2021 4413.51 4308.16 65.56 16.00  48.81 2938.18
   07:53:02.202.09-May-2021 4413.51 4309.06 65.56 16.00  49.01 2938.18
   07:53:02.402.09-May-2021 4413.51 4309.06 65.56 16.00  49.21 2938.18
   07:53:02.602.09-May-2021 4413.51 4299.09 65.56 16.00  49.41 2938.18
   07:53:02.802.09-May-2021 4413.51 4287.77 65.56 16.00  49.61 2938.18
   07:53:03.002.09-May-2021 4413.51 4289.36 65.56 16.00  49.81 2938.18
   07:53:03.202.09-May-2021 4413.51 4291.24 65.56 16.00  50.01 2938.18
   07:53:03.402.09-May-2021 4413.51 4291.24 65.56 16.00  50.21 2938.18
   07:53:03.602.09-May-2021 4413.51 4289.53 65.55 16.00  50.41 2938.18
   07:53:03.802.09-May-2021 4413.51 4292.27 65.55 16.00  50.61 2938.18
   07:53:04.002.09-May-2021 4413.51 4289.79 65.55 16.00  50.81 2938.18
   07:53:04.202.09-May-2021 4413.51 3969.41 65.55 16.00  51.01 2938.18
   07:53:04.402.09-May-2021 4413.51 3969.41 65.55 16.00  51.21 2938.18
   07:53:04.602.09-May-2021 4413.51 3969.54 65.55 16.00  51.41 2938.18
   07:53:04.803.09-May-2021 4413.51 4053.58 65.55 16.00  51.61 2938.18
   07:53:05.003.09-May-2021 4413.51 4121.46 65.55 16.00  51.81 2938.18
   07:53:05.203.09-May-2021 4413.51 4176.30 65.55 16.00  52.01 2938.18
   07:53:05.403.09-May-2021 4413.51 4176.30 65.55 16.00  52.21 2938.18
   07:53:05.603.09-May-2021 4413.51 4257.56 65.55 16.00  52.41 2938.18
   07:53:05.803.09-May-2021 4413.51 4287.74 65.55 16.00  52.61 2938.18
   07:53:06.003.09-May-2021 4413.51 4312.43 65.55 16.00  52.81 2938.18
   07:53:06.203.09-May-2021 4413.51 4332.19 65.55 16.00  53.01 2938.18
   07:53:06.403.09-May-2021 4413.51 4332.19 65.55 16.00  53.21 2938.18
   07:53:06.603.09-May-2021 4413.51 4364.65 65.55 16.00  53.41 2938.18
   07:53:06.803.09-May-2021 4413.51 4376.02 65.55 16.00  53.61 2938.18
   07:53:07.003.09-May-2021 4413.51 4386.30 65.55 16.00  53.81 2938.18
   07:53:07.203.09-May-2021 4413.51 4394.95 65.55 16.00  54.01 2938.18
   07:53:07.403.09-May-2021 4413.51 4394.95 65.55 16.00  54.21 2938.18
   07:53:07.603.09-May-2021 4413.51 4408.29 65.55 16.00  54.41 2938.18
   07:53:07.803.09-May-2021 4413.51 4416.08 65.55 16.00  54.61 2938.18
   07:53:08.003.09-May-2021 4413.51 4419.67 65.55 16.00  54.81 2938.18
   07:53:08.203.09-May-2021 4413.51 4421.85 65.56 16.00  55.01 2938.18
   07:53:08.403.09-May-2021 4413.51 4421.85 65.56 16.00  55.21 2938.18
   07:53:08.603.09-May-2021 4413.51 4426.93 65.56 16.00  55.41 2938.18
   07:53:08.803.09-May-2021 4413.51 4427.69 65.56 16.00  55.61 2938.18
   07:53:09.003.09-May-2021 4413.51 4427.60 65.56 16.00  55.81 2938.18
   07:53:09.203.09-May-2021 4413.51 4427.62 65.56 16.00  56.01 2938.18
   07:53:09.403.09-May-2021 4413.51 4427.62 65.56 16.00  56.21 2938.18
   07:53:09.603.09-May-2021 4413.51 4427.68 65.56 16.00  56.41 2938.18
   07:53:09.803.09-May-2021 4413.51 4427.75 65.56 16.00  56.61 2938.18
   07:53:10.003.09-May-2021 4413.51 4427.75 65.56 16.00  56.81 2938.18
   07:53:10.203.09-May-2021 4413.51 4427.80 65.56 16.00  57.01 2938.18
   07:53:10.403.09-May-2021 4413.51 4427.80 65.56 16.00  57.21 2938.18
   07:53:10.603.09-May-2021 4413.51 4427.83 65.56 16.00  57.41 2938.18
   07:53:10.803.09-May-2021 4413.51 4427.73 65.56 16.00  57.61 2938.18
   07:53:11.003.09-May-2021 4413.51 4428.11 65.56 16.00  57.81 2938.18
   07:53:11.203.09-May-2021 4413.51 4427.88 65.56 16.00  58.01 2938.18
   07:53:11.403.09-May-2021 4413.51 4427.88 65.56 16.00  58.21 2938.18
   07:53:11.603.09-May-2021 4413.51 4427.82 65.56 16.00  58.41 2938.18
   07:53:11.803.09-May-2021 4413.51 4427.96 65.56 16.00  58.61 2938.18
   07:53:12.004.09-May-2021 4413.51 4427.90 65.56 16.00  58.81 2938.18
   07:53:12.204.09-May-2021 4413.51 4427.94 65.56 16.00  59.01 2938.18
   07:53:12.404.09-May-2021 4413.51 4427.94 65.56 16.00  59.21 2938.18
   07:53:12.604.09-May-2021 4413.51 4427.96 65.56 16.00  59.41 2938.18
   07:53:12.804.09-May-2021 4413.51 4427.98 65.56 16.00  59.61 2938.18
   07:53:13.004.09-May-2021 4413.51 4427.99 65.56 16.00  59.81 2938.18
   07:53:13.204.09-May-2021 4413.51 4428.00 65.56 16.00  60.01 2938.18
   07:53:13.404.09-May-2021 4413.51 4428.00 65.56 16.00  60.21 2938.18
   07:53:13.604.09-May-2021 4413.51 4428.36 65.56 16.00  60.41 2938.18
   07:53:13.804.09-May-2021 4413.51 4427.88 65.56 16.00  60.61 2938.18
   07:53:14.004.09-May-2021 4413.51 4428.12 65.56 16.00  60.81 2938.18
   07:53:14.204.09-May-2021 4413.51 4428.01 65.56 16.00  61.01 2938.18
   07:53:14.404.09-May-2021 4413.51 4428.01 65.56 16.00  61.21 2938.18
   07:53:14.604.09-May-2021 4413.51 4428.27 65.56 16.00  61.41 2938.18
   07:53:14.804.09-May-2021 4413.51 4428.03 65.56 16.00  61.61 2938.18
   07:53:15.004.09-May-2021 4413.51 4428.27 65.56 16.00  61.81 2938.18
   07:53:15.204.09-May-2021 4413.51 4427.99 65.56 16.00  62.01 2938.18
   07:53:15.404.09-May-2021 4413.51 4427.99 65.56 16.00  62.21 2938.18
   07:53:15.604.09-May-2021 4413.51 4428.24 65.56 16.00  62.41 2938.18
   07:53:15.804.09-May-2021 4413.51 4428.01 65.56 16.00  62.61 2938.18
   07:53:16.004.09-May-2021 4413.51 4428.24 65.56 16.00  62.81 2938.18
   07:53:16.204.09-May-2021 4413.51 4428.05 65.56 16.00  63.01 2938.18
   07:53:16.404.09-May-2021 4413.51 4428.05 65.56 16.00  63.21 2938.18
   07:53:16.604.09-May-2021 4413.51 4428.24 65.56 16.00  63.41 2938.18
   07:53:16.804.09-May-2021 4413.51 4428.08 65.56 16.00  63.61 2938.18
   07:53:17.004.09-May-2021 4413.51 4428.21 65.56 16.00  63.81 2938.18
   07:53:17.204.09-May-2021 4413.51 4428.10 65.56 16.00  64.01 2938.18
   07:53:17.404.09-May-2021 4413.51 4428.10 65.56 16.00  64.21 2938.18
   07:53:17.604.09-May-2021 4413.51 4428.08 65.56 16.00  64.41 2938.18
   07:53:17.804.09-May-2021 4413.51 4428.15 65.56 16.00  64.61 2938.18
   07:53:18.004.09-May-2021 4413.51 4428.11 65.56 16.00  64.81 2938.18
   07:53:18.204.09-May-2021 4413.51 4428.15 65.56 16.00  65.01 2938.18
   07:53:18.404.09-May-2021 4413.51 4428.15 65.56 16.00  65.21 2938.18
   07:53:18.604.09-May-2021 4413.51 4428.18 65.56 16.00  65.41 2938.18
   07:53:18.804.09-May-2021 4413.51 4428.16 65.56 16.00  65.61 2938.18
   07:53:19.004.09-May-2021 4413.51 4428.54 65.56 16.00  65.81 2938.18
   07:53:19.205.09-May-2021 4413.51 4428.01 65.56 16.00  66.01 2938.18
   07:53:19.405.09-May-2021 4413.51 4428.01 65.56 16.00  66.21 2938.18
   07:53:19.605.09-May-2021 4413.51 4428.14 65.56 16.00  66.41 2938.18
   07:53:19.805.09-May-2021 4413.51 4428.15 65.56 16.00  66.61 2938.18
   07:53:20.005.09-May-2021 4413.51 4428.20 65.56 16.00  66.81 2938.18
   07:53:20.205.09-May-2021 4413.51 4428.16 65.56 16.00  67.01 2938.18
   07:53:20.405.09-May-2021 4413.51 4428.16 65.56 16.00  67.21 2938.18
   07:53:20.605.09-May-2021 4413.51 4428.18 65.56 16.00  67.41 2938.18
   07:53:20.805.09-May-2021 4413.51 4428.20 65.56 16.00  67.61 2938.18
