~Version Information
 VERS.                  2.0:   CWLS log ASCII Standard -VERSION 2.0
 WRAP.                   NO:   One line per depth step
~Well Information Block
#MNEM.UNIT     VALUE/NAME     DESCRIPTION
#---------     -----------    ---------------------------
 STRT.S             23:07:02 09-May-21: START TIME 23:07:02 09-May-21
 STOP.S             23:13:42 09-May-21: STOP TIME  23:13:42 09-May-21
 STEP.S                   0.00: STEP TIME
 NULL.                 -999.25: NULL VALUE
 PROV.                    Baku:  PROVINCE
 STAT.                    Baku:  STATE NAME
 SON .        AZ-XX-0906571588:  JOB NUMBER
 WTYP.                Deviated:  WELL TYPE
 COMP.     BP Exploration (Caspian Sea) ltd:  COMPANY
 BASE.              Azerbaijan:  LOGGING EQUIPMENT BASE LOCATION
 REGN.                   EESSA:  REGION
 CTRY.              Azerbaijan:  COUNTRY NAME
 FLD .                     ACG:  FIELD NAME
 WELL.                     J28:  WELL NAME
 RIG .             West Chirag:  RIG NAME
 DMF .             Drill Floor:  DRILL MEAS FROM
 PDAT.       Caspian Sea Level:  PERMANENT DATUM
 HPTY.       Minimum Curvature:  HOLE POS TYPE
 MDS .        Operator Entered:  MAG DATA SOURCE
 NREF.                    Grid:  NORTH REFERENCE
 SRVC.          TURAN DRILLING:  CONTRACTOR
 JOBN.        AZ-XX-0906571588:  JOB TICKET NUMB
 DCON.     Halliburton Sperry Drilling:  DIRECTNL CONTR
 STIM.      00.44.00 11-Feb-21:  START TIME
 DATE.      00.00.00 05-May-21:  END TIME
 SPUD.               13-Feb-21:  SPUD DATE
 MWDS.                    Baku:  MWD SHOP
 DOE .                     N/A:  DOE NUMBER
 UNIT.                     N/A:  LOGGING EQUIPMENT ID
 UWI .                     N/A:  UNIQUE WELL IDENTIFIER
 API .                     N/A:  API NUMBER
 CNTY.                        :  COUNTY
 LOC .                        :  LOCATION
 LMF .             Drill Floor:  LOG MEASURED FROM
 TVDS.m                  43.00:  TVDSS CORRECTN
 SDEP.m                 341.00:  START DEPTH
 EGL .m                   0.00:  GROUND ELEVATION
 WDMS.m                 169.80:  WD ELEV
 AGAP.m                  43.00:  AIR GAP
 EPD .m                   0.00:  ELEVATION
 APD .m                  43.00:  DEPTH ABOVE PD
 LATI.deg                40.13:  LATITUDE
 LONG.deg                51.22:  LONGITUDE
 UTMY.m             4443793.85:  UTM Y
 UTMX.m              519005.06:  UTM X
 WHEW.m                 -11.57:  WELL HEAD E/W
 WHNS.m                   8.57:  WELL HEAD N/S
 VSEW.m                 -11.57:  VERT SEC E/W
 VSNS.m                   8.57:  VERT SEC N/S
 DFWL.m                   0.00:  DISTANCE FWL
 DFSL.m                   0.00:  DISTANCE FSL
 VSDR.deg               299.34:  VERT SEC DIRECT
 GVFD.g                   1.00:  GRAVITY FIELD
 AZTC.deg                 6.36:  AZM TOTAL CORR
 MFLD.nT              50391.00:  MAGNETIC FIELD
 MDIP.deg                59.65:  MAGNETIC DIP
 MDEC.deg                 6.48:  MAGNETIC DECL
 GRDC.deg                 0.12:  GRID CORRECTION
 DEP .m                 334.96:  DEPTH
 TDD .m                1407.26:  TOTAL DEPTH (DRILLER)
 EKB .m                  43.00:  KB ELEVATION
 EDF .m                  43.00:  DF ELEVATION
 TDL .m                 228.00:  TOTAL DEPTH (LOGGER)
 VSC .                       0:  VS TO CLOSURE
 MAGU.                 1854484:  MAGUTM CHECKSUM
~Parameter Information Block
#MNEM.UNIT       Value        Description
#---------     -----------    ---------------------------
 AV  .mps                 4.00:  Ann Velocity 
 AVMX.mps                 4.73:  Max Ann Veloc 
 AZIF.deg               304.48:  Azm, Final 
 BHAT.        Rotary Steerable:  BHA Type 
 BREV.rev            257300.00:  Rev Bit Total 
 BROT.°/30m               0.00:  Build Rotating 
 BS  .in                  8.50:  Bit Size 
 BSZ .in                  8.50:  Bit Size 
 BTPL.psig              589.00:  Bit Press Loss 
 CABU.                      No:  Customer Abuse 
 CGEO.          Mubariz ghayev:  Customer Geo 
 COMM.                     d:  Run Comments 1 
 TCS .hr                 64.25:  Time Ciculation Ended 
 CV  .mps                 3.50:  Crit Velocity 
 CVMX.mps                 4.52:  Max Crit Veloc 
 DD1 .             Aziz Aliyev:  Direct Drillr 1 
 DD2 .         Intigam Rahimov:  Direct Drillr 2 
 DD3 .          Rashad Habibov:  Direct Drillr 3 
 DDSV.               Geo-Pilot:  DD Service 
 DEFF.%                  98.00:  % Det Eff 
 DLRX.°/30m               0.00:  Dogleg Rot Max 
 DLSO.°/30m               0.00:  Dogleg Oriented 
 DLSX.°/30m               0.00:  Dogleg Str Max 
 DRET.      10.45.04 08-May-21:  Drill End Time 
 DRST.      03.30.04 04-May-21:  Drill Start Tim 
 DTIM.hr                 14.97:  Time Drilling 
 EDEP.m                4640.01:  End Depth 
 ENG1.         Dail Mahammadov:  Engineer 1 
 ENG2.           Eldar Hajiyev:  Engineer 2 
 ENG3.       Bakhtiar Jabbarli:  Engineer 3 
 ENG4.       Natik Hasanagayev:  Engineer 4 
 ETIM.      09.30.04 14-May-21:  End Time 
 FLOI.gpm               460.00:  Flow In 
 FLON.gpm               200.00:  Flow In Min 
 FLOS.cptm                0.00:  Fluid Loss 
 FLOX.gpm               505.00:  Flow In Max 
 HFLO.                      No:  High Flow 
 HPRE.                      No:  High Pressure 
 HTEM.                      No:  High Temp 
 HYDO.m                   1.80:  Hydro Offset 
 IFIN.deg                66.71:  Inc, Final 
 IMAX.deg                67.03:  Inc Max 
 IMIN.deg                66.63:  Inc Min 
 IMND.m                4550.58:  Inc Min Depth 
 IMXD.m                4439.01:  Inc Max Depth 
 JARR.                      No:  Jarring 
 LETM.      10.45.04 08-May-21:  Log End Time 
 LOST.hr                     0:  Lost Rig Time 
 LSTM.      03.30.04 04-May-21:  Log Start Time 
 MDCL.ppm             37000.00:  Mud Chlorides 
 MDES.     Inversion Oil/Synthetic:  Mud Desc 
 DFD .sg                  1.38:  Mud Density 
 MDMN.sg                  1.35:  Dens Mud Min 
 MDMX.sg                  1.40:  Dens Mud Max 
 MOIL.                   57.40:  Run Mud Oil % 
 MOWR.                   70:30:  Run Mud OWR 
 MSND.                    0.00:  Run Mud Sand % 
 MSOL.                   18.00:  Run Mud Solids% 
 DFV .spqt               71.00:  Mud Viscosity 
 MWOD.in                  6.75:  MWD Tool OD 
 MWSI.                      No:  Serv Intrp, MWD 
 OTIM.hr                242.76:  Time Operating 
 PCON.           Look Like New:  Pad Condition 
 PMAX.psia            12183.92:  Press Op, Max 
 PV  .cP                 27.00:  Mud PV 
 RUN .                    1300:  Run Number 
 ROPA.m/hr               15.00:  ROP Avg 
 ROPN.m/hr                9.00:  ROP Min 
 ROPX.m/hr               19.00:  ROP Max 
 RPMA.rpm               120.00:  RPM Surface Avg 
 RPMN.rpm               100.00:  RPM Surface Min 
 RPMX.rpm               120.00:  RPM Surface Max 
 RRUN.                    1300:  Rig Run Number 
 RTIM.hr                  5.00:  Time Reaming 
 SAZI.deg               304.73:  Azm, Start 
 SDEP.m                4412.01:  Start Depth 
 SIDD.                      No:  Serv Intrp, DD 
 SINC.deg                66.82:  Inc, Start 
 SPPA.psig             2800.00:  SPP Avg 
 SPPN.psig             2610.00:  SPP Min 
 SPPX.psig             3100.00:  SPP Max 
 STIM.      03.30.00 04-May-21:  Start Time 
 SVCS.                 DD, MWD:  Services 
 SVER.                    9.20:  Sperry Version 
 TDAT.m                 228.00:  Tot Depth Attmp 
 TDDF.                      No:  Trip for DD 
 TDLG.m                 228.00:  Tot Depth Loggd 
 TFF .                      No:  Trip for Fail 
 TQAA.f-kp               15.00:  Torque Abs Avg 
 TQAN.f-kp               12.00:  Torque Abs Min 
 TQAX.f-kp               22.00:  Torque Abs Max 
 TRRT.°/30m               0.00:  Turn Rotating 
 MRT .                    HCIM:  Maximum Recorded Temperature 
 TTMX.degC               90.20:  Max Tool Temp 
 VS01.                90627813:  Virtual Str1 SN 
 VS02.                90634712:  Virtual Str2 SN 
 VS03.                90643410:  Virtual Str3 SN 
 VS04.                90634712:  Virtual Str4 SN 
 WBMN.klb                 9.00:  WOB Min 
 WITN.        Elmaddin Rahimov:  Customer Rep 
 WITN.         Haytham Mostafa:  Customer Rep 2 
 WOBA.klb                15.00:  WOB Avg 
 WOBX.klb                23.00:  WOB Max 
 YP  .lhf2               29.00:  Yield Point 
~Curve Information Block
#MNEM.UNIT                 API CODE     Curve Description
#---------               -----------    ---------------------------
 TIME.HHMMSS            00 000 000 000:  GT Time & Date
 GTDEPTH.m              00 000 000 000:  GT Depth
 GTPQH.psia             00 000 000 000:  GT HR Quartz Pressure
 GTTQ.degC              00 000 000 000:  GT Quartz Temperature
 GTTN.NONE              00 000 000 000:  GT Test Number
 GTET.sec               00 000 000 000:  GT Elapsed Test Time
 GTTVD.m                00 000 000 000:  GT True Vertical Depth
#Other Information
#
#WARRANTY: Halliburton will use its best efforts to furnish customers with 
#accurate information and interpretations that are part of, and incident to, the services 
#provided.  However, Halliburton cannot and does not warrant the accuracy 
#or correctness of such information and interpretations.  Under no circumstances should any 
#such information or interpretation be relied upon as the sole basis for any drilling, 
#completion, production, or financial decision or any procedure involving any risk to the 
#safety of any drilling venture, drilling rig or its crew or any other third party.  The 
#Customer has full responsibility for all drilling, completion and production operation.  
#Halliburton makes no representations or warranties, either expressed or 
#implied, including, but not limited to, the implied warranties of merchantability or fitness 
#for a particular purpose, with respect to the services rendered.  In no event will 
#Halliburton be liable for failure to obtain any particular results or for 
#any damages, including, but not limited to, indirect, special or consequential damages, 
#resulting from the use of any information or interpretation provided by Halliburton.
#
~A           TIME           GTDEPTH  GTPQH  GTTQ  GTTN   GTET   GTTVD  
# ...
   23:09:40.995.09-May-2021 4503.01  430.47 60.41 17.00 158.16 2973.29
   23:09:41.195.09-May-2021 4503.01  429.82 60.41 17.00 158.36 2973.29
   23:09:41.395.09-May-2021 4503.01  426.88 60.41 17.00 158.56 2973.29
   23:09:41.595.09-May-2021 4503.01  426.74 60.41 17.00 158.76 2973.29
   23:09:41.795.09-May-2021 4503.01  426.69 60.41 17.00 158.96 2973.29
   23:09:41.995.09-May-2021 4503.01  426.69 60.41 17.00 159.16 2973.29
   23:09:42.195.09-May-2021 4503.01  422.14 60.40 17.00 159.36 2973.29
   23:09:42.395.09-May-2021 4503.01  419.72 60.40 17.00 159.56 2973.29
   23:09:42.595.09-May-2021 4503.01  414.51 60.40 17.00 159.76 2973.29
   23:09:42.795.09-May-2021 4503.01  409.30 60.40 17.00 159.96 2973.29
   23:09:42.995.09-May-2021 4503.01  409.30 60.40 17.00 160.16 2973.29
   23:09:43.195.09-May-2021 4503.01  406.71 60.40 17.00 160.36 2973.29
   23:09:43.395.09-May-2021 4503.01  404.11 60.40 17.00 160.56 2973.29
   23:09:43.595.09-May-2021 4503.01  406.18 60.40 17.00 160.76 2973.29
   23:09:43.795.09-May-2021 4503.01  412.15 60.40 17.00 160.96 2973.29
   23:09:43.995.09-May-2021 4503.01  412.15 60.40 17.00 161.16 2973.29
   23:09:44.195.09-May-2021 4503.01  436.22 60.40 17.00 161.36 2973.29
   23:09:44.394.09-May-2021 4503.01  445.21 60.40 17.00 161.56 2973.29
   23:09:44.594.09-May-2021 4503.01  453.87 60.40 17.00 161.76 2973.29
   23:09:44.794.09-May-2021 4503.01  462.77 60.39 17.00 161.96 2973.29
   23:09:44.994.09-May-2021 4503.01  462.77 60.39 17.00 162.16 2973.29
   23:09:45.194.09-May-2021 4503.01  480.16 60.39 17.00 162.36 2973.29
   23:09:45.394.09-May-2021 4503.01  488.76 60.39 17.00 162.56 2973.29
   23:09:45.594.09-May-2021 4503.01  497.12 60.39 17.00 162.76 2973.29
   23:09:45.794.09-May-2021 4503.01  505.24 60.39 17.00 162.96 2973.29
   23:09:45.994.09-May-2021 4503.01  505.24 60.39 17.00 163.16 2973.29
   23:09:46.194.09-May-2021 4503.01  521.40 60.39 17.00 163.36 2973.29
   23:09:46.394.09-May-2021 4503.01  529.40 60.39 17.00 163.56 2973.29
   23:09:46.594.09-May-2021 4503.01  537.91 60.39 17.00 163.76 2973.29
   23:09:46.794.09-May-2021 4503.01  546.28 60.39 17.00 163.96 2973.29
   23:09:46.994.09-May-2021 4503.01  546.28 60.39 17.00 164.16 2973.29
   23:09:47.194.09-May-2021 4503.01  562.07 60.39 17.00 164.36 2973.29
   23:09:47.394.09-May-2021 4503.01  569.88 60.39 17.00 164.56 2973.29
   23:09:47.594.09-May-2021 4503.01  577.26 60.39 17.00 164.76 2973.29
   23:09:47.794.09-May-2021 4503.01  585.24 60.39 17.00 164.96 2973.29
   23:09:47.994.09-May-2021 4503.01  585.24 60.39 17.00 165.16 2973.29
   23:09:48.194.09-May-2021 4503.01  601.33 60.39 17.00 165.36 2973.29
   23:09:48.393.09-May-2021 4503.01  608.63 60.39 17.00 165.56 2973.29
   23:09:48.593.09-May-2021 4503.01  616.72 60.39 17.00 165.76 2973.29
   23:09:48.793.09-May-2021 4503.01  624.15 60.39 17.00 165.96 2973.29
   23:09:48.993.09-May-2021 4503.01  624.15 60.39 17.00 166.16 2973.29
   23:09:49.193.09-May-2021 4503.01  639.28 60.39 17.00 166.36 2973.29
   23:09:49.393.09-May-2021 4503.01  646.59 60.39 17.00 166.56 2973.29
   23:09:49.593.09-May-2021 4503.01  654.03 60.39 17.00 166.76 2973.29
   23:09:49.793.09-May-2021 4503.01  660.94 60.39 17.00 166.96 2973.29
   23:09:49.993.09-May-2021 4503.01  660.94 60.39 17.00 167.16 2973.29
   23:09:50.193.09-May-2021 4503.01  674.99 60.39 17.00 167.36 2973.29
   23:09:50.393.09-May-2021 4503.01  681.85 60.39 17.00 167.56 2973.29
   23:09:50.593.09-May-2021 4503.01  688.58 60.39 17.00 167.76 2973.29
   23:09:50.793.09-May-2021 4503.01  695.34 60.39 17.00 167.96 2973.29
   23:09:50.993.09-May-2021 4503.01  695.34 60.39 17.00 168.16 2973.29
   23:09:51.193.09-May-2021 4503.01  708.53 60.39 17.00 168.36 2973.29
   23:09:51.393.09-May-2021 4503.01  715.03 60.39 17.00 168.56 2973.29
   23:09:51.593.09-May-2021 4503.01  721.13 60.39 17.00 168.76 2973.29
   23:09:51.793.09-May-2021 4503.01  728.01 60.39 17.00 168.96 2973.29
   23:09:51.993.09-May-2021 4503.01  728.01 60.39 17.00 169.16 2973.29
   23:09:52.192.09-May-2021 4503.01  740.68 60.39 17.00 169.36 2973.29
   23:09:52.392.09-May-2021 4503.01  746.99 60.39 17.00 169.56 2973.29
   23:09:52.592.09-May-2021 4503.01  753.15 60.39 17.00 169.76 2973.29
   23:09:52.792.09-May-2021 4503.01  759.36 60.39 17.00 169.96 2973.29
   23:09:52.992.09-May-2021 4503.01  759.36 60.39 17.00 170.16 2973.29
   23:09:53.192.09-May-2021 4503.01  771.50 60.39 17.00 170.36 2973.29
   23:09:53.392.09-May-2021 4503.01  777.47 60.39 17.00 170.56 2973.29
   23:09:53.592.09-May-2021 4503.01  783.38 60.39 17.00 170.76 2973.29
   23:09:53.792.09-May-2021 4503.01  789.20 60.39 17.00 170.96 2973.29
   23:09:53.992.09-May-2021 4503.01  789.20 60.39 17.00 171.16 2973.29
   23:09:54.192.09-May-2021 4503.01  800.19 60.39 17.00 171.36 2973.29
   23:09:54.392.09-May-2021 4503.01  806.58 60.39 17.00 171.56 2973.29
   23:09:54.592.09-May-2021 4503.01  812.31 60.39 17.00 171.76 2973.29
   23:09:54.792.09-May-2021 4503.01  817.83 60.39 17.00 171.96 2973.29
   23:09:54.992.09-May-2021 4503.01  817.83 60.39 17.00 172.16 2973.29
   23:09:55.192.09-May-2021 4503.01  828.85 60.39 17.00 172.36 2973.29
   23:09:55.392.09-May-2021 4503.01  834.68 60.39 17.00 172.55 2973.29
   23:09:55.592.09-May-2021 4503.01  840.34 60.39 17.00 172.75 2973.29
   23:09:55.792.09-May-2021 4503.01  845.91 60.39 17.00 172.95 2973.29
   23:09:55.991.09-May-2021 4503.01  845.91 60.39 17.00 173.15 2973.29
   23:09:56.191.09-May-2021 4503.01  856.36 60.39 17.00 173.35 2973.29
   23:09:56.391.09-May-2021 4503.01  862.38 60.39 17.00 173.55 2973.29
   23:09:56.591.09-May-2021 4503.01  867.96 60.39 17.00 173.75 2973.29
   23:09:56.791.09-May-2021 4503.01  873.54 60.39 17.00 173.95 2973.29
   23:09:56.991.09-May-2021 4503.01  873.54 60.39 17.00 174.15 2973.29
   23:09:57.191.09-May-2021 4503.01  885.00 60.39 17.00 174.35 2973.29
   23:09:57.391.09-May-2021 4503.01  890.49 60.40 17.00 174.55 2973.29
   23:09:57.591.09-May-2021 4503.01  895.86 60.40 17.00 174.75 2973.29
   23:09:57.791.09-May-2021 4503.01  901.41 60.40 17.00 174.95 2973.29
   23:09:57.991.09-May-2021 4503.01  901.41 60.40 17.00 175.15 2973.29
   23:09:58.191.09-May-2021 4503.01  912.13 60.40 17.00 175.35 2973.29
   23:09:58.391.09-May-2021 4503.01  917.47 60.40 17.00 175.55 2973.29
   23:09:58.591.09-May-2021 4503.01  922.74 60.40 17.00 175.75 2973.29
   23:09:58.791.09-May-2021 4503.01  927.95 60.40 17.00 175.95 2973.29
   23:09:58.991.09-May-2021 4503.01  927.95 60.40 17.00 176.15 2973.29
   23:09:59.191.09-May-2021 4503.01  938.26 60.40 17.00 176.35 2973.29
   23:09:59.391.09-May-2021 4503.01  943.08 60.40 17.00 176.55 2973.29
   23:09:59.591.09-May-2021 4503.01  948.40 60.40 17.00 176.75 2973.29
   23:09:59.790.09-May-2021 4503.01  953.69 60.40 17.00 176.95 2973.29
   23:09:59.990.09-May-2021 4503.01  953.69 60.40 17.00 177.15 2973.29
   23:10:00.190.09-May-2021 4503.01  963.91 60.40 17.00 177.35 2973.29
   23:10:00.390.09-May-2021 4503.01  968.92 60.40 17.00 177.55 2973.29
   23:10:00.590.09-May-2021 4503.01  973.94 60.40 17.00 177.75 2973.29
   23:10:00.790.09-May-2021 4503.01  979.03 60.40 17.00 177.95 2973.29
   23:10:00.990.09-May-2021 4503.01  979.03 60.40 17.00 178.15 2973.29
   23:10:01.190.09-May-2021 4503.01  989.20 60.40 17.00 178.35 2973.29
   23:10:01.390.09-May-2021 4503.01  994.27 60.40 17.00 178.55 2973.29
   23:10:01.590.09-May-2021 4503.01  999.27 60.40 17.00 178.75 2973.29
   23:10:01.790.09-May-2021 4503.01 1004.27 60.40 17.00 178.95 2973.29
   23:10:01.990.09-May-2021 4503.01 1004.27 60.40 17.00 179.15 2973.29
   23:10:02.190.09-May-2021 4503.01 1014.34 60.40 17.00 179.35 2973.29
   23:10:02.390.09-May-2021 4503.01 1018.85 60.40 17.00 179.55 2973.29
   23:10:02.590.09-May-2021 4503.01 1023.95 60.40 17.00 179.75 2973.29
   23:10:02.790.09-May-2021 4503.01 1028.72 60.40 17.00 179.95 2973.29
   23:10:02.990.09-May-2021 4503.01 1028.72 60.40 17.00 180.15 2973.29
   23:10:03.190.09-May-2021 4503.01 1038.57 60.40 17.00 180.35 2973.29
   23:10:03.390.09-May-2021 4503.01 1043.20 60.40 17.00 180.55 2973.29
