~Version Information
 VERS.                  2.0:   CWLS log ASCII Standard -VERSION 2.0
 WRAP.                   NO:   One line per depth step
~Well Information Block
#MNEM.UNIT     VALUE/NAME     DESCRIPTION
#---------     -----------    ---------------------------
 STRT.S             22:20:35 08-May-21: START TIME 22:20:35 08-May-21
 STOP.S             22:27:08 08-May-21: STOP TIME  22:27:08 08-May-21
 STEP.S                   0.00: STEP TIME
 NULL.                 -999.25: NULL VALUE
 PROV.                    Baku:  PROVINCE
 STAT.                    Baku:  STATE NAME
 SON .        AZ-XX-0906571588:  JOB NUMBER
 WTYP.                Deviated:  WELL TYPE
 COMP.     BP Exploration (Caspian Sea) ltd:  COMPANY
 BASE.              Azerbaijan:  LOGGING EQUIPMENT BASE LOCATION
 REGN.                   EESSA:  REGION
 CTRY.              Azerbaijan:  COUNTRY NAME
 FLD .                     ACG:  FIELD NAME
 WELL.                     J28:  WELL NAME
 RIG .             West Chirag:  RIG NAME
 DMF .             Drill Floor:  DRILL MEAS FROM
 PDAT.       Caspian Sea Level:  PERMANENT DATUM
 HPTY.       Minimum Curvature:  HOLE POS TYPE
 MDS .        Operator Entered:  MAG DATA SOURCE
 NREF.                    Grid:  NORTH REFERENCE
 SRVC.          TURAN DRILLING:  CONTRACTOR
 JOBN.        AZ-XX-0906571588:  JOB TICKET NUMB
 DCON.     Halliburton Sperry Drilling:  DIRECTNL CONTR
 STIM.      00.44.00 11-Feb-21:  START TIME
 DATE.      00.00.00 05-May-21:  END TIME
 SPUD.               13-Feb-21:  SPUD DATE
 MWDS.                    Baku:  MWD SHOP
 DOE .                     N/A:  DOE NUMBER
 UNIT.                     N/A:  LOGGING EQUIPMENT ID
 UWI .                     N/A:  UNIQUE WELL IDENTIFIER
 API .                     N/A:  API NUMBER
 CNTY.                        :  COUNTY
 LOC .                        :  LOCATION
 LMF .             Drill Floor:  LOG MEASURED FROM
 TVDS.m                  43.00:  TVDSS CORRECTN
 SDEP.m                 341.00:  START DEPTH
 EGL .m                   0.00:  GROUND ELEVATION
 WDMS.m                 169.80:  WD ELEV
 AGAP.m                  43.00:  AIR GAP
 EPD .m                   0.00:  ELEVATION
 APD .m                  43.00:  DEPTH ABOVE PD
 LATI.deg                40.13:  LATITUDE
 LONG.deg                51.22:  LONGITUDE
 UTMY.m             4443793.85:  UTM Y
 UTMX.m              519005.06:  UTM X
 WHEW.m                 -11.57:  WELL HEAD E/W
 WHNS.m                   8.57:  WELL HEAD N/S
 VSEW.m                 -11.57:  VERT SEC E/W
 VSNS.m                   8.57:  VERT SEC N/S
 DFWL.m                   0.00:  DISTANCE FWL
 DFSL.m                   0.00:  DISTANCE FSL
 VSDR.deg               299.34:  VERT SEC DIRECT
 GVFD.g                   1.00:  GRAVITY FIELD
 AZTC.deg                 6.36:  AZM TOTAL CORR
 MFLD.nT              50391.00:  MAGNETIC FIELD
 MDIP.deg                59.65:  MAGNETIC DIP
 MDEC.deg                 6.48:  MAGNETIC DECL
 GRDC.deg                 0.12:  GRID CORRECTION
 DEP .m                 334.96:  DEPTH
 TDD .m                1407.26:  TOTAL DEPTH (DRILLER)
 EKB .m                  43.00:  KB ELEVATION
 EDF .m                  43.00:  DF ELEVATION
 TDL .m                 228.00:  TOTAL DEPTH (LOGGER)
 VSC .                       0:  VS TO CLOSURE
 MAGU.                 1854484:  MAGUTM CHECKSUM
~Parameter Information Block
#MNEM.UNIT       Value        Description
#---------     -----------    ---------------------------
 AV  .mps                 4.00:  Ann Velocity 
 AVMX.mps                 4.73:  Max Ann Veloc 
 AZIF.deg               304.48:  Azm, Final 
 BHAT.        Rotary Steerable:  BHA Type 
 BREV.rev            257300.00:  Rev Bit Total 
 BROT.°/30m               0.00:  Build Rotating 
 BS  .in                  8.50:  Bit Size 
 BSZ .in                  8.50:  Bit Size 
 BTPL.psig              589.00:  Bit Press Loss 
 CABU.                      No:  Customer Abuse 
 CGEO.          Mubariz ghayev:  Customer Geo 
 COMM.                     lÿM:  Run Comments 1 
 TCS .hr                 64.25:  Time Ciculation Ended 
 CV  .mps                 3.50:  Crit Velocity 
 CVMX.mps                 4.52:  Max Crit Veloc 
 DD1 .             Aziz Aliyev:  Direct Drillr 1 
 DD2 .         Intigam Rahimov:  Direct Drillr 2 
 DD3 .          Rashad Habibov:  Direct Drillr 3 
 DDSV.               Geo-Pilot:  DD Service 
 DEFF.%                  98.00:  % Det Eff 
 DLRX.°/30m               0.00:  Dogleg Rot Max 
 DLSO.°/30m               0.00:  Dogleg Oriented 
 DLSX.°/30m               0.00:  Dogleg Str Max 
 DRET.      10.45.04 08-May-21:  Drill End Time 
 DRST.      03.30.04 04-May-21:  Drill Start Tim 
 DTIM.hr                 14.97:  Time Drilling 
 EDEP.m                4640.01:  End Depth 
 ENG1.         Dail Mahammadov:  Engineer 1 
 ENG2.           Eldar Hajiyev:  Engineer 2 
 ENG3.       Bakhtiar Jabbarli:  Engineer 3 
 ENG4.       Natik Hasanagayev:  Engineer 4 
 ETIM.      09.30.04 14-May-21:  End Time 
 FLOI.gpm               460.00:  Flow In 
 FLON.gpm               200.00:  Flow In Min 
 FLOS.cptm                0.00:  Fluid Loss 
 FLOX.gpm               505.00:  Flow In Max 
 HFLO.                      No:  High Flow 
 HPRE.                      No:  High Pressure 
 HTEM.                      No:  High Temp 
 HYDO.m                   1.80:  Hydro Offset 
 IFIN.deg                66.71:  Inc, Final 
 IMAX.deg                67.03:  Inc Max 
 IMIN.deg                66.63:  Inc Min 
 IMND.m                4550.58:  Inc Min Depth 
 IMXD.m                4439.01:  Inc Max Depth 
 JARR.                      No:  Jarring 
 LETM.      10.45.04 08-May-21:  Log End Time 
 LOST.hr                     0:  Lost Rig Time 
 LSTM.      03.30.04 04-May-21:  Log Start Time 
 MDCL.ppm             37000.00:  Mud Chlorides 
 MDES.     Inversion Oil/Synthetic:  Mud Desc 
 DFD .sg                  1.38:  Mud Density 
 MDMN.sg                  1.35:  Dens Mud Min 
 MDMX.sg                  1.40:  Dens Mud Max 
 MOIL.                   57.40:  Run Mud Oil % 
 MOWR.                   70:30:  Run Mud OWR 
 MSND.                    0.00:  Run Mud Sand % 
 MSOL.                   18.00:  Run Mud Solids% 
 DFV .spqt               71.00:  Mud Viscosity 
 MWOD.in                  6.75:  MWD Tool OD 
 MWSI.                      No:  Serv Intrp, MWD 
 OTIM.hr                242.76:  Time Operating 
 PCON.           Look Like New:  Pad Condition 
 PMAX.psia            12183.92:  Press Op, Max 
 PV  .cP                 27.00:  Mud PV 
 RUN .                    1300:  Run Number 
 ROPA.m/hr               15.00:  ROP Avg 
 ROPN.m/hr                9.00:  ROP Min 
 ROPX.m/hr               19.00:  ROP Max 
 RPMA.rpm               120.00:  RPM Surface Avg 
 RPMN.rpm               100.00:  RPM Surface Min 
 RPMX.rpm               120.00:  RPM Surface Max 
 RRUN.                    1300:  Rig Run Number 
 RTIM.hr                  5.00:  Time Reaming 
 SAZI.deg               304.73:  Azm, Start 
 SDEP.m                4412.01:  Start Depth 
 SIDD.                      No:  Serv Intrp, DD 
 SINC.deg                66.82:  Inc, Start 
 SPPA.psig             2800.00:  SPP Avg 
 SPPN.psig             2610.00:  SPP Min 
 SPPX.psig             3100.00:  SPP Max 
 STIM.      03.30.00 04-May-21:  Start Time 
 SVCS.                 DD, MWD:  Services 
 SVER.                    9.20:  Sperry Version 
 TDAT.m                 228.00:  Tot Depth Attmp 
 TDDF.                      No:  Trip for DD 
 TDLG.m                 228.00:  Tot Depth Loggd 
 TFF .                      No:  Trip for Fail 
 TQAA.f-kp               15.00:  Torque Abs Avg 
 TQAN.f-kp               12.00:  Torque Abs Min 
 TQAX.f-kp               22.00:  Torque Abs Max 
 TRRT.°/30m               0.00:  Turn Rotating 
 MRT .                    HCIM:  Maximum Recorded Temperature 
 TTMX.degC               90.20:  Max Tool Temp 
 VS01.                90627813:  Virtual Str1 SN 
 VS02.                90634712:  Virtual Str2 SN 
 VS03.                90643410:  Virtual Str3 SN 
 VS04.                90634712:  Virtual Str4 SN 
 WBMN.klb                 9.00:  WOB Min 
 WITN.        Elmaddin Rahimov:  Customer Rep 
 WITN.         Haytham Mostafa:  Customer Rep 2 
 WOBA.klb                15.00:  WOB Avg 
 WOBX.klb                23.00:  WOB Max 
 YP  .lhf2               29.00:  Yield Point 
~Curve Information Block
#MNEM.UNIT                 API CODE     Curve Description
#---------               -----------    ---------------------------
 TIME.HHMMSS            00 000 000 000:  GT Time & Date
 GTDEPTH.m              00 000 000 000:  GT Depth
 GTPQH.psia             00 000 000 000:  GT HR Quartz Pressure
 GTTQ.degC              00 000 000 000:  GT Quartz Temperature
 GTTN.NONE              00 000 000 000:  GT Test Number
 GTET.sec               00 000 000 000:  GT Elapsed Test Time
 GTTVD.m                00 000 000 000:  GT True Vertical Depth
#Other Information
#
#WARRANTY: Halliburton will use its best efforts to furnish customers with 
#accurate information and interpretations that are part of, and incident to, the services 
#provided.  However, Halliburton cannot and does not warrant the accuracy 
#or correctness of such information and interpretations.  Under no circumstances should any 
#such information or interpretation be relied upon as the sole basis for any drilling, 
#completion, production, or financial decision or any procedure involving any risk to the 
#safety of any drilling venture, drilling rig or its crew or any other third party.  The 
#Customer has full responsibility for all drilling, completion and production operation.  
#Halliburton makes no representations or warranties, either expressed or 
#implied, including, but not limited to, the implied warranties of merchantability or fitness 
#for a particular purpose, with respect to the services rendered.  In no event will 
#Halliburton be liable for failure to obtain any particular results or for 
#any damages, including, but not limited to, indirect, special or consequential damages, 
#resulting from the use of any information or interpretation provided by Halliburton.
#
~A           TIME           GTDEPTH  GTPQH  GTTQ  GTTN  GTET   GTTVD  
# ...
   22:21:44.000.08-May-2021 4569.01  764.27 68.45 4.00  69.00 2999.38
   22:21:44.200.08-May-2021 4569.01  764.27 68.45 4.00  69.20 2999.38
   22:21:44.400.08-May-2021 4569.01  766.01 68.45 4.00  69.40 2999.38
   22:21:44.600.08-May-2021 4569.01  766.30 68.45 4.00  69.60 2999.38
   22:21:44.800.08-May-2021 4569.01  766.72 68.45 4.00  69.80 2999.38
   22:21:45.000.08-May-2021 4569.01  767.12 68.45 4.00  70.00 2999.38
   22:21:45.200.08-May-2021 4569.01  767.12 68.45 4.00  70.20 2999.38
   22:21:45.400.08-May-2021 4569.01  768.71 68.45 4.00  70.40 2999.38
   22:21:45.600.08-May-2021 4569.01  768.85 68.45 4.00  70.60 2999.38
   22:21:45.800.08-May-2021 4569.01  769.22 68.45 4.00  70.80 2999.38
   22:21:46.000.08-May-2021 4569.01  769.73 68.45 4.00  71.00 2999.38
   22:21:46.200.08-May-2021 4569.01  769.73 68.45 4.00  71.20 2999.38
   22:21:46.400.08-May-2021 4569.01  770.93 68.45 4.00  71.40 2999.38
   22:21:46.600.08-May-2021 4569.01  770.91 68.45 4.00  71.60 2999.38
   22:21:46.800.08-May-2021 4569.01  771.61 68.45 4.00  71.80 2999.38
   22:21:47.000.08-May-2021 4569.01  771.92 68.45 4.00  72.00 2999.38
   22:21:47.200.08-May-2021 4569.01  771.92 68.45 4.00  72.20 2999.38
   22:21:47.400.08-May-2021 4569.01  772.16 68.45 4.00  72.40 2999.38
   22:21:47.600.08-May-2021 4569.01  773.62 68.45 4.00  72.60 2999.38
   22:21:47.800.08-May-2021 4569.01  773.64 68.45 4.00  72.80 2999.38
   22:21:48.000.08-May-2021 4569.01  774.20 68.45 4.00  73.00 2999.38
   22:21:48.200.08-May-2021 4569.01  774.20 68.45 4.00  73.20 2999.38
   22:21:48.400.08-May-2021 4569.01  774.94 68.45 4.00  73.40 2999.38
   22:21:48.600.08-May-2021 4569.01  775.35 68.45 4.00  73.60 2999.38
   22:21:48.800.08-May-2021 4569.01  775.77 68.45 4.00  73.80 2999.38
   22:21:49.000.08-May-2021 4569.01  776.14 68.45 4.00  74.00 2999.38
   22:21:49.200.08-May-2021 4569.01  776.14 68.45 4.00  74.20 2999.38
   22:21:49.400.08-May-2021 4569.01  777.01 68.45 4.00  74.40 2999.38
   22:21:49.600.08-May-2021 4569.01  777.42 68.45 4.00  74.60 2999.38
   22:21:49.800.08-May-2021 4569.01  777.73 68.45 4.00  74.80 2999.38
   22:21:50.000.08-May-2021 4569.01  777.75 68.45 4.00  75.00 2999.38
   22:21:50.200.08-May-2021 4569.01  777.75 68.45 4.00  75.20 2999.38
   22:21:50.400.08-May-2021 4569.01  779.02 68.45 4.00  75.40 2999.38
   22:21:50.600.08-May-2021 4569.01  779.44 68.46 4.00  75.60 2999.38
   22:21:50.800.08-May-2021 4569.01  779.81 68.46 4.00  75.80 2999.38
   22:21:51.000.08-May-2021 4569.01  780.11 68.46 4.00  76.00 2999.38
   22:21:51.200.08-May-2021 4569.01  780.11 68.46 4.00  76.20 2999.38
   22:21:51.400.08-May-2021 4569.01  782.78 68.46 4.00  76.40 2999.38
   22:21:51.600.08-May-2021 4569.01  781.20 68.46 4.00  76.60 2999.38
   22:21:51.800.08-May-2021 4569.01  781.55 68.46 4.00  76.80 2999.38
   22:21:52.000.08-May-2021 4569.01  781.91 68.46 4.00  77.00 2999.38
   22:21:52.200.08-May-2021 4569.01  781.91 68.46 4.00  77.20 2999.38
   22:21:52.400.08-May-2021 4569.01  782.14 68.46 4.00  77.40 2999.38
   22:21:52.600.08-May-2021 4569.01  783.06 68.46 4.00  77.60 2999.38
   22:21:52.800.08-May-2021 4569.01  783.60 68.46 4.00  77.80 2999.38
   22:21:53.000.08-May-2021 4569.01  783.83 68.46 4.00  78.00 2999.38
   22:21:53.200.08-May-2021 4569.01  783.83 68.46 4.00  78.20 2999.38
   22:21:53.400.08-May-2021 4569.01  784.34 68.46 4.00  78.40 2999.38
   22:21:53.600.08-May-2021 4569.01  784.26 68.46 4.00  78.60 2999.38
   22:21:53.800.08-May-2021 4569.01  785.48 68.46 4.00  78.80 2999.38
   22:21:54.000.08-May-2021 4569.01  785.60 68.46 4.00  79.00 2999.38
   22:21:54.200.08-May-2021 4569.01  785.60 68.46 4.00  79.20 2999.38
   22:21:54.400.08-May-2021 4569.01  786.21 68.46 4.00  79.40 2999.38
   22:21:54.600.08-May-2021 4569.01  786.38 68.46 4.00  79.60 2999.38
   22:21:54.800.08-May-2021 4569.01  786.55 68.46 4.00  79.80 2999.38
   22:21:55.000.08-May-2021 4569.01  787.54 68.46 4.00  80.00 2999.38
   22:21:55.200.08-May-2021 4569.01  787.54 68.46 4.00  80.20 2999.38
   22:21:55.400.08-May-2021 4569.01  787.91 68.46 4.00  80.40 2999.38
   22:21:55.600.08-May-2021 4569.01  788.07 68.46 4.00  80.60 2999.38
   22:21:55.800.08-May-2021 4569.01  788.09 68.46 4.00  80.80 2999.38
   22:21:56.000.08-May-2021 4569.01  789.21 68.46 4.00  81.00 2999.38
   22:21:56.200.08-May-2021 4569.01  789.21 68.46 4.00  81.20 2999.38
   22:21:56.400.08-May-2021 4569.01  789.60 68.46 4.00  81.40 2999.38
   22:21:56.600.08-May-2021 4569.01  789.93 68.46 4.00  81.60 2999.38
   22:21:56.800.08-May-2021 4569.01  790.16 68.46 4.00  81.80 2999.38
   22:21:57.000.08-May-2021 4569.01  790.45 68.46 4.00  82.00 2999.38
   22:21:57.200.08-May-2021 4569.01  790.45 68.46 4.00  82.20 2999.38
   22:21:57.400.08-May-2021 4569.01  791.05 68.46 4.00  82.40 2999.38
   22:21:57.600.08-May-2021 4569.01  791.35 68.46 4.00  82.60 2999.38
   22:21:57.800.08-May-2021 4569.01  791.68 68.46 4.00  82.80 2999.38
   22:21:58.000.08-May-2021 4569.01  791.96 68.46 4.00  83.00 2999.38
   22:21:58.200.08-May-2021 4569.01  791.96 68.46 4.00  83.20 2999.38
   22:21:58.400.08-May-2021 4569.01  792.56 68.46 4.00  83.40 2999.38
   22:21:58.600.08-May-2021 4569.01  793.03 68.46 4.00  83.60 2999.38
   22:21:58.800.08-May-2021 4569.01  793.20 68.46 4.00  83.80 2999.38
   22:21:59.000.08-May-2021 4569.01  793.41 68.46 4.00  84.00 2999.38
   22:21:59.200.08-May-2021 4569.01  793.41 68.46 4.00  84.20 2999.38
   22:21:59.400.08-May-2021 4569.01  793.94 68.46 4.00  84.40 2999.38
   22:21:59.600.08-May-2021 4569.01  794.20 68.46 4.00  84.60 2999.38
   22:21:59.800.08-May-2021 4569.01  794.45 68.46 4.00  84.80 2999.38
   22:22:00.000.08-May-2021 4569.01  794.71 68.46 4.00  85.00 2999.38
   22:22:00.200.08-May-2021 4569.01  794.71 68.46 4.00  85.20 2999.38
   22:22:00.400.08-May-2021 4569.01  795.28 68.46 4.00  85.40 2999.38
   22:22:00.600.08-May-2021 4569.01  795.53 68.46 4.00  85.60 2999.38
   22:22:00.800.08-May-2021 4569.01  795.25 68.46 4.00  85.80 2999.38
   22:22:01.000.08-May-2021 4569.01  796.35 68.46 4.00  86.00 2999.38
   22:22:01.200.08-May-2021 4569.01  796.35 68.46 4.00  86.20 2999.38
   22:22:01.400.08-May-2021 4569.01  796.78 68.46 4.00  86.40 2999.38
   22:22:01.600.08-May-2021 4569.01  796.56 68.46 4.00  86.60 2999.38
   22:22:01.800.08-May-2021 4569.01  797.53 68.46 4.00  86.80 2999.38
   22:22:02.000.08-May-2021 4569.01  797.36 68.46 4.00  87.00 2999.38
   22:22:02.200.08-May-2021 4569.01  797.36 68.46 4.00  87.20 2999.38
   22:22:02.400.08-May-2021 4569.01  798.41 68.47 4.00  87.40 2999.38
   22:22:02.600.08-May-2021 4569.01  798.21 68.47 4.00  87.60 2999.38
   22:22:02.800.08-May-2021 4569.01  798.65 68.47 4.00  87.80 2999.38
   22:22:03.000.08-May-2021 4569.01  798.66 68.47 4.00  88.00 2999.38
   22:22:03.200.08-May-2021 4569.01  798.66 68.47 4.00  88.20 2999.38
   22:22:03.400.08-May-2021 4569.01  798.78 68.47 4.00  88.40 2999.38
   22:22:03.600.08-May-2021 4569.01  799.82 68.47 4.00  88.60 2999.38
   22:22:03.800.08-May-2021 4569.01  799.74 68.47 4.00  88.80 2999.38
   22:22:04.000.08-May-2021 4569.01  799.97 68.47 4.00  89.00 2999.38
   22:22:04.200.08-May-2021 4569.01  799.97 68.47 4.00  89.20 2999.38
   22:22:04.400.08-May-2021 4569.01  800.39 68.47 4.00  89.40 2999.38
   22:22:04.600.08-May-2021 4569.01  800.67 68.47 4.00  89.60 2999.38
   22:22:04.800.08-May-2021 4569.01  800.89 68.47 4.00  89.80 2999.38
   22:22:05.000.08-May-2021 4569.01  801.12 68.47 4.00  90.00 2999.38
   22:22:05.200.08-May-2021 4569.01  801.12 68.47 4.00  90.20 2999.38
   22:22:05.400.08-May-2021 4569.01  801.58 68.47 4.00  90.40 2999.38
   22:22:05.600.08-May-2021 4569.01  801.81 68.47 4.00  90.60 2999.38
   22:22:05.800.08-May-2021 4569.01  801.91 68.47 4.00  90.80 2999.38
   22:22:06.000.08-May-2021 4569.01  802.04 68.47 4.00  91.00 2999.38
   22:22:06.200.08-May-2021 4569.01  802.04 68.47 4.00  91.20 2999.38
   22:22:06.400.08-May-2021 4569.01  802.90 68.47 4.00  91.40 2999.38
   22:22:06.600.08-May-2021 4569.01  803.02 68.47 4.00  91.60 2999.38
   22:22:06.800.08-May-2021 4569.01  803.28 68.47 4.00  91.80 2999.38
