~Version Information
 VERS.                  2.0:   CWLS log ASCII Standard -VERSION 2.0
 WRAP.                   NO:   One line per depth step
~Well Information Block
#MNEM.UNIT     VALUE/NAME     DESCRIPTION
#---------     -----------    ---------------------------
 STRT.S             01:38:21 09-May-21: START TIME 01:38:21 09-May-21
 STOP.S             01:44:59 09-May-21: STOP TIME  01:44:59 09-May-21
 STEP.S                   0.00: STEP TIME
 NULL.                 -999.25: NULL VALUE
 PROV.                    Baku:  PROVINCE
 STAT.                    Baku:  STATE NAME
 SON .        AZ-XX-0906571588:  JOB NUMBER
 WTYP.                Deviated:  WELL TYPE
 COMP.     BP Exploration (Caspian Sea) ltd:  COMPANY
 BASE.              Azerbaijan:  LOGGING EQUIPMENT BASE LOCATION
 REGN.                   EESSA:  REGION
 CTRY.              Azerbaijan:  COUNTRY NAME
 FLD .                     ACG:  FIELD NAME
 WELL.                     J28:  WELL NAME
 RIG .             West Chirag:  RIG NAME
 DMF .             Drill Floor:  DRILL MEAS FROM
 PDAT.       Caspian Sea Level:  PERMANENT DATUM
 HPTY.       Minimum Curvature:  HOLE POS TYPE
 MDS .        Operator Entered:  MAG DATA SOURCE
 NREF.                    Grid:  NORTH REFERENCE
 SRVC.          TURAN DRILLING:  CONTRACTOR
 JOBN.        AZ-XX-0906571588:  JOB TICKET NUMB
 DCON.     Halliburton Sperry Drilling:  DIRECTNL CONTR
 STIM.      00.44.00 11-Feb-21:  START TIME
 DATE.      00.00.00 05-May-21:  END TIME
 SPUD.               13-Feb-21:  SPUD DATE
 MWDS.                    Baku:  MWD SHOP
 DOE .                     N/A:  DOE NUMBER
 UNIT.                     N/A:  LOGGING EQUIPMENT ID
 UWI .                     N/A:  UNIQUE WELL IDENTIFIER
 API .                     N/A:  API NUMBER
 CNTY.                        :  COUNTY
 LOC .                        :  LOCATION
 LMF .             Drill Floor:  LOG MEASURED FROM
 TVDS.m                  43.00:  TVDSS CORRECTN
 SDEP.m                 341.00:  START DEPTH
 EGL .m                   0.00:  GROUND ELEVATION
 WDMS.m                 169.80:  WD ELEV
 AGAP.m                  43.00:  AIR GAP
 EPD .m                   0.00:  ELEVATION
 APD .m                  43.00:  DEPTH ABOVE PD
 LATI.deg                40.13:  LATITUDE
 LONG.deg                51.22:  LONGITUDE
 UTMY.m             4443793.85:  UTM Y
 UTMX.m              519005.06:  UTM X
 WHEW.m                 -11.57:  WELL HEAD E/W
 WHNS.m                   8.57:  WELL HEAD N/S
 VSEW.m                 -11.57:  VERT SEC E/W
 VSNS.m                   8.57:  VERT SEC N/S
 DFWL.m                   0.00:  DISTANCE FWL
 DFSL.m                   0.00:  DISTANCE FSL
 VSDR.deg               299.34:  VERT SEC DIRECT
 GVFD.g                   1.00:  GRAVITY FIELD
 AZTC.deg                 6.36:  AZM TOTAL CORR
 MFLD.nT              50391.00:  MAGNETIC FIELD
 MDIP.deg                59.65:  MAGNETIC DIP
 MDEC.deg                 6.48:  MAGNETIC DECL
 GRDC.deg                 0.12:  GRID CORRECTION
 DEP .m                 334.96:  DEPTH
 TDD .m                1407.26:  TOTAL DEPTH (DRILLER)
 EKB .m                  43.00:  KB ELEVATION
 EDF .m                  43.00:  DF ELEVATION
 TDL .m                 228.00:  TOTAL DEPTH (LOGGER)
 VSC .                       0:  VS TO CLOSURE
 MAGU.                 1854484:  MAGUTM CHECKSUM
~Parameter Information Block
#MNEM.UNIT       Value        Description
#---------     -----------    ---------------------------
 AV  .mps                 4.00:  Ann Velocity 
 AVMX.mps                 4.73:  Max Ann Veloc 
 AZIF.deg               304.48:  Azm, Final 
 BHAT.        Rotary Steerable:  BHA Type 
 BREV.rev            257300.00:  Rev Bit Total 
 BROT.°/30m               0.00:  Build Rotating 
 BS  .in                  8.50:  Bit Size 
 BSZ .in                  8.50:  Bit Size 
 BTPL.psig              589.00:  Bit Press Loss 
 CABU.                      No:  Customer Abuse 
 CGEO.          Mubariz ghayev:  Customer Geo 
 TCS .hr                 64.25:  Time Ciculation Ended 
 CV  .mps                 3.50:  Crit Velocity 
 CVMX.mps                 4.52:  Max Crit Veloc 
 DD1 .             Aziz Aliyev:  Direct Drillr 1 
 DD2 .         Intigam Rahimov:  Direct Drillr 2 
 DD3 .          Rashad Habibov:  Direct Drillr 3 
 DDSV.               Geo-Pilot:  DD Service 
 DEFF.%                  98.00:  % Det Eff 
 DLRX.°/30m               0.00:  Dogleg Rot Max 
 DLSO.°/30m               0.00:  Dogleg Oriented 
 DLSX.°/30m               0.00:  Dogleg Str Max 
 DRET.      10.45.04 08-May-21:  Drill End Time 
 DRST.      03.30.04 04-May-21:  Drill Start Tim 
 DTIM.hr                 14.97:  Time Drilling 
 EDEP.m                4640.01:  End Depth 
 ENG1.         Dail Mahammadov:  Engineer 1 
 ENG2.           Eldar Hajiyev:  Engineer 2 
 ENG3.       Bakhtiar Jabbarli:  Engineer 3 
 ENG4.       Natik Hasanagayev:  Engineer 4 
 ETIM.      09.30.04 14-May-21:  End Time 
 FLOI.gpm               460.00:  Flow In 
 FLON.gpm               200.00:  Flow In Min 
 FLOS.cptm                0.00:  Fluid Loss 
 FLOX.gpm               505.00:  Flow In Max 
 HFLO.                      No:  High Flow 
 HPRE.                      No:  High Pressure 
 HTEM.                      No:  High Temp 
 HYDO.m                   1.80:  Hydro Offset 
 IFIN.deg                66.71:  Inc, Final 
 IMAX.deg                67.03:  Inc Max 
 IMIN.deg                66.63:  Inc Min 
 IMND.m                4550.58:  Inc Min Depth 
 IMXD.m                4439.01:  Inc Max Depth 
 JARR.                      No:  Jarring 
 LETM.      10.45.04 08-May-21:  Log End Time 
 LOST.hr                     0:  Lost Rig Time 
 LSTM.      03.30.04 04-May-21:  Log Start Time 
 MDCL.ppm             37000.00:  Mud Chlorides 
 MDES.     Inversion Oil/Synthetic:  Mud Desc 
 DFD .sg                  1.38:  Mud Density 
 MDMN.sg                  1.35:  Dens Mud Min 
 MDMX.sg                  1.40:  Dens Mud Max 
 MOIL.                   57.40:  Run Mud Oil % 
 MOWR.                   70:30:  Run Mud OWR 
 MSND.                    0.00:  Run Mud Sand % 
 MSOL.                   18.00:  Run Mud Solids% 
 DFV .spqt               71.00:  Mud Viscosity 
 MWOD.in                  6.75:  MWD Tool OD 
 MWSI.                      No:  Serv Intrp, MWD 
 OTIM.hr                242.76:  Time Operating 
 PCON.           Look Like New:  Pad Condition 
 PMAX.psia            12183.92:  Press Op, Max 
 PV  .cP                 27.00:  Mud PV 
 RUN .                    1300:  Run Number 
 ROPA.m/hr               15.00:  ROP Avg 
 ROPN.m/hr                9.00:  ROP Min 
 ROPX.m/hr               19.00:  ROP Max 
 RPMA.rpm               120.00:  RPM Surface Avg 
 RPMN.rpm               100.00:  RPM Surface Min 
 RPMX.rpm               120.00:  RPM Surface Max 
 RRUN.                    1300:  Rig Run Number 
 RTIM.hr                  5.00:  Time Reaming 
 SAZI.deg               304.73:  Azm, Start 
 SDEP.m                4412.01:  Start Depth 
 SIDD.                      No:  Serv Intrp, DD 
 SINC.deg                66.82:  Inc, Start 
 SPPA.psig             2800.00:  SPP Avg 
 SPPN.psig             2610.00:  SPP Min 
 SPPX.psig             3100.00:  SPP Max 
 STIM.      03.30.00 04-May-21:  Start Time 
 SVCS.                 DD, MWD:  Services 
 SVER.                    9.20:  Sperry Version 
 TDAT.m                 228.00:  Tot Depth Attmp 
 TDDF.                      No:  Trip for DD 
 TDLG.m                 228.00:  Tot Depth Loggd 
 TFF .                      No:  Trip for Fail 
 TQAA.f-kp               15.00:  Torque Abs Avg 
 TQAN.f-kp               12.00:  Torque Abs Min 
 TQAX.f-kp               22.00:  Torque Abs Max 
 TRRT.°/30m               0.00:  Turn Rotating 
 MRT .                    HCIM:  Maximum Recorded Temperature 
 TTMX.degC               90.20:  Max Tool Temp 
 VS01.                90627813:  Virtual Str1 SN 
 VS02.                90634712:  Virtual Str2 SN 
 VS03.                90643410:  Virtual Str3 SN 
 VS04.                90634712:  Virtual Str4 SN 
 WBMN.klb                 9.00:  WOB Min 
 WITN.        Elmaddin Rahimov:  Customer Rep 
 WITN.         Haytham Mostafa:  Customer Rep 2 
 WOBA.klb                15.00:  WOB Avg 
 WOBX.klb                23.00:  WOB Max 
 YP  .lhf2               29.00:  Yield Point 
~Curve Information Block
#MNEM.UNIT                 API CODE     Curve Description
#---------               -----------    ---------------------------
 TIME.HHMMSS            00 000 000 000:  GT Time & Date
 GTDEPTH.m              00 000 000 000:  GT Depth
 GTPQH.psia             00 000 000 000:  GT HR Quartz Pressure
 GTTQ.degC              00 000 000 000:  GT Quartz Temperature
 GTTN.NONE              00 000 000 000:  GT Test Number
 GTET.sec               00 000 000 000:  GT Elapsed Test Time
 GTTVD.m                00 000 000 000:  GT True Vertical Depth
#Other Information
#
#WARRANTY: Halliburton will use its best efforts to furnish customers with 
#accurate information and interpretations that are part of, and incident to, the services 
#provided.  However, Halliburton cannot and does not warrant the accuracy 
#or correctness of such information and interpretations.  Under no circumstances should any 
#such information or interpretation be relied upon as the sole basis for any drilling, 
#completion, production, or financial decision or any procedure involving any risk to the 
#safety of any drilling venture, drilling rig or its crew or any other third party.  The 
#Customer has full responsibility for all drilling, completion and production operation.  
#Halliburton makes no representations or warranties, either expressed or 
#implied, including, but not limited to, the implied warranties of merchantability or fitness 
#for a particular purpose, with respect to the services rendered.  In no event will 
#Halliburton be liable for failure to obtain any particular results or for 
#any damages, including, but not limited to, indirect, special or consequential damages, 
#resulting from the use of any information or interpretation provided by Halliburton.
#
~A           TIME           GTDEPTH  GTPQH  GTTQ  GTTN   GTET   GTTVD  
# ...
   01:44:00.458.09-May-2021 4502.51  833.28 67.51 10.00 339.12 2973.10
   01:44:00.658.09-May-2021 4502.51  833.28 67.51 10.00 339.32 2973.10
   01:44:00.859.09-May-2021 4502.51  833.78 67.51 10.00 339.52 2973.10
   01:44:01.059.09-May-2021 4502.51  833.84 67.51 10.00 339.72 2973.10
   01:44:01.259.09-May-2021 4502.51  833.62 67.51 10.00 339.92 2973.10
   01:44:01.459.09-May-2021 4502.51  834.59 67.51 10.00 340.12 2973.10
   01:44:01.659.09-May-2021 4502.51  834.59 67.51 10.00 340.32 2973.10
   01:44:01.859.09-May-2021 4502.51  835.17 67.51 10.00 340.52 2973.10
   01:44:02.059.09-May-2021 4502.51  834.82 67.51 10.00 340.72 2973.10
   01:44:02.259.09-May-2021 4502.51  835.60 67.51 10.00 340.92 2973.10
   01:44:02.459.09-May-2021 4502.51  835.78 67.51 10.00 341.12 2973.10
   01:44:02.659.09-May-2021 4502.51  835.78 67.51 10.00 341.32 2973.10
   01:44:02.859.09-May-2021 4502.51  836.24 67.51 10.00 341.52 2973.10
   01:44:03.059.09-May-2021 4502.51  836.48 67.51 10.00 341.72 2973.10
   01:44:03.259.09-May-2021 4502.51  836.82 67.51 10.00 341.92 2973.10
   01:44:03.459.09-May-2021 4502.51  837.18 67.51 10.00 342.12 2973.10
   01:44:03.660.09-May-2021 4502.51  837.18 67.51 10.00 342.32 2973.10
   01:44:03.860.09-May-2021 4502.51  837.84 67.51 10.00 342.52 2973.10
   01:44:04.060.09-May-2021 4502.51  838.19 67.51 10.00 342.72 2973.10
   01:44:04.260.09-May-2021 4502.51  838.48 67.51 10.00 342.92 2973.10
   01:44:04.460.09-May-2021 4502.51  838.62 67.51 10.00 343.12 2973.10
   01:44:04.660.09-May-2021 4502.51  838.62 67.51 10.00 343.32 2973.10
   01:44:04.860.09-May-2021 4502.51  839.43 67.51 10.00 343.52 2973.10
   01:44:05.060.09-May-2021 4502.51  839.78 67.51 10.00 343.72 2973.10
   01:44:05.260.09-May-2021 4502.51  839.86 67.51 10.00 343.92 2973.10
   01:44:05.460.09-May-2021 4502.51  840.16 67.51 10.00 344.12 2973.10
   01:44:05.660.09-May-2021 4502.51  840.16 67.51 10.00 344.32 2973.10
   01:44:05.860.09-May-2021 4502.51  840.71 67.51 10.00 344.52 2973.10
   01:44:06.060.09-May-2021 4502.51  841.07 67.51 10.00 344.72 2973.10
   01:44:06.260.09-May-2021 4502.51  841.34 67.51 10.00 344.92 2973.10
   01:44:06.461.09-May-2021 4502.51  841.65 67.51 10.00 345.13 2973.10
   01:44:06.661.09-May-2021 4502.51  841.65 67.51 10.00 345.33 2973.10
   01:44:06.861.09-May-2021 4502.51  842.22 67.51 10.00 345.53 2973.10
   01:44:07.061.09-May-2021 4502.51  842.16 67.51 10.00 345.73 2973.10
   01:44:07.261.09-May-2021 4502.51  842.68 67.51 10.00 345.93 2973.10
   01:44:07.461.09-May-2021 4502.51  842.94 67.51 10.00 346.13 2973.10
   01:44:07.661.09-May-2021 4502.51  842.94 67.51 10.00 346.33 2973.10
   01:44:07.861.09-May-2021 4502.51  843.29 67.51 10.00 346.53 2973.10
   01:44:08.061.09-May-2021 4502.51  843.45 67.51 10.00 346.73 2973.10
   01:44:08.261.09-May-2021 4502.51  866.11 67.51 10.00 346.93 2973.10
   01:44:08.461.09-May-2021 4502.51  935.87 67.51 10.00 347.13 2973.10
   01:44:08.661.09-May-2021 4502.51  935.87 67.51 10.00 347.33 2973.10
   01:44:08.861.09-May-2021 4502.51  969.56 67.51 10.00 347.53 2973.10
   01:44:09.061.09-May-2021 4502.51  976.76 67.51 10.00 347.73 2973.10
   01:44:09.262.09-May-2021 4502.51  982.84 67.51 10.00 347.93 2973.10
   01:44:09.462.09-May-2021 4502.51  988.65 67.51 10.00 348.13 2973.10
   01:44:09.662.09-May-2021 4502.51  988.65 67.51 10.00 348.33 2973.10
   01:44:09.862.09-May-2021 4502.51 1000.49 67.51 10.00 348.53 2973.10
   01:44:10.062.09-May-2021 4502.51 1006.07 67.51 10.00 348.73 2973.10
   01:44:10.262.09-May-2021 4502.51 1011.26 67.51 10.00 348.93 2973.10
   01:44:10.462.09-May-2021 4502.51 1016.78 67.51 10.00 349.13 2973.10
   01:44:10.662.09-May-2021 4502.51 1016.78 67.51 10.00 349.33 2973.10
   01:44:10.862.09-May-2021 4502.51 1027.50 67.51 10.00 349.53 2973.10
   01:44:11.062.09-May-2021 4502.51 1032.86 67.51 10.00 349.73 2973.10
   01:44:11.262.09-May-2021 4502.51 1038.13 67.51 10.00 349.93 2973.10
   01:44:11.462.09-May-2021 4502.51 1043.37 67.51 10.00 350.13 2973.10
   01:44:11.662.09-May-2021 4502.51 1043.37 67.51 10.00 350.33 2973.10
   01:44:11.862.09-May-2021 4502.51 1053.25 67.51 10.00 350.53 2973.10
   01:44:12.063.09-May-2021 4502.51 1057.86 67.51 10.00 350.73 2973.10
   01:44:12.263.09-May-2021 4502.51 1062.42 67.51 10.00 350.93 2973.10
   01:44:12.463.09-May-2021 4502.51 1067.55 67.51 10.00 351.13 2973.10
   01:44:12.663.09-May-2021 4502.51 1067.55 67.51 10.00 351.33 2973.10
   01:44:12.863.09-May-2021 4502.51 1076.56 67.51 10.00 351.53 2973.10
   01:44:13.063.09-May-2021 4502.51 1081.21 67.51 10.00 351.73 2973.10
   01:44:13.263.09-May-2021 4502.51 1085.67 67.51 10.00 351.93 2973.10
   01:44:13.463.09-May-2021 4502.51 1090.18 67.51 10.00 352.13 2973.10
   01:44:13.663.09-May-2021 4502.51 1090.18 67.51 10.00 352.33 2973.10
   01:44:13.863.09-May-2021 4502.51 1099.13 67.51 10.00 352.53 2973.10
   01:44:14.063.09-May-2021 4502.51 1103.71 67.52 10.00 352.73 2973.10
   01:44:14.263.09-May-2021 4502.51 1108.18 67.52 10.00 352.93 2973.10
   01:44:14.463.09-May-2021 4502.51 1112.71 67.52 10.00 353.13 2973.10
   01:44:14.664.09-May-2021 4502.51 1112.71 67.52 10.00 353.33 2973.10
   01:44:14.864.09-May-2021 4502.51 1121.42 67.52 10.00 353.53 2973.10
   01:44:15.064.09-May-2021 4502.51 1125.77 67.52 10.00 353.73 2973.10
   01:44:15.264.09-May-2021 4502.51 1130.01 67.52 10.00 353.93 2973.10
   01:44:15.464.09-May-2021 4502.51 1134.02 67.52 10.00 354.13 2973.10
   01:44:15.664.09-May-2021 4502.51 1134.02 67.52 10.00 354.33 2973.10
   01:44:15.864.09-May-2021 4502.51 1143.04 67.52 10.00 354.53 2973.10
   01:44:16.064.09-May-2021 4502.51 1147.06 67.52 10.00 354.73 2973.10
   01:44:16.264.09-May-2021 4502.51 1151.30 67.52 10.00 354.93 2973.10
   01:44:16.464.09-May-2021 4502.51 1155.04 67.52 10.00 355.13 2973.10
   01:44:16.664.09-May-2021 4502.51 1155.04 67.52 10.00 355.33 2973.10
   01:44:16.864.09-May-2021 4502.51 1163.82 67.52 10.00 355.53 2973.10
   01:44:17.064.09-May-2021 4502.51 1167.32 67.52 10.00 355.73 2973.10
   01:44:17.264.09-May-2021 4502.51 1171.84 67.52 10.00 355.93 2973.10
   01:44:17.465.09-May-2021 4502.51 1175.87 67.52 10.00 356.13 2973.10
   01:44:17.665.09-May-2021 4502.51 1175.87 67.52 10.00 356.33 2973.10
   01:44:17.865.09-May-2021 4502.51 1183.86 67.52 10.00 356.53 2973.10
   01:44:18.065.09-May-2021 4502.51 1187.93 67.52 10.00 356.73 2973.10
   01:44:18.265.09-May-2021 4502.51 1191.91 67.52 10.00 356.93 2973.10
   01:44:18.465.09-May-2021 4502.51 1195.91 67.52 10.00 357.13 2973.10
   01:44:18.665.09-May-2021 4502.51 1195.91 67.52 10.00 357.33 2973.10
   01:44:18.865.09-May-2021 4502.51 1203.83 67.52 10.00 357.53 2973.10
   01:44:19.065.09-May-2021 4502.51 1207.78 67.52 10.00 357.73 2973.10
   01:44:19.265.09-May-2021 4502.51 1211.69 67.52 10.00 357.93 2973.10
   01:44:19.465.09-May-2021 4502.51 1215.64 67.52 10.00 358.13 2973.10
   01:44:19.665.09-May-2021 4502.51 1215.64 67.52 10.00 358.33 2973.10
   01:44:19.865.09-May-2021 4502.51 1223.57 67.52 10.00 358.53 2973.10
   01:44:20.065.09-May-2021 4502.51 1227.19 67.52 10.00 358.73 2973.10
   01:44:20.266.09-May-2021 4502.51 1230.97 67.52 10.00 358.93 2973.10
   01:44:20.466.09-May-2021 4502.51 1234.79 67.52 10.00 359.13 2973.10
   01:44:20.666.09-May-2021 4502.51 1234.79 67.52 10.00 359.33 2973.10
   01:44:20.866.09-May-2021 4502.51 1242.19 67.52 10.00 359.53 2973.10
   01:44:21.066.09-May-2021 4502.51 1245.83 67.52 10.00 359.73 2973.10
   01:44:21.266.09-May-2021 4502.51 1249.50 67.52 10.00 359.93 2973.10
   01:44:21.466.09-May-2021 4502.51 1253.24 67.52 10.00 360.13 2973.10
   01:44:21.666.09-May-2021 4502.51 1253.24 67.52 10.00 360.33 2973.10
   01:44:21.866.09-May-2021 4502.51 1260.68 67.52 10.00 360.53 2973.10
   01:44:22.066.09-May-2021 4502.51 1264.43 67.52 10.00 360.73 2973.10
   01:44:22.266.09-May-2021 4502.51 1267.58 67.52 10.00 360.93 2973.10
   01:44:22.466.09-May-2021 4502.51 1271.88 67.52 10.00 361.13 2973.10
   01:44:22.666.09-May-2021 4502.51 1271.88 67.52 10.00 361.33 2973.10
   01:44:22.866.09-May-2021 4502.51 1280.35 67.52 10.00 361.53 2973.10
