~Version Information
 VERS.                  2.0:   CWLS log ASCII Standard -VERSION 2.0
 WRAP.                   NO:   One line per depth step
~Well Information Block
#MNEM.UNIT     VALUE/NAME     DESCRIPTION
#---------     -----------    ---------------------------
 STRT.S             02:35:25 09-May-21: START TIME 02:35:25 09-May-21
 STOP.S             02:42:01 09-May-21: STOP TIME  02:42:01 09-May-21
 STEP.S                   0.00: STEP TIME
 NULL.                 -999.25: NULL VALUE
 PROV.                    Baku:  PROVINCE
 STAT.                    Baku:  STATE NAME
 SON .        AZ-XX-0906571588:  JOB NUMBER
 WTYP.                Deviated:  WELL TYPE
 COMP.     BP Exploration (Caspian Sea) ltd:  COMPANY
 BASE.              Azerbaijan:  LOGGING EQUIPMENT BASE LOCATION
 REGN.                   EESSA:  REGION
 CTRY.              Azerbaijan:  COUNTRY NAME
 FLD .                     ACG:  FIELD NAME
 WELL.                     J28:  WELL NAME
 RIG .             West Chirag:  RIG NAME
 DMF .             Drill Floor:  DRILL MEAS FROM
 PDAT.       Caspian Sea Level:  PERMANENT DATUM
 HPTY.       Minimum Curvature:  HOLE POS TYPE
 MDS .        Operator Entered:  MAG DATA SOURCE
 NREF.                    Grid:  NORTH REFERENCE
 SRVC.          TURAN DRILLING:  CONTRACTOR
 JOBN.        AZ-XX-0906571588:  JOB TICKET NUMB
 DCON.     Halliburton Sperry Drilling:  DIRECTNL CONTR
 STIM.      00.44.00 11-Feb-21:  START TIME
 DATE.      00.00.00 05-May-21:  END TIME
 SPUD.               13-Feb-21:  SPUD DATE
 MWDS.                    Baku:  MWD SHOP
 DOE .                     N/A:  DOE NUMBER
 UNIT.                     N/A:  LOGGING EQUIPMENT ID
 UWI .                     N/A:  UNIQUE WELL IDENTIFIER
 API .                     N/A:  API NUMBER
 CNTY.                        :  COUNTY
 LOC .                        :  LOCATION
 LMF .             Drill Floor:  LOG MEASURED FROM
 TVDS.m                  43.00:  TVDSS CORRECTN
 SDEP.m                 341.00:  START DEPTH
 EGL .m                   0.00:  GROUND ELEVATION
 WDMS.m                 169.80:  WD ELEV
 AGAP.m                  43.00:  AIR GAP
 EPD .m                   0.00:  ELEVATION
 APD .m                  43.00:  DEPTH ABOVE PD
 LATI.deg                40.13:  LATITUDE
 LONG.deg                51.22:  LONGITUDE
 UTMY.m             4443793.85:  UTM Y
 UTMX.m              519005.06:  UTM X
 WHEW.m                 -11.57:  WELL HEAD E/W
 WHNS.m                   8.57:  WELL HEAD N/S
 VSEW.m                 -11.57:  VERT SEC E/W
 VSNS.m                   8.57:  VERT SEC N/S
 DFWL.m                   0.00:  DISTANCE FWL
 DFSL.m                   0.00:  DISTANCE FSL
 VSDR.deg               299.34:  VERT SEC DIRECT
 GVFD.g                   1.00:  GRAVITY FIELD
 AZTC.deg                 6.36:  AZM TOTAL CORR
 MFLD.nT              50391.00:  MAGNETIC FIELD
 MDIP.deg                59.65:  MAGNETIC DIP
 MDEC.deg                 6.48:  MAGNETIC DECL
 GRDC.deg                 0.12:  GRID CORRECTION
 DEP .m                 334.96:  DEPTH
 TDD .m                1407.26:  TOTAL DEPTH (DRILLER)
 EKB .m                  43.00:  KB ELEVATION
 EDF .m                  43.00:  DF ELEVATION
 TDL .m                 228.00:  TOTAL DEPTH (LOGGER)
 VSC .                       0:  VS TO CLOSURE
 MAGU.                 1854484:  MAGUTM CHECKSUM
~Parameter Information Block
#MNEM.UNIT       Value        Description
#---------     -----------    ---------------------------
 AV  .mps                 4.00:  Ann Velocity 
 AVMX.mps                 4.73:  Max Ann Veloc 
 AZIF.deg               304.48:  Azm, Final 
 BHAT.        Rotary Steerable:  BHA Type 
 BREV.rev            257300.00:  Rev Bit Total 
 BROT.°/30m               0.00:  Build Rotating 
 BS  .in                  8.50:  Bit Size 
 BSZ .in                  8.50:  Bit Size 
 BTPL.psig              589.00:  Bit Press Loss 
 CABU.                      No:  Customer Abuse 
 CGEO.          Mubariz ghayev:  Customer Geo 
 COMM.                     LÑz:  Run Comments 1 
 TCS .hr                 64.25:  Time Ciculation Ended 
 CV  .mps                 3.50:  Crit Velocity 
 CVMX.mps                 4.52:  Max Crit Veloc 
 DD1 .             Aziz Aliyev:  Direct Drillr 1 
 DD2 .         Intigam Rahimov:  Direct Drillr 2 
 DD3 .          Rashad Habibov:  Direct Drillr 3 
 DDSV.               Geo-Pilot:  DD Service 
 DEFF.%                  98.00:  % Det Eff 
 DLRX.°/30m               0.00:  Dogleg Rot Max 
 DLSO.°/30m               0.00:  Dogleg Oriented 
 DLSX.°/30m               0.00:  Dogleg Str Max 
 DRET.      10.45.04 08-May-21:  Drill End Time 
 DRST.      03.30.04 04-May-21:  Drill Start Tim 
 DTIM.hr                 14.97:  Time Drilling 
 EDEP.m                4640.01:  End Depth 
 ENG1.         Dail Mahammadov:  Engineer 1 
 ENG2.           Eldar Hajiyev:  Engineer 2 
 ENG3.       Bakhtiar Jabbarli:  Engineer 3 
 ENG4.       Natik Hasanagayev:  Engineer 4 
 ETIM.      09.30.04 14-May-21:  End Time 
 FLOI.gpm               460.00:  Flow In 
 FLON.gpm               200.00:  Flow In Min 
 FLOS.cptm                0.00:  Fluid Loss 
 FLOX.gpm               505.00:  Flow In Max 
 HFLO.                      No:  High Flow 
 HPRE.                      No:  High Pressure 
 HTEM.                      No:  High Temp 
 HYDO.m                   1.80:  Hydro Offset 
 IFIN.deg                66.71:  Inc, Final 
 IMAX.deg                67.03:  Inc Max 
 IMIN.deg                66.63:  Inc Min 
 IMND.m                4550.58:  Inc Min Depth 
 IMXD.m                4439.01:  Inc Max Depth 
 JARR.                      No:  Jarring 
 LETM.      10.45.04 08-May-21:  Log End Time 
 LOST.hr                     0:  Lost Rig Time 
 LSTM.      03.30.04 04-May-21:  Log Start Time 
 MDCL.ppm             37000.00:  Mud Chlorides 
 MDES.     Inversion Oil/Synthetic:  Mud Desc 
 DFD .sg                  1.38:  Mud Density 
 MDMN.sg                  1.35:  Dens Mud Min 
 MDMX.sg                  1.40:  Dens Mud Max 
 MOIL.                   57.40:  Run Mud Oil % 
 MOWR.                   70:30:  Run Mud OWR 
 MSND.                    0.00:  Run Mud Sand % 
 MSOL.                   18.00:  Run Mud Solids% 
 DFV .spqt               71.00:  Mud Viscosity 
 MWOD.in                  6.75:  MWD Tool OD 
 MWSI.                      No:  Serv Intrp, MWD 
 OTIM.hr                242.76:  Time Operating 
 PCON.           Look Like New:  Pad Condition 
 PMAX.psia            12183.92:  Press Op, Max 
 PV  .cP                 27.00:  Mud PV 
 RUN .                    1300:  Run Number 
 ROPA.m/hr               15.00:  ROP Avg 
 ROPN.m/hr                9.00:  ROP Min 
 ROPX.m/hr               19.00:  ROP Max 
 RPMA.rpm               120.00:  RPM Surface Avg 
 RPMN.rpm               100.00:  RPM Surface Min 
 RPMX.rpm               120.00:  RPM Surface Max 
 RRUN.                    1300:  Rig Run Number 
 RTIM.hr                  5.00:  Time Reaming 
 SAZI.deg               304.73:  Azm, Start 
 SDEP.m                4412.01:  Start Depth 
 SIDD.                      No:  Serv Intrp, DD 
 SINC.deg                66.82:  Inc, Start 
 SPPA.psig             2800.00:  SPP Avg 
 SPPN.psig             2610.00:  SPP Min 
 SPPX.psig             3100.00:  SPP Max 
 STIM.      03.30.00 04-May-21:  Start Time 
 SVCS.                 DD, MWD:  Services 
 SVER.                    9.20:  Sperry Version 
 TDAT.m                 228.00:  Tot Depth Attmp 
 TDDF.                      No:  Trip for DD 
 TDLG.m                 228.00:  Tot Depth Loggd 
 TFF .                      No:  Trip for Fail 
 TQAA.f-kp               15.00:  Torque Abs Avg 
 TQAN.f-kp               12.00:  Torque Abs Min 
 TQAX.f-kp               22.00:  Torque Abs Max 
 TRRT.°/30m               0.00:  Turn Rotating 
 MRT .                    HCIM:  Maximum Recorded Temperature 
 TTMX.degC               90.20:  Max Tool Temp 
 VS01.                90627813:  Virtual Str1 SN 
 VS02.                90634712:  Virtual Str2 SN 
 VS03.                90643410:  Virtual Str3 SN 
 VS04.                90634712:  Virtual Str4 SN 
 WBMN.klb                 9.00:  WOB Min 
 WITN.        Elmaddin Rahimov:  Customer Rep 
 WITN.         Haytham Mostafa:  Customer Rep 2 
 WOBA.klb                15.00:  WOB Avg 
 WOBX.klb                23.00:  WOB Max 
 YP  .lhf2               29.00:  Yield Point 
~Curve Information Block
#MNEM.UNIT                 API CODE     Curve Description
#---------               -----------    ---------------------------
 TIME.HHMMSS            00 000 000 000:  GT Time & Date
 GTDEPTH.m              00 000 000 000:  GT Depth
 GTPQH.psia             00 000 000 000:  GT HR Quartz Pressure
 GTTQ.degC              00 000 000 000:  GT Quartz Temperature
 GTTN.NONE              00 000 000 000:  GT Test Number
 GTET.sec               00 000 000 000:  GT Elapsed Test Time
 GTTVD.m                00 000 000 000:  GT True Vertical Depth
#Other Information
#
#WARRANTY: Halliburton will use its best efforts to furnish customers with 
#accurate information and interpretations that are part of, and incident to, the services 
#provided.  However, Halliburton cannot and does not warrant the accuracy 
#or correctness of such information and interpretations.  Under no circumstances should any 
#such information or interpretation be relied upon as the sole basis for any drilling, 
#completion, production, or financial decision or any procedure involving any risk to the 
#safety of any drilling venture, drilling rig or its crew or any other third party.  The 
#Customer has full responsibility for all drilling, completion and production operation.  
#Halliburton makes no representations or warranties, either expressed or 
#implied, including, but not limited to, the implied warranties of merchantability or fitness 
#for a particular purpose, with respect to the services rendered.  In no event will 
#Halliburton be liable for failure to obtain any particular results or for 
#any damages, including, but not limited to, indirect, special or consequential damages, 
#resulting from the use of any information or interpretation provided by Halliburton.
#
~A           TIME           GTDEPTH  GTPQH  GTTQ  GTTN   GTET   GTTVD  
# ...
   02:40:41.719.09-May-2021 4482.51  939.62 67.64 11.00 316.45 2965.25
   02:40:41.919.09-May-2021 4482.51  940.45 67.64 11.00 316.65 2965.25
   02:40:42.119.09-May-2021 4482.51  941.29 67.64 11.00 316.85 2965.25
   02:40:42.319.09-May-2021 4482.51  941.77 67.64 11.00 317.05 2965.25
   02:40:42.519.09-May-2021 4482.51  941.77 67.64 11.00 317.25 2965.25
   02:40:42.719.09-May-2021 4482.51  943.97 67.64 11.00 317.45 2965.25
   02:40:42.919.09-May-2021 4482.51  944.62 67.64 11.00 317.65 2965.25
   02:40:43.119.09-May-2021 4482.51  945.42 67.64 11.00 317.85 2965.25
   02:40:43.319.09-May-2021 4482.51  946.02 67.64 11.00 318.05 2965.25
   02:40:43.519.09-May-2021 4482.51  946.02 67.64 11.00 318.25 2965.25
   02:40:43.719.09-May-2021 4482.51  948.03 67.64 11.00 318.45 2965.25
   02:40:43.919.09-May-2021 4482.51  948.43 67.64 11.00 318.65 2965.25
   02:40:44.119.09-May-2021 4482.51  949.91 67.64 11.00 318.85 2965.25
   02:40:44.319.09-May-2021 4482.51  950.73 67.64 11.00 319.05 2965.25
   02:40:44.519.09-May-2021 4482.51  950.73 67.64 11.00 319.25 2965.25
   02:40:44.719.09-May-2021 4482.51  951.80 67.64 11.00 319.45 2965.25
   02:40:44.919.09-May-2021 4482.51  953.17 67.64 11.00 319.65 2965.25
   02:40:45.119.09-May-2021 4482.51  953.97 67.64 11.00 319.85 2965.25
   02:40:45.319.09-May-2021 4482.51  954.57 67.64 11.00 320.05 2965.25
   02:40:45.519.09-May-2021 4482.51  954.57 67.64 11.00 320.25 2965.25
   02:40:45.719.09-May-2021 4482.51  956.28 67.64 11.00 320.45 2965.25
   02:40:45.919.09-May-2021 4482.51  957.13 67.64 11.00 320.65 2965.25
   02:40:46.119.09-May-2021 4482.51  957.96 67.64 11.00 320.85 2965.25
   02:40:46.319.09-May-2021 4482.51  958.79 67.64 11.00 321.05 2965.25
   02:40:46.519.09-May-2021 4482.51  958.79 67.64 11.00 321.25 2965.25
   02:40:46.719.09-May-2021 4482.51  960.50 67.64 11.00 321.45 2965.25
   02:40:46.919.09-May-2021 4482.51  961.31 67.64 11.00 321.65 2965.25
   02:40:47.119.09-May-2021 4482.51  962.01 67.64 11.00 321.85 2965.25
   02:40:47.320.09-May-2021 4482.51  962.76 67.64 11.00 322.05 2965.25
   02:40:47.520.09-May-2021 4482.51  962.76 67.64 11.00 322.25 2965.25
   02:40:47.720.09-May-2021 4482.51  964.95 67.64 11.00 322.45 2965.25
   02:40:47.920.09-May-2021 4482.51  965.45 67.64 11.00 322.65 2965.25
   02:40:48.120.09-May-2021 4482.51  966.40 67.64 11.00 322.85 2965.25
   02:40:48.320.09-May-2021 4482.51  967.16 67.64 11.00 323.05 2965.25
   02:40:48.520.09-May-2021 4482.51  967.16 67.64 11.00 323.25 2965.25
   02:40:48.720.09-May-2021 4482.51  968.78 67.64 11.00 323.45 2965.25
   02:40:48.920.09-May-2021 4482.51  969.55 67.64 11.00 323.65 2965.25
   02:40:49.120.09-May-2021 4482.51  970.38 67.64 11.00 323.85 2965.25
   02:40:49.320.09-May-2021 4482.51  971.17 67.64 11.00 324.05 2965.25
   02:40:49.520.09-May-2021 4482.51  971.17 67.64 11.00 324.25 2965.25
   02:40:49.720.09-May-2021 4482.51  972.42 67.64 11.00 324.45 2965.25
   02:40:49.920.09-May-2021 4482.51  973.69 67.64 11.00 324.65 2965.25
   02:40:50.120.09-May-2021 4482.51  974.55 67.64 11.00 324.85 2965.25
   02:40:50.320.09-May-2021 4482.51  975.47 67.64 11.00 325.05 2965.25
   02:40:50.520.09-May-2021 4482.51  975.47 67.64 11.00 325.25 2965.25
   02:40:50.720.09-May-2021 4482.51  976.89 67.64 11.00 325.45 2965.25
   02:40:50.920.09-May-2021 4482.51  977.29 67.64 11.00 325.65 2965.25
   02:40:51.120.09-May-2021 4482.51  978.72 67.64 11.00 325.85 2965.25
   02:40:51.320.09-May-2021 4482.51  979.42 67.64 11.00 326.05 2965.25
   02:40:51.520.09-May-2021 4482.51  979.42 67.64 11.00 326.25 2965.25
   02:40:51.720.09-May-2021 4482.51  981.29 67.64 11.00 326.45 2965.25
   02:40:51.920.09-May-2021 4482.51  981.65 67.64 11.00 326.65 2965.25
   02:40:52.120.09-May-2021 4482.51  982.77 67.64 11.00 326.85 2965.25
   02:40:52.320.09-May-2021 4482.51  983.21 67.64 11.00 327.05 2965.25
   02:40:52.520.09-May-2021 4482.51  983.21 67.64 11.00 327.25 2965.25
   02:40:52.720.09-May-2021 4482.51  985.15 67.64 11.00 327.45 2965.25
   02:40:52.920.09-May-2021 4482.51  985.95 67.64 11.00 327.65 2965.25
   02:40:53.120.09-May-2021 4482.51  986.53 67.64 11.00 327.85 2965.25
   02:40:53.321.09-May-2021 4482.51  987.44 67.64 11.00 328.05 2965.25
   02:40:53.521.09-May-2021 4482.51  987.44 67.64 11.00 328.25 2965.25
   02:40:53.721.09-May-2021 4482.51  989.02 67.64 11.00 328.45 2965.25
   02:40:53.921.09-May-2021 4482.51  989.79 67.64 11.00 328.65 2965.25
   02:40:54.121.09-May-2021 4482.51  990.63 67.64 11.00 328.86 2965.25
   02:40:54.321.09-May-2021 4482.51  991.42 67.64 11.00 329.06 2965.25
   02:40:54.521.09-May-2021 4482.51  991.42 67.64 11.00 329.26 2965.25
   02:40:54.721.09-May-2021 4482.51  993.06 67.64 11.00 329.46 2965.25
   02:40:54.921.09-May-2021 4482.51  993.50 67.64 11.00 329.66 2965.25
   02:40:55.121.09-May-2021 4482.51  994.80 67.64 11.00 329.86 2965.25
   02:40:55.321.09-May-2021 4482.51  995.54 67.64 11.00 330.06 2965.25
   02:40:55.521.09-May-2021 4482.51  995.54 67.64 11.00 330.26 2965.25
   02:40:55.721.09-May-2021 4482.51  997.06 67.64 11.00 330.46 2965.25
   02:40:55.921.09-May-2021 4482.51  997.90 67.64 11.00 330.66 2965.25
   02:40:56.121.09-May-2021 4482.51  998.69 67.64 11.00 330.86 2965.25
   02:40:56.321.09-May-2021 4482.51  999.44 67.64 11.00 331.06 2965.25
   02:40:56.521.09-May-2021 4482.51  999.44 67.64 11.00 331.26 2965.25
   02:40:56.721.09-May-2021 4482.51 1001.04 67.64 11.00 331.46 2965.25
   02:40:56.921.09-May-2021 4482.51 1001.79 67.64 11.00 331.66 2965.25
   02:40:57.121.09-May-2021 4482.51 1002.61 67.64 11.00 331.86 2965.25
   02:40:57.321.09-May-2021 4482.51 1003.38 67.64 11.00 332.06 2965.25
   02:40:57.521.09-May-2021 4482.51 1003.38 67.64 11.00 332.26 2965.25
   02:40:57.721.09-May-2021 4482.51 1005.28 67.64 11.00 332.46 2965.25
   02:40:57.921.09-May-2021 4482.51 1005.69 67.64 11.00 332.66 2965.25
   02:40:58.121.09-May-2021 4482.51 1006.81 67.64 11.00 332.86 2965.25
   02:40:58.321.09-May-2021 4482.51 1007.31 67.64 11.00 333.06 2965.25
   02:40:58.521.09-May-2021 4482.51 1007.31 67.64 11.00 333.26 2965.25
   02:40:58.721.09-May-2021 4482.51 1009.13 67.64 11.00 333.46 2965.25
   02:40:58.921.09-May-2021 4482.51 1009.79 67.64 11.00 333.66 2965.25
   02:40:59.121.09-May-2021 4482.51 1010.43 67.64 11.00 333.86 2965.25
   02:40:59.322.09-May-2021 4482.51 1011.30 67.64 11.00 334.06 2965.25
   02:40:59.522.09-May-2021 4482.51 1011.30 67.64 11.00 334.26 2965.25
   02:40:59.722.09-May-2021 4482.51 1013.07 67.64 11.00 334.46 2965.25
   02:40:59.922.09-May-2021 4482.51 1013.61 67.64 11.00 334.66 2965.25
   02:41:00.122.09-May-2021 4482.51 1014.52 67.64 11.00 334.86 2965.25
   02:41:00.322.09-May-2021 4482.51 1014.77 67.64 11.00 335.06 2965.25
   02:41:00.522.09-May-2021 4482.51 1014.77 67.64 11.00 335.26 2965.25
   02:41:00.722.09-May-2021 4482.51 1016.84 67.64 11.00 335.46 2965.25
   02:41:00.922.09-May-2021 4482.51 1017.66 67.64 11.00 335.66 2965.25
   02:41:01.122.09-May-2021 4482.51 1018.43 67.64 11.00 335.86 2965.25
   02:41:01.322.09-May-2021 4482.51 1019.14 67.64 11.00 336.06 2965.25
   02:41:01.522.09-May-2021 4482.51 1019.14 67.64 11.00 336.26 2965.25
   02:41:01.722.09-May-2021 4482.51 1020.75 67.64 11.00 336.46 2965.25
   02:41:01.922.09-May-2021 4482.51 1021.53 67.64 11.00 336.66 2965.25
   02:41:02.122.09-May-2021 4482.51 1022.33 67.64 11.00 336.86 2965.25
   02:41:02.322.09-May-2021 4482.51 1023.08 67.64 11.00 337.06 2965.25
   02:41:02.522.09-May-2021 4482.51 1023.08 67.64 11.00 337.26 2965.25
   02:41:02.722.09-May-2021 4482.51 1022.79 67.64 11.00 337.46 2965.25
   02:41:02.922.09-May-2021 4482.51 1021.95 67.64 11.00 337.66 2965.25
   02:41:03.122.09-May-2021 4482.51 1023.22 67.64 11.00 337.86 2965.25
   02:41:03.322.09-May-2021 4482.51 1023.93 67.64 11.00 338.06 2965.25
   02:41:03.522.09-May-2021 4482.51 1023.93 67.64 11.00 338.26 2965.25
   02:41:03.722.09-May-2021 4482.51 1025.43 67.64 11.00 338.46 2965.25
   02:41:03.922.09-May-2021 4482.51 1026.10 67.64 11.00 338.66 2965.25
   02:41:04.122.09-May-2021 4482.51 1026.92 67.64 11.00 338.86 2965.25
