~Version Information
 VERS.                  2.0:   CWLS log ASCII Standard -VERSION 2.0
 WRAP.                   NO:   One line per depth step
~Well Information Block
#MNEM.UNIT     VALUE/NAME     DESCRIPTION
#---------     -----------    ---------------------------
 STRT.S             01:38:21 09-May-21: START TIME 01:38:21 09-May-21
 STOP.S             01:44:59 09-May-21: STOP TIME  01:44:59 09-May-21
 STEP.S                   0.00: STEP TIME
 NULL.                 -999.25: NULL VALUE
 PROV.                    Baku:  PROVINCE
 STAT.                    Baku:  STATE NAME
 SON .        AZ-XX-0906571588:  JOB NUMBER
 WTYP.                Deviated:  WELL TYPE
 COMP.     BP Exploration (Caspian Sea) ltd:  COMPANY
 BASE.              Azerbaijan:  LOGGING EQUIPMENT BASE LOCATION
 REGN.                   EESSA:  REGION
 CTRY.              Azerbaijan:  COUNTRY NAME
 FLD .                     ACG:  FIELD NAME
 WELL.                     J28:  WELL NAME
 RIG .             West Chirag:  RIG NAME
 DMF .             Drill Floor:  DRILL MEAS FROM
 PDAT.       Caspian Sea Level:  PERMANENT DATUM
 HPTY.       Minimum Curvature:  HOLE POS TYPE
 MDS .        Operator Entered:  MAG DATA SOURCE
 NREF.                    Grid:  NORTH REFERENCE
 SRVC.          TURAN DRILLING:  CONTRACTOR
 JOBN.        AZ-XX-0906571588:  JOB TICKET NUMB
 DCON.     Halliburton Sperry Drilling:  DIRECTNL CONTR
 STIM.      00.44.00 11-Feb-21:  START TIME
 DATE.      00.00.00 05-May-21:  END TIME
 SPUD.               13-Feb-21:  SPUD DATE
 MWDS.                    Baku:  MWD SHOP
 DOE .                     N/A:  DOE NUMBER
 UNIT.                     N/A:  LOGGING EQUIPMENT ID
 UWI .                     N/A:  UNIQUE WELL IDENTIFIER
 API .                     N/A:  API NUMBER
 CNTY.                        :  COUNTY
 LOC .                        :  LOCATION
 LMF .             Drill Floor:  LOG MEASURED FROM
 TVDS.m                  43.00:  TVDSS CORRECTN
 SDEP.m                 341.00:  START DEPTH
 EGL .m                   0.00:  GROUND ELEVATION
 WDMS.m                 169.80:  WD ELEV
 AGAP.m                  43.00:  AIR GAP
 EPD .m                   0.00:  ELEVATION
 APD .m                  43.00:  DEPTH ABOVE PD
 LATI.deg                40.13:  LATITUDE
 LONG.deg                51.22:  LONGITUDE
 UTMY.m             4443793.85:  UTM Y
 UTMX.m              519005.06:  UTM X
 WHEW.m                 -11.57:  WELL HEAD E/W
 WHNS.m                   8.57:  WELL HEAD N/S
 VSEW.m                 -11.57:  VERT SEC E/W
 VSNS.m                   8.57:  VERT SEC N/S
 DFWL.m                   0.00:  DISTANCE FWL
 DFSL.m                   0.00:  DISTANCE FSL
 VSDR.deg               299.34:  VERT SEC DIRECT
 GVFD.g                   1.00:  GRAVITY FIELD
 AZTC.deg                 6.36:  AZM TOTAL CORR
 MFLD.nT              50391.00:  MAGNETIC FIELD
 MDIP.deg                59.65:  MAGNETIC DIP
 MDEC.deg                 6.48:  MAGNETIC DECL
 GRDC.deg                 0.12:  GRID CORRECTION
 DEP .m                 334.96:  DEPTH
 TDD .m                1407.26:  TOTAL DEPTH (DRILLER)
 EKB .m                  43.00:  KB ELEVATION
 EDF .m                  43.00:  DF ELEVATION
 TDL .m                 228.00:  TOTAL DEPTH (LOGGER)
 VSC .                       0:  VS TO CLOSURE
 MAGU.                 1854484:  MAGUTM CHECKSUM
~Parameter Information Block
#MNEM.UNIT       Value        Description
#---------     -----------    ---------------------------
 AV  .mps                 4.00:  Ann Velocity 
 AVMX.mps                 4.73:  Max Ann Veloc 
 AZIF.deg               304.48:  Azm, Final 
 BHAT.        Rotary Steerable:  BHA Type 
 BREV.rev            257300.00:  Rev Bit Total 
 BROT.°/30m               0.00:  Build Rotating 
 BS  .in                  8.50:  Bit Size 
 BSZ .in                  8.50:  Bit Size 
 BTPL.psig              589.00:  Bit Press Loss 
 CABU.                      No:  Customer Abuse 
 CGEO.          Mubariz ghayev:  Customer Geo 
 TCS .hr                 64.25:  Time Ciculation Ended 
 CV  .mps                 3.50:  Crit Velocity 
 CVMX.mps                 4.52:  Max Crit Veloc 
 DD1 .             Aziz Aliyev:  Direct Drillr 1 
 DD2 .         Intigam Rahimov:  Direct Drillr 2 
 DD3 .          Rashad Habibov:  Direct Drillr 3 
 DDSV.               Geo-Pilot:  DD Service 
 DEFF.%                  98.00:  % Det Eff 
 DLRX.°/30m               0.00:  Dogleg Rot Max 
 DLSO.°/30m               0.00:  Dogleg Oriented 
 DLSX.°/30m               0.00:  Dogleg Str Max 
 DRET.      10.45.04 08-May-21:  Drill End Time 
 DRST.      03.30.04 04-May-21:  Drill Start Tim 
 DTIM.hr                 14.97:  Time Drilling 
 EDEP.m                4640.01:  End Depth 
 ENG1.         Dail Mahammadov:  Engineer 1 
 ENG2.           Eldar Hajiyev:  Engineer 2 
 ENG3.       Bakhtiar Jabbarli:  Engineer 3 
 ENG4.       Natik Hasanagayev:  Engineer 4 
 ETIM.      09.30.04 14-May-21:  End Time 
 FLOI.gpm               460.00:  Flow In 
 FLON.gpm               200.00:  Flow In Min 
 FLOS.cptm                0.00:  Fluid Loss 
 FLOX.gpm               505.00:  Flow In Max 
 HFLO.                      No:  High Flow 
 HPRE.                      No:  High Pressure 
 HTEM.                      No:  High Temp 
 HYDO.m                   1.80:  Hydro Offset 
 IFIN.deg                66.71:  Inc, Final 
 IMAX.deg                67.03:  Inc Max 
 IMIN.deg                66.63:  Inc Min 
 IMND.m                4550.58:  Inc Min Depth 
 IMXD.m                4439.01:  Inc Max Depth 
 JARR.                      No:  Jarring 
 LETM.      10.45.04 08-May-21:  Log End Time 
 LOST.hr                     0:  Lost Rig Time 
 LSTM.      03.30.04 04-May-21:  Log Start Time 
 MDCL.ppm             37000.00:  Mud Chlorides 
 MDES.     Inversion Oil/Synthetic:  Mud Desc 
 DFD .sg                  1.38:  Mud Density 
 MDMN.sg                  1.35:  Dens Mud Min 
 MDMX.sg                  1.40:  Dens Mud Max 
 MOIL.                   57.40:  Run Mud Oil % 
 MOWR.                   70:30:  Run Mud OWR 
 MSND.                    0.00:  Run Mud Sand % 
 MSOL.                   18.00:  Run Mud Solids% 
 DFV .spqt               71.00:  Mud Viscosity 
 MWOD.in                  6.75:  MWD Tool OD 
 MWSI.                      No:  Serv Intrp, MWD 
 OTIM.hr                242.76:  Time Operating 
 PCON.           Look Like New:  Pad Condition 
 PMAX.psia            12183.92:  Press Op, Max 
 PV  .cP                 27.00:  Mud PV 
 RUN .                    1300:  Run Number 
 ROPA.m/hr               15.00:  ROP Avg 
 ROPN.m/hr                9.00:  ROP Min 
 ROPX.m/hr               19.00:  ROP Max 
 RPMA.rpm               120.00:  RPM Surface Avg 
 RPMN.rpm               100.00:  RPM Surface Min 
 RPMX.rpm               120.00:  RPM Surface Max 
 RRUN.                    1300:  Rig Run Number 
 RTIM.hr                  5.00:  Time Reaming 
 SAZI.deg               304.73:  Azm, Start 
 SDEP.m                4412.01:  Start Depth 
 SIDD.                      No:  Serv Intrp, DD 
 SINC.deg                66.82:  Inc, Start 
 SPPA.psig             2800.00:  SPP Avg 
 SPPN.psig             2610.00:  SPP Min 
 SPPX.psig             3100.00:  SPP Max 
 STIM.      03.30.00 04-May-21:  Start Time 
 SVCS.                 DD, MWD:  Services 
 SVER.                    9.20:  Sperry Version 
 TDAT.m                 228.00:  Tot Depth Attmp 
 TDDF.                      No:  Trip for DD 
 TDLG.m                 228.00:  Tot Depth Loggd 
 TFF .                      No:  Trip for Fail 
 TQAA.f-kp               15.00:  Torque Abs Avg 
 TQAN.f-kp               12.00:  Torque Abs Min 
 TQAX.f-kp               22.00:  Torque Abs Max 
 TRRT.°/30m               0.00:  Turn Rotating 
 MRT .                    HCIM:  Maximum Recorded Temperature 
 TTMX.degC               90.20:  Max Tool Temp 
 VS01.                90627813:  Virtual Str1 SN 
 VS02.                90634712:  Virtual Str2 SN 
 VS03.                90643410:  Virtual Str3 SN 
 VS04.                90634712:  Virtual Str4 SN 
 WBMN.klb                 9.00:  WOB Min 
 WITN.        Elmaddin Rahimov:  Customer Rep 
 WITN.         Haytham Mostafa:  Customer Rep 2 
 WOBA.klb                15.00:  WOB Avg 
 WOBX.klb                23.00:  WOB Max 
 YP  .lhf2               29.00:  Yield Point 
~Curve Information Block
#MNEM.UNIT                 API CODE     Curve Description
#---------               -----------    ---------------------------
 TIME.HHMMSS            00 000 000 000:  GT Time & Date
 GTDEPTH.m              00 000 000 000:  GT Depth
 GTPQH.psia             00 000 000 000:  GT HR Quartz Pressure
 GTTQ.degC              00 000 000 000:  GT Quartz Temperature
 GTTN.NONE              00 000 000 000:  GT Test Number
 GTET.sec               00 000 000 000:  GT Elapsed Test Time
 GTTVD.m                00 000 000 000:  GT True Vertical Depth
#Other Information
#
#WARRANTY: Halliburton will use its best efforts to furnish customers with 
#accurate information and interpretations that are part of, and incident to, the services 
#provided.  However, Halliburton cannot and does not warrant the accuracy 
#or correctness of such information and interpretations.  Under no circumstances should any 
#such information or interpretation be relied upon as the sole basis for any drilling, 
#completion, production, or financial decision or any procedure involving any risk to the 
#safety of any drilling venture, drilling rig or its crew or any other third party.  The 
#Customer has full responsibility for all drilling, completion and production operation.  
#Halliburton makes no representations or warranties, either expressed or 
#implied, including, but not limited to, the implied warranties of merchantability or fitness 
#for a particular purpose, with respect to the services rendered.  In no event will 
#Halliburton be liable for failure to obtain any particular results or for 
#any damages, including, but not limited to, indirect, special or consequential damages, 
#resulting from the use of any information or interpretation provided by Halliburton.
#
~A           TIME           GTDEPTH  GTPQH  GTTQ  GTTN   GTET   GTTVD  
# ...
   01:44:23.067.09-May-2021 4502.51 1308.37 67.52 10.00 361.73 2973.10
   01:44:23.267.09-May-2021 4502.51 1377.30 67.52 10.00 361.93 2973.10
   01:44:23.467.09-May-2021 4502.51 4259.88 67.52 10.00 362.13 2973.10
   01:44:23.667.09-May-2021 4502.51 4259.88 67.52 10.00 362.33 2973.10
   01:44:23.867.09-May-2021 4502.51 6773.85 67.52 10.00 362.53 2973.10
   01:44:24.067.09-May-2021 4502.51 6770.74 67.52 10.00 362.73 2973.10
   01:44:24.267.09-May-2021 4502.51 6773.13 67.53 10.00 362.93 2973.10
   01:44:24.467.09-May-2021 4502.51 6766.23 67.53 10.00 363.13 2973.10
   01:44:24.667.09-May-2021 4502.51 6766.23 67.53 10.00 363.33 2973.10
   01:44:24.867.09-May-2021 4502.51 6770.90 67.53 10.00 363.53 2973.10
   01:44:25.067.09-May-2021 4502.51 6778.77 67.54 10.00 363.73 2973.10
   01:44:25.267.09-May-2021 4502.51 6778.08 67.54 10.00 363.93 2973.10
   01:44:25.467.09-May-2021 4502.51 6778.64 67.54 10.00 364.13 2973.10
   01:44:25.667.09-May-2021 4502.51 6778.64 67.54 10.00 364.33 2973.10
   01:44:25.868.09-May-2021 4502.51 6774.81 67.55 10.00 364.53 2973.10
   01:44:26.068.09-May-2021 4502.51 6775.63 67.55 10.00 364.73 2973.10
   01:44:26.268.09-May-2021 4502.51 6776.07 67.56 10.00 364.93 2973.10
   01:44:26.468.09-May-2021 4502.51 6776.56 67.56 10.00 365.13 2973.10
   01:44:26.668.09-May-2021 4502.51 6776.56 67.56 10.00 365.33 2973.10
   01:44:26.868.09-May-2021 4502.51 6777.11 67.57 10.00 365.53 2973.10
   01:44:27.068.09-May-2021 4502.51 6777.38 67.58 10.00 365.73 2973.10
   01:44:27.268.09-May-2021 4502.51 6777.86 67.58 10.00 365.93 2973.10
   01:44:27.468.09-May-2021 4502.51 6789.12 67.58 10.00 366.13 2973.10
   01:44:27.668.09-May-2021 4502.51 6789.12 67.58 10.00 366.33 2973.10
   01:44:27.868.09-May-2021 4502.51 6784.70 67.59 10.00 366.53 2973.10
   01:44:28.068.09-May-2021 4502.51 6782.55 67.59 10.00 366.73 2973.10
   01:44:28.268.09-May-2021 4502.51 6781.18 67.60 10.00 366.93 2973.10
   01:44:28.469.09-May-2021 4502.51 6780.10 67.60 10.00 367.13 2973.10
   01:44:28.669.09-May-2021 4502.51 6780.10 67.60 10.00 367.33 2973.10
   01:44:28.869.09-May-2021 4502.51 6778.43 67.61 10.00 367.53 2973.10
   01:44:29.069.09-May-2021 4502.51 6777.69 67.61 10.00 367.73 2973.10
   01:44:29.269.09-May-2021 4502.51 6777.57 67.61 10.00 367.93 2973.10
   01:44:29.469.09-May-2021 4502.51 6777.37 67.62 10.00 368.13 2973.10
   01:44:29.669.09-May-2021 4502.51 6777.37 67.62 10.00 368.33 2973.10
   01:44:29.869.09-May-2021 4502.51 6777.26 67.62 10.00 368.53 2973.10
   01:44:30.069.09-May-2021 4502.51 6788.09 67.62 10.00 368.73 2973.10
   01:44:30.269.09-May-2021 4502.51 6781.12 67.63 10.00 368.93 2973.10
   01:44:30.469.09-May-2021 4502.51 6783.41 67.63 10.00 369.13 2973.10
   01:44:30.669.09-May-2021 4502.51 6783.41 67.63 10.00 369.33 2973.10
   01:44:30.869.09-May-2021 4502.51 6780.59 67.63 10.00 369.53 2973.10
   01:44:31.069.09-May-2021 4502.51 6785.78 67.64 10.00 369.73 2973.10
   01:44:31.270.09-May-2021 4502.51 6782.19 67.64 10.00 369.93 2973.10
   01:44:31.470.09-May-2021 4502.51 6782.68 67.64 10.00 370.13 2973.10
   01:44:31.670.09-May-2021 4502.51 6782.68 67.64 10.00 370.33 2973.10
   01:44:31.870.09-May-2021 4502.51 6780.16 67.64 10.00 370.53 2973.10
   01:44:32.070.09-May-2021 4502.51 6787.84 67.64 10.00 370.73 2973.10
   01:44:32.270.09-May-2021 4502.51 6779.79 67.65 10.00 370.93 2973.10
   01:44:32.470.09-May-2021 4502.51 6782.89 67.65 10.00 371.13 2973.10
   01:44:32.670.09-May-2021 4502.51 6782.89 67.65 10.00 371.33 2973.10
   01:44:32.870.09-May-2021 4502.51 6791.59 67.65 10.00 371.53 2973.10
   01:44:33.070.09-May-2021 4502.51 6783.03 67.65 10.00 371.73 2973.10
   01:44:33.270.09-May-2021 4502.51 6784.56 67.65 10.00 371.93 2973.10
   01:44:33.470.09-May-2021 4502.51 6782.59 67.65 10.00 372.13 2973.10
   01:44:33.670.09-May-2021 4502.51 6782.59 67.65 10.00 372.33 2973.10
   01:44:33.870.09-May-2021 4502.51 6780.95 67.66 10.00 372.53 2973.10
   01:44:34.071.09-May-2021 4502.51 6779.86 67.66 10.00 372.74 2973.10
   01:44:34.271.09-May-2021 4502.51 6780.06 67.66 10.00 372.94 2973.10
   01:44:34.471.09-May-2021 4502.51 6779.93 67.66 10.00 373.14 2973.10
   01:44:34.671.09-May-2021 4502.51 6779.93 67.66 10.00 373.34 2973.10
   01:44:34.871.09-May-2021 4502.51 6779.77 67.66 10.00 373.54 2973.10
   01:44:35.071.09-May-2021 4502.51 6779.71 67.66 10.00 373.74 2973.10
   01:44:35.271.09-May-2021 4502.51 6780.57 67.66 10.00 373.94 2973.10
   01:44:35.471.09-May-2021 4502.51 6787.68 67.66 10.00 374.14 2973.10
   01:44:35.671.09-May-2021 4502.51 6787.68 67.66 10.00 374.34 2973.10
   01:44:35.871.09-May-2021 4502.51 6785.64 67.66 10.00 374.54 2973.10
   01:44:36.071.09-May-2021 4502.51 6785.83 67.66 10.00 374.74 2973.10
   01:44:36.271.09-May-2021 4502.51 6782.97 67.66 10.00 374.94 2973.10
   01:44:36.471.09-May-2021 4502.51 6781.36 67.66 10.00 375.14 2973.10
   01:44:36.671.09-May-2021 4502.51 6781.36 67.66 10.00 375.34 2973.10
   01:44:36.872.09-May-2021 4502.51 6780.09 67.66 10.00 375.54 2973.10
   01:44:37.072.09-May-2021 4502.51 6779.79 67.66 10.00 375.74 2973.10
   01:44:37.272.09-May-2021 4502.51 6779.30 67.66 10.00 375.94 2973.10
   01:44:37.472.09-May-2021 4502.51 6778.73 67.66 10.00 376.14 2973.10
   01:44:37.672.09-May-2021 4502.51 6778.73 67.66 10.00 376.34 2973.10
   01:44:37.872.09-May-2021 4502.51 6779.21 67.67 10.00 376.54 2973.10
   01:44:38.072.09-May-2021 4502.51 6779.51 67.67 10.00 376.74 2973.10
   01:44:38.272.09-May-2021 4502.51 6787.79 67.67 10.00 376.94 2973.10
   01:44:38.472.09-May-2021 4502.51 6784.95 67.67 10.00 377.14 2973.10
   01:44:38.672.09-May-2021 4502.51 6784.95 67.67 10.00 377.34 2973.10
   01:44:38.872.09-May-2021 4502.51 6778.92 67.67 10.00 377.54 2973.10
   01:44:39.072.09-May-2021 4502.51 6791.70 67.67 10.00 377.74 2973.10
   01:44:39.272.09-May-2021 4502.51 6782.87 67.67 10.00 377.94 2973.10
   01:44:39.472.09-May-2021 4502.51 6784.87 67.67 10.00 378.14 2973.10
   01:44:39.673.09-May-2021 4502.51 6784.87 67.67 10.00 378.34 2973.10
   01:44:39.873.09-May-2021 4502.51 6781.22 67.67 10.00 378.54 2973.10
   01:44:40.073.09-May-2021 4502.51 6780.30 67.67 10.00 378.74 2973.10
   01:44:40.273.09-May-2021 4502.51 6789.07 67.66 10.00 378.94 2973.10
   01:44:40.473.09-May-2021 4502.51 6781.05 67.66 10.00 379.14 2973.10
   01:44:40.673.09-May-2021 4502.51 6781.05 67.66 10.00 379.34 2973.10
   01:44:40.873.09-May-2021 4502.51 6779.72 67.66 10.00 379.54 2973.10
   01:44:41.073.09-May-2021 4502.51 6783.09 67.66 10.00 379.74 2973.10
   01:44:41.273.09-May-2021 4502.51 6787.70 67.66 10.00 379.94 2973.10
   01:44:41.473.09-May-2021 4502.51 6786.06 67.66 10.00 380.14 2973.10
   01:44:41.673.09-May-2021 4502.51 6786.06 67.66 10.00 380.34 2973.10
   01:44:41.873.09-May-2021 4502.51 6779.16 67.66 10.00 380.54 2973.10
   01:44:42.073.09-May-2021 4502.51 6779.72 67.66 10.00 380.74 2973.10
   01:44:42.274.09-May-2021 4502.51 6779.75 67.66 10.00 380.94 2973.10
   01:44:42.474.09-May-2021 4502.51 6779.40 67.66 10.00 381.14 2973.10
   01:44:42.674.09-May-2021 4502.51 6779.40 67.66 10.00 381.34 2973.10
   01:44:42.874.09-May-2021 4502.51 6779.15 67.66 10.00 381.54 2973.10
   01:44:43.074.09-May-2021 4502.51 6779.70 67.66 10.00 381.74 2973.10
   01:44:43.274.09-May-2021 4502.51 6779.91 67.66 10.00 381.94 2973.10
   01:44:43.474.09-May-2021 4502.51 6780.49 67.66 10.00 382.14 2973.10
   01:44:43.674.09-May-2021 4502.51 6780.49 67.66 10.00 382.34 2973.10
   01:44:43.874.09-May-2021 4502.51 6788.15 67.66 10.00 382.54 2973.10
   01:44:44.074.09-May-2021 4502.51 6785.91 67.66 10.00 382.74 2973.10
   01:44:44.274.09-May-2021 4502.51 6787.40 67.66 10.00 382.94 2973.10
   01:44:44.474.09-May-2021 4502.51 6779.05 67.66 10.00 383.14 2973.10
   01:44:44.674.09-May-2021 4502.51 6779.05 67.66 10.00 383.34 2973.10
   01:44:44.874.09-May-2021 4502.51 6779.55 67.66 10.00 383.54 2973.10
   01:44:45.075.09-May-2021 4502.51 6779.43 67.66 10.00 383.74 2973.10
   01:44:45.275.09-May-2021 4502.51 6778.02 67.66 10.00 383.94 2973.10
   01:44:45.475.09-May-2021 4502.51 6777.83 67.66 10.00 384.14 2973.10
