~Version Information
 VERS.                  2.0:   CWLS log ASCII Standard -VERSION 2.0
 WRAP.                   NO:   One line per depth step
~Well Information Block
#MNEM.UNIT     VALUE/NAME     DESCRIPTION
#---------     -----------    ---------------------------
 STRT.S             23:15:39 08-May-21: START TIME 23:15:39 08-May-21
 STOP.S             23:22:30 08-May-21: STOP TIME  23:22:30 08-May-21
 STEP.S                   0.00: STEP TIME
 NULL.                 -999.25: NULL VALUE
 PROV.                    Baku:  PROVINCE
 STAT.                    Baku:  STATE NAME
 SON .        AZ-XX-0906571588:  JOB NUMBER
 WTYP.                Deviated:  WELL TYPE
 COMP.     BP Exploration (Caspian Sea) ltd:  COMPANY
 BASE.              Azerbaijan:  LOGGING EQUIPMENT BASE LOCATION
 REGN.                   EESSA:  REGION
 CTRY.              Azerbaijan:  COUNTRY NAME
 FLD .                     ACG:  FIELD NAME
 WELL.                     J28:  WELL NAME
 RIG .             West Chirag:  RIG NAME
 DMF .             Drill Floor:  DRILL MEAS FROM
 PDAT.       Caspian Sea Level:  PERMANENT DATUM
 HPTY.       Minimum Curvature:  HOLE POS TYPE
 MDS .        Operator Entered:  MAG DATA SOURCE
 NREF.                    Grid:  NORTH REFERENCE
 SRVC.          TURAN DRILLING:  CONTRACTOR
 JOBN.        AZ-XX-0906571588:  JOB TICKET NUMB
 DCON.     Halliburton Sperry Drilling:  DIRECTNL CONTR
 STIM.      00.44.00 11-Feb-21:  START TIME
 DATE.      00.00.00 05-May-21:  END TIME
 SPUD.               13-Feb-21:  SPUD DATE
 MWDS.                    Baku:  MWD SHOP
 DOE .                     N/A:  DOE NUMBER
 UNIT.                     N/A:  LOGGING EQUIPMENT ID
 UWI .                     N/A:  UNIQUE WELL IDENTIFIER
 API .                     N/A:  API NUMBER
 CNTY.                        :  COUNTY
 LOC .                        :  LOCATION
 LMF .             Drill Floor:  LOG MEASURED FROM
 TVDS.m                  43.00:  TVDSS CORRECTN
 SDEP.m                 341.00:  START DEPTH
 EGL .m                   0.00:  GROUND ELEVATION
 WDMS.m                 169.80:  WD ELEV
 AGAP.m                  43.00:  AIR GAP
 EPD .m                   0.00:  ELEVATION
 APD .m                  43.00:  DEPTH ABOVE PD
 LATI.deg                40.13:  LATITUDE
 LONG.deg                51.22:  LONGITUDE
 UTMY.m             4443793.85:  UTM Y
 UTMX.m              519005.06:  UTM X
 WHEW.m                 -11.57:  WELL HEAD E/W
 WHNS.m                   8.57:  WELL HEAD N/S
 VSEW.m                 -11.57:  VERT SEC E/W
 VSNS.m                   8.57:  VERT SEC N/S
 DFWL.m                   0.00:  DISTANCE FWL
 DFSL.m                   0.00:  DISTANCE FSL
 VSDR.deg               299.34:  VERT SEC DIRECT
 GVFD.g                   1.00:  GRAVITY FIELD
 AZTC.deg                 6.36:  AZM TOTAL CORR
 MFLD.nT              50391.00:  MAGNETIC FIELD
 MDIP.deg                59.65:  MAGNETIC DIP
 MDEC.deg                 6.48:  MAGNETIC DECL
 GRDC.deg                 0.12:  GRID CORRECTION
 DEP .m                 334.96:  DEPTH
 TDD .m                1407.26:  TOTAL DEPTH (DRILLER)
 EKB .m                  43.00:  KB ELEVATION
 EDF .m                  43.00:  DF ELEVATION
 TDL .m                 228.00:  TOTAL DEPTH (LOGGER)
 VSC .                       0:  VS TO CLOSURE
 MAGU.                 1854484:  MAGUTM CHECKSUM
~Parameter Information Block
#MNEM.UNIT       Value        Description
#---------     -----------    ---------------------------
 AV  .mps                 4.00:  Ann Velocity 
 AVMX.mps                 4.73:  Max Ann Veloc 
 AZIF.deg               304.48:  Azm, Final 
 BHAT.        Rotary Steerable:  BHA Type 
 BREV.rev            257300.00:  Rev Bit Total 
 BROT.°/30m               0.00:  Build Rotating 
 BS  .in                  8.50:  Bit Size 
 BSZ .in                  8.50:  Bit Size 
 BTPL.psig              589.00:  Bit Press Loss 
 CABU.                      No:  Customer Abuse 
 CGEO.          Mubariz ghayev:  Customer Geo 
 COMM.                     dˆ[:  Run Comments 1 
 TCS .hr                 64.25:  Time Ciculation Ended 
 CV  .mps                 3.50:  Crit Velocity 
 CVMX.mps                 4.52:  Max Crit Veloc 
 DD1 .             Aziz Aliyev:  Direct Drillr 1 
 DD2 .         Intigam Rahimov:  Direct Drillr 2 
 DD3 .          Rashad Habibov:  Direct Drillr 3 
 DDSV.               Geo-Pilot:  DD Service 
 DEFF.%                  98.00:  % Det Eff 
 DLRX.°/30m               0.00:  Dogleg Rot Max 
 DLSO.°/30m               0.00:  Dogleg Oriented 
 DLSX.°/30m               0.00:  Dogleg Str Max 
 DRET.      10.45.04 08-May-21:  Drill End Time 
 DRST.      03.30.04 04-May-21:  Drill Start Tim 
 DTIM.hr                 14.97:  Time Drilling 
 EDEP.m                4640.01:  End Depth 
 ENG1.         Dail Mahammadov:  Engineer 1 
 ENG2.           Eldar Hajiyev:  Engineer 2 
 ENG3.       Bakhtiar Jabbarli:  Engineer 3 
 ENG4.       Natik Hasanagayev:  Engineer 4 
 ETIM.      09.30.04 14-May-21:  End Time 
 FLOI.gpm               460.00:  Flow In 
 FLON.gpm               200.00:  Flow In Min 
 FLOS.cptm                0.00:  Fluid Loss 
 FLOX.gpm               505.00:  Flow In Max 
 HFLO.                      No:  High Flow 
 HPRE.                      No:  High Pressure 
 HTEM.                      No:  High Temp 
 HYDO.m                   1.80:  Hydro Offset 
 IFIN.deg                66.71:  Inc, Final 
 IMAX.deg                67.03:  Inc Max 
 IMIN.deg                66.63:  Inc Min 
 IMND.m                4550.58:  Inc Min Depth 
 IMXD.m                4439.01:  Inc Max Depth 
 JARR.                      No:  Jarring 
 LETM.      10.45.04 08-May-21:  Log End Time 
 LOST.hr                     0:  Lost Rig Time 
 LSTM.      03.30.04 04-May-21:  Log Start Time 
 MDCL.ppm             37000.00:  Mud Chlorides 
 MDES.     Inversion Oil/Synthetic:  Mud Desc 
 DFD .sg                  1.38:  Mud Density 
 MDMN.sg                  1.35:  Dens Mud Min 
 MDMX.sg                  1.40:  Dens Mud Max 
 MOIL.                   57.40:  Run Mud Oil % 
 MOWR.                   70:30:  Run Mud OWR 
 MSND.                    0.00:  Run Mud Sand % 
 MSOL.                   18.00:  Run Mud Solids% 
 DFV .spqt               71.00:  Mud Viscosity 
 MWOD.in                  6.75:  MWD Tool OD 
 MWSI.                      No:  Serv Intrp, MWD 
 OTIM.hr                242.76:  Time Operating 
 PCON.           Look Like New:  Pad Condition 
 PMAX.psia            12183.92:  Press Op, Max 
 PV  .cP                 27.00:  Mud PV 
 RUN .                    1300:  Run Number 
 ROPA.m/hr               15.00:  ROP Avg 
 ROPN.m/hr                9.00:  ROP Min 
 ROPX.m/hr               19.00:  ROP Max 
 RPMA.rpm               120.00:  RPM Surface Avg 
 RPMN.rpm               100.00:  RPM Surface Min 
 RPMX.rpm               120.00:  RPM Surface Max 
 RRUN.                    1300:  Rig Run Number 
 RTIM.hr                  5.00:  Time Reaming 
 SAZI.deg               304.73:  Azm, Start 
 SDEP.m                4412.01:  Start Depth 
 SIDD.                      No:  Serv Intrp, DD 
 SINC.deg                66.82:  Inc, Start 
 SPPA.psig             2800.00:  SPP Avg 
 SPPN.psig             2610.00:  SPP Min 
 SPPX.psig             3100.00:  SPP Max 
 STIM.      03.30.00 04-May-21:  Start Time 
 SVCS.                 DD, MWD:  Services 
 SVER.                    9.20:  Sperry Version 
 TDAT.m                 228.00:  Tot Depth Attmp 
 TDDF.                      No:  Trip for DD 
 TDLG.m                 228.00:  Tot Depth Loggd 
 TFF .                      No:  Trip for Fail 
 TQAA.f-kp               15.00:  Torque Abs Avg 
 TQAN.f-kp               12.00:  Torque Abs Min 
 TQAX.f-kp               22.00:  Torque Abs Max 
 TRRT.°/30m               0.00:  Turn Rotating 
 MRT .                    HCIM:  Maximum Recorded Temperature 
 TTMX.degC               90.20:  Max Tool Temp 
 VS01.                90627813:  Virtual Str1 SN 
 VS02.                90634712:  Virtual Str2 SN 
 VS03.                90643410:  Virtual Str3 SN 
 VS04.                90634712:  Virtual Str4 SN 
 WBMN.klb                 9.00:  WOB Min 
 WITN.        Elmaddin Rahimov:  Customer Rep 
 WITN.         Haytham Mostafa:  Customer Rep 2 
 WOBA.klb                15.00:  WOB Avg 
 WOBX.klb                23.00:  WOB Max 
 YP  .lhf2               29.00:  Yield Point 
~Curve Information Block
#MNEM.UNIT                 API CODE     Curve Description
#---------               -----------    ---------------------------
 TIME.HHMMSS            00 000 000 000:  GT Time & Date
 GTDEPTH.m              00 000 000 000:  GT Depth
 GTPQH.psia             00 000 000 000:  GT HR Quartz Pressure
 GTTQ.degC              00 000 000 000:  GT Quartz Temperature
 GTTN.NONE              00 000 000 000:  GT Test Number
 GTET.sec               00 000 000 000:  GT Elapsed Test Time
 GTTVD.m                00 000 000 000:  GT True Vertical Depth
#Other Information
#
#WARRANTY: Halliburton will use its best efforts to furnish customers with 
#accurate information and interpretations that are part of, and incident to, the services 
#provided.  However, Halliburton cannot and does not warrant the accuracy 
#or correctness of such information and interpretations.  Under no circumstances should any 
#such information or interpretation be relied upon as the sole basis for any drilling, 
#completion, production, or financial decision or any procedure involving any risk to the 
#safety of any drilling venture, drilling rig or its crew or any other third party.  The 
#Customer has full responsibility for all drilling, completion and production operation.  
#Halliburton makes no representations or warranties, either expressed or 
#implied, including, but not limited to, the implied warranties of merchantability or fitness 
#for a particular purpose, with respect to the services rendered.  In no event will 
#Halliburton be liable for failure to obtain any particular results or for 
#any damages, including, but not limited to, indirect, special or consequential damages, 
#resulting from the use of any information or interpretation provided by Halliburton.
#
~A           TIME           GTDEPTH  GTPQH  GTTQ  GTTN  GTET   GTTVD  
# ...
   23:17:57.615.08-May-2021 4549.51 3248.82 68.57 5.00 137.96 2991.64
   23:17:57.815.08-May-2021 4549.51 3248.82 68.57 5.00 138.16 2991.64
   23:17:58.015.08-May-2021 4549.51 3248.82 68.57 5.00 138.36 2991.64
   23:17:58.215.08-May-2021 4549.51 3248.89 68.57 5.00 138.56 2991.64
   23:17:58.415.08-May-2021 4549.51 3248.79 68.57 5.00 138.76 2991.64
   23:17:58.615.08-May-2021 4549.51 3248.82 68.57 5.00 138.96 2991.64
   23:17:58.815.08-May-2021 4549.51 3248.82 68.57 5.00 139.16 2991.64
   23:17:59.015.08-May-2021 4549.51 3248.82 68.57 5.00 139.36 2991.64
   23:17:59.215.08-May-2021 4549.51 3248.81 68.57 5.00 139.56 2991.64
   23:17:59.415.08-May-2021 4549.51 3248.87 68.57 5.00 139.76 2991.64
   23:17:59.615.08-May-2021 4549.51 3248.81 68.57 5.00 139.96 2991.64
   23:17:59.815.08-May-2021 4549.51 3248.81 68.57 5.00 140.16 2991.64
   23:18:00.015.08-May-2021 4549.51 3248.81 68.57 5.00 140.36 2991.64
   23:18:00.215.08-May-2021 4549.51 3248.88 68.57 5.00 140.56 2991.64
   23:18:00.415.08-May-2021 4549.51 3248.79 68.57 5.00 140.76 2991.64
   23:18:00.614.08-May-2021 4549.51 3248.80 68.57 5.00 140.96 2991.64
   23:18:00.814.08-May-2021 4549.51 3248.80 68.57 5.00 141.16 2991.64
   23:18:01.014.08-May-2021 4549.51 3248.80 68.57 5.00 141.36 2991.64
   23:18:01.214.08-May-2021 4549.51 3248.80 68.57 5.00 141.56 2991.64
   23:18:01.414.08-May-2021 4549.51 3248.82 68.57 5.00 141.76 2991.64
   23:18:01.614.08-May-2021 4549.51 3248.81 68.57 5.00 141.96 2991.64
   23:18:01.814.08-May-2021 4549.51 3248.81 68.57 5.00 142.16 2991.64
   23:18:02.014.08-May-2021 4549.51 3248.81 68.57 5.00 142.36 2991.64
   23:18:02.214.08-May-2021 4549.51 3248.82 68.57 5.00 142.56 2991.64
   23:18:02.414.08-May-2021 4549.51 3248.81 68.57 5.00 142.76 2991.64
   23:18:02.614.08-May-2021 4549.51 3248.81 68.57 5.00 142.96 2991.64
   23:18:02.814.08-May-2021 4549.51 3248.81 68.57 5.00 143.16 2991.64
   23:18:03.014.08-May-2021 4549.51 3248.81 68.57 5.00 143.36 2991.64
   23:18:03.214.08-May-2021 4549.51 3248.80 68.57 5.00 143.56 2991.64
   23:18:03.414.08-May-2021 4549.51 3248.87 68.57 5.00 143.76 2991.64
   23:18:03.614.08-May-2021 4549.51 3248.80 68.57 5.00 143.96 2991.64
   23:18:03.813.08-May-2021 4549.51 3248.80 68.57 5.00 144.16 2991.64
   23:18:04.013.08-May-2021 4549.51 3248.81 68.57 5.00 144.36 2991.64
   23:18:04.213.08-May-2021 4549.51 3248.81 68.57 5.00 144.55 2991.64
   23:18:04.413.08-May-2021 4549.51 3248.80 68.57 5.00 144.75 2991.64
   23:18:04.613.08-May-2021 4549.51 3248.81 68.57 5.00 144.95 2991.64
   23:18:04.813.08-May-2021 4549.51 3248.81 68.57 5.00 145.15 2991.64
   23:18:05.013.08-May-2021 4549.51 3248.81 68.57 5.00 145.35 2991.64
   23:18:05.213.08-May-2021 4549.51 3248.80 68.57 5.00 145.55 2991.64
   23:18:05.413.08-May-2021 4549.51 3248.80 68.57 5.00 145.75 2991.64
   23:18:05.613.08-May-2021 4549.51 3248.81 68.57 5.00 145.95 2991.64
   23:18:05.813.08-May-2021 4549.51 3248.81 68.57 5.00 146.15 2991.64
   23:18:06.013.08-May-2021 4549.51 3248.87 68.57 5.00 146.35 2991.64
   23:18:06.213.08-May-2021 4549.51 3248.79 68.57 5.00 146.55 2991.64
   23:18:06.413.08-May-2021 4549.51 3248.80 68.57 5.00 146.75 2991.64
   23:18:06.613.08-May-2021 4549.51 3248.80 68.57 5.00 146.95 2991.64
   23:18:06.813.08-May-2021 4549.51 3248.80 68.57 5.00 147.15 2991.64
   23:18:07.012.08-May-2021 4549.51 3248.80 68.57 5.00 147.35 2991.64
   23:18:07.212.08-May-2021 4549.51 3248.82 68.57 5.00 147.55 2991.64
   23:18:07.412.08-May-2021 4549.51 3248.81 68.57 5.00 147.75 2991.64
   23:18:07.612.08-May-2021 4549.51 3248.71 68.57 5.00 147.95 2991.64
   23:18:07.812.08-May-2021 4549.51 3248.71 68.57 5.00 148.15 2991.64
   23:18:08.012.08-May-2021 4549.51 3248.78 68.57 5.00 148.35 2991.64
   23:18:08.212.08-May-2021 4549.51 3248.80 68.57 5.00 148.55 2991.64
   23:18:08.412.08-May-2021 4549.51 3248.80 68.57 5.00 148.75 2991.64
   23:18:08.612.08-May-2021 4549.51 3248.82 68.57 5.00 148.95 2991.64
   23:18:08.812.08-May-2021 4549.51 3248.82 68.57 5.00 149.15 2991.64
   23:18:09.012.08-May-2021 4549.51 3248.78 68.57 5.00 149.35 2991.64
   23:18:09.212.08-May-2021 4549.51 3248.79 68.57 5.00 149.55 2991.64
   23:18:09.412.08-May-2021 4549.51 3248.80 68.57 5.00 149.75 2991.64
   23:18:09.612.08-May-2021 4549.51 3248.81 68.57 5.00 149.95 2991.64
   23:18:09.812.08-May-2021 4549.51 3248.81 68.57 5.00 150.15 2991.64
   23:18:10.012.08-May-2021 4549.51 3091.18 68.57 5.00 150.35 2991.64
   23:18:10.211.08-May-2021 4549.51 2561.06 68.57 5.00 150.55 2991.64
   23:18:10.411.08-May-2021 4549.51 2086.40 68.57 5.00 150.75 2991.64
   23:18:10.611.08-May-2021 4549.51 1657.65 68.57 5.00 150.95 2991.64
   23:18:10.811.08-May-2021 4549.51 1657.65 68.57 5.00 151.15 2991.64
   23:18:11.011.08-May-2021 4549.51 1010.14 68.57 5.00 151.35 2991.64
   23:18:11.211.08-May-2021 4549.51  940.84 68.57 5.00 151.55 2991.64
   23:18:11.411.08-May-2021 4549.51  894.17 68.57 5.00 151.75 2991.64
   23:18:11.611.08-May-2021 4549.51  868.44 68.57 5.00 151.95 2991.64
   23:18:11.811.08-May-2021 4549.51  868.44 68.57 5.00 152.15 2991.64
   23:18:12.011.08-May-2021 4549.51  867.87 68.56 5.00 152.35 2991.64
   23:18:12.211.08-May-2021 4549.51  864.51 68.56 5.00 152.55 2991.64
   23:18:12.411.08-May-2021 4549.51  857.84 68.56 5.00 152.75 2991.64
   23:18:12.611.08-May-2021 4549.51  845.81 68.56 5.00 152.95 2991.64
   23:18:12.811.08-May-2021 4549.51  845.81 68.56 5.00 153.15 2991.64
   23:18:13.011.08-May-2021 4549.51  834.74 68.56 5.00 153.35 2991.64
   23:18:13.211.08-May-2021 4549.51  835.16 68.55 5.00 153.55 2991.64
   23:18:13.410.08-May-2021 4549.51  832.47 68.55 5.00 153.75 2991.64
   23:18:13.610.08-May-2021 4549.51  844.33 68.55 5.00 153.95 2991.64
   23:18:13.810.08-May-2021 4549.51  844.33 68.55 5.00 154.15 2991.64
   23:18:14.010.08-May-2021 4549.51  858.22 68.55 5.00 154.35 2991.64
   23:18:14.210.08-May-2021 4549.51  842.22 68.55 5.00 154.55 2991.64
   23:18:14.410.08-May-2021 4549.51  824.98 68.54 5.00 154.75 2991.64
   23:18:14.610.08-May-2021 4549.51  818.53 68.54 5.00 154.95 2991.64
   23:18:14.810.08-May-2021 4549.51  818.53 68.54 5.00 155.15 2991.64
   23:18:15.010.08-May-2021 4549.51  858.86 68.54 5.00 155.35 2991.64
   23:18:15.210.08-May-2021 4549.51  869.65 68.54 5.00 155.55 2991.64
   23:18:15.410.08-May-2021 4549.51  868.50 68.54 5.00 155.75 2991.64
   23:18:15.610.08-May-2021 4549.51  856.42 68.54 5.00 155.95 2991.64
   23:18:15.810.08-May-2021 4549.51  856.42 68.54 5.00 156.15 2991.64
   23:18:16.010.08-May-2021 4549.51  821.14 68.53 5.00 156.35 2991.64
   23:18:16.210.08-May-2021 4549.51  821.13 68.53 5.00 156.55 2991.64
   23:18:16.410.08-May-2021 4549.51  821.77 68.53 5.00 156.75 2991.64
   23:18:16.609.08-May-2021 4549.51  808.92 68.53 5.00 156.95 2991.64
   23:18:16.809.08-May-2021 4549.51  808.92 68.53 5.00 157.15 2991.64
   23:18:17.009.08-May-2021 4549.51  787.00 68.53 5.00 157.35 2991.64
   23:18:17.209.08-May-2021 4549.51  790.38 68.52 5.00 157.55 2991.64
   23:18:17.409.08-May-2021 4549.51  799.36 68.52 5.00 157.75 2991.64
   23:18:17.609.08-May-2021 4549.51  803.27 68.52 5.00 157.95 2991.64
   23:18:17.809.08-May-2021 4549.51  803.27 68.52 5.00 158.15 2991.64
   23:18:18.009.08-May-2021 4549.51  794.77 68.52 5.00 158.35 2991.64
   23:18:18.209.08-May-2021 4549.51  794.25 68.52 5.00 158.55 2991.64
   23:18:18.409.08-May-2021 4549.51  794.32 68.52 5.00 158.75 2991.64
   23:18:18.609.08-May-2021 4549.51  800.14 68.52 5.00 158.95 2991.64
   23:18:18.809.08-May-2021 4549.51  800.14 68.52 5.00 159.15 2991.64
   23:18:19.009.08-May-2021 4549.51  901.47 68.52 5.00 159.35 2991.64
   23:18:19.209.08-May-2021 4549.51  927.56 68.52 5.00 159.55 2991.64
   23:18:19.409.08-May-2021 4549.51  934.58 68.51 5.00 159.75 2991.64
   23:18:19.609.08-May-2021 4549.51  935.92 68.51 5.00 159.95 2991.64
   23:18:19.808.08-May-2021 4549.51  935.92 68.51 5.00 160.15 2991.64
   23:18:20.008.08-May-2021 4549.51  932.67 68.51 5.00 160.35 2991.64
   23:18:20.208.08-May-2021 4549.51 1028.54 68.51 5.00 160.55 2991.64
   23:18:20.408.08-May-2021 4549.51 1156.38 68.51 5.00 160.75 2991.64
