~Version Information
 VERS.                  2.0:   CWLS log ASCII Standard -VERSION 2.0
 WRAP.                   NO:   One line per depth step
~Well Information Block
#MNEM.UNIT     VALUE/NAME     DESCRIPTION
#---------     -----------    ---------------------------
 STRT.S             21:53:52 08-May-21: START TIME 21:53:52 08-May-21
 STOP.S             22:00:27 08-May-21: STOP TIME  22:00:27 08-May-21
 STEP.S                   0.00: STEP TIME
 NULL.                 -999.25: NULL VALUE
 PROV.                    Baku:  PROVINCE
 STAT.                    Baku:  STATE NAME
 SON .        AZ-XX-0906571588:  JOB NUMBER
 WTYP.                Deviated:  WELL TYPE
 COMP.     BP Exploration (Caspian Sea) ltd:  COMPANY
 BASE.              Azerbaijan:  LOGGING EQUIPMENT BASE LOCATION
 REGN.                   EESSA:  REGION
 CTRY.              Azerbaijan:  COUNTRY NAME
 FLD .                     ACG:  FIELD NAME
 WELL.                     J28:  WELL NAME
 RIG .             West Chirag:  RIG NAME
 DMF .             Drill Floor:  DRILL MEAS FROM
 PDAT.       Caspian Sea Level:  PERMANENT DATUM
 HPTY.       Minimum Curvature:  HOLE POS TYPE
 MDS .        Operator Entered:  MAG DATA SOURCE
 NREF.                    Grid:  NORTH REFERENCE
 SRVC.          TURAN DRILLING:  CONTRACTOR
 JOBN.        AZ-XX-0906571588:  JOB TICKET NUMB
 DCON.     Halliburton Sperry Drilling:  DIRECTNL CONTR
 STIM.      00.44.00 11-Feb-21:  START TIME
 DATE.      00.00.00 05-May-21:  END TIME
 SPUD.               13-Feb-21:  SPUD DATE
 MWDS.                    Baku:  MWD SHOP
 DOE .                     N/A:  DOE NUMBER
 UNIT.                     N/A:  LOGGING EQUIPMENT ID
 UWI .                     N/A:  UNIQUE WELL IDENTIFIER
 API .                     N/A:  API NUMBER
 CNTY.                        :  COUNTY
 LOC .                        :  LOCATION
 LMF .             Drill Floor:  LOG MEASURED FROM
 TVDS.m                  43.00:  TVDSS CORRECTN
 SDEP.m                 341.00:  START DEPTH
 EGL .m                   0.00:  GROUND ELEVATION
 WDMS.m                 169.80:  WD ELEV
 AGAP.m                  43.00:  AIR GAP
 EPD .m                   0.00:  ELEVATION
 APD .m                  43.00:  DEPTH ABOVE PD
 LATI.deg                40.13:  LATITUDE
 LONG.deg                51.22:  LONGITUDE
 UTMY.m             4443793.85:  UTM Y
 UTMX.m              519005.06:  UTM X
 WHEW.m                 -11.57:  WELL HEAD E/W
 WHNS.m                   8.57:  WELL HEAD N/S
 VSEW.m                 -11.57:  VERT SEC E/W
 VSNS.m                   8.57:  VERT SEC N/S
 DFWL.m                   0.00:  DISTANCE FWL
 DFSL.m                   0.00:  DISTANCE FSL
 VSDR.deg               299.34:  VERT SEC DIRECT
 GVFD.g                   1.00:  GRAVITY FIELD
 AZTC.deg                 6.36:  AZM TOTAL CORR
 MFLD.nT              50391.00:  MAGNETIC FIELD
 MDIP.deg                59.65:  MAGNETIC DIP
 MDEC.deg                 6.48:  MAGNETIC DECL
 GRDC.deg                 0.12:  GRID CORRECTION
 DEP .m                 334.96:  DEPTH
 TDD .m                1407.26:  TOTAL DEPTH (DRILLER)
 EKB .m                  43.00:  KB ELEVATION
 EDF .m                  43.00:  DF ELEVATION
 TDL .m                 228.00:  TOTAL DEPTH (LOGGER)
 VSC .                       0:  VS TO CLOSURE
 MAGU.                 1854484:  MAGUTM CHECKSUM
~Parameter Information Block
#MNEM.UNIT       Value        Description
#---------     -----------    ---------------------------
 AV  .mps                 4.00:  Ann Velocity 
 AVMX.mps                 4.73:  Max Ann Veloc 
 AZIF.deg               304.48:  Azm, Final 
 BHAT.        Rotary Steerable:  BHA Type 
 BREV.rev            257300.00:  Rev Bit Total 
 BROT.°/30m               0.00:  Build Rotating 
 BS  .in                  8.50:  Bit Size 
 BSZ .in                  8.50:  Bit Size 
 BTPL.psig              589.00:  Bit Press Loss 
 CABU.                      No:  Customer Abuse 
 CGEO.          Mubariz ghayev:  Customer Geo 
 COMM.                     ¤=s:  Run Comments 1 
 TCS .hr                 64.25:  Time Ciculation Ended 
 CV  .mps                 3.50:  Crit Velocity 
 CVMX.mps                 4.52:  Max Crit Veloc 
 DD1 .             Aziz Aliyev:  Direct Drillr 1 
 DD2 .         Intigam Rahimov:  Direct Drillr 2 
 DD3 .          Rashad Habibov:  Direct Drillr 3 
 DDSV.               Geo-Pilot:  DD Service 
 DEFF.%                  98.00:  % Det Eff 
 DLRX.°/30m               0.00:  Dogleg Rot Max 
 DLSO.°/30m               0.00:  Dogleg Oriented 
 DLSX.°/30m               0.00:  Dogleg Str Max 
 DRET.      10.45.04 08-May-21:  Drill End Time 
 DRST.      03.30.04 04-May-21:  Drill Start Tim 
 DTIM.hr                 14.97:  Time Drilling 
 EDEP.m                4640.01:  End Depth 
 ENG1.         Dail Mahammadov:  Engineer 1 
 ENG2.           Eldar Hajiyev:  Engineer 2 
 ENG3.       Bakhtiar Jabbarli:  Engineer 3 
 ENG4.       Natik Hasanagayev:  Engineer 4 
 ETIM.      09.30.04 14-May-21:  End Time 
 FLOI.gpm               460.00:  Flow In 
 FLON.gpm               200.00:  Flow In Min 
 FLOS.cptm                0.00:  Fluid Loss 
 FLOX.gpm               505.00:  Flow In Max 
 HFLO.                      No:  High Flow 
 HPRE.                      No:  High Pressure 
 HTEM.                      No:  High Temp 
 HYDO.m                   1.80:  Hydro Offset 
 IFIN.deg                66.71:  Inc, Final 
 IMAX.deg                67.03:  Inc Max 
 IMIN.deg                66.63:  Inc Min 
 IMND.m                4550.58:  Inc Min Depth 
 IMXD.m                4439.01:  Inc Max Depth 
 JARR.                      No:  Jarring 
 LETM.      10.45.04 08-May-21:  Log End Time 
 LOST.hr                     0:  Lost Rig Time 
 LSTM.      03.30.04 04-May-21:  Log Start Time 
 MDCL.ppm             37000.00:  Mud Chlorides 
 MDES.     Inversion Oil/Synthetic:  Mud Desc 
 DFD .sg                  1.38:  Mud Density 
 MDMN.sg                  1.35:  Dens Mud Min 
 MDMX.sg                  1.40:  Dens Mud Max 
 MOIL.                   57.40:  Run Mud Oil % 
 MOWR.                   70:30:  Run Mud OWR 
 MSND.                    0.00:  Run Mud Sand % 
 MSOL.                   18.00:  Run Mud Solids% 
 DFV .spqt               71.00:  Mud Viscosity 
 MWOD.in                  6.75:  MWD Tool OD 
 MWSI.                      No:  Serv Intrp, MWD 
 OTIM.hr                242.76:  Time Operating 
 PCON.           Look Like New:  Pad Condition 
 PMAX.psia            12183.92:  Press Op, Max 
 PV  .cP                 27.00:  Mud PV 
 RUN .                    1300:  Run Number 
 ROPA.m/hr               15.00:  ROP Avg 
 ROPN.m/hr                9.00:  ROP Min 
 ROPX.m/hr               19.00:  ROP Max 
 RPMA.rpm               120.00:  RPM Surface Avg 
 RPMN.rpm               100.00:  RPM Surface Min 
 RPMX.rpm               120.00:  RPM Surface Max 
 RRUN.                    1300:  Rig Run Number 
 RTIM.hr                  5.00:  Time Reaming 
 SAZI.deg               304.73:  Azm, Start 
 SDEP.m                4412.01:  Start Depth 
 SIDD.                      No:  Serv Intrp, DD 
 SINC.deg                66.82:  Inc, Start 
 SPPA.psig             2800.00:  SPP Avg 
 SPPN.psig             2610.00:  SPP Min 
 SPPX.psig             3100.00:  SPP Max 
 STIM.      03.30.00 04-May-21:  Start Time 
 SVCS.                 DD, MWD:  Services 
 SVER.                    9.20:  Sperry Version 
 TDAT.m                 228.00:  Tot Depth Attmp 
 TDDF.                      No:  Trip for DD 
 TDLG.m                 228.00:  Tot Depth Loggd 
 TFF .                      No:  Trip for Fail 
 TQAA.f-kp               15.00:  Torque Abs Avg 
 TQAN.f-kp               12.00:  Torque Abs Min 
 TQAX.f-kp               22.00:  Torque Abs Max 
 TRRT.°/30m               0.00:  Turn Rotating 
 MRT .                    HCIM:  Maximum Recorded Temperature 
 TTMX.degC               90.20:  Max Tool Temp 
 VS01.                90627813:  Virtual Str1 SN 
 VS02.                90634712:  Virtual Str2 SN 
 VS03.                90643410:  Virtual Str3 SN 
 VS04.                90634712:  Virtual Str4 SN 
 WBMN.klb                 9.00:  WOB Min 
 WITN.        Elmaddin Rahimov:  Customer Rep 
 WITN.         Haytham Mostafa:  Customer Rep 2 
 WOBA.klb                15.00:  WOB Avg 
 WOBX.klb                23.00:  WOB Max 
 YP  .lhf2               29.00:  Yield Point 
~Curve Information Block
#MNEM.UNIT                 API CODE     Curve Description
#---------               -----------    ---------------------------
 TIME.HHMMSS            00 000 000 000:  GT Time & Date
 GTDEPTH.m              00 000 000 000:  GT Depth
 GTPQH.psia             00 000 000 000:  GT HR Quartz Pressure
 GTTQ.degC              00 000 000 000:  GT Quartz Temperature
 GTTN.NONE              00 000 000 000:  GT Test Number
 GTET.sec               00 000 000 000:  GT Elapsed Test Time
 GTTVD.m                00 000 000 000:  GT True Vertical Depth
#Other Information
#
#WARRANTY: Halliburton will use its best efforts to furnish customers with 
#accurate information and interpretations that are part of, and incident to, the services 
#provided.  However, Halliburton cannot and does not warrant the accuracy 
#or correctness of such information and interpretations.  Under no circumstances should any 
#such information or interpretation be relied upon as the sole basis for any drilling, 
#completion, production, or financial decision or any procedure involving any risk to the 
#safety of any drilling venture, drilling rig or its crew or any other third party.  The 
#Customer has full responsibility for all drilling, completion and production operation.  
#Halliburton makes no representations or warranties, either expressed or 
#implied, including, but not limited to, the implied warranties of merchantability or fitness 
#for a particular purpose, with respect to the services rendered.  In no event will 
#Halliburton be liable for failure to obtain any particular results or for 
#any damages, including, but not limited to, indirect, special or consequential damages, 
#resulting from the use of any information or interpretation provided by Halliburton.
#
~A           TIME           GTDEPTH  GTPQH  GTTQ  GTTN  GTET   GTTVD  
# ...
   21:56:10.000.08-May-2021 4568.51  875.14 68.97 3.00 138.00 2999.18
   21:56:10.200.08-May-2021 4568.51  875.14 68.97 3.00 138.20 2999.18
   21:56:10.400.08-May-2021 4568.51  874.85 68.97 3.00 138.40 2999.18
   21:56:10.600.08-May-2021 4568.51  875.65 68.97 3.00 138.60 2999.18
   21:56:10.800.08-May-2021 4568.51  875.54 68.97 3.00 138.80 2999.18
   21:56:11.000.08-May-2021 4568.51  875.74 68.97 3.00 139.00 2999.18
   21:56:11.200.08-May-2021 4568.51  875.74 68.97 3.00 139.20 2999.18
   21:56:11.400.08-May-2021 4568.51  875.27 68.97 3.00 139.40 2999.18
   21:56:11.600.08-May-2021 4568.51  876.03 68.97 3.00 139.60 2999.18
   21:56:11.800.08-May-2021 4568.51  875.88 68.97 3.00 139.80 2999.18
   21:56:12.000.08-May-2021 4568.51  875.65 68.97 3.00 140.00 2999.18
   21:56:12.200.08-May-2021 4568.51  875.65 68.97 3.00 140.20 2999.18
   21:56:12.400.08-May-2021 4568.51  876.11 68.97 3.00 140.40 2999.18
   21:56:12.600.08-May-2021 4568.51  876.37 68.97 3.00 140.60 2999.18
   21:56:12.800.08-May-2021 4568.51  876.19 68.97 3.00 140.80 2999.18
   21:56:13.000.08-May-2021 4568.51  876.31 68.97 3.00 141.00 2999.18
   21:56:13.200.08-May-2021 4568.51  876.31 68.97 3.00 141.20 2999.18
   21:56:13.400.08-May-2021 4568.51  876.39 68.97 3.00 141.40 2999.18
   21:56:13.600.08-May-2021 4568.51  876.57 68.97 3.00 141.60 2999.18
   21:56:13.800.08-May-2021 4568.51  876.63 68.97 3.00 141.80 2999.18
   21:56:14.000.08-May-2021 4568.51  876.74 68.97 3.00 142.00 2999.18
   21:56:14.200.08-May-2021 4568.51  876.74 68.97 3.00 142.20 2999.18
   21:56:14.400.08-May-2021 4568.51  876.90 68.97 3.00 142.40 2999.18
   21:56:14.600.08-May-2021 4568.51  876.42 68.97 3.00 142.60 2999.18
   21:56:14.800.08-May-2021 4568.51  877.51 68.97 3.00 142.80 2999.18
   21:56:15.000.08-May-2021 4568.51  877.16 68.97 3.00 143.00 2999.18
   21:56:15.200.08-May-2021 4568.51  877.16 68.97 3.00 143.20 2999.18
   21:56:15.400.08-May-2021 4568.51  877.28 68.97 3.00 143.40 2999.18
   21:56:15.600.08-May-2021 4568.51  877.35 68.97 3.00 143.60 2999.18
   21:56:15.800.08-May-2021 4568.51  877.45 68.97 3.00 143.80 2999.18
   21:56:16.000.08-May-2021 4568.51  877.55 68.97 3.00 144.00 2999.18
   21:56:16.200.08-May-2021 4568.51  877.55 68.97 3.00 144.20 2999.18
   21:56:16.400.08-May-2021 4568.51  877.68 68.97 3.00 144.40 2999.18
   21:56:16.600.08-May-2021 4568.51  877.76 68.97 3.00 144.60 2999.18
   21:56:16.800.08-May-2021 4568.51  877.82 68.97 3.00 144.80 2999.18
   21:56:17.000.08-May-2021 4568.51  877.89 68.97 3.00 145.00 2999.18
   21:56:17.200.08-May-2021 4568.51  877.89 68.97 3.00 145.20 2999.18
   21:56:17.400.08-May-2021 4568.51  877.59 68.97 3.00 145.40 2999.18
   21:56:17.600.08-May-2021 4568.51  878.18 68.97 3.00 145.60 2999.18
   21:56:17.800.08-May-2021 4568.51  878.31 68.97 3.00 145.80 2999.18
   21:56:18.000.08-May-2021 4568.51  877.91 68.97 3.00 146.00 2999.18
   21:56:18.200.08-May-2021 4568.51  877.91 68.97 3.00 146.20 2999.18
   21:56:18.400.08-May-2021 4568.51  875.87 68.97 3.00 146.40 2999.18
   21:56:18.600.08-May-2021 4568.51  848.39 68.97 3.00 146.60 2999.18
   21:56:18.800.08-May-2021 4568.51  787.73 68.97 3.00 146.80 2999.18
   21:56:19.000.08-May-2021 4568.51  756.55 68.97 3.00 147.00 2999.18
   21:56:19.200.08-May-2021 4568.51  756.55 68.97 3.00 147.20 2999.18
   21:56:19.400.08-May-2021 4568.51  746.71 68.97 3.00 147.40 2999.18
   21:56:19.600.08-May-2021 4568.51  739.10 68.97 3.00 147.60 2999.18
   21:56:19.800.08-May-2021 4568.51  730.73 68.97 3.00 147.80 2999.18
   21:56:20.000.08-May-2021 4568.51  721.96 68.97 3.00 148.00 2999.18
   21:56:20.200.08-May-2021 4568.51  721.96 68.97 3.00 148.20 2999.18
   21:56:20.400.08-May-2021 4568.51  715.29 68.97 3.00 148.40 2999.18
   21:56:20.600.08-May-2021 4568.51  714.63 68.97 3.00 148.60 2999.18
   21:56:20.800.08-May-2021 4568.51  713.43 68.97 3.00 148.80 2999.18
   21:56:21.000.08-May-2021 4568.51  710.43 68.97 3.00 149.00 2999.18
   21:56:21.200.08-May-2021 4568.51  710.43 68.97 3.00 149.20 2999.18
   21:56:21.400.08-May-2021 4568.51  705.98 68.97 3.00 149.40 2999.18
   21:56:21.600.08-May-2021 4568.51  696.95 68.97 3.00 149.60 2999.18
   21:56:21.800.08-May-2021 4568.51  693.96 68.97 3.00 149.80 2999.18
   21:56:22.000.08-May-2021 4568.51  691.63 68.97 3.00 150.00 2999.18
   21:56:22.200.08-May-2021 4568.51  691.63 68.97 3.00 150.20 2999.18
   21:56:22.400.08-May-2021 4568.51  687.80 68.97 3.00 150.40 2999.18
   21:56:22.600.08-May-2021 4568.51  685.56 68.97 3.00 150.60 2999.18
   21:56:22.800.08-May-2021 4568.51  684.72 68.97 3.00 150.80 2999.18
   21:56:23.000.08-May-2021 4568.51  683.50 68.97 3.00 151.00 2999.18
   21:56:23.200.08-May-2021 4568.51  683.50 68.97 3.00 151.20 2999.18
   21:56:23.400.08-May-2021 4568.51  684.02 68.97 3.00 151.40 2999.18
   21:56:23.600.08-May-2021 4568.51  684.15 68.97 3.00 151.60 2999.18
   21:56:23.800.08-May-2021 4568.51  684.31 68.97 3.00 151.80 2999.18
   21:56:24.000.08-May-2021 4568.51  684.49 68.97 3.00 152.00 2999.18
   21:56:24.200.08-May-2021 4568.51  684.49 68.97 3.00 152.20 2999.18
   21:56:24.400.08-May-2021 4568.51  684.80 68.97 3.00 152.40 2999.18
   21:56:24.600.08-May-2021 4568.51  684.96 68.97 3.00 152.60 2999.18
   21:56:24.800.08-May-2021 4568.51  685.17 68.97 3.00 152.80 2999.18
   21:56:25.000.08-May-2021 4568.51  685.40 68.97 3.00 153.00 2999.18
   21:56:25.200.08-May-2021 4568.51  685.40 68.97 3.00 153.20 2999.18
   21:56:25.400.08-May-2021 4568.51  685.66 68.97 3.00 153.40 2999.18
   21:56:25.600.08-May-2021 4568.51  685.10 68.97 3.00 153.60 2999.18
   21:56:25.800.08-May-2021 4568.51  685.41 68.97 3.00 153.80 2999.18
   21:56:26.000.08-May-2021 4568.51  685.53 68.97 3.00 154.00 2999.18
   21:56:26.200.08-May-2021 4568.51  685.53 68.97 3.00 154.20 2999.18
   21:56:26.400.08-May-2021 4568.51  685.90 68.97 3.00 154.40 2999.18
   21:56:26.600.08-May-2021 4568.51  686.11 68.97 3.00 154.60 2999.18
   21:56:26.800.08-May-2021 4568.51  686.13 68.97 3.00 154.80 2999.18
   21:56:27.000.08-May-2021 4568.51  686.04 68.97 3.00 155.00 2999.18
   21:56:27.200.08-May-2021 4568.51  686.04 68.97 3.00 155.20 2999.18
   21:56:27.400.08-May-2021 4568.51  699.61 68.97 3.00 155.40 2999.18
   21:56:27.600.08-May-2021 4568.51  699.59 68.97 3.00 155.60 2999.18
   21:56:27.800.08-May-2021 4568.51  699.54 68.97 3.00 155.80 2999.18
   21:56:28.000.08-May-2021 4568.51  699.56 68.97 3.00 156.00 2999.18
   21:56:28.200.08-May-2021 4568.51  699.56 68.97 3.00 156.20 2999.18
   21:56:28.400.08-May-2021 4568.51  699.67 68.97 3.00 156.40 2999.18
   21:56:28.600.08-May-2021 4568.51  698.99 68.97 3.00 156.60 2999.18
   21:56:28.800.08-May-2021 4568.51  699.55 68.97 3.00 156.80 2999.18
   21:56:29.000.08-May-2021 4568.51  702.71 68.97 3.00 157.00 2999.18
   21:56:29.200.08-May-2021 4568.51  702.71 68.97 3.00 157.20 2999.18
   21:56:29.400.08-May-2021 4568.51  706.02 68.97 3.00 157.40 2999.18
   21:56:29.600.08-May-2021 4568.51  706.15 68.97 3.00 157.60 2999.18
   21:56:29.800.08-May-2021 4568.51  706.29 68.97 3.00 157.80 2999.18
   21:56:30.000.08-May-2021 4568.51  706.42 68.97 3.00 158.00 2999.18
   21:56:30.200.08-May-2021 4568.51  706.42 68.97 3.00 158.20 2999.18
   21:56:30.400.08-May-2021 4568.51  706.72 68.97 3.00 158.40 2999.18
   21:56:30.600.08-May-2021 4568.51  706.86 68.97 3.00 158.60 2999.18
   21:56:30.800.08-May-2021 4568.51  707.31 68.97 3.00 158.80 2999.18
   21:56:31.000.08-May-2021 4568.51  708.39 68.97 3.00 159.00 2999.18
   21:56:31.200.08-May-2021 4568.51  708.39 68.97 3.00 159.20 2999.18
   21:56:31.400.08-May-2021 4568.51  708.43 68.97 3.00 159.40 2999.18
   21:56:31.600.08-May-2021 4568.51  708.54 68.97 3.00 159.60 2999.18
   21:56:31.800.08-May-2021 4568.51  708.60 68.97 3.00 159.80 2999.18
   21:56:32.000.08-May-2021 4568.51  708.72 68.97 3.00 160.00 2999.18
   21:56:32.200.08-May-2021 4568.51  708.72 68.97 3.00 160.20 2999.18
   21:56:32.400.08-May-2021 4568.51  708.94 68.97 3.00 160.40 2999.18
   21:56:32.600.08-May-2021 4568.51  709.04 68.97 3.00 160.60 2999.18
   21:56:32.800.08-May-2021 4568.51  709.17 68.97 3.00 160.80 2999.18
