~Version Information
 VERS.                  2.0:   CWLS log ASCII Standard -VERSION 2.0
 WRAP.                   NO:   One line per depth step
~Well Information Block
#MNEM.UNIT     VALUE/NAME     DESCRIPTION
#---------     -----------    ---------------------------
 STRT.S             01:12:50 09-May-21: START TIME 01:12:50 09-May-21
 STOP.S             01:19:27 09-May-21: STOP TIME  01:19:27 09-May-21
 STEP.S                   0.00: STEP TIME
 NULL.                 -999.25: NULL VALUE
 PROV.                    Baku:  PROVINCE
 STAT.                    Baku:  STATE NAME
 SON .        AZ-XX-0906571588:  JOB NUMBER
 WTYP.                Deviated:  WELL TYPE
 COMP.     BP Exploration (Caspian Sea) ltd:  COMPANY
 BASE.              Azerbaijan:  LOGGING EQUIPMENT BASE LOCATION
 REGN.                   EESSA:  REGION
 CTRY.              Azerbaijan:  COUNTRY NAME
 FLD .                     ACG:  FIELD NAME
 WELL.                     J28:  WELL NAME
 RIG .             West Chirag:  RIG NAME
 DMF .             Drill Floor:  DRILL MEAS FROM
 PDAT.       Caspian Sea Level:  PERMANENT DATUM
 HPTY.       Minimum Curvature:  HOLE POS TYPE
 MDS .        Operator Entered:  MAG DATA SOURCE
 NREF.                    Grid:  NORTH REFERENCE
 SRVC.          TURAN DRILLING:  CONTRACTOR
 JOBN.        AZ-XX-0906571588:  JOB TICKET NUMB
 DCON.     Halliburton Sperry Drilling:  DIRECTNL CONTR
 STIM.      00.44.00 11-Feb-21:  START TIME
 DATE.      00.00.00 05-May-21:  END TIME
 SPUD.               13-Feb-21:  SPUD DATE
 MWDS.                    Baku:  MWD SHOP
 DOE .                     N/A:  DOE NUMBER
 UNIT.                     N/A:  LOGGING EQUIPMENT ID
 UWI .                     N/A:  UNIQUE WELL IDENTIFIER
 API .                     N/A:  API NUMBER
 CNTY.                        :  COUNTY
 LOC .                        :  LOCATION
 LMF .             Drill Floor:  LOG MEASURED FROM
 TVDS.m                  43.00:  TVDSS CORRECTN
 SDEP.m                 341.00:  START DEPTH
 EGL .m                   0.00:  GROUND ELEVATION
 WDMS.m                 169.80:  WD ELEV
 AGAP.m                  43.00:  AIR GAP
 EPD .m                   0.00:  ELEVATION
 APD .m                  43.00:  DEPTH ABOVE PD
 LATI.deg                40.13:  LATITUDE
 LONG.deg                51.22:  LONGITUDE
 UTMY.m             4443793.85:  UTM Y
 UTMX.m              519005.06:  UTM X
 WHEW.m                 -11.57:  WELL HEAD E/W
 WHNS.m                   8.57:  WELL HEAD N/S
 VSEW.m                 -11.57:  VERT SEC E/W
 VSNS.m                   8.57:  VERT SEC N/S
 DFWL.m                   0.00:  DISTANCE FWL
 DFSL.m                   0.00:  DISTANCE FSL
 VSDR.deg               299.34:  VERT SEC DIRECT
 GVFD.g                   1.00:  GRAVITY FIELD
 AZTC.deg                 6.36:  AZM TOTAL CORR
 MFLD.nT              50391.00:  MAGNETIC FIELD
 MDIP.deg                59.65:  MAGNETIC DIP
 MDEC.deg                 6.48:  MAGNETIC DECL
 GRDC.deg                 0.12:  GRID CORRECTION
 DEP .m                 334.96:  DEPTH
 TDD .m                1407.26:  TOTAL DEPTH (DRILLER)
 EKB .m                  43.00:  KB ELEVATION
 EDF .m                  43.00:  DF ELEVATION
 TDL .m                 228.00:  TOTAL DEPTH (LOGGER)
 VSC .                       0:  VS TO CLOSURE
 MAGU.                 1854484:  MAGUTM CHECKSUM
~Parameter Information Block
#MNEM.UNIT       Value        Description
#---------     -----------    ---------------------------
 AV  .mps                 4.00:  Ann Velocity 
 AVMX.mps                 4.73:  Max Ann Veloc 
 AZIF.deg               304.48:  Azm, Final 
 BHAT.        Rotary Steerable:  BHA Type 
 BREV.rev            257300.00:  Rev Bit Total 
 BROT.°/30m               0.00:  Build Rotating 
 BS  .in                  8.50:  Bit Size 
 BSZ .in                  8.50:  Bit Size 
 BTPL.psig              589.00:  Bit Press Loss 
 CABU.                      No:  Customer Abuse 
 CGEO.          Mubariz ghayev:  Customer Geo 
 COMM.                     ÌğZ:  Run Comments 1 
 TCS .hr                 64.25:  Time Ciculation Ended 
 CV  .mps                 3.50:  Crit Velocity 
 CVMX.mps                 4.52:  Max Crit Veloc 
 DD1 .             Aziz Aliyev:  Direct Drillr 1 
 DD2 .         Intigam Rahimov:  Direct Drillr 2 
 DD3 .          Rashad Habibov:  Direct Drillr 3 
 DDSV.               Geo-Pilot:  DD Service 
 DEFF.%                  98.00:  % Det Eff 
 DLRX.°/30m               0.00:  Dogleg Rot Max 
 DLSO.°/30m               0.00:  Dogleg Oriented 
 DLSX.°/30m               0.00:  Dogleg Str Max 
 DRET.      10.45.04 08-May-21:  Drill End Time 
 DRST.      03.30.04 04-May-21:  Drill Start Tim 
 DTIM.hr                 14.97:  Time Drilling 
 EDEP.m                4640.01:  End Depth 
 ENG1.         Dail Mahammadov:  Engineer 1 
 ENG2.           Eldar Hajiyev:  Engineer 2 
 ENG3.       Bakhtiar Jabbarli:  Engineer 3 
 ENG4.       Natik Hasanagayev:  Engineer 4 
 ETIM.      09.30.04 14-May-21:  End Time 
 FLOI.gpm               460.00:  Flow In 
 FLON.gpm               200.00:  Flow In Min 
 FLOS.cptm                0.00:  Fluid Loss 
 FLOX.gpm               505.00:  Flow In Max 
 HFLO.                      No:  High Flow 
 HPRE.                      No:  High Pressure 
 HTEM.                      No:  High Temp 
 HYDO.m                   1.80:  Hydro Offset 
 IFIN.deg                66.71:  Inc, Final 
 IMAX.deg                67.03:  Inc Max 
 IMIN.deg                66.63:  Inc Min 
 IMND.m                4550.58:  Inc Min Depth 
 IMXD.m                4439.01:  Inc Max Depth 
 JARR.                      No:  Jarring 
 LETM.      10.45.04 08-May-21:  Log End Time 
 LOST.hr                     0:  Lost Rig Time 
 LSTM.      03.30.04 04-May-21:  Log Start Time 
 MDCL.ppm             37000.00:  Mud Chlorides 
 MDES.     Inversion Oil/Synthetic:  Mud Desc 
 DFD .sg                  1.38:  Mud Density 
 MDMN.sg                  1.35:  Dens Mud Min 
 MDMX.sg                  1.40:  Dens Mud Max 
 MOIL.                   57.40:  Run Mud Oil % 
 MOWR.                   70:30:  Run Mud OWR 
 MSND.                    0.00:  Run Mud Sand % 
 MSOL.                   18.00:  Run Mud Solids% 
 DFV .spqt               71.00:  Mud Viscosity 
 MWOD.in                  6.75:  MWD Tool OD 
 MWSI.                      No:  Serv Intrp, MWD 
 OTIM.hr                242.76:  Time Operating 
 PCON.           Look Like New:  Pad Condition 
 PMAX.psia            12183.92:  Press Op, Max 
 PV  .cP                 27.00:  Mud PV 
 RUN .                    1300:  Run Number 
 ROPA.m/hr               15.00:  ROP Avg 
 ROPN.m/hr                9.00:  ROP Min 
 ROPX.m/hr               19.00:  ROP Max 
 RPMA.rpm               120.00:  RPM Surface Avg 
 RPMN.rpm               100.00:  RPM Surface Min 
 RPMX.rpm               120.00:  RPM Surface Max 
 RRUN.                    1300:  Rig Run Number 
 RTIM.hr                  5.00:  Time Reaming 
 SAZI.deg               304.73:  Azm, Start 
 SDEP.m                4412.01:  Start Depth 
 SIDD.                      No:  Serv Intrp, DD 
 SINC.deg                66.82:  Inc, Start 
 SPPA.psig             2800.00:  SPP Avg 
 SPPN.psig             2610.00:  SPP Min 
 SPPX.psig             3100.00:  SPP Max 
 STIM.      03.30.00 04-May-21:  Start Time 
 SVCS.                 DD, MWD:  Services 
 SVER.                    9.20:  Sperry Version 
 TDAT.m                 228.00:  Tot Depth Attmp 
 TDDF.                      No:  Trip for DD 
 TDLG.m                 228.00:  Tot Depth Loggd 
 TFF .                      No:  Trip for Fail 
 TQAA.f-kp               15.00:  Torque Abs Avg 
 TQAN.f-kp               12.00:  Torque Abs Min 
 TQAX.f-kp               22.00:  Torque Abs Max 
 TRRT.°/30m               0.00:  Turn Rotating 
 MRT .                    HCIM:  Maximum Recorded Temperature 
 TTMX.degC               90.20:  Max Tool Temp 
 VS01.                90627813:  Virtual Str1 SN 
 VS02.                90634712:  Virtual Str2 SN 
 VS03.                90643410:  Virtual Str3 SN 
 VS04.                90634712:  Virtual Str4 SN 
 WBMN.klb                 9.00:  WOB Min 
 WITN.        Elmaddin Rahimov:  Customer Rep 
 WITN.         Haytham Mostafa:  Customer Rep 2 
 WOBA.klb                15.00:  WOB Avg 
 WOBX.klb                23.00:  WOB Max 
 YP  .lhf2               29.00:  Yield Point 
~Curve Information Block
#MNEM.UNIT                 API CODE     Curve Description
#---------               -----------    ---------------------------
 TIME.HHMMSS            00 000 000 000:  GT Time & Date
 GTDEPTH.m              00 000 000 000:  GT Depth
 GTPQH.psia             00 000 000 000:  GT HR Quartz Pressure
 GTTQ.degC              00 000 000 000:  GT Quartz Temperature
 GTTN.NONE              00 000 000 000:  GT Test Number
 GTET.sec               00 000 000 000:  GT Elapsed Test Time
 GTTVD.m                00 000 000 000:  GT True Vertical Depth
#Other Information
#
#WARRANTY: Halliburton will use its best efforts to furnish customers with 
#accurate information and interpretations that are part of, and incident to, the services 
#provided.  However, Halliburton cannot and does not warrant the accuracy 
#or correctness of such information and interpretations.  Under no circumstances should any 
#such information or interpretation be relied upon as the sole basis for any drilling, 
#completion, production, or financial decision or any procedure involving any risk to the 
#safety of any drilling venture, drilling rig or its crew or any other third party.  The 
#Customer has full responsibility for all drilling, completion and production operation.  
#Halliburton makes no representations or warranties, either expressed or 
#implied, including, but not limited to, the implied warranties of merchantability or fitness 
#for a particular purpose, with respect to the services rendered.  In no event will 
#Halliburton be liable for failure to obtain any particular results or for 
#any damages, including, but not limited to, indirect, special or consequential damages, 
#resulting from the use of any information or interpretation provided by Halliburton.
#
~A           TIME           GTDEPTH  GTPQH  GTTQ  GTTN  GTET   GTTVD  
# ...
   01:17:03.873.09-May-2021 4503.51 2557.73 67.54 9.00 253.09 2973.49
   01:17:04.073.09-May-2021 4503.51 2557.73 67.54 9.00 253.29 2973.49
   01:17:04.273.09-May-2021 4503.51 1168.59 67.54 9.00 253.49 2973.49
   01:17:04.473.09-May-2021 4503.51  807.85 67.54 9.00 253.69 2973.49
   01:17:04.673.09-May-2021 4503.51  724.82 67.54 9.00 253.89 2973.49
   01:17:04.873.09-May-2021 4503.51  699.53 67.54 9.00 254.09 2973.49
   01:17:05.073.09-May-2021 4503.51  699.53 67.54 9.00 254.29 2973.49
   01:17:05.273.09-May-2021 4503.51  668.45 67.54 9.00 254.49 2973.49
   01:17:05.473.09-May-2021 4503.51  685.89 67.54 9.00 254.69 2973.49
   01:17:05.673.09-May-2021 4503.51  700.78 67.53 9.00 254.89 2973.49
   01:17:05.873.09-May-2021 4503.51  698.30 67.53 9.00 255.09 2973.49
   01:17:06.073.09-May-2021 4503.51  698.30 67.53 9.00 255.29 2973.49
   01:17:06.274.09-May-2021 4503.51  672.37 67.53 9.00 255.49 2973.49
   01:17:06.474.09-May-2021 4503.51  678.22 67.53 9.00 255.69 2973.49
   01:17:06.674.09-May-2021 4503.51  673.83 67.53 9.00 255.89 2973.49
   01:17:06.874.09-May-2021 4503.51  657.39 67.53 9.00 256.09 2973.49
   01:17:07.074.09-May-2021 4503.51  657.39 67.53 9.00 256.29 2973.49
   01:17:07.274.09-May-2021 4503.51  635.94 67.53 9.00 256.49 2973.49
   01:17:07.474.09-May-2021 4503.51  634.37 67.52 9.00 256.69 2973.49
   01:17:07.674.09-May-2021 4503.51  631.63 67.52 9.00 256.89 2973.49
   01:17:07.874.09-May-2021 4503.51  629.68 67.52 9.00 257.09 2973.49
   01:17:08.074.09-May-2021 4503.51  629.68 67.52 9.00 257.29 2973.49
   01:17:08.274.09-May-2021 4503.51  624.91 67.52 9.00 257.49 2973.49
   01:17:08.474.09-May-2021 4503.51  625.65 67.52 9.00 257.69 2973.49
   01:17:08.674.09-May-2021 4503.51  629.28 67.52 9.00 257.89 2973.49
   01:17:08.874.09-May-2021 4503.51  634.49 67.51 9.00 258.09 2973.49
   01:17:09.075.09-May-2021 4503.51  634.49 67.51 9.00 258.29 2973.49
   01:17:09.275.09-May-2021 4503.51  655.11 67.51 9.00 258.49 2973.49
   01:17:09.475.09-May-2021 4503.51  657.14 67.51 9.00 258.69 2973.49
   01:17:09.675.09-May-2021 4503.51  648.97 67.51 9.00 258.89 2973.49
   01:17:09.875.09-May-2021 4503.51  642.30 67.51 9.00 259.09 2973.49
   01:17:10.075.09-May-2021 4503.51  642.30 67.51 9.00 259.29 2973.49
   01:17:10.275.09-May-2021 4503.51  628.45 67.51 9.00 259.49 2973.49
   01:17:10.475.09-May-2021 4503.51  625.82 67.51 9.00 259.69 2973.49
   01:17:10.675.09-May-2021 4503.51  623.48 67.50 9.00 259.89 2973.49
   01:17:10.875.09-May-2021 4503.51  621.97 67.50 9.00 260.09 2973.49
   01:17:11.075.09-May-2021 4503.51  621.97 67.50 9.00 260.29 2973.49
   01:17:11.275.09-May-2021 4503.51  626.79 67.50 9.00 260.49 2973.49
   01:17:11.475.09-May-2021 4503.51  634.63 67.50 9.00 260.69 2973.49
   01:17:11.675.09-May-2021 4503.51  650.78 67.50 9.00 260.89 2973.49
   01:17:11.876.09-May-2021 4503.51  668.16 67.50 9.00 261.09 2973.49
   01:17:12.076.09-May-2021 4503.51  668.16 67.50 9.00 261.29 2973.49
   01:17:12.276.09-May-2021 4503.51  690.59 67.50 9.00 261.49 2973.49
   01:17:12.476.09-May-2021 4503.51  699.55 67.50 9.00 261.69 2973.49
   01:17:12.676.09-May-2021 4503.51  702.01 67.50 9.00 261.89 2973.49
   01:17:12.876.09-May-2021 4503.51  691.25 67.50 9.00 262.09 2973.49
   01:17:13.076.09-May-2021 4503.51  691.25 67.50 9.00 262.30 2973.49
   01:17:13.276.09-May-2021 4503.51  692.89 67.49 9.00 262.50 2973.49
   01:17:13.476.09-May-2021 4503.51  687.12 67.49 9.00 262.70 2973.49
   01:17:13.676.09-May-2021 4503.51  673.39 67.49 9.00 262.90 2973.49
   01:17:13.876.09-May-2021 4503.51  665.20 67.49 9.00 263.10 2973.49
   01:17:14.076.09-May-2021 4503.51  665.20 67.49 9.00 263.30 2973.49
   01:17:14.276.09-May-2021 4503.51  667.13 67.49 9.00 263.50 2973.49
   01:17:14.476.09-May-2021 4503.51  705.23 67.49 9.00 263.70 2973.49
   01:17:14.677.09-May-2021 4503.51  721.38 67.49 9.00 263.90 2973.49
   01:17:14.877.09-May-2021 4503.51  737.45 67.49 9.00 264.10 2973.49
   01:17:15.077.09-May-2021 4503.51  737.45 67.49 9.00 264.30 2973.49
   01:17:15.277.09-May-2021 4503.51  768.81 67.49 9.00 264.50 2973.49
   01:17:15.477.09-May-2021 4503.51  784.08 67.49 9.00 264.70 2973.49
   01:17:15.677.09-May-2021 4503.51  799.12 67.49 9.00 264.90 2973.49
   01:17:15.877.09-May-2021 4503.51  813.96 67.49 9.00 265.10 2973.49
   01:17:16.077.09-May-2021 4503.51  813.96 67.49 9.00 265.30 2973.49
   01:17:16.277.09-May-2021 4503.51  842.88 67.49 9.00 265.50 2973.49
   01:17:16.477.09-May-2021 4503.51  855.91 67.49 9.00 265.70 2973.49
   01:17:16.677.09-May-2021 4503.51  869.81 67.49 9.00 265.90 2973.49
   01:17:16.877.09-May-2021 4503.51  883.22 67.49 9.00 266.10 2973.49
   01:17:17.077.09-May-2021 4503.51  883.22 67.49 9.00 266.30 2973.49
   01:17:17.277.09-May-2021 4503.51  909.74 67.49 9.00 266.50 2973.49
   01:17:17.478.09-May-2021 4503.51  922.78 67.49 9.00 266.70 2973.49
   01:17:17.678.09-May-2021 4503.51  935.85 67.49 9.00 266.90 2973.49
   01:17:17.878.09-May-2021 4503.51  948.68 67.49 9.00 267.10 2973.49
   01:17:18.078.09-May-2021 4503.51  948.68 67.49 9.00 267.30 2973.49
   01:17:18.278.09-May-2021 4503.51  974.02 67.49 9.00 267.50 2973.49
   01:17:18.478.09-May-2021 4503.51  986.46 67.49 9.00 267.70 2973.49
   01:17:18.678.09-May-2021 4503.51  998.82 67.49 9.00 267.90 2973.49
   01:17:18.878.09-May-2021 4503.51 1010.61 67.49 9.00 268.10 2973.49
   01:17:19.078.09-May-2021 4503.51 1010.61 67.49 9.00 268.30 2973.49
   01:17:19.278.09-May-2021 4503.51 1034.41 67.49 9.00 268.50 2973.49
   01:17:19.478.09-May-2021 4503.51 1046.30 67.49 9.00 268.70 2973.49
   01:17:19.678.09-May-2021 4503.51 1057.23 67.49 9.00 268.90 2973.49
   01:17:19.878.09-May-2021 4503.51 1069.16 67.49 9.00 269.10 2973.49
   01:17:20.079.09-May-2021 4503.51 1069.16 67.49 9.00 269.30 2973.49
   01:17:20.279.09-May-2021 4503.51 1091.52 67.49 9.00 269.50 2973.49
   01:17:20.479.09-May-2021 4503.51 1102.53 67.49 9.00 269.70 2973.49
   01:17:20.679.09-May-2021 4503.51 1113.74 67.49 9.00 269.90 2973.49
   01:17:20.879.09-May-2021 4503.51 1124.11 67.49 9.00 270.10 2973.49
   01:17:21.079.09-May-2021 4503.51 1124.11 67.49 9.00 270.30 2973.49
   01:17:21.279.09-May-2021 4503.51 1145.80 67.49 9.00 270.50 2973.49
   01:17:21.479.09-May-2021 4503.51 1155.83 67.49 9.00 270.70 2973.49
   01:17:21.679.09-May-2021 4503.51 1167.00 67.49 9.00 270.90 2973.49
   01:17:21.879.09-May-2021 4503.51 1177.02 67.49 9.00 271.10 2973.49
   01:17:22.079.09-May-2021 4503.51 1177.02 67.49 9.00 271.30 2973.49
   01:17:22.279.09-May-2021 4503.51 1197.72 67.49 9.00 271.50 2973.49
   01:17:22.479.09-May-2021 4503.51 1207.95 67.49 9.00 271.70 2973.49
   01:17:22.679.09-May-2021 4503.51 1218.15 67.49 9.00 271.90 2973.49
   01:17:22.880.09-May-2021 4503.51 1228.22 67.49 9.00 272.10 2973.49
   01:17:23.080.09-May-2021 4503.51 1228.22 67.49 9.00 272.30 2973.49
   01:17:23.280.09-May-2021 4503.51 1248.18 67.49 9.00 272.50 2973.49
   01:17:23.480.09-May-2021 4503.51 1258.00 67.49 9.00 272.70 2973.49
   01:17:23.680.09-May-2021 4503.51 1267.76 67.50 9.00 272.90 2973.49
   01:17:23.880.09-May-2021 4503.51 1277.41 67.50 9.00 273.10 2973.49
   01:17:24.080.09-May-2021 4503.51 1277.41 67.50 9.00 273.30 2973.49
   01:17:24.280.09-May-2021 4503.51 1296.34 67.50 9.00 273.50 2973.49
   01:17:24.480.09-May-2021 4503.51 1305.30 67.50 9.00 273.70 2973.49
   01:17:24.680.09-May-2021 4503.51 1314.71 67.50 9.00 273.90 2973.49
   01:17:24.880.09-May-2021 4503.51 1323.99 67.50 9.00 274.10 2973.49
   01:17:25.080.09-May-2021 4503.51 1323.99 67.50 9.00 274.30 2973.49
   01:17:25.280.09-May-2021 4503.51 1342.65 67.50 9.00 274.50 2973.49
   01:17:25.480.09-May-2021 4503.51 1351.91 67.50 9.00 274.70 2973.49
   01:17:25.681.09-May-2021 4503.51 1361.17 67.50 9.00 274.90 2973.49
   01:17:25.881.09-May-2021 4503.51 1370.31 67.50 9.00 275.10 2973.49
   01:17:26.081.09-May-2021 4503.51 1370.31 67.50 9.00 275.30 2973.49
   01:17:26.281.09-May-2021 4503.51 1388.47 67.50 9.00 275.50 2973.49
   01:17:26.481.09-May-2021 4503.51 1397.42 67.50 9.00 275.70 2973.49
   01:17:26.681.09-May-2021 4503.51 1405.68 67.50 9.00 275.90 2973.49
