~Version Information
 VERS.                  2.0:   CWLS log ASCII Standard -VERSION 2.0
 WRAP.                   NO:   One line per depth step
~Well Information Block
#MNEM.UNIT     VALUE/NAME     DESCRIPTION
#---------     -----------    ---------------------------
 STRT.S             22:20:35 08-May-21: START TIME 22:20:35 08-May-21
 STOP.S             22:27:08 08-May-21: STOP TIME  22:27:08 08-May-21
 STEP.S                   0.00: STEP TIME
 NULL.                 -999.25: NULL VALUE
 PROV.                    Baku:  PROVINCE
 STAT.                    Baku:  STATE NAME
 SON .        AZ-XX-0906571588:  JOB NUMBER
 WTYP.                Deviated:  WELL TYPE
 COMP.     BP Exploration (Caspian Sea) ltd:  COMPANY
 BASE.              Azerbaijan:  LOGGING EQUIPMENT BASE LOCATION
 REGN.                   EESSA:  REGION
 CTRY.              Azerbaijan:  COUNTRY NAME
 FLD .                     ACG:  FIELD NAME
 WELL.                     J28:  WELL NAME
 RIG .             West Chirag:  RIG NAME
 DMF .             Drill Floor:  DRILL MEAS FROM
 PDAT.       Caspian Sea Level:  PERMANENT DATUM
 HPTY.       Minimum Curvature:  HOLE POS TYPE
 MDS .        Operator Entered:  MAG DATA SOURCE
 NREF.                    Grid:  NORTH REFERENCE
 SRVC.          TURAN DRILLING:  CONTRACTOR
 JOBN.        AZ-XX-0906571588:  JOB TICKET NUMB
 DCON.     Halliburton Sperry Drilling:  DIRECTNL CONTR
 STIM.      00.44.00 11-Feb-21:  START TIME
 DATE.      00.00.00 05-May-21:  END TIME
 SPUD.               13-Feb-21:  SPUD DATE
 MWDS.                    Baku:  MWD SHOP
 DOE .                     N/A:  DOE NUMBER
 UNIT.                     N/A:  LOGGING EQUIPMENT ID
 UWI .                     N/A:  UNIQUE WELL IDENTIFIER
 API .                     N/A:  API NUMBER
 CNTY.                        :  COUNTY
 LOC .                        :  LOCATION
 LMF .             Drill Floor:  LOG MEASURED FROM
 TVDS.m                  43.00:  TVDSS CORRECTN
 SDEP.m                 341.00:  START DEPTH
 EGL .m                   0.00:  GROUND ELEVATION
 WDMS.m                 169.80:  WD ELEV
 AGAP.m                  43.00:  AIR GAP
 EPD .m                   0.00:  ELEVATION
 APD .m                  43.00:  DEPTH ABOVE PD
 LATI.deg                40.13:  LATITUDE
 LONG.deg                51.22:  LONGITUDE
 UTMY.m             4443793.85:  UTM Y
 UTMX.m              519005.06:  UTM X
 WHEW.m                 -11.57:  WELL HEAD E/W
 WHNS.m                   8.57:  WELL HEAD N/S
 VSEW.m                 -11.57:  VERT SEC E/W
 VSNS.m                   8.57:  VERT SEC N/S
 DFWL.m                   0.00:  DISTANCE FWL
 DFSL.m                   0.00:  DISTANCE FSL
 VSDR.deg               299.34:  VERT SEC DIRECT
 GVFD.g                   1.00:  GRAVITY FIELD
 AZTC.deg                 6.36:  AZM TOTAL CORR
 MFLD.nT              50391.00:  MAGNETIC FIELD
 MDIP.deg                59.65:  MAGNETIC DIP
 MDEC.deg                 6.48:  MAGNETIC DECL
 GRDC.deg                 0.12:  GRID CORRECTION
 DEP .m                 334.96:  DEPTH
 TDD .m                1407.26:  TOTAL DEPTH (DRILLER)
 EKB .m                  43.00:  KB ELEVATION
 EDF .m                  43.00:  DF ELEVATION
 TDL .m                 228.00:  TOTAL DEPTH (LOGGER)
 VSC .                       0:  VS TO CLOSURE
 MAGU.                 1854484:  MAGUTM CHECKSUM
~Parameter Information Block
#MNEM.UNIT       Value        Description
#---------     -----------    ---------------------------
 AV  .mps                 4.00:  Ann Velocity 
 AVMX.mps                 4.73:  Max Ann Veloc 
 AZIF.deg               304.48:  Azm, Final 
 BHAT.        Rotary Steerable:  BHA Type 
 BREV.rev            257300.00:  Rev Bit Total 
 BROT.°/30m               0.00:  Build Rotating 
 BS  .in                  8.50:  Bit Size 
 BSZ .in                  8.50:  Bit Size 
 BTPL.psig              589.00:  Bit Press Loss 
 CABU.                      No:  Customer Abuse 
 CGEO.          Mubariz ghayev:  Customer Geo 
 COMM.                     lÿM:  Run Comments 1 
 TCS .hr                 64.25:  Time Ciculation Ended 
 CV  .mps                 3.50:  Crit Velocity 
 CVMX.mps                 4.52:  Max Crit Veloc 
 DD1 .             Aziz Aliyev:  Direct Drillr 1 
 DD2 .         Intigam Rahimov:  Direct Drillr 2 
 DD3 .          Rashad Habibov:  Direct Drillr 3 
 DDSV.               Geo-Pilot:  DD Service 
 DEFF.%                  98.00:  % Det Eff 
 DLRX.°/30m               0.00:  Dogleg Rot Max 
 DLSO.°/30m               0.00:  Dogleg Oriented 
 DLSX.°/30m               0.00:  Dogleg Str Max 
 DRET.      10.45.04 08-May-21:  Drill End Time 
 DRST.      03.30.04 04-May-21:  Drill Start Tim 
 DTIM.hr                 14.97:  Time Drilling 
 EDEP.m                4640.01:  End Depth 
 ENG1.         Dail Mahammadov:  Engineer 1 
 ENG2.           Eldar Hajiyev:  Engineer 2 
 ENG3.       Bakhtiar Jabbarli:  Engineer 3 
 ENG4.       Natik Hasanagayev:  Engineer 4 
 ETIM.      09.30.04 14-May-21:  End Time 
 FLOI.gpm               460.00:  Flow In 
 FLON.gpm               200.00:  Flow In Min 
 FLOS.cptm                0.00:  Fluid Loss 
 FLOX.gpm               505.00:  Flow In Max 
 HFLO.                      No:  High Flow 
 HPRE.                      No:  High Pressure 
 HTEM.                      No:  High Temp 
 HYDO.m                   1.80:  Hydro Offset 
 IFIN.deg                66.71:  Inc, Final 
 IMAX.deg                67.03:  Inc Max 
 IMIN.deg                66.63:  Inc Min 
 IMND.m                4550.58:  Inc Min Depth 
 IMXD.m                4439.01:  Inc Max Depth 
 JARR.                      No:  Jarring 
 LETM.      10.45.04 08-May-21:  Log End Time 
 LOST.hr                     0:  Lost Rig Time 
 LSTM.      03.30.04 04-May-21:  Log Start Time 
 MDCL.ppm             37000.00:  Mud Chlorides 
 MDES.     Inversion Oil/Synthetic:  Mud Desc 
 DFD .sg                  1.38:  Mud Density 
 MDMN.sg                  1.35:  Dens Mud Min 
 MDMX.sg                  1.40:  Dens Mud Max 
 MOIL.                   57.40:  Run Mud Oil % 
 MOWR.                   70:30:  Run Mud OWR 
 MSND.                    0.00:  Run Mud Sand % 
 MSOL.                   18.00:  Run Mud Solids% 
 DFV .spqt               71.00:  Mud Viscosity 
 MWOD.in                  6.75:  MWD Tool OD 
 MWSI.                      No:  Serv Intrp, MWD 
 OTIM.hr                242.76:  Time Operating 
 PCON.           Look Like New:  Pad Condition 
 PMAX.psia            12183.92:  Press Op, Max 
 PV  .cP                 27.00:  Mud PV 
 RUN .                    1300:  Run Number 
 ROPA.m/hr               15.00:  ROP Avg 
 ROPN.m/hr                9.00:  ROP Min 
 ROPX.m/hr               19.00:  ROP Max 
 RPMA.rpm               120.00:  RPM Surface Avg 
 RPMN.rpm               100.00:  RPM Surface Min 
 RPMX.rpm               120.00:  RPM Surface Max 
 RRUN.                    1300:  Rig Run Number 
 RTIM.hr                  5.00:  Time Reaming 
 SAZI.deg               304.73:  Azm, Start 
 SDEP.m                4412.01:  Start Depth 
 SIDD.                      No:  Serv Intrp, DD 
 SINC.deg                66.82:  Inc, Start 
 SPPA.psig             2800.00:  SPP Avg 
 SPPN.psig             2610.00:  SPP Min 
 SPPX.psig             3100.00:  SPP Max 
 STIM.      03.30.00 04-May-21:  Start Time 
 SVCS.                 DD, MWD:  Services 
 SVER.                    9.20:  Sperry Version 
 TDAT.m                 228.00:  Tot Depth Attmp 
 TDDF.                      No:  Trip for DD 
 TDLG.m                 228.00:  Tot Depth Loggd 
 TFF .                      No:  Trip for Fail 
 TQAA.f-kp               15.00:  Torque Abs Avg 
 TQAN.f-kp               12.00:  Torque Abs Min 
 TQAX.f-kp               22.00:  Torque Abs Max 
 TRRT.°/30m               0.00:  Turn Rotating 
 MRT .                    HCIM:  Maximum Recorded Temperature 
 TTMX.degC               90.20:  Max Tool Temp 
 VS01.                90627813:  Virtual Str1 SN 
 VS02.                90634712:  Virtual Str2 SN 
 VS03.                90643410:  Virtual Str3 SN 
 VS04.                90634712:  Virtual Str4 SN 
 WBMN.klb                 9.00:  WOB Min 
 WITN.        Elmaddin Rahimov:  Customer Rep 
 WITN.         Haytham Mostafa:  Customer Rep 2 
 WOBA.klb                15.00:  WOB Avg 
 WOBX.klb                23.00:  WOB Max 
 YP  .lhf2               29.00:  Yield Point 
~Curve Information Block
#MNEM.UNIT                 API CODE     Curve Description
#---------               -----------    ---------------------------
 TIME.HHMMSS            00 000 000 000:  GT Time & Date
 GTDEPTH.m              00 000 000 000:  GT Depth
 GTPQH.psia             00 000 000 000:  GT HR Quartz Pressure
 GTTQ.degC              00 000 000 000:  GT Quartz Temperature
 GTTN.NONE              00 000 000 000:  GT Test Number
 GTET.sec               00 000 000 000:  GT Elapsed Test Time
 GTTVD.m                00 000 000 000:  GT True Vertical Depth
#Other Information
#
#WARRANTY: Halliburton will use its best efforts to furnish customers with 
#accurate information and interpretations that are part of, and incident to, the services 
#provided.  However, Halliburton cannot and does not warrant the accuracy 
#or correctness of such information and interpretations.  Under no circumstances should any 
#such information or interpretation be relied upon as the sole basis for any drilling, 
#completion, production, or financial decision or any procedure involving any risk to the 
#safety of any drilling venture, drilling rig or its crew or any other third party.  The 
#Customer has full responsibility for all drilling, completion and production operation.  
#Halliburton makes no representations or warranties, either expressed or 
#implied, including, but not limited to, the implied warranties of merchantability or fitness 
#for a particular purpose, with respect to the services rendered.  In no event will 
#Halliburton be liable for failure to obtain any particular results or for 
#any damages, including, but not limited to, indirect, special or consequential damages, 
#resulting from the use of any information or interpretation provided by Halliburton.
#
~A           TIME           GTDEPTH  GTPQH  GTTQ  GTTN  GTET   GTTVD  
# ...
   22:21:21.000.08-May-2021 4569.01  675.31 68.52 4.00  46.00 2999.38
   22:21:21.200.08-May-2021 4569.01  675.31 68.52 4.00  46.20 2999.38
   22:21:21.400.08-May-2021 4569.01  675.85 68.51 4.00  46.40 2999.38
   22:21:21.600.08-May-2021 4569.01  676.23 68.51 4.00  46.60 2999.38
   22:21:21.800.08-May-2021 4569.01  675.46 68.50 4.00  46.80 2999.38
   22:21:22.000.08-May-2021 4569.01  675.90 68.50 4.00  47.00 2999.38
   22:21:22.200.08-May-2021 4569.01  675.90 68.50 4.00  47.20 2999.38
   22:21:22.400.08-May-2021 4569.01  677.67 68.49 4.00  47.40 2999.38
   22:21:22.600.08-May-2021 4569.01  677.57 68.49 4.00  47.60 2999.38
   22:21:22.800.08-May-2021 4569.01  677.60 68.49 4.00  47.80 2999.38
   22:21:23.000.08-May-2021 4569.01  677.19 68.49 4.00  48.00 2999.38
   22:21:23.200.08-May-2021 4569.01  677.19 68.49 4.00  48.20 2999.38
   22:21:23.400.08-May-2021 4569.01  677.85 68.48 4.00  48.40 2999.38
   22:21:23.600.08-May-2021 4569.01  678.36 68.48 4.00  48.60 2999.38
   22:21:23.800.08-May-2021 4569.01  676.89 68.48 4.00  48.80 2999.38
   22:21:24.000.08-May-2021 4569.01  674.06 68.47 4.00  49.00 2999.38
   22:21:24.200.08-May-2021 4569.01  674.06 68.47 4.00  49.20 2999.38
   22:21:24.400.08-May-2021 4569.01  668.25 68.47 4.00  49.40 2999.38
   22:21:24.600.08-May-2021 4569.01  666.14 68.47 4.00  49.60 2999.38
   22:21:24.800.08-May-2021 4569.01  663.45 68.47 4.00  49.80 2999.38
   22:21:25.000.08-May-2021 4569.01  663.91 68.46 4.00  50.00 2999.38
   22:21:25.200.08-May-2021 4569.01  663.91 68.46 4.00  50.20 2999.38
   22:21:25.400.08-May-2021 4569.01  675.81 68.46 4.00  50.40 2999.38
   22:21:25.600.08-May-2021 4569.01  677.69 68.46 4.00  50.60 2999.38
   22:21:25.800.08-May-2021 4569.01  679.11 68.46 4.00  50.80 2999.38
   22:21:26.000.08-May-2021 4569.01  680.86 68.46 4.00  51.00 2999.38
   22:21:26.200.08-May-2021 4569.01  680.86 68.46 4.00  51.20 2999.38
   22:21:26.400.08-May-2021 4569.01  684.25 68.45 4.00  51.40 2999.38
   22:21:26.600.08-May-2021 4569.01  685.93 68.45 4.00  51.60 2999.38
   22:21:26.800.08-May-2021 4569.01  687.63 68.45 4.00  51.80 2999.38
   22:21:27.000.08-May-2021 4569.01  689.26 68.45 4.00  52.00 2999.38
   22:21:27.200.08-May-2021 4569.01  689.26 68.45 4.00  52.20 2999.38
   22:21:27.400.08-May-2021 4569.01  692.24 68.45 4.00  52.40 2999.38
   22:21:27.600.08-May-2021 4569.01  693.75 68.45 4.00  52.60 2999.38
   22:21:27.800.08-May-2021 4569.01  694.75 68.45 4.00  52.80 2999.38
   22:21:28.000.08-May-2021 4569.01  697.07 68.45 4.00  53.00 2999.38
   22:21:28.200.08-May-2021 4569.01  697.07 68.45 4.00  53.20 2999.38
   22:21:28.400.08-May-2021 4569.01  699.38 68.45 4.00  53.40 2999.38
   22:21:28.600.08-May-2021 4569.01  700.70 68.44 4.00  53.60 2999.38
   22:21:28.800.08-May-2021 4569.01  702.11 68.44 4.00  53.80 2999.38
   22:21:29.000.08-May-2021 4569.01  702.87 68.44 4.00  54.00 2999.38
   22:21:29.200.08-May-2021 4569.01  702.87 68.44 4.00  54.20 2999.38
   22:21:29.400.08-May-2021 4569.01  705.83 68.44 4.00  54.40 2999.38
   22:21:29.600.08-May-2021 4569.01  707.27 68.44 4.00  54.60 2999.38
   22:21:29.800.08-May-2021 4569.01  708.32 68.44 4.00  54.80 2999.38
   22:21:30.000.08-May-2021 4569.01  709.11 68.44 4.00  55.00 2999.38
   22:21:30.200.08-May-2021 4569.01  709.11 68.44 4.00  55.20 2999.38
   22:21:30.400.08-May-2021 4569.01  712.17 68.44 4.00  55.40 2999.38
   22:21:30.600.08-May-2021 4569.01  713.17 68.44 4.00  55.60 2999.38
   22:21:30.800.08-May-2021 4569.01  714.26 68.44 4.00  55.80 2999.38
   22:21:31.000.08-May-2021 4569.01  715.29 68.44 4.00  56.00 2999.38
   22:21:31.200.08-May-2021 4569.01  715.29 68.44 4.00  56.20 2999.38
   22:21:31.400.08-May-2021 4569.01  717.90 68.44 4.00  56.40 2999.38
   22:21:31.600.08-May-2021 4569.01  718.70 68.44 4.00  56.60 2999.38
   22:21:31.800.08-May-2021 4569.01  719.90 68.44 4.00  56.80 2999.38
   22:21:32.000.08-May-2021 4569.01  720.77 68.44 4.00  57.00 2999.38
   22:21:32.200.08-May-2021 4569.01  720.77 68.44 4.00  57.20 2999.38
   22:21:32.400.08-May-2021 4569.01  722.86 68.44 4.00  57.40 2999.38
   22:21:32.600.08-May-2021 4569.01  723.83 68.44 4.00  57.60 2999.38
   22:21:32.800.08-May-2021 4569.01  724.82 68.44 4.00  57.80 2999.38
   22:21:33.000.08-May-2021 4569.01  725.79 68.44 4.00  58.00 2999.38
   22:21:33.200.08-May-2021 4569.01  725.79 68.44 4.00  58.20 2999.38
   22:21:33.400.08-May-2021 4569.01  726.79 68.44 4.00  58.40 2999.38
   22:21:33.600.08-May-2021 4569.01  728.56 68.44 4.00  58.60 2999.38
   22:21:33.800.08-May-2021 4569.01  729.03 68.44 4.00  58.80 2999.38
   22:21:34.000.08-May-2021 4569.01  730.96 68.44 4.00  59.00 2999.38
   22:21:34.200.08-May-2021 4569.01  730.96 68.44 4.00  59.20 2999.38
   22:21:34.400.08-May-2021 4569.01  732.47 68.44 4.00  59.40 2999.38
   22:21:34.600.08-May-2021 4569.01  733.19 68.44 4.00  59.60 2999.38
   22:21:34.800.08-May-2021 4569.01  734.04 68.44 4.00  59.80 2999.38
   22:21:35.000.08-May-2021 4569.01  734.87 68.44 4.00  60.00 2999.38
   22:21:35.200.08-May-2021 4569.01  734.87 68.44 4.00  60.20 2999.38
   22:21:35.400.08-May-2021 4569.01  736.52 68.44 4.00  60.40 2999.38
   22:21:35.600.08-May-2021 4569.01  737.34 68.44 4.00  60.60 2999.38
   22:21:35.800.08-May-2021 4569.01  738.16 68.44 4.00  60.80 2999.38
   22:21:36.000.08-May-2021 4569.01  738.88 68.44 4.00  61.00 2999.38
   22:21:36.200.08-May-2021 4569.01  738.88 68.44 4.00  61.20 2999.38
   22:21:36.400.08-May-2021 4569.01  740.12 68.44 4.00  61.40 2999.38
   22:21:36.600.08-May-2021 4569.01  741.56 68.44 4.00  61.60 2999.38
   22:21:36.800.08-May-2021 4569.01  741.99 68.44 4.00  61.80 2999.38
   22:21:37.000.08-May-2021 4569.01  742.74 68.44 4.00  62.00 2999.38
   22:21:37.200.08-May-2021 4569.01  742.74 68.44 4.00  62.20 2999.38
   22:21:37.400.08-May-2021 4569.01  743.70 68.44 4.00  62.40 2999.38
   22:21:37.600.08-May-2021 4569.01  744.99 68.44 4.00  62.60 2999.38
   22:21:37.800.08-May-2021 4569.01  746.19 68.44 4.00  62.80 2999.38
   22:21:38.000.08-May-2021 4569.01  746.79 68.44 4.00  63.00 2999.38
   22:21:38.200.08-May-2021 4569.01  746.79 68.44 4.00  63.20 2999.38
   22:21:38.400.08-May-2021 4569.01  748.40 68.44 4.00  63.40 2999.38
   22:21:38.600.08-May-2021 4569.01  748.57 68.44 4.00  63.60 2999.38
   22:21:38.800.08-May-2021 4569.01  749.48 68.44 4.00  63.80 2999.38
   22:21:39.000.08-May-2021 4569.01  749.56 68.44 4.00  64.00 2999.38
   22:21:39.200.08-May-2021 4569.01  749.56 68.44 4.00  64.20 2999.38
   22:21:39.400.08-May-2021 4569.01  751.51 68.44 4.00  64.40 2999.38
   22:21:39.600.08-May-2021 4569.01  752.21 68.44 4.00  64.60 2999.38
   22:21:39.800.08-May-2021 4569.01  752.76 68.44 4.00  64.80 2999.38
   22:21:40.000.08-May-2021 4569.01  753.38 68.44 4.00  65.00 2999.38
   22:21:40.200.08-May-2021 4569.01  753.38 68.44 4.00  65.20 2999.38
   22:21:40.400.08-May-2021 4569.01  754.62 68.44 4.00  65.40 2999.38
   22:21:40.600.08-May-2021 4569.01  755.22 68.44 4.00  65.60 2999.38
   22:21:40.800.08-May-2021 4569.01  755.83 68.44 4.00  65.80 2999.38
   22:21:41.000.08-May-2021 4569.01  756.41 68.44 4.00  66.00 2999.38
   22:21:41.200.08-May-2021 4569.01  756.41 68.44 4.00  66.20 2999.38
   22:21:41.400.08-May-2021 4569.01  757.60 68.45 4.00  66.40 2999.38
   22:21:41.600.08-May-2021 4569.01  757.88 68.45 4.00  66.60 2999.38
   22:21:41.800.08-May-2021 4569.01  759.26 68.45 4.00  66.80 2999.38
   22:21:42.000.08-May-2021 4569.01  759.39 68.45 4.00  67.00 2999.38
   22:21:42.200.08-May-2021 4569.01  759.39 68.45 4.00  67.20 2999.38
   22:21:42.400.08-May-2021 4569.01  760.59 68.45 4.00  67.40 2999.38
   22:21:42.600.08-May-2021 4569.01  761.05 68.45 4.00  67.60 2999.38
   22:21:42.800.08-May-2021 4569.01  761.59 68.45 4.00  67.80 2999.38
   22:21:43.000.08-May-2021 4569.01  762.09 68.45 4.00  68.00 2999.38
   22:21:43.200.08-May-2021 4569.01  762.09 68.45 4.00  68.20 2999.38
   22:21:43.400.08-May-2021 4569.01  763.14 68.45 4.00  68.40 2999.38
   22:21:43.600.08-May-2021 4569.01  763.62 68.45 4.00  68.60 2999.38
   22:21:43.800.08-May-2021 4569.01  764.14 68.45 4.00  68.80 2999.38
