~Version Information
 VERS.                  2.0:   CWLS log ASCII Standard -VERSION 2.0
 WRAP.                   NO:   One line per depth step
~Well Information Block
#MNEM.UNIT     VALUE/NAME     DESCRIPTION
#---------     -----------    ---------------------------
 STRT.S             01:12:50 09-May-21: START TIME 01:12:50 09-May-21
 STOP.S             01:19:27 09-May-21: STOP TIME  01:19:27 09-May-21
 STEP.S                   0.00: STEP TIME
 NULL.                 -999.25: NULL VALUE
 PROV.                    Baku:  PROVINCE
 STAT.                    Baku:  STATE NAME
 SON .        AZ-XX-0906571588:  JOB NUMBER
 WTYP.                Deviated:  WELL TYPE
 COMP.     BP Exploration (Caspian Sea) ltd:  COMPANY
 BASE.              Azerbaijan:  LOGGING EQUIPMENT BASE LOCATION
 REGN.                   EESSA:  REGION
 CTRY.              Azerbaijan:  COUNTRY NAME
 FLD .                     ACG:  FIELD NAME
 WELL.                     J28:  WELL NAME
 RIG .             West Chirag:  RIG NAME
 DMF .             Drill Floor:  DRILL MEAS FROM
 PDAT.       Caspian Sea Level:  PERMANENT DATUM
 HPTY.       Minimum Curvature:  HOLE POS TYPE
 MDS .        Operator Entered:  MAG DATA SOURCE
 NREF.                    Grid:  NORTH REFERENCE
 SRVC.          TURAN DRILLING:  CONTRACTOR
 JOBN.        AZ-XX-0906571588:  JOB TICKET NUMB
 DCON.     Halliburton Sperry Drilling:  DIRECTNL CONTR
 STIM.      00.44.00 11-Feb-21:  START TIME
 DATE.      00.00.00 05-May-21:  END TIME
 SPUD.               13-Feb-21:  SPUD DATE
 MWDS.                    Baku:  MWD SHOP
 DOE .                     N/A:  DOE NUMBER
 UNIT.                     N/A:  LOGGING EQUIPMENT ID
 UWI .                     N/A:  UNIQUE WELL IDENTIFIER
 API .                     N/A:  API NUMBER
 CNTY.                        :  COUNTY
 LOC .                        :  LOCATION
 LMF .             Drill Floor:  LOG MEASURED FROM
 TVDS.m                  43.00:  TVDSS CORRECTN
 SDEP.m                 341.00:  START DEPTH
 EGL .m                   0.00:  GROUND ELEVATION
 WDMS.m                 169.80:  WD ELEV
 AGAP.m                  43.00:  AIR GAP
 EPD .m                   0.00:  ELEVATION
 APD .m                  43.00:  DEPTH ABOVE PD
 LATI.deg                40.13:  LATITUDE
 LONG.deg                51.22:  LONGITUDE
 UTMY.m             4443793.85:  UTM Y
 UTMX.m              519005.06:  UTM X
 WHEW.m                 -11.57:  WELL HEAD E/W
 WHNS.m                   8.57:  WELL HEAD N/S
 VSEW.m                 -11.57:  VERT SEC E/W
 VSNS.m                   8.57:  VERT SEC N/S
 DFWL.m                   0.00:  DISTANCE FWL
 DFSL.m                   0.00:  DISTANCE FSL
 VSDR.deg               299.34:  VERT SEC DIRECT
 GVFD.g                   1.00:  GRAVITY FIELD
 AZTC.deg                 6.36:  AZM TOTAL CORR
 MFLD.nT              50391.00:  MAGNETIC FIELD
 MDIP.deg                59.65:  MAGNETIC DIP
 MDEC.deg                 6.48:  MAGNETIC DECL
 GRDC.deg                 0.12:  GRID CORRECTION
 DEP .m                 334.96:  DEPTH
 TDD .m                1407.26:  TOTAL DEPTH (DRILLER)
 EKB .m                  43.00:  KB ELEVATION
 EDF .m                  43.00:  DF ELEVATION
 TDL .m                 228.00:  TOTAL DEPTH (LOGGER)
 VSC .                       0:  VS TO CLOSURE
 MAGU.                 1854484:  MAGUTM CHECKSUM
~Parameter Information Block
#MNEM.UNIT       Value        Description
#---------     -----------    ---------------------------
 AV  .mps                 4.00:  Ann Velocity 
 AVMX.mps                 4.73:  Max Ann Veloc 
 AZIF.deg               304.48:  Azm, Final 
 BHAT.        Rotary Steerable:  BHA Type 
 BREV.rev            257300.00:  Rev Bit Total 
 BROT.°/30m               0.00:  Build Rotating 
 BS  .in                  8.50:  Bit Size 
 BSZ .in                  8.50:  Bit Size 
 BTPL.psig              589.00:  Bit Press Loss 
 CABU.                      No:  Customer Abuse 
 CGEO.          Mubariz ghayev:  Customer Geo 
 COMM.                     ÌğZ:  Run Comments 1 
 TCS .hr                 64.25:  Time Ciculation Ended 
 CV  .mps                 3.50:  Crit Velocity 
 CVMX.mps                 4.52:  Max Crit Veloc 
 DD1 .             Aziz Aliyev:  Direct Drillr 1 
 DD2 .         Intigam Rahimov:  Direct Drillr 2 
 DD3 .          Rashad Habibov:  Direct Drillr 3 
 DDSV.               Geo-Pilot:  DD Service 
 DEFF.%                  98.00:  % Det Eff 
 DLRX.°/30m               0.00:  Dogleg Rot Max 
 DLSO.°/30m               0.00:  Dogleg Oriented 
 DLSX.°/30m               0.00:  Dogleg Str Max 
 DRET.      10.45.04 08-May-21:  Drill End Time 
 DRST.      03.30.04 04-May-21:  Drill Start Tim 
 DTIM.hr                 14.97:  Time Drilling 
 EDEP.m                4640.01:  End Depth 
 ENG1.         Dail Mahammadov:  Engineer 1 
 ENG2.           Eldar Hajiyev:  Engineer 2 
 ENG3.       Bakhtiar Jabbarli:  Engineer 3 
 ENG4.       Natik Hasanagayev:  Engineer 4 
 ETIM.      09.30.04 14-May-21:  End Time 
 FLOI.gpm               460.00:  Flow In 
 FLON.gpm               200.00:  Flow In Min 
 FLOS.cptm                0.00:  Fluid Loss 
 FLOX.gpm               505.00:  Flow In Max 
 HFLO.                      No:  High Flow 
 HPRE.                      No:  High Pressure 
 HTEM.                      No:  High Temp 
 HYDO.m                   1.80:  Hydro Offset 
 IFIN.deg                66.71:  Inc, Final 
 IMAX.deg                67.03:  Inc Max 
 IMIN.deg                66.63:  Inc Min 
 IMND.m                4550.58:  Inc Min Depth 
 IMXD.m                4439.01:  Inc Max Depth 
 JARR.                      No:  Jarring 
 LETM.      10.45.04 08-May-21:  Log End Time 
 LOST.hr                     0:  Lost Rig Time 
 LSTM.      03.30.04 04-May-21:  Log Start Time 
 MDCL.ppm             37000.00:  Mud Chlorides 
 MDES.     Inversion Oil/Synthetic:  Mud Desc 
 DFD .sg                  1.38:  Mud Density 
 MDMN.sg                  1.35:  Dens Mud Min 
 MDMX.sg                  1.40:  Dens Mud Max 
 MOIL.                   57.40:  Run Mud Oil % 
 MOWR.                   70:30:  Run Mud OWR 
 MSND.                    0.00:  Run Mud Sand % 
 MSOL.                   18.00:  Run Mud Solids% 
 DFV .spqt               71.00:  Mud Viscosity 
 MWOD.in                  6.75:  MWD Tool OD 
 MWSI.                      No:  Serv Intrp, MWD 
 OTIM.hr                242.76:  Time Operating 
 PCON.           Look Like New:  Pad Condition 
 PMAX.psia            12183.92:  Press Op, Max 
 PV  .cP                 27.00:  Mud PV 
 RUN .                    1300:  Run Number 
 ROPA.m/hr               15.00:  ROP Avg 
 ROPN.m/hr                9.00:  ROP Min 
 ROPX.m/hr               19.00:  ROP Max 
 RPMA.rpm               120.00:  RPM Surface Avg 
 RPMN.rpm               100.00:  RPM Surface Min 
 RPMX.rpm               120.00:  RPM Surface Max 
 RRUN.                    1300:  Rig Run Number 
 RTIM.hr                  5.00:  Time Reaming 
 SAZI.deg               304.73:  Azm, Start 
 SDEP.m                4412.01:  Start Depth 
 SIDD.                      No:  Serv Intrp, DD 
 SINC.deg                66.82:  Inc, Start 
 SPPA.psig             2800.00:  SPP Avg 
 SPPN.psig             2610.00:  SPP Min 
 SPPX.psig             3100.00:  SPP Max 
 STIM.      03.30.00 04-May-21:  Start Time 
 SVCS.                 DD, MWD:  Services 
 SVER.                    9.20:  Sperry Version 
 TDAT.m                 228.00:  Tot Depth Attmp 
 TDDF.                      No:  Trip for DD 
 TDLG.m                 228.00:  Tot Depth Loggd 
 TFF .                      No:  Trip for Fail 
 TQAA.f-kp               15.00:  Torque Abs Avg 
 TQAN.f-kp               12.00:  Torque Abs Min 
 TQAX.f-kp               22.00:  Torque Abs Max 
 TRRT.°/30m               0.00:  Turn Rotating 
 MRT .                    HCIM:  Maximum Recorded Temperature 
 TTMX.degC               90.20:  Max Tool Temp 
 VS01.                90627813:  Virtual Str1 SN 
 VS02.                90634712:  Virtual Str2 SN 
 VS03.                90643410:  Virtual Str3 SN 
 VS04.                90634712:  Virtual Str4 SN 
 WBMN.klb                 9.00:  WOB Min 
 WITN.        Elmaddin Rahimov:  Customer Rep 
 WITN.         Haytham Mostafa:  Customer Rep 2 
 WOBA.klb                15.00:  WOB Avg 
 WOBX.klb                23.00:  WOB Max 
 YP  .lhf2               29.00:  Yield Point 
~Curve Information Block
#MNEM.UNIT                 API CODE     Curve Description
#---------               -----------    ---------------------------
 TIME.HHMMSS            00 000 000 000:  GT Time & Date
 GTDEPTH.m              00 000 000 000:  GT Depth
 GTPQH.psia             00 000 000 000:  GT HR Quartz Pressure
 GTTQ.degC              00 000 000 000:  GT Quartz Temperature
 GTTN.NONE              00 000 000 000:  GT Test Number
 GTET.sec               00 000 000 000:  GT Elapsed Test Time
 GTTVD.m                00 000 000 000:  GT True Vertical Depth
#Other Information
#
#WARRANTY: Halliburton will use its best efforts to furnish customers with 
#accurate information and interpretations that are part of, and incident to, the services 
#provided.  However, Halliburton cannot and does not warrant the accuracy 
#or correctness of such information and interpretations.  Under no circumstances should any 
#such information or interpretation be relied upon as the sole basis for any drilling, 
#completion, production, or financial decision or any procedure involving any risk to the 
#safety of any drilling venture, drilling rig or its crew or any other third party.  The 
#Customer has full responsibility for all drilling, completion and production operation.  
#Halliburton makes no representations or warranties, either expressed or 
#implied, including, but not limited to, the implied warranties of merchantability or fitness 
#for a particular purpose, with respect to the services rendered.  In no event will 
#Halliburton be liable for failure to obtain any particular results or for 
#any damages, including, but not limited to, indirect, special or consequential damages, 
#resulting from the use of any information or interpretation provided by Halliburton.
#
~A           TIME           GTDEPTH  GTPQH  GTTQ  GTTN  GTET   GTTVD  
# ...
   01:15:31.839.09-May-2021 4503.51  933.21 67.49 9.00 161.06 2973.49
   01:15:32.039.09-May-2021 4503.51  933.21 67.49 9.00 161.26 2973.49
   01:15:32.239.09-May-2021 4503.51  953.57 67.49 9.00 161.46 2973.49
   01:15:32.440.09-May-2021 4503.51  963.01 67.49 9.00 161.66 2973.49
   01:15:32.640.09-May-2021 4503.51  972.77 67.49 9.00 161.86 2973.49
   01:15:32.840.09-May-2021 4503.51  982.27 67.49 9.00 162.06 2973.49
   01:15:33.040.09-May-2021 4503.51  982.27 67.49 9.00 162.26 2973.49
   01:15:33.240.09-May-2021 4503.51 1001.22 67.49 9.00 162.46 2973.49
   01:15:33.440.09-May-2021 4503.51 1010.58 67.49 9.00 162.66 2973.49
   01:15:33.640.09-May-2021 4503.51 1019.88 67.49 9.00 162.86 2973.49
   01:15:33.840.09-May-2021 4503.51 1029.02 67.49 9.00 163.06 2973.49
   01:15:34.040.09-May-2021 4503.51 1029.02 67.49 9.00 163.26 2973.49
   01:15:34.240.09-May-2021 4503.51 1047.12 67.49 9.00 163.46 2973.49
   01:15:34.440.09-May-2021 4503.51 1056.04 67.49 9.00 163.66 2973.49
   01:15:34.640.09-May-2021 4503.51 1064.87 67.49 9.00 163.86 2973.49
   01:15:34.840.09-May-2021 4503.51 1073.59 67.49 9.00 164.06 2973.49
   01:15:35.040.09-May-2021 4503.51 1073.59 67.49 9.00 164.26 2973.49
   01:15:35.241.09-May-2021 4503.51 1090.36 67.49 9.00 164.46 2973.49
   01:15:35.441.09-May-2021 4503.51 1098.28 67.50 9.00 164.66 2973.49
   01:15:35.641.09-May-2021 4503.51 1106.68 67.50 9.00 164.86 2973.49
   01:15:35.841.09-May-2021 4503.51 1114.76 67.50 9.00 165.06 2973.49
   01:15:36.041.09-May-2021 4503.51 1114.76 67.50 9.00 165.26 2973.49
   01:15:36.241.09-May-2021 4503.51 1130.76 67.50 9.00 165.46 2973.49
   01:15:36.441.09-May-2021 4503.51 1138.65 67.50 9.00 165.66 2973.49
   01:15:36.641.09-May-2021 4503.51 1145.75 67.50 9.00 165.86 2973.49
   01:15:36.841.09-May-2021 4503.51 1154.25 67.50 9.00 166.06 2973.49
   01:15:37.041.09-May-2021 4503.51 1154.25 67.50 9.00 166.26 2973.49
   01:15:37.241.09-May-2021 4503.51 1169.21 67.50 9.00 166.46 2973.49
   01:15:37.441.09-May-2021 4503.51 1176.75 67.50 9.00 166.66 2973.49
   01:15:37.641.09-May-2021 4503.51 1184.25 67.50 9.00 166.86 2973.49
   01:15:37.841.09-May-2021 4503.51 1191.14 67.50 9.00 167.06 2973.49
   01:15:38.042.09-May-2021 4503.51 1191.14 67.50 9.00 167.26 2973.49
   01:15:38.242.09-May-2021 4503.51 1205.97 67.50 9.00 167.46 2973.49
   01:15:38.442.09-May-2021 4503.51 1213.20 67.50 9.00 167.66 2973.49
   01:15:38.642.09-May-2021 4503.51 1220.54 67.50 9.00 167.86 2973.49
   01:15:38.842.09-May-2021 4503.51 1227.61 67.50 9.00 168.06 2973.49
   01:15:39.042.09-May-2021 4503.51 1227.61 67.50 9.00 168.26 2973.49
   01:15:39.242.09-May-2021 4503.51 1242.63 67.50 9.00 168.46 2973.49
   01:15:39.442.09-May-2021 4503.51 1249.77 67.50 9.00 168.66 2973.49
   01:15:39.642.09-May-2021 4503.51 1256.87 67.50 9.00 168.86 2973.49
   01:15:39.842.09-May-2021 4503.51 1263.90 67.50 9.00 169.06 2973.49
   01:15:40.042.09-May-2021 4503.51 1263.90 67.50 9.00 169.26 2973.49
   01:15:40.242.09-May-2021 4503.51 1277.75 67.50 9.00 169.46 2973.49
   01:15:40.442.09-May-2021 4503.51 1284.11 67.50 9.00 169.66 2973.49
   01:15:40.642.09-May-2021 4503.51 1291.25 67.50 9.00 169.86 2973.49
   01:15:40.843.09-May-2021 4503.51 1297.89 67.50 9.00 170.06 2973.49
   01:15:41.043.09-May-2021 4503.51 1297.89 67.50 9.00 170.26 2973.49
   01:15:41.243.09-May-2021 4503.51 1311.15 67.50 9.00 170.46 2973.49
   01:15:41.443.09-May-2021 4503.51 1317.78 67.50 9.00 170.66 2973.49
   01:15:41.643.09-May-2021 4503.51 1324.38 67.50 9.00 170.86 2973.49
   01:15:41.843.09-May-2021 4503.51 1330.92 67.50 9.00 171.06 2973.49
   01:15:42.043.09-May-2021 4503.51 1330.92 67.50 9.00 171.26 2973.49
   01:15:42.243.09-May-2021 4503.51 1343.86 67.50 9.00 171.46 2973.49
   01:15:42.443.09-May-2021 4503.51 1350.31 67.50 9.00 171.66 2973.49
   01:15:42.643.09-May-2021 4503.51 1356.78 67.50 9.00 171.86 2973.49
   01:15:42.843.09-May-2021 4503.51 1362.75 67.50 9.00 172.06 2973.49
   01:15:43.043.09-May-2021 4503.51 1362.75 67.50 9.00 172.26 2973.49
   01:15:43.243.09-May-2021 4503.51 1375.28 67.50 9.00 172.46 2973.49
   01:15:43.444.09-May-2021 4503.51 1381.71 67.51 9.00 172.66 2973.49
   01:15:43.644.09-May-2021 4503.51 1387.73 67.51 9.00 172.86 2973.49
   01:15:43.844.09-May-2021 4503.51 1393.94 67.51 9.00 173.06 2973.49
   01:15:44.044.09-May-2021 4503.51 1393.94 67.51 9.00 173.26 2973.49
   01:15:44.244.09-May-2021 4503.51 1405.94 67.51 9.00 173.46 2973.49
   01:15:44.444.09-May-2021 4503.51 1411.68 67.51 9.00 173.66 2973.49
   01:15:44.644.09-May-2021 4503.51 1417.94 67.51 9.00 173.86 2973.49
   01:15:44.844.09-May-2021 4503.51 1423.67 67.51 9.00 174.06 2973.49
   01:15:45.044.09-May-2021 4503.51 1423.67 67.51 9.00 174.26 2973.49
   01:15:45.244.09-May-2021 4503.51 1435.55 67.51 9.00 174.46 2973.49
   01:15:45.444.09-May-2021 4503.51 1441.07 67.51 9.00 174.66 2973.49
   01:15:45.644.09-May-2021 4503.51 1447.07 67.51 9.00 174.86 2973.49
   01:15:45.844.09-May-2021 4503.51 1452.74 67.51 9.00 175.06 2973.49
   01:15:46.044.09-May-2021 4503.51 1452.74 67.51 9.00 175.26 2973.49
   01:15:46.245.09-May-2021 4503.51 1464.25 67.51 9.00 175.46 2973.49
   01:15:46.445.09-May-2021 4503.51 1469.88 67.51 9.00 175.66 2973.49
   01:15:46.645.09-May-2021 4503.51 1475.39 67.51 9.00 175.86 2973.49
   01:15:46.845.09-May-2021 4503.51 1481.15 67.51 9.00 176.06 2973.49
   01:15:47.045.09-May-2021 4503.51 1481.15 67.51 9.00 176.26 2973.49
   01:15:47.245.09-May-2021 4503.51 1492.39 67.51 9.00 176.46 2973.49
   01:15:47.445.09-May-2021 4503.51 1497.99 67.51 9.00 176.66 2973.49
   01:15:47.645.09-May-2021 4503.51 1503.56 67.51 9.00 176.86 2973.49
   01:15:47.845.09-May-2021 4503.51 1509.13 67.51 9.00 177.06 2973.49
   01:15:48.045.09-May-2021 4503.51 1509.13 67.51 9.00 177.26 2973.49
   01:15:48.245.09-May-2021 4503.51 1520.17 67.51 9.00 177.46 2973.49
   01:15:48.445.09-May-2021 4503.51 1524.98 67.51 9.00 177.66 2973.49
   01:15:48.645.09-May-2021 4503.51 1530.73 67.51 9.00 177.86 2973.49
   01:15:48.845.09-May-2021 4503.51 1535.73 67.51 9.00 178.06 2973.49
   01:15:49.046.09-May-2021 4503.51 1535.73 67.51 9.00 178.26 2973.49
   01:15:49.246.09-May-2021 4503.51 1546.45 67.51 9.00 178.46 2973.49
   01:15:49.446.09-May-2021 4503.51 1551.71 67.51 9.00 178.66 2973.49
   01:15:49.646.09-May-2021 4503.51 1556.95 67.51 9.00 178.86 2973.49
   01:15:49.846.09-May-2021 4503.51 1562.21 67.51 9.00 179.06 2973.49
   01:15:50.046.09-May-2021 4503.51 1562.21 67.51 9.00 179.26 2973.49
   01:15:50.246.09-May-2021 4503.51 1572.73 67.51 9.00 179.47 2973.49
   01:15:50.446.09-May-2021 4503.51 1577.94 67.51 9.00 179.67 2973.49
   01:15:50.646.09-May-2021 4503.51 1583.19 67.51 9.00 179.87 2973.49
   01:15:50.846.09-May-2021 4503.51 1588.38 67.51 9.00 180.07 2973.49
   01:15:51.046.09-May-2021 4503.51 1588.38 67.51 9.00 180.27 2973.49
   01:15:51.246.09-May-2021 4503.51 1598.25 67.51 9.00 180.47 2973.49
   01:15:51.446.09-May-2021 4503.51 1603.24 67.51 9.00 180.67 2973.49
   01:15:51.646.09-May-2021 4503.51 1608.48 67.51 9.00 180.87 2973.49
   01:15:51.847.09-May-2021 4503.51 1612.76 67.51 9.00 181.07 2973.49
   01:15:52.047.09-May-2021 4503.51 1612.76 67.51 9.00 181.27 2973.49
   01:15:52.247.09-May-2021 4503.51 1622.80 67.52 9.00 181.47 2973.49
   01:15:52.447.09-May-2021 4503.51 1628.03 67.52 9.00 181.67 2973.49
   01:15:52.647.09-May-2021 4503.51 1632.27 67.52 9.00 181.87 2973.49
   01:15:52.847.09-May-2021 4503.51 1637.67 67.52 9.00 182.07 2973.49
   01:15:53.047.09-May-2021 4503.51 1637.67 67.52 9.00 182.27 2973.49
   01:15:53.247.09-May-2021 4503.51 1646.98 67.52 9.00 182.47 2973.49
   01:15:53.447.09-May-2021 4503.51 1651.38 67.52 9.00 182.67 2973.49
   01:15:53.647.09-May-2021 4503.51 1656.75 67.52 9.00 182.87 2973.49
   01:15:53.847.09-May-2021 4503.51 1661.30 67.52 9.00 183.07 2973.49
   01:15:54.047.09-May-2021 4503.51 1661.30 67.52 9.00 183.27 2973.49
   01:15:54.247.09-May-2021 4503.51 1670.81 67.52 9.00 183.47 2973.49
   01:15:54.447.09-May-2021 4503.51 1675.52 67.52 9.00 183.67 2973.49
   01:15:54.648.09-May-2021 4503.51 1680.27 67.52 9.00 183.87 2973.49
