~Version Information
 VERS.                  2.0:   CWLS log ASCII Standard -VERSION 2.0
 WRAP.                   NO:   One line per depth step
~Well Information Block
#MNEM.UNIT     VALUE/NAME     DESCRIPTION
#---------     -----------    ---------------------------
 STRT.S             23:15:39 08-May-21: START TIME 23:15:39 08-May-21
 STOP.S             23:22:30 08-May-21: STOP TIME  23:22:30 08-May-21
 STEP.S                   0.00: STEP TIME
 NULL.                 -999.25: NULL VALUE
 PROV.                    Baku:  PROVINCE
 STAT.                    Baku:  STATE NAME
 SON .        AZ-XX-0906571588:  JOB NUMBER
 WTYP.                Deviated:  WELL TYPE
 COMP.     BP Exploration (Caspian Sea) ltd:  COMPANY
 BASE.              Azerbaijan:  LOGGING EQUIPMENT BASE LOCATION
 REGN.                   EESSA:  REGION
 CTRY.              Azerbaijan:  COUNTRY NAME
 FLD .                     ACG:  FIELD NAME
 WELL.                     J28:  WELL NAME
 RIG .             West Chirag:  RIG NAME
 DMF .             Drill Floor:  DRILL MEAS FROM
 PDAT.       Caspian Sea Level:  PERMANENT DATUM
 HPTY.       Minimum Curvature:  HOLE POS TYPE
 MDS .        Operator Entered:  MAG DATA SOURCE
 NREF.                    Grid:  NORTH REFERENCE
 SRVC.          TURAN DRILLING:  CONTRACTOR
 JOBN.        AZ-XX-0906571588:  JOB TICKET NUMB
 DCON.     Halliburton Sperry Drilling:  DIRECTNL CONTR
 STIM.      00.44.00 11-Feb-21:  START TIME
 DATE.      00.00.00 05-May-21:  END TIME
 SPUD.               13-Feb-21:  SPUD DATE
 MWDS.                    Baku:  MWD SHOP
 DOE .                     N/A:  DOE NUMBER
 UNIT.                     N/A:  LOGGING EQUIPMENT ID
 UWI .                     N/A:  UNIQUE WELL IDENTIFIER
 API .                     N/A:  API NUMBER
 CNTY.                        :  COUNTY
 LOC .                        :  LOCATION
 LMF .             Drill Floor:  LOG MEASURED FROM
 TVDS.m                  43.00:  TVDSS CORRECTN
 SDEP.m                 341.00:  START DEPTH
 EGL .m                   0.00:  GROUND ELEVATION
 WDMS.m                 169.80:  WD ELEV
 AGAP.m                  43.00:  AIR GAP
 EPD .m                   0.00:  ELEVATION
 APD .m                  43.00:  DEPTH ABOVE PD
 LATI.deg                40.13:  LATITUDE
 LONG.deg                51.22:  LONGITUDE
 UTMY.m             4443793.85:  UTM Y
 UTMX.m              519005.06:  UTM X
 WHEW.m                 -11.57:  WELL HEAD E/W
 WHNS.m                   8.57:  WELL HEAD N/S
 VSEW.m                 -11.57:  VERT SEC E/W
 VSNS.m                   8.57:  VERT SEC N/S
 DFWL.m                   0.00:  DISTANCE FWL
 DFSL.m                   0.00:  DISTANCE FSL
 VSDR.deg               299.34:  VERT SEC DIRECT
 GVFD.g                   1.00:  GRAVITY FIELD
 AZTC.deg                 6.36:  AZM TOTAL CORR
 MFLD.nT              50391.00:  MAGNETIC FIELD
 MDIP.deg                59.65:  MAGNETIC DIP
 MDEC.deg                 6.48:  MAGNETIC DECL
 GRDC.deg                 0.12:  GRID CORRECTION
 DEP .m                 334.96:  DEPTH
 TDD .m                1407.26:  TOTAL DEPTH (DRILLER)
 EKB .m                  43.00:  KB ELEVATION
 EDF .m                  43.00:  DF ELEVATION
 TDL .m                 228.00:  TOTAL DEPTH (LOGGER)
 VSC .                       0:  VS TO CLOSURE
 MAGU.                 1854484:  MAGUTM CHECKSUM
~Parameter Information Block
#MNEM.UNIT       Value        Description
#---------     -----------    ---------------------------
 AV  .mps                 4.00:  Ann Velocity 
 AVMX.mps                 4.73:  Max Ann Veloc 
 AZIF.deg               304.48:  Azm, Final 
 BHAT.        Rotary Steerable:  BHA Type 
 BREV.rev            257300.00:  Rev Bit Total 
 BROT.°/30m               0.00:  Build Rotating 
 BS  .in                  8.50:  Bit Size 
 BSZ .in                  8.50:  Bit Size 
 BTPL.psig              589.00:  Bit Press Loss 
 CABU.                      No:  Customer Abuse 
 CGEO.          Mubariz ghayev:  Customer Geo 
 COMM.                     dˆ[:  Run Comments 1 
 TCS .hr                 64.25:  Time Ciculation Ended 
 CV  .mps                 3.50:  Crit Velocity 
 CVMX.mps                 4.52:  Max Crit Veloc 
 DD1 .             Aziz Aliyev:  Direct Drillr 1 
 DD2 .         Intigam Rahimov:  Direct Drillr 2 
 DD3 .          Rashad Habibov:  Direct Drillr 3 
 DDSV.               Geo-Pilot:  DD Service 
 DEFF.%                  98.00:  % Det Eff 
 DLRX.°/30m               0.00:  Dogleg Rot Max 
 DLSO.°/30m               0.00:  Dogleg Oriented 
 DLSX.°/30m               0.00:  Dogleg Str Max 
 DRET.      10.45.04 08-May-21:  Drill End Time 
 DRST.      03.30.04 04-May-21:  Drill Start Tim 
 DTIM.hr                 14.97:  Time Drilling 
 EDEP.m                4640.01:  End Depth 
 ENG1.         Dail Mahammadov:  Engineer 1 
 ENG2.           Eldar Hajiyev:  Engineer 2 
 ENG3.       Bakhtiar Jabbarli:  Engineer 3 
 ENG4.       Natik Hasanagayev:  Engineer 4 
 ETIM.      09.30.04 14-May-21:  End Time 
 FLOI.gpm               460.00:  Flow In 
 FLON.gpm               200.00:  Flow In Min 
 FLOS.cptm                0.00:  Fluid Loss 
 FLOX.gpm               505.00:  Flow In Max 
 HFLO.                      No:  High Flow 
 HPRE.                      No:  High Pressure 
 HTEM.                      No:  High Temp 
 HYDO.m                   1.80:  Hydro Offset 
 IFIN.deg                66.71:  Inc, Final 
 IMAX.deg                67.03:  Inc Max 
 IMIN.deg                66.63:  Inc Min 
 IMND.m                4550.58:  Inc Min Depth 
 IMXD.m                4439.01:  Inc Max Depth 
 JARR.                      No:  Jarring 
 LETM.      10.45.04 08-May-21:  Log End Time 
 LOST.hr                     0:  Lost Rig Time 
 LSTM.      03.30.04 04-May-21:  Log Start Time 
 MDCL.ppm             37000.00:  Mud Chlorides 
 MDES.     Inversion Oil/Synthetic:  Mud Desc 
 DFD .sg                  1.38:  Mud Density 
 MDMN.sg                  1.35:  Dens Mud Min 
 MDMX.sg                  1.40:  Dens Mud Max 
 MOIL.                   57.40:  Run Mud Oil % 
 MOWR.                   70:30:  Run Mud OWR 
 MSND.                    0.00:  Run Mud Sand % 
 MSOL.                   18.00:  Run Mud Solids% 
 DFV .spqt               71.00:  Mud Viscosity 
 MWOD.in                  6.75:  MWD Tool OD 
 MWSI.                      No:  Serv Intrp, MWD 
 OTIM.hr                242.76:  Time Operating 
 PCON.           Look Like New:  Pad Condition 
 PMAX.psia            12183.92:  Press Op, Max 
 PV  .cP                 27.00:  Mud PV 
 RUN .                    1300:  Run Number 
 ROPA.m/hr               15.00:  ROP Avg 
 ROPN.m/hr                9.00:  ROP Min 
 ROPX.m/hr               19.00:  ROP Max 
 RPMA.rpm               120.00:  RPM Surface Avg 
 RPMN.rpm               100.00:  RPM Surface Min 
 RPMX.rpm               120.00:  RPM Surface Max 
 RRUN.                    1300:  Rig Run Number 
 RTIM.hr                  5.00:  Time Reaming 
 SAZI.deg               304.73:  Azm, Start 
 SDEP.m                4412.01:  Start Depth 
 SIDD.                      No:  Serv Intrp, DD 
 SINC.deg                66.82:  Inc, Start 
 SPPA.psig             2800.00:  SPP Avg 
 SPPN.psig             2610.00:  SPP Min 
 SPPX.psig             3100.00:  SPP Max 
 STIM.      03.30.00 04-May-21:  Start Time 
 SVCS.                 DD, MWD:  Services 
 SVER.                    9.20:  Sperry Version 
 TDAT.m                 228.00:  Tot Depth Attmp 
 TDDF.                      No:  Trip for DD 
 TDLG.m                 228.00:  Tot Depth Loggd 
 TFF .                      No:  Trip for Fail 
 TQAA.f-kp               15.00:  Torque Abs Avg 
 TQAN.f-kp               12.00:  Torque Abs Min 
 TQAX.f-kp               22.00:  Torque Abs Max 
 TRRT.°/30m               0.00:  Turn Rotating 
 MRT .                    HCIM:  Maximum Recorded Temperature 
 TTMX.degC               90.20:  Max Tool Temp 
 VS01.                90627813:  Virtual Str1 SN 
 VS02.                90634712:  Virtual Str2 SN 
 VS03.                90643410:  Virtual Str3 SN 
 VS04.                90634712:  Virtual Str4 SN 
 WBMN.klb                 9.00:  WOB Min 
 WITN.        Elmaddin Rahimov:  Customer Rep 
 WITN.         Haytham Mostafa:  Customer Rep 2 
 WOBA.klb                15.00:  WOB Avg 
 WOBX.klb                23.00:  WOB Max 
 YP  .lhf2               29.00:  Yield Point 
~Curve Information Block
#MNEM.UNIT                 API CODE     Curve Description
#---------               -----------    ---------------------------
 TIME.HHMMSS            00 000 000 000:  GT Time & Date
 GTDEPTH.m              00 000 000 000:  GT Depth
 GTPQH.psia             00 000 000 000:  GT HR Quartz Pressure
 GTTQ.degC              00 000 000 000:  GT Quartz Temperature
 GTTN.NONE              00 000 000 000:  GT Test Number
 GTET.sec               00 000 000 000:  GT Elapsed Test Time
 GTTVD.m                00 000 000 000:  GT True Vertical Depth
#Other Information
#
#WARRANTY: Halliburton will use its best efforts to furnish customers with 
#accurate information and interpretations that are part of, and incident to, the services 
#provided.  However, Halliburton cannot and does not warrant the accuracy 
#or correctness of such information and interpretations.  Under no circumstances should any 
#such information or interpretation be relied upon as the sole basis for any drilling, 
#completion, production, or financial decision or any procedure involving any risk to the 
#safety of any drilling venture, drilling rig or its crew or any other third party.  The 
#Customer has full responsibility for all drilling, completion and production operation.  
#Halliburton makes no representations or warranties, either expressed or 
#implied, including, but not limited to, the implied warranties of merchantability or fitness 
#for a particular purpose, with respect to the services rendered.  In no event will 
#Halliburton be liable for failure to obtain any particular results or for 
#any damages, including, but not limited to, indirect, special or consequential damages, 
#resulting from the use of any information or interpretation provided by Halliburton.
#
~A           TIME           GTDEPTH  GTPQH  GTTQ  GTTN  GTET   GTTVD  
# ...
   23:17:34.623.08-May-2021 4549.51 3248.87 68.57 5.00 114.96 2991.64
   23:17:34.822.08-May-2021 4549.51 3248.87 68.57 5.00 115.16 2991.64
   23:17:35.022.08-May-2021 4549.51 3248.87 68.57 5.00 115.36 2991.64
   23:17:35.222.08-May-2021 4549.51 3248.88 68.57 5.00 115.56 2991.64
   23:17:35.422.08-May-2021 4549.51 3248.90 68.57 5.00 115.76 2991.64
   23:17:35.622.08-May-2021 4549.51 3248.88 68.57 5.00 115.96 2991.64
   23:17:35.822.08-May-2021 4549.51 3248.88 68.57 5.00 116.16 2991.64
   23:17:36.022.08-May-2021 4549.51 3248.86 68.57 5.00 116.36 2991.64
   23:17:36.222.08-May-2021 4549.51 3248.86 68.57 5.00 116.56 2991.64
   23:17:36.422.08-May-2021 4549.51 3248.93 68.57 5.00 116.76 2991.64
   23:17:36.622.08-May-2021 4549.51 3248.84 68.57 5.00 116.96 2991.64
   23:17:36.822.08-May-2021 4549.51 3248.84 68.57 5.00 117.16 2991.64
   23:17:37.022.08-May-2021 4549.51 3248.95 68.57 5.00 117.36 2991.64
   23:17:37.222.08-May-2021 4549.51 3248.83 68.57 5.00 117.56 2991.64
   23:17:37.422.08-May-2021 4549.51 3248.87 68.57 5.00 117.76 2991.64
   23:17:37.622.08-May-2021 4549.51 3248.84 68.57 5.00 117.96 2991.64
   23:17:37.822.08-May-2021 4549.51 3248.84 68.57 5.00 118.16 2991.64
   23:17:38.021.08-May-2021 4549.51 3248.84 68.57 5.00 118.36 2991.64
   23:17:38.221.08-May-2021 4549.51 3248.86 68.57 5.00 118.56 2991.64
   23:17:38.421.08-May-2021 4549.51 3248.88 68.57 5.00 118.76 2991.64
   23:17:38.621.08-May-2021 4549.51 3248.87 68.57 5.00 118.96 2991.64
   23:17:38.821.08-May-2021 4549.51 3248.87 68.57 5.00 119.16 2991.64
   23:17:39.021.08-May-2021 4549.51 3248.87 68.57 5.00 119.36 2991.64
   23:17:39.221.08-May-2021 4549.51 3248.88 68.57 5.00 119.56 2991.64
   23:17:39.421.08-May-2021 4549.51 3248.87 68.57 5.00 119.76 2991.64
   23:17:39.621.08-May-2021 4549.51 3248.87 68.57 5.00 119.96 2991.64
   23:17:39.821.08-May-2021 4549.51 3248.87 68.57 5.00 120.16 2991.64
   23:17:40.021.08-May-2021 4549.51 3248.87 68.57 5.00 120.36 2991.64
   23:17:40.221.08-May-2021 4549.51 3248.86 68.57 5.00 120.56 2991.64
   23:17:40.421.08-May-2021 4549.51 3248.92 68.57 5.00 120.76 2991.64
   23:17:40.621.08-May-2021 4549.51 3248.83 68.57 5.00 120.96 2991.64
   23:17:40.821.08-May-2021 4549.51 3248.83 68.57 5.00 121.16 2991.64
   23:17:41.021.08-May-2021 4549.51 3248.87 68.57 5.00 121.36 2991.64
   23:17:41.220.08-May-2021 4549.51 3248.86 68.57 5.00 121.56 2991.64
   23:17:41.420.08-May-2021 4549.51 3248.86 68.57 5.00 121.76 2991.64
   23:17:41.620.08-May-2021 4549.51 3248.85 68.57 5.00 121.96 2991.64
   23:17:41.820.08-May-2021 4549.51 3248.85 68.57 5.00 122.16 2991.64
   23:17:42.020.08-May-2021 4549.51 3248.86 68.57 5.00 122.36 2991.64
   23:17:42.220.08-May-2021 4549.51 3248.85 68.57 5.00 122.56 2991.64
   23:17:42.420.08-May-2021 4549.51 3248.86 68.57 5.00 122.76 2991.64
   23:17:42.620.08-May-2021 4549.51 3248.85 68.57 5.00 122.96 2991.64
   23:17:42.820.08-May-2021 4549.51 3248.85 68.57 5.00 123.16 2991.64
   23:17:43.020.08-May-2021 4549.51 3248.91 68.57 5.00 123.36 2991.64
   23:17:43.220.08-May-2021 4549.51 3248.83 68.57 5.00 123.56 2991.64
   23:17:43.420.08-May-2021 4549.51 3248.85 68.57 5.00 123.76 2991.64
   23:17:43.620.08-May-2021 4549.51 3248.87 68.57 5.00 123.96 2991.64
   23:17:43.820.08-May-2021 4549.51 3248.87 68.57 5.00 124.16 2991.64
   23:17:44.020.08-May-2021 4549.51 3248.94 68.57 5.00 124.36 2991.64
   23:17:44.220.08-May-2021 4549.51 3248.84 68.57 5.00 124.56 2991.64
   23:17:44.420.08-May-2021 4549.51 3248.87 68.57 5.00 124.76 2991.64
   23:17:44.619.08-May-2021 4549.51 3248.84 68.57 5.00 124.96 2991.64
   23:17:44.819.08-May-2021 4549.51 3248.84 68.57 5.00 125.16 2991.64
   23:17:45.019.08-May-2021 4549.51 3248.84 68.57 5.00 125.36 2991.64
   23:17:45.219.08-May-2021 4549.51 3248.78 68.57 5.00 125.56 2991.64
   23:17:45.419.08-May-2021 4549.51 3248.94 68.57 5.00 125.76 2991.64
   23:17:45.619.08-May-2021 4549.51 3248.84 68.57 5.00 125.96 2991.64
   23:17:45.819.08-May-2021 4549.51 3248.84 68.57 5.00 126.16 2991.64
   23:17:46.019.08-May-2021 4549.51 3248.84 68.57 5.00 126.36 2991.64
   23:17:46.219.08-May-2021 4549.51 3248.85 68.57 5.00 126.56 2991.64
   23:17:46.419.08-May-2021 4549.51 3248.85 68.57 5.00 126.76 2991.64
   23:17:46.619.08-May-2021 4549.51 3248.85 68.57 5.00 126.96 2991.64
   23:17:46.819.08-May-2021 4549.51 3248.85 68.57 5.00 127.16 2991.64
   23:17:47.019.08-May-2021 4549.51 3248.85 68.57 5.00 127.36 2991.64
   23:17:47.219.08-May-2021 4549.51 3248.85 68.57 5.00 127.56 2991.64
   23:17:47.419.08-May-2021 4549.51 3248.85 68.57 5.00 127.76 2991.64
   23:17:47.619.08-May-2021 4549.51 3248.84 68.57 5.00 127.96 2991.64
   23:17:47.818.08-May-2021 4549.51 3248.84 68.57 5.00 128.16 2991.64
   23:17:48.018.08-May-2021 4549.51 3248.94 68.57 5.00 128.36 2991.64
   23:17:48.218.08-May-2021 4549.51 3248.84 68.57 5.00 128.56 2991.64
   23:17:48.418.08-May-2021 4549.51 3248.85 68.57 5.00 128.76 2991.64
   23:17:48.618.08-May-2021 4549.51 3248.84 68.57 5.00 128.96 2991.64
   23:17:48.818.08-May-2021 4549.51 3248.84 68.57 5.00 129.16 2991.64
   23:17:49.018.08-May-2021 4549.51 3248.84 68.57 5.00 129.36 2991.64
   23:17:49.218.08-May-2021 4549.51 3248.85 68.57 5.00 129.56 2991.64
   23:17:49.418.08-May-2021 4549.51 3248.84 68.57 5.00 129.76 2991.64
   23:17:49.618.08-May-2021 4549.51 3248.84 68.57 5.00 129.96 2991.64
   23:17:49.818.08-May-2021 4549.51 3248.84 68.57 5.00 130.16 2991.64
   23:17:50.018.08-May-2021 4549.51 3248.84 68.57 5.00 130.36 2991.64
   23:17:50.218.08-May-2021 4549.51 3248.84 68.57 5.00 130.56 2991.64
   23:17:50.418.08-May-2021 4549.51 3248.77 68.57 5.00 130.76 2991.64
   23:17:50.618.08-May-2021 4549.51 3248.94 68.57 5.00 130.96 2991.64
   23:17:50.818.08-May-2021 4549.51 3248.94 68.57 5.00 131.16 2991.64
   23:17:51.017.08-May-2021 4549.51 3248.85 68.57 5.00 131.36 2991.64
   23:17:51.217.08-May-2021 4549.51 3248.84 68.57 5.00 131.56 2991.64
   23:17:51.417.08-May-2021 4549.51 3248.84 68.57 5.00 131.76 2991.64
   23:17:51.617.08-May-2021 4549.51 3248.92 68.57 5.00 131.96 2991.64
   23:17:51.817.08-May-2021 4549.51 3248.92 68.57 5.00 132.16 2991.64
   23:17:52.017.08-May-2021 4549.51 3248.84 68.57 5.00 132.36 2991.64
   23:17:52.217.08-May-2021 4549.51 3248.82 68.57 5.00 132.56 2991.64
   23:17:52.417.08-May-2021 4549.51 3248.84 68.57 5.00 132.76 2991.64
   23:17:52.617.08-May-2021 4549.51 3248.85 68.57 5.00 132.96 2991.64
   23:17:52.817.08-May-2021 4549.51 3248.85 68.57 5.00 133.16 2991.64
   23:17:53.017.08-May-2021 4549.51 3248.89 68.57 5.00 133.36 2991.64
   23:17:53.217.08-May-2021 4549.51 3248.80 68.57 5.00 133.56 2991.64
   23:17:53.417.08-May-2021 4549.51 3248.84 68.57 5.00 133.76 2991.64
   23:17:53.617.08-May-2021 4549.51 3248.82 68.57 5.00 133.96 2991.64
   23:17:53.817.08-May-2021 4549.51 3248.82 68.57 5.00 134.16 2991.64
   23:17:54.017.08-May-2021 4549.51 3248.84 68.57 5.00 134.36 2991.64
   23:17:54.216.08-May-2021 4549.51 3248.83 68.57 5.00 134.56 2991.64
   23:17:54.416.08-May-2021 4549.51 3248.84 68.57 5.00 134.76 2991.64
   23:17:54.616.08-May-2021 4549.51 3248.84 68.57 5.00 134.96 2991.64
   23:17:54.816.08-May-2021 4549.51 3248.84 68.57 5.00 135.16 2991.64
   23:17:55.016.08-May-2021 4549.51 3248.83 68.57 5.00 135.36 2991.64
   23:17:55.216.08-May-2021 4549.51 3248.84 68.57 5.00 135.56 2991.64
   23:17:55.416.08-May-2021 4549.51 3248.84 68.57 5.00 135.76 2991.64
   23:17:55.616.08-May-2021 4549.51 3248.90 68.57 5.00 135.96 2991.64
   23:17:55.816.08-May-2021 4549.51 3248.90 68.57 5.00 136.16 2991.64
   23:17:56.016.08-May-2021 4549.51 3248.83 68.57 5.00 136.36 2991.64
   23:17:56.216.08-May-2021 4549.51 3248.81 68.57 5.00 136.56 2991.64
   23:17:56.416.08-May-2021 4549.51 3248.84 68.57 5.00 136.76 2991.64
   23:17:56.616.08-May-2021 4549.51 3248.82 68.57 5.00 136.96 2991.64
   23:17:56.816.08-May-2021 4549.51 3248.82 68.57 5.00 137.16 2991.64
   23:17:57.016.08-May-2021 4549.51 3248.83 68.57 5.00 137.36 2991.64
   23:17:57.216.08-May-2021 4549.51 3248.83 68.57 5.00 137.56 2991.64
   23:17:57.415.08-May-2021 4549.51 3248.83 68.57 5.00 137.76 2991.64
