~Version Information
 VERS.                  2.0:   CWLS log ASCII Standard -VERSION 2.0
 WRAP.                   NO:   One line per depth step
~Well Information Block
#MNEM.UNIT     VALUE/NAME     DESCRIPTION
#---------     -----------    ---------------------------
 STRT.S             06:07:29 09-May-21: START TIME 06:07:29 09-May-21
 STOP.S             06:14:06 09-May-21: STOP TIME  06:14:06 09-May-21
 STEP.S                   0.00: STEP TIME
 NULL.                 -999.25: NULL VALUE
 PROV.                    Baku:  PROVINCE
 STAT.                    Baku:  STATE NAME
 SON .        AZ-XX-0906571588:  JOB NUMBER
 WTYP.                Deviated:  WELL TYPE
 COMP.     BP Exploration (Caspian Sea) ltd:  COMPANY
 BASE.              Azerbaijan:  LOGGING EQUIPMENT BASE LOCATION
 REGN.                   EESSA:  REGION
 CTRY.              Azerbaijan:  COUNTRY NAME
 FLD .                     ACG:  FIELD NAME
 WELL.                     J28:  WELL NAME
 RIG .             West Chirag:  RIG NAME
 DMF .             Drill Floor:  DRILL MEAS FROM
 PDAT.       Caspian Sea Level:  PERMANENT DATUM
 HPTY.       Minimum Curvature:  HOLE POS TYPE
 MDS .        Operator Entered:  MAG DATA SOURCE
 NREF.                    Grid:  NORTH REFERENCE
 SRVC.          TURAN DRILLING:  CONTRACTOR
 JOBN.        AZ-XX-0906571588:  JOB TICKET NUMB
 DCON.     Halliburton Sperry Drilling:  DIRECTNL CONTR
 STIM.      00.44.00 11-Feb-21:  START TIME
 DATE.      00.00.00 05-May-21:  END TIME
 SPUD.               13-Feb-21:  SPUD DATE
 MWDS.                    Baku:  MWD SHOP
 DOE .                     N/A:  DOE NUMBER
 UNIT.                     N/A:  LOGGING EQUIPMENT ID
 UWI .                     N/A:  UNIQUE WELL IDENTIFIER
 API .                     N/A:  API NUMBER
 CNTY.                        :  COUNTY
 LOC .                        :  LOCATION
 LMF .             Drill Floor:  LOG MEASURED FROM
 TVDS.m                  43.00:  TVDSS CORRECTN
 SDEP.m                 341.00:  START DEPTH
 EGL .m                   0.00:  GROUND ELEVATION
 WDMS.m                 169.80:  WD ELEV
 AGAP.m                  43.00:  AIR GAP
 EPD .m                   0.00:  ELEVATION
 APD .m                  43.00:  DEPTH ABOVE PD
 LATI.deg                40.13:  LATITUDE
 LONG.deg                51.22:  LONGITUDE
 UTMY.m             4443793.85:  UTM Y
 UTMX.m              519005.06:  UTM X
 WHEW.m                 -11.57:  WELL HEAD E/W
 WHNS.m                   8.57:  WELL HEAD N/S
 VSEW.m                 -11.57:  VERT SEC E/W
 VSNS.m                   8.57:  VERT SEC N/S
 DFWL.m                   0.00:  DISTANCE FWL
 DFSL.m                   0.00:  DISTANCE FSL
 VSDR.deg               299.34:  VERT SEC DIRECT
 GVFD.g                   1.00:  GRAVITY FIELD
 AZTC.deg                 6.36:  AZM TOTAL CORR
 MFLD.nT              50391.00:  MAGNETIC FIELD
 MDIP.deg                59.65:  MAGNETIC DIP
 MDEC.deg                 6.48:  MAGNETIC DECL
 GRDC.deg                 0.12:  GRID CORRECTION
 DEP .m                 334.96:  DEPTH
 TDD .m                1407.26:  TOTAL DEPTH (DRILLER)
 EKB .m                  43.00:  KB ELEVATION
 EDF .m                  43.00:  DF ELEVATION
 TDL .m                 228.00:  TOTAL DEPTH (LOGGER)
 VSC .                       0:  VS TO CLOSURE
 MAGU.                 1854484:  MAGUTM CHECKSUM
~Parameter Information Block
#MNEM.UNIT       Value        Description
#---------     -----------    ---------------------------
 AV  .mps                 4.00:  Ann Velocity 
 AVMX.mps                 4.73:  Max Ann Veloc 
 AZIF.deg               304.48:  Azm, Final 
 BHAT.        Rotary Steerable:  BHA Type 
 BREV.rev            257300.00:  Rev Bit Total 
 BROT.°/30m               0.00:  Build Rotating 
 BS  .in                  8.50:  Bit Size 
 BSZ .in                  8.50:  Bit Size 
 BTPL.psig              589.00:  Bit Press Loss 
 CABU.                      No:  Customer Abuse 
 CGEO.          Mubariz ghayev:  Customer Geo 
 TCS .hr                 64.25:  Time Ciculation Ended 
 CV  .mps                 3.50:  Crit Velocity 
 CVMX.mps                 4.52:  Max Crit Veloc 
 DD1 .             Aziz Aliyev:  Direct Drillr 1 
 DD2 .         Intigam Rahimov:  Direct Drillr 2 
 DD3 .          Rashad Habibov:  Direct Drillr 3 
 DDSV.               Geo-Pilot:  DD Service 
 DEFF.%                  98.00:  % Det Eff 
 DLRX.°/30m               0.00:  Dogleg Rot Max 
 DLSO.°/30m               0.00:  Dogleg Oriented 
 DLSX.°/30m               0.00:  Dogleg Str Max 
 DRET.      10.45.04 08-May-21:  Drill End Time 
 DRST.      03.30.04 04-May-21:  Drill Start Tim 
 DTIM.hr                 14.97:  Time Drilling 
 EDEP.m                4640.01:  End Depth 
 ENG1.         Dail Mahammadov:  Engineer 1 
 ENG2.           Eldar Hajiyev:  Engineer 2 
 ENG3.       Bakhtiar Jabbarli:  Engineer 3 
 ENG4.       Natik Hasanagayev:  Engineer 4 
 ETIM.      09.30.04 14-May-21:  End Time 
 FLOI.gpm               460.00:  Flow In 
 FLON.gpm               200.00:  Flow In Min 
 FLOS.cptm                0.00:  Fluid Loss 
 FLOX.gpm               505.00:  Flow In Max 
 HFLO.                      No:  High Flow 
 HPRE.                      No:  High Pressure 
 HTEM.                      No:  High Temp 
 HYDO.m                   1.80:  Hydro Offset 
 IFIN.deg                66.71:  Inc, Final 
 IMAX.deg                67.03:  Inc Max 
 IMIN.deg                66.63:  Inc Min 
 IMND.m                4550.58:  Inc Min Depth 
 IMXD.m                4439.01:  Inc Max Depth 
 JARR.                      No:  Jarring 
 LETM.      10.45.04 08-May-21:  Log End Time 
 LOST.hr                     0:  Lost Rig Time 
 LSTM.      03.30.04 04-May-21:  Log Start Time 
 MDCL.ppm             37000.00:  Mud Chlorides 
 MDES.     Inversion Oil/Synthetic:  Mud Desc 
 DFD .sg                  1.38:  Mud Density 
 MDMN.sg                  1.35:  Dens Mud Min 
 MDMX.sg                  1.40:  Dens Mud Max 
 MOIL.                   57.40:  Run Mud Oil % 
 MOWR.                   70:30:  Run Mud OWR 
 MSND.                    0.00:  Run Mud Sand % 
 MSOL.                   18.00:  Run Mud Solids% 
 DFV .spqt               71.00:  Mud Viscosity 
 MWOD.in                  6.75:  MWD Tool OD 
 MWSI.                      No:  Serv Intrp, MWD 
 OTIM.hr                242.76:  Time Operating 
 PCON.           Look Like New:  Pad Condition 
 PMAX.psia            12183.92:  Press Op, Max 
 PV  .cP                 27.00:  Mud PV 
 RUN .                    1300:  Run Number 
 ROPA.m/hr               15.00:  ROP Avg 
 ROPN.m/hr                9.00:  ROP Min 
 ROPX.m/hr               19.00:  ROP Max 
 RPMA.rpm               120.00:  RPM Surface Avg 
 RPMN.rpm               100.00:  RPM Surface Min 
 RPMX.rpm               120.00:  RPM Surface Max 
 RRUN.                    1300:  Rig Run Number 
 RTIM.hr                  5.00:  Time Reaming 
 SAZI.deg               304.73:  Azm, Start 
 SDEP.m                4412.01:  Start Depth 
 SIDD.                      No:  Serv Intrp, DD 
 SINC.deg                66.82:  Inc, Start 
 SPPA.psig             2800.00:  SPP Avg 
 SPPN.psig             2610.00:  SPP Min 
 SPPX.psig             3100.00:  SPP Max 
 STIM.      03.30.00 04-May-21:  Start Time 
 SVCS.                 DD, MWD:  Services 
 SVER.                    9.20:  Sperry Version 
 TDAT.m                 228.00:  Tot Depth Attmp 
 TDDF.                      No:  Trip for DD 
 TDLG.m                 228.00:  Tot Depth Loggd 
 TFF .                      No:  Trip for Fail 
 TQAA.f-kp               15.00:  Torque Abs Avg 
 TQAN.f-kp               12.00:  Torque Abs Min 
 TQAX.f-kp               22.00:  Torque Abs Max 
 TRRT.°/30m               0.00:  Turn Rotating 
 MRT .                    HCIM:  Maximum Recorded Temperature 
 TTMX.degC               90.20:  Max Tool Temp 
 VS01.                90627813:  Virtual Str1 SN 
 VS02.                90634712:  Virtual Str2 SN 
 VS03.                90643410:  Virtual Str3 SN 
 VS04.                90634712:  Virtual Str4 SN 
 WBMN.klb                 9.00:  WOB Min 
 WITN.        Elmaddin Rahimov:  Customer Rep 
 WITN.         Haytham Mostafa:  Customer Rep 2 
 WOBA.klb                15.00:  WOB Avg 
 WOBX.klb                23.00:  WOB Max 
 YP  .lhf2               29.00:  Yield Point 
~Curve Information Block
#MNEM.UNIT                 API CODE     Curve Description
#---------               -----------    ---------------------------
 TIME.HHMMSS            00 000 000 000:  GT Time & Date
 GTDEPTH.m              00 000 000 000:  GT Depth
 GTPQH.psia             00 000 000 000:  GT HR Quartz Pressure
 GTTQ.degC              00 000 000 000:  GT Quartz Temperature
 GTTN.NONE              00 000 000 000:  GT Test Number
 GTET.sec               00 000 000 000:  GT Elapsed Test Time
 GTTVD.m                00 000 000 000:  GT True Vertical Depth
#Other Information
#
#WARRANTY: Halliburton will use its best efforts to furnish customers with 
#accurate information and interpretations that are part of, and incident to, the services 
#provided.  However, Halliburton cannot and does not warrant the accuracy 
#or correctness of such information and interpretations.  Under no circumstances should any 
#such information or interpretation be relied upon as the sole basis for any drilling, 
#completion, production, or financial decision or any procedure involving any risk to the 
#safety of any drilling venture, drilling rig or its crew or any other third party.  The 
#Customer has full responsibility for all drilling, completion and production operation.  
#Halliburton makes no representations or warranties, either expressed or 
#implied, including, but not limited to, the implied warranties of merchantability or fitness 
#for a particular purpose, with respect to the services rendered.  In no event will 
#Halliburton be liable for failure to obtain any particular results or for 
#any damages, including, but not limited to, indirect, special or consequential damages, 
#resulting from the use of any information or interpretation provided by Halliburton.
#
~A           TIME           GTDEPTH  GTPQH  GTTQ  GTTN   GTET   GTTVD  
# ...
   06:13:30.600.09-May-2021 4439.51 6528.86 66.27 14.00 361.60 2948.38
   06:13:30.800.09-May-2021 4439.51 6524.55 66.27 14.00 361.80 2948.38
   06:13:31.000.09-May-2021 4439.51 6525.42 66.27 14.00 362.00 2948.38
   06:13:31.200.09-May-2021 4439.51 6525.42 66.27 14.00 362.20 2948.38
   06:13:31.400.09-May-2021 4439.51 6522.91 66.27 14.00 362.40 2948.38
   06:13:31.600.09-May-2021 4439.51 6522.66 66.27 14.00 362.60 2948.38
   06:13:31.800.09-May-2021 4439.51 6522.68 66.27 14.00 362.80 2948.38
   06:13:32.000.09-May-2021 4439.51 6522.80 66.27 14.00 363.00 2948.38
   06:13:32.200.09-May-2021 4439.51 6522.80 66.27 14.00 363.20 2948.38
   06:13:32.400.09-May-2021 4439.51 6522.62 66.28 14.00 363.40 2948.38
   06:13:32.600.09-May-2021 4439.51 6534.68 66.28 14.00 363.60 2948.38
   06:13:32.800.09-May-2021 4439.51 6519.82 66.28 14.00 363.80 2948.38
   06:13:33.000.09-May-2021 4439.51 6530.93 66.28 14.00 364.00 2948.38
   06:13:33.200.09-May-2021 4439.51 6530.93 66.28 14.00 364.20 2948.38
   06:13:33.400.09-May-2021 4439.51 6525.85 66.28 14.00 364.40 2948.38
   06:13:33.600.09-May-2021 4439.51 6526.40 66.28 14.00 364.60 2948.38
   06:13:33.800.09-May-2021 4439.51 6524.44 66.29 14.00 364.80 2948.38
   06:13:34.000.09-May-2021 4439.51 6524.36 66.29 14.00 365.00 2948.38
   06:13:34.200.09-May-2021 4439.51 6524.36 66.29 14.00 365.20 2948.38
   06:13:34.400.09-May-2021 4439.51 6524.24 66.29 14.00 365.40 2948.38
   06:13:34.600.09-May-2021 4439.51 6524.56 66.29 14.00 365.60 2948.38
   06:13:34.800.09-May-2021 4439.51 6524.02 66.29 14.00 365.80 2948.38
   06:13:35.000.09-May-2021 4439.51 6524.48 66.29 14.00 366.00 2948.38
   06:13:35.200.09-May-2021 4439.51 6524.48 66.29 14.00 366.20 2948.38
   06:13:35.400.09-May-2021 4439.51 6532.58 66.29 14.00 366.40 2948.38
   06:13:35.600.09-May-2021 4439.51 6525.22 66.30 14.00 366.60 2948.38
   06:13:35.800.09-May-2021 4439.51 6534.59 66.30 14.00 366.80 2948.38
   06:13:36.000.09-May-2021 4439.51 6533.75 66.30 14.00 367.00 2948.38
   06:13:36.200.09-May-2021 4439.51 6533.75 66.30 14.00 367.20 2948.38
   06:13:36.400.09-May-2021 4439.51 6535.11 66.30 14.00 367.40 2948.38
   06:13:36.600.09-May-2021 4439.51 6526.51 66.30 14.00 367.60 2948.38
   06:13:36.800.09-May-2021 4439.51 6534.27 66.30 14.00 367.80 2948.38
   06:13:37.000.09-May-2021 4439.51 6528.29 66.30 14.00 368.00 2948.38
   06:13:37.200.09-May-2021 4439.51 6528.29 66.30 14.00 368.20 2948.38
   06:13:37.400.09-May-2021 4439.51 6538.57 66.30 14.00 368.40 2948.38
   06:13:37.600.09-May-2021 4439.51 6529.85 66.30 14.00 368.60 2948.38
   06:13:37.800.09-May-2021 4439.51 6531.71 66.30 14.00 368.80 2948.38
   06:13:38.000.09-May-2021 4439.51 6533.75 66.30 14.00 369.00 2948.38
   06:13:38.200.09-May-2021 4439.51 6533.75 66.30 14.00 369.20 2948.38
   06:13:38.400.09-May-2021 4439.51 6529.11 66.30 14.00 369.40 2948.38
   06:13:38.600.09-May-2021 4439.51 6525.06 66.30 14.00 369.60 2948.38
   06:13:38.800.09-May-2021 4439.51 6525.42 66.30 14.00 369.80 2948.38
   06:13:39.000.09-May-2021 4439.51 6524.49 66.30 14.00 370.00 2948.38
   06:13:39.200.09-May-2021 4439.51 6524.49 66.30 14.00 370.20 2948.38
   06:13:39.400.09-May-2021 4439.51 6524.20 66.30 14.00 370.40 2948.38
   06:13:39.600.09-May-2021 4439.51 6523.79 66.30 14.00 370.60 2948.38
   06:13:39.800.09-May-2021 4439.51 6523.92 66.30 14.00 370.80 2948.38
   06:13:40.000.09-May-2021 4439.51 6528.65 66.31 14.00 371.00 2948.38
   06:13:40.200.09-May-2021 4439.51 6528.65 66.31 14.00 371.20 2948.38
   06:13:40.400.09-May-2021 4439.51 6526.23 66.31 14.00 371.40 2948.38
   06:13:40.600.09-May-2021 4439.51 6532.60 66.31 14.00 371.60 2948.38
   06:13:40.800.09-May-2021 4439.51 6524.84 66.31 14.00 371.80 2948.38
   06:13:41.000.09-May-2021 4439.51 6528.46 66.31 14.00 372.00 2948.38
   06:13:41.200.09-May-2021 4439.51 6528.46 66.31 14.00 372.20 2948.38
   06:13:41.400.09-May-2021 4439.51 6525.18 66.31 14.00 372.40 2948.38
   06:13:41.600.09-May-2021 4439.51 6523.98 66.31 14.00 372.60 2948.38
   06:13:41.800.09-May-2021 4439.51 6524.46 66.31 14.00 372.80 2948.38
   06:13:42.000.09-May-2021 4439.51 6524.25 66.31 14.00 373.00 2948.38
   06:13:42.200.09-May-2021 4439.51 6524.25 66.31 14.00 373.20 2948.38
   06:13:42.400.09-May-2021 4439.51 6524.03 66.31 14.00 373.40 2948.38
   06:13:42.600.09-May-2021 4439.51 6523.73 66.31 14.00 373.60 2948.38
   06:13:42.800.09-May-2021 4439.51 6536.01 66.31 14.00 373.80 2948.38
   06:13:43.000.09-May-2021 4439.51 6520.79 66.31 14.00 374.00 2948.38
   06:13:43.200.09-May-2021 4439.51 6520.79 66.31 14.00 374.20 2948.38
   06:13:43.400.09-May-2021 4439.51 6527.03 66.31 14.00 374.40 2948.38
   06:13:43.600.09-May-2021 4439.51 6526.63 66.31 14.00 374.60 2948.38
   06:13:43.800.09-May-2021 4439.51 6536.49 66.31 14.00 374.80 2948.38
   06:13:44.000.09-May-2021 4439.51 6525.19 66.31 14.00 375.00 2948.38
   06:13:44.200.09-May-2021 4439.51 6525.19 66.31 14.00 375.20 2948.38
   06:13:44.400.09-May-2021 4439.51 6534.33 66.30 14.00 375.40 2948.38
   06:13:44.600.09-May-2021 4439.51 6527.15 66.30 14.00 375.60 2948.38
   06:13:44.800.09-May-2021 4439.51 6530.38 66.30 14.00 375.80 2948.38
   06:13:45.000.09-May-2021 4439.51 6531.81 66.30 14.00 376.00 2948.38
   06:13:45.200.09-May-2021 4439.51 6531.81 66.30 14.00 376.20 2948.38
   06:13:45.400.09-May-2021 4439.51 6528.45 66.30 14.00 376.40 2948.38
   06:13:45.600.09-May-2021 4439.51 6534.39 66.30 14.00 376.60 2948.38
   06:13:45.800.09-May-2021 4439.51 6526.57 66.30 14.00 376.80 2948.38
   06:13:46.000.09-May-2021 4439.51 6526.96 66.30 14.00 377.00 2948.38
   06:13:46.200.09-May-2021 4439.51 6526.96 66.30 14.00 377.20 2948.38
   06:13:46.400.09-May-2021 4439.51 6524.94 66.30 14.00 377.40 2948.38
   06:13:46.600.09-May-2021 4439.51 6524.77 66.30 14.00 377.60 2948.38
   06:13:46.800.09-May-2021 4439.51 6523.83 66.30 14.00 377.80 2948.38
   06:13:47.000.09-May-2021 4439.51 6524.24 66.30 14.00 378.00 2948.38
   06:13:47.200.09-May-2021 4439.51 6524.24 66.30 14.00 378.20 2948.38
   06:13:47.400.09-May-2021 4439.51 6523.53 66.30 14.00 378.40 2948.38
   06:13:47.600.09-May-2021 4439.51 6523.10 66.30 14.00 378.60 2948.38
   06:13:47.800.09-May-2021 4439.51 6533.09 66.30 14.00 378.80 2948.38
   06:13:48.000.09-May-2021 4439.51 6523.23 66.30 14.00 379.00 2948.38
   06:13:48.200.09-May-2021 4439.51 6523.23 66.30 14.00 379.20 2948.38
   06:13:48.400.09-May-2021 4439.51 6524.14 66.30 14.00 379.40 2948.38
   06:13:48.600.09-May-2021 4439.51 6526.14 66.30 14.00 379.60 2948.38
   06:13:48.800.09-May-2021 4439.51 6524.22 66.30 14.00 379.80 2948.38
   06:13:49.000.09-May-2021 4439.51 6524.38 66.30 14.00 380.00 2948.38
   06:13:49.200.09-May-2021 4439.51 6524.38 66.30 14.00 380.20 2948.38
   06:13:49.400.09-May-2021 4439.51 6523.95 66.30 14.00 380.40 2948.38
   06:13:49.600.09-May-2021 4439.51 6524.19 66.30 14.00 380.60 2948.38
   06:13:49.800.09-May-2021 4439.51 6523.65 66.30 14.00 380.80 2948.38
   06:13:50.000.09-May-2021 4439.51 6523.83 66.30 14.00 381.00 2948.38
   06:13:50.200.09-May-2021 4439.51 6523.83 66.30 14.00 381.20 2948.38
   06:13:50.400.09-May-2021 4439.51 6529.03 66.30 14.00 381.40 2948.38
   06:13:50.600.09-May-2021 4439.51 6526.58 66.30 14.00 381.60 2948.38
   06:13:50.800.09-May-2021 4439.51 6526.81 66.30 14.00 381.80 2948.38
   06:13:51.000.09-May-2021 4439.51 6531.88 66.30 14.00 382.00 2948.38
   06:13:51.200.09-May-2021 4439.51 6531.88 66.30 14.00 382.20 2948.38
   06:13:51.400.09-May-2021 4439.51 6539.62 66.30 14.00 382.40 2948.38
   06:13:51.600.09-May-2021 4439.51 6521.07 66.30 14.00 382.60 2948.38
   06:13:51.800.09-May-2021 4439.51 6533.24 66.30 14.00 382.80 2948.38
   06:13:52.000.09-May-2021 4439.51 6532.40 66.30 14.00 383.00 2948.38
   06:13:52.200.09-May-2021 4439.51 6532.40 66.30 14.00 383.20 2948.38
   06:13:52.400.09-May-2021 4439.51 6529.36 66.30 14.00 383.40 2948.38
   06:13:52.600.09-May-2021 4439.51 6533.16 66.30 14.00 383.60 2948.38
   06:13:52.800.09-May-2021 4439.51 6526.53 66.30 14.00 383.80 2948.38
   06:13:53.000.09-May-2021 4439.51 6537.90 66.30 14.00 384.00 2948.38
