~Version Information
 VERS.                  2.0:   CWLS log ASCII Standard -VERSION 2.0
 WRAP.                   NO:   One line per depth step
~Well Information Block
#MNEM.UNIT     VALUE/NAME     DESCRIPTION
#---------     -----------    ---------------------------
 STRT.S             06:41:26 09-May-21: START TIME 06:41:26 09-May-21
 STOP.S             06:48:05 09-May-21: STOP TIME  06:48:05 09-May-21
 STEP.S                   0.00: STEP TIME
 NULL.                 -999.25: NULL VALUE
 PROV.                    Baku:  PROVINCE
 STAT.                    Baku:  STATE NAME
 SON .        AZ-XX-0906571588:  JOB NUMBER
 WTYP.                Deviated:  WELL TYPE
 COMP.     BP Exploration (Caspian Sea) ltd:  COMPANY
 BASE.              Azerbaijan:  LOGGING EQUIPMENT BASE LOCATION
 REGN.                   EESSA:  REGION
 CTRY.              Azerbaijan:  COUNTRY NAME
 FLD .                     ACG:  FIELD NAME
 WELL.                     J28:  WELL NAME
 RIG .             West Chirag:  RIG NAME
 DMF .             Drill Floor:  DRILL MEAS FROM
 PDAT.       Caspian Sea Level:  PERMANENT DATUM
 HPTY.       Minimum Curvature:  HOLE POS TYPE
 MDS .        Operator Entered:  MAG DATA SOURCE
 NREF.                    Grid:  NORTH REFERENCE
 SRVC.          TURAN DRILLING:  CONTRACTOR
 JOBN.        AZ-XX-0906571588:  JOB TICKET NUMB
 DCON.     Halliburton Sperry Drilling:  DIRECTNL CONTR
 STIM.      00.44.00 11-Feb-21:  START TIME
 DATE.      00.00.00 05-May-21:  END TIME
 SPUD.               13-Feb-21:  SPUD DATE
 MWDS.                    Baku:  MWD SHOP
 DOE .                     N/A:  DOE NUMBER
 UNIT.                     N/A:  LOGGING EQUIPMENT ID
 UWI .                     N/A:  UNIQUE WELL IDENTIFIER
 API .                     N/A:  API NUMBER
 CNTY.                        :  COUNTY
 LOC .                        :  LOCATION
 LMF .             Drill Floor:  LOG MEASURED FROM
 TVDS.m                  43.00:  TVDSS CORRECTN
 SDEP.m                 341.00:  START DEPTH
 EGL .m                   0.00:  GROUND ELEVATION
 WDMS.m                 169.80:  WD ELEV
 AGAP.m                  43.00:  AIR GAP
 EPD .m                   0.00:  ELEVATION
 APD .m                  43.00:  DEPTH ABOVE PD
 LATI.deg                40.13:  LATITUDE
 LONG.deg                51.22:  LONGITUDE
 UTMY.m             4443793.85:  UTM Y
 UTMX.m              519005.06:  UTM X
 WHEW.m                 -11.57:  WELL HEAD E/W
 WHNS.m                   8.57:  WELL HEAD N/S
 VSEW.m                 -11.57:  VERT SEC E/W
 VSNS.m                   8.57:  VERT SEC N/S
 DFWL.m                   0.00:  DISTANCE FWL
 DFSL.m                   0.00:  DISTANCE FSL
 VSDR.deg               299.34:  VERT SEC DIRECT
 GVFD.g                   1.00:  GRAVITY FIELD
 AZTC.deg                 6.36:  AZM TOTAL CORR
 MFLD.nT              50391.00:  MAGNETIC FIELD
 MDIP.deg                59.65:  MAGNETIC DIP
 MDEC.deg                 6.48:  MAGNETIC DECL
 GRDC.deg                 0.12:  GRID CORRECTION
 DEP .m                 334.96:  DEPTH
 TDD .m                1407.26:  TOTAL DEPTH (DRILLER)
 EKB .m                  43.00:  KB ELEVATION
 EDF .m                  43.00:  DF ELEVATION
 TDL .m                 228.00:  TOTAL DEPTH (LOGGER)
 VSC .                       0:  VS TO CLOSURE
 MAGU.                 1854484:  MAGUTM CHECKSUM
~Parameter Information Block
#MNEM.UNIT       Value        Description
#---------     -----------    ---------------------------
 AV  .mps                 4.00:  Ann Velocity 
 AVMX.mps                 4.73:  Max Ann Veloc 
 AZIF.deg               304.48:  Azm, Final 
 BHAT.        Rotary Steerable:  BHA Type 
 BREV.rev            257300.00:  Rev Bit Total 
 BROT.°/30m               0.00:  Build Rotating 
 BS  .in                  8.50:  Bit Size 
 BSZ .in                  8.50:  Bit Size 
 BTPL.psig              589.00:  Bit Press Loss 
 CABU.                      No:  Customer Abuse 
 CGEO.          Mubariz ghayev:  Customer Geo 
 COMM.                     ì
‚:  Run Comments 1 
 TCS .hr                 64.25:  Time Ciculation Ended 
 CV  .mps                 3.50:  Crit Velocity 
 CVMX.mps                 4.52:  Max Crit Veloc 
 DD1 .             Aziz Aliyev:  Direct Drillr 1 
 DD2 .         Intigam Rahimov:  Direct Drillr 2 
 DD3 .          Rashad Habibov:  Direct Drillr 3 
 DDSV.               Geo-Pilot:  DD Service 
 DEFF.%                  98.00:  % Det Eff 
 DLRX.°/30m               0.00:  Dogleg Rot Max 
 DLSO.°/30m               0.00:  Dogleg Oriented 
 DLSX.°/30m               0.00:  Dogleg Str Max 
 DRET.      10.45.04 08-May-21:  Drill End Time 
 DRST.      03.30.04 04-May-21:  Drill Start Tim 
 DTIM.hr                 14.97:  Time Drilling 
 EDEP.m                4640.01:  End Depth 
 ENG1.         Dail Mahammadov:  Engineer 1 
 ENG2.           Eldar Hajiyev:  Engineer 2 
 ENG3.       Bakhtiar Jabbarli:  Engineer 3 
 ENG4.       Natik Hasanagayev:  Engineer 4 
 ETIM.      09.30.04 14-May-21:  End Time 
 FLOI.gpm               460.00:  Flow In 
 FLON.gpm               200.00:  Flow In Min 
 FLOS.cptm                0.00:  Fluid Loss 
 FLOX.gpm               505.00:  Flow In Max 
 HFLO.                      No:  High Flow 
 HPRE.                      No:  High Pressure 
 HTEM.                      No:  High Temp 
 HYDO.m                   1.80:  Hydro Offset 
 IFIN.deg                66.71:  Inc, Final 
 IMAX.deg                67.03:  Inc Max 
 IMIN.deg                66.63:  Inc Min 
 IMND.m                4550.58:  Inc Min Depth 
 IMXD.m                4439.01:  Inc Max Depth 
 JARR.                      No:  Jarring 
 LETM.      10.45.04 08-May-21:  Log End Time 
 LOST.hr                     0:  Lost Rig Time 
 LSTM.      03.30.04 04-May-21:  Log Start Time 
 MDCL.ppm             37000.00:  Mud Chlorides 
 MDES.     Inversion Oil/Synthetic:  Mud Desc 
 DFD .sg                  1.38:  Mud Density 
 MDMN.sg                  1.35:  Dens Mud Min 
 MDMX.sg                  1.40:  Dens Mud Max 
 MOIL.                   57.40:  Run Mud Oil % 
 MOWR.                   70:30:  Run Mud OWR 
 MSND.                    0.00:  Run Mud Sand % 
 MSOL.                   18.00:  Run Mud Solids% 
 DFV .spqt               71.00:  Mud Viscosity 
 MWOD.in                  6.75:  MWD Tool OD 
 MWSI.                      No:  Serv Intrp, MWD 
 OTIM.hr                242.76:  Time Operating 
 PCON.           Look Like New:  Pad Condition 
 PMAX.psia            12183.92:  Press Op, Max 
 PV  .cP                 27.00:  Mud PV 
 RUN .                    1300:  Run Number 
 ROPA.m/hr               15.00:  ROP Avg 
 ROPN.m/hr                9.00:  ROP Min 
 ROPX.m/hr               19.00:  ROP Max 
 RPMA.rpm               120.00:  RPM Surface Avg 
 RPMN.rpm               100.00:  RPM Surface Min 
 RPMX.rpm               120.00:  RPM Surface Max 
 RRUN.                    1300:  Rig Run Number 
 RTIM.hr                  5.00:  Time Reaming 
 SAZI.deg               304.73:  Azm, Start 
 SDEP.m                4412.01:  Start Depth 
 SIDD.                      No:  Serv Intrp, DD 
 SINC.deg                66.82:  Inc, Start 
 SPPA.psig             2800.00:  SPP Avg 
 SPPN.psig             2610.00:  SPP Min 
 SPPX.psig             3100.00:  SPP Max 
 STIM.      03.30.00 04-May-21:  Start Time 
 SVCS.                 DD, MWD:  Services 
 SVER.                    9.20:  Sperry Version 
 TDAT.m                 228.00:  Tot Depth Attmp 
 TDDF.                      No:  Trip for DD 
 TDLG.m                 228.00:  Tot Depth Loggd 
 TFF .                      No:  Trip for Fail 
 TQAA.f-kp               15.00:  Torque Abs Avg 
 TQAN.f-kp               12.00:  Torque Abs Min 
 TQAX.f-kp               22.00:  Torque Abs Max 
 TRRT.°/30m               0.00:  Turn Rotating 
 MRT .                    HCIM:  Maximum Recorded Temperature 
 TTMX.degC               90.20:  Max Tool Temp 
 VS01.                90627813:  Virtual Str1 SN 
 VS02.                90634712:  Virtual Str2 SN 
 VS03.                90643410:  Virtual Str3 SN 
 VS04.                90634712:  Virtual Str4 SN 
 WBMN.klb                 9.00:  WOB Min 
 WITN.        Elmaddin Rahimov:  Customer Rep 
 WITN.         Haytham Mostafa:  Customer Rep 2 
 WOBA.klb                15.00:  WOB Avg 
 WOBX.klb                23.00:  WOB Max 
 YP  .lhf2               29.00:  Yield Point 
~Curve Information Block
#MNEM.UNIT                 API CODE     Curve Description
#---------               -----------    ---------------------------
 TIME.HHMMSS            00 000 000 000:  GT Time & Date
 GTDEPTH.m              00 000 000 000:  GT Depth
 GTPQH.psia             00 000 000 000:  GT HR Quartz Pressure
 GTTQ.degC              00 000 000 000:  GT Quartz Temperature
 GTTN.NONE              00 000 000 000:  GT Test Number
 GTET.sec               00 000 000 000:  GT Elapsed Test Time
 GTTVD.m                00 000 000 000:  GT True Vertical Depth
#Other Information
#
#WARRANTY: Halliburton will use its best efforts to furnish customers with 
#accurate information and interpretations that are part of, and incident to, the services 
#provided.  However, Halliburton cannot and does not warrant the accuracy 
#or correctness of such information and interpretations.  Under no circumstances should any 
#such information or interpretation be relied upon as the sole basis for any drilling, 
#completion, production, or financial decision or any procedure involving any risk to the 
#safety of any drilling venture, drilling rig or its crew or any other third party.  The 
#Customer has full responsibility for all drilling, completion and production operation.  
#Halliburton makes no representations or warranties, either expressed or 
#implied, including, but not limited to, the implied warranties of merchantability or fitness 
#for a particular purpose, with respect to the services rendered.  In no event will 
#Halliburton be liable for failure to obtain any particular results or for 
#any damages, including, but not limited to, indirect, special or consequential damages, 
#resulting from the use of any information or interpretation provided by Halliburton.
#
~A           TIME           GTDEPTH  GTPQH  GTTQ  GTTN   GTET   GTTVD  
# ...
   06:46:42.400.09-May-2021 4440.01  649.00 65.65 15.00 316.40 2948.57
   06:46:42.600.09-May-2021 4440.01  650.21 65.65 15.00 316.60 2948.57
   06:46:42.800.09-May-2021 4440.01  651.15 65.65 15.00 316.80 2948.57
   06:46:43.000.09-May-2021 4440.01  652.43 65.65 15.00 317.00 2948.57
   06:46:43.200.09-May-2021 4440.01  652.43 65.65 15.00 317.20 2948.57
   06:46:43.400.09-May-2021 4440.01  654.69 65.65 15.00 317.40 2948.57
   06:46:43.600.09-May-2021 4440.01  655.83 65.65 15.00 317.60 2948.57
   06:46:43.800.09-May-2021 4440.01  657.00 65.65 15.00 317.80 2948.57
   06:46:44.000.09-May-2021 4440.01  658.13 65.65 15.00 318.00 2948.57
   06:46:44.200.09-May-2021 4440.01  658.13 65.65 15.00 318.20 2948.57
   06:46:44.400.09-May-2021 4440.01  660.42 65.65 15.00 318.40 2948.57
   06:46:44.600.09-May-2021 4440.01  661.39 65.65 15.00 318.60 2948.57
   06:46:44.800.09-May-2021 4440.01  662.58 65.65 15.00 318.80 2948.57
   06:46:45.000.09-May-2021 4440.01  663.90 65.65 15.00 319.00 2948.57
   06:46:45.200.09-May-2021 4440.01  663.90 65.65 15.00 319.20 2948.57
   06:46:45.400.09-May-2021 4440.01  666.09 65.65 15.00 319.40 2948.57
   06:46:45.600.09-May-2021 4440.01  667.31 65.65 15.00 319.60 2948.57
   06:46:45.800.09-May-2021 4440.01  668.39 65.65 15.00 319.80 2948.57
   06:46:46.000.09-May-2021 4440.01  669.55 65.65 15.00 320.00 2948.57
   06:46:46.200.09-May-2021 4440.01  669.55 65.65 15.00 320.20 2948.57
   06:46:46.400.09-May-2021 4440.01  671.84 65.65 15.00 320.40 2948.57
   06:46:46.600.09-May-2021 4440.01  672.98 65.65 15.00 320.60 2948.57
   06:46:46.800.09-May-2021 4440.01  674.10 65.65 15.00 320.80 2948.57
   06:46:47.000.09-May-2021 4440.01  675.21 65.65 15.00 321.00 2948.57
   06:46:47.200.09-May-2021 4440.01  675.21 65.65 15.00 321.20 2948.57
   06:46:47.400.09-May-2021 4440.01  677.69 65.65 15.00 321.40 2948.57
   06:46:47.600.09-May-2021 4440.01  678.57 65.65 15.00 321.60 2948.57
   06:46:47.800.09-May-2021 4440.01  679.87 65.65 15.00 321.80 2948.57
   06:46:48.000.09-May-2021 4440.01  680.51 65.65 15.00 322.00 2948.57
   06:46:48.200.09-May-2021 4440.01  680.51 65.65 15.00 322.20 2948.57
   06:46:48.400.09-May-2021 4440.01  682.99 65.65 15.00 322.40 2948.57
   06:46:48.600.09-May-2021 4440.01  684.37 65.65 15.00 322.60 2948.57
   06:46:48.800.09-May-2021 4440.01  685.24 65.65 15.00 322.80 2948.57
   06:46:49.000.09-May-2021 4440.01  686.25 65.65 15.00 323.00 2948.57
   06:46:49.200.09-May-2021 4440.01  686.25 65.65 15.00 323.20 2948.57
   06:46:49.400.09-May-2021 4440.01  688.53 65.65 15.00 323.40 2948.57
   06:46:49.600.09-May-2021 4440.01  689.43 65.65 15.00 323.60 2948.57
   06:46:49.800.09-May-2021 4440.01  689.61 65.65 15.00 323.80 2948.57
   06:46:50.000.09-May-2021 4440.01  690.21 65.65 15.00 324.00 2948.57
   06:46:50.200.09-May-2021 4440.01  690.21 65.65 15.00 324.20 2948.57
   06:46:50.400.09-May-2021 4440.01  692.31 65.65 15.00 324.40 2948.57
   06:46:50.600.09-May-2021 4440.01  693.24 65.65 15.00 324.60 2948.57
   06:46:50.800.09-May-2021 4440.01  694.42 65.65 15.00 324.80 2948.57
   06:46:51.000.09-May-2021 4440.01  695.48 65.65 15.00 325.00 2948.57
   06:46:51.200.09-May-2021 4440.01  695.48 65.65 15.00 325.20 2948.57
   06:46:51.400.09-May-2021 4440.01  697.75 65.65 15.00 325.40 2948.57
   06:46:51.600.09-May-2021 4440.01  698.86 65.65 15.00 325.60 2948.57
   06:46:51.800.09-May-2021 4440.01  699.98 65.65 15.00 325.80 2948.57
   06:46:52.000.09-May-2021 4440.01  701.10 65.65 15.00 326.00 2948.57
   06:46:52.200.09-May-2021 4440.01  701.10 65.65 15.00 326.20 2948.57
   06:46:52.400.09-May-2021 4440.01  703.17 65.65 15.00 326.40 2948.57
   06:46:52.600.09-May-2021 4440.01  704.35 65.65 15.00 326.60 2948.57
   06:46:52.800.09-May-2021 4440.01  705.60 65.65 15.00 326.80 2948.57
   06:46:53.000.09-May-2021 4440.01  706.83 65.65 15.00 327.00 2948.57
   06:46:53.200.09-May-2021 4440.01  706.83 65.65 15.00 327.20 2948.57
   06:46:53.400.09-May-2021 4440.01  708.97 65.65 15.00 327.40 2948.57
   06:46:53.600.09-May-2021 4440.01  710.02 65.65 15.00 327.60 2948.57
   06:46:53.800.09-May-2021 4440.01  711.15 65.65 15.00 327.80 2948.57
   06:46:54.000.09-May-2021 4440.01  712.30 65.65 15.00 328.00 2948.57
   06:46:54.200.09-May-2021 4440.01  712.30 65.65 15.00 328.20 2948.57
   06:46:54.400.09-May-2021 4440.01  714.51 65.65 15.00 328.40 2948.57
   06:46:54.600.09-May-2021 4440.01  715.63 65.65 15.00 328.60 2948.57
   06:46:54.800.09-May-2021 4440.01  716.76 65.65 15.00 328.80 2948.57
   06:46:55.000.09-May-2021 4440.01  717.45 65.65 15.00 329.00 2948.57
   06:46:55.200.09-May-2021 4440.01  717.45 65.65 15.00 329.20 2948.57
   06:46:55.400.09-May-2021 4440.01  720.01 65.65 15.00 329.40 2948.57
   06:46:55.600.09-May-2021 4440.01  721.33 65.65 15.00 329.60 2948.57
   06:46:55.800.09-May-2021 4440.01  722.28 65.65 15.00 329.80 2948.57
   06:46:56.000.09-May-2021 4440.01  723.14 65.65 15.00 330.00 2948.57
   06:46:56.200.09-May-2021 4440.01  723.14 65.65 15.00 330.20 2948.57
   06:46:56.400.09-May-2021 4440.01  725.72 65.65 15.00 330.40 2948.57
   06:46:56.600.09-May-2021 4440.01  726.65 65.65 15.00 330.60 2948.57
   06:46:56.800.09-May-2021 4440.01  727.46 65.65 15.00 330.80 2948.57
   06:46:57.000.09-May-2021 4440.01  729.10 65.65 15.00 331.00 2948.57
   06:46:57.200.09-May-2021 4440.01  729.10 65.65 15.00 331.20 2948.57
   06:46:57.400.09-May-2021 4440.01  731.24 65.65 15.00 331.40 2948.57
   06:46:57.600.09-May-2021 4440.01  731.85 65.65 15.00 331.60 2948.57
   06:46:57.800.09-May-2021 4440.01  733.46 65.65 15.00 331.80 2948.57
   06:46:58.000.09-May-2021 4440.01  734.45 65.65 15.00 332.00 2948.57
   06:46:58.200.09-May-2021 4440.01  734.45 65.65 15.00 332.20 2948.57
   06:46:58.400.09-May-2021 4440.01  736.62 65.65 15.00 332.40 2948.57
   06:46:58.600.09-May-2021 4440.01  737.68 65.65 15.00 332.60 2948.57
   06:46:58.800.09-May-2021 4440.01  738.81 65.65 15.00 332.80 2948.57
   06:46:59.000.09-May-2021 4440.01  739.90 65.65 15.00 333.00 2948.57
   06:46:59.200.09-May-2021 4440.01  739.90 65.65 15.00 333.20 2948.57
   06:46:59.400.09-May-2021 4440.01  742.12 65.65 15.00 333.40 2948.57
   06:46:59.600.09-May-2021 4440.01  743.21 65.65 15.00 333.60 2948.57
   06:46:59.800.09-May-2021 4440.01  744.31 65.65 15.00 333.80 2948.57
   06:47:00.000.09-May-2021 4440.01  745.41 65.65 15.00 334.00 2948.57
   06:47:00.200.09-May-2021 4440.01  745.41 65.65 15.00 334.20 2948.57
   06:47:00.400.09-May-2021 4440.01  747.69 65.65 15.00 334.40 2948.57
   06:47:00.600.09-May-2021 4440.01  748.83 65.65 15.00 334.60 2948.57
   06:47:00.800.09-May-2021 4440.01  749.70 65.65 15.00 334.80 2948.57
   06:47:01.000.09-May-2021 4440.01  750.92 65.65 15.00 335.00 2948.57
   06:47:01.200.09-May-2021 4440.01  750.92 65.65 15.00 335.20 2948.57
   06:47:01.400.09-May-2021 4440.01  753.08 65.65 15.00 335.40 2948.57
   06:47:01.600.09-May-2021 4440.01  754.15 65.65 15.00 335.60 2948.57
   06:47:01.800.09-May-2021 4440.01  755.27 65.65 15.00 335.80 2948.57
   06:47:02.000.09-May-2021 4440.01  756.35 65.65 15.00 336.00 2948.57
   06:47:02.200.09-May-2021 4440.01  756.35 65.65 15.00 336.20 2948.57
   06:47:02.400.09-May-2021 4440.01  758.52 65.65 15.00 336.40 2948.57
   06:47:02.600.09-May-2021 4440.01  759.28 65.65 15.00 336.60 2948.57
   06:47:02.800.09-May-2021 4440.01  760.76 65.65 15.00 336.80 2948.57
   06:47:03.000.09-May-2021 4440.01  761.72 65.65 15.00 337.00 2948.57
   06:47:03.200.09-May-2021 4440.01  761.72 65.65 15.00 337.20 2948.57
   06:47:03.400.09-May-2021 4440.01  763.83 65.65 15.00 337.40 2948.57
   06:47:03.600.09-May-2021 4440.01  764.66 65.65 15.00 337.60 2948.57
   06:47:03.800.09-May-2021 4440.01  765.78 65.65 15.00 337.80 2948.57
   06:47:04.000.09-May-2021 4440.01  766.18 65.65 15.00 338.00 2948.57
   06:47:04.200.09-May-2021 4440.01  766.18 65.65 15.00 338.20 2948.57
   06:47:04.400.09-May-2021 4440.01  767.60 65.65 15.00 338.40 2948.57
   06:47:04.600.09-May-2021 4440.01  768.18 65.65 15.00 338.60 2948.57
   06:47:04.800.09-May-2021 4440.01  769.66 65.65 15.00 338.80 2948.57
