~Version Information
 VERS.                  2.0:   CWLS log ASCII Standard -VERSION 2.0
 WRAP.                   NO:   One line per depth step
~Well Information Block
#MNEM.UNIT     VALUE/NAME     DESCRIPTION
#---------     -----------    ---------------------------
 STRT.S             03:18:48 09-May-21: START TIME 03:18:48 09-May-21
 STOP.S             03:25:48 09-May-21: STOP TIME  03:25:48 09-May-21
 STEP.S                   0.00: STEP TIME
 NULL.                 -999.25: NULL VALUE
 PROV.                    Baku:  PROVINCE
 STAT.                    Baku:  STATE NAME
 SON .        AZ-XX-0906571588:  JOB NUMBER
 WTYP.                Deviated:  WELL TYPE
 COMP.     BP Exploration (Caspian Sea) ltd:  COMPANY
 BASE.              Azerbaijan:  LOGGING EQUIPMENT BASE LOCATION
 REGN.                   EESSA:  REGION
 CTRY.              Azerbaijan:  COUNTRY NAME
 FLD .                     ACG:  FIELD NAME
 WELL.                     J28:  WELL NAME
 RIG .             West Chirag:  RIG NAME
 DMF .             Drill Floor:  DRILL MEAS FROM
 PDAT.       Caspian Sea Level:  PERMANENT DATUM
 HPTY.       Minimum Curvature:  HOLE POS TYPE
 MDS .        Operator Entered:  MAG DATA SOURCE
 NREF.                    Grid:  NORTH REFERENCE
 SRVC.          TURAN DRILLING:  CONTRACTOR
 JOBN.        AZ-XX-0906571588:  JOB TICKET NUMB
 DCON.     Halliburton Sperry Drilling:  DIRECTNL CONTR
 STIM.      00.44.00 11-Feb-21:  START TIME
 DATE.      00.00.00 05-May-21:  END TIME
 SPUD.               13-Feb-21:  SPUD DATE
 MWDS.                    Baku:  MWD SHOP
 DOE .                     N/A:  DOE NUMBER
 UNIT.                     N/A:  LOGGING EQUIPMENT ID
 UWI .                     N/A:  UNIQUE WELL IDENTIFIER
 API .                     N/A:  API NUMBER
 CNTY.                        :  COUNTY
 LOC .                        :  LOCATION
 LMF .             Drill Floor:  LOG MEASURED FROM
 TVDS.m                  43.00:  TVDSS CORRECTN
 SDEP.m                 341.00:  START DEPTH
 EGL .m                   0.00:  GROUND ELEVATION
 WDMS.m                 169.80:  WD ELEV
 AGAP.m                  43.00:  AIR GAP
 EPD .m                   0.00:  ELEVATION
 APD .m                  43.00:  DEPTH ABOVE PD
 LATI.deg                40.13:  LATITUDE
 LONG.deg                51.22:  LONGITUDE
 UTMY.m             4443793.85:  UTM Y
 UTMX.m              519005.06:  UTM X
 WHEW.m                 -11.57:  WELL HEAD E/W
 WHNS.m                   8.57:  WELL HEAD N/S
 VSEW.m                 -11.57:  VERT SEC E/W
 VSNS.m                   8.57:  VERT SEC N/S
 DFWL.m                   0.00:  DISTANCE FWL
 DFSL.m                   0.00:  DISTANCE FSL
 VSDR.deg               299.34:  VERT SEC DIRECT
 GVFD.g                   1.00:  GRAVITY FIELD
 AZTC.deg                 6.36:  AZM TOTAL CORR
 MFLD.nT              50391.00:  MAGNETIC FIELD
 MDIP.deg                59.65:  MAGNETIC DIP
 MDEC.deg                 6.48:  MAGNETIC DECL
 GRDC.deg                 0.12:  GRID CORRECTION
 DEP .m                 334.96:  DEPTH
 TDD .m                1407.26:  TOTAL DEPTH (DRILLER)
 EKB .m                  43.00:  KB ELEVATION
 EDF .m                  43.00:  DF ELEVATION
 TDL .m                 228.00:  TOTAL DEPTH (LOGGER)
 VSC .                       0:  VS TO CLOSURE
 MAGU.                 1854484:  MAGUTM CHECKSUM
~Parameter Information Block
#MNEM.UNIT       Value        Description
#---------     -----------    ---------------------------
 AV  .mps                 4.00:  Ann Velocity 
 AVMX.mps                 4.73:  Max Ann Veloc 
 AZIF.deg               304.48:  Azm, Final 
 BHAT.        Rotary Steerable:  BHA Type 
 BREV.rev            257300.00:  Rev Bit Total 
 BROT.°/30m               0.00:  Build Rotating 
 BS  .in                  8.50:  Bit Size 
 BSZ .in                  8.50:  Bit Size 
 BTPL.psig              589.00:  Bit Press Loss 
 CABU.                      No:  Customer Abuse 
 CGEO.          Mubariz ghayev:  Customer Geo 
 COMM.                     ü>:  Run Comments 1 
 TCS .hr                 64.25:  Time Ciculation Ended 
 CV  .mps                 3.50:  Crit Velocity 
 CVMX.mps                 4.52:  Max Crit Veloc 
 DD1 .             Aziz Aliyev:  Direct Drillr 1 
 DD2 .         Intigam Rahimov:  Direct Drillr 2 
 DD3 .          Rashad Habibov:  Direct Drillr 3 
 DDSV.               Geo-Pilot:  DD Service 
 DEFF.%                  98.00:  % Det Eff 
 DLRX.°/30m               0.00:  Dogleg Rot Max 
 DLSO.°/30m               0.00:  Dogleg Oriented 
 DLSX.°/30m               0.00:  Dogleg Str Max 
 DRET.      10.45.04 08-May-21:  Drill End Time 
 DRST.      03.30.04 04-May-21:  Drill Start Tim 
 DTIM.hr                 14.97:  Time Drilling 
 EDEP.m                4640.01:  End Depth 
 ENG1.         Dail Mahammadov:  Engineer 1 
 ENG2.           Eldar Hajiyev:  Engineer 2 
 ENG3.       Bakhtiar Jabbarli:  Engineer 3 
 ENG4.       Natik Hasanagayev:  Engineer 4 
 ETIM.      09.30.04 14-May-21:  End Time 
 FLOI.gpm               460.00:  Flow In 
 FLON.gpm               200.00:  Flow In Min 
 FLOS.cptm                0.00:  Fluid Loss 
 FLOX.gpm               505.00:  Flow In Max 
 HFLO.                      No:  High Flow 
 HPRE.                      No:  High Pressure 
 HTEM.                      No:  High Temp 
 HYDO.m                   1.80:  Hydro Offset 
 IFIN.deg                66.71:  Inc, Final 
 IMAX.deg                67.03:  Inc Max 
 IMIN.deg                66.63:  Inc Min 
 IMND.m                4550.58:  Inc Min Depth 
 IMXD.m                4439.01:  Inc Max Depth 
 JARR.                      No:  Jarring 
 LETM.      10.45.04 08-May-21:  Log End Time 
 LOST.hr                     0:  Lost Rig Time 
 LSTM.      03.30.04 04-May-21:  Log Start Time 
 MDCL.ppm             37000.00:  Mud Chlorides 
 MDES.     Inversion Oil/Synthetic:  Mud Desc 
 DFD .sg                  1.38:  Mud Density 
 MDMN.sg                  1.35:  Dens Mud Min 
 MDMX.sg                  1.40:  Dens Mud Max 
 MOIL.                   57.40:  Run Mud Oil % 
 MOWR.                   70:30:  Run Mud OWR 
 MSND.                    0.00:  Run Mud Sand % 
 MSOL.                   18.00:  Run Mud Solids% 
 DFV .spqt               71.00:  Mud Viscosity 
 MWOD.in                  6.75:  MWD Tool OD 
 MWSI.                      No:  Serv Intrp, MWD 
 OTIM.hr                242.76:  Time Operating 
 PCON.           Look Like New:  Pad Condition 
 PMAX.psia            12183.92:  Press Op, Max 
 PV  .cP                 27.00:  Mud PV 
 RUN .                    1300:  Run Number 
 ROPA.m/hr               15.00:  ROP Avg 
 ROPN.m/hr                9.00:  ROP Min 
 ROPX.m/hr               19.00:  ROP Max 
 RPMA.rpm               120.00:  RPM Surface Avg 
 RPMN.rpm               100.00:  RPM Surface Min 
 RPMX.rpm               120.00:  RPM Surface Max 
 RRUN.                    1300:  Rig Run Number 
 RTIM.hr                  5.00:  Time Reaming 
 SAZI.deg               304.73:  Azm, Start 
 SDEP.m                4412.01:  Start Depth 
 SIDD.                      No:  Serv Intrp, DD 
 SINC.deg                66.82:  Inc, Start 
 SPPA.psig             2800.00:  SPP Avg 
 SPPN.psig             2610.00:  SPP Min 
 SPPX.psig             3100.00:  SPP Max 
 STIM.      03.30.00 04-May-21:  Start Time 
 SVCS.                 DD, MWD:  Services 
 SVER.                    9.20:  Sperry Version 
 TDAT.m                 228.00:  Tot Depth Attmp 
 TDDF.                      No:  Trip for DD 
 TDLG.m                 228.00:  Tot Depth Loggd 
 TFF .                      No:  Trip for Fail 
 TQAA.f-kp               15.00:  Torque Abs Avg 
 TQAN.f-kp               12.00:  Torque Abs Min 
 TQAX.f-kp               22.00:  Torque Abs Max 
 TRRT.°/30m               0.00:  Turn Rotating 
 MRT .                    HCIM:  Maximum Recorded Temperature 
 TTMX.degC               90.20:  Max Tool Temp 
 VS01.                90627813:  Virtual Str1 SN 
 VS02.                90634712:  Virtual Str2 SN 
 VS03.                90643410:  Virtual Str3 SN 
 VS04.                90634712:  Virtual Str4 SN 
 WBMN.klb                 9.00:  WOB Min 
 WITN.        Elmaddin Rahimov:  Customer Rep 
 WITN.         Haytham Mostafa:  Customer Rep 2 
 WOBA.klb                15.00:  WOB Avg 
 WOBX.klb                23.00:  WOB Max 
 YP  .lhf2               29.00:  Yield Point 
~Curve Information Block
#MNEM.UNIT                 API CODE     Curve Description
#---------               -----------    ---------------------------
 TIME.HHMMSS            00 000 000 000:  GT Time & Date
 GTDEPTH.m              00 000 000 000:  GT Depth
 GTPQH.psia             00 000 000 000:  GT HR Quartz Pressure
 GTTQ.degC              00 000 000 000:  GT Quartz Temperature
 GTTN.NONE              00 000 000 000:  GT Test Number
 GTET.sec               00 000 000 000:  GT Elapsed Test Time
 GTTVD.m                00 000 000 000:  GT True Vertical Depth
#Other Information
#
#WARRANTY: Halliburton will use its best efforts to furnish customers with 
#accurate information and interpretations that are part of, and incident to, the services 
#provided.  However, Halliburton cannot and does not warrant the accuracy 
#or correctness of such information and interpretations.  Under no circumstances should any 
#such information or interpretation be relied upon as the sole basis for any drilling, 
#completion, production, or financial decision or any procedure involving any risk to the 
#safety of any drilling venture, drilling rig or its crew or any other third party.  The 
#Customer has full responsibility for all drilling, completion and production operation.  
#Halliburton makes no representations or warranties, either expressed or 
#implied, including, but not limited to, the implied warranties of merchantability or fitness 
#for a particular purpose, with respect to the services rendered.  In no event will 
#Halliburton be liable for failure to obtain any particular results or for 
#any damages, including, but not limited to, indirect, special or consequential damages, 
#resulting from the use of any information or interpretation provided by Halliburton.
#
~A           TIME           GTDEPTH  GTPQH  GTTQ  GTTN   GTET   GTTVD  
# ...
   03:19:11.305.09-May-2021 4480.01 6701.13 67.61 12.00  22.60 2964.27
   03:19:11.505.09-May-2021 4480.01 6701.57 67.61 12.00  22.80 2964.27
   03:19:11.705.09-May-2021 4480.01 6701.71 67.61 12.00  23.00 2964.27
   03:19:11.905.09-May-2021 4480.01 6701.71 67.61 12.00  23.20 2964.27
   03:19:12.105.09-May-2021 4480.01 6701.90 67.61 12.00  23.40 2964.27
   03:19:12.305.09-May-2021 4480.01 6705.44 67.61 12.00  23.60 2964.27
   03:19:12.505.09-May-2021 4480.01 6712.06 67.61 12.00  23.80 2964.27
   03:19:12.705.09-May-2021 4480.01 6707.78 67.61 12.00  24.00 2964.27
   03:19:12.905.09-May-2021 4480.01 6707.78 67.61 12.00  24.20 2964.27
   03:19:13.105.09-May-2021 4480.01 6704.76 67.61 12.00  24.40 2964.27
   03:19:13.305.09-May-2021 4480.01 6707.56 67.61 12.00  24.60 2964.27
   03:19:13.505.09-May-2021 4480.01 6706.15 67.61 12.00  24.80 2964.27
   03:19:13.705.09-May-2021 4480.01 6706.22 67.61 12.00  25.00 2964.27
   03:19:13.905.09-May-2021 4480.01 6706.22 67.61 12.00  25.20 2964.27
   03:19:14.105.09-May-2021 4480.01 6706.16 67.61 12.00  25.40 2964.27
   03:19:14.305.09-May-2021 4480.01 6706.05 67.61 12.00  25.60 2964.27
   03:19:14.505.09-May-2021 4480.01 6706.23 67.61 12.00  25.80 2964.27
   03:19:14.705.09-May-2021 4480.01 6706.23 67.61 12.00  26.00 2964.27
   03:19:14.905.09-May-2021 4480.01 6706.23 67.61 12.00  26.20 2964.27
   03:19:15.105.09-May-2021 4480.01 6716.82 67.61 12.00  26.40 2964.27
   03:19:15.306.09-May-2021 4480.01 6707.54 67.61 12.00  26.60 2964.27
   03:19:15.506.09-May-2021 4480.01 6716.11 67.61 12.00  26.80 2964.27
   03:19:15.706.09-May-2021 4480.01 6710.16 67.61 12.00  27.00 2964.27
   03:19:15.906.09-May-2021 4480.01 6710.16 67.61 12.00  27.20 2964.27
   03:19:16.106.09-May-2021 4480.01 6709.83 67.61 12.00  27.40 2964.27
   03:19:16.306.09-May-2021 4480.01 6717.23 67.61 12.00  27.60 2964.27
   03:19:16.506.09-May-2021 4480.01 6718.31 67.61 12.00  27.80 2964.27
   03:19:16.706.09-May-2021 4480.01 6716.12 67.61 12.00  28.00 2964.27
   03:19:16.906.09-May-2021 4480.01 6716.12 67.61 12.00  28.20 2964.27
   03:19:17.106.09-May-2021 4480.01 6715.81 67.61 12.00  28.40 2964.27
   03:19:17.306.09-May-2021 4480.01 6711.09 67.61 12.00  28.60 2964.27
   03:19:17.506.09-May-2021 4480.01 6711.09 67.61 12.00  28.80 2964.27
   03:19:17.706.09-May-2021 4480.01 6711.41 67.61 12.00  29.00 2964.27
   03:19:17.906.09-May-2021 4480.01 6711.41 67.61 12.00  29.20 2964.27
   03:19:18.106.09-May-2021 4480.01 6711.41 67.61 12.00  29.40 2964.27
   03:19:18.306.09-May-2021 4480.01 6712.85 67.61 12.00  29.60 2964.27
   03:19:18.506.09-May-2021 4480.01 6712.54 67.61 12.00  29.80 2964.27
   03:19:18.706.09-May-2021 4480.01 6712.56 67.60 12.00  30.01 2964.27
   03:19:18.906.09-May-2021 4480.01 6712.56 67.60 12.00  30.21 2964.27
   03:19:19.106.09-May-2021 4480.01 6713.18 67.60 12.00  30.41 2964.27
   03:19:19.306.09-May-2021 4480.01 6713.47 67.60 12.00  30.61 2964.27
   03:19:19.506.09-May-2021 4480.01 6713.76 67.60 12.00  30.81 2964.27
   03:19:19.706.09-May-2021 4480.01 6714.19 67.60 12.00  31.01 2964.27
   03:19:19.906.09-May-2021 4480.01 6714.19 67.60 12.00  31.21 2964.27
   03:19:20.106.09-May-2021 4480.01 6722.60 67.60 12.00  31.41 2964.27
   03:19:20.306.09-May-2021 4480.01 6721.14 67.60 12.00  31.61 2964.27
   03:19:20.506.09-May-2021 4480.01 6720.69 67.60 12.00  31.81 2964.27
   03:19:20.706.09-May-2021 4480.01 6722.39 67.60 12.00  32.01 2964.27
   03:19:20.906.09-May-2021 4480.01 6722.39 67.60 12.00  32.21 2964.27
   03:19:21.106.09-May-2021 4480.01 6719.01 67.60 12.00  32.41 2964.27
   03:19:21.307.09-May-2021 4480.01 6718.39 67.60 12.00  32.61 2964.27
   03:19:21.507.09-May-2021 4480.01 6717.88 67.60 12.00  32.81 2964.27
   03:19:21.707.09-May-2021 4480.01 6717.59 67.60 12.00  33.01 2964.27
   03:19:21.907.09-May-2021 4480.01 6717.59 67.60 12.00  33.21 2964.27
   03:19:22.107.09-May-2021 4480.01 6717.34 67.60 12.00  33.41 2964.27
   03:19:22.307.09-May-2021 4480.01 6717.43 67.60 12.00  33.61 2964.27
   03:19:22.507.09-May-2021 4480.01 6717.47 67.60 12.00  33.81 2964.27
   03:19:22.707.09-May-2021 4480.01 6717.73 67.60 12.00  34.01 2964.27
   03:19:22.907.09-May-2021 4480.01 6717.73 67.60 12.00  34.21 2964.27
   03:19:23.107.09-May-2021 4480.01 6721.38 67.60 12.00  34.41 2964.27
   03:19:23.307.09-May-2021 4480.01 6727.37 67.60 12.00  34.61 2964.27
   03:19:23.507.09-May-2021 4480.01 6718.82 67.60 12.00  34.81 2964.27
   03:19:23.707.09-May-2021 4480.01 6732.32 67.60 12.00  35.01 2964.27
   03:19:23.907.09-May-2021 4480.01 6732.32 67.60 12.00  35.21 2964.27
   03:19:24.107.09-May-2021 4480.01 6694.05 67.60 12.00  35.41 2964.27
   03:19:24.307.09-May-2021 4480.01 6858.42 67.60 12.00  35.61 2964.27
   03:19:24.507.09-May-2021 4480.01 7023.46 67.60 12.00  35.81 2964.27
   03:19:24.707.09-May-2021 4480.01 7063.72 67.60 12.00  36.01 2964.27
   03:19:24.907.09-May-2021 4480.01 7063.72 67.60 12.00  36.21 2964.27
   03:19:25.107.09-May-2021 4480.01 7068.08 67.60 12.00  36.41 2964.27
   03:19:25.307.09-May-2021 4480.01 7082.27 67.60 12.00  36.61 2964.27
   03:19:25.507.09-May-2021 4480.01 7074.32 67.60 12.00  36.81 2964.27
   03:19:25.707.09-May-2021 4480.01 7071.66 67.60 12.00  37.01 2964.27
   03:19:25.907.09-May-2021 4480.01 7071.66 67.60 12.00  37.21 2964.27
   03:19:26.107.09-May-2021 4480.01 7079.47 67.60 12.00  37.41 2964.27
   03:19:26.307.09-May-2021 4480.01 7096.75 67.60 12.00  37.61 2964.27
   03:19:26.507.09-May-2021 4480.01 7093.63 67.60 12.00  37.81 2964.27
   03:19:26.707.09-May-2021 4480.01 7070.24 67.60 12.00  38.01 2964.27
   03:19:26.907.09-May-2021 4480.01 7070.24 67.60 12.00  38.21 2964.27
   03:19:27.107.09-May-2021 4480.01 6994.46 67.60 12.00  38.41 2964.27
   03:19:27.308.09-May-2021 4480.01 6966.43 67.60 12.00  38.61 2964.27
   03:19:27.508.09-May-2021 4480.01 6943.08 67.60 12.00  38.81 2964.27
   03:19:27.708.09-May-2021 4480.01 6921.37 67.60 12.00  39.01 2964.27
   03:19:27.908.09-May-2021 4480.01 6921.37 67.60 12.00  39.21 2964.27
   03:19:28.108.09-May-2021 4480.01 6884.06 67.60 12.00  39.41 2964.27
   03:19:28.308.09-May-2021 4480.01 6867.74 67.60 12.00  39.61 2964.27
   03:19:28.508.09-May-2021 4480.01 6852.04 67.60 12.00  39.81 2964.27
   03:19:28.708.09-May-2021 4480.01 6840.73 67.60 12.00  40.01 2964.27
   03:19:28.908.09-May-2021 4480.01 6840.73 67.60 12.00  40.21 2964.27
   03:19:29.108.09-May-2021 4480.01 6814.99 67.60 12.00  40.41 2964.27
   03:19:29.308.09-May-2021 4480.01 6804.52 67.60 12.00  40.61 2964.27
   03:19:29.508.09-May-2021 4480.01 6796.22 67.60 12.00  40.81 2964.27
   03:19:29.708.09-May-2021 4480.01 6792.71 67.60 12.00  41.01 2964.27
   03:19:29.908.09-May-2021 4480.01 6792.71 67.60 12.00  41.21 2964.27
   03:19:30.108.09-May-2021 4480.01 6809.31 67.60 12.00  41.41 2964.27
   03:19:30.308.09-May-2021 4480.01 6815.56 67.60 12.00  41.61 2964.27
   03:19:30.508.09-May-2021 4480.01 6820.79 67.60 12.00  41.81 2964.27
   03:19:30.708.09-May-2021 4480.01 6825.88 67.60 12.00  42.01 2964.27
   03:19:30.908.09-May-2021 4480.01 6825.88 67.60 12.00  42.21 2964.27
   03:19:31.108.09-May-2021 4480.01 6637.16 67.60 12.00  42.41 2964.27
   03:19:31.308.09-May-2021 4480.01 6527.05 67.60 12.00  42.61 2964.27
   03:19:31.508.09-May-2021 4480.01 6328.32 67.60 12.00  42.81 2964.27
   03:19:31.708.09-May-2021 4480.01 5869.75 67.60 12.00  43.01 2964.27
   03:19:31.908.09-May-2021 4480.01 5869.75 67.60 12.00  43.21 2964.27
   03:19:32.108.09-May-2021 4480.01 4693.22 67.60 12.00  43.41 2964.27
   03:19:32.308.09-May-2021 4480.01 4498.82 67.60 12.00  43.61 2964.27
   03:19:32.508.09-May-2021 4480.01 4296.38 67.60 12.00  43.81 2964.27
   03:19:32.708.09-May-2021 4480.01 4190.77 67.60 12.00  44.01 2964.27
   03:19:32.908.09-May-2021 4480.01 4190.77 67.60 12.00  44.21 2964.27
   03:19:33.109.09-May-2021 4480.01 4104.10 67.60 12.00  44.41 2964.27
   03:19:33.309.09-May-2021 4480.01 4029.36 67.60 12.00  44.61 2964.27
   03:19:33.509.09-May-2021 4480.01 4030.05 67.59 12.00  44.81 2964.27
   03:19:33.709.09-May-2021 4480.01 4030.13 67.59 12.00  45.01 2964.27
