~Version Information
 VERS.                  2.0:   CWLS log ASCII Standard -VERSION 2.0
 WRAP.                   NO:   One line per depth step
~Well Information Block
#MNEM.UNIT     VALUE/NAME     DESCRIPTION
#---------     -----------    ---------------------------
 STRT.S             20:19:26 08-May-21: START TIME 20:19:26 08-May-21
 STOP.S             20:26:06 08-May-21: STOP TIME  20:26:06 08-May-21
 STEP.S                   0.00: STEP TIME
 NULL.                 -999.25: NULL VALUE
 PROV.                    Baku:  PROVINCE
 STAT.                    Baku:  STATE NAME
 SON .        AZ-XX-0906571588:  JOB NUMBER
 WTYP.                Deviated:  WELL TYPE
 COMP.     BP Exploration (Caspian Sea) ltd:  COMPANY
 BASE.              Azerbaijan:  LOGGING EQUIPMENT BASE LOCATION
 REGN.                   EESSA:  REGION
 CTRY.              Azerbaijan:  COUNTRY NAME
 FLD .                     ACG:  FIELD NAME
 WELL.                     J28:  WELL NAME
 RIG .             West Chirag:  RIG NAME
 DMF .             Drill Floor:  DRILL MEAS FROM
 PDAT.       Caspian Sea Level:  PERMANENT DATUM
 HPTY.       Minimum Curvature:  HOLE POS TYPE
 MDS .        Operator Entered:  MAG DATA SOURCE
 NREF.                    Grid:  NORTH REFERENCE
 SRVC.          TURAN DRILLING:  CONTRACTOR
 JOBN.        AZ-XX-0906571588:  JOB TICKET NUMB
 DCON.     Halliburton Sperry Drilling:  DIRECTNL CONTR
 STIM.      00.44.00 11-Feb-21:  START TIME
 DATE.      00.00.00 05-May-21:  END TIME
 SPUD.               13-Feb-21:  SPUD DATE
 MWDS.                    Baku:  MWD SHOP
 DOE .                     N/A:  DOE NUMBER
 UNIT.                     N/A:  LOGGING EQUIPMENT ID
 UWI .                     N/A:  UNIQUE WELL IDENTIFIER
 API .                     N/A:  API NUMBER
 CNTY.                        :  COUNTY
 LOC .                        :  LOCATION
 LMF .             Drill Floor:  LOG MEASURED FROM
 TVDS.m                  43.00:  TVDSS CORRECTN
 SDEP.m                 341.00:  START DEPTH
 EGL .m                   0.00:  GROUND ELEVATION
 WDMS.m                 169.80:  WD ELEV
 AGAP.m                  43.00:  AIR GAP
 EPD .m                   0.00:  ELEVATION
 APD .m                  43.00:  DEPTH ABOVE PD
 LATI.deg                40.13:  LATITUDE
 LONG.deg                51.22:  LONGITUDE
 UTMY.m             4443793.85:  UTM Y
 UTMX.m              519005.06:  UTM X
 WHEW.m                 -11.57:  WELL HEAD E/W
 WHNS.m                   8.57:  WELL HEAD N/S
 VSEW.m                 -11.57:  VERT SEC E/W
 VSNS.m                   8.57:  VERT SEC N/S
 DFWL.m                   0.00:  DISTANCE FWL
 DFSL.m                   0.00:  DISTANCE FSL
 VSDR.deg               299.34:  VERT SEC DIRECT
 GVFD.g                   1.00:  GRAVITY FIELD
 AZTC.deg                 6.36:  AZM TOTAL CORR
 MFLD.nT              50391.00:  MAGNETIC FIELD
 MDIP.deg                59.65:  MAGNETIC DIP
 MDEC.deg                 6.48:  MAGNETIC DECL
 GRDC.deg                 0.12:  GRID CORRECTION
 DEP .m                 334.96:  DEPTH
 TDD .m                1407.26:  TOTAL DEPTH (DRILLER)
 EKB .m                  43.00:  KB ELEVATION
 EDF .m                  43.00:  DF ELEVATION
 TDL .m                 228.00:  TOTAL DEPTH (LOGGER)
 VSC .                       0:  VS TO CLOSURE
 MAGU.                 1854484:  MAGUTM CHECKSUM
~Parameter Information Block
#MNEM.UNIT       Value        Description
#---------     -----------    ---------------------------
 AV  .mps                 4.00:  Ann Velocity 
 AVMX.mps                 4.73:  Max Ann Veloc 
 AZIF.deg               304.48:  Azm, Final 
 BHAT.        Rotary Steerable:  BHA Type 
 BREV.rev            257300.00:  Rev Bit Total 
 BROT.°/30m               0.00:  Build Rotating 
 BS  .in                  8.50:  Bit Size 
 BSZ .in                  8.50:  Bit Size 
 BTPL.psig              589.00:  Bit Press Loss 
 CABU.                      No:  Customer Abuse 
 CGEO.          Mubariz ghayev:  Customer Geo 
 COMM.                     $w`:  Run Comments 1 
 TCS .hr                 64.25:  Time Ciculation Ended 
 CV  .mps                 3.50:  Crit Velocity 
 CVMX.mps                 4.52:  Max Crit Veloc 
 DD1 .             Aziz Aliyev:  Direct Drillr 1 
 DD2 .         Intigam Rahimov:  Direct Drillr 2 
 DD3 .          Rashad Habibov:  Direct Drillr 3 
 DDSV.               Geo-Pilot:  DD Service 
 DEFF.%                  98.00:  % Det Eff 
 DLRX.°/30m               0.00:  Dogleg Rot Max 
 DLSO.°/30m               0.00:  Dogleg Oriented 
 DLSX.°/30m               0.00:  Dogleg Str Max 
 DRET.      10.45.04 08-May-21:  Drill End Time 
 DRST.      03.30.04 04-May-21:  Drill Start Tim 
 DTIM.hr                 14.97:  Time Drilling 
 EDEP.m                4640.01:  End Depth 
 ENG1.         Dail Mahammadov:  Engineer 1 
 ENG2.           Eldar Hajiyev:  Engineer 2 
 ENG3.       Bakhtiar Jabbarli:  Engineer 3 
 ENG4.       Natik Hasanagayev:  Engineer 4 
 ETIM.      09.30.04 14-May-21:  End Time 
 FLOI.gpm               460.00:  Flow In 
 FLON.gpm               200.00:  Flow In Min 
 FLOS.cptm                0.00:  Fluid Loss 
 FLOX.gpm               505.00:  Flow In Max 
 HFLO.                      No:  High Flow 
 HPRE.                      No:  High Pressure 
 HTEM.                      No:  High Temp 
 HYDO.m                   1.80:  Hydro Offset 
 IFIN.deg                66.71:  Inc, Final 
 IMAX.deg                67.03:  Inc Max 
 IMIN.deg                66.63:  Inc Min 
 IMND.m                4550.58:  Inc Min Depth 
 IMXD.m                4439.01:  Inc Max Depth 
 JARR.                      No:  Jarring 
 LETM.      10.45.04 08-May-21:  Log End Time 
 LOST.hr                     0:  Lost Rig Time 
 LSTM.      03.30.04 04-May-21:  Log Start Time 
 MDCL.ppm             37000.00:  Mud Chlorides 
 MDES.     Inversion Oil/Synthetic:  Mud Desc 
 DFD .sg                  1.38:  Mud Density 
 MDMN.sg                  1.35:  Dens Mud Min 
 MDMX.sg                  1.40:  Dens Mud Max 
 MOIL.                   57.40:  Run Mud Oil % 
 MOWR.                   70:30:  Run Mud OWR 
 MSND.                    0.00:  Run Mud Sand % 
 MSOL.                   18.00:  Run Mud Solids% 
 DFV .spqt               71.00:  Mud Viscosity 
 MWOD.in                  6.75:  MWD Tool OD 
 MWSI.                      No:  Serv Intrp, MWD 
 OTIM.hr                242.76:  Time Operating 
 PCON.           Look Like New:  Pad Condition 
 PMAX.psia            12183.92:  Press Op, Max 
 PV  .cP                 27.00:  Mud PV 
 RUN .                    1300:  Run Number 
 ROPA.m/hr               15.00:  ROP Avg 
 ROPN.m/hr                9.00:  ROP Min 
 ROPX.m/hr               19.00:  ROP Max 
 RPMA.rpm               120.00:  RPM Surface Avg 
 RPMN.rpm               100.00:  RPM Surface Min 
 RPMX.rpm               120.00:  RPM Surface Max 
 RRUN.                    1300:  Rig Run Number 
 RTIM.hr                  5.00:  Time Reaming 
 SAZI.deg               304.73:  Azm, Start 
 SDEP.m                4412.01:  Start Depth 
 SIDD.                      No:  Serv Intrp, DD 
 SINC.deg                66.82:  Inc, Start 
 SPPA.psig             2800.00:  SPP Avg 
 SPPN.psig             2610.00:  SPP Min 
 SPPX.psig             3100.00:  SPP Max 
 STIM.      03.30.00 04-May-21:  Start Time 
 SVCS.                 DD, MWD:  Services 
 SVER.                    9.20:  Sperry Version 
 TDAT.m                 228.00:  Tot Depth Attmp 
 TDDF.                      No:  Trip for DD 
 TDLG.m                 228.00:  Tot Depth Loggd 
 TFF .                      No:  Trip for Fail 
 TQAA.f-kp               15.00:  Torque Abs Avg 
 TQAN.f-kp               12.00:  Torque Abs Min 
 TQAX.f-kp               22.00:  Torque Abs Max 
 TRRT.°/30m               0.00:  Turn Rotating 
 MRT .                    HCIM:  Maximum Recorded Temperature 
 TTMX.degC               90.20:  Max Tool Temp 
 VS01.                90627813:  Virtual Str1 SN 
 VS02.                90634712:  Virtual Str2 SN 
 VS03.                90643410:  Virtual Str3 SN 
 VS04.                90634712:  Virtual Str4 SN 
 WBMN.klb                 9.00:  WOB Min 
 WITN.        Elmaddin Rahimov:  Customer Rep 
 WITN.         Haytham Mostafa:  Customer Rep 2 
 WOBA.klb                15.00:  WOB Avg 
 WOBX.klb                23.00:  WOB Max 
 YP  .lhf2               29.00:  Yield Point 
~Curve Information Block
#MNEM.UNIT                 API CODE     Curve Description
#---------               -----------    ---------------------------
 TIME.HHMMSS            00 000 000 000:  GT Time & Date
 GTDEPTH.m              00 000 000 000:  GT Depth
 GTPQH.psia             00 000 000 000:  GT HR Quartz Pressure
 GTTQ.degC              00 000 000 000:  GT Quartz Temperature
 GTTN.NONE              00 000 000 000:  GT Test Number
 GTET.sec               00 000 000 000:  GT Elapsed Test Time
 GTTVD.m                00 000 000 000:  GT True Vertical Depth
#Other Information
#
#WARRANTY: Halliburton will use its best efforts to furnish customers with 
#accurate information and interpretations that are part of, and incident to, the services 
#provided.  However, Halliburton cannot and does not warrant the accuracy 
#or correctness of such information and interpretations.  Under no circumstances should any 
#such information or interpretation be relied upon as the sole basis for any drilling, 
#completion, production, or financial decision or any procedure involving any risk to the 
#safety of any drilling venture, drilling rig or its crew or any other third party.  The 
#Customer has full responsibility for all drilling, completion and production operation.  
#Halliburton makes no representations or warranties, either expressed or 
#implied, including, but not limited to, the implied warranties of merchantability or fitness 
#for a particular purpose, with respect to the services rendered.  In no event will 
#Halliburton be liable for failure to obtain any particular results or for 
#any damages, including, but not limited to, indirect, special or consequential damages, 
#resulting from the use of any information or interpretation provided by Halliburton.
#
~A           TIME           GTDEPTH  GTPQH  GTTQ  GTTN  GTET   GTTVD  
# ...
   20:24:02.567.08-May-2021 4592.01 3776.61 69.15 1.00 276.03 3008.50
   20:24:02.767.08-May-2021 4592.01 3776.61 69.15 1.00 276.23 3008.50
   20:24:02.967.08-May-2021 4592.01 3776.54 69.15 1.00 276.43 3008.50
   20:24:03.167.08-May-2021 4592.01 3776.32 69.15 1.00 276.63 3008.50
   20:24:03.367.08-May-2021 4592.01 3776.81 69.15 1.00 276.83 3008.50
   20:24:03.567.08-May-2021 4592.01 3776.38 69.15 1.00 277.03 3008.50
   20:24:03.767.08-May-2021 4592.01 3776.38 69.15 1.00 277.23 3008.50
   20:24:03.967.08-May-2021 4592.01 3776.55 69.15 1.00 277.43 3008.50
   20:24:04.167.08-May-2021 4592.01 3776.49 69.15 1.00 277.63 3008.50
   20:24:04.367.08-May-2021 4592.01 3776.27 69.15 1.00 277.83 3008.50
   20:24:04.567.08-May-2021 4592.01 3776.75 69.15 1.00 278.03 3008.50
   20:24:04.767.08-May-2021 4592.01 3776.75 69.15 1.00 278.23 3008.50
   20:24:04.967.08-May-2021 4592.01 3776.27 69.15 1.00 278.43 3008.50
   20:24:05.167.08-May-2021 4592.01 3776.83 69.15 1.00 278.63 3008.50
   20:24:05.367.08-May-2021 4592.01 3776.15 69.15 1.00 278.83 3008.50
   20:24:05.567.08-May-2021 4592.01 3776.59 69.15 1.00 279.03 3008.50
   20:24:05.767.08-May-2021 4592.01 3776.59 69.15 1.00 279.23 3008.50
   20:24:05.967.08-May-2021 4592.01 3776.72 69.15 1.00 279.43 3008.50
   20:24:06.167.08-May-2021 4592.01 3776.35 69.15 1.00 279.63 3008.50
   20:24:06.367.08-May-2021 4592.01 3776.50 69.15 1.00 279.83 3008.50
   20:24:06.567.08-May-2021 4592.01 3776.44 69.15 1.00 280.03 3008.50
   20:24:06.767.08-May-2021 4592.01 3776.44 69.15 1.00 280.23 3008.50
   20:24:06.967.08-May-2021 4592.01 3776.53 69.15 1.00 280.43 3008.50
   20:24:07.167.08-May-2021 4592.01 3776.44 69.15 1.00 280.63 3008.50
   20:24:07.367.08-May-2021 4592.01 3776.43 69.15 1.00 280.83 3008.50
   20:24:07.567.08-May-2021 4592.01 3776.50 69.15 1.00 281.03 3008.50
   20:24:07.767.08-May-2021 4592.01 3776.50 69.15 1.00 281.23 3008.50
   20:24:07.967.08-May-2021 4592.01 3776.52 69.15 1.00 281.43 3008.50
   20:24:08.167.08-May-2021 4592.01 3776.43 69.15 1.00 281.63 3008.50
   20:24:08.367.08-May-2021 4592.01 3776.48 69.15 1.00 281.83 3008.50
   20:24:08.567.08-May-2021 4592.01 3776.28 69.15 1.00 282.03 3008.50
   20:24:08.767.08-May-2021 4592.01 3776.28 69.15 1.00 282.23 3008.50
   20:24:08.967.08-May-2021 4592.01 3776.29 69.15 1.00 282.43 3008.50
   20:24:09.167.08-May-2021 4592.01 3776.54 69.15 1.00 282.63 3008.50
   20:24:09.367.08-May-2021 4592.01 3776.32 69.15 1.00 282.83 3008.50
   20:24:09.567.08-May-2021 4592.01 3776.49 69.15 1.00 283.03 3008.50
   20:24:09.767.08-May-2021 4592.01 3776.49 69.15 1.00 283.23 3008.50
   20:24:09.967.08-May-2021 4592.01 3776.42 69.15 1.00 283.43 3008.50
   20:24:10.167.08-May-2021 4592.01 3776.48 69.15 1.00 283.63 3008.50
   20:24:10.367.08-May-2021 4592.01 3776.29 69.15 1.00 283.83 3008.50
   20:24:10.567.08-May-2021 4592.01 3776.53 69.15 1.00 284.03 3008.50
   20:24:10.767.08-May-2021 4592.01 3776.53 69.15 1.00 284.23 3008.50
   20:24:10.967.08-May-2021 4592.01 3776.52 69.15 1.00 284.43 3008.50
   20:24:11.167.08-May-2021 4592.01 3776.27 69.15 1.00 284.63 3008.50
   20:24:11.367.08-May-2021 4592.01 3776.73 69.15 1.00 284.83 3008.50
   20:24:11.567.08-May-2021 4592.01 3776.40 69.15 1.00 285.03 3008.50
   20:24:11.768.08-May-2021 4592.01 3776.40 69.15 1.00 285.23 3008.50
   20:24:11.968.08-May-2021 4592.01 3776.30 69.15 1.00 285.43 3008.50
   20:24:12.168.08-May-2021 4592.01 3776.58 69.15 1.00 285.63 3008.50
   20:24:12.368.08-May-2021 4592.01 3776.35 69.15 1.00 285.83 3008.50
   20:24:12.568.08-May-2021 4592.01 3776.53 69.15 1.00 286.03 3008.50
   20:24:12.768.08-May-2021 4592.01 3776.53 69.15 1.00 286.23 3008.50
   20:24:12.968.08-May-2021 4592.01 3776.40 69.15 1.00 286.43 3008.50
   20:24:13.168.08-May-2021 4592.01 3776.50 69.15 1.00 286.63 3008.50
   20:24:13.368.08-May-2021 4592.01 3776.29 69.15 1.00 286.83 3008.50
   20:24:13.568.08-May-2021 4592.01 3776.53 69.15 1.00 287.03 3008.50
   20:24:13.768.08-May-2021 4592.01 3776.53 69.15 1.00 287.23 3008.50
   20:24:13.968.08-May-2021 4592.01 3776.72 69.15 1.00 287.43 3008.50
   20:24:14.168.08-May-2021 4592.01 3776.20 69.15 1.00 287.63 3008.50
   20:24:14.368.08-May-2021 4592.01 3776.45 69.15 1.00 287.83 3008.50
   20:24:14.568.08-May-2021 4592.01 3776.35 69.15 1.00 288.03 3008.50
   20:24:14.768.08-May-2021 4592.01 3776.35 69.15 1.00 288.23 3008.50
   20:24:14.968.08-May-2021 4592.01 3776.43 69.15 1.00 288.43 3008.50
   20:24:15.168.08-May-2021 4592.01 3776.41 69.15 1.00 288.63 3008.50
   20:24:15.368.08-May-2021 4592.01 3776.36 69.15 1.00 288.83 3008.50
   20:24:15.568.08-May-2021 4592.01 3776.53 69.15 1.00 289.03 3008.50
   20:24:15.768.08-May-2021 4592.01 3776.53 69.15 1.00 289.23 3008.50
   20:24:15.968.08-May-2021 4592.01 3776.48 69.14 1.00 289.43 3008.50
   20:24:16.168.08-May-2021 4592.01 3776.42 69.14 1.00 289.63 3008.50
   20:24:16.368.08-May-2021 4592.01 3776.36 69.14 1.00 289.83 3008.50
   20:24:16.568.08-May-2021 4592.01 3776.40 69.14 1.00 290.03 3008.50
   20:24:16.768.08-May-2021 4592.01 3776.40 69.14 1.00 290.23 3008.50
   20:24:16.968.08-May-2021 4592.01 3776.65 69.14 1.00 290.43 3008.50
   20:24:17.168.08-May-2021 4592.01 3776.49 69.14 1.00 290.63 3008.50
   20:24:17.368.08-May-2021 4592.01 3776.30 69.14 1.00 290.83 3008.50
   20:24:17.568.08-May-2021 4592.01 3776.35 69.14 1.00 291.03 3008.50
   20:24:17.768.08-May-2021 4592.01 3776.35 69.14 1.00 291.23 3008.50
   20:24:17.968.08-May-2021 4592.01 3776.33 69.14 1.00 291.43 3008.50
   20:24:18.168.08-May-2021 4592.01 3776.46 69.14 1.00 291.63 3008.50
   20:24:18.368.08-May-2021 4592.01 3776.31 69.14 1.00 291.83 3008.50
   20:24:18.568.08-May-2021 4592.01 3776.44 69.14 1.00 292.03 3008.50
   20:24:18.768.08-May-2021 4592.01 3776.44 69.14 1.00 292.23 3008.50
   20:24:18.968.08-May-2021 4592.01 3776.32 69.14 1.00 292.43 3008.50
   20:24:19.168.08-May-2021 4592.01 3776.39 69.14 1.00 292.63 3008.50
   20:24:19.368.08-May-2021 4592.01 3776.61 69.14 1.00 292.83 3008.50
   20:24:19.568.08-May-2021 4592.01 3776.30 69.14 1.00 293.03 3008.50
   20:24:19.768.08-May-2021 4592.01 3776.30 69.14 1.00 293.23 3008.50
   20:24:19.968.08-May-2021 4592.01 3776.18 69.14 1.00 293.43 3008.50
   20:24:20.168.08-May-2021 4592.01 3776.59 69.14 1.00 293.63 3008.50
   20:24:20.368.08-May-2021 4592.01 3776.20 69.14 1.00 293.83 3008.50
   20:24:20.568.08-May-2021 4592.01 3776.63 69.14 1.00 294.03 3008.50
   20:24:20.768.08-May-2021 4592.01 3776.63 69.14 1.00 294.23 3008.50
   20:24:20.968.08-May-2021 4592.01 3776.37 69.14 1.00 294.43 3008.50
   20:24:21.168.08-May-2021 4592.01 3776.66 69.14 1.00 294.63 3008.50
   20:24:21.369.08-May-2021 4592.01 3776.00 69.14 1.00 294.83 3008.50
   20:24:21.569.08-May-2021 4592.01 3776.63 69.14 1.00 295.03 3008.50
   20:24:21.769.08-May-2021 4592.01 3776.63 69.14 1.00 295.23 3008.50
   20:24:21.969.08-May-2021 4592.01 3776.71 69.14 1.00 295.43 3008.50
   20:24:22.169.08-May-2021 4592.01 3776.15 69.14 1.00 295.63 3008.50
   20:24:22.369.08-May-2021 4592.01 3776.40 69.14 1.00 295.83 3008.50
   20:24:22.569.08-May-2021 4592.01 3776.34 69.14 1.00 296.03 3008.50
   20:24:22.769.08-May-2021 4592.01 3776.34 69.14 1.00 296.23 3008.50
   20:24:22.969.08-May-2021 4592.01 3776.29 69.14 1.00 296.43 3008.50
   20:24:23.169.08-May-2021 4592.01 3776.45 69.14 1.00 296.63 3008.50
   20:24:23.369.08-May-2021 4592.01 3776.31 69.14 1.00 296.83 3008.50
   20:24:23.569.08-May-2021 4592.01 3776.47 69.14 1.00 297.03 3008.50
   20:24:23.769.08-May-2021 4592.01 3776.47 69.14 1.00 297.23 3008.50
   20:24:23.969.08-May-2021 4592.01 3776.44 69.14 1.00 297.43 3008.50
   20:24:24.169.08-May-2021 4592.01 3776.35 69.14 1.00 297.63 3008.50
   20:24:24.369.08-May-2021 4592.01 3776.41 69.14 1.00 297.83 3008.50
   20:24:24.569.08-May-2021 4592.01 3776.20 69.14 1.00 298.03 3008.50
   20:24:24.769.08-May-2021 4592.01 3776.20 69.14 1.00 298.23 3008.50
   20:24:24.969.08-May-2021 4592.01 3776.30 69.14 1.00 298.43 3008.50
   20:24:25.169.08-May-2021 4592.01 3776.44 69.14 1.00 298.63 3008.50
   20:24:25.369.08-May-2021 4592.01 3776.17 69.14 1.00 298.83 3008.50
