~Version Information
 VERS.                  2.0:   CWLS log ASCII Standard -VERSION 2.0
 WRAP.                   NO:   One line per depth step
~Well Information Block
#MNEM.UNIT     VALUE/NAME     DESCRIPTION
#---------     -----------    ---------------------------
 STRT.S             21:53:52 08-May-21: START TIME 21:53:52 08-May-21
 STOP.S             22:00:27 08-May-21: STOP TIME  22:00:27 08-May-21
 STEP.S                   0.00: STEP TIME
 NULL.                 -999.25: NULL VALUE
 PROV.                    Baku:  PROVINCE
 STAT.                    Baku:  STATE NAME
 SON .        AZ-XX-0906571588:  JOB NUMBER
 WTYP.                Deviated:  WELL TYPE
 COMP.     BP Exploration (Caspian Sea) ltd:  COMPANY
 BASE.              Azerbaijan:  LOGGING EQUIPMENT BASE LOCATION
 REGN.                   EESSA:  REGION
 CTRY.              Azerbaijan:  COUNTRY NAME
 FLD .                     ACG:  FIELD NAME
 WELL.                     J28:  WELL NAME
 RIG .             West Chirag:  RIG NAME
 DMF .             Drill Floor:  DRILL MEAS FROM
 PDAT.       Caspian Sea Level:  PERMANENT DATUM
 HPTY.       Minimum Curvature:  HOLE POS TYPE
 MDS .        Operator Entered:  MAG DATA SOURCE
 NREF.                    Grid:  NORTH REFERENCE
 SRVC.          TURAN DRILLING:  CONTRACTOR
 JOBN.        AZ-XX-0906571588:  JOB TICKET NUMB
 DCON.     Halliburton Sperry Drilling:  DIRECTNL CONTR
 STIM.      00.44.00 11-Feb-21:  START TIME
 DATE.      00.00.00 05-May-21:  END TIME
 SPUD.               13-Feb-21:  SPUD DATE
 MWDS.                    Baku:  MWD SHOP
 DOE .                     N/A:  DOE NUMBER
 UNIT.                     N/A:  LOGGING EQUIPMENT ID
 UWI .                     N/A:  UNIQUE WELL IDENTIFIER
 API .                     N/A:  API NUMBER
 CNTY.                        :  COUNTY
 LOC .                        :  LOCATION
 LMF .             Drill Floor:  LOG MEASURED FROM
 TVDS.m                  43.00:  TVDSS CORRECTN
 SDEP.m                 341.00:  START DEPTH
 EGL .m                   0.00:  GROUND ELEVATION
 WDMS.m                 169.80:  WD ELEV
 AGAP.m                  43.00:  AIR GAP
 EPD .m                   0.00:  ELEVATION
 APD .m                  43.00:  DEPTH ABOVE PD
 LATI.deg                40.13:  LATITUDE
 LONG.deg                51.22:  LONGITUDE
 UTMY.m             4443793.85:  UTM Y
 UTMX.m              519005.06:  UTM X
 WHEW.m                 -11.57:  WELL HEAD E/W
 WHNS.m                   8.57:  WELL HEAD N/S
 VSEW.m                 -11.57:  VERT SEC E/W
 VSNS.m                   8.57:  VERT SEC N/S
 DFWL.m                   0.00:  DISTANCE FWL
 DFSL.m                   0.00:  DISTANCE FSL
 VSDR.deg               299.34:  VERT SEC DIRECT
 GVFD.g                   1.00:  GRAVITY FIELD
 AZTC.deg                 6.36:  AZM TOTAL CORR
 MFLD.nT              50391.00:  MAGNETIC FIELD
 MDIP.deg                59.65:  MAGNETIC DIP
 MDEC.deg                 6.48:  MAGNETIC DECL
 GRDC.deg                 0.12:  GRID CORRECTION
 DEP .m                 334.96:  DEPTH
 TDD .m                1407.26:  TOTAL DEPTH (DRILLER)
 EKB .m                  43.00:  KB ELEVATION
 EDF .m                  43.00:  DF ELEVATION
 TDL .m                 228.00:  TOTAL DEPTH (LOGGER)
 VSC .                       0:  VS TO CLOSURE
 MAGU.                 1854484:  MAGUTM CHECKSUM
~Parameter Information Block
#MNEM.UNIT       Value        Description
#---------     -----------    ---------------------------
 AV  .mps                 4.00:  Ann Velocity 
 AVMX.mps                 4.73:  Max Ann Veloc 
 AZIF.deg               304.48:  Azm, Final 
 BHAT.        Rotary Steerable:  BHA Type 
 BREV.rev            257300.00:  Rev Bit Total 
 BROT.°/30m               0.00:  Build Rotating 
 BS  .in                  8.50:  Bit Size 
 BSZ .in                  8.50:  Bit Size 
 BTPL.psig              589.00:  Bit Press Loss 
 CABU.                      No:  Customer Abuse 
 CGEO.          Mubariz ghayev:  Customer Geo 
 COMM.                     ¤=s:  Run Comments 1 
 TCS .hr                 64.25:  Time Ciculation Ended 
 CV  .mps                 3.50:  Crit Velocity 
 CVMX.mps                 4.52:  Max Crit Veloc 
 DD1 .             Aziz Aliyev:  Direct Drillr 1 
 DD2 .         Intigam Rahimov:  Direct Drillr 2 
 DD3 .          Rashad Habibov:  Direct Drillr 3 
 DDSV.               Geo-Pilot:  DD Service 
 DEFF.%                  98.00:  % Det Eff 
 DLRX.°/30m               0.00:  Dogleg Rot Max 
 DLSO.°/30m               0.00:  Dogleg Oriented 
 DLSX.°/30m               0.00:  Dogleg Str Max 
 DRET.      10.45.04 08-May-21:  Drill End Time 
 DRST.      03.30.04 04-May-21:  Drill Start Tim 
 DTIM.hr                 14.97:  Time Drilling 
 EDEP.m                4640.01:  End Depth 
 ENG1.         Dail Mahammadov:  Engineer 1 
 ENG2.           Eldar Hajiyev:  Engineer 2 
 ENG3.       Bakhtiar Jabbarli:  Engineer 3 
 ENG4.       Natik Hasanagayev:  Engineer 4 
 ETIM.      09.30.04 14-May-21:  End Time 
 FLOI.gpm               460.00:  Flow In 
 FLON.gpm               200.00:  Flow In Min 
 FLOS.cptm                0.00:  Fluid Loss 
 FLOX.gpm               505.00:  Flow In Max 
 HFLO.                      No:  High Flow 
 HPRE.                      No:  High Pressure 
 HTEM.                      No:  High Temp 
 HYDO.m                   1.80:  Hydro Offset 
 IFIN.deg                66.71:  Inc, Final 
 IMAX.deg                67.03:  Inc Max 
 IMIN.deg                66.63:  Inc Min 
 IMND.m                4550.58:  Inc Min Depth 
 IMXD.m                4439.01:  Inc Max Depth 
 JARR.                      No:  Jarring 
 LETM.      10.45.04 08-May-21:  Log End Time 
 LOST.hr                     0:  Lost Rig Time 
 LSTM.      03.30.04 04-May-21:  Log Start Time 
 MDCL.ppm             37000.00:  Mud Chlorides 
 MDES.     Inversion Oil/Synthetic:  Mud Desc 
 DFD .sg                  1.38:  Mud Density 
 MDMN.sg                  1.35:  Dens Mud Min 
 MDMX.sg                  1.40:  Dens Mud Max 
 MOIL.                   57.40:  Run Mud Oil % 
 MOWR.                   70:30:  Run Mud OWR 
 MSND.                    0.00:  Run Mud Sand % 
 MSOL.                   18.00:  Run Mud Solids% 
 DFV .spqt               71.00:  Mud Viscosity 
 MWOD.in                  6.75:  MWD Tool OD 
 MWSI.                      No:  Serv Intrp, MWD 
 OTIM.hr                242.76:  Time Operating 
 PCON.           Look Like New:  Pad Condition 
 PMAX.psia            12183.92:  Press Op, Max 
 PV  .cP                 27.00:  Mud PV 
 RUN .                    1300:  Run Number 
 ROPA.m/hr               15.00:  ROP Avg 
 ROPN.m/hr                9.00:  ROP Min 
 ROPX.m/hr               19.00:  ROP Max 
 RPMA.rpm               120.00:  RPM Surface Avg 
 RPMN.rpm               100.00:  RPM Surface Min 
 RPMX.rpm               120.00:  RPM Surface Max 
 RRUN.                    1300:  Rig Run Number 
 RTIM.hr                  5.00:  Time Reaming 
 SAZI.deg               304.73:  Azm, Start 
 SDEP.m                4412.01:  Start Depth 
 SIDD.                      No:  Serv Intrp, DD 
 SINC.deg                66.82:  Inc, Start 
 SPPA.psig             2800.00:  SPP Avg 
 SPPN.psig             2610.00:  SPP Min 
 SPPX.psig             3100.00:  SPP Max 
 STIM.      03.30.00 04-May-21:  Start Time 
 SVCS.                 DD, MWD:  Services 
 SVER.                    9.20:  Sperry Version 
 TDAT.m                 228.00:  Tot Depth Attmp 
 TDDF.                      No:  Trip for DD 
 TDLG.m                 228.00:  Tot Depth Loggd 
 TFF .                      No:  Trip for Fail 
 TQAA.f-kp               15.00:  Torque Abs Avg 
 TQAN.f-kp               12.00:  Torque Abs Min 
 TQAX.f-kp               22.00:  Torque Abs Max 
 TRRT.°/30m               0.00:  Turn Rotating 
 MRT .                    HCIM:  Maximum Recorded Temperature 
 TTMX.degC               90.20:  Max Tool Temp 
 VS01.                90627813:  Virtual Str1 SN 
 VS02.                90634712:  Virtual Str2 SN 
 VS03.                90643410:  Virtual Str3 SN 
 VS04.                90634712:  Virtual Str4 SN 
 WBMN.klb                 9.00:  WOB Min 
 WITN.        Elmaddin Rahimov:  Customer Rep 
 WITN.         Haytham Mostafa:  Customer Rep 2 
 WOBA.klb                15.00:  WOB Avg 
 WOBX.klb                23.00:  WOB Max 
 YP  .lhf2               29.00:  Yield Point 
~Curve Information Block
#MNEM.UNIT                 API CODE     Curve Description
#---------               -----------    ---------------------------
 TIME.HHMMSS            00 000 000 000:  GT Time & Date
 GTDEPTH.m              00 000 000 000:  GT Depth
 GTPQH.psia             00 000 000 000:  GT HR Quartz Pressure
 GTTQ.degC              00 000 000 000:  GT Quartz Temperature
 GTTN.NONE              00 000 000 000:  GT Test Number
 GTET.sec               00 000 000 000:  GT Elapsed Test Time
 GTTVD.m                00 000 000 000:  GT True Vertical Depth
#Other Information
#
#WARRANTY: Halliburton will use its best efforts to furnish customers with 
#accurate information and interpretations that are part of, and incident to, the services 
#provided.  However, Halliburton cannot and does not warrant the accuracy 
#or correctness of such information and interpretations.  Under no circumstances should any 
#such information or interpretation be relied upon as the sole basis for any drilling, 
#completion, production, or financial decision or any procedure involving any risk to the 
#safety of any drilling venture, drilling rig or its crew or any other third party.  The 
#Customer has full responsibility for all drilling, completion and production operation.  
#Halliburton makes no representations or warranties, either expressed or 
#implied, including, but not limited to, the implied warranties of merchantability or fitness 
#for a particular purpose, with respect to the services rendered.  In no event will 
#Halliburton be liable for failure to obtain any particular results or for 
#any damages, including, but not limited to, indirect, special or consequential damages, 
#resulting from the use of any information or interpretation provided by Halliburton.
#
~A           TIME           GTDEPTH  GTPQH  GTTQ  GTTN  GTET   GTTVD  
# ...
   21:54:38.000.08-May-2021 4568.51  668.60 69.02 3.00  46.00 2999.18
   21:54:38.200.08-May-2021 4568.51  668.60 69.02 3.00  46.20 2999.18
   21:54:38.400.08-May-2021 4568.51  662.57 69.01 3.00  46.40 2999.18
   21:54:38.600.08-May-2021 4568.51  664.25 69.01 3.00  46.60 2999.18
   21:54:38.800.08-May-2021 4568.51  666.54 69.01 3.00  46.80 2999.18
   21:54:39.000.08-May-2021 4568.51  668.08 69.00 3.00  47.00 2999.18
   21:54:39.200.08-May-2021 4568.51  668.08 69.00 3.00  47.20 2999.18
   21:54:39.400.08-May-2021 4568.51  669.28 69.00 3.00  47.40 2999.18
   21:54:39.600.08-May-2021 4568.51  671.20 68.99 3.00  47.60 2999.18
   21:54:39.800.08-May-2021 4568.51  672.43 68.99 3.00  47.80 2999.18
   21:54:40.000.08-May-2021 4568.51  673.22 68.99 3.00  48.00 2999.18
   21:54:40.200.08-May-2021 4568.51  673.22 68.99 3.00  48.20 2999.18
   21:54:40.400.08-May-2021 4568.51  676.58 68.98 3.00  48.40 2999.18
   21:54:40.600.08-May-2021 4568.51  688.85 68.98 3.00  48.60 2999.18
   21:54:40.800.08-May-2021 4568.51  667.50 68.98 3.00  48.80 2999.18
   21:54:41.000.08-May-2021 4568.51  658.40 68.98 3.00  49.00 2999.18
   21:54:41.200.08-May-2021 4568.51  658.40 68.98 3.00  49.20 2999.18
   21:54:41.400.08-May-2021 4568.51  657.71 68.97 3.00  49.40 2999.18
   21:54:41.600.08-May-2021 4568.51  668.13 68.97 3.00  49.60 2999.18
   21:54:41.800.08-May-2021 4568.51  660.12 68.97 3.00  49.80 2999.18
   21:54:42.000.08-May-2021 4568.51  666.07 68.97 3.00  50.00 2999.18
   21:54:42.200.08-May-2021 4568.51  666.07 68.97 3.00  50.20 2999.18
   21:54:42.400.08-May-2021 4568.51  675.91 68.96 3.00  50.40 2999.18
   21:54:42.600.08-May-2021 4568.51  677.83 68.96 3.00  50.60 2999.18
   21:54:42.800.08-May-2021 4568.51  679.70 68.96 3.00  50.80 2999.18
   21:54:43.000.08-May-2021 4568.51  681.45 68.96 3.00  51.00 2999.18
   21:54:43.200.08-May-2021 4568.51  681.45 68.96 3.00  51.20 2999.18
   21:54:43.400.08-May-2021 4568.51  685.05 68.96 3.00  51.40 2999.18
   21:54:43.600.08-May-2021 4568.51  686.79 68.96 3.00  51.60 2999.18
   21:54:43.800.08-May-2021 4568.51  688.42 68.95 3.00  51.80 2999.18
   21:54:44.000.08-May-2021 4568.51  690.00 68.95 3.00  52.00 2999.18
   21:54:44.200.08-May-2021 4568.51  690.00 68.95 3.00  52.20 2999.18
   21:54:44.400.08-May-2021 4568.51  692.62 68.95 3.00  52.40 2999.18
   21:54:44.600.08-May-2021 4568.51  694.92 68.95 3.00  52.60 2999.18
   21:54:44.800.08-May-2021 4568.51  695.79 68.95 3.00  52.80 2999.18
   21:54:45.000.08-May-2021 4568.51  697.35 68.95 3.00  53.00 2999.18
   21:54:45.200.08-May-2021 4568.51  697.35 68.95 3.00  53.20 2999.18
   21:54:45.400.08-May-2021 4568.51  700.21 68.95 3.00  53.40 2999.18
   21:54:45.600.08-May-2021 4568.51  701.06 68.95 3.00  53.60 2999.18
   21:54:45.800.08-May-2021 4568.51  703.55 68.95 3.00  53.80 2999.18
   21:54:46.000.08-May-2021 4568.51  704.72 68.95 3.00  54.00 2999.18
   21:54:46.200.08-May-2021 4568.51  704.72 68.95 3.00  54.20 2999.18
   21:54:46.400.08-May-2021 4568.51  707.36 68.94 3.00  54.40 2999.18
   21:54:46.600.08-May-2021 4568.51  708.20 68.94 3.00  54.60 2999.18
   21:54:46.800.08-May-2021 4568.51  709.92 68.94 3.00  54.80 2999.18
   21:54:47.000.08-May-2021 4568.51  710.91 68.94 3.00  55.00 2999.18
   21:54:47.200.08-May-2021 4568.51  710.91 68.94 3.00  55.20 2999.18
   21:54:47.400.08-May-2021 4568.51  713.44 68.94 3.00  55.40 2999.18
   21:54:47.600.08-May-2021 4568.51  714.25 68.94 3.00  55.60 2999.18
   21:54:47.800.08-May-2021 4568.51  715.51 68.94 3.00  55.80 2999.18
   21:54:48.000.08-May-2021 4568.51  716.56 68.94 3.00  56.00 2999.18
   21:54:48.200.08-May-2021 4568.51  716.56 68.94 3.00  56.20 2999.18
   21:54:48.400.08-May-2021 4568.51  718.85 68.94 3.00  56.40 2999.18
   21:54:48.600.08-May-2021 4568.51  719.96 68.94 3.00  56.60 2999.18
   21:54:48.800.08-May-2021 4568.51  721.08 68.94 3.00  56.80 2999.18
   21:54:49.000.08-May-2021 4568.51  722.16 68.94 3.00  57.00 2999.18
   21:54:49.200.08-May-2021 4568.51  722.16 68.94 3.00  57.20 2999.18
   21:54:49.400.08-May-2021 4568.51  724.28 68.94 3.00  57.40 2999.18
   21:54:49.600.08-May-2021 4568.51  725.32 68.94 3.00  57.60 2999.18
   21:54:49.800.08-May-2021 4568.51  725.82 68.94 3.00  57.80 2999.18
   21:54:50.000.08-May-2021 4568.51  748.46 68.94 3.00  58.00 2999.18
   21:54:50.200.08-May-2021 4568.51  748.46 68.94 3.00  58.20 2999.18
   21:54:50.400.08-May-2021 4568.51  758.59 68.94 3.00  58.40 2999.18
   21:54:50.600.08-May-2021 4568.51  759.37 68.94 3.00  58.60 2999.18
   21:54:50.800.08-May-2021 4568.51  760.23 68.94 3.00  58.80 2999.18
   21:54:51.000.08-May-2021 4568.51  761.11 68.94 3.00  59.00 2999.18
   21:54:51.200.08-May-2021 4568.51  761.11 68.94 3.00  59.20 2999.18
   21:54:51.400.08-May-2021 4568.51  762.86 68.94 3.00  59.40 2999.18
   21:54:51.600.08-May-2021 4568.51  763.71 68.94 3.00  59.60 2999.18
   21:54:51.800.08-May-2021 4568.51  764.55 68.94 3.00  59.80 2999.18
   21:54:52.000.08-May-2021 4568.51  765.39 68.94 3.00  60.00 2999.18
   21:54:52.200.08-May-2021 4568.51  765.39 68.94 3.00  60.20 2999.18
   21:54:52.400.08-May-2021 4568.51  766.43 68.94 3.00  60.40 2999.18
   21:54:52.600.08-May-2021 4568.51  767.89 68.94 3.00  60.60 2999.18
   21:54:52.800.08-May-2021 4568.51  768.25 68.94 3.00  60.80 2999.18
   21:54:53.000.08-May-2021 4568.51  769.04 68.94 3.00  61.00 2999.18
   21:54:53.200.08-May-2021 4568.51  769.04 68.94 3.00  61.20 2999.18
   21:54:53.400.08-May-2021 4568.51  769.88 68.94 3.00  61.40 2999.18
   21:54:53.600.08-May-2021 4568.51  771.50 68.94 3.00  61.60 2999.18
   21:54:53.800.08-May-2021 4568.51  771.93 68.94 3.00  61.80 2999.18
   21:54:54.000.08-May-2021 4568.51  772.44 68.94 3.00  62.00 2999.18
   21:54:54.200.08-May-2021 4568.51  772.44 68.94 3.00  62.20 2999.18
   21:54:54.400.08-May-2021 4568.51  774.24 68.94 3.00  62.40 2999.18
   21:54:54.600.08-May-2021 4568.51  774.83 68.94 3.00  62.60 2999.18
   21:54:54.800.08-May-2021 4568.51  775.42 68.94 3.00  62.80 2999.18
   21:54:55.000.08-May-2021 4568.51  776.10 68.94 3.00  63.00 2999.18
   21:54:55.200.08-May-2021 4568.51  776.10 68.94 3.00  63.20 2999.18
   21:54:55.400.08-May-2021 4568.51  777.72 68.94 3.00  63.40 2999.18
   21:54:55.600.08-May-2021 4568.51  777.81 68.94 3.00  63.60 2999.18
   21:54:55.800.08-May-2021 4568.51  778.73 68.94 3.00  63.80 2999.18
   21:54:56.000.08-May-2021 4568.51  779.31 68.94 3.00  64.00 2999.18
   21:54:56.200.08-May-2021 4568.51  779.31 68.94 3.00  64.20 2999.18
   21:54:56.400.08-May-2021 4568.51  780.58 68.94 3.00  64.40 2999.18
   21:54:56.600.08-May-2021 4568.51  781.23 68.94 3.00  64.60 2999.18
   21:54:56.800.08-May-2021 4568.51  781.86 68.94 3.00  64.80 2999.18
   21:54:57.000.08-May-2021 4568.51  782.51 68.94 3.00  65.00 2999.18
   21:54:57.200.08-May-2021 4568.51  782.51 68.94 3.00  65.20 2999.18
   21:54:57.400.08-May-2021 4568.51  783.12 68.94 3.00  65.40 2999.18
   21:54:57.600.08-May-2021 4568.51  784.41 68.95 3.00  65.60 2999.18
   21:54:57.800.08-May-2021 4568.51  784.66 68.95 3.00  65.80 2999.18
   21:54:58.000.08-May-2021 4568.51  785.81 68.95 3.00  66.00 2999.18
   21:54:58.200.08-May-2021 4568.51  785.81 68.95 3.00  66.20 2999.18
   21:54:58.400.08-May-2021 4568.51  786.70 68.95 3.00  66.40 2999.18
   21:54:58.600.08-May-2021 4568.51  787.28 68.95 3.00  66.60 2999.18
   21:54:58.800.08-May-2021 4568.51  787.78 68.95 3.00  66.80 2999.18
   21:54:59.000.08-May-2021 4568.51  788.38 68.95 3.00  67.00 2999.18
   21:54:59.200.08-May-2021 4568.51  788.38 68.95 3.00  67.20 2999.18
   21:54:59.400.08-May-2021 4568.51  789.50 68.95 3.00  67.40 2999.18
   21:54:59.600.08-May-2021 4568.51  790.02 68.95 3.00  67.60 2999.18
   21:54:59.800.08-May-2021 4568.51  790.55 68.95 3.00  67.80 2999.18
   21:55:00.000.08-May-2021 4568.51  791.09 68.95 3.00  68.00 2999.18
   21:55:00.200.08-May-2021 4568.51  791.09 68.95 3.00  68.20 2999.18
   21:55:00.400.08-May-2021 4568.51  792.10 68.95 3.00  68.40 2999.18
   21:55:00.600.08-May-2021 4568.51  792.74 68.95 3.00  68.60 2999.18
   21:55:00.800.08-May-2021 4568.51  793.07 68.95 3.00  68.80 2999.18
