~Version Information
 VERS.                  2.0:   CWLS log ASCII Standard -VERSION 2.0
 WRAP.                   NO:   One line per depth step
~Well Information Block
#MNEM.UNIT     VALUE/NAME     DESCRIPTION
#---------     -----------    ---------------------------
 STRT.S             06:07:29 09-May-21: START TIME 06:07:29 09-May-21
 STOP.S             06:14:06 09-May-21: STOP TIME  06:14:06 09-May-21
 STEP.S                   0.00: STEP TIME
 NULL.                 -999.25: NULL VALUE
 PROV.                    Baku:  PROVINCE
 STAT.                    Baku:  STATE NAME
 SON .        AZ-XX-0906571588:  JOB NUMBER
 WTYP.                Deviated:  WELL TYPE
 COMP.     BP Exploration (Caspian Sea) ltd:  COMPANY
 BASE.              Azerbaijan:  LOGGING EQUIPMENT BASE LOCATION
 REGN.                   EESSA:  REGION
 CTRY.              Azerbaijan:  COUNTRY NAME
 FLD .                     ACG:  FIELD NAME
 WELL.                     J28:  WELL NAME
 RIG .             West Chirag:  RIG NAME
 DMF .             Drill Floor:  DRILL MEAS FROM
 PDAT.       Caspian Sea Level:  PERMANENT DATUM
 HPTY.       Minimum Curvature:  HOLE POS TYPE
 MDS .        Operator Entered:  MAG DATA SOURCE
 NREF.                    Grid:  NORTH REFERENCE
 SRVC.          TURAN DRILLING:  CONTRACTOR
 JOBN.        AZ-XX-0906571588:  JOB TICKET NUMB
 DCON.     Halliburton Sperry Drilling:  DIRECTNL CONTR
 STIM.      00.44.00 11-Feb-21:  START TIME
 DATE.      00.00.00 05-May-21:  END TIME
 SPUD.               13-Feb-21:  SPUD DATE
 MWDS.                    Baku:  MWD SHOP
 DOE .                     N/A:  DOE NUMBER
 UNIT.                     N/A:  LOGGING EQUIPMENT ID
 UWI .                     N/A:  UNIQUE WELL IDENTIFIER
 API .                     N/A:  API NUMBER
 CNTY.                        :  COUNTY
 LOC .                        :  LOCATION
 LMF .             Drill Floor:  LOG MEASURED FROM
 TVDS.m                  43.00:  TVDSS CORRECTN
 SDEP.m                 341.00:  START DEPTH
 EGL .m                   0.00:  GROUND ELEVATION
 WDMS.m                 169.80:  WD ELEV
 AGAP.m                  43.00:  AIR GAP
 EPD .m                   0.00:  ELEVATION
 APD .m                  43.00:  DEPTH ABOVE PD
 LATI.deg                40.13:  LATITUDE
 LONG.deg                51.22:  LONGITUDE
 UTMY.m             4443793.85:  UTM Y
 UTMX.m              519005.06:  UTM X
 WHEW.m                 -11.57:  WELL HEAD E/W
 WHNS.m                   8.57:  WELL HEAD N/S
 VSEW.m                 -11.57:  VERT SEC E/W
 VSNS.m                   8.57:  VERT SEC N/S
 DFWL.m                   0.00:  DISTANCE FWL
 DFSL.m                   0.00:  DISTANCE FSL
 VSDR.deg               299.34:  VERT SEC DIRECT
 GVFD.g                   1.00:  GRAVITY FIELD
 AZTC.deg                 6.36:  AZM TOTAL CORR
 MFLD.nT              50391.00:  MAGNETIC FIELD
 MDIP.deg                59.65:  MAGNETIC DIP
 MDEC.deg                 6.48:  MAGNETIC DECL
 GRDC.deg                 0.12:  GRID CORRECTION
 DEP .m                 334.96:  DEPTH
 TDD .m                1407.26:  TOTAL DEPTH (DRILLER)
 EKB .m                  43.00:  KB ELEVATION
 EDF .m                  43.00:  DF ELEVATION
 TDL .m                 228.00:  TOTAL DEPTH (LOGGER)
 VSC .                       0:  VS TO CLOSURE
 MAGU.                 1854484:  MAGUTM CHECKSUM
~Parameter Information Block
#MNEM.UNIT       Value        Description
#---------     -----------    ---------------------------
 AV  .mps                 4.00:  Ann Velocity 
 AVMX.mps                 4.73:  Max Ann Veloc 
 AZIF.deg               304.48:  Azm, Final 
 BHAT.        Rotary Steerable:  BHA Type 
 BREV.rev            257300.00:  Rev Bit Total 
 BROT.°/30m               0.00:  Build Rotating 
 BS  .in                  8.50:  Bit Size 
 BSZ .in                  8.50:  Bit Size 
 BTPL.psig              589.00:  Bit Press Loss 
 CABU.                      No:  Customer Abuse 
 CGEO.          Mubariz ghayev:  Customer Geo 
 TCS .hr                 64.25:  Time Ciculation Ended 
 CV  .mps                 3.50:  Crit Velocity 
 CVMX.mps                 4.52:  Max Crit Veloc 
 DD1 .             Aziz Aliyev:  Direct Drillr 1 
 DD2 .         Intigam Rahimov:  Direct Drillr 2 
 DD3 .          Rashad Habibov:  Direct Drillr 3 
 DDSV.               Geo-Pilot:  DD Service 
 DEFF.%                  98.00:  % Det Eff 
 DLRX.°/30m               0.00:  Dogleg Rot Max 
 DLSO.°/30m               0.00:  Dogleg Oriented 
 DLSX.°/30m               0.00:  Dogleg Str Max 
 DRET.      10.45.04 08-May-21:  Drill End Time 
 DRST.      03.30.04 04-May-21:  Drill Start Tim 
 DTIM.hr                 14.97:  Time Drilling 
 EDEP.m                4640.01:  End Depth 
 ENG1.         Dail Mahammadov:  Engineer 1 
 ENG2.           Eldar Hajiyev:  Engineer 2 
 ENG3.       Bakhtiar Jabbarli:  Engineer 3 
 ENG4.       Natik Hasanagayev:  Engineer 4 
 ETIM.      09.30.04 14-May-21:  End Time 
 FLOI.gpm               460.00:  Flow In 
 FLON.gpm               200.00:  Flow In Min 
 FLOS.cptm                0.00:  Fluid Loss 
 FLOX.gpm               505.00:  Flow In Max 
 HFLO.                      No:  High Flow 
 HPRE.                      No:  High Pressure 
 HTEM.                      No:  High Temp 
 HYDO.m                   1.80:  Hydro Offset 
 IFIN.deg                66.71:  Inc, Final 
 IMAX.deg                67.03:  Inc Max 
 IMIN.deg                66.63:  Inc Min 
 IMND.m                4550.58:  Inc Min Depth 
 IMXD.m                4439.01:  Inc Max Depth 
 JARR.                      No:  Jarring 
 LETM.      10.45.04 08-May-21:  Log End Time 
 LOST.hr                     0:  Lost Rig Time 
 LSTM.      03.30.04 04-May-21:  Log Start Time 
 MDCL.ppm             37000.00:  Mud Chlorides 
 MDES.     Inversion Oil/Synthetic:  Mud Desc 
 DFD .sg                  1.38:  Mud Density 
 MDMN.sg                  1.35:  Dens Mud Min 
 MDMX.sg                  1.40:  Dens Mud Max 
 MOIL.                   57.40:  Run Mud Oil % 
 MOWR.                   70:30:  Run Mud OWR 
 MSND.                    0.00:  Run Mud Sand % 
 MSOL.                   18.00:  Run Mud Solids% 
 DFV .spqt               71.00:  Mud Viscosity 
 MWOD.in                  6.75:  MWD Tool OD 
 MWSI.                      No:  Serv Intrp, MWD 
 OTIM.hr                242.76:  Time Operating 
 PCON.           Look Like New:  Pad Condition 
 PMAX.psia            12183.92:  Press Op, Max 
 PV  .cP                 27.00:  Mud PV 
 RUN .                    1300:  Run Number 
 ROPA.m/hr               15.00:  ROP Avg 
 ROPN.m/hr                9.00:  ROP Min 
 ROPX.m/hr               19.00:  ROP Max 
 RPMA.rpm               120.00:  RPM Surface Avg 
 RPMN.rpm               100.00:  RPM Surface Min 
 RPMX.rpm               120.00:  RPM Surface Max 
 RRUN.                    1300:  Rig Run Number 
 RTIM.hr                  5.00:  Time Reaming 
 SAZI.deg               304.73:  Azm, Start 
 SDEP.m                4412.01:  Start Depth 
 SIDD.                      No:  Serv Intrp, DD 
 SINC.deg                66.82:  Inc, Start 
 SPPA.psig             2800.00:  SPP Avg 
 SPPN.psig             2610.00:  SPP Min 
 SPPX.psig             3100.00:  SPP Max 
 STIM.      03.30.00 04-May-21:  Start Time 
 SVCS.                 DD, MWD:  Services 
 SVER.                    9.20:  Sperry Version 
 TDAT.m                 228.00:  Tot Depth Attmp 
 TDDF.                      No:  Trip for DD 
 TDLG.m                 228.00:  Tot Depth Loggd 
 TFF .                      No:  Trip for Fail 
 TQAA.f-kp               15.00:  Torque Abs Avg 
 TQAN.f-kp               12.00:  Torque Abs Min 
 TQAX.f-kp               22.00:  Torque Abs Max 
 TRRT.°/30m               0.00:  Turn Rotating 
 MRT .                    HCIM:  Maximum Recorded Temperature 
 TTMX.degC               90.20:  Max Tool Temp 
 VS01.                90627813:  Virtual Str1 SN 
 VS02.                90634712:  Virtual Str2 SN 
 VS03.                90643410:  Virtual Str3 SN 
 VS04.                90634712:  Virtual Str4 SN 
 WBMN.klb                 9.00:  WOB Min 
 WITN.        Elmaddin Rahimov:  Customer Rep 
 WITN.         Haytham Mostafa:  Customer Rep 2 
 WOBA.klb                15.00:  WOB Avg 
 WOBX.klb                23.00:  WOB Max 
 YP  .lhf2               29.00:  Yield Point 
~Curve Information Block
#MNEM.UNIT                 API CODE     Curve Description
#---------               -----------    ---------------------------
 TIME.HHMMSS            00 000 000 000:  GT Time & Date
 GTDEPTH.m              00 000 000 000:  GT Depth
 GTPQH.psia             00 000 000 000:  GT HR Quartz Pressure
 GTTQ.degC              00 000 000 000:  GT Quartz Temperature
 GTTN.NONE              00 000 000 000:  GT Test Number
 GTET.sec               00 000 000 000:  GT Elapsed Test Time
 GTTVD.m                00 000 000 000:  GT True Vertical Depth
#Other Information
#
#WARRANTY: Halliburton will use its best efforts to furnish customers with 
#accurate information and interpretations that are part of, and incident to, the services 
#provided.  However, Halliburton cannot and does not warrant the accuracy 
#or correctness of such information and interpretations.  Under no circumstances should any 
#such information or interpretation be relied upon as the sole basis for any drilling, 
#completion, production, or financial decision or any procedure involving any risk to the 
#safety of any drilling venture, drilling rig or its crew or any other third party.  The 
#Customer has full responsibility for all drilling, completion and production operation.  
#Halliburton makes no representations or warranties, either expressed or 
#implied, including, but not limited to, the implied warranties of merchantability or fitness 
#for a particular purpose, with respect to the services rendered.  In no event will 
#Halliburton be liable for failure to obtain any particular results or for 
#any damages, including, but not limited to, indirect, special or consequential damages, 
#resulting from the use of any information or interpretation provided by Halliburton.
#
~A           TIME           GTDEPTH  GTPQH  GTTQ  GTTN   GTET   GTTVD  
# ...
   06:08:36.800.09-May-2021 4439.51 1115.05 66.29 14.00  67.80 2948.38
   06:08:37.000.09-May-2021 4439.51 1120.46 66.29 14.00  68.00 2948.38
   06:08:37.200.09-May-2021 4439.51 1120.46 66.29 14.00  68.20 2948.38
   06:08:37.400.09-May-2021 4439.51 1131.26 66.29 14.00  68.40 2948.38
   06:08:37.600.09-May-2021 4439.51 1136.21 66.30 14.00  68.60 2948.38
   06:08:37.800.09-May-2021 4439.51 1141.75 66.30 14.00  68.80 2948.38
   06:08:38.000.09-May-2021 4439.51 1147.12 66.30 14.00  69.00 2948.38
   06:08:38.200.09-May-2021 4439.51 1147.12 66.30 14.00  69.20 2948.38
   06:08:38.400.09-May-2021 4439.51 1158.29 66.30 14.00  69.40 2948.38
   06:08:38.600.09-May-2021 4439.51 1163.78 66.30 14.00  69.60 2948.38
   06:08:38.800.09-May-2021 4439.51 1169.06 66.30 14.00  69.80 2948.38
   06:08:39.000.09-May-2021 4439.51 1174.43 66.30 14.00  70.00 2948.38
   06:08:39.200.09-May-2021 4439.51 1174.43 66.30 14.00  70.20 2948.38
   06:08:39.400.09-May-2021 4439.51 1185.08 66.30 14.00  70.40 2948.38
   06:08:39.600.09-May-2021 4439.51 1190.34 66.30 14.00  70.60 2948.38
   06:08:39.800.09-May-2021 4439.51 1195.58 66.30 14.00  70.80 2948.38
   06:08:40.000.09-May-2021 4439.51 1200.74 66.30 14.00  71.00 2948.38
   06:08:40.200.09-May-2021 4439.51 1200.74 66.30 14.00  71.20 2948.38
   06:08:40.400.09-May-2021 4439.51 1210.72 66.30 14.00  71.40 2948.38
   06:08:40.600.09-May-2021 4439.51 1215.97 66.30 14.00  71.60 2948.38
   06:08:40.800.09-May-2021 4439.51 1221.29 66.30 14.00  71.80 2948.38
   06:08:41.000.09-May-2021 4439.51 1226.42 66.30 14.00  72.00 2948.38
   06:08:41.200.09-May-2021 4439.51 1226.42 66.30 14.00  72.20 2948.38
   06:08:41.400.09-May-2021 4439.51 1236.50 66.30 14.00  72.40 2948.38
   06:08:41.600.09-May-2021 4439.51 1241.78 66.30 14.00  72.60 2948.38
   06:08:41.800.09-May-2021 4439.51 1247.23 66.30 14.00  72.80 2948.38
   06:08:42.000.09-May-2021 4439.51 1252.58 66.30 14.00  73.00 2948.38
   06:08:42.200.09-May-2021 4439.51 1252.58 66.30 14.00  73.20 2948.38
   06:08:42.400.09-May-2021 4439.51 1263.85 66.30 14.00  73.40 2948.38
   06:08:42.600.09-May-2021 4439.51 1268.58 66.30 14.00  73.60 2948.38
   06:08:42.800.09-May-2021 4439.51 1274.68 66.30 14.00  73.80 2948.38
   06:08:43.000.09-May-2021 4439.51 1280.30 66.30 14.00  74.00 2948.38
   06:08:43.200.09-May-2021 4439.51 1280.30 66.30 14.00  74.20 2948.38
   06:08:43.400.09-May-2021 4439.51 1291.50 66.30 14.00  74.40 2948.38
   06:08:43.600.09-May-2021 4439.51 1296.95 66.30 14.00  74.60 2948.38
   06:08:43.800.09-May-2021 4439.51 1302.22 66.30 14.00  74.80 2948.38
   06:08:44.000.09-May-2021 4439.51 1307.55 66.30 14.00  75.00 2948.38
   06:08:44.200.09-May-2021 4439.51 1307.55 66.30 14.00  75.20 2948.38
   06:08:44.400.09-May-2021 4439.51 1317.96 66.31 14.00  75.40 2948.38
   06:08:44.600.09-May-2021 4439.51 1323.07 66.31 14.00  75.60 2948.38
   06:08:44.800.09-May-2021 4439.51 1328.20 66.31 14.00  75.80 2948.38
   06:08:45.000.09-May-2021 4439.51 1333.14 66.31 14.00  76.00 2948.38
   06:08:45.200.09-May-2021 4439.51 1333.14 66.31 14.00  76.20 2948.38
   06:08:45.400.09-May-2021 4439.51 1346.11 66.31 14.00  76.40 2948.38
   06:08:45.600.09-May-2021 4439.51 1355.41 66.31 14.00  76.60 2948.38
   06:08:45.800.09-May-2021 4439.51 1360.97 66.31 14.00  76.80 2948.38
   06:08:46.000.09-May-2021 4439.51 1366.79 66.31 14.00  77.00 2948.38
   06:08:46.200.09-May-2021 4439.51 1366.79 66.31 14.00  77.20 2948.38
   06:08:46.400.09-May-2021 4439.51 1377.87 66.31 14.00  77.40 2948.38
   06:08:46.600.09-May-2021 4439.51 1383.37 66.31 14.00  77.60 2948.38
   06:08:46.800.09-May-2021 4439.51 1388.74 66.31 14.00  77.80 2948.38
   06:08:47.000.09-May-2021 4439.51 1394.03 66.31 14.00  78.00 2948.38
   06:08:47.200.09-May-2021 4439.51 1394.03 66.31 14.00  78.20 2948.38
   06:08:47.400.09-May-2021 4439.51 1404.34 66.31 14.00  78.40 2948.38
   06:08:47.600.09-May-2021 4439.51 1409.26 66.31 14.00  78.60 2948.38
   06:08:47.800.09-May-2021 4439.51 1413.89 66.31 14.00  78.80 2948.38
   06:08:48.000.09-May-2021 4439.51 1419.26 66.31 14.00  79.00 2948.38
   06:08:48.200.09-May-2021 4439.51 1419.26 66.31 14.00  79.20 2948.38
   06:08:48.400.09-May-2021 4439.51 1429.47 66.31 14.00  79.40 2948.38
   06:08:48.600.09-May-2021 4439.51 1435.16 66.31 14.00  79.60 2948.38
   06:08:48.800.09-May-2021 4439.51 1440.58 66.31 14.00  79.80 2948.38
   06:08:49.000.09-May-2021 4439.51 1446.47 66.31 14.00  80.00 2948.38
   06:08:49.200.09-May-2021 4439.51 1446.47 66.31 14.00  80.20 2948.38
   06:08:49.400.09-May-2021 4439.51 1456.99 66.31 14.00  80.40 2948.38
   06:08:49.600.09-May-2021 4439.51 1461.93 66.31 14.00  80.60 2948.38
   06:08:49.800.09-May-2021 4439.51 1467.43 66.31 14.00  80.80 2948.38
   06:08:50.000.09-May-2021 4439.51 1472.94 66.31 14.00  81.00 2948.38
   06:08:50.200.09-May-2021 4439.51 1472.94 66.31 14.00  81.20 2948.38
   06:08:50.400.09-May-2021 4439.51 1484.26 66.31 14.00  81.40 2948.38
   06:08:50.600.09-May-2021 4439.51 1489.74 66.31 14.00  81.60 2948.38
   06:08:50.800.09-May-2021 4439.51 1495.76 66.31 14.00  81.80 2948.38
   06:08:51.000.09-May-2021 4439.51 1501.90 66.31 14.00  82.00 2948.38
   06:08:51.200.09-May-2021 4439.51 1501.90 66.31 14.00  82.20 2948.38
   06:08:51.400.09-May-2021 4439.51 1513.36 66.31 14.00  82.40 2948.38
   06:08:51.600.09-May-2021 4439.51 1519.24 66.31 14.00  82.60 2948.38
   06:08:51.800.09-May-2021 4439.51 1525.03 66.31 14.00  82.80 2948.38
   06:08:52.000.09-May-2021 4439.51 1530.63 66.31 14.00  83.00 2948.38
   06:08:52.200.09-May-2021 4439.51 1530.63 66.31 14.00  83.20 2948.38
   06:08:52.400.09-May-2021 4439.51 1541.58 66.31 14.00  83.40 2948.38
   06:08:52.600.09-May-2021 4439.51 1547.01 66.32 14.00  83.60 2948.38
   06:08:52.800.09-May-2021 4439.51 1552.45 66.32 14.00  83.80 2948.38
   06:08:53.000.09-May-2021 4439.51 1557.40 66.32 14.00  84.00 2948.38
   06:08:53.200.09-May-2021 4439.51 1557.40 66.32 14.00  84.20 2948.38
   06:08:53.400.09-May-2021 4439.51 1568.58 66.32 14.00  84.40 2948.38
   06:08:53.600.09-May-2021 4439.51 1574.76 66.32 14.00  84.60 2948.38
   06:08:53.800.09-May-2021 4439.51 1580.21 66.32 14.00  84.80 2948.38
   06:08:54.000.09-May-2021 4439.51 1585.93 66.32 14.00  85.00 2948.38
   06:08:54.200.09-May-2021 4439.51 1585.93 66.32 14.00  85.20 2948.38
   06:08:54.400.09-May-2021 4439.51 1596.89 66.32 14.00  85.40 2948.38
   06:08:54.600.09-May-2021 4439.51 1602.37 66.32 14.00  85.60 2948.38
   06:08:54.800.09-May-2021 4439.51 1608.59 66.32 14.00  85.80 2948.38
   06:08:55.000.09-May-2021 4439.51 1614.04 66.32 14.00  86.00 2948.38
   06:08:55.200.09-May-2021 4439.51 1614.04 66.32 14.00  86.20 2948.38
   06:08:55.400.09-May-2021 4439.51 1624.50 66.32 14.00  86.40 2948.38
   06:08:55.600.09-May-2021 4439.51 1629.33 66.32 14.00  86.60 2948.38
   06:08:55.800.09-May-2021 4439.51 1634.69 66.32 14.00  86.80 2948.38
   06:08:56.000.09-May-2021 4439.51 1640.39 66.32 14.00  87.00 2948.38
   06:08:56.200.09-May-2021 4439.51 1640.39 66.32 14.00  87.20 2948.38
   06:08:56.400.09-May-2021 4439.51 1652.01 66.32 14.00  87.40 2948.38
   06:08:56.600.09-May-2021 4439.51 1658.35 66.32 14.00  87.60 2948.38
   06:08:56.800.09-May-2021 4439.51 1664.82 66.32 14.00  87.80 2948.38
   06:08:57.000.09-May-2021 4439.51 1670.63 66.32 14.00  88.00 2948.38
   06:08:57.200.09-May-2021 4439.51 1670.63 66.32 14.00  88.20 2948.38
   06:08:57.400.09-May-2021 4439.51 1682.08 66.32 14.00  88.40 2948.38
   06:08:57.600.09-May-2021 4439.51 1689.34 66.32 14.00  88.60 2948.38
   06:08:57.800.09-May-2021 4439.51 1696.13 66.32 14.00  88.80 2948.38
   06:08:58.000.09-May-2021 4439.51 1702.13 66.32 14.00  89.00 2948.38
   06:08:58.200.09-May-2021 4439.51 1702.13 66.32 14.00  89.20 2948.38
   06:08:58.400.09-May-2021 4439.51 1713.77 66.32 14.00  89.40 2948.38
   06:08:58.600.09-May-2021 4439.51 1720.62 66.32 14.00  89.60 2948.38
   06:08:58.800.09-May-2021 4439.51 1727.33 66.32 14.00  89.80 2948.38
   06:08:59.000.09-May-2021 4439.51 1733.34 66.32 14.00  90.00 2948.38
   06:08:59.200.09-May-2021 4439.51 1733.34 66.32 14.00  90.20 2948.38
