~Version Information
 VERS.                  2.0:   CWLS log ASCII Standard -VERSION 2.0
 WRAP.                   NO:   One line per depth step
~Well Information Block
#MNEM.UNIT     VALUE/NAME     DESCRIPTION
#---------     -----------    ---------------------------
 STRT.S             03:18:48 09-May-21: START TIME 03:18:48 09-May-21
 STOP.S             03:25:48 09-May-21: STOP TIME  03:25:48 09-May-21
 STEP.S                   0.00: STEP TIME
 NULL.                 -999.25: NULL VALUE
 PROV.                    Baku:  PROVINCE
 STAT.                    Baku:  STATE NAME
 SON .        AZ-XX-0906571588:  JOB NUMBER
 WTYP.                Deviated:  WELL TYPE
 COMP.     BP Exploration (Caspian Sea) ltd:  COMPANY
 BASE.              Azerbaijan:  LOGGING EQUIPMENT BASE LOCATION
 REGN.                   EESSA:  REGION
 CTRY.              Azerbaijan:  COUNTRY NAME
 FLD .                     ACG:  FIELD NAME
 WELL.                     J28:  WELL NAME
 RIG .             West Chirag:  RIG NAME
 DMF .             Drill Floor:  DRILL MEAS FROM
 PDAT.       Caspian Sea Level:  PERMANENT DATUM
 HPTY.       Minimum Curvature:  HOLE POS TYPE
 MDS .        Operator Entered:  MAG DATA SOURCE
 NREF.                    Grid:  NORTH REFERENCE
 SRVC.          TURAN DRILLING:  CONTRACTOR
 JOBN.        AZ-XX-0906571588:  JOB TICKET NUMB
 DCON.     Halliburton Sperry Drilling:  DIRECTNL CONTR
 STIM.      00.44.00 11-Feb-21:  START TIME
 DATE.      00.00.00 05-May-21:  END TIME
 SPUD.               13-Feb-21:  SPUD DATE
 MWDS.                    Baku:  MWD SHOP
 DOE .                     N/A:  DOE NUMBER
 UNIT.                     N/A:  LOGGING EQUIPMENT ID
 UWI .                     N/A:  UNIQUE WELL IDENTIFIER
 API .                     N/A:  API NUMBER
 CNTY.                        :  COUNTY
 LOC .                        :  LOCATION
 LMF .             Drill Floor:  LOG MEASURED FROM
 TVDS.m                  43.00:  TVDSS CORRECTN
 SDEP.m                 341.00:  START DEPTH
 EGL .m                   0.00:  GROUND ELEVATION
 WDMS.m                 169.80:  WD ELEV
 AGAP.m                  43.00:  AIR GAP
 EPD .m                   0.00:  ELEVATION
 APD .m                  43.00:  DEPTH ABOVE PD
 LATI.deg                40.13:  LATITUDE
 LONG.deg                51.22:  LONGITUDE
 UTMY.m             4443793.85:  UTM Y
 UTMX.m              519005.06:  UTM X
 WHEW.m                 -11.57:  WELL HEAD E/W
 WHNS.m                   8.57:  WELL HEAD N/S
 VSEW.m                 -11.57:  VERT SEC E/W
 VSNS.m                   8.57:  VERT SEC N/S
 DFWL.m                   0.00:  DISTANCE FWL
 DFSL.m                   0.00:  DISTANCE FSL
 VSDR.deg               299.34:  VERT SEC DIRECT
 GVFD.g                   1.00:  GRAVITY FIELD
 AZTC.deg                 6.36:  AZM TOTAL CORR
 MFLD.nT              50391.00:  MAGNETIC FIELD
 MDIP.deg                59.65:  MAGNETIC DIP
 MDEC.deg                 6.48:  MAGNETIC DECL
 GRDC.deg                 0.12:  GRID CORRECTION
 DEP .m                 334.96:  DEPTH
 TDD .m                1407.26:  TOTAL DEPTH (DRILLER)
 EKB .m                  43.00:  KB ELEVATION
 EDF .m                  43.00:  DF ELEVATION
 TDL .m                 228.00:  TOTAL DEPTH (LOGGER)
 VSC .                       0:  VS TO CLOSURE
 MAGU.                 1854484:  MAGUTM CHECKSUM
~Parameter Information Block
#MNEM.UNIT       Value        Description
#---------     -----------    ---------------------------
 AV  .mps                 4.00:  Ann Velocity 
 AVMX.mps                 4.73:  Max Ann Veloc 
 AZIF.deg               304.48:  Azm, Final 
 BHAT.        Rotary Steerable:  BHA Type 
 BREV.rev            257300.00:  Rev Bit Total 
 BROT.°/30m               0.00:  Build Rotating 
 BS  .in                  8.50:  Bit Size 
 BSZ .in                  8.50:  Bit Size 
 BTPL.psig              589.00:  Bit Press Loss 
 CABU.                      No:  Customer Abuse 
 CGEO.          Mubariz ghayev:  Customer Geo 
 COMM.                     ü>:  Run Comments 1 
 TCS .hr                 64.25:  Time Ciculation Ended 
 CV  .mps                 3.50:  Crit Velocity 
 CVMX.mps                 4.52:  Max Crit Veloc 
 DD1 .             Aziz Aliyev:  Direct Drillr 1 
 DD2 .         Intigam Rahimov:  Direct Drillr 2 
 DD3 .          Rashad Habibov:  Direct Drillr 3 
 DDSV.               Geo-Pilot:  DD Service 
 DEFF.%                  98.00:  % Det Eff 
 DLRX.°/30m               0.00:  Dogleg Rot Max 
 DLSO.°/30m               0.00:  Dogleg Oriented 
 DLSX.°/30m               0.00:  Dogleg Str Max 
 DRET.      10.45.04 08-May-21:  Drill End Time 
 DRST.      03.30.04 04-May-21:  Drill Start Tim 
 DTIM.hr                 14.97:  Time Drilling 
 EDEP.m                4640.01:  End Depth 
 ENG1.         Dail Mahammadov:  Engineer 1 
 ENG2.           Eldar Hajiyev:  Engineer 2 
 ENG3.       Bakhtiar Jabbarli:  Engineer 3 
 ENG4.       Natik Hasanagayev:  Engineer 4 
 ETIM.      09.30.04 14-May-21:  End Time 
 FLOI.gpm               460.00:  Flow In 
 FLON.gpm               200.00:  Flow In Min 
 FLOS.cptm                0.00:  Fluid Loss 
 FLOX.gpm               505.00:  Flow In Max 
 HFLO.                      No:  High Flow 
 HPRE.                      No:  High Pressure 
 HTEM.                      No:  High Temp 
 HYDO.m                   1.80:  Hydro Offset 
 IFIN.deg                66.71:  Inc, Final 
 IMAX.deg                67.03:  Inc Max 
 IMIN.deg                66.63:  Inc Min 
 IMND.m                4550.58:  Inc Min Depth 
 IMXD.m                4439.01:  Inc Max Depth 
 JARR.                      No:  Jarring 
 LETM.      10.45.04 08-May-21:  Log End Time 
 LOST.hr                     0:  Lost Rig Time 
 LSTM.      03.30.04 04-May-21:  Log Start Time 
 MDCL.ppm             37000.00:  Mud Chlorides 
 MDES.     Inversion Oil/Synthetic:  Mud Desc 
 DFD .sg                  1.38:  Mud Density 
 MDMN.sg                  1.35:  Dens Mud Min 
 MDMX.sg                  1.40:  Dens Mud Max 
 MOIL.                   57.40:  Run Mud Oil % 
 MOWR.                   70:30:  Run Mud OWR 
 MSND.                    0.00:  Run Mud Sand % 
 MSOL.                   18.00:  Run Mud Solids% 
 DFV .spqt               71.00:  Mud Viscosity 
 MWOD.in                  6.75:  MWD Tool OD 
 MWSI.                      No:  Serv Intrp, MWD 
 OTIM.hr                242.76:  Time Operating 
 PCON.           Look Like New:  Pad Condition 
 PMAX.psia            12183.92:  Press Op, Max 
 PV  .cP                 27.00:  Mud PV 
 RUN .                    1300:  Run Number 
 ROPA.m/hr               15.00:  ROP Avg 
 ROPN.m/hr                9.00:  ROP Min 
 ROPX.m/hr               19.00:  ROP Max 
 RPMA.rpm               120.00:  RPM Surface Avg 
 RPMN.rpm               100.00:  RPM Surface Min 
 RPMX.rpm               120.00:  RPM Surface Max 
 RRUN.                    1300:  Rig Run Number 
 RTIM.hr                  5.00:  Time Reaming 
 SAZI.deg               304.73:  Azm, Start 
 SDEP.m                4412.01:  Start Depth 
 SIDD.                      No:  Serv Intrp, DD 
 SINC.deg                66.82:  Inc, Start 
 SPPA.psig             2800.00:  SPP Avg 
 SPPN.psig             2610.00:  SPP Min 
 SPPX.psig             3100.00:  SPP Max 
 STIM.      03.30.00 04-May-21:  Start Time 
 SVCS.                 DD, MWD:  Services 
 SVER.                    9.20:  Sperry Version 
 TDAT.m                 228.00:  Tot Depth Attmp 
 TDDF.                      No:  Trip for DD 
 TDLG.m                 228.00:  Tot Depth Loggd 
 TFF .                      No:  Trip for Fail 
 TQAA.f-kp               15.00:  Torque Abs Avg 
 TQAN.f-kp               12.00:  Torque Abs Min 
 TQAX.f-kp               22.00:  Torque Abs Max 
 TRRT.°/30m               0.00:  Turn Rotating 
 MRT .                    HCIM:  Maximum Recorded Temperature 
 TTMX.degC               90.20:  Max Tool Temp 
 VS01.                90627813:  Virtual Str1 SN 
 VS02.                90634712:  Virtual Str2 SN 
 VS03.                90643410:  Virtual Str3 SN 
 VS04.                90634712:  Virtual Str4 SN 
 WBMN.klb                 9.00:  WOB Min 
 WITN.        Elmaddin Rahimov:  Customer Rep 
 WITN.         Haytham Mostafa:  Customer Rep 2 
 WOBA.klb                15.00:  WOB Avg 
 WOBX.klb                23.00:  WOB Max 
 YP  .lhf2               29.00:  Yield Point 
~Curve Information Block
#MNEM.UNIT                 API CODE     Curve Description
#---------               -----------    ---------------------------
 TIME.HHMMSS            00 000 000 000:  GT Time & Date
 GTDEPTH.m              00 000 000 000:  GT Depth
 GTPQH.psia             00 000 000 000:  GT HR Quartz Pressure
 GTTQ.degC              00 000 000 000:  GT Quartz Temperature
 GTTN.NONE              00 000 000 000:  GT Test Number
 GTET.sec               00 000 000 000:  GT Elapsed Test Time
 GTTVD.m                00 000 000 000:  GT True Vertical Depth
#Other Information
#
#WARRANTY: Halliburton will use its best efforts to furnish customers with 
#accurate information and interpretations that are part of, and incident to, the services 
#provided.  However, Halliburton cannot and does not warrant the accuracy 
#or correctness of such information and interpretations.  Under no circumstances should any 
#such information or interpretation be relied upon as the sole basis for any drilling, 
#completion, production, or financial decision or any procedure involving any risk to the 
#safety of any drilling venture, drilling rig or its crew or any other third party.  The 
#Customer has full responsibility for all drilling, completion and production operation.  
#Halliburton makes no representations or warranties, either expressed or 
#implied, including, but not limited to, the implied warranties of merchantability or fitness 
#for a particular purpose, with respect to the services rendered.  In no event will 
#Halliburton be liable for failure to obtain any particular results or for 
#any damages, including, but not limited to, indirect, special or consequential damages, 
#resulting from the use of any information or interpretation provided by Halliburton.
#
~A           TIME           GTDEPTH  GTPQH  GTTQ  GTTN   GTET   GTTVD  
   03:18:48.701.09-May-2021 4480.01 6660.11 67.62 12.00   0.00 2964.27
   03:18:48.901.09-May-2021 4480.01 6660.11 67.62 12.00   0.20 2964.27
   03:18:49.101.09-May-2021 4480.01 6662.40 67.62 12.00   0.40 2964.27
   03:18:49.301.09-May-2021 4480.01 6662.32 67.62 12.00   0.60 2964.27
   03:18:49.501.09-May-2021 4480.01 6662.91 67.62 12.00   0.80 2964.27
   03:18:49.701.09-May-2021 4480.01 6668.81 67.62 12.00   1.00 2964.27
   03:18:49.901.09-May-2021 4480.01 6668.81 67.62 12.00   1.20 2964.27
   03:18:50.101.09-May-2021 4480.01 6663.94 67.62 12.00   1.40 2964.27
   03:18:50.301.09-May-2021 4480.01 6663.02 67.62 12.00   1.60 2964.27
   03:18:50.501.09-May-2021 4480.01 6660.76 67.62 12.00   1.80 2964.27
   03:18:50.701.09-May-2021 4480.01 6659.99 67.62 12.00   2.00 2964.27
   03:18:50.901.09-May-2021 4480.01 6659.99 67.62 12.00   2.20 2964.27
   03:18:51.101.09-May-2021 4480.01 6660.43 67.62 12.00   2.40 2964.27
   03:18:51.302.09-May-2021 4480.01 6666.78 67.62 12.00   2.60 2964.27
   03:18:51.502.09-May-2021 4480.01 6665.23 67.62 12.00   2.80 2964.27
   03:18:51.702.09-May-2021 4480.01 6663.85 67.62 12.00   3.00 2964.27
   03:18:51.902.09-May-2021 4480.01 6663.85 67.62 12.00   3.20 2964.27
   03:18:52.102.09-May-2021 4480.01 6673.18 67.62 12.00   3.40 2964.27
   03:18:52.302.09-May-2021 4480.01 6667.48 67.62 12.00   3.60 2964.27
   03:18:52.502.09-May-2021 4480.01 6674.39 67.62 12.00   3.80 2964.27
   03:18:52.702.09-May-2021 4480.01 6665.78 67.62 12.00   4.00 2964.27
   03:18:52.902.09-May-2021 4480.01 6665.78 67.62 12.00   4.20 2964.27
   03:18:53.102.09-May-2021 4480.01 6667.60 67.62 12.00   4.40 2964.27
   03:18:53.302.09-May-2021 4480.01 6668.36 67.62 12.00   4.60 2964.27
   03:18:53.502.09-May-2021 4480.01 6667.32 67.62 12.00   4.80 2964.27
   03:18:53.702.09-May-2021 4480.01 6667.35 67.62 12.00   5.00 2964.27
   03:18:53.902.09-May-2021 4480.01 6667.35 67.62 12.00   5.20 2964.27
   03:18:54.102.09-May-2021 4480.01 6667.00 67.62 12.00   5.40 2964.27
   03:18:54.302.09-May-2021 4480.01 6667.61 67.62 12.00   5.60 2964.27
   03:18:54.502.09-May-2021 4480.01 6667.52 67.62 12.00   5.80 2964.27
   03:18:54.702.09-May-2021 4480.01 6667.14 67.62 12.00   6.00 2964.27
   03:18:54.902.09-May-2021 4480.01 6667.14 67.62 12.00   6.20 2964.27
   03:18:55.102.09-May-2021 4480.01 6668.02 67.62 12.00   6.40 2964.27
   03:18:55.302.09-May-2021 4480.01 6676.56 67.62 12.00   6.60 2964.27
   03:18:55.502.09-May-2021 4480.01 6670.56 67.62 12.00   6.80 2964.27
   03:18:55.702.09-May-2021 4480.01 6671.51 67.62 12.00   7.00 2964.27
   03:18:55.902.09-May-2021 4480.01 6671.51 67.62 12.00   7.20 2964.27
   03:18:56.102.09-May-2021 4480.01 6669.98 67.62 12.00   7.40 2964.27
   03:18:56.302.09-May-2021 4480.01 6670.44 67.62 12.00   7.60 2964.27
   03:18:56.502.09-May-2021 4480.01 6670.09 67.62 12.00   7.80 2964.27
   03:18:56.702.09-May-2021 4480.01 6671.31 67.62 12.00   8.00 2964.27
   03:18:56.902.09-May-2021 4480.01 6671.31 67.62 12.00   8.20 2964.27
   03:18:57.102.09-May-2021 4480.01 6671.38 67.62 12.00   8.40 2964.27
   03:18:57.303.09-May-2021 4480.01 6671.55 67.62 12.00   8.60 2964.27
   03:18:57.503.09-May-2021 4480.01 6671.40 67.62 12.00   8.80 2964.27
   03:18:57.703.09-May-2021 4480.01 6682.24 67.62 12.00   9.00 2964.27
   03:18:57.903.09-May-2021 4480.01 6682.24 67.62 12.00   9.20 2964.27
   03:18:58.103.09-May-2021 4480.01 6681.08 67.62 12.00   9.40 2964.27
   03:18:58.303.09-May-2021 4480.01 6672.31 67.62 12.00   9.60 2964.27
   03:18:58.503.09-May-2021 4480.01 6675.60 67.62 12.00   9.80 2964.27
   03:18:58.703.09-May-2021 4480.01 6685.53 67.62 12.00  10.00 2964.27
   03:18:58.903.09-May-2021 4480.01 6685.53 67.62 12.00  10.20 2964.27
   03:18:59.103.09-May-2021 4480.01 6684.04 67.62 12.00  10.40 2964.27
   03:18:59.303.09-May-2021 4480.01 6675.65 67.62 12.00  10.60 2964.27
   03:18:59.503.09-May-2021 4480.01 6680.24 67.61 12.00  10.80 2964.27
   03:18:59.703.09-May-2021 4480.01 6686.01 67.62 12.00  11.00 2964.27
   03:18:59.903.09-May-2021 4480.01 6686.01 67.62 12.00  11.20 2964.27
   03:19:00.103.09-May-2021 4480.01 6685.27 67.61 12.00  11.40 2964.27
   03:19:00.303.09-May-2021 4480.01 6677.83 67.61 12.00  11.60 2964.27
   03:19:00.503.09-May-2021 4480.01 6690.46 67.61 12.00  11.80 2964.27
   03:19:00.703.09-May-2021 4480.01 6680.77 67.61 12.00  12.00 2964.27
   03:19:00.903.09-May-2021 4480.01 6680.77 67.61 12.00  12.20 2964.27
   03:19:01.103.09-May-2021 4480.01 6680.77 67.61 12.00  12.40 2964.27
   03:19:01.303.09-May-2021 4480.01 6687.54 67.61 12.00  12.60 2964.27
   03:19:01.503.09-May-2021 4480.01 6686.61 67.61 12.00  12.80 2964.27
   03:19:01.703.09-May-2021 4480.01 6687.99 67.61 12.00  13.00 2964.27
   03:19:01.903.09-May-2021 4480.01 6687.99 67.61 12.00  13.20 2964.27
   03:19:02.103.09-May-2021 4480.01 6685.25 67.61 12.00  13.40 2964.27
   03:19:02.303.09-May-2021 4480.01 6693.98 67.61 12.00  13.60 2964.27
   03:19:02.503.09-May-2021 4480.01 6686.00 67.61 12.00  13.80 2964.27
   03:19:02.703.09-May-2021 4480.01 6692.31 67.61 12.00  14.00 2964.27
   03:19:02.903.09-May-2021 4480.01 6692.31 67.61 12.00  14.20 2964.27
   03:19:03.103.09-May-2021 4480.01 6688.16 67.61 12.00  14.40 2964.27
   03:19:03.304.09-May-2021 4480.01 6687.34 67.61 12.00  14.60 2964.27
   03:19:03.504.09-May-2021 4480.01 6687.34 67.61 12.00  14.80 2964.27
   03:19:03.704.09-May-2021 4480.01 6686.65 67.61 12.00  15.00 2964.27
   03:19:03.904.09-May-2021 4480.01 6687.69 67.61 12.00  15.20 2964.27
   03:19:04.104.09-May-2021 4480.01 6688.23 67.61 12.00  15.40 2964.27
   03:19:04.304.09-May-2021 4480.01 6688.46 67.61 12.00  15.60 2964.27
   03:19:04.504.09-May-2021 4480.01 6688.27 67.61 12.00  15.80 2964.27
   03:19:04.704.09-May-2021 4480.01 6688.74 67.61 12.00  16.00 2964.27
   03:19:04.904.09-May-2021 4480.01 6688.74 67.61 12.00  16.20 2964.27
   03:19:05.104.09-May-2021 4480.01 6694.14 67.61 12.00  16.40 2964.27
   03:19:05.304.09-May-2021 4480.01 6694.19 67.61 12.00  16.60 2964.27
   03:19:05.504.09-May-2021 4480.01 6696.30 67.61 12.00  16.80 2964.27
   03:19:05.704.09-May-2021 4480.01 6692.67 67.61 12.00  17.00 2964.27
   03:19:05.904.09-May-2021 4480.01 6692.67 67.61 12.00  17.20 2964.27
   03:19:06.104.09-May-2021 4480.01 6691.75 67.61 12.00  17.40 2964.27
   03:19:06.304.09-May-2021 4480.01 6691.77 67.61 12.00  17.60 2964.27
   03:19:06.504.09-May-2021 4480.01 6692.26 67.61 12.00  17.80 2964.27
   03:19:06.704.09-May-2021 4480.01 6692.52 67.61 12.00  18.00 2964.27
   03:19:06.904.09-May-2021 4480.01 6692.52 67.61 12.00  18.20 2964.27
   03:19:07.104.09-May-2021 4480.01 6691.64 67.61 12.00  18.40 2964.27
   03:19:07.304.09-May-2021 4480.01 6691.83 67.61 12.00  18.60 2964.27
   03:19:07.504.09-May-2021 4480.01 6692.45 67.61 12.00  18.80 2964.27
   03:19:07.704.09-May-2021 4480.01 6702.79 67.61 12.00  19.00 2964.27
   03:19:07.904.09-May-2021 4480.01 6702.79 67.61 12.00  19.20 2964.27
   03:19:08.104.09-May-2021 4480.01 6701.58 67.61 12.00  19.40 2964.27
   03:19:08.304.09-May-2021 4480.01 6700.38 67.61 12.00  19.60 2964.27
   03:19:08.504.09-May-2021 4480.01 6701.79 67.61 12.00  19.80 2964.27
   03:19:08.704.09-May-2021 4480.01 6699.59 67.61 12.00  20.00 2964.27
   03:19:08.904.09-May-2021 4480.01 6699.59 67.61 12.00  20.20 2964.27
   03:19:09.104.09-May-2021 4480.01 6707.54 67.61 12.00  20.40 2964.27
   03:19:09.305.09-May-2021 4480.01 6698.22 67.61 12.00  20.60 2964.27
   03:19:09.505.09-May-2021 4480.01 6705.66 67.61 12.00  20.80 2964.27
   03:19:09.705.09-May-2021 4480.01 6706.37 67.61 12.00  21.00 2964.27
   03:19:09.905.09-May-2021 4480.01 6706.37 67.61 12.00  21.20 2964.27
   03:19:10.105.09-May-2021 4480.01 6704.37 67.61 12.00  21.40 2964.27
   03:19:10.305.09-May-2021 4480.01 6705.52 67.61 12.00  21.60 2964.27
   03:19:10.505.09-May-2021 4480.01 6701.04 67.61 12.00  21.80 2964.27
   03:19:10.705.09-May-2021 4480.01 6702.01 67.61 12.00  22.00 2964.27
   03:19:10.905.09-May-2021 4480.01 6702.01 67.61 12.00  22.20 2964.27
   03:19:11.105.09-May-2021 4480.01 6701.18 67.61 12.00  22.40 2964.27
