~Version Information
 VERS.                  2.0:   CWLS log ASCII Standard -VERSION 2.0
 WRAP.                   NO:   One line per depth step
~Well Information Block
#MNEM.UNIT     VALUE/NAME     DESCRIPTION
#---------     -----------    ---------------------------
 STRT.S             23:07:02 09-May-21: START TIME 23:07:02 09-May-21
 STOP.S             23:13:42 09-May-21: STOP TIME  23:13:42 09-May-21
 STEP.S                   0.00: STEP TIME
 NULL.                 -999.25: NULL VALUE
 PROV.                    Baku:  PROVINCE
 STAT.                    Baku:  STATE NAME
 SON .        AZ-XX-0906571588:  JOB NUMBER
 WTYP.                Deviated:  WELL TYPE
 COMP.     BP Exploration (Caspian Sea) ltd:  COMPANY
 BASE.              Azerbaijan:  LOGGING EQUIPMENT BASE LOCATION
 REGN.                   EESSA:  REGION
 CTRY.              Azerbaijan:  COUNTRY NAME
 FLD .                     ACG:  FIELD NAME
 WELL.                     J28:  WELL NAME
 RIG .             West Chirag:  RIG NAME
 DMF .             Drill Floor:  DRILL MEAS FROM
 PDAT.       Caspian Sea Level:  PERMANENT DATUM
 HPTY.       Minimum Curvature:  HOLE POS TYPE
 MDS .        Operator Entered:  MAG DATA SOURCE
 NREF.                    Grid:  NORTH REFERENCE
 SRVC.          TURAN DRILLING:  CONTRACTOR
 JOBN.        AZ-XX-0906571588:  JOB TICKET NUMB
 DCON.     Halliburton Sperry Drilling:  DIRECTNL CONTR
 STIM.      00.44.00 11-Feb-21:  START TIME
 DATE.      00.00.00 05-May-21:  END TIME
 SPUD.               13-Feb-21:  SPUD DATE
 MWDS.                    Baku:  MWD SHOP
 DOE .                     N/A:  DOE NUMBER
 UNIT.                     N/A:  LOGGING EQUIPMENT ID
 UWI .                     N/A:  UNIQUE WELL IDENTIFIER
 API .                     N/A:  API NUMBER
 CNTY.                        :  COUNTY
 LOC .                        :  LOCATION
 LMF .             Drill Floor:  LOG MEASURED FROM
 TVDS.m                  43.00:  TVDSS CORRECTN
 SDEP.m                 341.00:  START DEPTH
 EGL .m                   0.00:  GROUND ELEVATION
 WDMS.m                 169.80:  WD ELEV
 AGAP.m                  43.00:  AIR GAP
 EPD .m                   0.00:  ELEVATION
 APD .m                  43.00:  DEPTH ABOVE PD
 LATI.deg                40.13:  LATITUDE
 LONG.deg                51.22:  LONGITUDE
 UTMY.m             4443793.85:  UTM Y
 UTMX.m              519005.06:  UTM X
 WHEW.m                 -11.57:  WELL HEAD E/W
 WHNS.m                   8.57:  WELL HEAD N/S
 VSEW.m                 -11.57:  VERT SEC E/W
 VSNS.m                   8.57:  VERT SEC N/S
 DFWL.m                   0.00:  DISTANCE FWL
 DFSL.m                   0.00:  DISTANCE FSL
 VSDR.deg               299.34:  VERT SEC DIRECT
 GVFD.g                   1.00:  GRAVITY FIELD
 AZTC.deg                 6.36:  AZM TOTAL CORR
 MFLD.nT              50391.00:  MAGNETIC FIELD
 MDIP.deg                59.65:  MAGNETIC DIP
 MDEC.deg                 6.48:  MAGNETIC DECL
 GRDC.deg                 0.12:  GRID CORRECTION
 DEP .m                 334.96:  DEPTH
 TDD .m                1407.26:  TOTAL DEPTH (DRILLER)
 EKB .m                  43.00:  KB ELEVATION
 EDF .m                  43.00:  DF ELEVATION
 TDL .m                 228.00:  TOTAL DEPTH (LOGGER)
 VSC .                       0:  VS TO CLOSURE
 MAGU.                 1854484:  MAGUTM CHECKSUM
~Parameter Information Block
#MNEM.UNIT       Value        Description
#---------     -----------    ---------------------------
 AV  .mps                 4.00:  Ann Velocity 
 AVMX.mps                 4.73:  Max Ann Veloc 
 AZIF.deg               304.48:  Azm, Final 
 BHAT.        Rotary Steerable:  BHA Type 
 BREV.rev            257300.00:  Rev Bit Total 
 BROT.°/30m               0.00:  Build Rotating 
 BS  .in                  8.50:  Bit Size 
 BSZ .in                  8.50:  Bit Size 
 BTPL.psig              589.00:  Bit Press Loss 
 CABU.                      No:  Customer Abuse 
 CGEO.          Mubariz ghayev:  Customer Geo 
 COMM.                     d:  Run Comments 1 
 TCS .hr                 64.25:  Time Ciculation Ended 
 CV  .mps                 3.50:  Crit Velocity 
 CVMX.mps                 4.52:  Max Crit Veloc 
 DD1 .             Aziz Aliyev:  Direct Drillr 1 
 DD2 .         Intigam Rahimov:  Direct Drillr 2 
 DD3 .          Rashad Habibov:  Direct Drillr 3 
 DDSV.               Geo-Pilot:  DD Service 
 DEFF.%                  98.00:  % Det Eff 
 DLRX.°/30m               0.00:  Dogleg Rot Max 
 DLSO.°/30m               0.00:  Dogleg Oriented 
 DLSX.°/30m               0.00:  Dogleg Str Max 
 DRET.      10.45.04 08-May-21:  Drill End Time 
 DRST.      03.30.04 04-May-21:  Drill Start Tim 
 DTIM.hr                 14.97:  Time Drilling 
 EDEP.m                4640.01:  End Depth 
 ENG1.         Dail Mahammadov:  Engineer 1 
 ENG2.           Eldar Hajiyev:  Engineer 2 
 ENG3.       Bakhtiar Jabbarli:  Engineer 3 
 ENG4.       Natik Hasanagayev:  Engineer 4 
 ETIM.      09.30.04 14-May-21:  End Time 
 FLOI.gpm               460.00:  Flow In 
 FLON.gpm               200.00:  Flow In Min 
 FLOS.cptm                0.00:  Fluid Loss 
 FLOX.gpm               505.00:  Flow In Max 
 HFLO.                      No:  High Flow 
 HPRE.                      No:  High Pressure 
 HTEM.                      No:  High Temp 
 HYDO.m                   1.80:  Hydro Offset 
 IFIN.deg                66.71:  Inc, Final 
 IMAX.deg                67.03:  Inc Max 
 IMIN.deg                66.63:  Inc Min 
 IMND.m                4550.58:  Inc Min Depth 
 IMXD.m                4439.01:  Inc Max Depth 
 JARR.                      No:  Jarring 
 LETM.      10.45.04 08-May-21:  Log End Time 
 LOST.hr                     0:  Lost Rig Time 
 LSTM.      03.30.04 04-May-21:  Log Start Time 
 MDCL.ppm             37000.00:  Mud Chlorides 
 MDES.     Inversion Oil/Synthetic:  Mud Desc 
 DFD .sg                  1.38:  Mud Density 
 MDMN.sg                  1.35:  Dens Mud Min 
 MDMX.sg                  1.40:  Dens Mud Max 
 MOIL.                   57.40:  Run Mud Oil % 
 MOWR.                   70:30:  Run Mud OWR 
 MSND.                    0.00:  Run Mud Sand % 
 MSOL.                   18.00:  Run Mud Solids% 
 DFV .spqt               71.00:  Mud Viscosity 
 MWOD.in                  6.75:  MWD Tool OD 
 MWSI.                      No:  Serv Intrp, MWD 
 OTIM.hr                242.76:  Time Operating 
 PCON.           Look Like New:  Pad Condition 
 PMAX.psia            12183.92:  Press Op, Max 
 PV  .cP                 27.00:  Mud PV 
 RUN .                    1300:  Run Number 
 ROPA.m/hr               15.00:  ROP Avg 
 ROPN.m/hr                9.00:  ROP Min 
 ROPX.m/hr               19.00:  ROP Max 
 RPMA.rpm               120.00:  RPM Surface Avg 
 RPMN.rpm               100.00:  RPM Surface Min 
 RPMX.rpm               120.00:  RPM Surface Max 
 RRUN.                    1300:  Rig Run Number 
 RTIM.hr                  5.00:  Time Reaming 
 SAZI.deg               304.73:  Azm, Start 
 SDEP.m                4412.01:  Start Depth 
 SIDD.                      No:  Serv Intrp, DD 
 SINC.deg                66.82:  Inc, Start 
 SPPA.psig             2800.00:  SPP Avg 
 SPPN.psig             2610.00:  SPP Min 
 SPPX.psig             3100.00:  SPP Max 
 STIM.      03.30.00 04-May-21:  Start Time 
 SVCS.                 DD, MWD:  Services 
 SVER.                    9.20:  Sperry Version 
 TDAT.m                 228.00:  Tot Depth Attmp 
 TDDF.                      No:  Trip for DD 
 TDLG.m                 228.00:  Tot Depth Loggd 
 TFF .                      No:  Trip for Fail 
 TQAA.f-kp               15.00:  Torque Abs Avg 
 TQAN.f-kp               12.00:  Torque Abs Min 
 TQAX.f-kp               22.00:  Torque Abs Max 
 TRRT.°/30m               0.00:  Turn Rotating 
 MRT .                    HCIM:  Maximum Recorded Temperature 
 TTMX.degC               90.20:  Max Tool Temp 
 VS01.                90627813:  Virtual Str1 SN 
 VS02.                90634712:  Virtual Str2 SN 
 VS03.                90643410:  Virtual Str3 SN 
 VS04.                90634712:  Virtual Str4 SN 
 WBMN.klb                 9.00:  WOB Min 
 WITN.        Elmaddin Rahimov:  Customer Rep 
 WITN.         Haytham Mostafa:  Customer Rep 2 
 WOBA.klb                15.00:  WOB Avg 
 WOBX.klb                23.00:  WOB Max 
 YP  .lhf2               29.00:  Yield Point 
~Curve Information Block
#MNEM.UNIT                 API CODE     Curve Description
#---------               -----------    ---------------------------
 TIME.HHMMSS            00 000 000 000:  GT Time & Date
 GTDEPTH.m              00 000 000 000:  GT Depth
 GTPQH.psia             00 000 000 000:  GT HR Quartz Pressure
 GTTQ.degC              00 000 000 000:  GT Quartz Temperature
 GTTN.NONE              00 000 000 000:  GT Test Number
 GTET.sec               00 000 000 000:  GT Elapsed Test Time
 GTTVD.m                00 000 000 000:  GT True Vertical Depth
#Other Information
#
#WARRANTY: Halliburton will use its best efforts to furnish customers with 
#accurate information and interpretations that are part of, and incident to, the services 
#provided.  However, Halliburton cannot and does not warrant the accuracy 
#or correctness of such information and interpretations.  Under no circumstances should any 
#such information or interpretation be relied upon as the sole basis for any drilling, 
#completion, production, or financial decision or any procedure involving any risk to the 
#safety of any drilling venture, drilling rig or its crew or any other third party.  The 
#Customer has full responsibility for all drilling, completion and production operation.  
#Halliburton makes no representations or warranties, either expressed or 
#implied, including, but not limited to, the implied warranties of merchantability or fitness 
#for a particular purpose, with respect to the services rendered.  In no event will 
#Halliburton be liable for failure to obtain any particular results or for 
#any damages, including, but not limited to, indirect, special or consequential damages, 
#resulting from the use of any information or interpretation provided by Halliburton.
#
~A           TIME           GTDEPTH  GTPQH  GTTQ  GTTN   GTET   GTTVD  
# ...
   23:09:18.401.09-May-2021 4503.01 3252.30 60.47 17.00 135.56 2973.29
   23:09:18.601.09-May-2021 4503.01 3252.30 60.47 17.00 135.76 2973.29
   23:09:18.801.09-May-2021 4503.01 3252.30 60.47 17.00 135.96 2973.29
   23:09:19.001.09-May-2021 4503.01 3252.30 60.47 17.00 136.16 2973.29
   23:09:19.201.09-May-2021 4503.01 3252.30 60.47 17.00 136.36 2973.29
   23:09:19.401.09-May-2021 4503.01 3252.30 60.47 17.00 136.56 2973.29
   23:09:19.601.09-May-2021 4503.01 3252.30 60.47 17.00 136.76 2973.29
   23:09:19.801.09-May-2021 4503.01 3252.30 60.47 17.00 136.96 2973.29
   23:09:20.001.09-May-2021 4503.01 3252.30 60.47 17.00 137.16 2973.29
   23:09:20.201.09-May-2021 4503.01 3252.17 60.47 17.00 137.36 2973.29
   23:09:20.401.09-May-2021 4503.01 3252.55 60.47 17.00 137.56 2973.29
   23:09:20.601.09-May-2021 4503.01 3252.17 60.47 17.00 137.76 2973.29
   23:09:20.801.09-May-2021 4503.01 3252.35 60.47 17.00 137.96 2973.29
   23:09:21.001.09-May-2021 4503.01 3252.35 60.47 17.00 138.16 2973.29
   23:09:21.201.09-May-2021 4503.01 3252.29 60.47 17.00 138.36 2973.29
   23:09:21.400.09-May-2021 4503.01 3252.30 60.47 17.00 138.56 2973.29
   23:09:21.600.09-May-2021 4503.01 3252.30 60.47 17.00 138.76 2973.29
   23:09:21.800.09-May-2021 4503.01 3252.29 60.47 17.00 138.96 2973.29
   23:09:22.000.09-May-2021 4503.01 3252.29 60.47 17.00 139.16 2973.29
   23:09:22.200.09-May-2021 4503.01 3252.29 60.47 17.00 139.36 2973.29
   23:09:22.400.09-May-2021 4503.01 3252.29 60.47 17.00 139.56 2973.29
   23:09:22.600.09-May-2021 4503.01 3252.30 60.47 17.00 139.76 2973.29
   23:09:22.800.09-May-2021 4503.01 3252.16 60.47 17.00 139.96 2973.29
   23:09:23.000.09-May-2021 4503.01 3252.16 60.47 17.00 140.16 2973.29
   23:09:23.200.09-May-2021 4503.01 3252.18 60.47 17.00 140.36 2973.29
   23:09:23.400.09-May-2021 4503.01 3252.33 60.47 17.00 140.56 2973.29
   23:09:23.600.09-May-2021 4503.01 3252.30 60.47 17.00 140.76 2973.29
   23:09:23.800.09-May-2021 4503.01 3252.26 60.47 17.00 140.96 2973.29
   23:09:24.000.09-May-2021 4503.01 3252.26 60.47 17.00 141.16 2973.29
   23:09:24.200.09-May-2021 4503.01 3252.32 60.47 17.00 141.36 2973.29
   23:09:24.400.09-May-2021 4503.01 3252.35 60.47 17.00 141.56 2973.29
   23:09:24.600.09-May-2021 4503.01 3252.25 60.47 17.00 141.76 2973.29
   23:09:24.800.09-May-2021 4503.01 3252.40 60.47 17.00 141.96 2973.29
   23:09:25.000.09-May-2021 4503.01 3252.40 60.47 17.00 142.16 2973.29
   23:09:25.200.09-May-2021 4503.01 3252.31 60.47 17.00 142.36 2973.29
   23:09:25.399.09-May-2021 4503.01 3252.19 60.47 17.00 142.56 2973.29
   23:09:25.599.09-May-2021 4503.01 3252.44 60.47 17.00 142.76 2973.29
   23:09:25.799.09-May-2021 4503.01 3252.22 60.47 17.00 142.96 2973.29
   23:09:25.999.09-May-2021 4503.01 3252.22 60.47 17.00 143.16 2973.29
   23:09:26.199.09-May-2021 4503.01 3252.17 60.47 17.00 143.36 2973.29
   23:09:26.399.09-May-2021 4503.01 3252.30 60.47 17.00 143.56 2973.29
   23:09:26.599.09-May-2021 4503.01 3252.27 60.47 17.00 143.76 2973.29
   23:09:26.799.09-May-2021 4503.01 3252.28 60.47 17.00 143.96 2973.29
   23:09:26.999.09-May-2021 4503.01 3252.28 60.47 17.00 144.16 2973.29
   23:09:27.199.09-May-2021 4503.01 3252.28 60.47 17.00 144.36 2973.29
   23:09:27.399.09-May-2021 4503.01 3252.27 60.47 17.00 144.56 2973.29
   23:09:27.599.09-May-2021 4503.01 3252.27 60.47 17.00 144.76 2973.29
   23:09:27.799.09-May-2021 4503.01 3252.28 60.47 17.00 144.96 2973.29
   23:09:27.999.09-May-2021 4503.01 3252.28 60.47 17.00 145.16 2973.29
   23:09:28.199.09-May-2021 4503.01 3252.39 60.47 17.00 145.36 2973.29
   23:09:28.399.09-May-2021 4503.01 3252.23 60.47 17.00 145.56 2973.29
   23:09:28.599.09-May-2021 4503.01 3252.31 60.47 17.00 145.76 2973.29
   23:09:28.799.09-May-2021 4503.01 3252.16 60.47 17.00 145.96 2973.29
   23:09:28.999.09-May-2021 4503.01 3252.16 60.47 17.00 146.16 2973.29
   23:09:29.198.09-May-2021 4503.01 3252.26 60.47 17.00 146.36 2973.29
   23:09:29.398.09-May-2021 4503.01 3252.27 60.47 17.00 146.56 2973.29
   23:09:29.598.09-May-2021 4503.01 3252.27 60.47 17.00 146.76 2973.29
   23:09:29.798.09-May-2021 4503.01 3252.26 60.47 17.00 146.96 2973.29
   23:09:29.998.09-May-2021 4503.01 3252.26 60.47 17.00 147.16 2973.29
   23:09:30.198.09-May-2021 4503.01 3252.26 60.47 17.00 147.36 2973.29
   23:09:30.398.09-May-2021 4503.01 3252.27 60.47 17.00 147.56 2973.29
   23:09:30.598.09-May-2021 4503.01 3252.26 60.47 17.00 147.76 2973.29
   23:09:30.798.09-May-2021 4503.01 3252.38 60.47 17.00 147.96 2973.29
   23:09:30.998.09-May-2021 4503.01 3252.38 60.47 17.00 148.16 2973.29
   23:09:31.198.09-May-2021 4503.01 3252.29 60.47 17.00 148.36 2973.29
   23:09:31.398.09-May-2021 4503.01 3252.15 60.47 17.00 148.56 2973.29
   23:09:31.598.09-May-2021 4503.01 3252.31 60.47 17.00 148.76 2973.29
   23:09:31.798.09-May-2021 4503.01 3252.12 60.47 17.00 148.96 2973.29
   23:09:31.998.09-May-2021 4503.01 3252.12 60.47 17.00 149.16 2973.29
   23:09:32.198.09-May-2021 4503.01 3252.14 60.47 17.00 149.36 2973.29
   23:09:32.398.09-May-2021 4503.01 3252.31 60.47 17.00 149.56 2973.29
   23:09:32.598.09-May-2021 4503.01 3252.00 60.47 17.00 149.76 2973.29
   23:09:32.798.09-May-2021 4503.01 3252.57 60.47 17.00 149.96 2973.29
   23:09:32.997.09-May-2021 4503.01 3252.57 60.47 17.00 150.16 2973.29
   23:09:33.197.09-May-2021 4503.01 3252.33 60.47 17.00 150.36 2973.29
   23:09:33.397.09-May-2021 4503.01 3251.94 60.47 17.00 150.56 2973.29
   23:09:33.597.09-May-2021 4503.01 3149.51 60.46 17.00 150.76 2973.29
   23:09:33.797.09-May-2021 4503.01 2470.39 60.47 17.00 150.96 2973.29
   23:09:33.997.09-May-2021 4503.01 2470.39 60.47 17.00 151.16 2973.29
   23:09:34.197.09-May-2021 4503.01  985.86 60.47 17.00 151.36 2973.29
   23:09:34.397.09-May-2021 4503.01  610.77 60.47 17.00 151.56 2973.29
   23:09:34.597.09-May-2021 4503.01  512.74 60.46 17.00 151.76 2973.29
   23:09:34.797.09-May-2021 4503.01  483.72 60.46 17.00 151.96 2973.29
   23:09:34.997.09-May-2021 4503.01  483.72 60.46 17.00 152.16 2973.29
   23:09:35.197.09-May-2021 4503.01  460.62 60.46 17.00 152.36 2973.29
   23:09:35.397.09-May-2021 4503.01  443.04 60.46 17.00 152.56 2973.29
   23:09:35.597.09-May-2021 4503.01  438.92 60.46 17.00 152.76 2973.29
   23:09:35.797.09-May-2021 4503.01  434.71 60.46 17.00 152.96 2973.29
   23:09:35.997.09-May-2021 4503.01  434.71 60.46 17.00 153.16 2973.29
   23:09:36.197.09-May-2021 4503.01  434.31 60.45 17.00 153.36 2973.29
   23:09:36.397.09-May-2021 4503.01  439.43 60.45 17.00 153.56 2973.29
   23:09:36.597.09-May-2021 4503.01  441.83 60.45 17.00 153.76 2973.29
   23:09:36.796.09-May-2021 4503.01  440.75 60.45 17.00 153.96 2973.29
   23:09:36.996.09-May-2021 4503.01  440.75 60.45 17.00 154.16 2973.29
   23:09:37.196.09-May-2021 4503.01  435.75 60.44 17.00 154.36 2973.29
   23:09:37.396.09-May-2021 4503.01  429.90 60.44 17.00 154.56 2973.29
   23:09:37.596.09-May-2021 4503.01  426.17 60.44 17.00 154.76 2973.29
   23:09:37.796.09-May-2021 4503.01  422.85 60.44 17.00 154.96 2973.29
   23:09:37.996.09-May-2021 4503.01  422.85 60.44 17.00 155.16 2973.29
   23:09:38.196.09-May-2021 4503.01  422.56 60.43 17.00 155.36 2973.29
   23:09:38.396.09-May-2021 4503.01  422.93 60.43 17.00 155.56 2973.29
   23:09:38.596.09-May-2021 4503.01  420.79 60.43 17.00 155.76 2973.29
   23:09:38.796.09-May-2021 4503.01  422.37 60.43 17.00 155.96 2973.29
   23:09:38.996.09-May-2021 4503.01  422.37 60.43 17.00 156.16 2973.29
   23:09:39.196.09-May-2021 4503.01  423.94 60.43 17.00 156.36 2973.29
   23:09:39.396.09-May-2021 4503.01  421.77 60.42 17.00 156.56 2973.29
   23:09:39.596.09-May-2021 4503.01  419.33 60.42 17.00 156.76 2973.29
   23:09:39.796.09-May-2021 4503.01  416.16 60.42 17.00 156.96 2973.29
   23:09:39.996.09-May-2021 4503.01  416.16 60.42 17.00 157.16 2973.29
   23:09:40.196.09-May-2021 4503.01  421.60 60.42 17.00 157.36 2973.29
   23:09:40.396.09-May-2021 4503.01  423.79 60.42 17.00 157.56 2973.29
   23:09:40.595.09-May-2021 4503.01  426.68 60.41 17.00 157.76 2973.29
   23:09:40.795.09-May-2021 4503.01  430.47 60.41 17.00 157.96 2973.29
