~Version Information
 VERS.                  2.0:   CWLS log ASCII Standard -VERSION 2.0
 WRAP.                   NO:   One line per depth step
~Well Information Block
#MNEM.UNIT     VALUE/NAME     DESCRIPTION
#---------     -----------    ---------------------------
 STRT.S             01:50:25 10-May-21: START TIME 01:50:25 10-May-21
 STOP.S             01:58:33 10-May-21: STOP TIME  01:58:33 10-May-21
 STEP.S                   0.00: STEP TIME
 NULL.                 -999.25: NULL VALUE
 PROV.                    Baku:  PROVINCE
 STAT.                    Baku:  STATE NAME
 SON .        AZ-XX-0906571588:  JOB NUMBER
 WTYP.                Deviated:  WELL TYPE
 COMP.     BP Exploration (Caspian Sea) ltd:  COMPANY
 BASE.              Azerbaijan:  LOGGING EQUIPMENT BASE LOCATION
 REGN.                   EESSA:  REGION
 CTRY.              Azerbaijan:  COUNTRY NAME
 FLD .                     ACG:  FIELD NAME
 WELL.                     J28:  WELL NAME
 RIG .             West Chirag:  RIG NAME
 DMF .             Drill Floor:  DRILL MEAS FROM
 PDAT.       Caspian Sea Level:  PERMANENT DATUM
 HPTY.       Minimum Curvature:  HOLE POS TYPE
 MDS .        Operator Entered:  MAG DATA SOURCE
 NREF.                    Grid:  NORTH REFERENCE
 SRVC.          TURAN DRILLING:  CONTRACTOR
 JOBN.        AZ-XX-0906571588:  JOB TICKET NUMB
 DCON.     Halliburton Sperry Drilling:  DIRECTNL CONTR
 STIM.      00.44.00 11-Feb-21:  START TIME
 DATE.      00.00.00 05-May-21:  END TIME
 SPUD.               13-Feb-21:  SPUD DATE
 MWDS.                    Baku:  MWD SHOP
 DOE .                     N/A:  DOE NUMBER
 UNIT.                     N/A:  LOGGING EQUIPMENT ID
 UWI .                     N/A:  UNIQUE WELL IDENTIFIER
 API .                     N/A:  API NUMBER
 CNTY.                        :  COUNTY
 LOC .                        :  LOCATION
 LMF .             Drill Floor:  LOG MEASURED FROM
 TVDS.m                  43.00:  TVDSS CORRECTN
 SDEP.m                 341.00:  START DEPTH
 EGL .m                   0.00:  GROUND ELEVATION
 WDMS.m                 169.80:  WD ELEV
 AGAP.m                  43.00:  AIR GAP
 EPD .m                   0.00:  ELEVATION
 APD .m                  43.00:  DEPTH ABOVE PD
 LATI.deg                40.13:  LATITUDE
 LONG.deg                51.22:  LONGITUDE
 UTMY.m             4443793.85:  UTM Y
 UTMX.m              519005.06:  UTM X
 WHEW.m                 -11.57:  WELL HEAD E/W
 WHNS.m                   8.57:  WELL HEAD N/S
 VSEW.m                 -11.57:  VERT SEC E/W
 VSNS.m                   8.57:  VERT SEC N/S
 DFWL.m                   0.00:  DISTANCE FWL
 DFSL.m                   0.00:  DISTANCE FSL
 VSDR.deg               299.34:  VERT SEC DIRECT
 GVFD.g                   1.00:  GRAVITY FIELD
 AZTC.deg                 6.36:  AZM TOTAL CORR
 MFLD.nT              50391.00:  MAGNETIC FIELD
 MDIP.deg                59.65:  MAGNETIC DIP
 MDEC.deg                 6.48:  MAGNETIC DECL
 GRDC.deg                 0.12:  GRID CORRECTION
 DEP .m                 334.96:  DEPTH
 TDD .m                1407.26:  TOTAL DEPTH (DRILLER)
 EKB .m                  43.00:  KB ELEVATION
 EDF .m                  43.00:  DF ELEVATION
 TDL .m                 228.00:  TOTAL DEPTH (LOGGER)
 VSC .                       0:  VS TO CLOSURE
 MAGU.                 1854484:  MAGUTM CHECKSUM
~Parameter Information Block
#MNEM.UNIT       Value        Description
#---------     -----------    ---------------------------
 AV  .mps                 4.00:  Ann Velocity 
 AVMX.mps                 4.73:  Max Ann Veloc 
 AZIF.deg               304.48:  Azm, Final 
 BHAT.        Rotary Steerable:  BHA Type 
 BREV.rev            257300.00:  Rev Bit Total 
 BROT.°/30m               0.00:  Build Rotating 
 BS  .in                  8.50:  Bit Size 
 BSZ .in                  8.50:  Bit Size 
 BTPL.psig              589.00:  Bit Press Loss 
 CABU.                      No:  Customer Abuse 
 CGEO.          Mubariz ghayev:  Customer Geo 
 COMM.                     Í‚:  Run Comments 1 
 TCS .hr                 64.25:  Time Ciculation Ended 
 CV  .mps                 3.50:  Crit Velocity 
 CVMX.mps                 4.52:  Max Crit Veloc 
 DD1 .             Aziz Aliyev:  Direct Drillr 1 
 DD2 .         Intigam Rahimov:  Direct Drillr 2 
 DD3 .          Rashad Habibov:  Direct Drillr 3 
 DDSV.               Geo-Pilot:  DD Service 
 DEFF.%                  98.00:  % Det Eff 
 DLRX.°/30m               0.00:  Dogleg Rot Max 
 DLSO.°/30m               0.00:  Dogleg Oriented 
 DLSX.°/30m               0.00:  Dogleg Str Max 
 DRET.      10.45.04 08-May-21:  Drill End Time 
 DRST.      03.30.04 04-May-21:  Drill Start Tim 
 DTIM.hr                 14.97:  Time Drilling 
 EDEP.m                4640.01:  End Depth 
 ENG1.         Dail Mahammadov:  Engineer 1 
 ENG2.           Eldar Hajiyev:  Engineer 2 
 ENG3.       Bakhtiar Jabbarli:  Engineer 3 
 ENG4.       Natik Hasanagayev:  Engineer 4 
 ETIM.      09.30.04 14-May-21:  End Time 
 FLOI.gpm               460.00:  Flow In 
 FLON.gpm               200.00:  Flow In Min 
 FLOS.cptm                0.00:  Fluid Loss 
 FLOX.gpm               505.00:  Flow In Max 
 HFLO.                      No:  High Flow 
 HPRE.                      No:  High Pressure 
 HTEM.                      No:  High Temp 
 HYDO.m                   1.80:  Hydro Offset 
 IFIN.deg                66.71:  Inc, Final 
 IMAX.deg                67.03:  Inc Max 
 IMIN.deg                66.63:  Inc Min 
 IMND.m                4550.58:  Inc Min Depth 
 IMXD.m                4439.01:  Inc Max Depth 
 JARR.                      No:  Jarring 
 LETM.      10.45.04 08-May-21:  Log End Time 
 LOST.hr                     0:  Lost Rig Time 
 LSTM.      03.30.04 04-May-21:  Log Start Time 
 MDCL.ppm             37000.00:  Mud Chlorides 
 MDES.     Inversion Oil/Synthetic:  Mud Desc 
 DFD .sg                  1.38:  Mud Density 
 MDMN.sg                  1.35:  Dens Mud Min 
 MDMX.sg                  1.40:  Dens Mud Max 
 MOIL.                   57.40:  Run Mud Oil % 
 MOWR.                   70:30:  Run Mud OWR 
 MSND.                    0.00:  Run Mud Sand % 
 MSOL.                   18.00:  Run Mud Solids% 
 DFV .spqt               71.00:  Mud Viscosity 
 MWOD.in                  6.75:  MWD Tool OD 
 MWSI.                      No:  Serv Intrp, MWD 
 OTIM.hr                242.76:  Time Operating 
 PCON.           Look Like New:  Pad Condition 
 PMAX.psia            12183.92:  Press Op, Max 
 PV  .cP                 27.00:  Mud PV 
 RUN .                    1300:  Run Number 
 ROPA.m/hr               15.00:  ROP Avg 
 ROPN.m/hr                9.00:  ROP Min 
 ROPX.m/hr               19.00:  ROP Max 
 RPMA.rpm               120.00:  RPM Surface Avg 
 RPMN.rpm               100.00:  RPM Surface Min 
 RPMX.rpm               120.00:  RPM Surface Max 
 RRUN.                    1300:  Rig Run Number 
 RTIM.hr                  5.00:  Time Reaming 
 SAZI.deg               304.73:  Azm, Start 
 SDEP.m                4412.01:  Start Depth 
 SIDD.                      No:  Serv Intrp, DD 
 SINC.deg                66.82:  Inc, Start 
 SPPA.psig             2800.00:  SPP Avg 
 SPPN.psig             2610.00:  SPP Min 
 SPPX.psig             3100.00:  SPP Max 
 STIM.      03.30.00 04-May-21:  Start Time 
 SVCS.                 DD, MWD:  Services 
 SVER.                    9.20:  Sperry Version 
 TDAT.m                 228.00:  Tot Depth Attmp 
 TDDF.                      No:  Trip for DD 
 TDLG.m                 228.00:  Tot Depth Loggd 
 TFF .                      No:  Trip for Fail 
 TQAA.f-kp               15.00:  Torque Abs Avg 
 TQAN.f-kp               12.00:  Torque Abs Min 
 TQAX.f-kp               22.00:  Torque Abs Max 
 TRRT.°/30m               0.00:  Turn Rotating 
 MRT .                    HCIM:  Maximum Recorded Temperature 
 TTMX.degC               90.20:  Max Tool Temp 
 VS01.                90627813:  Virtual Str1 SN 
 VS02.                90634712:  Virtual Str2 SN 
 VS03.                90643410:  Virtual Str3 SN 
 VS04.                90634712:  Virtual Str4 SN 
 WBMN.klb                 9.00:  WOB Min 
 WITN.        Elmaddin Rahimov:  Customer Rep 
 WITN.         Haytham Mostafa:  Customer Rep 2 
 WOBA.klb                15.00:  WOB Avg 
 WOBX.klb                23.00:  WOB Max 
 YP  .lhf2               29.00:  Yield Point 
~Curve Information Block
#MNEM.UNIT                 API CODE     Curve Description
#---------               -----------    ---------------------------
 TIME.HHMMSS            00 000 000 000:  GT Time & Date
 GTDEPTH.m              00 000 000 000:  GT Depth
 GTPQH.psia             00 000 000 000:  GT HR Quartz Pressure
 GTTQ.degC              00 000 000 000:  GT Quartz Temperature
 GTTN.NONE              00 000 000 000:  GT Test Number
 GTET.sec               00 000 000 000:  GT Elapsed Test Time
 GTTVD.m                00 000 000 000:  GT True Vertical Depth
#Other Information
#
#WARRANTY: Halliburton will use its best efforts to furnish customers with 
#accurate information and interpretations that are part of, and incident to, the services 
#provided.  However, Halliburton cannot and does not warrant the accuracy 
#or correctness of such information and interpretations.  Under no circumstances should any 
#such information or interpretation be relied upon as the sole basis for any drilling, 
#completion, production, or financial decision or any procedure involving any risk to the 
#safety of any drilling venture, drilling rig or its crew or any other third party.  The 
#Customer has full responsibility for all drilling, completion and production operation.  
#Halliburton makes no representations or warranties, either expressed or 
#implied, including, but not limited to, the implied warranties of merchantability or fitness 
#for a particular purpose, with respect to the services rendered.  In no event will 
#Halliburton be liable for failure to obtain any particular results or for 
#any damages, including, but not limited to, indirect, special or consequential damages, 
#resulting from the use of any information or interpretation provided by Halliburton.
#
~A           TIME           GTDEPTH  GTPQH  GTTQ  GTTN   GTET   GTTVD  
# ...
   01:54:33.985.10-May-2021 4567.51  496.39 60.97 19.00 248.64 2998.78
   01:54:34.185.10-May-2021 4567.51  496.72 60.97 19.00 248.84 2998.78
   01:54:34.385.10-May-2021 4567.51  496.76 60.97 19.00 249.04 2998.78
   01:54:34.585.10-May-2021 4567.51  496.76 60.97 19.00 249.24 2998.78
   01:54:34.785.10-May-2021 4567.51  496.81 60.97 19.00 249.44 2998.78
   01:54:34.985.10-May-2021 4567.51  496.82 60.97 19.00 249.64 2998.78
   01:54:35.186.10-May-2021 4567.51  496.52 60.97 19.00 249.84 2998.78
   01:54:35.386.10-May-2021 4567.51  496.84 60.97 19.00 250.04 2998.78
   01:54:35.586.10-May-2021 4567.51  496.84 60.97 19.00 250.24 2998.78
   01:54:35.786.10-May-2021 4567.51  496.97 60.97 19.00 250.44 2998.78
   01:54:35.986.10-May-2021 4567.51  496.92 60.97 19.00 250.64 2998.78
   01:54:36.186.10-May-2021 4567.51  496.75 60.97 19.00 250.84 2998.78
   01:54:36.386.10-May-2021 4567.51  496.68 60.97 19.00 251.04 2998.78
   01:54:36.586.10-May-2021 4567.51  496.68 60.97 19.00 251.24 2998.78
   01:54:36.786.10-May-2021 4567.51  497.01 60.97 19.00 251.44 2998.78
   01:54:36.986.10-May-2021 4567.51  497.02 60.97 19.00 251.64 2998.78
   01:54:37.186.10-May-2021 4567.51  496.73 60.97 19.00 251.84 2998.78
   01:54:37.386.10-May-2021 4567.51  497.03 60.97 19.00 252.04 2998.78
   01:54:37.586.10-May-2021 4567.51  497.03 60.97 19.00 252.24 2998.78
   01:54:37.786.10-May-2021 4567.51  497.10 60.97 19.00 252.44 2998.78
   01:54:37.986.10-May-2021 4567.51  497.02 60.97 19.00 252.64 2998.78
   01:54:38.186.10-May-2021 4567.51  497.06 60.97 19.00 252.85 2998.78
   01:54:38.386.10-May-2021 4567.51  497.06 60.97 19.00 253.05 2998.78
   01:54:38.586.10-May-2021 4567.51  497.06 60.97 19.00 253.25 2998.78
   01:54:38.786.10-May-2021 4567.51  497.08 60.97 19.00 253.45 2998.78
   01:54:38.986.10-May-2021 4567.51  497.10 60.97 19.00 253.65 2998.78
   01:54:39.186.10-May-2021 4567.51  497.11 60.97 19.00 253.85 2998.78
   01:54:39.386.10-May-2021 4567.51  497.18 60.97 19.00 254.05 2998.78
   01:54:39.586.10-May-2021 4567.51  497.18 60.97 19.00 254.25 2998.78
   01:54:39.786.10-May-2021 4567.51  496.82 60.97 19.00 254.45 2998.78
   01:54:39.986.10-May-2021 4567.51  497.42 60.97 19.00 254.65 2998.78
   01:54:40.186.10-May-2021 4567.51  497.16 60.97 19.00 254.85 2998.78
   01:54:40.386.10-May-2021 4567.51  497.26 60.97 19.00 255.05 2998.78
   01:54:40.586.10-May-2021 4567.51  497.26 60.97 19.00 255.25 2998.78
   01:54:40.787.10-May-2021 4567.51  497.27 60.97 19.00 255.45 2998.78
   01:54:40.987.10-May-2021 4567.51  497.28 60.97 19.00 255.65 2998.78
   01:54:41.187.10-May-2021 4567.51  497.29 60.97 19.00 255.85 2998.78
   01:54:41.387.10-May-2021 4567.51  497.29 60.97 19.00 256.05 2998.78
   01:54:41.587.10-May-2021 4567.51  497.29 60.97 19.00 256.25 2998.78
   01:54:41.787.10-May-2021 4567.51  497.34 60.97 19.00 256.45 2998.78
   01:54:41.987.10-May-2021 4567.51  497.39 60.97 19.00 256.65 2998.78
   01:54:42.187.10-May-2021 4567.51  497.40 60.97 19.00 256.85 2998.78
   01:54:42.387.10-May-2021 4567.51  497.04 60.97 19.00 257.05 2998.78
   01:54:42.587.10-May-2021 4567.51  497.04 60.97 19.00 257.25 2998.78
   01:54:42.787.10-May-2021 4567.51  497.43 60.97 19.00 257.45 2998.78
   01:54:42.987.10-May-2021 4567.51  497.43 60.97 19.00 257.65 2998.78
   01:54:43.187.10-May-2021 4567.51  497.55 60.97 19.00 257.85 2998.78
   01:54:43.387.10-May-2021 4567.51  497.14 60.96 19.00 258.05 2998.78
   01:54:43.587.10-May-2021 4567.51  497.14 60.96 19.00 258.25 2998.78
   01:54:43.787.10-May-2021 4567.51  497.42 60.96 19.00 258.45 2998.78
   01:54:43.987.10-May-2021 4567.51  497.65 60.96 19.00 258.65 2998.78
   01:54:44.187.10-May-2021 4567.51  497.56 60.96 19.00 258.85 2998.78
   01:54:44.387.10-May-2021 4567.51  497.48 60.96 19.00 259.05 2998.78
   01:54:44.587.10-May-2021 4567.51  497.48 60.96 19.00 259.25 2998.78
   01:54:44.787.10-May-2021 4567.51  497.76 60.96 19.00 259.45 2998.78
   01:54:44.987.10-May-2021 4567.51  497.65 60.96 19.00 259.65 2998.78
   01:54:45.187.10-May-2021 4567.51  497.67 60.96 19.00 259.85 2998.78
   01:54:45.387.10-May-2021 4567.51  497.70 60.96 19.00 260.05 2998.78
   01:54:45.587.10-May-2021 4567.51  497.70 60.96 19.00 260.25 2998.78
   01:54:45.787.10-May-2021 4567.51  497.89 60.96 19.00 260.45 2998.78
   01:54:45.987.10-May-2021 4567.51  497.69 60.96 19.00 260.65 2998.78
   01:54:46.187.10-May-2021 4567.51  497.68 60.96 19.00 260.85 2998.78
   01:54:46.388.10-May-2021 4567.51  497.75 60.96 19.00 261.05 2998.78
   01:54:46.588.10-May-2021 4567.51  497.75 60.96 19.00 261.25 2998.78
   01:54:46.788.10-May-2021 4567.51  497.74 60.96 19.00 261.45 2998.78
   01:54:46.988.10-May-2021 4567.51  497.76 60.96 19.00 261.65 2998.78
   01:54:47.188.10-May-2021 4567.51  497.76 60.96 19.00 261.85 2998.78
   01:54:47.388.10-May-2021 4567.51  497.78 60.96 19.00 262.05 2998.78
   01:54:47.588.10-May-2021 4567.51  497.78 60.96 19.00 262.25 2998.78
   01:54:47.788.10-May-2021 4567.51  497.85 60.96 19.00 262.45 2998.78
   01:54:47.988.10-May-2021 4567.51  497.55 60.96 19.00 262.65 2998.78
   01:54:48.188.10-May-2021 4567.51  497.90 60.96 19.00 262.85 2998.78
   01:54:48.388.10-May-2021 4567.51  497.90 60.96 19.00 263.05 2998.78
   01:54:48.588.10-May-2021 4567.51  497.90 60.96 19.00 263.25 2998.78
   01:54:48.788.10-May-2021 4567.51  497.90 60.96 19.00 263.45 2998.78
   01:54:48.988.10-May-2021 4567.51  497.92 60.96 19.00 263.65 2998.78
   01:54:49.188.10-May-2021 4567.51  497.92 60.96 19.00 263.85 2998.78
   01:54:49.388.10-May-2021 4567.51  497.94 60.96 19.00 264.05 2998.78
   01:54:49.588.10-May-2021 4567.51  497.94 60.96 19.00 264.25 2998.78
   01:54:49.788.10-May-2021 4567.51  497.94 60.96 19.00 264.45 2998.78
   01:54:49.988.10-May-2021 4567.51  497.96 60.96 19.00 264.65 2998.78
   01:54:50.188.10-May-2021 4567.51  498.01 60.96 19.00 264.85 2998.78
   01:54:50.388.10-May-2021 4567.51  498.03 60.96 19.00 265.05 2998.78
   01:54:50.588.10-May-2021 4567.51  498.03 60.96 19.00 265.25 2998.78
   01:54:50.788.10-May-2021 4567.51  498.27 60.96 19.00 265.45 2998.78
   01:54:50.988.10-May-2021 4567.51  497.94 60.96 19.00 265.65 2998.78
   01:54:51.188.10-May-2021 4567.51  498.17 60.96 19.00 265.85 2998.78
   01:54:51.388.10-May-2021 4567.51  498.10 60.96 19.00 266.05 2998.78
   01:54:51.588.10-May-2021 4567.51  498.10 60.96 19.00 266.25 2998.78
   01:54:51.788.10-May-2021 4567.51  497.89 60.96 19.00 266.45 2998.78
   01:54:51.989.10-May-2021 4567.51  498.29 60.96 19.00 266.65 2998.78
   01:54:52.189.10-May-2021 4567.51  498.17 60.96 19.00 266.85 2998.78
   01:54:52.389.10-May-2021 4567.51  498.17 60.96 19.00 267.05 2998.78
   01:54:52.589.10-May-2021 4567.51  498.17 60.96 19.00 267.25 2998.78
   01:54:52.789.10-May-2021 4567.51  497.77 60.96 19.00 267.45 2998.78
   01:54:52.989.10-May-2021 4567.51  498.40 60.96 19.00 267.65 2998.78
   01:54:53.189.10-May-2021 4567.51  498.09 60.96 19.00 267.85 2998.78
   01:54:53.389.10-May-2021 4567.51  498.32 60.96 19.00 268.05 2998.78
   01:54:53.589.10-May-2021 4567.51  498.32 60.96 19.00 268.25 2998.78
   01:54:53.789.10-May-2021 4567.51  497.88 60.96 19.00 268.45 2998.78
   01:54:53.989.10-May-2021 4567.51  498.47 60.96 19.00 268.65 2998.78
   01:54:54.189.10-May-2021 4567.51  498.18 60.96 19.00 268.85 2998.78
   01:54:54.389.10-May-2021 4567.51  498.30 60.96 19.00 269.05 2998.78
   01:54:54.589.10-May-2021 4567.51  498.30 60.96 19.00 269.25 2998.78
   01:54:54.789.10-May-2021 4567.51  498.26 60.96 19.00 269.45 2998.78
   01:54:54.989.10-May-2021 4567.51  498.28 60.96 19.00 269.65 2998.78
   01:54:55.189.10-May-2021 4567.51  498.28 60.96 19.00 269.85 2998.78
   01:54:55.389.10-May-2021 4567.51  498.28 60.96 19.00 270.05 2998.78
   01:54:55.589.10-May-2021 4567.51  498.28 60.96 19.00 270.25 2998.78
   01:54:55.789.10-May-2021 4567.51  498.33 60.96 19.00 270.45 2998.78
   01:54:55.989.10-May-2021 4567.51  498.36 60.96 19.00 270.65 2998.78
   01:54:56.189.10-May-2021 4567.51  498.25 60.96 19.00 270.85 2998.78
   01:54:56.389.10-May-2021 4567.51  498.15 60.96 19.00 271.05 2998.78
