~Version Information
 VERS.                  2.0:   CWLS log ASCII Standard -VERSION 2.0
 WRAP.                   NO:   One line per depth step
~Well Information Block
#MNEM.UNIT     VALUE/NAME     DESCRIPTION
#---------     -----------    ---------------------------
 STRT.S             02:35:25 09-May-21: START TIME 02:35:25 09-May-21
 STOP.S             02:42:01 09-May-21: STOP TIME  02:42:01 09-May-21
 STEP.S                   0.00: STEP TIME
 NULL.                 -999.25: NULL VALUE
 PROV.                    Baku:  PROVINCE
 STAT.                    Baku:  STATE NAME
 SON .        AZ-XX-0906571588:  JOB NUMBER
 WTYP.                Deviated:  WELL TYPE
 COMP.     BP Exploration (Caspian Sea) ltd:  COMPANY
 BASE.              Azerbaijan:  LOGGING EQUIPMENT BASE LOCATION
 REGN.                   EESSA:  REGION
 CTRY.              Azerbaijan:  COUNTRY NAME
 FLD .                     ACG:  FIELD NAME
 WELL.                     J28:  WELL NAME
 RIG .             West Chirag:  RIG NAME
 DMF .             Drill Floor:  DRILL MEAS FROM
 PDAT.       Caspian Sea Level:  PERMANENT DATUM
 HPTY.       Minimum Curvature:  HOLE POS TYPE
 MDS .        Operator Entered:  MAG DATA SOURCE
 NREF.                    Grid:  NORTH REFERENCE
 SRVC.          TURAN DRILLING:  CONTRACTOR
 JOBN.        AZ-XX-0906571588:  JOB TICKET NUMB
 DCON.     Halliburton Sperry Drilling:  DIRECTNL CONTR
 STIM.      00.44.00 11-Feb-21:  START TIME
 DATE.      00.00.00 05-May-21:  END TIME
 SPUD.               13-Feb-21:  SPUD DATE
 MWDS.                    Baku:  MWD SHOP
 DOE .                     N/A:  DOE NUMBER
 UNIT.                     N/A:  LOGGING EQUIPMENT ID
 UWI .                     N/A:  UNIQUE WELL IDENTIFIER
 API .                     N/A:  API NUMBER
 CNTY.                        :  COUNTY
 LOC .                        :  LOCATION
 LMF .             Drill Floor:  LOG MEASURED FROM
 TVDS.m                  43.00:  TVDSS CORRECTN
 SDEP.m                 341.00:  START DEPTH
 EGL .m                   0.00:  GROUND ELEVATION
 WDMS.m                 169.80:  WD ELEV
 AGAP.m                  43.00:  AIR GAP
 EPD .m                   0.00:  ELEVATION
 APD .m                  43.00:  DEPTH ABOVE PD
 LATI.deg                40.13:  LATITUDE
 LONG.deg                51.22:  LONGITUDE
 UTMY.m             4443793.85:  UTM Y
 UTMX.m              519005.06:  UTM X
 WHEW.m                 -11.57:  WELL HEAD E/W
 WHNS.m                   8.57:  WELL HEAD N/S
 VSEW.m                 -11.57:  VERT SEC E/W
 VSNS.m                   8.57:  VERT SEC N/S
 DFWL.m                   0.00:  DISTANCE FWL
 DFSL.m                   0.00:  DISTANCE FSL
 VSDR.deg               299.34:  VERT SEC DIRECT
 GVFD.g                   1.00:  GRAVITY FIELD
 AZTC.deg                 6.36:  AZM TOTAL CORR
 MFLD.nT              50391.00:  MAGNETIC FIELD
 MDIP.deg                59.65:  MAGNETIC DIP
 MDEC.deg                 6.48:  MAGNETIC DECL
 GRDC.deg                 0.12:  GRID CORRECTION
 DEP .m                 334.96:  DEPTH
 TDD .m                1407.26:  TOTAL DEPTH (DRILLER)
 EKB .m                  43.00:  KB ELEVATION
 EDF .m                  43.00:  DF ELEVATION
 TDL .m                 228.00:  TOTAL DEPTH (LOGGER)
 VSC .                       0:  VS TO CLOSURE
 MAGU.                 1854484:  MAGUTM CHECKSUM
~Parameter Information Block
#MNEM.UNIT       Value        Description
#---------     -----------    ---------------------------
 AV  .mps                 4.00:  Ann Velocity 
 AVMX.mps                 4.73:  Max Ann Veloc 
 AZIF.deg               304.48:  Azm, Final 
 BHAT.        Rotary Steerable:  BHA Type 
 BREV.rev            257300.00:  Rev Bit Total 
 BROT.°/30m               0.00:  Build Rotating 
 BS  .in                  8.50:  Bit Size 
 BSZ .in                  8.50:  Bit Size 
 BTPL.psig              589.00:  Bit Press Loss 
 CABU.                      No:  Customer Abuse 
 CGEO.          Mubariz ghayev:  Customer Geo 
 COMM.                     LÑz:  Run Comments 1 
 TCS .hr                 64.25:  Time Ciculation Ended 
 CV  .mps                 3.50:  Crit Velocity 
 CVMX.mps                 4.52:  Max Crit Veloc 
 DD1 .             Aziz Aliyev:  Direct Drillr 1 
 DD2 .         Intigam Rahimov:  Direct Drillr 2 
 DD3 .          Rashad Habibov:  Direct Drillr 3 
 DDSV.               Geo-Pilot:  DD Service 
 DEFF.%                  98.00:  % Det Eff 
 DLRX.°/30m               0.00:  Dogleg Rot Max 
 DLSO.°/30m               0.00:  Dogleg Oriented 
 DLSX.°/30m               0.00:  Dogleg Str Max 
 DRET.      10.45.04 08-May-21:  Drill End Time 
 DRST.      03.30.04 04-May-21:  Drill Start Tim 
 DTIM.hr                 14.97:  Time Drilling 
 EDEP.m                4640.01:  End Depth 
 ENG1.         Dail Mahammadov:  Engineer 1 
 ENG2.           Eldar Hajiyev:  Engineer 2 
 ENG3.       Bakhtiar Jabbarli:  Engineer 3 
 ENG4.       Natik Hasanagayev:  Engineer 4 
 ETIM.      09.30.04 14-May-21:  End Time 
 FLOI.gpm               460.00:  Flow In 
 FLON.gpm               200.00:  Flow In Min 
 FLOS.cptm                0.00:  Fluid Loss 
 FLOX.gpm               505.00:  Flow In Max 
 HFLO.                      No:  High Flow 
 HPRE.                      No:  High Pressure 
 HTEM.                      No:  High Temp 
 HYDO.m                   1.80:  Hydro Offset 
 IFIN.deg                66.71:  Inc, Final 
 IMAX.deg                67.03:  Inc Max 
 IMIN.deg                66.63:  Inc Min 
 IMND.m                4550.58:  Inc Min Depth 
 IMXD.m                4439.01:  Inc Max Depth 
 JARR.                      No:  Jarring 
 LETM.      10.45.04 08-May-21:  Log End Time 
 LOST.hr                     0:  Lost Rig Time 
 LSTM.      03.30.04 04-May-21:  Log Start Time 
 MDCL.ppm             37000.00:  Mud Chlorides 
 MDES.     Inversion Oil/Synthetic:  Mud Desc 
 DFD .sg                  1.38:  Mud Density 
 MDMN.sg                  1.35:  Dens Mud Min 
 MDMX.sg                  1.40:  Dens Mud Max 
 MOIL.                   57.40:  Run Mud Oil % 
 MOWR.                   70:30:  Run Mud OWR 
 MSND.                    0.00:  Run Mud Sand % 
 MSOL.                   18.00:  Run Mud Solids% 
 DFV .spqt               71.00:  Mud Viscosity 
 MWOD.in                  6.75:  MWD Tool OD 
 MWSI.                      No:  Serv Intrp, MWD 
 OTIM.hr                242.76:  Time Operating 
 PCON.           Look Like New:  Pad Condition 
 PMAX.psia            12183.92:  Press Op, Max 
 PV  .cP                 27.00:  Mud PV 
 RUN .                    1300:  Run Number 
 ROPA.m/hr               15.00:  ROP Avg 
 ROPN.m/hr                9.00:  ROP Min 
 ROPX.m/hr               19.00:  ROP Max 
 RPMA.rpm               120.00:  RPM Surface Avg 
 RPMN.rpm               100.00:  RPM Surface Min 
 RPMX.rpm               120.00:  RPM Surface Max 
 RRUN.                    1300:  Rig Run Number 
 RTIM.hr                  5.00:  Time Reaming 
 SAZI.deg               304.73:  Azm, Start 
 SDEP.m                4412.01:  Start Depth 
 SIDD.                      No:  Serv Intrp, DD 
 SINC.deg                66.82:  Inc, Start 
 SPPA.psig             2800.00:  SPP Avg 
 SPPN.psig             2610.00:  SPP Min 
 SPPX.psig             3100.00:  SPP Max 
 STIM.      03.30.00 04-May-21:  Start Time 
 SVCS.                 DD, MWD:  Services 
 SVER.                    9.20:  Sperry Version 
 TDAT.m                 228.00:  Tot Depth Attmp 
 TDDF.                      No:  Trip for DD 
 TDLG.m                 228.00:  Tot Depth Loggd 
 TFF .                      No:  Trip for Fail 
 TQAA.f-kp               15.00:  Torque Abs Avg 
 TQAN.f-kp               12.00:  Torque Abs Min 
 TQAX.f-kp               22.00:  Torque Abs Max 
 TRRT.°/30m               0.00:  Turn Rotating 
 MRT .                    HCIM:  Maximum Recorded Temperature 
 TTMX.degC               90.20:  Max Tool Temp 
 VS01.                90627813:  Virtual Str1 SN 
 VS02.                90634712:  Virtual Str2 SN 
 VS03.                90643410:  Virtual Str3 SN 
 VS04.                90634712:  Virtual Str4 SN 
 WBMN.klb                 9.00:  WOB Min 
 WITN.        Elmaddin Rahimov:  Customer Rep 
 WITN.         Haytham Mostafa:  Customer Rep 2 
 WOBA.klb                15.00:  WOB Avg 
 WOBX.klb                23.00:  WOB Max 
 YP  .lhf2               29.00:  Yield Point 
~Curve Information Block
#MNEM.UNIT                 API CODE     Curve Description
#---------               -----------    ---------------------------
 TIME.HHMMSS            00 000 000 000:  GT Time & Date
 GTDEPTH.m              00 000 000 000:  GT Depth
 GTPQH.psia             00 000 000 000:  GT HR Quartz Pressure
 GTTQ.degC              00 000 000 000:  GT Quartz Temperature
 GTTN.NONE              00 000 000 000:  GT Test Number
 GTET.sec               00 000 000 000:  GT Elapsed Test Time
 GTTVD.m                00 000 000 000:  GT True Vertical Depth
#Other Information
#
#WARRANTY: Halliburton will use its best efforts to furnish customers with 
#accurate information and interpretations that are part of, and incident to, the services 
#provided.  However, Halliburton cannot and does not warrant the accuracy 
#or correctness of such information and interpretations.  Under no circumstances should any 
#such information or interpretation be relied upon as the sole basis for any drilling, 
#completion, production, or financial decision or any procedure involving any risk to the 
#safety of any drilling venture, drilling rig or its crew or any other third party.  The 
#Customer has full responsibility for all drilling, completion and production operation.  
#Halliburton makes no representations or warranties, either expressed or 
#implied, including, but not limited to, the implied warranties of merchantability or fitness 
#for a particular purpose, with respect to the services rendered.  In no event will 
#Halliburton be liable for failure to obtain any particular results or for 
#any damages, including, but not limited to, indirect, special or consequential damages, 
#resulting from the use of any information or interpretation provided by Halliburton.
#
~A           TIME           GTDEPTH  GTPQH  GTTQ  GTTN   GTET   GTTVD  
# ...
   02:38:03.492.09-May-2021 4482.51  685.68 67.66 11.00 158.23 2965.25
   02:38:03.692.09-May-2021 4482.51  690.79 67.66 11.00 158.43 2965.25
   02:38:03.892.09-May-2021 4482.51  693.29 67.66 11.00 158.63 2965.25
   02:38:04.092.09-May-2021 4482.51  695.71 67.66 11.00 158.83 2965.25
   02:38:04.292.09-May-2021 4482.51  698.16 67.66 11.00 159.03 2965.25
   02:38:04.492.09-May-2021 4482.51  698.16 67.66 11.00 159.23 2965.25
   02:38:04.692.09-May-2021 4482.51  700.54 67.66 11.00 159.43 2965.25
   02:38:04.892.09-May-2021 4482.51  705.53 67.66 11.00 159.63 2965.25
   02:38:05.092.09-May-2021 4482.51  707.53 67.66 11.00 159.83 2965.25
   02:38:05.292.09-May-2021 4482.51  710.28 67.66 11.00 160.03 2965.25
   02:38:05.492.09-May-2021 4482.51  710.28 67.66 11.00 160.23 2965.25
   02:38:05.692.09-May-2021 4482.51  715.04 67.66 11.00 160.43 2965.25
   02:38:05.893.09-May-2021 4482.51  717.07 67.66 11.00 160.63 2965.25
   02:38:06.093.09-May-2021 4482.51  719.39 67.66 11.00 160.83 2965.25
   02:38:06.293.09-May-2021 4482.51  721.63 67.66 11.00 161.03 2965.25
   02:38:06.493.09-May-2021 4482.51  721.63 67.66 11.00 161.23 2965.25
   02:38:06.693.09-May-2021 4482.51  725.99 67.66 11.00 161.43 2965.25
   02:38:06.893.09-May-2021 4482.51  728.17 67.66 11.00 161.63 2965.25
   02:38:07.093.09-May-2021 4482.51  730.31 67.66 11.00 161.83 2965.25
   02:38:07.293.09-May-2021 4482.51  732.49 67.66 11.00 162.03 2965.25
   02:38:07.493.09-May-2021 4482.51  732.49 67.66 11.00 162.23 2965.25
   02:38:07.693.09-May-2021 4482.51  736.13 67.66 11.00 162.43 2965.25
   02:38:07.893.09-May-2021 4482.51  739.02 67.66 11.00 162.63 2965.25
   02:38:08.093.09-May-2021 4482.51  740.84 67.66 11.00 162.83 2965.25
   02:38:08.293.09-May-2021 4482.51  742.61 67.66 11.00 163.03 2965.25
   02:38:08.493.09-May-2021 4482.51  742.61 67.66 11.00 163.23 2965.25
   02:38:08.693.09-May-2021 4482.51  744.95 67.66 11.00 163.43 2965.25
   02:38:08.893.09-May-2021 4482.51  749.29 67.66 11.00 163.63 2965.25
   02:38:09.093.09-May-2021 4482.51  751.04 67.66 11.00 163.83 2965.25
   02:38:09.293.09-May-2021 4482.51  753.05 67.66 11.00 164.03 2965.25
   02:38:09.493.09-May-2021 4482.51  753.05 67.66 11.00 164.23 2965.25
   02:38:09.693.09-May-2021 4482.51  757.19 67.66 11.00 164.43 2965.25
   02:38:09.893.09-May-2021 4482.51  758.88 67.66 11.00 164.63 2965.25
   02:38:10.093.09-May-2021 4482.51  761.13 67.66 11.00 164.83 2965.25
   02:38:10.293.09-May-2021 4482.51  770.75 67.66 11.00 165.03 2965.25
   02:38:10.493.09-May-2021 4482.51  770.75 67.66 11.00 165.23 2965.25
   02:38:10.693.09-May-2021 4482.51  779.06 67.66 11.00 165.43 2965.25
   02:38:10.893.09-May-2021 4482.51  781.80 67.66 11.00 165.63 2965.25
   02:38:11.093.09-May-2021 4482.51  783.84 67.66 11.00 165.83 2965.25
   02:38:11.293.09-May-2021 4482.51  785.71 67.66 11.00 166.03 2965.25
   02:38:11.493.09-May-2021 4482.51  785.71 67.66 11.00 166.23 2965.25
   02:38:11.693.09-May-2021 4482.51  789.67 67.66 11.00 166.43 2965.25
   02:38:11.894.09-May-2021 4482.51  791.60 67.66 11.00 166.63 2965.25
   02:38:12.094.09-May-2021 4482.51  793.49 67.66 11.00 166.83 2965.25
   02:38:12.294.09-May-2021 4482.51  795.35 67.66 11.00 167.03 2965.25
   02:38:12.494.09-May-2021 4482.51  795.35 67.66 11.00 167.23 2965.25
   02:38:12.694.09-May-2021 4482.51  797.18 67.66 11.00 167.43 2965.25
   02:38:12.894.09-May-2021 4482.51  800.85 67.66 11.00 167.63 2965.25
   02:38:13.094.09-May-2021 4482.51  802.57 67.66 11.00 167.83 2965.25
   02:38:13.294.09-May-2021 4482.51  804.10 67.66 11.00 168.03 2965.25
   02:38:13.494.09-May-2021 4482.51  804.10 67.66 11.00 168.23 2965.25
   02:38:13.694.09-May-2021 4482.51  808.28 67.66 11.00 168.43 2965.25
   02:38:13.894.09-May-2021 4482.51  809.80 67.66 11.00 168.63 2965.25
   02:38:14.094.09-May-2021 4482.51  811.68 67.66 11.00 168.83 2965.25
   02:38:14.294.09-May-2021 4482.51  813.34 67.66 11.00 169.03 2965.25
   02:38:14.494.09-May-2021 4482.51  813.34 67.66 11.00 169.23 2965.25
   02:38:14.694.09-May-2021 4482.51  816.77 67.66 11.00 169.43 2965.25
   02:38:14.894.09-May-2021 4482.51  818.44 67.66 11.00 169.63 2965.25
   02:38:15.094.09-May-2021 4482.51  820.14 67.66 11.00 169.83 2965.25
   02:38:15.294.09-May-2021 4482.51  821.83 67.66 11.00 170.03 2965.25
   02:38:15.494.09-May-2021 4482.51  821.83 67.66 11.00 170.23 2965.25
   02:38:15.694.09-May-2021 4482.51  824.63 67.66 11.00 170.43 2965.25
   02:38:15.894.09-May-2021 4482.51  826.91 67.66 11.00 170.63 2965.25
   02:38:16.094.09-May-2021 4482.51  828.39 67.66 11.00 170.83 2965.25
   02:38:16.294.09-May-2021 4482.51  830.31 67.66 11.00 171.03 2965.25
   02:38:16.494.09-May-2021 4482.51  830.31 67.66 11.00 171.23 2965.25
   02:38:16.694.09-May-2021 4482.51  831.66 67.66 11.00 171.43 2965.25
   02:38:16.894.09-May-2021 4482.51  835.13 67.66 11.00 171.63 2965.25
   02:38:17.094.09-May-2021 4482.51  836.53 67.66 11.00 171.83 2965.25
   02:38:17.294.09-May-2021 4482.51  838.43 67.66 11.00 172.03 2965.25
   02:38:17.494.09-May-2021 4482.51  838.43 67.66 11.00 172.23 2965.25
   02:38:17.694.09-May-2021 4482.51  840.98 67.66 11.00 172.43 2965.25
   02:38:17.895.09-May-2021 4482.51  843.01 67.66 11.00 172.63 2965.25
   02:38:18.095.09-May-2021 4482.51  844.65 67.66 11.00 172.83 2965.25
   02:38:18.295.09-May-2021 4482.51  846.47 67.66 11.00 173.03 2965.25
   02:38:18.495.09-May-2021 4482.51  846.47 67.66 11.00 173.23 2965.25
   02:38:18.695.09-May-2021 4482.51  849.47 67.66 11.00 173.43 2965.25
   02:38:18.895.09-May-2021 4482.51  850.98 67.66 11.00 173.63 2965.25
   02:38:19.095.09-May-2021 4482.51  852.73 67.66 11.00 173.83 2965.25
   02:38:19.295.09-May-2021 4482.51  854.03 67.66 11.00 174.03 2965.25
   02:38:19.495.09-May-2021 4482.51  854.03 67.66 11.00 174.23 2965.25
   02:38:19.695.09-May-2021 4482.51  857.17 67.66 11.00 174.43 2965.25
   02:38:19.895.09-May-2021 4482.51  858.70 67.66 11.00 174.63 2965.25
   02:38:20.095.09-May-2021 4482.51  860.25 67.66 11.00 174.83 2965.25
   02:38:20.295.09-May-2021 4482.51  861.76 67.66 11.00 175.03 2965.25
   02:38:20.495.09-May-2021 4482.51  861.76 67.66 11.00 175.23 2965.25
   02:38:20.695.09-May-2021 4482.51  863.32 67.66 11.00 175.43 2965.25
   02:38:20.895.09-May-2021 4482.51  866.38 67.66 11.00 175.63 2965.25
   02:38:21.095.09-May-2021 4482.51  867.39 67.66 11.00 175.83 2965.25
   02:38:21.295.09-May-2021 4482.51  869.48 67.66 11.00 176.03 2965.25
   02:38:21.495.09-May-2021 4482.51  869.48 67.66 11.00 176.23 2965.25
   02:38:21.695.09-May-2021 4482.51  872.46 67.66 11.00 176.43 2965.25
   02:38:21.895.09-May-2021 4482.51  873.73 67.66 11.00 176.63 2965.25
   02:38:22.095.09-May-2021 4482.51  875.19 67.66 11.00 176.83 2965.25
   02:38:22.295.09-May-2021 4482.51  876.64 67.66 11.00 177.03 2965.25
   02:38:22.495.09-May-2021 4482.51  876.64 67.66 11.00 177.23 2965.25
   02:38:22.695.09-May-2021 4482.51  879.58 67.66 11.00 177.43 2965.25
   02:38:22.895.09-May-2021 4482.51  881.06 67.66 11.00 177.63 2965.25
   02:38:23.095.09-May-2021 4482.51  882.52 67.66 11.00 177.83 2965.25
   02:38:23.295.09-May-2021 4482.51  886.39 67.66 11.00 178.03 2965.25
   02:38:23.495.09-May-2021 4482.51  886.39 67.66 11.00 178.23 2965.25
   02:38:23.695.09-May-2021 4482.51  892.43 67.66 11.00 178.43 2965.25
   02:38:23.896.09-May-2021 4482.51  895.49 67.66 11.00 178.63 2965.25
   02:38:24.096.09-May-2021 4482.51  898.07 67.67 11.00 178.83 2965.25
   02:38:24.296.09-May-2021 4482.51  900.98 67.66 11.00 179.03 2965.25
   02:38:24.496.09-May-2021 4482.51  900.98 67.66 11.00 179.23 2965.25
   02:38:24.696.09-May-2021 4482.51  903.20 67.67 11.00 179.43 2965.25
   02:38:24.896.09-May-2021 4482.51  908.84 67.67 11.00 179.63 2965.25
   02:38:25.096.09-May-2021 4482.51  911.33 67.67 11.00 179.83 2965.25
   02:38:25.296.09-May-2021 4482.51  914.07 67.67 11.00 180.03 2965.25
   02:38:25.496.09-May-2021 4482.51  914.07 67.67 11.00 180.23 2965.25
   02:38:25.696.09-May-2021 4482.51  919.32 67.67 11.00 180.43 2965.25
   02:38:25.896.09-May-2021 4482.51  921.53 67.67 11.00 180.63 2965.25
