~Version Information
 VERS.                  2.0:   CWLS log ASCII Standard -VERSION 2.0
 WRAP.                   NO:   One line per depth step
~Well Information Block
#MNEM.UNIT     VALUE/NAME     DESCRIPTION
#---------     -----------    ---------------------------
 STRT.S             03:18:48 09-May-21: START TIME 03:18:48 09-May-21
 STOP.S             03:25:48 09-May-21: STOP TIME  03:25:48 09-May-21
 STEP.S                   0.00: STEP TIME
 NULL.                 -999.25: NULL VALUE
 PROV.                    Baku:  PROVINCE
 STAT.                    Baku:  STATE NAME
 SON .        AZ-XX-0906571588:  JOB NUMBER
 WTYP.                Deviated:  WELL TYPE
 COMP.     BP Exploration (Caspian Sea) ltd:  COMPANY
 BASE.              Azerbaijan:  LOGGING EQUIPMENT BASE LOCATION
 REGN.                   EESSA:  REGION
 CTRY.              Azerbaijan:  COUNTRY NAME
 FLD .                     ACG:  FIELD NAME
 WELL.                     J28:  WELL NAME
 RIG .             West Chirag:  RIG NAME
 DMF .             Drill Floor:  DRILL MEAS FROM
 PDAT.       Caspian Sea Level:  PERMANENT DATUM
 HPTY.       Minimum Curvature:  HOLE POS TYPE
 MDS .        Operator Entered:  MAG DATA SOURCE
 NREF.                    Grid:  NORTH REFERENCE
 SRVC.          TURAN DRILLING:  CONTRACTOR
 JOBN.        AZ-XX-0906571588:  JOB TICKET NUMB
 DCON.     Halliburton Sperry Drilling:  DIRECTNL CONTR
 STIM.      00.44.00 11-Feb-21:  START TIME
 DATE.      00.00.00 05-May-21:  END TIME
 SPUD.               13-Feb-21:  SPUD DATE
 MWDS.                    Baku:  MWD SHOP
 DOE .                     N/A:  DOE NUMBER
 UNIT.                     N/A:  LOGGING EQUIPMENT ID
 UWI .                     N/A:  UNIQUE WELL IDENTIFIER
 API .                     N/A:  API NUMBER
 CNTY.                        :  COUNTY
 LOC .                        :  LOCATION
 LMF .             Drill Floor:  LOG MEASURED FROM
 TVDS.m                  43.00:  TVDSS CORRECTN
 SDEP.m                 341.00:  START DEPTH
 EGL .m                   0.00:  GROUND ELEVATION
 WDMS.m                 169.80:  WD ELEV
 AGAP.m                  43.00:  AIR GAP
 EPD .m                   0.00:  ELEVATION
 APD .m                  43.00:  DEPTH ABOVE PD
 LATI.deg                40.13:  LATITUDE
 LONG.deg                51.22:  LONGITUDE
 UTMY.m             4443793.85:  UTM Y
 UTMX.m              519005.06:  UTM X
 WHEW.m                 -11.57:  WELL HEAD E/W
 WHNS.m                   8.57:  WELL HEAD N/S
 VSEW.m                 -11.57:  VERT SEC E/W
 VSNS.m                   8.57:  VERT SEC N/S
 DFWL.m                   0.00:  DISTANCE FWL
 DFSL.m                   0.00:  DISTANCE FSL
 VSDR.deg               299.34:  VERT SEC DIRECT
 GVFD.g                   1.00:  GRAVITY FIELD
 AZTC.deg                 6.36:  AZM TOTAL CORR
 MFLD.nT              50391.00:  MAGNETIC FIELD
 MDIP.deg                59.65:  MAGNETIC DIP
 MDEC.deg                 6.48:  MAGNETIC DECL
 GRDC.deg                 0.12:  GRID CORRECTION
 DEP .m                 334.96:  DEPTH
 TDD .m                1407.26:  TOTAL DEPTH (DRILLER)
 EKB .m                  43.00:  KB ELEVATION
 EDF .m                  43.00:  DF ELEVATION
 TDL .m                 228.00:  TOTAL DEPTH (LOGGER)
 VSC .                       0:  VS TO CLOSURE
 MAGU.                 1854484:  MAGUTM CHECKSUM
~Parameter Information Block
#MNEM.UNIT       Value        Description
#---------     -----------    ---------------------------
 AV  .mps                 4.00:  Ann Velocity 
 AVMX.mps                 4.73:  Max Ann Veloc 
 AZIF.deg               304.48:  Azm, Final 
 BHAT.        Rotary Steerable:  BHA Type 
 BREV.rev            257300.00:  Rev Bit Total 
 BROT.°/30m               0.00:  Build Rotating 
 BS  .in                  8.50:  Bit Size 
 BSZ .in                  8.50:  Bit Size 
 BTPL.psig              589.00:  Bit Press Loss 
 CABU.                      No:  Customer Abuse 
 CGEO.          Mubariz ghayev:  Customer Geo 
 COMM.                     ü>:  Run Comments 1 
 TCS .hr                 64.25:  Time Ciculation Ended 
 CV  .mps                 3.50:  Crit Velocity 
 CVMX.mps                 4.52:  Max Crit Veloc 
 DD1 .             Aziz Aliyev:  Direct Drillr 1 
 DD2 .         Intigam Rahimov:  Direct Drillr 2 
 DD3 .          Rashad Habibov:  Direct Drillr 3 
 DDSV.               Geo-Pilot:  DD Service 
 DEFF.%                  98.00:  % Det Eff 
 DLRX.°/30m               0.00:  Dogleg Rot Max 
 DLSO.°/30m               0.00:  Dogleg Oriented 
 DLSX.°/30m               0.00:  Dogleg Str Max 
 DRET.      10.45.04 08-May-21:  Drill End Time 
 DRST.      03.30.04 04-May-21:  Drill Start Tim 
 DTIM.hr                 14.97:  Time Drilling 
 EDEP.m                4640.01:  End Depth 
 ENG1.         Dail Mahammadov:  Engineer 1 
 ENG2.           Eldar Hajiyev:  Engineer 2 
 ENG3.       Bakhtiar Jabbarli:  Engineer 3 
 ENG4.       Natik Hasanagayev:  Engineer 4 
 ETIM.      09.30.04 14-May-21:  End Time 
 FLOI.gpm               460.00:  Flow In 
 FLON.gpm               200.00:  Flow In Min 
 FLOS.cptm                0.00:  Fluid Loss 
 FLOX.gpm               505.00:  Flow In Max 
 HFLO.                      No:  High Flow 
 HPRE.                      No:  High Pressure 
 HTEM.                      No:  High Temp 
 HYDO.m                   1.80:  Hydro Offset 
 IFIN.deg                66.71:  Inc, Final 
 IMAX.deg                67.03:  Inc Max 
 IMIN.deg                66.63:  Inc Min 
 IMND.m                4550.58:  Inc Min Depth 
 IMXD.m                4439.01:  Inc Max Depth 
 JARR.                      No:  Jarring 
 LETM.      10.45.04 08-May-21:  Log End Time 
 LOST.hr                     0:  Lost Rig Time 
 LSTM.      03.30.04 04-May-21:  Log Start Time 
 MDCL.ppm             37000.00:  Mud Chlorides 
 MDES.     Inversion Oil/Synthetic:  Mud Desc 
 DFD .sg                  1.38:  Mud Density 
 MDMN.sg                  1.35:  Dens Mud Min 
 MDMX.sg                  1.40:  Dens Mud Max 
 MOIL.                   57.40:  Run Mud Oil % 
 MOWR.                   70:30:  Run Mud OWR 
 MSND.                    0.00:  Run Mud Sand % 
 MSOL.                   18.00:  Run Mud Solids% 
 DFV .spqt               71.00:  Mud Viscosity 
 MWOD.in                  6.75:  MWD Tool OD 
 MWSI.                      No:  Serv Intrp, MWD 
 OTIM.hr                242.76:  Time Operating 
 PCON.           Look Like New:  Pad Condition 
 PMAX.psia            12183.92:  Press Op, Max 
 PV  .cP                 27.00:  Mud PV 
 RUN .                    1300:  Run Number 
 ROPA.m/hr               15.00:  ROP Avg 
 ROPN.m/hr                9.00:  ROP Min 
 ROPX.m/hr               19.00:  ROP Max 
 RPMA.rpm               120.00:  RPM Surface Avg 
 RPMN.rpm               100.00:  RPM Surface Min 
 RPMX.rpm               120.00:  RPM Surface Max 
 RRUN.                    1300:  Rig Run Number 
 RTIM.hr                  5.00:  Time Reaming 
 SAZI.deg               304.73:  Azm, Start 
 SDEP.m                4412.01:  Start Depth 
 SIDD.                      No:  Serv Intrp, DD 
 SINC.deg                66.82:  Inc, Start 
 SPPA.psig             2800.00:  SPP Avg 
 SPPN.psig             2610.00:  SPP Min 
 SPPX.psig             3100.00:  SPP Max 
 STIM.      03.30.00 04-May-21:  Start Time 
 SVCS.                 DD, MWD:  Services 
 SVER.                    9.20:  Sperry Version 
 TDAT.m                 228.00:  Tot Depth Attmp 
 TDDF.                      No:  Trip for DD 
 TDLG.m                 228.00:  Tot Depth Loggd 
 TFF .                      No:  Trip for Fail 
 TQAA.f-kp               15.00:  Torque Abs Avg 
 TQAN.f-kp               12.00:  Torque Abs Min 
 TQAX.f-kp               22.00:  Torque Abs Max 
 TRRT.°/30m               0.00:  Turn Rotating 
 MRT .                    HCIM:  Maximum Recorded Temperature 
 TTMX.degC               90.20:  Max Tool Temp 
 VS01.                90627813:  Virtual Str1 SN 
 VS02.                90634712:  Virtual Str2 SN 
 VS03.                90643410:  Virtual Str3 SN 
 VS04.                90634712:  Virtual Str4 SN 
 WBMN.klb                 9.00:  WOB Min 
 WITN.        Elmaddin Rahimov:  Customer Rep 
 WITN.         Haytham Mostafa:  Customer Rep 2 
 WOBA.klb                15.00:  WOB Avg 
 WOBX.klb                23.00:  WOB Max 
 YP  .lhf2               29.00:  Yield Point 
~Curve Information Block
#MNEM.UNIT                 API CODE     Curve Description
#---------               -----------    ---------------------------
 TIME.HHMMSS            00 000 000 000:  GT Time & Date
 GTDEPTH.m              00 000 000 000:  GT Depth
 GTPQH.psia             00 000 000 000:  GT HR Quartz Pressure
 GTTQ.degC              00 000 000 000:  GT Quartz Temperature
 GTTN.NONE              00 000 000 000:  GT Test Number
 GTET.sec               00 000 000 000:  GT Elapsed Test Time
 GTTVD.m                00 000 000 000:  GT True Vertical Depth
#Other Information
#
#WARRANTY: Halliburton will use its best efforts to furnish customers with 
#accurate information and interpretations that are part of, and incident to, the services 
#provided.  However, Halliburton cannot and does not warrant the accuracy 
#or correctness of such information and interpretations.  Under no circumstances should any 
#such information or interpretation be relied upon as the sole basis for any drilling, 
#completion, production, or financial decision or any procedure involving any risk to the 
#safety of any drilling venture, drilling rig or its crew or any other third party.  The 
#Customer has full responsibility for all drilling, completion and production operation.  
#Halliburton makes no representations or warranties, either expressed or 
#implied, including, but not limited to, the implied warranties of merchantability or fitness 
#for a particular purpose, with respect to the services rendered.  In no event will 
#Halliburton be liable for failure to obtain any particular results or for 
#any damages, including, but not limited to, indirect, special or consequential damages, 
#resulting from the use of any information or interpretation provided by Halliburton.
#
~A           TIME           GTDEPTH  GTPQH  GTTQ  GTTN   GTET   GTTVD  
# ...
   03:23:42.550.09-May-2021 4480.01 4113.65 67.55 12.00 293.85 2964.27
   03:23:42.750.09-May-2021 4480.01 4113.66 67.55 12.00 294.05 2964.27
   03:23:42.950.09-May-2021 4480.01 4113.66 67.55 12.00 294.25 2964.27
   03:23:43.150.09-May-2021 4480.01 4113.67 67.55 12.00 294.45 2964.27
   03:23:43.350.09-May-2021 4480.01 4113.64 67.55 12.00 294.65 2964.27
   03:23:43.550.09-May-2021 4480.01 4113.43 67.55 12.00 294.85 2964.27
   03:23:43.750.09-May-2021 4480.01 4113.83 67.55 12.00 295.05 2964.27
   03:23:43.950.09-May-2021 4480.01 4113.83 67.55 12.00 295.25 2964.27
   03:23:44.150.09-May-2021 4480.01 4113.65 67.55 12.00 295.45 2964.27
   03:23:44.351.09-May-2021 4480.01 4113.78 67.55 12.00 295.65 2964.27
   03:23:44.551.09-May-2021 4480.01 4113.57 67.55 12.00 295.85 2964.27
   03:23:44.751.09-May-2021 4480.01 4113.82 67.55 12.00 296.05 2964.27
   03:23:44.951.09-May-2021 4480.01 4113.82 67.55 12.00 296.25 2964.27
   03:23:45.151.09-May-2021 4480.01 4113.83 67.55 12.00 296.45 2964.27
   03:23:45.351.09-May-2021 4480.01 4113.59 67.55 12.00 296.65 2964.27
   03:23:45.551.09-May-2021 4480.01 4113.63 67.55 12.00 296.85 2964.27
   03:23:45.751.09-May-2021 4480.01 4113.69 67.55 12.00 297.05 2964.27
   03:23:45.951.09-May-2021 4480.01 4113.69 67.55 12.00 297.25 2964.27
   03:23:46.151.09-May-2021 4480.01 4113.83 67.55 12.00 297.45 2964.27
   03:23:46.351.09-May-2021 4480.01 4113.52 67.55 12.00 297.65 2964.27
   03:23:46.551.09-May-2021 4480.01 4113.62 67.55 12.00 297.85 2964.27
   03:23:46.751.09-May-2021 4480.01 4113.65 67.55 12.00 298.05 2964.27
   03:23:46.951.09-May-2021 4480.01 4113.65 67.55 12.00 298.25 2964.27
   03:23:47.151.09-May-2021 4480.01 4113.68 67.55 12.00 298.45 2964.27
   03:23:47.351.09-May-2021 4480.01 4113.66 67.55 12.00 298.65 2964.27
   03:23:47.551.09-May-2021 4480.01 4113.68 67.55 12.00 298.85 2964.27
   03:23:47.751.09-May-2021 4480.01 4113.69 67.55 12.00 299.05 2964.27
   03:23:47.951.09-May-2021 4480.01 4113.69 67.55 12.00 299.25 2964.27
   03:23:48.151.09-May-2021 4480.01 4113.41 67.55 12.00 299.45 2964.27
   03:23:48.351.09-May-2021 4480.01 4113.90 67.55 12.00 299.65 2964.27
   03:23:48.551.09-May-2021 4480.01 4113.70 67.55 12.00 299.85 2964.27
   03:23:48.751.09-May-2021 4480.01 4113.78 67.55 12.00 300.05 2964.27
   03:23:48.951.09-May-2021 4480.01 4113.78 67.55 12.00 300.25 2964.27
   03:23:49.151.09-May-2021 4480.01 4113.62 67.55 12.00 300.45 2964.27
   03:23:49.351.09-May-2021 4480.01 4113.66 67.55 12.00 300.65 2964.27
   03:23:49.551.09-May-2021 4480.01 4113.69 67.55 12.00 300.85 2964.27
   03:23:49.751.09-May-2021 4480.01 4113.70 67.55 12.00 301.05 2964.27
   03:23:49.951.09-May-2021 4480.01 4113.70 67.55 12.00 301.25 2964.27
   03:23:50.151.09-May-2021 4480.01 4113.71 67.55 12.00 301.45 2964.27
   03:23:50.352.09-May-2021 4480.01 4113.68 67.55 12.00 301.65 2964.27
   03:23:50.552.09-May-2021 4480.01 4113.70 67.55 12.00 301.85 2964.27
   03:23:50.752.09-May-2021 4480.01 4113.50 67.55 12.00 302.05 2964.27
   03:23:50.952.09-May-2021 4480.01 4113.50 67.55 12.00 302.25 2964.27
   03:23:51.152.09-May-2021 4480.01 4113.72 67.55 12.00 302.45 2964.27
   03:23:51.352.09-May-2021 4480.01 4113.66 67.55 12.00 302.65 2964.27
   03:23:51.552.09-May-2021 4480.01 4113.73 67.55 12.00 302.85 2964.27
   03:23:51.752.09-May-2021 4480.01 4113.70 67.55 12.00 303.05 2964.27
   03:23:51.952.09-May-2021 4480.01 4113.70 67.55 12.00 303.25 2964.27
   03:23:52.152.09-May-2021 4480.01 4113.39 67.55 12.00 303.45 2964.27
   03:23:52.352.09-May-2021 4480.01 4113.81 67.55 12.00 303.65 2964.27
   03:23:52.552.09-May-2021 4480.01 4113.70 67.55 12.00 303.85 2964.27
   03:23:52.752.09-May-2021 4480.01 4113.85 67.55 12.00 304.05 2964.27
   03:23:52.952.09-May-2021 4480.01 4113.85 67.55 12.00 304.25 2964.27
   03:23:53.152.09-May-2021 4480.01 4113.79 67.55 12.00 304.45 2964.27
   03:23:53.352.09-May-2021 4480.01 4113.85 67.55 12.00 304.65 2964.27
   03:23:53.552.09-May-2021 4480.01 4113.52 67.55 12.00 304.85 2964.27
   03:23:53.752.09-May-2021 4480.01 4113.69 67.55 12.00 305.05 2964.27
   03:23:53.952.09-May-2021 4480.01 4113.69 67.55 12.00 305.25 2964.27
   03:23:54.152.09-May-2021 4480.01 4113.70 67.55 12.00 305.45 2964.27
   03:23:54.352.09-May-2021 4480.01 4113.70 67.55 12.00 305.65 2964.27
   03:23:54.552.09-May-2021 4480.01 4113.71 67.55 12.00 305.85 2964.27
   03:23:54.752.09-May-2021 4480.01 4113.70 67.55 12.00 306.05 2964.27
   03:23:54.952.09-May-2021 4480.01 4113.70 67.55 12.00 306.25 2964.27
   03:23:55.152.09-May-2021 4480.01 4113.73 67.55 12.00 306.45 2964.27
   03:23:55.352.09-May-2021 4480.01 4113.50 67.55 12.00 306.65 2964.27
   03:23:55.552.09-May-2021 4480.01 4113.90 67.55 12.00 306.85 2964.27
   03:23:55.752.09-May-2021 4480.01 4113.65 67.55 12.00 307.05 2964.27
   03:23:55.952.09-May-2021 4480.01 4113.65 67.55 12.00 307.25 2964.27
   03:23:56.152.09-May-2021 4480.01 4113.65 67.55 12.00 307.45 2964.27
   03:23:56.353.09-May-2021 4480.01 4113.65 67.55 12.00 307.65 2964.27
   03:23:56.553.09-May-2021 4480.01 4113.71 67.55 12.00 307.85 2964.27
   03:23:56.753.09-May-2021 4480.01 4113.70 67.55 12.00 308.05 2964.27
   03:23:56.953.09-May-2021 4480.01 4113.70 67.55 12.00 308.25 2964.27
   03:23:57.153.09-May-2021 4480.01 4113.73 67.55 12.00 308.45 2964.27
   03:23:57.353.09-May-2021 4480.01 4113.70 67.55 12.00 308.65 2964.27
   03:23:57.553.09-May-2021 4480.01 4113.74 67.55 12.00 308.85 2964.27
   03:23:57.753.09-May-2021 4480.01 4113.71 67.55 12.00 309.05 2964.27
   03:23:57.953.09-May-2021 4480.01 4113.71 67.55 12.00 309.25 2964.27
   03:23:58.153.09-May-2021 4480.01 4113.58 67.55 12.00 309.45 2964.27
   03:23:58.353.09-May-2021 4480.01 4113.79 67.55 12.00 309.65 2964.27
   03:23:58.553.09-May-2021 4480.01 4113.91 67.55 12.00 309.85 2964.27
   03:23:58.753.09-May-2021 4480.01 4113.42 67.55 12.00 310.05 2964.27
   03:23:58.953.09-May-2021 4480.01 4113.42 67.55 12.00 310.25 2964.27
   03:23:59.153.09-May-2021 4480.01 4113.89 67.55 12.00 310.45 2964.27
   03:23:59.353.09-May-2021 4480.01 4113.50 67.55 12.00 310.65 2964.27
   03:23:59.553.09-May-2021 4480.01 4113.61 67.55 12.00 310.85 2964.27
   03:23:59.753.09-May-2021 4480.01 4113.76 67.55 12.00 311.05 2964.27
   03:23:59.953.09-May-2021 4480.01 4113.76 67.55 12.00 311.25 2964.27
   03:24:00.153.09-May-2021 4480.01 4113.49 67.55 12.00 311.45 2964.27
   03:24:00.353.09-May-2021 4480.01 4113.73 67.55 12.00 311.65 2964.27
   03:24:00.553.09-May-2021 4480.01 4113.82 67.55 12.00 311.85 2964.27
   03:24:00.753.09-May-2021 4480.01 4113.58 67.55 12.00 312.05 2964.27
   03:24:00.953.09-May-2021 4480.01 4113.58 67.55 12.00 312.25 2964.27
   03:24:01.153.09-May-2021 4480.01 4113.67 67.55 12.00 312.45 2964.27
   03:24:01.353.09-May-2021 4480.01 4113.70 67.55 12.00 312.65 2964.27
   03:24:01.553.09-May-2021 4480.01 4113.75 67.55 12.00 312.85 2964.27
   03:24:01.753.09-May-2021 4480.01 4113.72 67.55 12.00 313.05 2964.27
   03:24:01.953.09-May-2021 4480.01 4113.72 67.55 12.00 313.25 2964.27
   03:24:02.153.09-May-2021 4480.01 4113.75 67.55 12.00 313.45 2964.27
   03:24:02.354.09-May-2021 4480.01 4113.72 67.55 12.00 313.65 2964.27
   03:24:02.554.09-May-2021 4480.01 4113.55 67.55 12.00 313.85 2964.27
   03:24:02.754.09-May-2021 4480.01 4113.86 67.55 12.00 314.05 2964.27
   03:24:02.954.09-May-2021 4480.01 4113.86 67.55 12.00 314.25 2964.27
   03:24:03.154.09-May-2021 4480.01 4113.89 67.55 12.00 314.45 2964.27
   03:24:03.354.09-May-2021 4480.01 4113.59 67.55 12.00 314.65 2964.27
   03:24:03.554.09-May-2021 4480.01 4113.72 67.55 12.00 314.85 2964.27
   03:24:03.754.09-May-2021 4480.01 4113.71 67.55 12.00 315.05 2964.27
   03:24:03.954.09-May-2021 4480.01 4113.71 67.55 12.00 315.25 2964.27
   03:24:04.154.09-May-2021 4480.01 4113.73 67.55 12.00 315.45 2964.27
   03:24:04.354.09-May-2021 4480.01 4113.72 67.55 12.00 315.65 2964.27
   03:24:04.554.09-May-2021 4480.01 4113.73 67.55 12.00 315.85 2964.27
   03:24:04.754.09-May-2021 4480.01 4113.73 67.55 12.00 316.05 2964.27
   03:24:04.954.09-May-2021 4480.01 4113.73 67.55 12.00 316.25 2964.27
