~Version Information
 VERS.                  2.0:   CWLS log ASCII Standard -VERSION 2.0
 WRAP.                   NO:   One line per depth step
~Well Information Block
#MNEM.UNIT     VALUE/NAME     DESCRIPTION
#---------     -----------    ---------------------------
 STRT.S             02:35:25 09-May-21: START TIME 02:35:25 09-May-21
 STOP.S             02:42:01 09-May-21: STOP TIME  02:42:01 09-May-21
 STEP.S                   0.00: STEP TIME
 NULL.                 -999.25: NULL VALUE
 PROV.                    Baku:  PROVINCE
 STAT.                    Baku:  STATE NAME
 SON .        AZ-XX-0906571588:  JOB NUMBER
 WTYP.                Deviated:  WELL TYPE
 COMP.     BP Exploration (Caspian Sea) ltd:  COMPANY
 BASE.              Azerbaijan:  LOGGING EQUIPMENT BASE LOCATION
 REGN.                   EESSA:  REGION
 CTRY.              Azerbaijan:  COUNTRY NAME
 FLD .                     ACG:  FIELD NAME
 WELL.                     J28:  WELL NAME
 RIG .             West Chirag:  RIG NAME
 DMF .             Drill Floor:  DRILL MEAS FROM
 PDAT.       Caspian Sea Level:  PERMANENT DATUM
 HPTY.       Minimum Curvature:  HOLE POS TYPE
 MDS .        Operator Entered:  MAG DATA SOURCE
 NREF.                    Grid:  NORTH REFERENCE
 SRVC.          TURAN DRILLING:  CONTRACTOR
 JOBN.        AZ-XX-0906571588:  JOB TICKET NUMB
 DCON.     Halliburton Sperry Drilling:  DIRECTNL CONTR
 STIM.      00.44.00 11-Feb-21:  START TIME
 DATE.      00.00.00 05-May-21:  END TIME
 SPUD.               13-Feb-21:  SPUD DATE
 MWDS.                    Baku:  MWD SHOP
 DOE .                     N/A:  DOE NUMBER
 UNIT.                     N/A:  LOGGING EQUIPMENT ID
 UWI .                     N/A:  UNIQUE WELL IDENTIFIER
 API .                     N/A:  API NUMBER
 CNTY.                        :  COUNTY
 LOC .                        :  LOCATION
 LMF .             Drill Floor:  LOG MEASURED FROM
 TVDS.m                  43.00:  TVDSS CORRECTN
 SDEP.m                 341.00:  START DEPTH
 EGL .m                   0.00:  GROUND ELEVATION
 WDMS.m                 169.80:  WD ELEV
 AGAP.m                  43.00:  AIR GAP
 EPD .m                   0.00:  ELEVATION
 APD .m                  43.00:  DEPTH ABOVE PD
 LATI.deg                40.13:  LATITUDE
 LONG.deg                51.22:  LONGITUDE
 UTMY.m             4443793.85:  UTM Y
 UTMX.m              519005.06:  UTM X
 WHEW.m                 -11.57:  WELL HEAD E/W
 WHNS.m                   8.57:  WELL HEAD N/S
 VSEW.m                 -11.57:  VERT SEC E/W
 VSNS.m                   8.57:  VERT SEC N/S
 DFWL.m                   0.00:  DISTANCE FWL
 DFSL.m                   0.00:  DISTANCE FSL
 VSDR.deg               299.34:  VERT SEC DIRECT
 GVFD.g                   1.00:  GRAVITY FIELD
 AZTC.deg                 6.36:  AZM TOTAL CORR
 MFLD.nT              50391.00:  MAGNETIC FIELD
 MDIP.deg                59.65:  MAGNETIC DIP
 MDEC.deg                 6.48:  MAGNETIC DECL
 GRDC.deg                 0.12:  GRID CORRECTION
 DEP .m                 334.96:  DEPTH
 TDD .m                1407.26:  TOTAL DEPTH (DRILLER)
 EKB .m                  43.00:  KB ELEVATION
 EDF .m                  43.00:  DF ELEVATION
 TDL .m                 228.00:  TOTAL DEPTH (LOGGER)
 VSC .                       0:  VS TO CLOSURE
 MAGU.                 1854484:  MAGUTM CHECKSUM
~Parameter Information Block
#MNEM.UNIT       Value        Description
#---------     -----------    ---------------------------
 AV  .mps                 4.00:  Ann Velocity 
 AVMX.mps                 4.73:  Max Ann Veloc 
 AZIF.deg               304.48:  Azm, Final 
 BHAT.        Rotary Steerable:  BHA Type 
 BREV.rev            257300.00:  Rev Bit Total 
 BROT.°/30m               0.00:  Build Rotating 
 BS  .in                  8.50:  Bit Size 
 BSZ .in                  8.50:  Bit Size 
 BTPL.psig              589.00:  Bit Press Loss 
 CABU.                      No:  Customer Abuse 
 CGEO.          Mubariz ghayev:  Customer Geo 
 COMM.                     LÑz:  Run Comments 1 
 TCS .hr                 64.25:  Time Ciculation Ended 
 CV  .mps                 3.50:  Crit Velocity 
 CVMX.mps                 4.52:  Max Crit Veloc 
 DD1 .             Aziz Aliyev:  Direct Drillr 1 
 DD2 .         Intigam Rahimov:  Direct Drillr 2 
 DD3 .          Rashad Habibov:  Direct Drillr 3 
 DDSV.               Geo-Pilot:  DD Service 
 DEFF.%                  98.00:  % Det Eff 
 DLRX.°/30m               0.00:  Dogleg Rot Max 
 DLSO.°/30m               0.00:  Dogleg Oriented 
 DLSX.°/30m               0.00:  Dogleg Str Max 
 DRET.      10.45.04 08-May-21:  Drill End Time 
 DRST.      03.30.04 04-May-21:  Drill Start Tim 
 DTIM.hr                 14.97:  Time Drilling 
 EDEP.m                4640.01:  End Depth 
 ENG1.         Dail Mahammadov:  Engineer 1 
 ENG2.           Eldar Hajiyev:  Engineer 2 
 ENG3.       Bakhtiar Jabbarli:  Engineer 3 
 ENG4.       Natik Hasanagayev:  Engineer 4 
 ETIM.      09.30.04 14-May-21:  End Time 
 FLOI.gpm               460.00:  Flow In 
 FLON.gpm               200.00:  Flow In Min 
 FLOS.cptm                0.00:  Fluid Loss 
 FLOX.gpm               505.00:  Flow In Max 
 HFLO.                      No:  High Flow 
 HPRE.                      No:  High Pressure 
 HTEM.                      No:  High Temp 
 HYDO.m                   1.80:  Hydro Offset 
 IFIN.deg                66.71:  Inc, Final 
 IMAX.deg                67.03:  Inc Max 
 IMIN.deg                66.63:  Inc Min 
 IMND.m                4550.58:  Inc Min Depth 
 IMXD.m                4439.01:  Inc Max Depth 
 JARR.                      No:  Jarring 
 LETM.      10.45.04 08-May-21:  Log End Time 
 LOST.hr                     0:  Lost Rig Time 
 LSTM.      03.30.04 04-May-21:  Log Start Time 
 MDCL.ppm             37000.00:  Mud Chlorides 
 MDES.     Inversion Oil/Synthetic:  Mud Desc 
 DFD .sg                  1.38:  Mud Density 
 MDMN.sg                  1.35:  Dens Mud Min 
 MDMX.sg                  1.40:  Dens Mud Max 
 MOIL.                   57.40:  Run Mud Oil % 
 MOWR.                   70:30:  Run Mud OWR 
 MSND.                    0.00:  Run Mud Sand % 
 MSOL.                   18.00:  Run Mud Solids% 
 DFV .spqt               71.00:  Mud Viscosity 
 MWOD.in                  6.75:  MWD Tool OD 
 MWSI.                      No:  Serv Intrp, MWD 
 OTIM.hr                242.76:  Time Operating 
 PCON.           Look Like New:  Pad Condition 
 PMAX.psia            12183.92:  Press Op, Max 
 PV  .cP                 27.00:  Mud PV 
 RUN .                    1300:  Run Number 
 ROPA.m/hr               15.00:  ROP Avg 
 ROPN.m/hr                9.00:  ROP Min 
 ROPX.m/hr               19.00:  ROP Max 
 RPMA.rpm               120.00:  RPM Surface Avg 
 RPMN.rpm               100.00:  RPM Surface Min 
 RPMX.rpm               120.00:  RPM Surface Max 
 RRUN.                    1300:  Rig Run Number 
 RTIM.hr                  5.00:  Time Reaming 
 SAZI.deg               304.73:  Azm, Start 
 SDEP.m                4412.01:  Start Depth 
 SIDD.                      No:  Serv Intrp, DD 
 SINC.deg                66.82:  Inc, Start 
 SPPA.psig             2800.00:  SPP Avg 
 SPPN.psig             2610.00:  SPP Min 
 SPPX.psig             3100.00:  SPP Max 
 STIM.      03.30.00 04-May-21:  Start Time 
 SVCS.                 DD, MWD:  Services 
 SVER.                    9.20:  Sperry Version 
 TDAT.m                 228.00:  Tot Depth Attmp 
 TDDF.                      No:  Trip for DD 
 TDLG.m                 228.00:  Tot Depth Loggd 
 TFF .                      No:  Trip for Fail 
 TQAA.f-kp               15.00:  Torque Abs Avg 
 TQAN.f-kp               12.00:  Torque Abs Min 
 TQAX.f-kp               22.00:  Torque Abs Max 
 TRRT.°/30m               0.00:  Turn Rotating 
 MRT .                    HCIM:  Maximum Recorded Temperature 
 TTMX.degC               90.20:  Max Tool Temp 
 VS01.                90627813:  Virtual Str1 SN 
 VS02.                90634712:  Virtual Str2 SN 
 VS03.                90643410:  Virtual Str3 SN 
 VS04.                90634712:  Virtual Str4 SN 
 WBMN.klb                 9.00:  WOB Min 
 WITN.        Elmaddin Rahimov:  Customer Rep 
 WITN.         Haytham Mostafa:  Customer Rep 2 
 WOBA.klb                15.00:  WOB Avg 
 WOBX.klb                23.00:  WOB Max 
 YP  .lhf2               29.00:  Yield Point 
~Curve Information Block
#MNEM.UNIT                 API CODE     Curve Description
#---------               -----------    ---------------------------
 TIME.HHMMSS            00 000 000 000:  GT Time & Date
 GTDEPTH.m              00 000 000 000:  GT Depth
 GTPQH.psia             00 000 000 000:  GT HR Quartz Pressure
 GTTQ.degC              00 000 000 000:  GT Quartz Temperature
 GTTN.NONE              00 000 000 000:  GT Test Number
 GTET.sec               00 000 000 000:  GT Elapsed Test Time
 GTTVD.m                00 000 000 000:  GT True Vertical Depth
#Other Information
#
#WARRANTY: Halliburton will use its best efforts to furnish customers with 
#accurate information and interpretations that are part of, and incident to, the services 
#provided.  However, Halliburton cannot and does not warrant the accuracy 
#or correctness of such information and interpretations.  Under no circumstances should any 
#such information or interpretation be relied upon as the sole basis for any drilling, 
#completion, production, or financial decision or any procedure involving any risk to the 
#safety of any drilling venture, drilling rig or its crew or any other third party.  The 
#Customer has full responsibility for all drilling, completion and production operation.  
#Halliburton makes no representations or warranties, either expressed or 
#implied, including, but not limited to, the implied warranties of merchantability or fitness 
#for a particular purpose, with respect to the services rendered.  In no event will 
#Halliburton be liable for failure to obtain any particular results or for 
#any damages, including, but not limited to, indirect, special or consequential damages, 
#resulting from the use of any information or interpretation provided by Halliburton.
#
~A           TIME           GTDEPTH  GTPQH  GTTQ  GTTN   GTET   GTTVD  
# ...
   02:36:33.077.09-May-2021 4482.51  849.94 67.64 11.00  67.81 2965.25
   02:36:33.277.09-May-2021 4482.51  851.84 67.64 11.00  68.01 2965.25
   02:36:33.477.09-May-2021 4482.51  851.84 67.64 11.00  68.21 2965.25
   02:36:33.677.09-May-2021 4482.51  853.63 67.65 11.00  68.41 2965.25
   02:36:33.877.09-May-2021 4482.51  857.15 67.65 11.00  68.61 2965.25
   02:36:34.077.09-May-2021 4482.51  858.83 67.65 11.00  68.81 2965.25
   02:36:34.277.09-May-2021 4482.51  860.55 67.65 11.00  69.01 2965.25
   02:36:34.477.09-May-2021 4482.51  860.55 67.65 11.00  69.21 2965.25
   02:36:34.677.09-May-2021 4482.51  863.38 67.65 11.00  69.41 2965.25
   02:36:34.877.09-May-2021 4482.51  865.66 67.65 11.00  69.61 2965.25
   02:36:35.077.09-May-2021 4482.51  867.37 67.65 11.00  69.81 2965.25
   02:36:35.277.09-May-2021 4482.51  868.90 67.65 11.00  70.01 2965.25
   02:36:35.477.09-May-2021 4482.51  868.90 67.65 11.00  70.21 2965.25
   02:36:35.677.09-May-2021 4482.51  872.36 67.65 11.00  70.41 2965.25
   02:36:35.877.09-May-2021 4482.51  873.65 67.65 11.00  70.61 2965.25
   02:36:36.077.09-May-2021 4482.51  878.67 67.65 11.00  70.81 2965.25
   02:36:36.278.09-May-2021 4482.51  880.47 67.65 11.00  71.01 2965.25
   02:36:36.478.09-May-2021 4482.51  880.47 67.65 11.00  71.21 2965.25
   02:36:36.678.09-May-2021 4482.51  883.38 67.65 11.00  71.41 2965.25
   02:36:36.878.09-May-2021 4482.51  885.38 67.65 11.00  71.61 2965.25
   02:36:37.078.09-May-2021 4482.51  887.35 67.65 11.00  71.81 2965.25
   02:36:37.278.09-May-2021 4482.51  889.42 67.65 11.00  72.01 2965.25
   02:36:37.478.09-May-2021 4482.51  889.42 67.65 11.00  72.21 2965.25
   02:36:37.678.09-May-2021 4482.51  890.77 67.65 11.00  72.41 2965.25
   02:36:37.878.09-May-2021 4482.51  895.86 67.65 11.00  72.61 2965.25
   02:36:38.078.09-May-2021 4482.51  897.98 67.65 11.00  72.81 2965.25
   02:36:38.278.09-May-2021 4482.51  899.67 67.65 11.00  73.01 2965.25
   02:36:38.478.09-May-2021 4482.51  899.67 67.65 11.00  73.21 2965.25
   02:36:38.678.09-May-2021 4482.51  903.20 67.65 11.00  73.41 2965.25
   02:36:38.878.09-May-2021 4482.51  904.92 67.65 11.00  73.61 2965.25
   02:36:39.078.09-May-2021 4482.51  906.50 67.65 11.00  73.81 2965.25
   02:36:39.278.09-May-2021 4482.51  908.09 67.65 11.00  74.01 2965.25
   02:36:39.478.09-May-2021 4482.51  908.09 67.65 11.00  74.21 2965.25
   02:36:39.678.09-May-2021 4482.51  911.14 67.65 11.00  74.41 2965.25
   02:36:39.878.09-May-2021 4482.51  912.65 67.65 11.00  74.61 2965.25
   02:36:40.078.09-May-2021 4482.51  913.67 67.65 11.00  74.81 2965.25
   02:36:40.278.09-May-2021 4482.51  915.42 67.65 11.00  75.01 2965.25
   02:36:40.478.09-May-2021 4482.51  915.42 67.65 11.00  75.21 2965.25
   02:36:40.678.09-May-2021 4482.51  918.59 67.65 11.00  75.41 2965.25
   02:36:40.878.09-May-2021 4482.51  919.82 67.65 11.00  75.61 2965.25
   02:36:41.078.09-May-2021 4482.51  921.28 67.65 11.00  75.81 2965.25
   02:36:41.278.09-May-2021 4482.51  922.68 67.65 11.00  76.01 2965.25
   02:36:41.478.09-May-2021 4482.51  922.68 67.65 11.00  76.21 2965.25
   02:36:41.678.09-May-2021 4482.51  924.01 67.65 11.00  76.41 2965.25
   02:36:41.878.09-May-2021 4482.51  926.70 67.65 11.00  76.61 2965.25
   02:36:42.078.09-May-2021 4482.51  928.00 67.66 11.00  76.81 2965.25
   02:36:42.279.09-May-2021 4482.51  929.36 67.66 11.00  77.01 2965.25
   02:36:42.479.09-May-2021 4482.51  929.36 67.66 11.00  77.21 2965.25
   02:36:42.679.09-May-2021 4482.51  931.35 67.66 11.00  77.41 2965.25
   02:36:42.879.09-May-2021 4482.51  933.25 67.66 11.00  77.61 2965.25
   02:36:43.079.09-May-2021 4482.51  934.31 67.66 11.00  77.81 2965.25
   02:36:43.279.09-May-2021 4482.51  943.40 67.66 11.00  78.01 2965.25
   02:36:43.479.09-May-2021 4482.51  943.40 67.66 11.00  78.21 2965.25
   02:36:43.679.09-May-2021 4482.51  946.07 67.66 11.00  78.41 2965.25
   02:36:43.879.09-May-2021 4482.51  947.26 67.66 11.00  78.61 2965.25
   02:36:44.079.09-May-2021 4482.51  948.36 67.66 11.00  78.81 2965.25
   02:36:44.279.09-May-2021 4482.51  949.67 67.66 11.00  79.01 2965.25
   02:36:44.479.09-May-2021 4482.51  949.67 67.66 11.00  79.21 2965.25
   02:36:44.679.09-May-2021 4482.51  950.56 67.66 11.00  79.41 2965.25
   02:36:44.879.09-May-2021 4482.51  953.57 67.66 11.00  79.61 2965.25
   02:36:45.079.09-May-2021 4482.51  954.52 67.66 11.00  79.81 2965.25
   02:36:45.279.09-May-2021 4482.51  955.93 67.66 11.00  80.01 2965.25
   02:36:45.479.09-May-2021 4482.51  955.93 67.66 11.00  80.21 2965.25
   02:36:45.679.09-May-2021 4482.51  958.22 67.66 11.00  80.41 2965.25
   02:36:45.879.09-May-2021 4482.51  959.38 67.66 11.00  80.61 2965.25
   02:36:46.079.09-May-2021 4482.51  960.51 67.66 11.00  80.81 2965.25
   02:36:46.279.09-May-2021 4482.51  961.68 67.66 11.00  81.01 2965.25
   02:36:46.479.09-May-2021 4482.51  961.68 67.66 11.00  81.21 2965.25
   02:36:46.679.09-May-2021 4482.51  963.95 67.66 11.00  81.41 2965.25
   02:36:46.879.09-May-2021 4482.51  964.70 67.66 11.00  81.61 2965.25
   02:36:47.079.09-May-2021 4482.51  966.18 67.66 11.00  81.81 2965.25
   02:36:47.279.09-May-2021 4482.51  967.62 67.66 11.00  82.01 2965.25
   02:36:47.479.09-May-2021 4482.51  967.62 67.66 11.00  82.21 2965.25
   02:36:47.679.09-May-2021 4482.51  970.63 67.66 11.00  82.41 2965.25
   02:36:47.879.09-May-2021 4482.51  971.82 67.66 11.00  82.61 2965.25
   02:36:48.079.09-May-2021 4482.51  972.88 67.66 11.00  82.81 2965.25
   02:36:48.280.09-May-2021 4482.51  973.96 67.66 11.00  83.01 2965.25
   02:36:48.480.09-May-2021 4482.51  973.96 67.66 11.00  83.21 2965.25
   02:36:48.680.09-May-2021 4482.51  974.97 67.66 11.00  83.41 2965.25
   02:36:48.880.09-May-2021 4482.51  977.03 67.66 11.00  83.61 2965.25
   02:36:49.080.09-May-2021 4482.51  978.02 67.66 11.00  83.81 2965.25
   02:36:49.280.09-May-2021 4482.51  979.05 67.66 11.00  84.01 2965.25
   02:36:49.480.09-May-2021 4482.51  979.05 67.66 11.00  84.21 2965.25
   02:36:49.680.09-May-2021 4482.51  981.25 67.66 11.00  84.41 2965.25
   02:36:49.880.09-May-2021 4482.51  981.91 67.66 11.00  84.61 2965.25
   02:36:50.080.09-May-2021 4482.51  983.22 67.66 11.00  84.81 2965.25
   02:36:50.280.09-May-2021 4482.51  983.98 67.66 11.00  85.01 2965.25
   02:36:50.480.09-May-2021 4482.51  983.98 67.66 11.00  85.21 2965.25
   02:36:50.680.09-May-2021 4482.51  986.10 67.66 11.00  85.41 2965.25
   02:36:50.880.09-May-2021 4482.51  986.87 67.66 11.00  85.61 2965.25
   02:36:51.080.09-May-2021 4482.51  988.00 67.66 11.00  85.81 2965.25
   02:36:51.280.09-May-2021 4482.51  988.54 67.66 11.00  86.01 2965.25
   02:36:51.480.09-May-2021 4482.51  988.54 67.66 11.00  86.21 2965.25
   02:36:51.680.09-May-2021 4482.51  997.77 67.66 11.00  86.41 2965.25
   02:36:51.880.09-May-2021 4482.51  999.42 67.66 11.00  86.61 2965.25
   02:36:52.080.09-May-2021 4482.51 1000.55 67.66 11.00  86.81 2965.25
   02:36:52.280.09-May-2021 4482.51 1001.13 67.66 11.00  87.01 2965.25
   02:36:52.480.09-May-2021 4482.51 1001.13 67.66 11.00  87.21 2965.25
   02:36:52.680.09-May-2021 4482.51 1002.77 67.66 11.00  87.41 2965.25
   02:36:52.880.09-May-2021 4482.51 1004.41 67.66 11.00  87.61 2965.25
   02:36:53.080.09-May-2021 4482.51 1005.18 67.66 11.00  87.81 2965.25
   02:36:53.280.09-May-2021 4482.51 1005.97 67.67 11.00  88.01 2965.25
   02:36:53.480.09-May-2021 4482.51 1005.97 67.67 11.00  88.21 2965.25
   02:36:53.680.09-May-2021 4482.51 1007.58 67.67 11.00  88.41 2965.25
   02:36:53.880.09-May-2021 4482.51 1008.33 67.67 11.00  88.61 2965.25
   02:36:54.080.09-May-2021 4482.51 1009.10 67.67 11.00  88.81 2965.25
   02:36:54.281.09-May-2021 4482.51 1009.88 67.67 11.00  89.01 2965.25
   02:36:54.481.09-May-2021 4482.51 1009.88 67.67 11.00  89.21 2965.25
   02:36:54.681.09-May-2021 4482.51 1011.44 67.67 11.00  89.41 2965.25
   02:36:54.881.09-May-2021 4482.51 1011.73 67.67 11.00  89.61 2965.25
   02:36:55.081.09-May-2021 4482.51 1012.99 67.67 11.00  89.82 2965.25
   02:36:55.281.09-May-2021 4482.51 1013.76 67.67 11.00  90.02 2965.25
   02:36:55.481.09-May-2021 4482.51 1013.76 67.67 11.00  90.22 2965.25
