~Version Information
 VERS.                  2.0:   CWLS log ASCII Standard -VERSION 2.0
 WRAP.                   NO:   One line per depth step
~Well Information Block
#MNEM.UNIT     VALUE/NAME     DESCRIPTION
#---------     -----------    ---------------------------
 STRT.S             20:58:23 08-May-21: START TIME 20:58:23 08-May-21
 STOP.S             21:05:15 08-May-21: STOP TIME  21:05:15 08-May-21
 STEP.S                   0.00: STEP TIME
 NULL.                 -999.25: NULL VALUE
 PROV.                    Baku:  PROVINCE
 STAT.                    Baku:  STATE NAME
 SON .        AZ-XX-0906571588:  JOB NUMBER
 WTYP.                Deviated:  WELL TYPE
 COMP.     BP Exploration (Caspian Sea) ltd:  COMPANY
 BASE.              Azerbaijan:  LOGGING EQUIPMENT BASE LOCATION
 REGN.                   EESSA:  REGION
 CTRY.              Azerbaijan:  COUNTRY NAME
 FLD .                     ACG:  FIELD NAME
 WELL.                     J28:  WELL NAME
 RIG .             West Chirag:  RIG NAME
 DMF .             Drill Floor:  DRILL MEAS FROM
 PDAT.       Caspian Sea Level:  PERMANENT DATUM
 HPTY.       Minimum Curvature:  HOLE POS TYPE
 MDS .        Operator Entered:  MAG DATA SOURCE
 NREF.                    Grid:  NORTH REFERENCE
 SRVC.          TURAN DRILLING:  CONTRACTOR
 JOBN.        AZ-XX-0906571588:  JOB TICKET NUMB
 DCON.     Halliburton Sperry Drilling:  DIRECTNL CONTR
 STIM.      00.44.00 11-Feb-21:  START TIME
 DATE.      00.00.00 05-May-21:  END TIME
 SPUD.               13-Feb-21:  SPUD DATE
 MWDS.                    Baku:  MWD SHOP
 DOE .                     N/A:  DOE NUMBER
 UNIT.                     N/A:  LOGGING EQUIPMENT ID
 UWI .                     N/A:  UNIQUE WELL IDENTIFIER
 API .                     N/A:  API NUMBER
 CNTY.                        :  COUNTY
 LOC .                        :  LOCATION
 LMF .             Drill Floor:  LOG MEASURED FROM
 TVDS.m                  43.00:  TVDSS CORRECTN
 SDEP.m                 341.00:  START DEPTH
 EGL .m                   0.00:  GROUND ELEVATION
 WDMS.m                 169.80:  WD ELEV
 AGAP.m                  43.00:  AIR GAP
 EPD .m                   0.00:  ELEVATION
 APD .m                  43.00:  DEPTH ABOVE PD
 LATI.deg                40.13:  LATITUDE
 LONG.deg                51.22:  LONGITUDE
 UTMY.m             4443793.85:  UTM Y
 UTMX.m              519005.06:  UTM X
 WHEW.m                 -11.57:  WELL HEAD E/W
 WHNS.m                   8.57:  WELL HEAD N/S
 VSEW.m                 -11.57:  VERT SEC E/W
 VSNS.m                   8.57:  VERT SEC N/S
 DFWL.m                   0.00:  DISTANCE FWL
 DFSL.m                   0.00:  DISTANCE FSL
 VSDR.deg               299.34:  VERT SEC DIRECT
 GVFD.g                   1.00:  GRAVITY FIELD
 AZTC.deg                 6.36:  AZM TOTAL CORR
 MFLD.nT              50391.00:  MAGNETIC FIELD
 MDIP.deg                59.65:  MAGNETIC DIP
 MDEC.deg                 6.48:  MAGNETIC DECL
 GRDC.deg                 0.12:  GRID CORRECTION
 DEP .m                 334.96:  DEPTH
 TDD .m                1407.26:  TOTAL DEPTH (DRILLER)
 EKB .m                  43.00:  KB ELEVATION
 EDF .m                  43.00:  DF ELEVATION
 TDL .m                 228.00:  TOTAL DEPTH (LOGGER)
 VSC .                       0:  VS TO CLOSURE
 MAGU.                 1854484:  MAGUTM CHECKSUM
~Parameter Information Block
#MNEM.UNIT       Value        Description
#---------     -----------    ---------------------------
 AV  .mps                 4.00:  Ann Velocity 
 AVMX.mps                 4.73:  Max Ann Veloc 
 AZIF.deg               304.48:  Azm, Final 
 BHAT.        Rotary Steerable:  BHA Type 
 BREV.rev            257300.00:  Rev Bit Total 
 BROT.°/30m               0.00:  Build Rotating 
 BS  .in                  8.50:  Bit Size 
 BSZ .in                  8.50:  Bit Size 
 BTPL.psig              589.00:  Bit Press Loss 
 CABU.                      No:  Customer Abuse 
 CGEO.          Mubariz ghayev:  Customer Geo 
 COMM.                     ”<v:  Run Comments 1 
 TCS .hr                 64.25:  Time Ciculation Ended 
 CV  .mps                 3.50:  Crit Velocity 
 CVMX.mps                 4.52:  Max Crit Veloc 
 DD1 .             Aziz Aliyev:  Direct Drillr 1 
 DD2 .         Intigam Rahimov:  Direct Drillr 2 
 DD3 .          Rashad Habibov:  Direct Drillr 3 
 DDSV.               Geo-Pilot:  DD Service 
 DEFF.%                  98.00:  % Det Eff 
 DLRX.°/30m               0.00:  Dogleg Rot Max 
 DLSO.°/30m               0.00:  Dogleg Oriented 
 DLSX.°/30m               0.00:  Dogleg Str Max 
 DRET.      10.45.04 08-May-21:  Drill End Time 
 DRST.      03.30.04 04-May-21:  Drill Start Tim 
 DTIM.hr                 14.97:  Time Drilling 
 EDEP.m                4640.01:  End Depth 
 ENG1.         Dail Mahammadov:  Engineer 1 
 ENG2.           Eldar Hajiyev:  Engineer 2 
 ENG3.       Bakhtiar Jabbarli:  Engineer 3 
 ENG4.       Natik Hasanagayev:  Engineer 4 
 ETIM.      09.30.04 14-May-21:  End Time 
 FLOI.gpm               460.00:  Flow In 
 FLON.gpm               200.00:  Flow In Min 
 FLOS.cptm                0.00:  Fluid Loss 
 FLOX.gpm               505.00:  Flow In Max 
 HFLO.                      No:  High Flow 
 HPRE.                      No:  High Pressure 
 HTEM.                      No:  High Temp 
 HYDO.m                   1.80:  Hydro Offset 
 IFIN.deg                66.71:  Inc, Final 
 IMAX.deg                67.03:  Inc Max 
 IMIN.deg                66.63:  Inc Min 
 IMND.m                4550.58:  Inc Min Depth 
 IMXD.m                4439.01:  Inc Max Depth 
 JARR.                      No:  Jarring 
 LETM.      10.45.04 08-May-21:  Log End Time 
 LOST.hr                     0:  Lost Rig Time 
 LSTM.      03.30.04 04-May-21:  Log Start Time 
 MDCL.ppm             37000.00:  Mud Chlorides 
 MDES.     Inversion Oil/Synthetic:  Mud Desc 
 DFD .sg                  1.38:  Mud Density 
 MDMN.sg                  1.35:  Dens Mud Min 
 MDMX.sg                  1.40:  Dens Mud Max 
 MOIL.                   57.40:  Run Mud Oil % 
 MOWR.                   70:30:  Run Mud OWR 
 MSND.                    0.00:  Run Mud Sand % 
 MSOL.                   18.00:  Run Mud Solids% 
 DFV .spqt               71.00:  Mud Viscosity 
 MWOD.in                  6.75:  MWD Tool OD 
 MWSI.                      No:  Serv Intrp, MWD 
 OTIM.hr                242.76:  Time Operating 
 PCON.           Look Like New:  Pad Condition 
 PMAX.psia            12183.92:  Press Op, Max 
 PV  .cP                 27.00:  Mud PV 
 RUN .                    1300:  Run Number 
 ROPA.m/hr               15.00:  ROP Avg 
 ROPN.m/hr                9.00:  ROP Min 
 ROPX.m/hr               19.00:  ROP Max 
 RPMA.rpm               120.00:  RPM Surface Avg 
 RPMN.rpm               100.00:  RPM Surface Min 
 RPMX.rpm               120.00:  RPM Surface Max 
 RRUN.                    1300:  Rig Run Number 
 RTIM.hr                  5.00:  Time Reaming 
 SAZI.deg               304.73:  Azm, Start 
 SDEP.m                4412.01:  Start Depth 
 SIDD.                      No:  Serv Intrp, DD 
 SINC.deg                66.82:  Inc, Start 
 SPPA.psig             2800.00:  SPP Avg 
 SPPN.psig             2610.00:  SPP Min 
 SPPX.psig             3100.00:  SPP Max 
 STIM.      03.30.00 04-May-21:  Start Time 
 SVCS.                 DD, MWD:  Services 
 SVER.                    9.20:  Sperry Version 
 TDAT.m                 228.00:  Tot Depth Attmp 
 TDDF.                      No:  Trip for DD 
 TDLG.m                 228.00:  Tot Depth Loggd 
 TFF .                      No:  Trip for Fail 
 TQAA.f-kp               15.00:  Torque Abs Avg 
 TQAN.f-kp               12.00:  Torque Abs Min 
 TQAX.f-kp               22.00:  Torque Abs Max 
 TRRT.°/30m               0.00:  Turn Rotating 
 MRT .                    HCIM:  Maximum Recorded Temperature 
 TTMX.degC               90.20:  Max Tool Temp 
 VS01.                90627813:  Virtual Str1 SN 
 VS02.                90634712:  Virtual Str2 SN 
 VS03.                90643410:  Virtual Str3 SN 
 VS04.                90634712:  Virtual Str4 SN 
 WBMN.klb                 9.00:  WOB Min 
 WITN.        Elmaddin Rahimov:  Customer Rep 
 WITN.         Haytham Mostafa:  Customer Rep 2 
 WOBA.klb                15.00:  WOB Avg 
 WOBX.klb                23.00:  WOB Max 
 YP  .lhf2               29.00:  Yield Point 
~Curve Information Block
#MNEM.UNIT                 API CODE     Curve Description
#---------               -----------    ---------------------------
 TIME.HHMMSS            00 000 000 000:  GT Time & Date
 GTDEPTH.m              00 000 000 000:  GT Depth
 GTPQH.psia             00 000 000 000:  GT HR Quartz Pressure
 GTTQ.degC              00 000 000 000:  GT Quartz Temperature
 GTTN.NONE              00 000 000 000:  GT Test Number
 GTET.sec               00 000 000 000:  GT Elapsed Test Time
 GTTVD.m                00 000 000 000:  GT True Vertical Depth
#Other Information
#
#WARRANTY: Halliburton will use its best efforts to furnish customers with 
#accurate information and interpretations that are part of, and incident to, the services 
#provided.  However, Halliburton cannot and does not warrant the accuracy 
#or correctness of such information and interpretations.  Under no circumstances should any 
#such information or interpretation be relied upon as the sole basis for any drilling, 
#completion, production, or financial decision or any procedure involving any risk to the 
#safety of any drilling venture, drilling rig or its crew or any other third party.  The 
#Customer has full responsibility for all drilling, completion and production operation.  
#Halliburton makes no representations or warranties, either expressed or 
#implied, including, but not limited to, the implied warranties of merchantability or fitness 
#for a particular purpose, with respect to the services rendered.  In no event will 
#Halliburton be liable for failure to obtain any particular results or for 
#any damages, including, but not limited to, indirect, special or consequential damages, 
#resulting from the use of any information or interpretation provided by Halliburton.
#
~A           TIME           GTDEPTH  GTPQH  GTTQ  GTTN  GTET   GTTVD  
# ...
   20:58:46.782.08-May-2021 4593.01 6812.38 69.10 2.00  23.00 3008.90
   20:58:46.982.08-May-2021 4593.01 6812.38 69.10 2.00  23.20 3008.90
   20:58:47.182.08-May-2021 4593.01 6812.99 69.10 2.00  23.40 3008.90
   20:58:47.382.08-May-2021 4593.01 6824.57 69.10 2.00  23.60 3008.90
   20:58:47.582.08-May-2021 4593.01 6821.83 69.10 2.00  23.80 3008.90
   20:58:47.782.08-May-2021 4593.01 6816.89 69.10 2.00  24.00 3008.90
   20:58:47.982.08-May-2021 4593.01 6816.89 69.10 2.00  24.20 3008.90
   20:58:48.182.08-May-2021 4593.01 6816.51 69.10 2.00  24.40 3008.90
   20:58:48.382.08-May-2021 4593.01 6815.68 69.10 2.00  24.60 3008.90
   20:58:48.582.08-May-2021 4593.01 6815.50 69.10 2.00  24.80 3008.90
   20:58:48.782.08-May-2021 4593.01 6816.55 69.10 2.00  25.00 3008.90
   20:58:48.982.08-May-2021 4593.01 6816.55 69.10 2.00  25.20 3008.90
   20:58:49.182.08-May-2021 4593.01 6815.96 69.10 2.00  25.40 3008.90
   20:58:49.382.08-May-2021 4593.01 6816.17 69.10 2.00  25.60 3008.90
   20:58:49.582.08-May-2021 4593.01 6815.99 69.10 2.00  25.80 3008.90
   20:58:49.782.08-May-2021 4593.01 6816.28 69.10 2.00  26.00 3008.90
   20:58:49.982.08-May-2021 4593.01 6816.28 69.10 2.00  26.20 3008.90
   20:58:50.182.08-May-2021 4593.01 6831.66 69.10 2.00  26.40 3008.90
   20:58:50.382.08-May-2021 4593.01 6823.26 69.10 2.00  26.60 3008.90
   20:58:50.582.08-May-2021 4593.01 6818.40 69.10 2.00  26.80 3008.90
   20:58:50.782.08-May-2021 4593.01 6821.03 69.10 2.00  27.00 3008.90
   20:58:50.982.08-May-2021 4593.01 6821.03 69.10 2.00  27.20 3008.90
   20:58:51.183.08-May-2021 4593.01 6829.00 69.10 2.00  27.40 3008.90
   20:58:51.383.08-May-2021 4593.01 6823.68 69.10 2.00  27.60 3008.90
   20:58:51.583.08-May-2021 4593.01 6819.61 69.09 2.00  27.80 3008.90
   20:58:51.783.08-May-2021 4593.01 6832.90 69.09 2.00  28.00 3008.90
   20:58:51.983.08-May-2021 4593.01 6832.90 69.09 2.00  28.20 3008.90
   20:58:52.183.08-May-2021 4593.01 6821.66 69.09 2.00  28.40 3008.90
   20:58:52.383.08-May-2021 4593.01 6822.75 69.09 2.00  28.60 3008.90
   20:58:52.583.08-May-2021 4593.01 6828.50 69.09 2.00  28.80 3008.90
   20:58:52.783.08-May-2021 4593.01 6831.04 69.09 2.00  29.00 3008.90
   20:58:52.983.08-May-2021 4593.01 6831.04 69.09 2.00  29.20 3008.90
   20:58:53.183.08-May-2021 4593.01 6822.91 69.09 2.00  29.40 3008.90
   20:58:53.383.08-May-2021 4593.01 6824.50 69.09 2.00  29.60 3008.90
   20:58:53.583.08-May-2021 4593.01 7004.50 69.09 2.00  29.80 3008.90
   20:58:53.783.08-May-2021 4593.01 7203.13 69.09 2.00  30.00 3008.90
   20:58:53.983.08-May-2021 4593.01 7203.13 69.09 2.00  30.20 3008.90
   20:58:54.183.08-May-2021 4593.01 7380.27 69.09 2.00  30.40 3008.90
   20:58:54.383.08-May-2021 4593.01 7437.99 69.09 2.00  30.60 3008.90
   20:58:54.583.08-May-2021 4593.01 7465.18 69.09 2.00  30.80 3008.90
   20:58:54.783.08-May-2021 4593.01 7481.37 69.09 2.00  31.00 3008.90
   20:58:54.983.08-May-2021 4593.01 7481.37 69.09 2.00  31.20 3008.90
   20:58:55.183.08-May-2021 4593.01 7496.27 69.09 2.00  31.40 3008.90
   20:58:55.383.08-May-2021 4593.01 7518.76 69.09 2.00  31.60 3008.90
   20:58:55.583.08-May-2021 4593.01 7568.68 69.09 2.00  31.80 3008.90
   20:58:55.783.08-May-2021 4593.01 7565.75 69.09 2.00  32.00 3008.90
   20:58:55.983.08-May-2021 4593.01 7565.75 69.09 2.00  32.20 3008.90
   20:58:56.183.08-May-2021 4593.01 7409.03 69.10 2.00  32.40 3008.90
   20:58:56.383.08-May-2021 4593.01 7299.52 69.10 2.00  32.60 3008.90
   20:58:56.583.08-May-2021 4593.01 7231.14 69.10 2.00  32.80 3008.90
   20:58:56.783.08-May-2021 4593.01 7179.27 69.10 2.00  33.00 3008.90
   20:58:56.983.08-May-2021 4593.01 7179.27 69.10 2.00  33.20 3008.90
   20:58:57.183.08-May-2021 4593.01 7102.72 69.10 2.00  33.40 3008.90
   20:58:57.383.08-May-2021 4593.01 7058.52 69.10 2.00  33.60 3008.90
   20:58:57.583.08-May-2021 4593.01 7009.05 69.10 2.00  33.80 3008.90
   20:58:57.783.08-May-2021 4593.01 6961.09 69.10 2.00  34.00 3008.90
   20:58:57.983.08-May-2021 4593.01 6961.09 69.10 2.00  34.20 3008.90
   20:58:58.183.08-May-2021 4593.01 6927.92 69.10 2.00  34.40 3008.90
   20:58:58.383.08-May-2021 4593.01 6895.34 69.10 2.00  34.60 3008.90
   20:58:58.583.08-May-2021 4593.01 6872.18 69.10 2.00  34.80 3008.90
   20:58:58.783.08-May-2021 4593.01 6847.04 69.10 2.00  35.00 3008.90
   20:58:58.983.08-May-2021 4593.01 6847.04 69.10 2.00  35.20 3008.90
   20:58:59.183.08-May-2021 4593.01 6825.92 69.10 2.00  35.40 3008.90
   20:58:59.383.08-May-2021 4593.01 6811.30 69.10 2.00  35.60 3008.90
   20:58:59.583.08-May-2021 4593.01 6827.47 69.10 2.00  35.80 3008.90
   20:58:59.783.08-May-2021 4593.01 6846.03 69.10 2.00  36.00 3008.90
   20:58:59.983.08-May-2021 4593.01 6846.03 69.10 2.00  36.20 3008.90
   20:59:00.183.08-May-2021 4593.01 6799.89 69.10 2.00  36.40 3008.90
   20:59:00.383.08-May-2021 4593.01 6798.22 69.10 2.00  36.60 3008.90
   20:59:00.583.08-May-2021 4593.01 6789.83 69.10 2.00  36.80 3008.90
   20:59:00.783.08-May-2021 4593.01 6340.89 69.10 2.00  37.00 3008.90
   20:59:00.984.08-May-2021 4593.01 6340.89 69.10 2.00  37.20 3008.90
   20:59:01.184.08-May-2021 4593.01 4912.16 69.09 2.00  37.40 3008.90
   20:59:01.384.08-May-2021 4593.01 4558.74 69.09 2.00  37.60 3008.90
   20:59:01.584.08-May-2021 4593.01 4325.67 69.09 2.00  37.80 3008.90
   20:59:01.784.08-May-2021 4593.01 3938.33 69.09 2.00  38.00 3008.90
   20:59:01.984.08-May-2021 4593.01 3938.33 69.09 2.00  38.20 3008.90
   20:59:02.184.08-May-2021 4593.01 3612.14 69.09 2.00  38.40 3008.90
   20:59:02.384.08-May-2021 4593.01 3581.28 69.09 2.00  38.60 3008.90
   20:59:02.584.08-May-2021 4593.01 3527.53 69.09 2.00  38.80 3008.90
   20:59:02.784.08-May-2021 4593.01 3482.90 69.08 2.00  39.00 3008.90
   20:59:02.984.08-May-2021 4593.01 3482.90 69.08 2.00  39.20 3008.90
   20:59:03.184.08-May-2021 4593.01 3456.36 69.08 2.00  39.40 3008.90
   20:59:03.384.08-May-2021 4593.01 3458.38 69.08 2.00  39.60 3008.90
   20:59:03.584.08-May-2021 4593.01 3472.11 69.07 2.00  39.80 3008.90
   20:59:03.784.08-May-2021 4593.01 3489.12 69.07 2.00  40.00 3008.90
   20:59:03.984.08-May-2021 4593.01 3489.12 69.07 2.00  40.20 3008.90
   20:59:04.184.08-May-2021 4593.01 3447.34 69.07 2.00  40.40 3008.90
   20:59:04.384.08-May-2021 4593.01 3425.24 69.06 2.00  40.60 3008.90
   20:59:04.584.08-May-2021 4593.01 3408.21 69.06 2.00  40.80 3008.90
   20:59:04.784.08-May-2021 4593.01 3376.46 69.06 2.00  41.00 3008.90
   20:59:04.984.08-May-2021 4593.01 3376.46 69.06 2.00  41.20 3008.90
   20:59:05.184.08-May-2021 4593.01 3334.94 69.05 2.00  41.40 3008.90
   20:59:05.384.08-May-2021 4593.01 3302.51 69.05 2.00  41.60 3008.90
   20:59:05.584.08-May-2021 4593.01 3270.82 69.05 2.00  41.80 3008.90
   20:59:05.784.08-May-2021 4593.01 3245.25 69.05 2.00  42.00 3008.90
   20:59:05.984.08-May-2021 4593.01 3245.25 69.05 2.00  42.20 3008.90
   20:59:06.184.08-May-2021 4593.01 3180.85 69.04 2.00  42.40 3008.90
   20:59:06.384.08-May-2021 4593.01 3138.19 69.04 2.00  42.60 3008.90
   20:59:06.584.08-May-2021 4593.01 3062.91 69.04 2.00  42.80 3008.90
   20:59:06.784.08-May-2021 4593.01 2995.17 69.04 2.00  43.00 3008.90
   20:59:06.984.08-May-2021 4593.01 2995.17 69.04 2.00  43.20 3008.90
   20:59:07.184.08-May-2021 4593.01 2881.70 69.03 2.00  43.40 3008.90
   20:59:07.384.08-May-2021 4593.01 2835.97 69.03 2.00  43.60 3008.90
   20:59:07.584.08-May-2021 4593.01 2716.94 69.03 2.00  43.80 3008.90
   20:59:07.784.08-May-2021 4593.01 2600.53 69.03 2.00  44.00 3008.90
   20:59:07.984.08-May-2021 4593.01 2600.53 69.03 2.00  44.20 3008.90
   20:59:08.184.08-May-2021 4593.01 2424.42 69.02 2.00  44.40 3008.90
   20:59:08.384.08-May-2021 4593.01 2360.45 69.02 2.00  44.60 3008.90
   20:59:08.584.08-May-2021 4593.01 2262.58 69.02 2.00  44.80 3008.90
   20:59:08.784.08-May-2021 4593.01 2181.08 69.02 2.00  45.00 3008.90
   20:59:08.984.08-May-2021 4593.01 2181.08 69.02 2.00  45.20 3008.90
   20:59:09.184.08-May-2021 4593.01 2233.89 69.01 2.00  45.40 3008.90
   20:59:09.384.08-May-2021 4593.01 2205.63 69.01 2.00  45.60 3008.90
   20:59:09.584.08-May-2021 4593.01 2191.77 69.01 2.00  45.80 3008.90
