~Version Information
 VERS.                  2.0:   CWLS log ASCII Standard -VERSION 2.0
 WRAP.                   NO:   One line per depth step
~Well Information Block
#MNEM.UNIT     VALUE/NAME     DESCRIPTION
#---------     -----------    ---------------------------
 STRT.S             23:07:02 09-May-21: START TIME 23:07:02 09-May-21
 STOP.S             23:13:42 09-May-21: STOP TIME  23:13:42 09-May-21
 STEP.S                   0.00: STEP TIME
 NULL.                 -999.25: NULL VALUE
 PROV.                    Baku:  PROVINCE
 STAT.                    Baku:  STATE NAME
 SON .        AZ-XX-0906571588:  JOB NUMBER
 WTYP.                Deviated:  WELL TYPE
 COMP.     BP Exploration (Caspian Sea) ltd:  COMPANY
 BASE.              Azerbaijan:  LOGGING EQUIPMENT BASE LOCATION
 REGN.                   EESSA:  REGION
 CTRY.              Azerbaijan:  COUNTRY NAME
 FLD .                     ACG:  FIELD NAME
 WELL.                     J28:  WELL NAME
 RIG .             West Chirag:  RIG NAME
 DMF .             Drill Floor:  DRILL MEAS FROM
 PDAT.       Caspian Sea Level:  PERMANENT DATUM
 HPTY.       Minimum Curvature:  HOLE POS TYPE
 MDS .        Operator Entered:  MAG DATA SOURCE
 NREF.                    Grid:  NORTH REFERENCE
 SRVC.          TURAN DRILLING:  CONTRACTOR
 JOBN.        AZ-XX-0906571588:  JOB TICKET NUMB
 DCON.     Halliburton Sperry Drilling:  DIRECTNL CONTR
 STIM.      00.44.00 11-Feb-21:  START TIME
 DATE.      00.00.00 05-May-21:  END TIME
 SPUD.               13-Feb-21:  SPUD DATE
 MWDS.                    Baku:  MWD SHOP
 DOE .                     N/A:  DOE NUMBER
 UNIT.                     N/A:  LOGGING EQUIPMENT ID
 UWI .                     N/A:  UNIQUE WELL IDENTIFIER
 API .                     N/A:  API NUMBER
 CNTY.                        :  COUNTY
 LOC .                        :  LOCATION
 LMF .             Drill Floor:  LOG MEASURED FROM
 TVDS.m                  43.00:  TVDSS CORRECTN
 SDEP.m                 341.00:  START DEPTH
 EGL .m                   0.00:  GROUND ELEVATION
 WDMS.m                 169.80:  WD ELEV
 AGAP.m                  43.00:  AIR GAP
 EPD .m                   0.00:  ELEVATION
 APD .m                  43.00:  DEPTH ABOVE PD
 LATI.deg                40.13:  LATITUDE
 LONG.deg                51.22:  LONGITUDE
 UTMY.m             4443793.85:  UTM Y
 UTMX.m              519005.06:  UTM X
 WHEW.m                 -11.57:  WELL HEAD E/W
 WHNS.m                   8.57:  WELL HEAD N/S
 VSEW.m                 -11.57:  VERT SEC E/W
 VSNS.m                   8.57:  VERT SEC N/S
 DFWL.m                   0.00:  DISTANCE FWL
 DFSL.m                   0.00:  DISTANCE FSL
 VSDR.deg               299.34:  VERT SEC DIRECT
 GVFD.g                   1.00:  GRAVITY FIELD
 AZTC.deg                 6.36:  AZM TOTAL CORR
 MFLD.nT              50391.00:  MAGNETIC FIELD
 MDIP.deg                59.65:  MAGNETIC DIP
 MDEC.deg                 6.48:  MAGNETIC DECL
 GRDC.deg                 0.12:  GRID CORRECTION
 DEP .m                 334.96:  DEPTH
 TDD .m                1407.26:  TOTAL DEPTH (DRILLER)
 EKB .m                  43.00:  KB ELEVATION
 EDF .m                  43.00:  DF ELEVATION
 TDL .m                 228.00:  TOTAL DEPTH (LOGGER)
 VSC .                       0:  VS TO CLOSURE
 MAGU.                 1854484:  MAGUTM CHECKSUM
~Parameter Information Block
#MNEM.UNIT       Value        Description
#---------     -----------    ---------------------------
 AV  .mps                 4.00:  Ann Velocity 
 AVMX.mps                 4.73:  Max Ann Veloc 
 AZIF.deg               304.48:  Azm, Final 
 BHAT.        Rotary Steerable:  BHA Type 
 BREV.rev            257300.00:  Rev Bit Total 
 BROT.°/30m               0.00:  Build Rotating 
 BS  .in                  8.50:  Bit Size 
 BSZ .in                  8.50:  Bit Size 
 BTPL.psig              589.00:  Bit Press Loss 
 CABU.                      No:  Customer Abuse 
 CGEO.          Mubariz ghayev:  Customer Geo 
 COMM.                     d:  Run Comments 1 
 TCS .hr                 64.25:  Time Ciculation Ended 
 CV  .mps                 3.50:  Crit Velocity 
 CVMX.mps                 4.52:  Max Crit Veloc 
 DD1 .             Aziz Aliyev:  Direct Drillr 1 
 DD2 .         Intigam Rahimov:  Direct Drillr 2 
 DD3 .          Rashad Habibov:  Direct Drillr 3 
 DDSV.               Geo-Pilot:  DD Service 
 DEFF.%                  98.00:  % Det Eff 
 DLRX.°/30m               0.00:  Dogleg Rot Max 
 DLSO.°/30m               0.00:  Dogleg Oriented 
 DLSX.°/30m               0.00:  Dogleg Str Max 
 DRET.      10.45.04 08-May-21:  Drill End Time 
 DRST.      03.30.04 04-May-21:  Drill Start Tim 
 DTIM.hr                 14.97:  Time Drilling 
 EDEP.m                4640.01:  End Depth 
 ENG1.         Dail Mahammadov:  Engineer 1 
 ENG2.           Eldar Hajiyev:  Engineer 2 
 ENG3.       Bakhtiar Jabbarli:  Engineer 3 
 ENG4.       Natik Hasanagayev:  Engineer 4 
 ETIM.      09.30.04 14-May-21:  End Time 
 FLOI.gpm               460.00:  Flow In 
 FLON.gpm               200.00:  Flow In Min 
 FLOS.cptm                0.00:  Fluid Loss 
 FLOX.gpm               505.00:  Flow In Max 
 HFLO.                      No:  High Flow 
 HPRE.                      No:  High Pressure 
 HTEM.                      No:  High Temp 
 HYDO.m                   1.80:  Hydro Offset 
 IFIN.deg                66.71:  Inc, Final 
 IMAX.deg                67.03:  Inc Max 
 IMIN.deg                66.63:  Inc Min 
 IMND.m                4550.58:  Inc Min Depth 
 IMXD.m                4439.01:  Inc Max Depth 
 JARR.                      No:  Jarring 
 LETM.      10.45.04 08-May-21:  Log End Time 
 LOST.hr                     0:  Lost Rig Time 
 LSTM.      03.30.04 04-May-21:  Log Start Time 
 MDCL.ppm             37000.00:  Mud Chlorides 
 MDES.     Inversion Oil/Synthetic:  Mud Desc 
 DFD .sg                  1.38:  Mud Density 
 MDMN.sg                  1.35:  Dens Mud Min 
 MDMX.sg                  1.40:  Dens Mud Max 
 MOIL.                   57.40:  Run Mud Oil % 
 MOWR.                   70:30:  Run Mud OWR 
 MSND.                    0.00:  Run Mud Sand % 
 MSOL.                   18.00:  Run Mud Solids% 
 DFV .spqt               71.00:  Mud Viscosity 
 MWOD.in                  6.75:  MWD Tool OD 
 MWSI.                      No:  Serv Intrp, MWD 
 OTIM.hr                242.76:  Time Operating 
 PCON.           Look Like New:  Pad Condition 
 PMAX.psia            12183.92:  Press Op, Max 
 PV  .cP                 27.00:  Mud PV 
 RUN .                    1300:  Run Number 
 ROPA.m/hr               15.00:  ROP Avg 
 ROPN.m/hr                9.00:  ROP Min 
 ROPX.m/hr               19.00:  ROP Max 
 RPMA.rpm               120.00:  RPM Surface Avg 
 RPMN.rpm               100.00:  RPM Surface Min 
 RPMX.rpm               120.00:  RPM Surface Max 
 RRUN.                    1300:  Rig Run Number 
 RTIM.hr                  5.00:  Time Reaming 
 SAZI.deg               304.73:  Azm, Start 
 SDEP.m                4412.01:  Start Depth 
 SIDD.                      No:  Serv Intrp, DD 
 SINC.deg                66.82:  Inc, Start 
 SPPA.psig             2800.00:  SPP Avg 
 SPPN.psig             2610.00:  SPP Min 
 SPPX.psig             3100.00:  SPP Max 
 STIM.      03.30.00 04-May-21:  Start Time 
 SVCS.                 DD, MWD:  Services 
 SVER.                    9.20:  Sperry Version 
 TDAT.m                 228.00:  Tot Depth Attmp 
 TDDF.                      No:  Trip for DD 
 TDLG.m                 228.00:  Tot Depth Loggd 
 TFF .                      No:  Trip for Fail 
 TQAA.f-kp               15.00:  Torque Abs Avg 
 TQAN.f-kp               12.00:  Torque Abs Min 
 TQAX.f-kp               22.00:  Torque Abs Max 
 TRRT.°/30m               0.00:  Turn Rotating 
 MRT .                    HCIM:  Maximum Recorded Temperature 
 TTMX.degC               90.20:  Max Tool Temp 
 VS01.                90627813:  Virtual Str1 SN 
 VS02.                90634712:  Virtual Str2 SN 
 VS03.                90643410:  Virtual Str3 SN 
 VS04.                90634712:  Virtual Str4 SN 
 WBMN.klb                 9.00:  WOB Min 
 WITN.        Elmaddin Rahimov:  Customer Rep 
 WITN.         Haytham Mostafa:  Customer Rep 2 
 WOBA.klb                15.00:  WOB Avg 
 WOBX.klb                23.00:  WOB Max 
 YP  .lhf2               29.00:  Yield Point 
~Curve Information Block
#MNEM.UNIT                 API CODE     Curve Description
#---------               -----------    ---------------------------
 TIME.HHMMSS            00 000 000 000:  GT Time & Date
 GTDEPTH.m              00 000 000 000:  GT Depth
 GTPQH.psia             00 000 000 000:  GT HR Quartz Pressure
 GTTQ.degC              00 000 000 000:  GT Quartz Temperature
 GTTN.NONE              00 000 000 000:  GT Test Number
 GTET.sec               00 000 000 000:  GT Elapsed Test Time
 GTTVD.m                00 000 000 000:  GT True Vertical Depth
#Other Information
#
#WARRANTY: Halliburton will use its best efforts to furnish customers with 
#accurate information and interpretations that are part of, and incident to, the services 
#provided.  However, Halliburton cannot and does not warrant the accuracy 
#or correctness of such information and interpretations.  Under no circumstances should any 
#such information or interpretation be relied upon as the sole basis for any drilling, 
#completion, production, or financial decision or any procedure involving any risk to the 
#safety of any drilling venture, drilling rig or its crew or any other third party.  The 
#Customer has full responsibility for all drilling, completion and production operation.  
#Halliburton makes no representations or warranties, either expressed or 
#implied, including, but not limited to, the implied warranties of merchantability or fitness 
#for a particular purpose, with respect to the services rendered.  In no event will 
#Halliburton be liable for failure to obtain any particular results or for 
#any damages, including, but not limited to, indirect, special or consequential damages, 
#resulting from the use of any information or interpretation provided by Halliburton.
#
~A           TIME           GTDEPTH  GTPQH  GTTQ  GTTN   GTET   GTTVD  
# ...
   23:12:41.748.09-May-2021 4503.01 1178.29 60.38 17.00 338.91 2973.29
   23:12:41.948.09-May-2021 4503.01 1178.29 60.38 17.00 339.11 2973.29
   23:12:42.148.09-May-2021 4503.01 1181.72 60.38 17.00 339.31 2973.29
   23:12:42.348.09-May-2021 4503.01 1183.36 60.38 17.00 339.51 2973.29
   23:12:42.548.09-May-2021 4503.01 1184.69 60.38 17.00 339.71 2973.29
   23:12:42.748.09-May-2021 4503.01 1186.16 60.38 17.00 339.91 2973.29
   23:12:42.948.09-May-2021 4503.01 1186.16 60.38 17.00 340.11 2973.29
   23:12:43.148.09-May-2021 4503.01 1188.94 60.38 17.00 340.31 2973.29
   23:12:43.348.09-May-2021 4503.01 1190.37 60.38 17.00 340.51 2973.29
   23:12:43.548.09-May-2021 4503.01 1191.62 60.38 17.00 340.71 2973.29
   23:12:43.748.09-May-2021 4503.01 1193.13 60.38 17.00 340.91 2973.29
   23:12:43.948.09-May-2021 4503.01 1193.13 60.38 17.00 341.11 2973.29
   23:12:44.148.09-May-2021 4503.01 1196.22 60.38 17.00 341.31 2973.29
   23:12:44.348.09-May-2021 4503.01 1197.55 60.38 17.00 341.51 2973.29
   23:12:44.547.09-May-2021 4503.01 1198.94 60.38 17.00 341.71 2973.29
   23:12:44.747.09-May-2021 4503.01 1200.48 60.38 17.00 341.91 2973.29
   23:12:44.947.09-May-2021 4503.01 1200.48 60.38 17.00 342.11 2973.29
   23:12:45.147.09-May-2021 4503.01 1203.41 60.38 17.00 342.31 2973.29
   23:12:45.347.09-May-2021 4503.01 1204.87 60.38 17.00 342.51 2973.29
   23:12:45.547.09-May-2021 4503.01 1206.34 60.38 17.00 342.71 2973.29
   23:12:45.747.09-May-2021 4503.01 1207.80 60.38 17.00 342.91 2973.29
   23:12:45.947.09-May-2021 4503.01 1207.80 60.38 17.00 343.11 2973.29
   23:12:46.147.09-May-2021 4503.01 1210.73 60.38 17.00 343.31 2973.29
   23:12:46.347.09-May-2021 4503.01 1211.91 60.38 17.00 343.51 2973.29
   23:12:46.547.09-May-2021 4503.01 1213.69 60.38 17.00 343.71 2973.29
   23:12:46.747.09-May-2021 4503.01 1215.22 60.38 17.00 343.91 2973.29
   23:12:46.947.09-May-2021 4503.01 1215.22 60.38 17.00 344.11 2973.29
   23:12:47.147.09-May-2021 4503.01 1218.03 60.38 17.00 344.31 2973.29
   23:12:47.347.09-May-2021 4503.01 1219.51 60.38 17.00 344.51 2973.29
   23:12:47.547.09-May-2021 4503.01 1220.97 60.38 17.00 344.71 2973.29
   23:12:47.747.09-May-2021 4503.01 1222.39 60.38 17.00 344.91 2973.29
   23:12:47.947.09-May-2021 4503.01 1222.39 60.38 17.00 345.11 2973.29
   23:12:48.147.09-May-2021 4503.01 1225.22 60.38 17.00 345.31 2973.29
   23:12:48.347.09-May-2021 4503.01 1226.62 60.38 17.00 345.51 2973.29
   23:12:48.546.09-May-2021 4503.01 1227.99 60.38 17.00 345.71 2973.29
   23:12:48.746.09-May-2021 4503.01 1229.41 60.38 17.00 345.91 2973.29
   23:12:48.946.09-May-2021 4503.01 1229.41 60.38 17.00 346.11 2973.29
   23:12:49.146.09-May-2021 4503.01 1232.23 60.38 17.00 346.31 2973.29
   23:12:49.346.09-May-2021 4503.01 1233.69 60.38 17.00 346.51 2973.29
   23:12:49.546.09-May-2021 4503.01 1235.24 60.38 17.00 346.71 2973.29
   23:12:49.746.09-May-2021 4503.01 1236.46 60.38 17.00 346.91 2973.29
   23:12:49.946.09-May-2021 4503.01 1236.46 60.38 17.00 347.11 2973.29
   23:12:50.146.09-May-2021 4503.01 1239.41 60.38 17.00 347.31 2973.29
   23:12:50.346.09-May-2021 4503.01 1240.61 60.38 17.00 347.51 2973.29
   23:12:50.546.09-May-2021 4503.01 1241.76 60.38 17.00 347.71 2973.29
   23:12:50.746.09-May-2021 4503.01 1243.23 60.38 17.00 347.91 2973.29
   23:12:50.946.09-May-2021 4503.01 1243.23 60.38 17.00 348.11 2973.29
   23:12:51.146.09-May-2021 4503.01 1246.27 60.38 17.00 348.31 2973.29
   23:12:51.346.09-May-2021 4503.01 1247.50 60.38 17.00 348.51 2973.29
   23:12:51.546.09-May-2021 4503.01 1248.97 60.38 17.00 348.71 2973.29
   23:12:51.746.09-May-2021 4503.01 1250.11 60.38 17.00 348.91 2973.29
   23:12:51.946.09-May-2021 4503.01 1250.11 60.38 17.00 349.11 2973.29
   23:12:52.146.09-May-2021 4503.01 1253.33 60.38 17.00 349.31 2973.29
   23:12:52.345.09-May-2021 4503.01 1254.63 60.38 17.00 349.51 2973.29
   23:12:52.545.09-May-2021 4503.01 1256.12 60.38 17.00 349.71 2973.29
   23:12:52.745.09-May-2021 4503.01 1257.49 60.38 17.00 349.91 2973.29
   23:12:52.945.09-May-2021 4503.01 1257.49 60.38 17.00 350.11 2973.29
   23:12:53.145.09-May-2021 4503.01 1260.34 60.38 17.00 350.31 2973.29
   23:12:53.345.09-May-2021 4503.01 1261.75 60.38 17.00 350.51 2973.29
   23:12:53.545.09-May-2021 4503.01 1263.13 60.38 17.00 350.71 2973.29
   23:12:53.745.09-May-2021 4503.01 1264.53 60.38 17.00 350.91 2973.29
   23:12:53.945.09-May-2021 4503.01 1264.53 60.38 17.00 351.11 2973.29
   23:12:54.145.09-May-2021 4503.01 1267.03 60.38 17.00 351.31 2973.29
   23:12:54.345.09-May-2021 4503.01 1268.70 60.38 17.00 351.51 2973.29
   23:12:54.545.09-May-2021 4503.01 1270.20 60.38 17.00 351.71 2973.29
   23:12:54.745.09-May-2021 4503.01 1271.64 60.38 17.00 351.91 2973.29
   23:12:54.945.09-May-2021 4503.01 1271.64 60.38 17.00 352.11 2973.29
   23:12:55.145.09-May-2021 4503.01 1274.27 60.38 17.00 352.31 2973.29
   23:12:55.345.09-May-2021 4503.01 1275.71 60.38 17.00 352.51 2973.29
   23:12:55.545.09-May-2021 4503.01 1277.07 60.38 17.00 352.71 2973.29
   23:12:55.745.09-May-2021 4503.01 1278.48 60.38 17.00 352.91 2973.29
   23:12:55.945.09-May-2021 4503.01 1278.48 60.38 17.00 353.11 2973.29
   23:12:56.144.09-May-2021 4503.01 1281.20 60.38 17.00 353.31 2973.29
   23:12:56.344.09-May-2021 4503.01 1282.54 60.38 17.00 353.51 2973.29
   23:12:56.544.09-May-2021 4503.01 1283.90 60.38 17.00 353.71 2973.29
   23:12:56.744.09-May-2021 4503.01 1292.18 60.38 17.00 353.91 2973.29
   23:12:56.944.09-May-2021 4503.01 1292.18 60.38 17.00 354.11 2973.29
   23:12:57.144.09-May-2021 4503.01 1294.53 60.38 17.00 354.31 2973.29
   23:12:57.344.09-May-2021 4503.01 1295.86 60.38 17.00 354.51 2973.29
   23:12:57.544.09-May-2021 4503.01 1297.27 60.38 17.00 354.71 2973.29
   23:12:57.744.09-May-2021 4503.01 1298.43 60.38 17.00 354.91 2973.29
   23:12:57.944.09-May-2021 4503.01 1298.43 60.38 17.00 355.11 2973.29
   23:12:58.144.09-May-2021 4503.01 1301.36 60.38 17.00 355.31 2973.29
   23:12:58.344.09-May-2021 4503.01 1302.65 60.38 17.00 355.51 2973.29
   23:12:58.544.09-May-2021 4503.01 1304.00 60.38 17.00 355.71 2973.29
   23:12:58.744.09-May-2021 4503.01 1305.43 60.38 17.00 355.91 2973.29
   23:12:58.944.09-May-2021 4503.01 1305.43 60.38 17.00 356.11 2973.29
   23:12:59.144.09-May-2021 4503.01 1308.40 60.38 17.00 356.31 2973.29
   23:12:59.344.09-May-2021 4503.01 1309.70 60.38 17.00 356.51 2973.29
   23:12:59.544.09-May-2021 4503.01 1310.88 60.38 17.00 356.71 2973.29
   23:12:59.744.09-May-2021 4503.01 1312.34 60.38 17.00 356.91 2973.29
   23:12:59.943.09-May-2021 4503.01 1312.34 60.38 17.00 357.11 2973.29
   23:13:00.143.09-May-2021 4503.01 1315.05 60.38 17.00 357.31 2973.29
   23:13:00.343.09-May-2021 4503.01 1316.39 60.38 17.00 357.51 2973.29
   23:13:00.543.09-May-2021 4503.01 1317.76 60.38 17.00 357.71 2973.29
   23:13:00.743.09-May-2021 4503.01 1319.10 60.38 17.00 357.91 2973.29
   23:13:00.943.09-May-2021 4503.01 1319.10 60.38 17.00 358.11 2973.29
   23:13:01.143.09-May-2021 4503.01 1321.82 60.38 17.00 358.31 2973.29
   23:13:01.343.09-May-2021 4503.01 1322.82 60.38 17.00 358.51 2973.29
   23:13:01.543.09-May-2021 4503.01 1324.59 60.38 17.00 358.71 2973.29
   23:13:01.743.09-May-2021 4503.01 1325.77 60.38 17.00 358.91 2973.29
   23:13:01.943.09-May-2021 4503.01 1325.77 60.38 17.00 359.11 2973.29
   23:13:02.143.09-May-2021 4503.01 1328.53 60.38 17.00 359.31 2973.29
   23:13:02.343.09-May-2021 4503.01 1329.88 60.38 17.00 359.51 2973.29
   23:13:02.543.09-May-2021 4503.01 1331.20 60.38 17.00 359.71 2973.29
   23:13:02.743.09-May-2021 4503.01 1332.49 60.38 17.00 359.91 2973.29
   23:13:02.943.09-May-2021 4503.01 1332.49 60.38 17.00 360.11 2973.29
   23:13:03.143.09-May-2021 4503.01 1335.10 60.38 17.00 360.31 2973.29
   23:13:03.343.09-May-2021 4503.01 1336.37 60.38 17.00 360.51 2973.29
   23:13:03.543.09-May-2021 4503.01 1354.33 60.38 17.00 360.71 2973.29
   23:13:03.742.09-May-2021 4503.01 1407.27 60.38 17.00 360.91 2973.29
   23:13:03.942.09-May-2021 4503.01 1407.27 60.38 17.00 361.11 2973.29
   23:13:04.142.09-May-2021 4503.01 4833.50 60.38 17.00 361.31 2973.29
