~Version Information
 VERS.                  2.0:   CWLS log ASCII Standard -VERSION 2.0
 WRAP.                   NO:   One line per depth step
~Well Information Block
#MNEM.UNIT     VALUE/NAME     DESCRIPTION
#---------     -----------    ---------------------------
 STRT.S             02:17:40 10-May-21: START TIME 02:17:40 10-May-21
 STOP.S             02:25:48 10-May-21: STOP TIME  02:25:48 10-May-21
 STEP.S                   0.00: STEP TIME
 NULL.                 -999.25: NULL VALUE
 PROV.                    Baku:  PROVINCE
 STAT.                    Baku:  STATE NAME
 SON .        AZ-XX-0906571588:  JOB NUMBER
 WTYP.                Deviated:  WELL TYPE
 COMP.     BP Exploration (Caspian Sea) ltd:  COMPANY
 BASE.              Azerbaijan:  LOGGING EQUIPMENT BASE LOCATION
 REGN.                   EESSA:  REGION
 CTRY.              Azerbaijan:  COUNTRY NAME
 FLD .                     ACG:  FIELD NAME
 WELL.                     J28:  WELL NAME
 RIG .             West Chirag:  RIG NAME
 DMF .             Drill Floor:  DRILL MEAS FROM
 PDAT.       Caspian Sea Level:  PERMANENT DATUM
 HPTY.       Minimum Curvature:  HOLE POS TYPE
 MDS .        Operator Entered:  MAG DATA SOURCE
 NREF.                    Grid:  NORTH REFERENCE
 SRVC.          TURAN DRILLING:  CONTRACTOR
 JOBN.        AZ-XX-0906571588:  JOB TICKET NUMB
 DCON.     Halliburton Sperry Drilling:  DIRECTNL CONTR
 STIM.      00.44.00 11-Feb-21:  START TIME
 DATE.      00.00.00 05-May-21:  END TIME
 SPUD.               13-Feb-21:  SPUD DATE
 MWDS.                    Baku:  MWD SHOP
 DOE .                     N/A:  DOE NUMBER
 UNIT.                     N/A:  LOGGING EQUIPMENT ID
 UWI .                     N/A:  UNIQUE WELL IDENTIFIER
 API .                     N/A:  API NUMBER
 CNTY.                        :  COUNTY
 LOC .                        :  LOCATION
 LMF .             Drill Floor:  LOG MEASURED FROM
 TVDS.m                  43.00:  TVDSS CORRECTN
 SDEP.m                 341.00:  START DEPTH
 EGL .m                   0.00:  GROUND ELEVATION
 WDMS.m                 169.80:  WD ELEV
 AGAP.m                  43.00:  AIR GAP
 EPD .m                   0.00:  ELEVATION
 APD .m                  43.00:  DEPTH ABOVE PD
 LATI.deg                40.13:  LATITUDE
 LONG.deg                51.22:  LONGITUDE
 UTMY.m             4443793.85:  UTM Y
 UTMX.m              519005.06:  UTM X
 WHEW.m                 -11.57:  WELL HEAD E/W
 WHNS.m                   8.57:  WELL HEAD N/S
 VSEW.m                 -11.57:  VERT SEC E/W
 VSNS.m                   8.57:  VERT SEC N/S
 DFWL.m                   0.00:  DISTANCE FWL
 DFSL.m                   0.00:  DISTANCE FSL
 VSDR.deg               299.34:  VERT SEC DIRECT
 GVFD.g                   1.00:  GRAVITY FIELD
 AZTC.deg                 6.36:  AZM TOTAL CORR
 MFLD.nT              50391.00:  MAGNETIC FIELD
 MDIP.deg                59.65:  MAGNETIC DIP
 MDEC.deg                 6.48:  MAGNETIC DECL
 GRDC.deg                 0.12:  GRID CORRECTION
 DEP .m                 334.96:  DEPTH
 TDD .m                1407.26:  TOTAL DEPTH (DRILLER)
 EKB .m                  43.00:  KB ELEVATION
 EDF .m                  43.00:  DF ELEVATION
 TDL .m                 228.00:  TOTAL DEPTH (LOGGER)
 VSC .                       0:  VS TO CLOSURE
 MAGU.                 1854484:  MAGUTM CHECKSUM
~Parameter Information Block
#MNEM.UNIT       Value        Description
#---------     -----------    ---------------------------
 AV  .mps                 4.00:  Ann Velocity 
 AVMX.mps                 4.73:  Max Ann Veloc 
 AZIF.deg               304.48:  Azm, Final 
 BHAT.        Rotary Steerable:  BHA Type 
 BREV.rev            257300.00:  Rev Bit Total 
 BROT.°/30m               0.00:  Build Rotating 
 BS  .in                  8.50:  Bit Size 
 BSZ .in                  8.50:  Bit Size 
 BTPL.psig              589.00:  Bit Press Loss 
 CABU.                      No:  Customer Abuse 
 CGEO.          Mubariz ghayev:  Customer Geo 
 COMM.                     …:  Run Comments 1 
 TCS .hr                 64.25:  Time Ciculation Ended 
 CV  .mps                 3.50:  Crit Velocity 
 CVMX.mps                 4.52:  Max Crit Veloc 
 DD1 .             Aziz Aliyev:  Direct Drillr 1 
 DD2 .         Intigam Rahimov:  Direct Drillr 2 
 DD3 .          Rashad Habibov:  Direct Drillr 3 
 DDSV.               Geo-Pilot:  DD Service 
 DEFF.%                  98.00:  % Det Eff 
 DLRX.°/30m               0.00:  Dogleg Rot Max 
 DLSO.°/30m               0.00:  Dogleg Oriented 
 DLSX.°/30m               0.00:  Dogleg Str Max 
 DRET.      10.45.04 08-May-21:  Drill End Time 
 DRST.      03.30.04 04-May-21:  Drill Start Tim 
 DTIM.hr                 14.97:  Time Drilling 
 EDEP.m                4640.01:  End Depth 
 ENG1.         Dail Mahammadov:  Engineer 1 
 ENG2.           Eldar Hajiyev:  Engineer 2 
 ENG3.       Bakhtiar Jabbarli:  Engineer 3 
 ENG4.       Natik Hasanagayev:  Engineer 4 
 ETIM.      09.30.04 14-May-21:  End Time 
 FLOI.gpm               460.00:  Flow In 
 FLON.gpm               200.00:  Flow In Min 
 FLOS.cptm                0.00:  Fluid Loss 
 FLOX.gpm               505.00:  Flow In Max 
 HFLO.                      No:  High Flow 
 HPRE.                      No:  High Pressure 
 HTEM.                      No:  High Temp 
 HYDO.m                   1.80:  Hydro Offset 
 IFIN.deg                66.71:  Inc, Final 
 IMAX.deg                67.03:  Inc Max 
 IMIN.deg                66.63:  Inc Min 
 IMND.m                4550.58:  Inc Min Depth 
 IMXD.m                4439.01:  Inc Max Depth 
 JARR.                      No:  Jarring 
 LETM.      10.45.04 08-May-21:  Log End Time 
 LOST.hr                     0:  Lost Rig Time 
 LSTM.      03.30.04 04-May-21:  Log Start Time 
 MDCL.ppm             37000.00:  Mud Chlorides 
 MDES.     Inversion Oil/Synthetic:  Mud Desc 
 DFD .sg                  1.38:  Mud Density 
 MDMN.sg                  1.35:  Dens Mud Min 
 MDMX.sg                  1.40:  Dens Mud Max 
 MOIL.                   57.40:  Run Mud Oil % 
 MOWR.                   70:30:  Run Mud OWR 
 MSND.                    0.00:  Run Mud Sand % 
 MSOL.                   18.00:  Run Mud Solids% 
 DFV .spqt               71.00:  Mud Viscosity 
 MWOD.in                  6.75:  MWD Tool OD 
 MWSI.                      No:  Serv Intrp, MWD 
 OTIM.hr                242.76:  Time Operating 
 PCON.           Look Like New:  Pad Condition 
 PMAX.psia            12183.92:  Press Op, Max 
 PV  .cP                 27.00:  Mud PV 
 RUN .                    1300:  Run Number 
 ROPA.m/hr               15.00:  ROP Avg 
 ROPN.m/hr                9.00:  ROP Min 
 ROPX.m/hr               19.00:  ROP Max 
 RPMA.rpm               120.00:  RPM Surface Avg 
 RPMN.rpm               100.00:  RPM Surface Min 
 RPMX.rpm               120.00:  RPM Surface Max 
 RRUN.                    1300:  Rig Run Number 
 RTIM.hr                  5.00:  Time Reaming 
 SAZI.deg               304.73:  Azm, Start 
 SDEP.m                4412.01:  Start Depth 
 SIDD.                      No:  Serv Intrp, DD 
 SINC.deg                66.82:  Inc, Start 
 SPPA.psig             2800.00:  SPP Avg 
 SPPN.psig             2610.00:  SPP Min 
 SPPX.psig             3100.00:  SPP Max 
 STIM.      03.30.00 04-May-21:  Start Time 
 SVCS.                 DD, MWD:  Services 
 SVER.                    9.20:  Sperry Version 
 TDAT.m                 228.00:  Tot Depth Attmp 
 TDDF.                      No:  Trip for DD 
 TDLG.m                 228.00:  Tot Depth Loggd 
 TFF .                      No:  Trip for Fail 
 TQAA.f-kp               15.00:  Torque Abs Avg 
 TQAN.f-kp               12.00:  Torque Abs Min 
 TQAX.f-kp               22.00:  Torque Abs Max 
 TRRT.°/30m               0.00:  Turn Rotating 
 MRT .                    HCIM:  Maximum Recorded Temperature 
 TTMX.degC               90.20:  Max Tool Temp 
 VS01.                90627813:  Virtual Str1 SN 
 VS02.                90634712:  Virtual Str2 SN 
 VS03.                90643410:  Virtual Str3 SN 
 VS04.                90634712:  Virtual Str4 SN 
 WBMN.klb                 9.00:  WOB Min 
 WITN.        Elmaddin Rahimov:  Customer Rep 
 WITN.         Haytham Mostafa:  Customer Rep 2 
 WOBA.klb                15.00:  WOB Avg 
 WOBX.klb                23.00:  WOB Max 
 YP  .lhf2               29.00:  Yield Point 
~Curve Information Block
#MNEM.UNIT                 API CODE     Curve Description
#---------               -----------    ---------------------------
 TIME.HHMMSS            00 000 000 000:  GT Time & Date
 GTDEPTH.m              00 000 000 000:  GT Depth
 GTPQH.psia             00 000 000 000:  GT HR Quartz Pressure
 GTTQ.degC              00 000 000 000:  GT Quartz Temperature
 GTTN.NONE              00 000 000 000:  GT Test Number
 GTET.sec               00 000 000 000:  GT Elapsed Test Time
 GTTVD.m                00 000 000 000:  GT True Vertical Depth
#Other Information
#
#WARRANTY: Halliburton will use its best efforts to furnish customers with 
#accurate information and interpretations that are part of, and incident to, the services 
#provided.  However, Halliburton cannot and does not warrant the accuracy 
#or correctness of such information and interpretations.  Under no circumstances should any 
#such information or interpretation be relied upon as the sole basis for any drilling, 
#completion, production, or financial decision or any procedure involving any risk to the 
#safety of any drilling venture, drilling rig or its crew or any other third party.  The 
#Customer has full responsibility for all drilling, completion and production operation.  
#Halliburton makes no representations or warranties, either expressed or 
#implied, including, but not limited to, the implied warranties of merchantability or fitness 
#for a particular purpose, with respect to the services rendered.  In no event will 
#Halliburton be liable for failure to obtain any particular results or for 
#any damages, including, but not limited to, indirect, special or consequential damages, 
#resulting from the use of any information or interpretation provided by Halliburton.
#
~A           TIME           GTDEPTH  GTPQH  GTTQ  GTTN   GTET   GTTVD  
# ...
   02:22:34.485.10-May-2021 4568.01  520.59 60.31 20.00 293.85 2998.98
   02:22:34.685.10-May-2021 4568.01  520.20 60.31 20.00 294.05 2998.98
   02:22:34.885.10-May-2021 4568.01  520.20 60.31 20.00 294.25 2998.98
   02:22:35.085.10-May-2021 4568.01  520.60 60.31 20.00 294.45 2998.98
   02:22:35.285.10-May-2021 4568.01  520.29 60.31 20.00 294.65 2998.98
   02:22:35.485.10-May-2021 4568.01  520.81 60.31 20.00 294.85 2998.98
   02:22:35.685.10-May-2021 4568.01  527.07 60.31 20.00 295.05 2998.98
   02:22:35.885.10-May-2021 4568.01  527.07 60.31 20.00 295.25 2998.98
   02:22:36.085.10-May-2021 4568.01  529.05 60.31 20.00 295.45 2998.98
   02:22:36.285.10-May-2021 4568.01  528.61 60.31 20.00 295.65 2998.98
   02:22:36.485.10-May-2021 4568.01  528.94 60.31 20.00 295.85 2998.98
   02:22:36.685.10-May-2021 4568.01  528.83 60.31 20.00 296.05 2998.98
   02:22:36.885.10-May-2021 4568.01  528.83 60.31 20.00 296.25 2998.98
   02:22:37.085.10-May-2021 4568.01  528.88 60.31 20.00 296.45 2998.98
   02:22:37.285.10-May-2021 4568.01  528.84 60.31 20.00 296.65 2998.98
   02:22:37.485.10-May-2021 4568.01  528.83 60.31 20.00 296.85 2998.98
   02:22:37.685.10-May-2021 4568.01  528.84 60.31 20.00 297.05 2998.98
   02:22:37.885.10-May-2021 4568.01  528.84 60.31 20.00 297.25 2998.98
   02:22:38.085.10-May-2021 4568.01  528.89 60.31 20.00 297.45 2998.98
   02:22:38.285.10-May-2021 4568.01  528.90 60.31 20.00 297.65 2998.98
   02:22:38.485.10-May-2021 4568.01  528.91 60.31 20.00 297.85 2998.98
   02:22:38.685.10-May-2021 4568.01  528.92 60.31 20.00 298.05 2998.98
   02:22:38.885.10-May-2021 4568.01  528.92 60.31 20.00 298.25 2998.98
   02:22:39.085.10-May-2021 4568.01  529.29 60.31 20.00 298.45 2998.98
   02:22:39.285.10-May-2021 4568.01  528.92 60.31 20.00 298.65 2998.98
   02:22:39.485.10-May-2021 4568.01  529.16 60.31 20.00 298.85 2998.98
   02:22:39.685.10-May-2021 4568.01  529.01 60.31 20.00 299.05 2998.98
   02:22:39.885.10-May-2021 4568.01  529.01 60.31 20.00 299.25 2998.98
   02:22:40.085.10-May-2021 4568.01  528.97 60.31 20.00 299.45 2998.98
   02:22:40.286.10-May-2021 4568.01  529.02 60.31 20.00 299.65 2998.98
   02:22:40.486.10-May-2021 4568.01  529.03 60.31 20.00 299.85 2998.98
   02:22:40.686.10-May-2021 4568.01  529.07 60.31 20.00 300.05 2998.98
   02:22:40.886.10-May-2021 4568.01  529.07 60.31 20.00 300.25 2998.98
   02:22:41.086.10-May-2021 4568.01  529.11 60.31 20.00 300.45 2998.98
   02:22:41.286.10-May-2021 4568.01  529.77 60.31 20.00 300.65 2998.98
   02:22:41.486.10-May-2021 4568.01  529.42 60.31 20.00 300.85 2998.98
   02:22:41.686.10-May-2021 4568.01  530.12 60.31 20.00 301.05 2998.98
   02:22:41.886.10-May-2021 4568.01  530.12 60.31 20.00 301.25 2998.98
   02:22:42.086.10-May-2021 4568.01  529.60 60.31 20.00 301.45 2998.98
   02:22:42.286.10-May-2021 4568.01  530.20 60.31 20.00 301.65 2998.98
   02:22:42.486.10-May-2021 4568.01  529.90 60.31 20.00 301.85 2998.98
   02:22:42.686.10-May-2021 4568.01  529.78 60.31 20.00 302.05 2998.98
   02:22:42.886.10-May-2021 4568.01  529.78 60.31 20.00 302.25 2998.98
   02:22:43.086.10-May-2021 4568.01  530.08 60.31 20.00 302.45 2998.98
   02:22:43.286.10-May-2021 4568.01  530.06 60.31 20.00 302.65 2998.98
   02:22:43.486.10-May-2021 4568.01  530.03 60.31 20.00 302.85 2998.98
   02:22:43.686.10-May-2021 4568.01  529.76 60.31 20.00 303.05 2998.98
   02:22:43.886.10-May-2021 4568.01  529.76 60.31 20.00 303.25 2998.98
   02:22:44.086.10-May-2021 4568.01  530.17 60.31 20.00 303.45 2998.98
   02:22:44.286.10-May-2021 4568.01  530.13 60.31 20.00 303.65 2998.98
   02:22:44.486.10-May-2021 4568.01  530.09 60.31 20.00 303.85 2998.98
   02:22:44.686.10-May-2021 4568.01  530.04 60.31 20.00 304.05 2998.98
   02:22:44.886.10-May-2021 4568.01  530.04 60.31 20.00 304.25 2998.98
   02:22:45.086.10-May-2021 4568.01  530.02 60.31 20.00 304.45 2998.98
   02:22:45.286.10-May-2021 4568.01  530.06 60.31 20.00 304.65 2998.98
   02:22:45.486.10-May-2021 4568.01  530.06 60.31 20.00 304.85 2998.98
   02:22:45.686.10-May-2021 4568.01  530.09 60.31 20.00 305.05 2998.98
   02:22:45.887.10-May-2021 4568.01  530.09 60.31 20.00 305.25 2998.98
   02:22:46.087.10-May-2021 4568.01  530.10 60.31 20.00 305.45 2998.98
   02:22:46.287.10-May-2021 4568.01  529.79 60.31 20.00 305.65 2998.98
   02:22:46.487.10-May-2021 4568.01  530.27 60.31 20.00 305.85 2998.98
   02:22:46.687.10-May-2021 4568.01  530.17 60.31 20.00 306.05 2998.98
   02:22:46.887.10-May-2021 4568.01  530.17 60.31 20.00 306.25 2998.98
   02:22:47.087.10-May-2021 4568.01  530.22 60.31 20.00 306.45 2998.98
   02:22:47.287.10-May-2021 4568.01  530.18 60.31 20.00 306.65 2998.98
   02:22:47.487.10-May-2021 4568.01  530.17 60.31 20.00 306.85 2998.98
   02:22:47.687.10-May-2021 4568.01  530.20 60.31 20.00 307.05 2998.98
   02:22:47.887.10-May-2021 4568.01  530.20 60.31 20.00 307.25 2998.98
   02:22:48.087.10-May-2021 4568.01  530.26 60.31 20.00 307.45 2998.98
   02:22:48.287.10-May-2021 4568.01  530.27 60.31 20.00 307.65 2998.98
   02:22:48.487.10-May-2021 4568.01  530.28 60.31 20.00 307.85 2998.98
   02:22:48.687.10-May-2021 4568.01  530.29 60.31 20.00 308.05 2998.98
   02:22:48.887.10-May-2021 4568.01  530.29 60.31 20.00 308.25 2998.98
   02:22:49.087.10-May-2021 4568.01  530.58 60.31 20.00 308.45 2998.98
   02:22:49.287.10-May-2021 4568.01  530.37 60.31 20.00 308.65 2998.98
   02:22:49.487.10-May-2021 4568.01  530.14 60.31 20.00 308.85 2998.98
   02:22:49.687.10-May-2021 4568.01  530.67 60.31 20.00 309.06 2998.98
   02:22:49.887.10-May-2021 4568.01  530.67 60.31 20.00 309.26 2998.98
   02:22:50.087.10-May-2021 4568.01  530.46 60.31 20.00 309.46 2998.98
   02:22:50.287.10-May-2021 4568.01  530.12 60.31 20.00 309.66 2998.98
   02:22:50.487.10-May-2021 4568.01  530.70 60.31 20.00 309.86 2998.98
   02:22:50.687.10-May-2021 4568.01  530.53 60.31 20.00 310.06 2998.98
   02:22:50.887.10-May-2021 4568.01  530.53 60.31 20.00 310.26 2998.98
   02:22:51.087.10-May-2021 4568.01  530.82 60.31 20.00 310.46 2998.98
   02:22:51.287.10-May-2021 4568.01  530.50 60.31 20.00 310.66 2998.98
   02:22:51.488.10-May-2021 4568.01  530.50 60.31 20.00 310.86 2998.98
   02:22:51.688.10-May-2021 4568.01  530.59 60.31 20.00 311.06 2998.98
   02:22:51.888.10-May-2021 4568.01  530.59 60.31 20.00 311.26 2998.98
   02:22:52.088.10-May-2021 4568.01  530.53 60.31 20.00 311.46 2998.98
   02:22:52.288.10-May-2021 4568.01  530.51 60.31 20.00 311.66 2998.98
   02:22:52.488.10-May-2021 4568.01  530.51 60.31 20.00 311.86 2998.98
   02:22:52.688.10-May-2021 4568.01  530.54 60.31 20.00 312.06 2998.98
   02:22:52.888.10-May-2021 4568.01  530.54 60.31 20.00 312.26 2998.98
   02:22:53.088.10-May-2021 4568.01  530.59 60.31 20.00 312.46 2998.98
   02:22:53.288.10-May-2021 4568.01  530.37 60.31 20.00 312.66 2998.98
   02:22:53.488.10-May-2021 4568.01  530.51 60.31 20.00 312.86 2998.98
   02:22:53.688.10-May-2021 4568.01  530.79 60.31 20.00 313.06 2998.98
   02:22:53.888.10-May-2021 4568.01  530.79 60.31 20.00 313.26 2998.98
   02:22:54.088.10-May-2021 4568.01  530.69 60.31 20.00 313.46 2998.98
   02:22:54.288.10-May-2021 4568.01  530.73 60.31 20.00 313.66 2998.98
   02:22:54.488.10-May-2021 4568.01  530.72 60.31 20.00 313.86 2998.98
   02:22:54.688.10-May-2021 4568.01  530.49 60.31 20.00 314.06 2998.98
   02:22:54.888.10-May-2021 4568.01  530.49 60.31 20.00 314.26 2998.98
   02:22:55.088.10-May-2021 4568.01  518.43 60.31 20.00 314.46 2998.98
   02:22:55.288.10-May-2021 4568.01  516.97 60.31 20.00 314.66 2998.98
   02:22:55.488.10-May-2021 4568.01  516.67 60.31 20.00 314.86 2998.98
   02:22:55.688.10-May-2021 4568.01  516.60 60.31 20.00 315.06 2998.98
   02:22:55.888.10-May-2021 4568.01  516.60 60.31 20.00 315.26 2998.98
   02:22:56.088.10-May-2021 4568.01  515.68 60.31 20.00 315.46 2998.98
   02:22:56.288.10-May-2021 4568.01  514.66 60.31 20.00 315.66 2998.98
   02:22:56.488.10-May-2021 4568.01  514.57 60.31 20.00 315.86 2998.98
   02:22:56.688.10-May-2021 4568.01  514.69 60.31 20.00 316.06 2998.98
   02:22:56.888.10-May-2021 4568.01  514.69 60.31 20.00 316.26 2998.98
