~Version Information
 VERS.                  2.0:   CWLS log ASCII Standard -VERSION 2.0
 WRAP.                   NO:   One line per depth step
~Well Information Block
#MNEM.UNIT     VALUE/NAME     DESCRIPTION
#---------     -----------    ---------------------------
 STRT.S             00:12:22 09-May-21: START TIME 00:12:22 09-May-21
 STOP.S             00:19:08 09-May-21: STOP TIME  00:19:08 09-May-21
 STEP.S                   0.00: STEP TIME
 NULL.                 -999.25: NULL VALUE
 PROV.                    Baku:  PROVINCE
 STAT.                    Baku:  STATE NAME
 SON .        AZ-XX-0906571588:  JOB NUMBER
 WTYP.                Deviated:  WELL TYPE
 COMP.     BP Exploration (Caspian Sea) ltd:  COMPANY
 BASE.              Azerbaijan:  LOGGING EQUIPMENT BASE LOCATION
 REGN.                   EESSA:  REGION
 CTRY.              Azerbaijan:  COUNTRY NAME
 FLD .                     ACG:  FIELD NAME
 WELL.                     J28:  WELL NAME
 RIG .             West Chirag:  RIG NAME
 DMF .             Drill Floor:  DRILL MEAS FROM
 PDAT.       Caspian Sea Level:  PERMANENT DATUM
 HPTY.       Minimum Curvature:  HOLE POS TYPE
 MDS .        Operator Entered:  MAG DATA SOURCE
 NREF.                    Grid:  NORTH REFERENCE
 SRVC.          TURAN DRILLING:  CONTRACTOR
 JOBN.        AZ-XX-0906571588:  JOB TICKET NUMB
 DCON.     Halliburton Sperry Drilling:  DIRECTNL CONTR
 STIM.      00.44.00 11-Feb-21:  START TIME
 DATE.      00.00.00 05-May-21:  END TIME
 SPUD.               13-Feb-21:  SPUD DATE
 MWDS.                    Baku:  MWD SHOP
 DOE .                     N/A:  DOE NUMBER
 UNIT.                     N/A:  LOGGING EQUIPMENT ID
 UWI .                     N/A:  UNIQUE WELL IDENTIFIER
 API .                     N/A:  API NUMBER
 CNTY.                        :  COUNTY
 LOC .                        :  LOCATION
 LMF .             Drill Floor:  LOG MEASURED FROM
 TVDS.m                  43.00:  TVDSS CORRECTN
 SDEP.m                 341.00:  START DEPTH
 EGL .m                   0.00:  GROUND ELEVATION
 WDMS.m                 169.80:  WD ELEV
 AGAP.m                  43.00:  AIR GAP
 EPD .m                   0.00:  ELEVATION
 APD .m                  43.00:  DEPTH ABOVE PD
 LATI.deg                40.13:  LATITUDE
 LONG.deg                51.22:  LONGITUDE
 UTMY.m             4443793.85:  UTM Y
 UTMX.m              519005.06:  UTM X
 WHEW.m                 -11.57:  WELL HEAD E/W
 WHNS.m                   8.57:  WELL HEAD N/S
 VSEW.m                 -11.57:  VERT SEC E/W
 VSNS.m                   8.57:  VERT SEC N/S
 DFWL.m                   0.00:  DISTANCE FWL
 DFSL.m                   0.00:  DISTANCE FSL
 VSDR.deg               299.34:  VERT SEC DIRECT
 GVFD.g                   1.00:  GRAVITY FIELD
 AZTC.deg                 6.36:  AZM TOTAL CORR
 MFLD.nT              50391.00:  MAGNETIC FIELD
 MDIP.deg                59.65:  MAGNETIC DIP
 MDEC.deg                 6.48:  MAGNETIC DECL
 GRDC.deg                 0.12:  GRID CORRECTION
 DEP .m                 334.96:  DEPTH
 TDD .m                1407.26:  TOTAL DEPTH (DRILLER)
 EKB .m                  43.00:  KB ELEVATION
 EDF .m                  43.00:  DF ELEVATION
 TDL .m                 228.00:  TOTAL DEPTH (LOGGER)
 VSC .                       0:  VS TO CLOSURE
 MAGU.                 1854484:  MAGUTM CHECKSUM
~Parameter Information Block
#MNEM.UNIT       Value        Description
#---------     -----------    ---------------------------
 AV  .mps                 4.00:  Ann Velocity 
 AVMX.mps                 4.73:  Max Ann Veloc 
 AZIF.deg               304.48:  Azm, Final 
 BHAT.        Rotary Steerable:  BHA Type 
 BREV.rev            257300.00:  Rev Bit Total 
 BROT.°/30m               0.00:  Build Rotating 
 BS  .in                  8.50:  Bit Size 
 BSZ .in                  8.50:  Bit Size 
 BTPL.psig              589.00:  Bit Press Loss 
 CABU.                      No:  Customer Abuse 
 CGEO.          Mubariz ghayev:  Customer Geo 
 COMM.                     <Š|:  Run Comments 1 
 TCS .hr                 64.25:  Time Ciculation Ended 
 CV  .mps                 3.50:  Crit Velocity 
 CVMX.mps                 4.52:  Max Crit Veloc 
 DD1 .             Aziz Aliyev:  Direct Drillr 1 
 DD2 .         Intigam Rahimov:  Direct Drillr 2 
 DD3 .          Rashad Habibov:  Direct Drillr 3 
 DDSV.               Geo-Pilot:  DD Service 
 DEFF.%                  98.00:  % Det Eff 
 DLRX.°/30m               0.00:  Dogleg Rot Max 
 DLSO.°/30m               0.00:  Dogleg Oriented 
 DLSX.°/30m               0.00:  Dogleg Str Max 
 DRET.      10.45.04 08-May-21:  Drill End Time 
 DRST.      03.30.04 04-May-21:  Drill Start Tim 
 DTIM.hr                 14.97:  Time Drilling 
 EDEP.m                4640.01:  End Depth 
 ENG1.         Dail Mahammadov:  Engineer 1 
 ENG2.           Eldar Hajiyev:  Engineer 2 
 ENG3.       Bakhtiar Jabbarli:  Engineer 3 
 ENG4.       Natik Hasanagayev:  Engineer 4 
 ETIM.      09.30.04 14-May-21:  End Time 
 FLOI.gpm               460.00:  Flow In 
 FLON.gpm               200.00:  Flow In Min 
 FLOS.cptm                0.00:  Fluid Loss 
 FLOX.gpm               505.00:  Flow In Max 
 HFLO.                      No:  High Flow 
 HPRE.                      No:  High Pressure 
 HTEM.                      No:  High Temp 
 HYDO.m                   1.80:  Hydro Offset 
 IFIN.deg                66.71:  Inc, Final 
 IMAX.deg                67.03:  Inc Max 
 IMIN.deg                66.63:  Inc Min 
 IMND.m                4550.58:  Inc Min Depth 
 IMXD.m                4439.01:  Inc Max Depth 
 JARR.                      No:  Jarring 
 LETM.      10.45.04 08-May-21:  Log End Time 
 LOST.hr                     0:  Lost Rig Time 
 LSTM.      03.30.04 04-May-21:  Log Start Time 
 MDCL.ppm             37000.00:  Mud Chlorides 
 MDES.     Inversion Oil/Synthetic:  Mud Desc 
 DFD .sg                  1.38:  Mud Density 
 MDMN.sg                  1.35:  Dens Mud Min 
 MDMX.sg                  1.40:  Dens Mud Max 
 MOIL.                   57.40:  Run Mud Oil % 
 MOWR.                   70:30:  Run Mud OWR 
 MSND.                    0.00:  Run Mud Sand % 
 MSOL.                   18.00:  Run Mud Solids% 
 DFV .spqt               71.00:  Mud Viscosity 
 MWOD.in                  6.75:  MWD Tool OD 
 MWSI.                      No:  Serv Intrp, MWD 
 OTIM.hr                242.76:  Time Operating 
 PCON.           Look Like New:  Pad Condition 
 PMAX.psia            12183.92:  Press Op, Max 
 PV  .cP                 27.00:  Mud PV 
 RUN .                    1300:  Run Number 
 ROPA.m/hr               15.00:  ROP Avg 
 ROPN.m/hr                9.00:  ROP Min 
 ROPX.m/hr               19.00:  ROP Max 
 RPMA.rpm               120.00:  RPM Surface Avg 
 RPMN.rpm               100.00:  RPM Surface Min 
 RPMX.rpm               120.00:  RPM Surface Max 
 RRUN.                    1300:  Rig Run Number 
 RTIM.hr                  5.00:  Time Reaming 
 SAZI.deg               304.73:  Azm, Start 
 SDEP.m                4412.01:  Start Depth 
 SIDD.                      No:  Serv Intrp, DD 
 SINC.deg                66.82:  Inc, Start 
 SPPA.psig             2800.00:  SPP Avg 
 SPPN.psig             2610.00:  SPP Min 
 SPPX.psig             3100.00:  SPP Max 
 STIM.      03.30.00 04-May-21:  Start Time 
 SVCS.                 DD, MWD:  Services 
 SVER.                    9.20:  Sperry Version 
 TDAT.m                 228.00:  Tot Depth Attmp 
 TDDF.                      No:  Trip for DD 
 TDLG.m                 228.00:  Tot Depth Loggd 
 TFF .                      No:  Trip for Fail 
 TQAA.f-kp               15.00:  Torque Abs Avg 
 TQAN.f-kp               12.00:  Torque Abs Min 
 TQAX.f-kp               22.00:  Torque Abs Max 
 TRRT.°/30m               0.00:  Turn Rotating 
 MRT .                    HCIM:  Maximum Recorded Temperature 
 TTMX.degC               90.20:  Max Tool Temp 
 VS01.                90627813:  Virtual Str1 SN 
 VS02.                90634712:  Virtual Str2 SN 
 VS03.                90643410:  Virtual Str3 SN 
 VS04.                90634712:  Virtual Str4 SN 
 WBMN.klb                 9.00:  WOB Min 
 WITN.        Elmaddin Rahimov:  Customer Rep 
 WITN.         Haytham Mostafa:  Customer Rep 2 
 WOBA.klb                15.00:  WOB Avg 
 WOBX.klb                23.00:  WOB Max 
 YP  .lhf2               29.00:  Yield Point 
~Curve Information Block
#MNEM.UNIT                 API CODE     Curve Description
#---------               -----------    ---------------------------
 TIME.HHMMSS            00 000 000 000:  GT Time & Date
 GTDEPTH.m              00 000 000 000:  GT Depth
 GTPQH.psia             00 000 000 000:  GT HR Quartz Pressure
 GTTQ.degC              00 000 000 000:  GT Quartz Temperature
 GTTN.NONE              00 000 000 000:  GT Test Number
 GTET.sec               00 000 000 000:  GT Elapsed Test Time
 GTTVD.m                00 000 000 000:  GT True Vertical Depth
#Other Information
#
#WARRANTY: Halliburton will use its best efforts to furnish customers with 
#accurate information and interpretations that are part of, and incident to, the services 
#provided.  However, Halliburton cannot and does not warrant the accuracy 
#or correctness of such information and interpretations.  Under no circumstances should any 
#such information or interpretation be relied upon as the sole basis for any drilling, 
#completion, production, or financial decision or any procedure involving any risk to the 
#safety of any drilling venture, drilling rig or its crew or any other third party.  The 
#Customer has full responsibility for all drilling, completion and production operation.  
#Halliburton makes no representations or warranties, either expressed or 
#implied, including, but not limited to, the implied warranties of merchantability or fitness 
#for a particular purpose, with respect to the services rendered.  In no event will 
#Halliburton be liable for failure to obtain any particular results or for 
#any damages, including, but not limited to, indirect, special or consequential damages, 
#resulting from the use of any information or interpretation provided by Halliburton.
#
~A           TIME           GTDEPTH  GTPQH  GTTQ  GTTN  GTET   GTTVD  
# ...
   00:12:45.475.09-May-2021 4527.01 6744.24 68.29 6.00  23.01 2982.74
   00:12:45.675.09-May-2021 4527.01 6744.24 68.29 6.00  23.21 2982.74
   00:12:45.875.09-May-2021 4527.01 6745.39 68.29 6.00  23.41 2982.74
   00:12:46.075.09-May-2021 4527.01 6753.76 68.29 6.00  23.61 2982.74
   00:12:46.275.09-May-2021 4527.01 6754.12 68.29 6.00  23.81 2982.74
   00:12:46.475.09-May-2021 4527.01 6751.28 68.29 6.00  24.01 2982.74
   00:12:46.675.09-May-2021 4527.01 6751.28 68.29 6.00  24.21 2982.74
   00:12:46.875.09-May-2021 4527.01 6752.50 68.29 6.00  24.41 2982.74
   00:12:47.075.09-May-2021 4527.01 6753.18 68.29 6.00  24.61 2982.74
   00:12:47.275.09-May-2021 4527.01 6749.89 68.29 6.00  24.81 2982.74
   00:12:47.475.09-May-2021 4527.01 6751.44 68.29 6.00  25.01 2982.74
   00:12:47.675.09-May-2021 4527.01 6751.44 68.29 6.00  25.21 2982.74
   00:12:47.876.09-May-2021 4527.01 6751.59 68.29 6.00  25.41 2982.74
   00:12:48.076.09-May-2021 4527.01 6755.54 68.29 6.00  25.61 2982.74
   00:12:48.276.09-May-2021 4527.01 6753.80 68.29 6.00  25.81 2982.74
   00:12:48.476.09-May-2021 4527.01 6754.23 68.29 6.00  26.01 2982.74
   00:12:48.676.09-May-2021 4527.01 6754.23 68.29 6.00  26.21 2982.74
   00:12:48.876.09-May-2021 4527.01 6761.19 68.29 6.00  26.41 2982.74
   00:12:49.076.09-May-2021 4527.01 6757.18 68.29 6.00  26.61 2982.74
   00:12:49.276.09-May-2021 4527.01 6751.88 68.29 6.00  26.81 2982.74
   00:12:49.476.09-May-2021 4527.01 6753.48 68.29 6.00  27.01 2982.74
   00:12:49.676.09-May-2021 4527.01 6753.48 68.29 6.00  27.21 2982.74
   00:12:49.876.09-May-2021 4527.01 6753.81 68.29 6.00  27.41 2982.74
   00:12:50.076.09-May-2021 4527.01 6753.97 68.29 6.00  27.61 2982.74
   00:12:50.276.09-May-2021 4527.01 6754.19 68.29 6.00  27.81 2982.74
   00:12:50.476.09-May-2021 4527.01 6754.51 68.29 6.00  28.01 2982.74
   00:12:50.677.09-May-2021 4527.01 6754.51 68.29 6.00  28.21 2982.74
   00:12:50.877.09-May-2021 4527.01 6755.02 68.28 6.00  28.41 2982.74
   00:12:51.077.09-May-2021 4527.01 6755.96 68.28 6.00  28.61 2982.74
   00:12:51.277.09-May-2021 4527.01 6766.07 68.28 6.00  28.81 2982.74
   00:12:51.477.09-May-2021 4527.01 6764.60 68.28 6.00  29.01 2982.74
   00:12:51.677.09-May-2021 4527.01 6764.60 68.28 6.00  29.21 2982.74
   00:12:51.877.09-May-2021 4527.01 6756.38 68.28 6.00  29.41 2982.74
   00:12:52.077.09-May-2021 4527.01 6758.28 68.28 6.00  29.61 2982.74
   00:12:52.277.09-May-2021 4527.01 6757.87 68.28 6.00  29.81 2982.74
   00:12:52.477.09-May-2021 4527.01 6757.80 68.28 6.00  30.01 2982.74
   00:12:52.677.09-May-2021 4527.01 6757.80 68.28 6.00  30.21 2982.74
   00:12:52.877.09-May-2021 4527.01 6756.99 68.28 6.00  30.41 2982.74
   00:12:53.077.09-May-2021 4527.01 6756.97 68.28 6.00  30.61 2982.74
   00:12:53.277.09-May-2021 4527.01 6757.04 68.28 6.00  30.81 2982.74
   00:12:53.478.09-May-2021 4527.01 6757.18 68.28 6.00  31.01 2982.74
   00:12:53.678.09-May-2021 4527.01 6757.18 68.28 6.00  31.21 2982.74
   00:12:53.878.09-May-2021 4527.01 6765.95 68.28 6.00  31.41 2982.74
   00:12:54.078.09-May-2021 4527.01 6761.62 68.28 6.00  31.61 2982.74
   00:12:54.278.09-May-2021 4527.01 6764.41 68.28 6.00  31.81 2982.74
   00:12:54.478.09-May-2021 4527.01 6762.49 68.28 6.00  32.01 2982.74
   00:12:54.678.09-May-2021 4527.01 6762.49 68.28 6.00  32.21 2982.74
   00:12:54.878.09-May-2021 4527.01 6770.20 68.28 6.00  32.41 2982.74
   00:12:55.078.09-May-2021 4527.01 6765.64 68.28 6.00  32.61 2982.74
   00:12:55.278.09-May-2021 4527.01 6760.21 68.28 6.00  32.81 2982.74
   00:12:55.478.09-May-2021 4527.01 6761.96 68.28 6.00  33.01 2982.74
   00:12:55.678.09-May-2021 4527.01 6761.96 68.28 6.00  33.21 2982.74
   00:12:55.878.09-May-2021 4527.01 6764.09 68.28 6.00  33.41 2982.74
   00:12:56.079.09-May-2021 4527.01 6766.91 68.28 6.00  33.61 2982.74
   00:12:56.279.09-May-2021 4527.01 6764.57 68.28 6.00  33.81 2982.74
   00:12:56.479.09-May-2021 4527.01 6765.05 68.28 6.00  34.01 2982.74
   00:12:56.679.09-May-2021 4527.01 6765.05 68.28 6.00  34.21 2982.74
   00:12:56.879.09-May-2021 4527.01 6767.23 68.28 6.00  34.41 2982.74
   00:12:57.079.09-May-2021 4527.01 6771.03 68.28 6.00  34.61 2982.74
   00:12:57.279.09-May-2021 4527.01 6768.59 68.28 6.00  34.81 2982.74
   00:12:57.479.09-May-2021 4527.01 6734.75 68.28 6.00  35.01 2982.74
   00:12:57.679.09-May-2021 4527.01 6734.75 68.28 6.00  35.21 2982.74
   00:12:57.879.09-May-2021 4527.01 6820.31 68.28 6.00  35.41 2982.74
   00:12:58.079.09-May-2021 4527.01 6980.20 68.28 6.00  35.61 2982.74
   00:12:58.279.09-May-2021 4527.01 7077.58 68.28 6.00  35.81 2982.74
   00:12:58.479.09-May-2021 4527.01 7093.64 68.28 6.00  36.01 2982.74
   00:12:58.679.09-May-2021 4527.01 7093.64 68.28 6.00  36.21 2982.74
   00:12:58.880.09-May-2021 4527.01 7100.43 68.28 6.00  36.41 2982.74
   00:12:59.080.09-May-2021 4527.01 7104.98 68.28 6.00  36.61 2982.74
   00:12:59.280.09-May-2021 4527.01 7107.96 68.28 6.00  36.81 2982.74
   00:12:59.480.09-May-2021 4527.01 7106.80 68.28 6.00  37.01 2982.74
   00:12:59.680.09-May-2021 4527.01 7106.80 68.28 6.00  37.21 2982.74
   00:12:59.880.09-May-2021 4527.01 7144.71 68.28 6.00  37.41 2982.74
   00:13:00.080.09-May-2021 4527.01 7158.50 68.28 6.00  37.61 2982.74
   00:13:00.280.09-May-2021 4527.01 7151.96 68.28 6.00  37.81 2982.74
   00:13:00.480.09-May-2021 4527.01 7134.61 68.28 6.00  38.01 2982.74
   00:13:00.680.09-May-2021 4527.01 7134.61 68.28 6.00  38.21 2982.74
   00:13:00.880.09-May-2021 4527.01 7081.33 68.28 6.00  38.41 2982.74
   00:13:01.080.09-May-2021 4527.01 7054.62 68.28 6.00  38.61 2982.74
   00:13:01.280.09-May-2021 4527.01 7032.96 68.28 6.00  38.81 2982.74
   00:13:01.480.09-May-2021 4527.01 7012.86 68.28 6.00  39.01 2982.74
   00:13:01.681.09-May-2021 4527.01 7012.86 68.28 6.00  39.21 2982.74
   00:13:01.881.09-May-2021 4527.01 6981.32 68.28 6.00  39.41 2982.74
   00:13:02.081.09-May-2021 4527.01 6961.20 68.28 6.00  39.61 2982.74
   00:13:02.281.09-May-2021 4527.01 6944.88 68.28 6.00  39.81 2982.74
   00:13:02.481.09-May-2021 4527.01 6937.03 68.28 6.00  40.01 2982.74
   00:13:02.681.09-May-2021 4527.01 6937.03 68.28 6.00  40.21 2982.74
   00:13:02.881.09-May-2021 4527.01 6914.20 68.28 6.00  40.41 2982.74
   00:13:03.081.09-May-2021 4527.01 6899.55 68.28 6.00  40.61 2982.74
   00:13:03.281.09-May-2021 4527.01 6891.13 68.28 6.00  40.81 2982.74
   00:13:03.481.09-May-2021 4527.01 6886.98 68.28 6.00  41.01 2982.74
   00:13:03.681.09-May-2021 4527.01 6886.98 68.28 6.00  41.21 2982.74
   00:13:03.881.09-May-2021 4527.01 6871.54 68.28 6.00  41.42 2982.74
   00:13:04.081.09-May-2021 4527.01 6859.11 68.28 6.00  41.62 2982.74
   00:13:04.281.09-May-2021 4527.01 6863.44 68.28 6.00  41.82 2982.74
   00:13:04.482.09-May-2021 4527.01 6836.23 68.28 6.00  42.02 2982.74
   00:13:04.682.09-May-2021 4527.01 6836.23 68.28 6.00  42.22 2982.74
   00:13:04.882.09-May-2021 4527.01 6592.75 68.28 6.00  42.42 2982.74
   00:13:05.082.09-May-2021 4527.01 6410.71 68.28 6.00  42.62 2982.74
   00:13:05.282.09-May-2021 4527.01 6042.35 68.28 6.00  42.82 2982.74
   00:13:05.482.09-May-2021 4527.01 5469.77 68.28 6.00  43.02 2982.74
   00:13:05.682.09-May-2021 4527.01 5469.77 68.28 6.00  43.22 2982.74
   00:13:05.882.09-May-2021 4527.01 4700.12 68.28 6.00  43.42 2982.74
   00:13:06.082.09-May-2021 4527.01 4399.52 68.28 6.00  43.62 2982.74
   00:13:06.282.09-May-2021 4527.01 4187.27 68.28 6.00  43.82 2982.74
   00:13:06.482.09-May-2021 4527.01 3845.65 68.27 6.00  44.02 2982.74
   00:13:06.682.09-May-2021 4527.01 3845.65 68.27 6.00  44.22 2982.74
   00:13:06.882.09-May-2021 4527.01 3127.17 68.27 6.00  44.42 2982.74
   00:13:07.083.09-May-2021 4527.01 2933.10 68.27 6.00  44.62 2982.74
   00:13:07.283.09-May-2021 4527.01 2501.88 68.27 6.00  44.82 2982.74
   00:13:07.483.09-May-2021 4527.01 1994.09 68.27 6.00  45.02 2982.74
   00:13:07.683.09-May-2021 4527.01 1994.09 68.27 6.00  45.22 2982.74
   00:13:07.883.09-May-2021 4527.01 1142.78 68.26 6.00  45.42 2982.74
   00:13:08.083.09-May-2021 4527.01  985.28 68.26 6.00  45.62 2982.74
   00:13:08.283.09-May-2021 4527.01  916.56 68.25 6.00  45.82 2982.74
