~Version Information
 VERS.                  2.0:   CWLS log ASCII Standard -VERSION 2.0
 WRAP.                   NO:   One line per depth step
~Well Information Block
#MNEM.UNIT     VALUE/NAME     DESCRIPTION
#---------     -----------    ---------------------------
 STRT.S             00:30:13 09-May-21: START TIME 00:30:13 09-May-21
 STOP.S             00:37:03 09-May-21: STOP TIME  00:37:03 09-May-21
 STEP.S                   0.00: STEP TIME
 NULL.                 -999.25: NULL VALUE
 PROV.                    Baku:  PROVINCE
 STAT.                    Baku:  STATE NAME
 SON .        AZ-XX-0906571588:  JOB NUMBER
 WTYP.                Deviated:  WELL TYPE
 COMP.     BP Exploration (Caspian Sea) ltd:  COMPANY
 BASE.              Azerbaijan:  LOGGING EQUIPMENT BASE LOCATION
 REGN.                   EESSA:  REGION
 CTRY.              Azerbaijan:  COUNTRY NAME
 FLD .                     ACG:  FIELD NAME
 WELL.                     J28:  WELL NAME
 RIG .             West Chirag:  RIG NAME
 DMF .             Drill Floor:  DRILL MEAS FROM
 PDAT.       Caspian Sea Level:  PERMANENT DATUM
 HPTY.       Minimum Curvature:  HOLE POS TYPE
 MDS .        Operator Entered:  MAG DATA SOURCE
 NREF.                    Grid:  NORTH REFERENCE
 SRVC.          TURAN DRILLING:  CONTRACTOR
 JOBN.        AZ-XX-0906571588:  JOB TICKET NUMB
 DCON.     Halliburton Sperry Drilling:  DIRECTNL CONTR
 STIM.      00.44.00 11-Feb-21:  START TIME
 DATE.      00.00.00 05-May-21:  END TIME
 SPUD.               13-Feb-21:  SPUD DATE
 MWDS.                    Baku:  MWD SHOP
 DOE .                     N/A:  DOE NUMBER
 UNIT.                     N/A:  LOGGING EQUIPMENT ID
 UWI .                     N/A:  UNIQUE WELL IDENTIFIER
 API .                     N/A:  API NUMBER
 CNTY.                        :  COUNTY
 LOC .                        :  LOCATION
 LMF .             Drill Floor:  LOG MEASURED FROM
 TVDS.m                  43.00:  TVDSS CORRECTN
 SDEP.m                 341.00:  START DEPTH
 EGL .m                   0.00:  GROUND ELEVATION
 WDMS.m                 169.80:  WD ELEV
 AGAP.m                  43.00:  AIR GAP
 EPD .m                   0.00:  ELEVATION
 APD .m                  43.00:  DEPTH ABOVE PD
 LATI.deg                40.13:  LATITUDE
 LONG.deg                51.22:  LONGITUDE
 UTMY.m             4443793.85:  UTM Y
 UTMX.m              519005.06:  UTM X
 WHEW.m                 -11.57:  WELL HEAD E/W
 WHNS.m                   8.57:  WELL HEAD N/S
 VSEW.m                 -11.57:  VERT SEC E/W
 VSNS.m                   8.57:  VERT SEC N/S
 DFWL.m                   0.00:  DISTANCE FWL
 DFSL.m                   0.00:  DISTANCE FSL
 VSDR.deg               299.34:  VERT SEC DIRECT
 GVFD.g                   1.00:  GRAVITY FIELD
 AZTC.deg                 6.36:  AZM TOTAL CORR
 MFLD.nT              50391.00:  MAGNETIC FIELD
 MDIP.deg                59.65:  MAGNETIC DIP
 MDEC.deg                 6.48:  MAGNETIC DECL
 GRDC.deg                 0.12:  GRID CORRECTION
 DEP .m                 334.96:  DEPTH
 TDD .m                1407.26:  TOTAL DEPTH (DRILLER)
 EKB .m                  43.00:  KB ELEVATION
 EDF .m                  43.00:  DF ELEVATION
 TDL .m                 228.00:  TOTAL DEPTH (LOGGER)
 VSC .                       0:  VS TO CLOSURE
 MAGU.                 1854484:  MAGUTM CHECKSUM
~Parameter Information Block
#MNEM.UNIT       Value        Description
#---------     -----------    ---------------------------
 AV  .mps                 4.00:  Ann Velocity 
 AVMX.mps                 4.73:  Max Ann Veloc 
 AZIF.deg               304.48:  Azm, Final 
 BHAT.        Rotary Steerable:  BHA Type 
 BREV.rev            257300.00:  Rev Bit Total 
 BROT.°/30m               0.00:  Build Rotating 
 BS  .in                  8.50:  Bit Size 
 BSZ .in                  8.50:  Bit Size 
 BTPL.psig              589.00:  Bit Press Loss 
 CABU.                      No:  Customer Abuse 
 CGEO.          Mubariz ghayev:  Customer Geo 
 TCS .hr                 64.25:  Time Ciculation Ended 
 CV  .mps                 3.50:  Crit Velocity 
 CVMX.mps                 4.52:  Max Crit Veloc 
 DD1 .             Aziz Aliyev:  Direct Drillr 1 
 DD2 .         Intigam Rahimov:  Direct Drillr 2 
 DD3 .          Rashad Habibov:  Direct Drillr 3 
 DDSV.               Geo-Pilot:  DD Service 
 DEFF.%                  98.00:  % Det Eff 
 DLRX.°/30m               0.00:  Dogleg Rot Max 
 DLSO.°/30m               0.00:  Dogleg Oriented 
 DLSX.°/30m               0.00:  Dogleg Str Max 
 DRET.      10.45.04 08-May-21:  Drill End Time 
 DRST.      03.30.04 04-May-21:  Drill Start Tim 
 DTIM.hr                 14.97:  Time Drilling 
 EDEP.m                4640.01:  End Depth 
 ENG1.         Dail Mahammadov:  Engineer 1 
 ENG2.           Eldar Hajiyev:  Engineer 2 
 ENG3.       Bakhtiar Jabbarli:  Engineer 3 
 ENG4.       Natik Hasanagayev:  Engineer 4 
 ETIM.      09.30.04 14-May-21:  End Time 
 FLOI.gpm               460.00:  Flow In 
 FLON.gpm               200.00:  Flow In Min 
 FLOS.cptm                0.00:  Fluid Loss 
 FLOX.gpm               505.00:  Flow In Max 
 HFLO.                      No:  High Flow 
 HPRE.                      No:  High Pressure 
 HTEM.                      No:  High Temp 
 HYDO.m                   1.80:  Hydro Offset 
 IFIN.deg                66.71:  Inc, Final 
 IMAX.deg                67.03:  Inc Max 
 IMIN.deg                66.63:  Inc Min 
 IMND.m                4550.58:  Inc Min Depth 
 IMXD.m                4439.01:  Inc Max Depth 
 JARR.                      No:  Jarring 
 LETM.      10.45.04 08-May-21:  Log End Time 
 LOST.hr                     0:  Lost Rig Time 
 LSTM.      03.30.04 04-May-21:  Log Start Time 
 MDCL.ppm             37000.00:  Mud Chlorides 
 MDES.     Inversion Oil/Synthetic:  Mud Desc 
 DFD .sg                  1.38:  Mud Density 
 MDMN.sg                  1.35:  Dens Mud Min 
 MDMX.sg                  1.40:  Dens Mud Max 
 MOIL.                   57.40:  Run Mud Oil % 
 MOWR.                   70:30:  Run Mud OWR 
 MSND.                    0.00:  Run Mud Sand % 
 MSOL.                   18.00:  Run Mud Solids% 
 DFV .spqt               71.00:  Mud Viscosity 
 MWOD.in                  6.75:  MWD Tool OD 
 MWSI.                      No:  Serv Intrp, MWD 
 OTIM.hr                242.76:  Time Operating 
 PCON.           Look Like New:  Pad Condition 
 PMAX.psia            12183.92:  Press Op, Max 
 PV  .cP                 27.00:  Mud PV 
 RUN .                    1300:  Run Number 
 ROPA.m/hr               15.00:  ROP Avg 
 ROPN.m/hr                9.00:  ROP Min 
 ROPX.m/hr               19.00:  ROP Max 
 RPMA.rpm               120.00:  RPM Surface Avg 
 RPMN.rpm               100.00:  RPM Surface Min 
 RPMX.rpm               120.00:  RPM Surface Max 
 RRUN.                    1300:  Rig Run Number 
 RTIM.hr                  5.00:  Time Reaming 
 SAZI.deg               304.73:  Azm, Start 
 SDEP.m                4412.01:  Start Depth 
 SIDD.                      No:  Serv Intrp, DD 
 SINC.deg                66.82:  Inc, Start 
 SPPA.psig             2800.00:  SPP Avg 
 SPPN.psig             2610.00:  SPP Min 
 SPPX.psig             3100.00:  SPP Max 
 STIM.      03.30.00 04-May-21:  Start Time 
 SVCS.                 DD, MWD:  Services 
 SVER.                    9.20:  Sperry Version 
 TDAT.m                 228.00:  Tot Depth Attmp 
 TDDF.                      No:  Trip for DD 
 TDLG.m                 228.00:  Tot Depth Loggd 
 TFF .                      No:  Trip for Fail 
 TQAA.f-kp               15.00:  Torque Abs Avg 
 TQAN.f-kp               12.00:  Torque Abs Min 
 TQAX.f-kp               22.00:  Torque Abs Max 
 TRRT.°/30m               0.00:  Turn Rotating 
 MRT .                    HCIM:  Maximum Recorded Temperature 
 TTMX.degC               90.20:  Max Tool Temp 
 VS01.                90627813:  Virtual Str1 SN 
 VS02.                90634712:  Virtual Str2 SN 
 VS03.                90643410:  Virtual Str3 SN 
 VS04.                90634712:  Virtual Str4 SN 
 WBMN.klb                 9.00:  WOB Min 
 WITN.        Elmaddin Rahimov:  Customer Rep 
 WITN.         Haytham Mostafa:  Customer Rep 2 
 WOBA.klb                15.00:  WOB Avg 
 WOBX.klb                23.00:  WOB Max 
 YP  .lhf2               29.00:  Yield Point 
~Curve Information Block
#MNEM.UNIT                 API CODE     Curve Description
#---------               -----------    ---------------------------
 TIME.HHMMSS            00 000 000 000:  GT Time & Date
 GTDEPTH.m              00 000 000 000:  GT Depth
 GTPQH.psia             00 000 000 000:  GT HR Quartz Pressure
 GTTQ.degC              00 000 000 000:  GT Quartz Temperature
 GTTN.NONE              00 000 000 000:  GT Test Number
 GTET.sec               00 000 000 000:  GT Elapsed Test Time
 GTTVD.m                00 000 000 000:  GT True Vertical Depth
#Other Information
#
#WARRANTY: Halliburton will use its best efforts to furnish customers with 
#accurate information and interpretations that are part of, and incident to, the services 
#provided.  However, Halliburton cannot and does not warrant the accuracy 
#or correctness of such information and interpretations.  Under no circumstances should any 
#such information or interpretation be relied upon as the sole basis for any drilling, 
#completion, production, or financial decision or any procedure involving any risk to the 
#safety of any drilling venture, drilling rig or its crew or any other third party.  The 
#Customer has full responsibility for all drilling, completion and production operation.  
#Halliburton makes no representations or warranties, either expressed or 
#implied, including, but not limited to, the implied warranties of merchantability or fitness 
#for a particular purpose, with respect to the services rendered.  In no event will 
#Halliburton be liable for failure to obtain any particular results or for 
#any damages, including, but not limited to, indirect, special or consequential damages, 
#resulting from the use of any information or interpretation provided by Halliburton.
#
~A           TIME           GTDEPTH  GTPQH  GTTQ  GTTN  GTET   GTTVD  
# ...
   00:33:40.930.09-May-2021 4516.51 3297.94 67.76 7.00 207.08 2978.60
   00:33:41.130.09-May-2021 4516.51 3297.94 67.76 7.00 207.28 2978.60
   00:33:41.330.09-May-2021 4516.51 3297.97 67.76 7.00 207.48 2978.60
   00:33:41.530.09-May-2021 4516.51 3297.98 67.76 7.00 207.68 2978.60
   00:33:41.730.09-May-2021 4516.51 3298.04 67.76 7.00 207.88 2978.60
   00:33:41.930.09-May-2021 4516.51 3298.04 67.76 7.00 208.08 2978.60
   00:33:42.130.09-May-2021 4516.51 3298.04 67.76 7.00 208.28 2978.60
   00:33:42.330.09-May-2021 4516.51 3298.10 67.76 7.00 208.48 2978.60
   00:33:42.530.09-May-2021 4516.51 3298.23 67.76 7.00 208.68 2978.60
   00:33:42.730.09-May-2021 4516.51 3298.27 67.76 7.00 208.88 2978.60
   00:33:42.930.09-May-2021 4516.51 3298.06 67.76 7.00 209.08 2978.60
   00:33:43.130.09-May-2021 4516.51 3298.06 67.76 7.00 209.28 2978.60
   00:33:43.330.09-May-2021 4516.51 3297.80 67.76 7.00 209.48 2978.60
   00:33:43.530.09-May-2021 4516.51 3298.37 67.76 7.00 209.68 2978.60
   00:33:43.731.09-May-2021 4516.51 3298.14 67.76 7.00 209.88 2978.60
   00:33:43.931.09-May-2021 4516.51 3298.07 67.76 7.00 210.08 2978.60
   00:33:44.131.09-May-2021 4516.51 3298.07 67.76 7.00 210.28 2978.60
   00:33:44.331.09-May-2021 4516.51 3297.74 67.76 7.00 210.48 2978.60
   00:33:44.531.09-May-2021 4516.51 3298.47 67.76 7.00 210.68 2978.60
   00:33:44.731.09-May-2021 4516.51 3298.30 67.76 7.00 210.88 2978.60
   00:33:44.931.09-May-2021 4516.51 3298.08 67.76 7.00 211.08 2978.60
   00:33:45.131.09-May-2021 4516.51 3298.08 67.76 7.00 211.28 2978.60
   00:33:45.331.09-May-2021 4516.51 3297.82 67.76 7.00 211.48 2978.60
   00:33:45.531.09-May-2021 4516.51 3298.51 67.76 7.00 211.68 2978.60
   00:33:45.731.09-May-2021 4516.51 3298.31 67.76 7.00 211.88 2978.60
   00:33:45.931.09-May-2021 4516.51 3298.10 67.76 7.00 212.08 2978.60
   00:33:46.131.09-May-2021 4516.51 3298.10 67.76 7.00 212.28 2978.60
   00:33:46.332.09-May-2021 4516.51 3298.20 67.76 7.00 212.48 2978.60
   00:33:46.532.09-May-2021 4516.51 3298.22 67.76 7.00 212.68 2978.60
   00:33:46.732.09-May-2021 4516.51 3298.26 67.76 7.00 212.88 2978.60
   00:33:46.932.09-May-2021 4516.51 3298.24 67.76 7.00 213.08 2978.60
   00:33:47.132.09-May-2021 4516.51 3298.24 67.76 7.00 213.28 2978.60
   00:33:47.332.09-May-2021 4516.51 3298.32 67.76 7.00 213.48 2978.60
   00:33:47.532.09-May-2021 4516.51 3298.33 67.76 7.00 213.68 2978.60
   00:33:47.732.09-May-2021 4516.51 3298.30 67.76 7.00 213.88 2978.60
   00:33:47.932.09-May-2021 4516.51 3297.97 67.76 7.00 214.08 2978.60
   00:33:48.132.09-May-2021 4516.51 3297.97 67.76 7.00 214.28 2978.60
   00:33:48.332.09-May-2021 4516.51 3298.46 67.76 7.00 214.48 2978.60
   00:33:48.532.09-May-2021 4516.51 3298.25 67.76 7.00 214.68 2978.60
   00:33:48.732.09-May-2021 4516.51 3298.36 67.76 7.00 214.88 2978.60
   00:33:48.932.09-May-2021 4516.51 3298.29 67.76 7.00 215.08 2978.60
   00:33:49.133.09-May-2021 4516.51 3298.29 67.76 7.00 215.28 2978.60
   00:33:49.333.09-May-2021 4516.51 3298.31 67.76 7.00 215.48 2978.60
   00:33:49.533.09-May-2021 4516.51 3298.33 67.76 7.00 215.68 2978.60
   00:33:49.733.09-May-2021 4516.51 3298.37 67.76 7.00 215.88 2978.60
   00:33:49.933.09-May-2021 4516.51 3298.39 67.76 7.00 216.08 2978.60
   00:33:50.133.09-May-2021 4516.51 3298.39 67.76 7.00 216.28 2978.60
   00:33:50.333.09-May-2021 4516.51 3298.36 67.76 7.00 216.48 2978.60
   00:33:50.533.09-May-2021 4516.51 3298.05 67.76 7.00 216.68 2978.60
   00:33:50.733.09-May-2021 4516.51 3298.79 67.76 7.00 216.88 2978.60
   00:33:50.933.09-May-2021 4516.51 3298.58 67.76 7.00 217.08 2978.60
   00:33:51.133.09-May-2021 4516.51 3298.58 67.76 7.00 217.28 2978.60
   00:33:51.333.09-May-2021 4516.51 3298.45 67.76 7.00 217.48 2978.60
   00:33:51.533.09-May-2021 4516.51 3297.89 67.76 7.00 217.68 2978.60
   00:33:51.733.09-May-2021 4516.51 3298.95 67.76 7.00 217.88 2978.60
   00:33:51.934.09-May-2021 4516.51 3298.45 67.76 7.00 218.08 2978.60
   00:33:52.134.09-May-2021 4516.51 3298.45 67.76 7.00 218.28 2978.60
   00:33:52.334.09-May-2021 4516.51 3298.42 67.76 7.00 218.48 2978.60
   00:33:52.534.09-May-2021 4516.51 3298.18 67.76 7.00 218.68 2978.60
   00:33:52.734.09-May-2021 4516.51 3298.78 67.76 7.00 218.88 2978.60
   00:33:52.934.09-May-2021 4516.51 3298.51 67.76 7.00 219.08 2978.60
   00:33:53.134.09-May-2021 4516.51 3298.51 67.76 7.00 219.28 2978.60
   00:33:53.334.09-May-2021 4516.51 3298.48 67.76 7.00 219.48 2978.60
   00:33:53.534.09-May-2021 4516.51 3298.20 67.76 7.00 219.68 2978.60
   00:33:53.734.09-May-2021 4516.51 3298.82 67.76 7.00 219.88 2978.60
   00:33:53.934.09-May-2021 4516.51 3298.50 67.76 7.00 220.08 2978.60
   00:33:54.134.09-May-2021 4516.51 3298.50 67.76 7.00 220.28 2978.60
   00:33:54.334.09-May-2021 4516.51 3298.53 67.76 7.00 220.48 2978.60
   00:33:54.534.09-May-2021 4516.51 3298.49 67.76 7.00 220.68 2978.60
   00:33:54.735.09-May-2021 4516.51 3298.54 67.76 7.00 220.88 2978.60
   00:33:54.935.09-May-2021 4516.51 3298.52 67.76 7.00 221.08 2978.60
   00:33:55.135.09-May-2021 4516.51 3298.52 67.76 7.00 221.28 2978.60
   00:33:55.335.09-May-2021 4516.51 3298.56 67.76 7.00 221.48 2978.60
   00:33:55.535.09-May-2021 4516.51 3298.62 67.76 7.00 221.68 2978.60
   00:33:55.735.09-May-2021 4516.51 3298.62 67.76 7.00 221.88 2978.60
   00:33:55.935.09-May-2021 4516.51 3298.58 67.76 7.00 222.08 2978.60
   00:33:56.135.09-May-2021 4516.51 3298.58 67.76 7.00 222.28 2978.60
   00:33:56.335.09-May-2021 4516.51 3298.94 67.76 7.00 222.48 2978.60
   00:33:56.535.09-May-2021 4516.51 3298.67 67.76 7.00 222.68 2978.60
   00:33:56.735.09-May-2021 4516.51 3298.60 67.76 7.00 222.88 2978.60
   00:33:56.935.09-May-2021 4516.51 3298.66 67.76 7.00 223.08 2978.60
   00:33:57.135.09-May-2021 4516.51 3298.66 67.76 7.00 223.28 2978.60
   00:33:57.335.09-May-2021 4516.51 3298.62 67.76 7.00 223.48 2978.60
   00:33:57.536.09-May-2021 4516.51 3298.62 67.76 7.00 223.68 2978.60
   00:33:57.736.09-May-2021 4516.51 3298.63 67.76 7.00 223.88 2978.60
   00:33:57.936.09-May-2021 4516.51 3298.64 67.76 7.00 224.08 2978.60
   00:33:58.136.09-May-2021 4516.51 3298.64 67.76 7.00 224.28 2978.60
   00:33:58.336.09-May-2021 4516.51 3298.69 67.76 7.00 224.48 2978.60
   00:33:58.536.09-May-2021 4516.51 3298.68 67.76 7.00 224.68 2978.60
   00:33:58.736.09-May-2021 4516.51 3298.45 67.76 7.00 224.88 2978.60
   00:33:58.936.09-May-2021 4516.51 3299.03 67.76 7.00 225.08 2978.60
   00:33:59.136.09-May-2021 4516.51 3299.03 67.76 7.00 225.28 2978.60
   00:33:59.336.09-May-2021 4516.51 3298.72 67.76 7.00 225.48 2978.60
   00:33:59.536.09-May-2021 4516.51 3298.76 67.76 7.00 225.68 2978.60
   00:33:59.736.09-May-2021 4516.51 3298.30 67.76 7.00 225.88 2978.60
   00:33:59.936.09-May-2021 4516.51 3298.78 67.76 7.00 226.08 2978.60
   00:34:00.137.09-May-2021 4516.51 3298.78 67.76 7.00 226.28 2978.60
   00:34:00.337.09-May-2021 4516.51 3298.91 67.76 7.00 226.48 2978.60
   00:34:00.537.09-May-2021 4516.51 3298.68 67.76 7.00 226.68 2978.60
   00:34:00.737.09-May-2021 4516.51 3298.19 67.76 7.00 226.88 2978.60
   00:34:00.937.09-May-2021 4516.51 3299.22 67.76 7.00 227.08 2978.60
   00:34:01.137.09-May-2021 4516.51 3299.22 67.76 7.00 227.28 2978.60
   00:34:01.337.09-May-2021 4516.51 3298.87 67.76 7.00 227.48 2978.60
   00:34:01.537.09-May-2021 4516.51 3298.75 67.76 7.00 227.68 2978.60
   00:34:01.737.09-May-2021 4516.51 3298.37 67.76 7.00 227.88 2978.60
   00:34:01.937.09-May-2021 4516.51 3298.83 67.76 7.00 228.08 2978.60
   00:34:02.137.09-May-2021 4516.51 3298.83 67.76 7.00 228.28 2978.60
   00:34:02.337.09-May-2021 4516.51 3298.95 67.76 7.00 228.48 2978.60
   00:34:02.537.09-May-2021 4516.51 3298.74 67.76 7.00 228.68 2978.60
   00:34:02.737.09-May-2021 4516.51 3298.78 67.76 7.00 228.88 2978.60
   00:34:02.938.09-May-2021 4516.51 3298.79 67.76 7.00 229.08 2978.60
   00:34:03.138.09-May-2021 4516.51 3298.79 67.76 7.00 229.28 2978.60
   00:34:03.338.09-May-2021 4516.51 3298.80 67.76 7.00 229.48 2978.60
   00:34:03.538.09-May-2021 4516.51 3298.81 67.76 7.00 229.68 2978.60
   00:34:03.738.09-May-2021 4516.51 3298.84 67.76 7.00 229.88 2978.60
