~Version Information
 VERS.                  2.0:   CWLS log ASCII Standard -VERSION 2.0
 WRAP.                   NO:   One line per depth step
~Well Information Block
#MNEM.UNIT     VALUE/NAME     DESCRIPTION
#---------     -----------    ---------------------------
 STRT.S             00:30:13 09-May-21: START TIME 00:30:13 09-May-21
 STOP.S             00:37:03 09-May-21: STOP TIME  00:37:03 09-May-21
 STEP.S                   0.00: STEP TIME
 NULL.                 -999.25: NULL VALUE
 PROV.                    Baku:  PROVINCE
 STAT.                    Baku:  STATE NAME
 SON .        AZ-XX-0906571588:  JOB NUMBER
 WTYP.                Deviated:  WELL TYPE
 COMP.     BP Exploration (Caspian Sea) ltd:  COMPANY
 BASE.              Azerbaijan:  LOGGING EQUIPMENT BASE LOCATION
 REGN.                   EESSA:  REGION
 CTRY.              Azerbaijan:  COUNTRY NAME
 FLD .                     ACG:  FIELD NAME
 WELL.                     J28:  WELL NAME
 RIG .             West Chirag:  RIG NAME
 DMF .             Drill Floor:  DRILL MEAS FROM
 PDAT.       Caspian Sea Level:  PERMANENT DATUM
 HPTY.       Minimum Curvature:  HOLE POS TYPE
 MDS .        Operator Entered:  MAG DATA SOURCE
 NREF.                    Grid:  NORTH REFERENCE
 SRVC.          TURAN DRILLING:  CONTRACTOR
 JOBN.        AZ-XX-0906571588:  JOB TICKET NUMB
 DCON.     Halliburton Sperry Drilling:  DIRECTNL CONTR
 STIM.      00.44.00 11-Feb-21:  START TIME
 DATE.      00.00.00 05-May-21:  END TIME
 SPUD.               13-Feb-21:  SPUD DATE
 MWDS.                    Baku:  MWD SHOP
 DOE .                     N/A:  DOE NUMBER
 UNIT.                     N/A:  LOGGING EQUIPMENT ID
 UWI .                     N/A:  UNIQUE WELL IDENTIFIER
 API .                     N/A:  API NUMBER
 CNTY.                        :  COUNTY
 LOC .                        :  LOCATION
 LMF .             Drill Floor:  LOG MEASURED FROM
 TVDS.m                  43.00:  TVDSS CORRECTN
 SDEP.m                 341.00:  START DEPTH
 EGL .m                   0.00:  GROUND ELEVATION
 WDMS.m                 169.80:  WD ELEV
 AGAP.m                  43.00:  AIR GAP
 EPD .m                   0.00:  ELEVATION
 APD .m                  43.00:  DEPTH ABOVE PD
 LATI.deg                40.13:  LATITUDE
 LONG.deg                51.22:  LONGITUDE
 UTMY.m             4443793.85:  UTM Y
 UTMX.m              519005.06:  UTM X
 WHEW.m                 -11.57:  WELL HEAD E/W
 WHNS.m                   8.57:  WELL HEAD N/S
 VSEW.m                 -11.57:  VERT SEC E/W
 VSNS.m                   8.57:  VERT SEC N/S
 DFWL.m                   0.00:  DISTANCE FWL
 DFSL.m                   0.00:  DISTANCE FSL
 VSDR.deg               299.34:  VERT SEC DIRECT
 GVFD.g                   1.00:  GRAVITY FIELD
 AZTC.deg                 6.36:  AZM TOTAL CORR
 MFLD.nT              50391.00:  MAGNETIC FIELD
 MDIP.deg                59.65:  MAGNETIC DIP
 MDEC.deg                 6.48:  MAGNETIC DECL
 GRDC.deg                 0.12:  GRID CORRECTION
 DEP .m                 334.96:  DEPTH
 TDD .m                1407.26:  TOTAL DEPTH (DRILLER)
 EKB .m                  43.00:  KB ELEVATION
 EDF .m                  43.00:  DF ELEVATION
 TDL .m                 228.00:  TOTAL DEPTH (LOGGER)
 VSC .                       0:  VS TO CLOSURE
 MAGU.                 1854484:  MAGUTM CHECKSUM
~Parameter Information Block
#MNEM.UNIT       Value        Description
#---------     -----------    ---------------------------
 AV  .mps                 4.00:  Ann Velocity 
 AVMX.mps                 4.73:  Max Ann Veloc 
 AZIF.deg               304.48:  Azm, Final 
 BHAT.        Rotary Steerable:  BHA Type 
 BREV.rev            257300.00:  Rev Bit Total 
 BROT.°/30m               0.00:  Build Rotating 
 BS  .in                  8.50:  Bit Size 
 BSZ .in                  8.50:  Bit Size 
 BTPL.psig              589.00:  Bit Press Loss 
 CABU.                      No:  Customer Abuse 
 CGEO.          Mubariz ghayev:  Customer Geo 
 TCS .hr                 64.25:  Time Ciculation Ended 
 CV  .mps                 3.50:  Crit Velocity 
 CVMX.mps                 4.52:  Max Crit Veloc 
 DD1 .             Aziz Aliyev:  Direct Drillr 1 
 DD2 .         Intigam Rahimov:  Direct Drillr 2 
 DD3 .          Rashad Habibov:  Direct Drillr 3 
 DDSV.               Geo-Pilot:  DD Service 
 DEFF.%                  98.00:  % Det Eff 
 DLRX.°/30m               0.00:  Dogleg Rot Max 
 DLSO.°/30m               0.00:  Dogleg Oriented 
 DLSX.°/30m               0.00:  Dogleg Str Max 
 DRET.      10.45.04 08-May-21:  Drill End Time 
 DRST.      03.30.04 04-May-21:  Drill Start Tim 
 DTIM.hr                 14.97:  Time Drilling 
 EDEP.m                4640.01:  End Depth 
 ENG1.         Dail Mahammadov:  Engineer 1 
 ENG2.           Eldar Hajiyev:  Engineer 2 
 ENG3.       Bakhtiar Jabbarli:  Engineer 3 
 ENG4.       Natik Hasanagayev:  Engineer 4 
 ETIM.      09.30.04 14-May-21:  End Time 
 FLOI.gpm               460.00:  Flow In 
 FLON.gpm               200.00:  Flow In Min 
 FLOS.cptm                0.00:  Fluid Loss 
 FLOX.gpm               505.00:  Flow In Max 
 HFLO.                      No:  High Flow 
 HPRE.                      No:  High Pressure 
 HTEM.                      No:  High Temp 
 HYDO.m                   1.80:  Hydro Offset 
 IFIN.deg                66.71:  Inc, Final 
 IMAX.deg                67.03:  Inc Max 
 IMIN.deg                66.63:  Inc Min 
 IMND.m                4550.58:  Inc Min Depth 
 IMXD.m                4439.01:  Inc Max Depth 
 JARR.                      No:  Jarring 
 LETM.      10.45.04 08-May-21:  Log End Time 
 LOST.hr                     0:  Lost Rig Time 
 LSTM.      03.30.04 04-May-21:  Log Start Time 
 MDCL.ppm             37000.00:  Mud Chlorides 
 MDES.     Inversion Oil/Synthetic:  Mud Desc 
 DFD .sg                  1.38:  Mud Density 
 MDMN.sg                  1.35:  Dens Mud Min 
 MDMX.sg                  1.40:  Dens Mud Max 
 MOIL.                   57.40:  Run Mud Oil % 
 MOWR.                   70:30:  Run Mud OWR 
 MSND.                    0.00:  Run Mud Sand % 
 MSOL.                   18.00:  Run Mud Solids% 
 DFV .spqt               71.00:  Mud Viscosity 
 MWOD.in                  6.75:  MWD Tool OD 
 MWSI.                      No:  Serv Intrp, MWD 
 OTIM.hr                242.76:  Time Operating 
 PCON.           Look Like New:  Pad Condition 
 PMAX.psia            12183.92:  Press Op, Max 
 PV  .cP                 27.00:  Mud PV 
 RUN .                    1300:  Run Number 
 ROPA.m/hr               15.00:  ROP Avg 
 ROPN.m/hr                9.00:  ROP Min 
 ROPX.m/hr               19.00:  ROP Max 
 RPMA.rpm               120.00:  RPM Surface Avg 
 RPMN.rpm               100.00:  RPM Surface Min 
 RPMX.rpm               120.00:  RPM Surface Max 
 RRUN.                    1300:  Rig Run Number 
 RTIM.hr                  5.00:  Time Reaming 
 SAZI.deg               304.73:  Azm, Start 
 SDEP.m                4412.01:  Start Depth 
 SIDD.                      No:  Serv Intrp, DD 
 SINC.deg                66.82:  Inc, Start 
 SPPA.psig             2800.00:  SPP Avg 
 SPPN.psig             2610.00:  SPP Min 
 SPPX.psig             3100.00:  SPP Max 
 STIM.      03.30.00 04-May-21:  Start Time 
 SVCS.                 DD, MWD:  Services 
 SVER.                    9.20:  Sperry Version 
 TDAT.m                 228.00:  Tot Depth Attmp 
 TDDF.                      No:  Trip for DD 
 TDLG.m                 228.00:  Tot Depth Loggd 
 TFF .                      No:  Trip for Fail 
 TQAA.f-kp               15.00:  Torque Abs Avg 
 TQAN.f-kp               12.00:  Torque Abs Min 
 TQAX.f-kp               22.00:  Torque Abs Max 
 TRRT.°/30m               0.00:  Turn Rotating 
 MRT .                    HCIM:  Maximum Recorded Temperature 
 TTMX.degC               90.20:  Max Tool Temp 
 VS01.                90627813:  Virtual Str1 SN 
 VS02.                90634712:  Virtual Str2 SN 
 VS03.                90643410:  Virtual Str3 SN 
 VS04.                90634712:  Virtual Str4 SN 
 WBMN.klb                 9.00:  WOB Min 
 WITN.        Elmaddin Rahimov:  Customer Rep 
 WITN.         Haytham Mostafa:  Customer Rep 2 
 WOBA.klb                15.00:  WOB Avg 
 WOBX.klb                23.00:  WOB Max 
 YP  .lhf2               29.00:  Yield Point 
~Curve Information Block
#MNEM.UNIT                 API CODE     Curve Description
#---------               -----------    ---------------------------
 TIME.HHMMSS            00 000 000 000:  GT Time & Date
 GTDEPTH.m              00 000 000 000:  GT Depth
 GTPQH.psia             00 000 000 000:  GT HR Quartz Pressure
 GTTQ.degC              00 000 000 000:  GT Quartz Temperature
 GTTN.NONE              00 000 000 000:  GT Test Number
 GTET.sec               00 000 000 000:  GT Elapsed Test Time
 GTTVD.m                00 000 000 000:  GT True Vertical Depth
#Other Information
#
#WARRANTY: Halliburton will use its best efforts to furnish customers with 
#accurate information and interpretations that are part of, and incident to, the services 
#provided.  However, Halliburton cannot and does not warrant the accuracy 
#or correctness of such information and interpretations.  Under no circumstances should any 
#such information or interpretation be relied upon as the sole basis for any drilling, 
#completion, production, or financial decision or any procedure involving any risk to the 
#safety of any drilling venture, drilling rig or its crew or any other third party.  The 
#Customer has full responsibility for all drilling, completion and production operation.  
#Halliburton makes no representations or warranties, either expressed or 
#implied, including, but not limited to, the implied warranties of merchantability or fitness 
#for a particular purpose, with respect to the services rendered.  In no event will 
#Halliburton be liable for failure to obtain any particular results or for 
#any damages, including, but not limited to, indirect, special or consequential damages, 
#resulting from the use of any information or interpretation provided by Halliburton.
#
~A           TIME           GTDEPTH  GTPQH  GTTQ  GTTN  GTET   GTTVD  
# ...
   00:36:44.996.09-May-2021 4516.51 6810.68 67.83 7.00 391.14 2978.60
   00:36:45.196.09-May-2021 4516.51 6810.68 67.83 7.00 391.34 2978.60
   00:36:45.396.09-May-2021 4516.51 6812.35 67.82 7.00 391.54 2978.60
   00:36:45.596.09-May-2021 4516.51 6809.48 67.82 7.00 391.74 2978.60
   00:36:45.797.09-May-2021 4516.51 6811.47 67.82 7.00 391.94 2978.60
   00:36:45.997.09-May-2021 4516.51 6811.36 67.82 7.00 392.14 2978.60
   00:36:46.197.09-May-2021 4516.51 6811.36 67.82 7.00 392.34 2978.60
   00:36:46.397.09-May-2021 4516.51 6812.64 67.82 7.00 392.54 2978.60
   00:36:46.597.09-May-2021 4516.51 6813.64 67.82 7.00 392.74 2978.60
   00:36:46.797.09-May-2021 4516.51 6811.34 67.82 7.00 392.94 2978.60
   00:36:46.997.09-May-2021 4516.51 6814.60 67.82 7.00 393.14 2978.60
   00:36:47.197.09-May-2021 4516.51 6814.60 67.82 7.00 393.34 2978.60
   00:36:47.397.09-May-2021 4516.51 6810.56 67.82 7.00 393.54 2978.60
   00:36:47.597.09-May-2021 4516.51 6819.45 67.82 7.00 393.74 2978.60
   00:36:47.797.09-May-2021 4516.51 6811.54 67.82 7.00 393.94 2978.60
   00:36:47.997.09-May-2021 4516.51 6813.15 67.82 7.00 394.14 2978.60
   00:36:48.197.09-May-2021 4516.51 6813.15 67.82 7.00 394.34 2978.60
   00:36:48.397.09-May-2021 4516.51 6811.64 67.82 7.00 394.54 2978.60
   00:36:48.598.09-May-2021 4516.51 6810.36 67.82 7.00 394.74 2978.60
   00:36:48.798.09-May-2021 4516.51 6809.41 67.82 7.00 394.94 2978.60
   00:36:48.998.09-May-2021 4516.51 6809.35 67.82 7.00 395.14 2978.60
   00:36:49.198.09-May-2021 4516.51 6809.35 67.82 7.00 395.34 2978.60
   00:36:49.398.09-May-2021 4516.51 6808.69 67.82 7.00 395.54 2978.60
   00:36:49.598.09-May-2021 4516.51 6808.58 67.82 7.00 395.74 2978.60
   00:36:49.798.09-May-2021 4516.51 6808.78 67.82 7.00 395.94 2978.60
   00:36:49.998.09-May-2021 4516.51 6809.57 67.82 7.00 396.14 2978.60
   00:36:50.198.09-May-2021 4516.51 6809.57 67.82 7.00 396.34 2978.60
   00:36:50.398.09-May-2021 4516.51 6811.96 67.82 7.00 396.54 2978.60
   00:36:50.598.09-May-2021 4516.51 6813.69 67.82 7.00 396.74 2978.60
   00:36:50.798.09-May-2021 4516.51 6812.46 67.82 7.00 396.94 2978.60
   00:36:50.998.09-May-2021 4516.51 6811.59 67.82 7.00 397.14 2978.60
   00:36:51.198.09-May-2021 4516.51 6811.59 67.82 7.00 397.34 2978.60
   00:36:51.399.09-May-2021 4516.51 6808.52 67.82 7.00 397.54 2978.60
   00:36:51.599.09-May-2021 4516.51 6807.88 67.82 7.00 397.74 2978.60
   00:36:51.799.09-May-2021 4516.51 6807.50 67.82 7.00 397.94 2978.60
   00:36:51.999.09-May-2021 4516.51 6807.52 67.82 7.00 398.14 2978.60
   00:36:52.199.09-May-2021 4516.51 6807.52 67.82 7.00 398.34 2978.60
   00:36:52.399.09-May-2021 4516.51 6807.23 67.82 7.00 398.54 2978.60
   00:36:52.599.09-May-2021 4516.51 6807.18 67.82 7.00 398.74 2978.60
   00:36:52.799.09-May-2021 4516.51 6807.89 67.82 7.00 398.94 2978.60
   00:36:52.999.09-May-2021 4516.51 6816.04 67.82 7.00 399.14 2978.60
   00:36:53.199.09-May-2021 4516.51 6816.04 67.82 7.00 399.34 2978.60
   00:36:53.399.09-May-2021 4516.51 6813.73 67.82 7.00 399.54 2978.60
   00:36:53.599.09-May-2021 4516.51 6807.56 67.82 7.00 399.74 2978.60
   00:36:53.799.09-May-2021 4516.51 6808.77 67.82 7.00 399.94 2978.60
   00:36:54.000.09-May-2021 4516.51 6816.02 67.82 7.00 400.14 2978.60
   00:36:54.200.09-May-2021 4516.51 6816.02 67.82 7.00 400.35 2978.60
   00:36:54.400.09-May-2021 4516.51 6812.62 67.82 7.00 400.55 2978.60
   00:36:54.600.09-May-2021 4516.51 6819.82 67.82 7.00 400.75 2978.60
   00:36:54.800.09-May-2021 4516.51 6812.94 67.82 7.00 400.95 2978.60
   00:36:55.000.09-May-2021 4516.51 6813.46 67.82 7.00 401.15 2978.60
   00:36:55.200.09-May-2021 4516.51 6813.46 67.82 7.00 401.35 2978.60
   00:36:55.400.09-May-2021 4516.51 6810.69 67.82 7.00 401.55 2978.60
   00:36:55.600.09-May-2021 4516.51 6808.94 67.82 7.00 401.75 2978.60
   00:36:55.800.09-May-2021 4516.51 6815.16 67.81 7.00 401.95 2978.60
   00:36:56.000.09-May-2021 4516.51 6810.01 67.81 7.00 402.15 2978.60
   00:36:56.200.09-May-2021 4516.51 6810.01 67.81 7.00 402.35 2978.60
   00:36:56.400.09-May-2021 4516.51 6812.21 67.81 7.00 402.55 2978.60
   00:36:56.600.09-May-2021 4516.51 6810.96 67.81 7.00 402.75 2978.60
   00:36:56.801.09-May-2021 4516.51 6809.69 67.81 7.00 402.95 2978.60
   00:36:57.001.09-May-2021 4516.51 6808.67 67.81 7.00 403.15 2978.60
   00:36:57.201.09-May-2021 4516.51 6808.67 67.81 7.00 403.35 2978.60
   00:36:57.401.09-May-2021 4516.51 6808.61 67.81 7.00 403.55 2978.60
   00:36:57.601.09-May-2021 4516.51 6808.16 67.81 7.00 403.75 2978.60
   00:36:57.801.09-May-2021 4516.51 6808.74 67.81 7.00 403.95 2978.60
   00:36:58.001.09-May-2021 4516.51 6809.47 67.81 7.00 404.15 2978.60
   00:36:58.201.09-May-2021 4516.51 6809.47 67.81 7.00 404.35 2978.60
   00:36:58.401.09-May-2021 4516.51 6813.35 67.81 7.00 404.55 2978.60
   00:36:58.601.09-May-2021 4516.51 6813.12 67.81 7.00 404.75 2978.60
   00:36:58.801.09-May-2021 4516.51 6815.99 67.81 7.00 404.95 2978.60
   00:36:59.001.09-May-2021 4516.51 6814.78 67.81 7.00 405.15 2978.60
   00:36:59.201.09-May-2021 4516.51 6814.78 67.81 7.00 405.35 2978.60
   00:36:59.401.09-May-2021 4516.51 6809.33 67.81 7.00 405.55 2978.60
   00:36:59.602.09-May-2021 4516.51 6808.92 67.81 7.00 405.75 2978.60
   00:36:59.802.09-May-2021 4516.51 6808.25 67.81 7.00 405.95 2978.60
   00:37:00.002.09-May-2021 4516.51 6807.77 67.81 7.00 406.15 2978.60
   00:37:00.202.09-May-2021 4516.51 6807.77 67.81 7.00 406.35 2978.60
   00:37:00.402.09-May-2021 4516.51 6807.50 67.81 7.00 406.55 2978.60
   00:37:00.602.09-May-2021 4516.51 6807.45 67.81 7.00 406.75 2978.60
   00:37:00.802.09-May-2021 4516.51 6808.25 67.81 7.00 406.95 2978.60
   00:37:01.002.09-May-2021 4516.51 6807.80 67.81 7.00 407.15 2978.60
   00:37:01.202.09-May-2021 4516.51 6807.80 67.81 7.00 407.35 2978.60
   00:37:01.402.09-May-2021 4516.51 6814.57 67.81 7.00 407.55 2978.60
   00:37:01.602.09-May-2021 4516.51 6812.86 67.81 7.00 407.75 2978.60
   00:37:01.802.09-May-2021 4516.51 6807.71 67.81 7.00 407.95 2978.60
   00:37:02.002.09-May-2021 4516.51 6809.37 67.81 7.00 408.15 2978.60
   00:37:02.202.09-May-2021 4516.51 6809.37 67.81 7.00 408.35 2978.60
   00:37:02.403.09-May-2021 4516.51 6814.97 67.81 7.00 408.55 2978.60
   00:37:02.603.09-May-2021 4516.51 6812.74 67.81 7.00 408.75 2978.60
   00:37:02.803.09-May-2021 4516.51 6806.26 67.81 7.00 408.95 2978.60
   00:37:03.003.09-May-2021 4516.51 6814.94 67.81 7.00 409.15 2978.60
   00:37:03.203.09-May-2021 4516.51 6814.94 67.81 7.00 409.35 2978.60
   00:37:03.403.09-May-2021 4516.51 6812.31 67.81 7.00 409.55 2978.60
   00:37:03.603.09-May-2021 4516.51 6811.23 67.81 7.00 409.75 2978.60
   00:37:03.803.09-May-2021 4516.51 6810.15 67.81 7.00 409.95 2978.60
