~Version Information
 VERS.                  2.0:   CWLS log ASCII Standard -VERSION 2.0
 WRAP.                   NO:   One line per depth step
~Well Information Block
#MNEM.UNIT     VALUE/NAME     DESCRIPTION
#---------     -----------    ---------------------------
 STRT.S             03:18:48 09-May-21: START TIME 03:18:48 09-May-21
 STOP.S             03:25:48 09-May-21: STOP TIME  03:25:48 09-May-21
 STEP.S                   0.00: STEP TIME
 NULL.                 -999.25: NULL VALUE
 PROV.                    Baku:  PROVINCE
 STAT.                    Baku:  STATE NAME
 SON .        AZ-XX-0906571588:  JOB NUMBER
 WTYP.                Deviated:  WELL TYPE
 COMP.     BP Exploration (Caspian Sea) ltd:  COMPANY
 BASE.              Azerbaijan:  LOGGING EQUIPMENT BASE LOCATION
 REGN.                   EESSA:  REGION
 CTRY.              Azerbaijan:  COUNTRY NAME
 FLD .                     ACG:  FIELD NAME
 WELL.                     J28:  WELL NAME
 RIG .             West Chirag:  RIG NAME
 DMF .             Drill Floor:  DRILL MEAS FROM
 PDAT.       Caspian Sea Level:  PERMANENT DATUM
 HPTY.       Minimum Curvature:  HOLE POS TYPE
 MDS .        Operator Entered:  MAG DATA SOURCE
 NREF.                    Grid:  NORTH REFERENCE
 SRVC.          TURAN DRILLING:  CONTRACTOR
 JOBN.        AZ-XX-0906571588:  JOB TICKET NUMB
 DCON.     Halliburton Sperry Drilling:  DIRECTNL CONTR
 STIM.      00.44.00 11-Feb-21:  START TIME
 DATE.      00.00.00 05-May-21:  END TIME
 SPUD.               13-Feb-21:  SPUD DATE
 MWDS.                    Baku:  MWD SHOP
 DOE .                     N/A:  DOE NUMBER
 UNIT.                     N/A:  LOGGING EQUIPMENT ID
 UWI .                     N/A:  UNIQUE WELL IDENTIFIER
 API .                     N/A:  API NUMBER
 CNTY.                        :  COUNTY
 LOC .                        :  LOCATION
 LMF .             Drill Floor:  LOG MEASURED FROM
 TVDS.m                  43.00:  TVDSS CORRECTN
 SDEP.m                 341.00:  START DEPTH
 EGL .m                   0.00:  GROUND ELEVATION
 WDMS.m                 169.80:  WD ELEV
 AGAP.m                  43.00:  AIR GAP
 EPD .m                   0.00:  ELEVATION
 APD .m                  43.00:  DEPTH ABOVE PD
 LATI.deg                40.13:  LATITUDE
 LONG.deg                51.22:  LONGITUDE
 UTMY.m             4443793.85:  UTM Y
 UTMX.m              519005.06:  UTM X
 WHEW.m                 -11.57:  WELL HEAD E/W
 WHNS.m                   8.57:  WELL HEAD N/S
 VSEW.m                 -11.57:  VERT SEC E/W
 VSNS.m                   8.57:  VERT SEC N/S
 DFWL.m                   0.00:  DISTANCE FWL
 DFSL.m                   0.00:  DISTANCE FSL
 VSDR.deg               299.34:  VERT SEC DIRECT
 GVFD.g                   1.00:  GRAVITY FIELD
 AZTC.deg                 6.36:  AZM TOTAL CORR
 MFLD.nT              50391.00:  MAGNETIC FIELD
 MDIP.deg                59.65:  MAGNETIC DIP
 MDEC.deg                 6.48:  MAGNETIC DECL
 GRDC.deg                 0.12:  GRID CORRECTION
 DEP .m                 334.96:  DEPTH
 TDD .m                1407.26:  TOTAL DEPTH (DRILLER)
 EKB .m                  43.00:  KB ELEVATION
 EDF .m                  43.00:  DF ELEVATION
 TDL .m                 228.00:  TOTAL DEPTH (LOGGER)
 VSC .                       0:  VS TO CLOSURE
 MAGU.                 1854484:  MAGUTM CHECKSUM
~Parameter Information Block
#MNEM.UNIT       Value        Description
#---------     -----------    ---------------------------
 AV  .mps                 4.00:  Ann Velocity 
 AVMX.mps                 4.73:  Max Ann Veloc 
 AZIF.deg               304.48:  Azm, Final 
 BHAT.        Rotary Steerable:  BHA Type 
 BREV.rev            257300.00:  Rev Bit Total 
 BROT.°/30m               0.00:  Build Rotating 
 BS  .in                  8.50:  Bit Size 
 BSZ .in                  8.50:  Bit Size 
 BTPL.psig              589.00:  Bit Press Loss 
 CABU.                      No:  Customer Abuse 
 CGEO.          Mubariz ghayev:  Customer Geo 
 COMM.                     ü>:  Run Comments 1 
 TCS .hr                 64.25:  Time Ciculation Ended 
 CV  .mps                 3.50:  Crit Velocity 
 CVMX.mps                 4.52:  Max Crit Veloc 
 DD1 .             Aziz Aliyev:  Direct Drillr 1 
 DD2 .         Intigam Rahimov:  Direct Drillr 2 
 DD3 .          Rashad Habibov:  Direct Drillr 3 
 DDSV.               Geo-Pilot:  DD Service 
 DEFF.%                  98.00:  % Det Eff 
 DLRX.°/30m               0.00:  Dogleg Rot Max 
 DLSO.°/30m               0.00:  Dogleg Oriented 
 DLSX.°/30m               0.00:  Dogleg Str Max 
 DRET.      10.45.04 08-May-21:  Drill End Time 
 DRST.      03.30.04 04-May-21:  Drill Start Tim 
 DTIM.hr                 14.97:  Time Drilling 
 EDEP.m                4640.01:  End Depth 
 ENG1.         Dail Mahammadov:  Engineer 1 
 ENG2.           Eldar Hajiyev:  Engineer 2 
 ENG3.       Bakhtiar Jabbarli:  Engineer 3 
 ENG4.       Natik Hasanagayev:  Engineer 4 
 ETIM.      09.30.04 14-May-21:  End Time 
 FLOI.gpm               460.00:  Flow In 
 FLON.gpm               200.00:  Flow In Min 
 FLOS.cptm                0.00:  Fluid Loss 
 FLOX.gpm               505.00:  Flow In Max 
 HFLO.                      No:  High Flow 
 HPRE.                      No:  High Pressure 
 HTEM.                      No:  High Temp 
 HYDO.m                   1.80:  Hydro Offset 
 IFIN.deg                66.71:  Inc, Final 
 IMAX.deg                67.03:  Inc Max 
 IMIN.deg                66.63:  Inc Min 
 IMND.m                4550.58:  Inc Min Depth 
 IMXD.m                4439.01:  Inc Max Depth 
 JARR.                      No:  Jarring 
 LETM.      10.45.04 08-May-21:  Log End Time 
 LOST.hr                     0:  Lost Rig Time 
 LSTM.      03.30.04 04-May-21:  Log Start Time 
 MDCL.ppm             37000.00:  Mud Chlorides 
 MDES.     Inversion Oil/Synthetic:  Mud Desc 
 DFD .sg                  1.38:  Mud Density 
 MDMN.sg                  1.35:  Dens Mud Min 
 MDMX.sg                  1.40:  Dens Mud Max 
 MOIL.                   57.40:  Run Mud Oil % 
 MOWR.                   70:30:  Run Mud OWR 
 MSND.                    0.00:  Run Mud Sand % 
 MSOL.                   18.00:  Run Mud Solids% 
 DFV .spqt               71.00:  Mud Viscosity 
 MWOD.in                  6.75:  MWD Tool OD 
 MWSI.                      No:  Serv Intrp, MWD 
 OTIM.hr                242.76:  Time Operating 
 PCON.           Look Like New:  Pad Condition 
 PMAX.psia            12183.92:  Press Op, Max 
 PV  .cP                 27.00:  Mud PV 
 RUN .                    1300:  Run Number 
 ROPA.m/hr               15.00:  ROP Avg 
 ROPN.m/hr                9.00:  ROP Min 
 ROPX.m/hr               19.00:  ROP Max 
 RPMA.rpm               120.00:  RPM Surface Avg 
 RPMN.rpm               100.00:  RPM Surface Min 
 RPMX.rpm               120.00:  RPM Surface Max 
 RRUN.                    1300:  Rig Run Number 
 RTIM.hr                  5.00:  Time Reaming 
 SAZI.deg               304.73:  Azm, Start 
 SDEP.m                4412.01:  Start Depth 
 SIDD.                      No:  Serv Intrp, DD 
 SINC.deg                66.82:  Inc, Start 
 SPPA.psig             2800.00:  SPP Avg 
 SPPN.psig             2610.00:  SPP Min 
 SPPX.psig             3100.00:  SPP Max 
 STIM.      03.30.00 04-May-21:  Start Time 
 SVCS.                 DD, MWD:  Services 
 SVER.                    9.20:  Sperry Version 
 TDAT.m                 228.00:  Tot Depth Attmp 
 TDDF.                      No:  Trip for DD 
 TDLG.m                 228.00:  Tot Depth Loggd 
 TFF .                      No:  Trip for Fail 
 TQAA.f-kp               15.00:  Torque Abs Avg 
 TQAN.f-kp               12.00:  Torque Abs Min 
 TQAX.f-kp               22.00:  Torque Abs Max 
 TRRT.°/30m               0.00:  Turn Rotating 
 MRT .                    HCIM:  Maximum Recorded Temperature 
 TTMX.degC               90.20:  Max Tool Temp 
 VS01.                90627813:  Virtual Str1 SN 
 VS02.                90634712:  Virtual Str2 SN 
 VS03.                90643410:  Virtual Str3 SN 
 VS04.                90634712:  Virtual Str4 SN 
 WBMN.klb                 9.00:  WOB Min 
 WITN.        Elmaddin Rahimov:  Customer Rep 
 WITN.         Haytham Mostafa:  Customer Rep 2 
 WOBA.klb                15.00:  WOB Avg 
 WOBX.klb                23.00:  WOB Max 
 YP  .lhf2               29.00:  Yield Point 
~Curve Information Block
#MNEM.UNIT                 API CODE     Curve Description
#---------               -----------    ---------------------------
 TIME.HHMMSS            00 000 000 000:  GT Time & Date
 GTDEPTH.m              00 000 000 000:  GT Depth
 GTPQH.psia             00 000 000 000:  GT HR Quartz Pressure
 GTTQ.degC              00 000 000 000:  GT Quartz Temperature
 GTTN.NONE              00 000 000 000:  GT Test Number
 GTET.sec               00 000 000 000:  GT Elapsed Test Time
 GTTVD.m                00 000 000 000:  GT True Vertical Depth
#Other Information
#
#WARRANTY: Halliburton will use its best efforts to furnish customers with 
#accurate information and interpretations that are part of, and incident to, the services 
#provided.  However, Halliburton cannot and does not warrant the accuracy 
#or correctness of such information and interpretations.  Under no circumstances should any 
#such information or interpretation be relied upon as the sole basis for any drilling, 
#completion, production, or financial decision or any procedure involving any risk to the 
#safety of any drilling venture, drilling rig or its crew or any other third party.  The 
#Customer has full responsibility for all drilling, completion and production operation.  
#Halliburton makes no representations or warranties, either expressed or 
#implied, including, but not limited to, the implied warranties of merchantability or fitness 
#for a particular purpose, with respect to the services rendered.  In no event will 
#Halliburton be liable for failure to obtain any particular results or for 
#any damages, including, but not limited to, indirect, special or consequential damages, 
#resulting from the use of any information or interpretation provided by Halliburton.
#
~A           TIME           GTDEPTH  GTPQH  GTTQ  GTTN   GTET   GTTVD  
# ...
   03:22:34.739.09-May-2021 4480.01 4113.05 67.54 12.00 226.04 2964.27
   03:22:34.939.09-May-2021 4480.01 4113.05 67.54 12.00 226.24 2964.27
   03:22:35.139.09-May-2021 4480.01 4113.09 67.54 12.00 226.44 2964.27
   03:22:35.339.09-May-2021 4480.01 4113.05 67.54 12.00 226.64 2964.27
   03:22:35.539.09-May-2021 4480.01 4113.08 67.54 12.00 226.84 2964.27
   03:22:35.739.09-May-2021 4480.01 4113.08 67.54 12.00 227.04 2964.27
   03:22:35.939.09-May-2021 4480.01 4113.08 67.54 12.00 227.24 2964.27
   03:22:36.139.09-May-2021 4480.01 4113.09 67.54 12.00 227.44 2964.27
   03:22:36.339.09-May-2021 4480.01 4113.08 67.54 12.00 227.64 2964.27
   03:22:36.539.09-May-2021 4480.01 4113.08 67.54 12.00 227.84 2964.27
   03:22:36.739.09-May-2021 4480.01 4113.08 67.54 12.00 228.04 2964.27
   03:22:36.939.09-May-2021 4480.01 4113.08 67.54 12.00 228.24 2964.27
   03:22:37.139.09-May-2021 4480.01 4113.10 67.54 12.00 228.44 2964.27
   03:22:37.339.09-May-2021 4480.01 4113.10 67.54 12.00 228.64 2964.27
   03:22:37.539.09-May-2021 4480.01 4113.17 67.54 12.00 228.84 2964.27
   03:22:37.739.09-May-2021 4480.01 4112.99 67.54 12.00 229.04 2964.27
   03:22:37.939.09-May-2021 4480.01 4112.99 67.54 12.00 229.24 2964.27
   03:22:38.139.09-May-2021 4480.01 4113.17 67.54 12.00 229.44 2964.27
   03:22:38.339.09-May-2021 4480.01 4112.98 67.54 12.00 229.64 2964.27
   03:22:38.540.09-May-2021 4480.01 4113.09 67.54 12.00 229.84 2964.27
   03:22:38.740.09-May-2021 4480.01 4113.12 67.54 12.00 230.04 2964.27
   03:22:38.940.09-May-2021 4480.01 4113.12 67.54 12.00 230.24 2964.27
   03:22:39.140.09-May-2021 4480.01 4113.12 67.54 12.00 230.44 2964.27
   03:22:39.340.09-May-2021 4480.01 4112.99 67.54 12.00 230.64 2964.27
   03:22:39.540.09-May-2021 4480.01 4113.18 67.54 12.00 230.84 2964.27
   03:22:39.740.09-May-2021 4480.01 4112.97 67.54 12.00 231.04 2964.27
   03:22:39.940.09-May-2021 4480.01 4112.97 67.54 12.00 231.24 2964.27
   03:22:40.140.09-May-2021 4480.01 4113.07 67.54 12.00 231.44 2964.27
   03:22:40.340.09-May-2021 4480.01 4113.07 67.54 12.00 231.64 2964.27
   03:22:40.540.09-May-2021 4480.01 4113.09 67.54 12.00 231.84 2964.27
   03:22:40.740.09-May-2021 4480.01 4113.07 67.54 12.00 232.04 2964.27
   03:22:40.940.09-May-2021 4480.01 4113.07 67.54 12.00 232.24 2964.27
   03:22:41.140.09-May-2021 4480.01 4113.08 67.54 12.00 232.44 2964.27
   03:22:41.340.09-May-2021 4480.01 4113.07 67.54 12.00 232.64 2964.27
   03:22:41.540.09-May-2021 4480.01 4112.99 67.54 12.00 232.84 2964.27
   03:22:41.740.09-May-2021 4480.01 4113.25 67.54 12.00 233.04 2964.27
   03:22:41.940.09-May-2021 4480.01 4113.25 67.54 12.00 233.24 2964.27
   03:22:42.140.09-May-2021 4480.01 4113.10 67.54 12.00 233.44 2964.27
   03:22:42.340.09-May-2021 4480.01 4113.05 67.54 12.00 233.64 2964.27
   03:22:42.540.09-May-2021 4480.01 4113.07 67.54 12.00 233.84 2964.27
   03:22:42.740.09-May-2021 4480.01 4113.07 67.54 12.00 234.04 2964.27
   03:22:42.940.09-May-2021 4480.01 4113.07 67.54 12.00 234.24 2964.27
   03:22:43.140.09-May-2021 4480.01 4113.08 67.54 12.00 234.44 2964.27
   03:22:43.340.09-May-2021 4480.01 4113.06 67.54 12.00 234.64 2964.27
   03:22:43.540.09-May-2021 4480.01 4113.07 67.54 12.00 234.84 2964.27
   03:22:43.740.09-May-2021 4480.01 4113.08 67.54 12.00 235.04 2964.27
   03:22:43.940.09-May-2021 4480.01 4113.08 67.54 12.00 235.24 2964.27
   03:22:44.140.09-May-2021 4480.01 4113.08 67.54 12.00 235.44 2964.27
   03:22:44.340.09-May-2021 4480.01 4113.19 67.54 12.00 235.64 2964.27
   03:22:44.541.09-May-2021 4480.01 4113.00 67.54 12.00 235.84 2964.27
   03:22:44.741.09-May-2021 4480.01 4113.16 67.54 12.00 236.04 2964.27
   03:22:44.941.09-May-2021 4480.01 4113.16 67.54 12.00 236.24 2964.27
   03:22:45.141.09-May-2021 4480.01 4113.01 67.54 12.00 236.44 2964.27
   03:22:45.341.09-May-2021 4480.01 4113.16 67.54 12.00 236.64 2964.27
   03:22:45.541.09-May-2021 4480.01 4112.97 67.54 12.00 236.84 2964.27
   03:22:45.741.09-May-2021 4480.01 4113.21 67.54 12.00 237.04 2964.27
   03:22:45.941.09-May-2021 4480.01 4113.21 67.54 12.00 237.24 2964.27
   03:22:46.141.09-May-2021 4480.01 4113.17 67.54 12.00 237.44 2964.27
   03:22:46.341.09-May-2021 4480.01 4112.95 67.54 12.00 237.64 2964.27
   03:22:46.541.09-May-2021 4480.01 4113.15 67.54 12.00 237.84 2964.27
   03:22:46.741.09-May-2021 4480.01 4113.11 67.54 12.00 238.04 2964.27
   03:22:46.941.09-May-2021 4480.01 4113.11 67.54 12.00 238.24 2964.27
   03:22:47.141.09-May-2021 4480.01 4113.07 67.54 12.00 238.44 2964.27
   03:22:47.341.09-May-2021 4480.01 4113.04 67.54 12.00 238.64 2964.27
   03:22:47.541.09-May-2021 4480.01 4113.06 67.54 12.00 238.84 2964.27
   03:22:47.741.09-May-2021 4480.01 4113.07 67.54 12.00 239.04 2964.27
   03:22:47.941.09-May-2021 4480.01 4113.07 67.54 12.00 239.24 2964.27
   03:22:48.141.09-May-2021 4480.01 4113.09 67.54 12.00 239.44 2964.27
   03:22:48.341.09-May-2021 4480.01 4113.07 67.54 12.00 239.64 2964.27
   03:22:48.541.09-May-2021 4480.01 4113.07 67.54 12.00 239.84 2964.27
   03:22:48.741.09-May-2021 4480.01 4113.07 67.54 12.00 240.04 2964.27
   03:22:48.941.09-May-2021 4480.01 4113.07 67.54 12.00 240.24 2964.27
   03:22:49.141.09-May-2021 4480.01 4113.11 67.54 12.00 240.44 2964.27
   03:22:49.341.09-May-2021 4480.01 4113.16 67.54 12.00 240.64 2964.27
   03:22:49.541.09-May-2021 4480.01 4112.99 67.54 12.00 240.84 2964.27
   03:22:49.741.09-May-2021 4480.01 4113.08 67.54 12.00 241.04 2964.27
   03:22:49.941.09-May-2021 4480.01 4113.08 67.54 12.00 241.24 2964.27
   03:22:50.141.09-May-2021 4480.01 4113.07 67.54 12.00 241.44 2964.27
   03:22:50.341.09-May-2021 4480.01 4113.07 67.54 12.00 241.64 2964.27
   03:22:50.542.09-May-2021 4480.01 4113.09 67.54 12.00 241.84 2964.27
   03:22:50.742.09-May-2021 4480.01 4113.06 67.54 12.00 242.04 2964.27
   03:22:50.942.09-May-2021 4480.01 4113.06 67.54 12.00 242.24 2964.27
   03:22:51.142.09-May-2021 4480.01 4113.07 67.54 12.00 242.44 2964.27
   03:22:51.342.09-May-2021 4480.01 4113.07 67.54 12.00 242.64 2964.27
   03:22:51.542.09-May-2021 4480.01 4113.07 67.54 12.00 242.84 2964.27
   03:22:51.742.09-May-2021 4480.01 4113.13 67.54 12.00 243.04 2964.27
   03:22:51.942.09-May-2021 4480.01 4113.13 67.54 12.00 243.24 2964.27
   03:22:52.142.09-May-2021 4480.01 4113.01 67.54 12.00 243.44 2964.27
   03:22:52.342.09-May-2021 4480.01 4113.14 67.54 12.00 243.64 2964.27
   03:22:52.542.09-May-2021 4480.01 4113.09 67.54 12.00 243.84 2964.27
   03:22:52.742.09-May-2021 4480.01 4113.02 67.54 12.00 244.04 2964.27
   03:22:52.942.09-May-2021 4480.01 4113.02 67.54 12.00 244.24 2964.27
   03:22:53.142.09-May-2021 4480.01 4113.09 67.54 12.00 244.44 2964.27
   03:22:53.342.09-May-2021 4480.01 4113.11 67.54 12.00 244.64 2964.27
   03:22:53.542.09-May-2021 4480.01 4113.06 67.54 12.00 244.84 2964.27
   03:22:53.742.09-May-2021 4480.01 4113.16 67.54 12.00 245.04 2964.27
   03:22:53.942.09-May-2021 4480.01 4113.16 67.54 12.00 245.24 2964.27
   03:22:54.142.09-May-2021 4480.01 4113.07 67.54 12.00 245.44 2964.27
   03:22:54.342.09-May-2021 4480.01 4113.07 67.54 12.00 245.64 2964.27
   03:22:54.542.09-May-2021 4480.01 4113.05 67.54 12.00 245.84 2964.27
   03:22:54.742.09-May-2021 4480.01 4113.06 67.54 12.00 246.04 2964.27
   03:22:54.942.09-May-2021 4480.01 4113.06 67.54 12.00 246.24 2964.27
   03:22:55.142.09-May-2021 4480.01 4113.07 67.54 12.00 246.44 2964.27
   03:22:55.342.09-May-2021 4480.01 4113.07 67.54 12.00 246.64 2964.27
   03:22:55.542.09-May-2021 4480.01 4113.07 67.54 12.00 246.84 2964.27
   03:22:55.742.09-May-2021 4480.01 4113.07 67.54 12.00 247.04 2964.27
   03:22:55.942.09-May-2021 4480.01 4113.07 67.54 12.00 247.24 2964.27
   03:22:56.142.09-May-2021 4480.01 4113.21 67.54 12.00 247.44 2964.27
   03:22:56.342.09-May-2021 4480.01 4112.99 67.54 12.00 247.64 2964.27
   03:22:56.543.09-May-2021 4480.01 4113.18 67.54 12.00 247.84 2964.27
   03:22:56.743.09-May-2021 4480.01 4112.97 67.54 12.00 248.04 2964.27
   03:22:56.943.09-May-2021 4480.01 4112.97 67.54 12.00 248.24 2964.27
   03:22:57.143.09-May-2021 4480.01 4113.06 67.54 12.00 248.44 2964.27
