~Version Information
 VERS.                  2.0:   CWLS log ASCII Standard -VERSION 2.0
 WRAP.                   NO:   One line per depth step
~Well Information Block
#MNEM.UNIT     VALUE/NAME     DESCRIPTION
#---------     -----------    ---------------------------
 STRT.S             00:24:13 10-May-21: START TIME 00:24:13 10-May-21
 STOP.S             00:32:26 10-May-21: STOP TIME  00:32:26 10-May-21
 STEP.S                   0.00: STEP TIME
 NULL.                 -999.25: NULL VALUE
 PROV.                    Baku:  PROVINCE
 STAT.                    Baku:  STATE NAME
 SON .        AZ-XX-0906571588:  JOB NUMBER
 WTYP.                Deviated:  WELL TYPE
 COMP.     BP Exploration (Caspian Sea) ltd:  COMPANY
 BASE.              Azerbaijan:  LOGGING EQUIPMENT BASE LOCATION
 REGN.                   EESSA:  REGION
 CTRY.              Azerbaijan:  COUNTRY NAME
 FLD .                     ACG:  FIELD NAME
 WELL.                     J28:  WELL NAME
 RIG .             West Chirag:  RIG NAME
 DMF .             Drill Floor:  DRILL MEAS FROM
 PDAT.       Caspian Sea Level:  PERMANENT DATUM
 HPTY.       Minimum Curvature:  HOLE POS TYPE
 MDS .        Operator Entered:  MAG DATA SOURCE
 NREF.                    Grid:  NORTH REFERENCE
 SRVC.          TURAN DRILLING:  CONTRACTOR
 JOBN.        AZ-XX-0906571588:  JOB TICKET NUMB
 DCON.     Halliburton Sperry Drilling:  DIRECTNL CONTR
 STIM.      00.44.00 11-Feb-21:  START TIME
 DATE.      00.00.00 05-May-21:  END TIME
 SPUD.               13-Feb-21:  SPUD DATE
 MWDS.                    Baku:  MWD SHOP
 DOE .                     N/A:  DOE NUMBER
 UNIT.                     N/A:  LOGGING EQUIPMENT ID
 UWI .                     N/A:  UNIQUE WELL IDENTIFIER
 API .                     N/A:  API NUMBER
 CNTY.                        :  COUNTY
 LOC .                        :  LOCATION
 LMF .             Drill Floor:  LOG MEASURED FROM
 TVDS.m                  43.00:  TVDSS CORRECTN
 SDEP.m                 341.00:  START DEPTH
 EGL .m                   0.00:  GROUND ELEVATION
 WDMS.m                 169.80:  WD ELEV
 AGAP.m                  43.00:  AIR GAP
 EPD .m                   0.00:  ELEVATION
 APD .m                  43.00:  DEPTH ABOVE PD
 LATI.deg                40.13:  LATITUDE
 LONG.deg                51.22:  LONGITUDE
 UTMY.m             4443793.85:  UTM Y
 UTMX.m              519005.06:  UTM X
 WHEW.m                 -11.57:  WELL HEAD E/W
 WHNS.m                   8.57:  WELL HEAD N/S
 VSEW.m                 -11.57:  VERT SEC E/W
 VSNS.m                   8.57:  VERT SEC N/S
 DFWL.m                   0.00:  DISTANCE FWL
 DFSL.m                   0.00:  DISTANCE FSL
 VSDR.deg               299.34:  VERT SEC DIRECT
 GVFD.g                   1.00:  GRAVITY FIELD
 AZTC.deg                 6.36:  AZM TOTAL CORR
 MFLD.nT              50391.00:  MAGNETIC FIELD
 MDIP.deg                59.65:  MAGNETIC DIP
 MDEC.deg                 6.48:  MAGNETIC DECL
 GRDC.deg                 0.12:  GRID CORRECTION
 DEP .m                 334.96:  DEPTH
 TDD .m                1407.26:  TOTAL DEPTH (DRILLER)
 EKB .m                  43.00:  KB ELEVATION
 EDF .m                  43.00:  DF ELEVATION
 TDL .m                 228.00:  TOTAL DEPTH (LOGGER)
 VSC .                       0:  VS TO CLOSURE
 MAGU.                 1854484:  MAGUTM CHECKSUM
~Parameter Information Block
#MNEM.UNIT       Value        Description
#---------     -----------    ---------------------------
 AV  .mps                 4.00:  Ann Velocity 
 AVMX.mps                 4.73:  Max Ann Veloc 
 AZIF.deg               304.48:  Azm, Final 
 BHAT.        Rotary Steerable:  BHA Type 
 BREV.rev            257300.00:  Rev Bit Total 
 BROT.°/30m               0.00:  Build Rotating 
 BS  .in                  8.50:  Bit Size 
 BSZ .in                  8.50:  Bit Size 
 BTPL.psig              589.00:  Bit Press Loss 
 CABU.                      No:  Customer Abuse 
 CGEO.          Mubariz ghayev:  Customer Geo 
 TCS .hr                 64.25:  Time Ciculation Ended 
 CV  .mps                 3.50:  Crit Velocity 
 CVMX.mps                 4.52:  Max Crit Veloc 
 DD1 .             Aziz Aliyev:  Direct Drillr 1 
 DD2 .         Intigam Rahimov:  Direct Drillr 2 
 DD3 .          Rashad Habibov:  Direct Drillr 3 
 DDSV.               Geo-Pilot:  DD Service 
 DEFF.%                  98.00:  % Det Eff 
 DLRX.°/30m               0.00:  Dogleg Rot Max 
 DLSO.°/30m               0.00:  Dogleg Oriented 
 DLSX.°/30m               0.00:  Dogleg Str Max 
 DRET.      10.45.04 08-May-21:  Drill End Time 
 DRST.      03.30.04 04-May-21:  Drill Start Tim 
 DTIM.hr                 14.97:  Time Drilling 
 EDEP.m                4640.01:  End Depth 
 ENG1.         Dail Mahammadov:  Engineer 1 
 ENG2.           Eldar Hajiyev:  Engineer 2 
 ENG3.       Bakhtiar Jabbarli:  Engineer 3 
 ENG4.       Natik Hasanagayev:  Engineer 4 
 ETIM.      09.30.04 14-May-21:  End Time 
 FLOI.gpm               460.00:  Flow In 
 FLON.gpm               200.00:  Flow In Min 
 FLOS.cptm                0.00:  Fluid Loss 
 FLOX.gpm               505.00:  Flow In Max 
 HFLO.                      No:  High Flow 
 HPRE.                      No:  High Pressure 
 HTEM.                      No:  High Temp 
 HYDO.m                   1.80:  Hydro Offset 
 IFIN.deg                66.71:  Inc, Final 
 IMAX.deg                67.03:  Inc Max 
 IMIN.deg                66.63:  Inc Min 
 IMND.m                4550.58:  Inc Min Depth 
 IMXD.m                4439.01:  Inc Max Depth 
 JARR.                      No:  Jarring 
 LETM.      10.45.04 08-May-21:  Log End Time 
 LOST.hr                     0:  Lost Rig Time 
 LSTM.      03.30.04 04-May-21:  Log Start Time 
 MDCL.ppm             37000.00:  Mud Chlorides 
 MDES.     Inversion Oil/Synthetic:  Mud Desc 
 DFD .sg                  1.38:  Mud Density 
 MDMN.sg                  1.35:  Dens Mud Min 
 MDMX.sg                  1.40:  Dens Mud Max 
 MOIL.                   57.40:  Run Mud Oil % 
 MOWR.                   70:30:  Run Mud OWR 
 MSND.                    0.00:  Run Mud Sand % 
 MSOL.                   18.00:  Run Mud Solids% 
 DFV .spqt               71.00:  Mud Viscosity 
 MWOD.in                  6.75:  MWD Tool OD 
 MWSI.                      No:  Serv Intrp, MWD 
 OTIM.hr                242.76:  Time Operating 
 PCON.           Look Like New:  Pad Condition 
 PMAX.psia            12183.92:  Press Op, Max 
 PV  .cP                 27.00:  Mud PV 
 RUN .                    1300:  Run Number 
 ROPA.m/hr               15.00:  ROP Avg 
 ROPN.m/hr                9.00:  ROP Min 
 ROPX.m/hr               19.00:  ROP Max 
 RPMA.rpm               120.00:  RPM Surface Avg 
 RPMN.rpm               100.00:  RPM Surface Min 
 RPMX.rpm               120.00:  RPM Surface Max 
 RRUN.                    1300:  Rig Run Number 
 RTIM.hr                  5.00:  Time Reaming 
 SAZI.deg               304.73:  Azm, Start 
 SDEP.m                4412.01:  Start Depth 
 SIDD.                      No:  Serv Intrp, DD 
 SINC.deg                66.82:  Inc, Start 
 SPPA.psig             2800.00:  SPP Avg 
 SPPN.psig             2610.00:  SPP Min 
 SPPX.psig             3100.00:  SPP Max 
 STIM.      03.30.00 04-May-21:  Start Time 
 SVCS.                 DD, MWD:  Services 
 SVER.                    9.20:  Sperry Version 
 TDAT.m                 228.00:  Tot Depth Attmp 
 TDDF.                      No:  Trip for DD 
 TDLG.m                 228.00:  Tot Depth Loggd 
 TFF .                      No:  Trip for Fail 
 TQAA.f-kp               15.00:  Torque Abs Avg 
 TQAN.f-kp               12.00:  Torque Abs Min 
 TQAX.f-kp               22.00:  Torque Abs Max 
 TRRT.°/30m               0.00:  Turn Rotating 
 MRT .                    HCIM:  Maximum Recorded Temperature 
 TTMX.degC               90.20:  Max Tool Temp 
 VS01.                90627813:  Virtual Str1 SN 
 VS02.                90634712:  Virtual Str2 SN 
 VS03.                90643410:  Virtual Str3 SN 
 VS04.                90634712:  Virtual Str4 SN 
 WBMN.klb                 9.00:  WOB Min 
 WITN.        Elmaddin Rahimov:  Customer Rep 
 WITN.         Haytham Mostafa:  Customer Rep 2 
 WOBA.klb                15.00:  WOB Avg 
 WOBX.klb                23.00:  WOB Max 
 YP  .lhf2               29.00:  Yield Point 
~Curve Information Block
#MNEM.UNIT                 API CODE     Curve Description
#---------               -----------    ---------------------------
 TIME.HHMMSS            00 000 000 000:  GT Time & Date
 GTDEPTH.m              00 000 000 000:  GT Depth
 GTPQH.psia             00 000 000 000:  GT HR Quartz Pressure
 GTTQ.degC              00 000 000 000:  GT Quartz Temperature
 GTTN.NONE              00 000 000 000:  GT Test Number
 GTET.sec               00 000 000 000:  GT Elapsed Test Time
 GTTVD.m                00 000 000 000:  GT True Vertical Depth
#Other Information
#
#WARRANTY: Halliburton will use its best efforts to furnish customers with 
#accurate information and interpretations that are part of, and incident to, the services 
#provided.  However, Halliburton cannot and does not warrant the accuracy 
#or correctness of such information and interpretations.  Under no circumstances should any 
#such information or interpretation be relied upon as the sole basis for any drilling, 
#completion, production, or financial decision or any procedure involving any risk to the 
#safety of any drilling venture, drilling rig or its crew or any other third party.  The 
#Customer has full responsibility for all drilling, completion and production operation.  
#Halliburton makes no representations or warranties, either expressed or 
#implied, including, but not limited to, the implied warranties of merchantability or fitness 
#for a particular purpose, with respect to the services rendered.  In no event will 
#Halliburton be liable for failure to obtain any particular results or for 
#any damages, including, but not limited to, indirect, special or consequential damages, 
#resulting from the use of any information or interpretation provided by Halliburton.
#
~A           TIME           GTDEPTH  GTPQH  GTTQ  GTTN   GTET   GTTVD  
   00:24:13.608.10-May-2021 4497.51 6525.13 60.64 18.00   0.00 2971.13
   00:24:13.808.10-May-2021 4497.51 6525.13 60.64 18.00   0.20 2971.13
   00:24:14.008.10-May-2021 4497.51 6526.34 60.64 18.00   0.40 2971.13
   00:24:14.208.10-May-2021 4497.51 6521.80 60.64 18.00   0.60 2971.13
   00:24:14.408.10-May-2021 4497.51 6528.15 60.64 18.00   0.80 2971.13
   00:24:14.608.10-May-2021 4497.51 6524.67 60.64 18.00   1.00 2971.13
   00:24:14.808.10-May-2021 4497.51 6524.67 60.64 18.00   1.20 2971.13
   00:24:15.008.10-May-2021 4497.51 6528.83 60.64 18.00   1.40 2971.13
   00:24:15.208.10-May-2021 4497.51 6525.42 60.64 18.00   1.60 2971.13
   00:24:15.408.10-May-2021 4497.51 6526.13 60.64 18.00   1.80 2971.13
   00:24:15.609.10-May-2021 4497.51 6532.97 60.64 18.00   2.00 2971.13
   00:24:15.809.10-May-2021 4497.51 6532.97 60.64 18.00   2.20 2971.13
   00:24:16.009.10-May-2021 4497.51 6527.38 60.64 18.00   2.40 2971.13
   00:24:16.209.10-May-2021 4497.51 6534.22 60.64 18.00   2.60 2971.13
   00:24:16.409.10-May-2021 4497.51 6528.32 60.64 18.00   2.80 2971.13
   00:24:16.609.10-May-2021 4497.51 6528.97 60.64 18.00   3.00 2971.13
   00:24:16.809.10-May-2021 4497.51 6528.97 60.64 18.00   3.20 2971.13
   00:24:17.009.10-May-2021 4497.51 6531.84 60.64 18.00   3.40 2971.13
   00:24:17.209.10-May-2021 4497.51 6530.26 60.64 18.00   3.60 2971.13
   00:24:17.409.10-May-2021 4497.51 6531.18 60.64 18.00   3.80 2971.13
   00:24:17.609.10-May-2021 4497.51 6527.76 60.64 18.00   4.00 2971.13
   00:24:17.809.10-May-2021 4497.51 6527.76 60.64 18.00   4.20 2971.13
   00:24:18.010.10-May-2021 4497.51 6526.35 60.64 18.00   4.40 2971.13
   00:24:18.210.10-May-2021 4497.51 6526.22 60.64 18.00   4.60 2971.13
   00:24:18.410.10-May-2021 4497.51 6526.67 60.63 18.00   4.80 2971.13
   00:24:18.610.10-May-2021 4497.51 6526.34 60.63 18.00   5.00 2971.13
   00:24:18.810.10-May-2021 4497.51 6526.34 60.63 18.00   5.20 2971.13
   00:24:19.010.10-May-2021 4497.51 6526.40 60.63 18.00   5.40 2971.13
   00:24:19.210.10-May-2021 4497.51 6526.79 60.63 18.00   5.60 2971.13
   00:24:19.410.10-May-2021 4497.51 6526.97 60.63 18.00   5.80 2971.13
   00:24:19.610.10-May-2021 4497.51 6528.88 60.63 18.00   6.00 2971.13
   00:24:19.810.10-May-2021 4497.51 6528.88 60.63 18.00   6.20 2971.13
   00:24:20.010.10-May-2021 4497.51 6533.00 60.63 18.00   6.40 2971.13
   00:24:20.210.10-May-2021 4497.51 6534.39 60.63 18.00   6.60 2971.13
   00:24:20.411.10-May-2021 4497.51 6529.46 60.63 18.00   6.80 2971.13
   00:24:20.611.10-May-2021 4497.51 6530.05 60.63 18.00   7.00 2971.13
   00:24:20.811.10-May-2021 4497.51 6530.05 60.63 18.00   7.20 2971.13
   00:24:21.011.10-May-2021 4497.51 6529.99 60.63 18.00   7.40 2971.13
   00:24:21.211.10-May-2021 4497.51 6530.20 60.63 18.00   7.60 2971.13
   00:24:21.411.10-May-2021 4497.51 6530.28 60.63 18.00   7.80 2971.13
   00:24:21.611.10-May-2021 4497.51 6529.75 60.63 18.00   8.00 2971.13
   00:24:21.811.10-May-2021 4497.51 6529.75 60.63 18.00   8.20 2971.13
   00:24:22.011.10-May-2021 4497.51 6529.28 60.63 18.00   8.40 2971.13
   00:24:22.211.10-May-2021 4497.51 6529.57 60.63 18.00   8.60 2971.13
   00:24:22.411.10-May-2021 4497.51 6534.59 60.63 18.00   8.80 2971.13
   00:24:22.612.10-May-2021 4497.51 6534.06 60.63 18.00   9.00 2971.13
   00:24:22.812.10-May-2021 4497.51 6534.06 60.63 18.00   9.20 2971.13
   00:24:23.012.10-May-2021 4497.51 6534.87 60.63 18.00   9.40 2971.13
   00:24:23.212.10-May-2021 4497.51 6531.25 60.63 18.00   9.60 2971.13
   00:24:23.412.10-May-2021 4497.51 6535.36 60.63 18.00   9.80 2971.13
   00:24:23.612.10-May-2021 4497.51 6535.14 60.63 18.00  10.00 2971.13
   00:24:23.812.10-May-2021 4497.51 6535.14 60.63 18.00  10.20 2971.13
   00:24:24.012.10-May-2021 4497.51 6535.97 60.63 18.00  10.40 2971.13
   00:24:24.212.10-May-2021 4497.51 6532.47 60.63 18.00  10.60 2971.13
   00:24:24.412.10-May-2021 4497.51 6538.04 60.63 18.00  10.80 2971.13
   00:24:24.612.10-May-2021 4497.51 6533.96 60.63 18.00  11.00 2971.13
   00:24:24.812.10-May-2021 4497.51 6533.96 60.63 18.00  11.20 2971.13
   00:24:25.013.10-May-2021 4497.51 6535.72 60.63 18.00  11.40 2971.13
   00:24:25.213.10-May-2021 4497.51 6533.38 60.63 18.00  11.60 2971.13
   00:24:25.413.10-May-2021 4497.51 6538.65 60.63 18.00  11.81 2971.13
   00:24:25.613.10-May-2021 4497.51 6535.14 60.63 18.00  12.01 2971.13
   00:24:25.813.10-May-2021 4497.51 6535.14 60.63 18.00  12.21 2971.13
   00:24:26.013.10-May-2021 4497.51 6538.72 60.63 18.00  12.41 2971.13
   00:24:26.213.10-May-2021 4497.51 6536.53 60.63 18.00  12.61 2971.13
   00:24:26.413.10-May-2021 4497.51 6539.02 60.63 18.00  12.81 2971.13
   00:24:26.613.10-May-2021 4497.51 6535.62 60.63 18.00  13.01 2971.13
   00:24:26.813.10-May-2021 4497.51 6535.62 60.63 18.00  13.21 2971.13
   00:24:27.013.10-May-2021 4497.51 6535.15 60.63 18.00  13.41 2971.13
   00:24:27.213.10-May-2021 4497.51 6540.72 60.63 18.00  13.61 2971.13
   00:24:27.414.10-May-2021 4497.51 6538.65 60.63 18.00  13.81 2971.13
   00:24:27.614.10-May-2021 4497.51 6541.96 60.63 18.00  14.01 2971.13
   00:24:27.814.10-May-2021 4497.51 6541.96 60.63 18.00  14.21 2971.13
   00:24:28.014.10-May-2021 4497.51 6541.96 60.63 18.00  14.41 2971.13
   00:24:28.214.10-May-2021 4497.51 6536.81 60.63 18.00  14.61 2971.13
   00:24:28.414.10-May-2021 4497.51 6536.07 60.63 18.00  14.81 2971.13
   00:24:28.614.10-May-2021 4497.51 6535.62 60.63 18.00  15.01 2971.13
   00:24:28.814.10-May-2021 4497.51 6536.26 60.63 18.00  15.21 2971.13
   00:24:29.014.10-May-2021 4497.51 6536.26 60.63 18.00  15.41 2971.13
   00:24:29.214.10-May-2021 4497.51 6536.26 60.63 18.00  15.61 2971.13
   00:24:29.414.10-May-2021 4497.51 6536.63 60.63 18.00  15.81 2971.13
   00:24:29.615.10-May-2021 4497.51 6536.47 60.63 18.00  16.01 2971.13
   00:24:29.815.10-May-2021 4497.51 6536.47 60.63 18.00  16.21 2971.13
   00:24:30.015.10-May-2021 4497.51 6540.02 60.63 18.00  16.41 2971.13
   00:24:30.215.10-May-2021 4497.51 6543.77 60.63 18.00  16.61 2971.13
   00:24:30.415.10-May-2021 4497.51 6537.99 60.63 18.00  16.81 2971.13
   00:24:30.615.10-May-2021 4497.51 6539.40 60.63 18.00  17.01 2971.13
   00:24:30.815.10-May-2021 4497.51 6539.40 60.63 18.00  17.21 2971.13
   00:24:31.015.10-May-2021 4497.51 6537.82 60.63 18.00  17.41 2971.13
   00:24:31.215.10-May-2021 4497.51 6537.88 60.63 18.00  17.61 2971.13
   00:24:31.415.10-May-2021 4497.51 6538.50 60.63 18.00  17.81 2971.13
   00:24:31.615.10-May-2021 4497.51 6538.36 60.63 18.00  18.01 2971.13
   00:24:31.815.10-May-2021 4497.51 6538.36 60.63 18.00  18.21 2971.13
   00:24:32.016.10-May-2021 4497.51 6537.62 60.63 18.00  18.41 2971.13
   00:24:32.216.10-May-2021 4497.51 6537.91 60.63 18.00  18.61 2971.13
   00:24:32.416.10-May-2021 4497.51 6543.12 60.62 18.00  18.81 2971.13
   00:24:32.616.10-May-2021 4497.51 6542.79 60.62 18.00  19.01 2971.13
   00:24:32.816.10-May-2021 4497.51 6542.79 60.62 18.00  19.21 2971.13
   00:24:33.016.10-May-2021 4497.51 6542.96 60.62 18.00  19.41 2971.13
   00:24:33.216.10-May-2021 4497.51 6539.72 60.62 18.00  19.61 2971.13
   00:24:33.416.10-May-2021 4497.51 6547.32 60.62 18.00  19.81 2971.13
   00:24:33.616.10-May-2021 4497.51 6541.53 60.62 18.00  20.01 2971.13
   00:24:33.816.10-May-2021 4497.51 6541.53 60.62 18.00  20.21 2971.13
   00:24:34.016.10-May-2021 4497.51 6544.28 60.62 18.00  20.41 2971.13
   00:24:34.216.10-May-2021 4497.51 6543.38 60.62 18.00  20.61 2971.13
   00:24:34.417.10-May-2021 4497.51 6543.90 60.62 18.00  20.81 2971.13
   00:24:34.617.10-May-2021 4497.51 6548.23 60.62 18.00  21.01 2971.13
   00:24:34.817.10-May-2021 4497.51 6548.23 60.62 18.00  21.21 2971.13
   00:24:35.017.10-May-2021 4497.51 6544.54 60.62 18.00  21.41 2971.13
   00:24:35.217.10-May-2021 4497.51 6546.66 60.62 18.00  21.61 2971.13
   00:24:35.417.10-May-2021 4497.51 6542.63 60.62 18.00  21.81 2971.13
   00:24:35.617.10-May-2021 4497.51 6541.47 60.62 18.00  22.01 2971.13
   00:24:35.817.10-May-2021 4497.51 6541.47 60.62 18.00  22.21 2971.13
   00:24:36.017.10-May-2021 4497.51 6540.94 60.62 18.00  22.41 2971.13
