~Version Information
 VERS.                  2.0:   CWLS log ASCII Standard -VERSION 2.0
 WRAP.                   NO:   One line per depth step
~Well Information Block
#MNEM.UNIT     VALUE/NAME     DESCRIPTION
#---------     -----------    ---------------------------
 STRT.S             23:15:39 08-May-21: START TIME 23:15:39 08-May-21
 STOP.S             23:22:30 08-May-21: STOP TIME  23:22:30 08-May-21
 STEP.S                   0.00: STEP TIME
 NULL.                 -999.25: NULL VALUE
 PROV.                    Baku:  PROVINCE
 STAT.                    Baku:  STATE NAME
 SON .        AZ-XX-0906571588:  JOB NUMBER
 WTYP.                Deviated:  WELL TYPE
 COMP.     BP Exploration (Caspian Sea) ltd:  COMPANY
 BASE.              Azerbaijan:  LOGGING EQUIPMENT BASE LOCATION
 REGN.                   EESSA:  REGION
 CTRY.              Azerbaijan:  COUNTRY NAME
 FLD .                     ACG:  FIELD NAME
 WELL.                     J28:  WELL NAME
 RIG .             West Chirag:  RIG NAME
 DMF .             Drill Floor:  DRILL MEAS FROM
 PDAT.       Caspian Sea Level:  PERMANENT DATUM
 HPTY.       Minimum Curvature:  HOLE POS TYPE
 MDS .        Operator Entered:  MAG DATA SOURCE
 NREF.                    Grid:  NORTH REFERENCE
 SRVC.          TURAN DRILLING:  CONTRACTOR
 JOBN.        AZ-XX-0906571588:  JOB TICKET NUMB
 DCON.     Halliburton Sperry Drilling:  DIRECTNL CONTR
 STIM.      00.44.00 11-Feb-21:  START TIME
 DATE.      00.00.00 05-May-21:  END TIME
 SPUD.               13-Feb-21:  SPUD DATE
 MWDS.                    Baku:  MWD SHOP
 DOE .                     N/A:  DOE NUMBER
 UNIT.                     N/A:  LOGGING EQUIPMENT ID
 UWI .                     N/A:  UNIQUE WELL IDENTIFIER
 API .                     N/A:  API NUMBER
 CNTY.                        :  COUNTY
 LOC .                        :  LOCATION
 LMF .             Drill Floor:  LOG MEASURED FROM
 TVDS.m                  43.00:  TVDSS CORRECTN
 SDEP.m                 341.00:  START DEPTH
 EGL .m                   0.00:  GROUND ELEVATION
 WDMS.m                 169.80:  WD ELEV
 AGAP.m                  43.00:  AIR GAP
 EPD .m                   0.00:  ELEVATION
 APD .m                  43.00:  DEPTH ABOVE PD
 LATI.deg                40.13:  LATITUDE
 LONG.deg                51.22:  LONGITUDE
 UTMY.m             4443793.85:  UTM Y
 UTMX.m              519005.06:  UTM X
 WHEW.m                 -11.57:  WELL HEAD E/W
 WHNS.m                   8.57:  WELL HEAD N/S
 VSEW.m                 -11.57:  VERT SEC E/W
 VSNS.m                   8.57:  VERT SEC N/S
 DFWL.m                   0.00:  DISTANCE FWL
 DFSL.m                   0.00:  DISTANCE FSL
 VSDR.deg               299.34:  VERT SEC DIRECT
 GVFD.g                   1.00:  GRAVITY FIELD
 AZTC.deg                 6.36:  AZM TOTAL CORR
 MFLD.nT              50391.00:  MAGNETIC FIELD
 MDIP.deg                59.65:  MAGNETIC DIP
 MDEC.deg                 6.48:  MAGNETIC DECL
 GRDC.deg                 0.12:  GRID CORRECTION
 DEP .m                 334.96:  DEPTH
 TDD .m                1407.26:  TOTAL DEPTH (DRILLER)
 EKB .m                  43.00:  KB ELEVATION
 EDF .m                  43.00:  DF ELEVATION
 TDL .m                 228.00:  TOTAL DEPTH (LOGGER)
 VSC .                       0:  VS TO CLOSURE
 MAGU.                 1854484:  MAGUTM CHECKSUM
~Parameter Information Block
#MNEM.UNIT       Value        Description
#---------     -----------    ---------------------------
 AV  .mps                 4.00:  Ann Velocity 
 AVMX.mps                 4.73:  Max Ann Veloc 
 AZIF.deg               304.48:  Azm, Final 
 BHAT.        Rotary Steerable:  BHA Type 
 BREV.rev            257300.00:  Rev Bit Total 
 BROT.°/30m               0.00:  Build Rotating 
 BS  .in                  8.50:  Bit Size 
 BSZ .in                  8.50:  Bit Size 
 BTPL.psig              589.00:  Bit Press Loss 
 CABU.                      No:  Customer Abuse 
 CGEO.          Mubariz ghayev:  Customer Geo 
 COMM.                     dˆ[:  Run Comments 1 
 TCS .hr                 64.25:  Time Ciculation Ended 
 CV  .mps                 3.50:  Crit Velocity 
 CVMX.mps                 4.52:  Max Crit Veloc 
 DD1 .             Aziz Aliyev:  Direct Drillr 1 
 DD2 .         Intigam Rahimov:  Direct Drillr 2 
 DD3 .          Rashad Habibov:  Direct Drillr 3 
 DDSV.               Geo-Pilot:  DD Service 
 DEFF.%                  98.00:  % Det Eff 
 DLRX.°/30m               0.00:  Dogleg Rot Max 
 DLSO.°/30m               0.00:  Dogleg Oriented 
 DLSX.°/30m               0.00:  Dogleg Str Max 
 DRET.      10.45.04 08-May-21:  Drill End Time 
 DRST.      03.30.04 04-May-21:  Drill Start Tim 
 DTIM.hr                 14.97:  Time Drilling 
 EDEP.m                4640.01:  End Depth 
 ENG1.         Dail Mahammadov:  Engineer 1 
 ENG2.           Eldar Hajiyev:  Engineer 2 
 ENG3.       Bakhtiar Jabbarli:  Engineer 3 
 ENG4.       Natik Hasanagayev:  Engineer 4 
 ETIM.      09.30.04 14-May-21:  End Time 
 FLOI.gpm               460.00:  Flow In 
 FLON.gpm               200.00:  Flow In Min 
 FLOS.cptm                0.00:  Fluid Loss 
 FLOX.gpm               505.00:  Flow In Max 
 HFLO.                      No:  High Flow 
 HPRE.                      No:  High Pressure 
 HTEM.                      No:  High Temp 
 HYDO.m                   1.80:  Hydro Offset 
 IFIN.deg                66.71:  Inc, Final 
 IMAX.deg                67.03:  Inc Max 
 IMIN.deg                66.63:  Inc Min 
 IMND.m                4550.58:  Inc Min Depth 
 IMXD.m                4439.01:  Inc Max Depth 
 JARR.                      No:  Jarring 
 LETM.      10.45.04 08-May-21:  Log End Time 
 LOST.hr                     0:  Lost Rig Time 
 LSTM.      03.30.04 04-May-21:  Log Start Time 
 MDCL.ppm             37000.00:  Mud Chlorides 
 MDES.     Inversion Oil/Synthetic:  Mud Desc 
 DFD .sg                  1.38:  Mud Density 
 MDMN.sg                  1.35:  Dens Mud Min 
 MDMX.sg                  1.40:  Dens Mud Max 
 MOIL.                   57.40:  Run Mud Oil % 
 MOWR.                   70:30:  Run Mud OWR 
 MSND.                    0.00:  Run Mud Sand % 
 MSOL.                   18.00:  Run Mud Solids% 
 DFV .spqt               71.00:  Mud Viscosity 
 MWOD.in                  6.75:  MWD Tool OD 
 MWSI.                      No:  Serv Intrp, MWD 
 OTIM.hr                242.76:  Time Operating 
 PCON.           Look Like New:  Pad Condition 
 PMAX.psia            12183.92:  Press Op, Max 
 PV  .cP                 27.00:  Mud PV 
 RUN .                    1300:  Run Number 
 ROPA.m/hr               15.00:  ROP Avg 
 ROPN.m/hr                9.00:  ROP Min 
 ROPX.m/hr               19.00:  ROP Max 
 RPMA.rpm               120.00:  RPM Surface Avg 
 RPMN.rpm               100.00:  RPM Surface Min 
 RPMX.rpm               120.00:  RPM Surface Max 
 RRUN.                    1300:  Rig Run Number 
 RTIM.hr                  5.00:  Time Reaming 
 SAZI.deg               304.73:  Azm, Start 
 SDEP.m                4412.01:  Start Depth 
 SIDD.                      No:  Serv Intrp, DD 
 SINC.deg                66.82:  Inc, Start 
 SPPA.psig             2800.00:  SPP Avg 
 SPPN.psig             2610.00:  SPP Min 
 SPPX.psig             3100.00:  SPP Max 
 STIM.      03.30.00 04-May-21:  Start Time 
 SVCS.                 DD, MWD:  Services 
 SVER.                    9.20:  Sperry Version 
 TDAT.m                 228.00:  Tot Depth Attmp 
 TDDF.                      No:  Trip for DD 
 TDLG.m                 228.00:  Tot Depth Loggd 
 TFF .                      No:  Trip for Fail 
 TQAA.f-kp               15.00:  Torque Abs Avg 
 TQAN.f-kp               12.00:  Torque Abs Min 
 TQAX.f-kp               22.00:  Torque Abs Max 
 TRRT.°/30m               0.00:  Turn Rotating 
 MRT .                    HCIM:  Maximum Recorded Temperature 
 TTMX.degC               90.20:  Max Tool Temp 
 VS01.                90627813:  Virtual Str1 SN 
 VS02.                90634712:  Virtual Str2 SN 
 VS03.                90643410:  Virtual Str3 SN 
 VS04.                90634712:  Virtual Str4 SN 
 WBMN.klb                 9.00:  WOB Min 
 WITN.        Elmaddin Rahimov:  Customer Rep 
 WITN.         Haytham Mostafa:  Customer Rep 2 
 WOBA.klb                15.00:  WOB Avg 
 WOBX.klb                23.00:  WOB Max 
 YP  .lhf2               29.00:  Yield Point 
~Curve Information Block
#MNEM.UNIT                 API CODE     Curve Description
#---------               -----------    ---------------------------
 TIME.HHMMSS            00 000 000 000:  GT Time & Date
 GTDEPTH.m              00 000 000 000:  GT Depth
 GTPQH.psia             00 000 000 000:  GT HR Quartz Pressure
 GTTQ.degC              00 000 000 000:  GT Quartz Temperature
 GTTN.NONE              00 000 000 000:  GT Test Number
 GTET.sec               00 000 000 000:  GT Elapsed Test Time
 GTTVD.m                00 000 000 000:  GT True Vertical Depth
#Other Information
#
#WARRANTY: Halliburton will use its best efforts to furnish customers with 
#accurate information and interpretations that are part of, and incident to, the services 
#provided.  However, Halliburton cannot and does not warrant the accuracy 
#or correctness of such information and interpretations.  Under no circumstances should any 
#such information or interpretation be relied upon as the sole basis for any drilling, 
#completion, production, or financial decision or any procedure involving any risk to the 
#safety of any drilling venture, drilling rig or its crew or any other third party.  The 
#Customer has full responsibility for all drilling, completion and production operation.  
#Halliburton makes no representations or warranties, either expressed or 
#implied, including, but not limited to, the implied warranties of merchantability or fitness 
#for a particular purpose, with respect to the services rendered.  In no event will 
#Halliburton be liable for failure to obtain any particular results or for 
#any damages, including, but not limited to, indirect, special or consequential damages, 
#resulting from the use of any information or interpretation provided by Halliburton.
#
~A           TIME           GTDEPTH  GTPQH  GTTQ  GTTN  GTET   GTTVD  
# ...
   23:16:25.644.08-May-2021 4549.51 3176.56 68.66 5.00  45.99 2991.64
   23:16:25.844.08-May-2021 4549.51 3176.56 68.66 5.00  46.19 2991.64
   23:16:26.044.08-May-2021 4549.51 3042.97 68.65 5.00  46.39 2991.64
   23:16:26.244.08-May-2021 4549.51 3035.52 68.65 5.00  46.59 2991.64
   23:16:26.444.08-May-2021 4549.51 3027.56 68.65 5.00  46.79 2991.64
   23:16:26.644.08-May-2021 4549.51 2999.02 68.65 5.00  46.99 2991.64
   23:16:26.844.08-May-2021 4549.51 2999.02 68.65 5.00  47.19 2991.64
   23:16:27.044.08-May-2021 4549.51 2844.57 68.64 5.00  47.39 2991.64
   23:16:27.244.08-May-2021 4549.51 2768.78 68.64 5.00  47.59 2991.64
   23:16:27.443.08-May-2021 4549.51 2700.94 68.63 5.00  47.79 2991.64
   23:16:27.643.08-May-2021 4549.51 2656.08 68.63 5.00  47.99 2991.64
   23:16:27.843.08-May-2021 4549.51 2656.08 68.63 5.00  48.18 2991.64
   23:16:28.043.08-May-2021 4549.51 2554.55 68.63 5.00  48.38 2991.64
   23:16:28.243.08-May-2021 4549.51 2367.23 68.62 5.00  48.58 2991.64
   23:16:28.443.08-May-2021 4549.51 2194.76 68.62 5.00  48.78 2991.64
   23:16:28.643.08-May-2021 4549.51 2044.48 68.62 5.00  48.98 2991.64
   23:16:28.843.08-May-2021 4549.51 2044.48 68.62 5.00  49.18 2991.64
   23:16:29.043.08-May-2021 4549.51 1635.82 68.61 5.00  49.38 2991.64
   23:16:29.243.08-May-2021 4549.51 1469.62 68.61 5.00  49.58 2991.64
   23:16:29.443.08-May-2021 4549.51 1321.22 68.61 5.00  49.78 2991.64
   23:16:29.643.08-May-2021 4549.51 1202.62 68.60 5.00  49.98 2991.64
   23:16:29.843.08-May-2021 4549.51 1202.62 68.60 5.00  50.18 2991.64
   23:16:30.043.08-May-2021 4549.51 1087.71 68.60 5.00  50.38 2991.64
   23:16:30.243.08-May-2021 4549.51 1027.79 68.59 5.00  50.58 2991.64
   23:16:30.443.08-May-2021 4549.51  968.26 68.59 5.00  50.78 2991.64
   23:16:30.642.08-May-2021 4549.51  943.18 68.59 5.00  50.98 2991.64
   23:16:30.842.08-May-2021 4549.51  943.18 68.59 5.00  51.18 2991.64
   23:16:31.042.08-May-2021 4549.51  918.62 68.58 5.00  51.38 2991.64
   23:16:31.242.08-May-2021 4549.51  884.31 68.58 5.00  51.58 2991.64
   23:16:31.442.08-May-2021 4549.51  864.94 68.58 5.00  51.78 2991.64
   23:16:31.642.08-May-2021 4549.51  850.78 68.57 5.00  51.98 2991.64
   23:16:31.842.08-May-2021 4549.51  850.78 68.57 5.00  52.18 2991.64
   23:16:32.042.08-May-2021 4549.51  834.88 68.57 5.00  52.38 2991.64
   23:16:32.242.08-May-2021 4549.51  830.11 68.56 5.00  52.58 2991.64
   23:16:32.442.08-May-2021 4549.51  823.26 68.56 5.00  52.78 2991.64
   23:16:32.642.08-May-2021 4549.51  824.98 68.56 5.00  52.98 2991.64
   23:16:32.842.08-May-2021 4549.51  824.98 68.56 5.00  53.18 2991.64
   23:16:33.042.08-May-2021 4549.51  823.74 68.56 5.00  53.38 2991.64
   23:16:33.242.08-May-2021 4549.51  981.62 68.55 5.00  53.58 2991.64
   23:16:33.442.08-May-2021 4549.51 1213.98 68.55 5.00  53.78 2991.64
   23:16:33.642.08-May-2021 4549.51 1429.62 68.55 5.00  53.98 2991.64
   23:16:33.841.08-May-2021 4549.51 1429.62 68.55 5.00  54.18 2991.64
   23:16:34.041.08-May-2021 4549.51 1791.50 68.54 5.00  54.38 2991.64
   23:16:34.241.08-May-2021 4549.51 1945.33 68.54 5.00  54.58 2991.64
   23:16:34.441.08-May-2021 4549.51 2086.91 68.54 5.00  54.78 2991.64
   23:16:34.641.08-May-2021 4549.51 2215.49 68.54 5.00  54.98 2991.64
   23:16:34.841.08-May-2021 4549.51 2215.49 68.54 5.00  55.18 2991.64
   23:16:35.041.08-May-2021 4549.51 2433.07 68.53 5.00  55.38 2991.64
   23:16:35.241.08-May-2021 4549.51 2526.14 68.53 5.00  55.58 2991.64
   23:16:35.441.08-May-2021 4549.51 2612.74 68.53 5.00  55.78 2991.64
   23:16:35.641.08-May-2021 4549.51 2689.23 68.53 5.00  55.98 2991.64
   23:16:35.841.08-May-2021 4549.51 2689.23 68.53 5.00  56.18 2991.64
   23:16:36.041.08-May-2021 4549.51 2819.43 68.53 5.00  56.38 2991.64
   23:16:36.241.08-May-2021 4549.51 2883.39 68.53 5.00  56.58 2991.64
   23:16:36.441.08-May-2021 4549.51 2929.15 68.53 5.00  56.78 2991.64
   23:16:36.641.08-May-2021 4549.51 2969.30 68.53 5.00  56.98 2991.64
   23:16:36.841.08-May-2021 4549.51 2969.30 68.53 5.00  57.18 2991.64
   23:16:37.040.08-May-2021 4549.51 3036.09 68.53 5.00  57.38 2991.64
   23:16:37.240.08-May-2021 4549.51 3063.66 68.53 5.00  57.58 2991.64
   23:16:37.440.08-May-2021 4549.51 3088.04 68.53 5.00  57.78 2991.64
   23:16:37.640.08-May-2021 4549.51 3109.71 68.53 5.00  57.98 2991.64
   23:16:37.840.08-May-2021 4549.51 3109.71 68.53 5.00  58.18 2991.64
   23:16:38.040.08-May-2021 4549.51 3145.51 68.53 5.00  58.38 2991.64
   23:16:38.240.08-May-2021 4549.51 3160.27 68.53 5.00  58.58 2991.64
   23:16:38.440.08-May-2021 4549.51 3172.85 68.53 5.00  58.78 2991.64
   23:16:38.640.08-May-2021 4549.51 3184.67 68.53 5.00  58.98 2991.64
   23:16:38.840.08-May-2021 4549.51 3184.67 68.53 5.00  59.18 2991.64
   23:16:39.040.08-May-2021 4549.51 3203.99 68.54 5.00  59.38 2991.64
   23:16:39.240.08-May-2021 4549.51 3211.13 68.54 5.00  59.58 2991.64
   23:16:39.440.08-May-2021 4549.51 3217.19 68.54 5.00  59.78 2991.64
   23:16:39.640.08-May-2021 4549.51 3222.22 68.54 5.00  59.98 2991.64
   23:16:39.840.08-May-2021 4549.51 3222.22 68.54 5.00  60.18 2991.64
   23:16:40.040.08-May-2021 4549.51 3230.09 68.54 5.00  60.38 2991.64
   23:16:40.240.08-May-2021 4549.51 3233.10 68.54 5.00  60.58 2991.64
   23:16:40.439.08-May-2021 4549.51 3235.58 68.54 5.00  60.78 2991.64
   23:16:40.639.08-May-2021 4549.51 3237.69 68.54 5.00  60.98 2991.64
   23:16:40.839.08-May-2021 4549.51 3237.69 68.54 5.00  61.18 2991.64
   23:16:41.039.08-May-2021 4549.51 3240.76 68.54 5.00  61.38 2991.64
   23:16:41.239.08-May-2021 4549.51 3243.09 68.54 5.00  61.58 2991.64
   23:16:41.439.08-May-2021 4549.51 3246.49 68.55 5.00  61.78 2991.64
   23:16:41.639.08-May-2021 4549.51 3248.13 68.55 5.00  61.98 2991.64
   23:16:41.839.08-May-2021 4549.51 3248.13 68.55 5.00  62.18 2991.64
   23:16:42.039.08-May-2021 4549.51 3248.23 68.55 5.00  62.38 2991.64
   23:16:42.239.08-May-2021 4549.51 3248.19 68.55 5.00  62.58 2991.64
   23:16:42.439.08-May-2021 4549.51 3248.25 68.55 5.00  62.78 2991.64
   23:16:42.639.08-May-2021 4549.51 3248.27 68.55 5.00  62.98 2991.64
   23:16:42.839.08-May-2021 4549.51 3248.27 68.55 5.00  63.18 2991.64
   23:16:43.039.08-May-2021 4549.51 3248.38 68.55 5.00  63.38 2991.64
   23:16:43.239.08-May-2021 4549.51 3248.33 68.55 5.00  63.58 2991.64
   23:16:43.439.08-May-2021 4549.51 3248.37 68.55 5.00  63.78 2991.64
   23:16:43.638.08-May-2021 4549.51 3248.41 68.55 5.00  63.98 2991.64
   23:16:43.838.08-May-2021 4549.51 3248.41 68.55 5.00  64.18 2991.64
   23:16:44.038.08-May-2021 4549.51 3248.48 68.55 5.00  64.38 2991.64
   23:16:44.238.08-May-2021 4549.51 3248.42 68.56 5.00  64.58 2991.64
   23:16:44.438.08-May-2021 4549.51 3248.47 68.56 5.00  64.78 2991.64
   23:16:44.638.08-May-2021 4549.51 3248.49 68.56 5.00  64.98 2991.64
   23:16:44.838.08-May-2021 4549.51 3248.49 68.56 5.00  65.18 2991.64
   23:16:45.038.08-May-2021 4549.51 3248.50 68.56 5.00  65.38 2991.64
   23:16:45.238.08-May-2021 4549.51 3248.53 68.56 5.00  65.58 2991.64
   23:16:45.438.08-May-2021 4549.51 3248.53 68.56 5.00  65.78 2991.64
   23:16:45.638.08-May-2021 4549.51 3248.54 68.56 5.00  65.98 2991.64
   23:16:45.838.08-May-2021 4549.51 3248.54 68.56 5.00  66.18 2991.64
   23:16:46.038.08-May-2021 4549.51 3248.57 68.56 5.00  66.38 2991.64
   23:16:46.238.08-May-2021 4549.51 3248.58 68.56 5.00  66.58 2991.64
   23:16:46.438.08-May-2021 4549.51 3248.58 68.56 5.00  66.78 2991.64
   23:16:46.638.08-May-2021 4549.51 3248.65 68.56 5.00  66.98 2991.64
   23:16:46.837.08-May-2021 4549.51 3248.65 68.56 5.00  67.18 2991.64
   23:16:47.037.08-May-2021 4549.51 3248.62 68.56 5.00  67.38 2991.64
   23:16:47.237.08-May-2021 4549.51 3248.64 68.56 5.00  67.58 2991.64
   23:16:47.437.08-May-2021 4549.51 3248.63 68.56 5.00  67.78 2991.64
   23:16:47.637.08-May-2021 4549.51 3248.65 68.56 5.00  67.98 2991.64
   23:16:47.837.08-May-2021 4549.51 3248.65 68.56 5.00  68.18 2991.64
   23:16:48.037.08-May-2021 4549.51 3248.66 68.56 5.00  68.38 2991.64
   23:16:48.237.08-May-2021 4549.51 3248.66 68.56 5.00  68.58 2991.64
   23:16:48.437.08-May-2021 4549.51 3248.67 68.56 5.00  68.78 2991.64
