~Version Information
 VERS.                  2.0:   CWLS log ASCII Standard -VERSION 2.0
 WRAP.                   NO:   One line per depth step
~Well Information Block
#MNEM.UNIT     VALUE/NAME     DESCRIPTION
#---------     -----------    ---------------------------
 STRT.S             20:19:26 08-May-21: START TIME 20:19:26 08-May-21
 STOP.S             20:26:06 08-May-21: STOP TIME  20:26:06 08-May-21
 STEP.S                   0.00: STEP TIME
 NULL.                 -999.25: NULL VALUE
 PROV.                    Baku:  PROVINCE
 STAT.                    Baku:  STATE NAME
 SON .        AZ-XX-0906571588:  JOB NUMBER
 WTYP.                Deviated:  WELL TYPE
 COMP.     BP Exploration (Caspian Sea) ltd:  COMPANY
 BASE.              Azerbaijan:  LOGGING EQUIPMENT BASE LOCATION
 REGN.                   EESSA:  REGION
 CTRY.              Azerbaijan:  COUNTRY NAME
 FLD .                     ACG:  FIELD NAME
 WELL.                     J28:  WELL NAME
 RIG .             West Chirag:  RIG NAME
 DMF .             Drill Floor:  DRILL MEAS FROM
 PDAT.       Caspian Sea Level:  PERMANENT DATUM
 HPTY.       Minimum Curvature:  HOLE POS TYPE
 MDS .        Operator Entered:  MAG DATA SOURCE
 NREF.                    Grid:  NORTH REFERENCE
 SRVC.          TURAN DRILLING:  CONTRACTOR
 JOBN.        AZ-XX-0906571588:  JOB TICKET NUMB
 DCON.     Halliburton Sperry Drilling:  DIRECTNL CONTR
 STIM.      00.44.00 11-Feb-21:  START TIME
 DATE.      00.00.00 05-May-21:  END TIME
 SPUD.               13-Feb-21:  SPUD DATE
 MWDS.                    Baku:  MWD SHOP
 DOE .                     N/A:  DOE NUMBER
 UNIT.                     N/A:  LOGGING EQUIPMENT ID
 UWI .                     N/A:  UNIQUE WELL IDENTIFIER
 API .                     N/A:  API NUMBER
 CNTY.                        :  COUNTY
 LOC .                        :  LOCATION
 LMF .             Drill Floor:  LOG MEASURED FROM
 TVDS.m                  43.00:  TVDSS CORRECTN
 SDEP.m                 341.00:  START DEPTH
 EGL .m                   0.00:  GROUND ELEVATION
 WDMS.m                 169.80:  WD ELEV
 AGAP.m                  43.00:  AIR GAP
 EPD .m                   0.00:  ELEVATION
 APD .m                  43.00:  DEPTH ABOVE PD
 LATI.deg                40.13:  LATITUDE
 LONG.deg                51.22:  LONGITUDE
 UTMY.m             4443793.85:  UTM Y
 UTMX.m              519005.06:  UTM X
 WHEW.m                 -11.57:  WELL HEAD E/W
 WHNS.m                   8.57:  WELL HEAD N/S
 VSEW.m                 -11.57:  VERT SEC E/W
 VSNS.m                   8.57:  VERT SEC N/S
 DFWL.m                   0.00:  DISTANCE FWL
 DFSL.m                   0.00:  DISTANCE FSL
 VSDR.deg               299.34:  VERT SEC DIRECT
 GVFD.g                   1.00:  GRAVITY FIELD
 AZTC.deg                 6.36:  AZM TOTAL CORR
 MFLD.nT              50391.00:  MAGNETIC FIELD
 MDIP.deg                59.65:  MAGNETIC DIP
 MDEC.deg                 6.48:  MAGNETIC DECL
 GRDC.deg                 0.12:  GRID CORRECTION
 DEP .m                 334.96:  DEPTH
 TDD .m                1407.26:  TOTAL DEPTH (DRILLER)
 EKB .m                  43.00:  KB ELEVATION
 EDF .m                  43.00:  DF ELEVATION
 TDL .m                 228.00:  TOTAL DEPTH (LOGGER)
 VSC .                       0:  VS TO CLOSURE
 MAGU.                 1854484:  MAGUTM CHECKSUM
~Parameter Information Block
#MNEM.UNIT       Value        Description
#---------     -----------    ---------------------------
 AV  .mps                 4.00:  Ann Velocity 
 AVMX.mps                 4.73:  Max Ann Veloc 
 AZIF.deg               304.48:  Azm, Final 
 BHAT.        Rotary Steerable:  BHA Type 
 BREV.rev            257300.00:  Rev Bit Total 
 BROT.°/30m               0.00:  Build Rotating 
 BS  .in                  8.50:  Bit Size 
 BSZ .in                  8.50:  Bit Size 
 BTPL.psig              589.00:  Bit Press Loss 
 CABU.                      No:  Customer Abuse 
 CGEO.          Mubariz ghayev:  Customer Geo 
 COMM.                     $w`:  Run Comments 1 
 TCS .hr                 64.25:  Time Ciculation Ended 
 CV  .mps                 3.50:  Crit Velocity 
 CVMX.mps                 4.52:  Max Crit Veloc 
 DD1 .             Aziz Aliyev:  Direct Drillr 1 
 DD2 .         Intigam Rahimov:  Direct Drillr 2 
 DD3 .          Rashad Habibov:  Direct Drillr 3 
 DDSV.               Geo-Pilot:  DD Service 
 DEFF.%                  98.00:  % Det Eff 
 DLRX.°/30m               0.00:  Dogleg Rot Max 
 DLSO.°/30m               0.00:  Dogleg Oriented 
 DLSX.°/30m               0.00:  Dogleg Str Max 
 DRET.      10.45.04 08-May-21:  Drill End Time 
 DRST.      03.30.04 04-May-21:  Drill Start Tim 
 DTIM.hr                 14.97:  Time Drilling 
 EDEP.m                4640.01:  End Depth 
 ENG1.         Dail Mahammadov:  Engineer 1 
 ENG2.           Eldar Hajiyev:  Engineer 2 
 ENG3.       Bakhtiar Jabbarli:  Engineer 3 
 ENG4.       Natik Hasanagayev:  Engineer 4 
 ETIM.      09.30.04 14-May-21:  End Time 
 FLOI.gpm               460.00:  Flow In 
 FLON.gpm               200.00:  Flow In Min 
 FLOS.cptm                0.00:  Fluid Loss 
 FLOX.gpm               505.00:  Flow In Max 
 HFLO.                      No:  High Flow 
 HPRE.                      No:  High Pressure 
 HTEM.                      No:  High Temp 
 HYDO.m                   1.80:  Hydro Offset 
 IFIN.deg                66.71:  Inc, Final 
 IMAX.deg                67.03:  Inc Max 
 IMIN.deg                66.63:  Inc Min 
 IMND.m                4550.58:  Inc Min Depth 
 IMXD.m                4439.01:  Inc Max Depth 
 JARR.                      No:  Jarring 
 LETM.      10.45.04 08-May-21:  Log End Time 
 LOST.hr                     0:  Lost Rig Time 
 LSTM.      03.30.04 04-May-21:  Log Start Time 
 MDCL.ppm             37000.00:  Mud Chlorides 
 MDES.     Inversion Oil/Synthetic:  Mud Desc 
 DFD .sg                  1.38:  Mud Density 
 MDMN.sg                  1.35:  Dens Mud Min 
 MDMX.sg                  1.40:  Dens Mud Max 
 MOIL.                   57.40:  Run Mud Oil % 
 MOWR.                   70:30:  Run Mud OWR 
 MSND.                    0.00:  Run Mud Sand % 
 MSOL.                   18.00:  Run Mud Solids% 
 DFV .spqt               71.00:  Mud Viscosity 
 MWOD.in                  6.75:  MWD Tool OD 
 MWSI.                      No:  Serv Intrp, MWD 
 OTIM.hr                242.76:  Time Operating 
 PCON.           Look Like New:  Pad Condition 
 PMAX.psia            12183.92:  Press Op, Max 
 PV  .cP                 27.00:  Mud PV 
 RUN .                    1300:  Run Number 
 ROPA.m/hr               15.00:  ROP Avg 
 ROPN.m/hr                9.00:  ROP Min 
 ROPX.m/hr               19.00:  ROP Max 
 RPMA.rpm               120.00:  RPM Surface Avg 
 RPMN.rpm               100.00:  RPM Surface Min 
 RPMX.rpm               120.00:  RPM Surface Max 
 RRUN.                    1300:  Rig Run Number 
 RTIM.hr                  5.00:  Time Reaming 
 SAZI.deg               304.73:  Azm, Start 
 SDEP.m                4412.01:  Start Depth 
 SIDD.                      No:  Serv Intrp, DD 
 SINC.deg                66.82:  Inc, Start 
 SPPA.psig             2800.00:  SPP Avg 
 SPPN.psig             2610.00:  SPP Min 
 SPPX.psig             3100.00:  SPP Max 
 STIM.      03.30.00 04-May-21:  Start Time 
 SVCS.                 DD, MWD:  Services 
 SVER.                    9.20:  Sperry Version 
 TDAT.m                 228.00:  Tot Depth Attmp 
 TDDF.                      No:  Trip for DD 
 TDLG.m                 228.00:  Tot Depth Loggd 
 TFF .                      No:  Trip for Fail 
 TQAA.f-kp               15.00:  Torque Abs Avg 
 TQAN.f-kp               12.00:  Torque Abs Min 
 TQAX.f-kp               22.00:  Torque Abs Max 
 TRRT.°/30m               0.00:  Turn Rotating 
 MRT .                    HCIM:  Maximum Recorded Temperature 
 TTMX.degC               90.20:  Max Tool Temp 
 VS01.                90627813:  Virtual Str1 SN 
 VS02.                90634712:  Virtual Str2 SN 
 VS03.                90643410:  Virtual Str3 SN 
 VS04.                90634712:  Virtual Str4 SN 
 WBMN.klb                 9.00:  WOB Min 
 WITN.        Elmaddin Rahimov:  Customer Rep 
 WITN.         Haytham Mostafa:  Customer Rep 2 
 WOBA.klb                15.00:  WOB Avg 
 WOBX.klb                23.00:  WOB Max 
 YP  .lhf2               29.00:  Yield Point 
~Curve Information Block
#MNEM.UNIT                 API CODE     Curve Description
#---------               -----------    ---------------------------
 TIME.HHMMSS            00 000 000 000:  GT Time & Date
 GTDEPTH.m              00 000 000 000:  GT Depth
 GTPQH.psia             00 000 000 000:  GT HR Quartz Pressure
 GTTQ.degC              00 000 000 000:  GT Quartz Temperature
 GTTN.NONE              00 000 000 000:  GT Test Number
 GTET.sec               00 000 000 000:  GT Elapsed Test Time
 GTTVD.m                00 000 000 000:  GT True Vertical Depth
#Other Information
#
#WARRANTY: Halliburton will use its best efforts to furnish customers with 
#accurate information and interpretations that are part of, and incident to, the services 
#provided.  However, Halliburton cannot and does not warrant the accuracy 
#or correctness of such information and interpretations.  Under no circumstances should any 
#such information or interpretation be relied upon as the sole basis for any drilling, 
#completion, production, or financial decision or any procedure involving any risk to the 
#safety of any drilling venture, drilling rig or its crew or any other third party.  The 
#Customer has full responsibility for all drilling, completion and production operation.  
#Halliburton makes no representations or warranties, either expressed or 
#implied, including, but not limited to, the implied warranties of merchantability or fitness 
#for a particular purpose, with respect to the services rendered.  In no event will 
#Halliburton be liable for failure to obtain any particular results or for 
#any damages, including, but not limited to, indirect, special or consequential damages, 
#resulting from the use of any information or interpretation provided by Halliburton.
#
~A           TIME           GTDEPTH  GTPQH  GTTQ  GTTN  GTET   GTTVD  
# ...
   20:21:44.552.08-May-2021 4592.01 2419.48 69.12 1.00 138.01 3008.50
   20:21:44.752.08-May-2021 4592.01 2419.48 69.12 1.00 138.21 3008.50
   20:21:44.952.08-May-2021 4592.01 2422.75 69.12 1.00 138.41 3008.50
   20:21:45.152.08-May-2021 4592.01 2423.83 69.12 1.00 138.61 3008.50
   20:21:45.352.08-May-2021 4592.01 2426.09 69.12 1.00 138.81 3008.50
   20:21:45.552.08-May-2021 4592.01 2427.53 69.12 1.00 139.01 3008.50
   20:21:45.752.08-May-2021 4592.01 2427.53 69.12 1.00 139.21 3008.50
   20:21:45.952.08-May-2021 4592.01 2430.60 69.12 1.00 139.41 3008.50
   20:21:46.152.08-May-2021 4592.01 2432.19 69.12 1.00 139.61 3008.50
   20:21:46.352.08-May-2021 4592.01 2433.75 69.12 1.00 139.81 3008.50
   20:21:46.552.08-May-2021 4592.01 2435.32 69.12 1.00 140.01 3008.50
   20:21:46.753.08-May-2021 4592.01 2435.32 69.12 1.00 140.21 3008.50
   20:21:46.953.08-May-2021 4592.01 2438.42 69.12 1.00 140.41 3008.50
   20:21:47.153.08-May-2021 4592.01 2439.80 69.12 1.00 140.61 3008.50
   20:21:47.353.08-May-2021 4592.01 2441.36 69.12 1.00 140.81 3008.50
   20:21:47.553.08-May-2021 4592.01 2443.25 69.12 1.00 141.01 3008.50
   20:21:47.753.08-May-2021 4592.01 2443.25 69.12 1.00 141.21 3008.50
   20:21:47.953.08-May-2021 4592.01 2448.01 69.12 1.00 141.41 3008.50
   20:21:48.153.08-May-2021 4592.01 2449.71 69.12 1.00 141.61 3008.50
   20:21:48.353.08-May-2021 4592.01 2451.79 69.12 1.00 141.81 3008.50
   20:21:48.553.08-May-2021 4592.01 2453.35 69.12 1.00 142.01 3008.50
   20:21:48.753.08-May-2021 4592.01 2453.35 69.12 1.00 142.21 3008.50
   20:21:48.953.08-May-2021 4592.01 2457.46 69.12 1.00 142.41 3008.50
   20:21:49.153.08-May-2021 4592.01 2459.36 69.12 1.00 142.61 3008.50
   20:21:49.353.08-May-2021 4592.01 2459.21 69.12 1.00 142.81 3008.50
   20:21:49.553.08-May-2021 4592.01 2258.20 69.12 1.00 143.01 3008.50
   20:21:49.753.08-May-2021 4592.01 2258.20 69.12 1.00 143.21 3008.50
   20:21:49.953.08-May-2021 4592.01 1030.97 69.12 1.00 143.41 3008.50
   20:21:50.153.08-May-2021 4592.01  859.81 69.12 1.00 143.61 3008.50
   20:21:50.353.08-May-2021 4592.01  811.53 69.12 1.00 143.81 3008.50
   20:21:50.553.08-May-2021 4592.01  827.51 69.12 1.00 144.01 3008.50
   20:21:50.753.08-May-2021 4592.01  827.51 69.12 1.00 144.21 3008.50
   20:21:50.953.08-May-2021 4592.01  922.13 69.12 1.00 144.41 3008.50
   20:21:51.153.08-May-2021 4592.01  857.71 69.11 1.00 144.61 3008.50
   20:21:51.353.08-May-2021 4592.01  807.62 69.11 1.00 144.81 3008.50
   20:21:51.553.08-May-2021 4592.01  797.63 69.11 1.00 145.01 3008.50
   20:21:51.753.08-May-2021 4592.01  797.63 69.11 1.00 145.22 3008.50
   20:21:51.953.08-May-2021 4592.01  768.25 69.11 1.00 145.42 3008.50
   20:21:52.153.08-May-2021 4592.01  764.03 69.11 1.00 145.62 3008.50
   20:21:52.353.08-May-2021 4592.01  771.19 69.11 1.00 145.82 3008.50
   20:21:52.553.08-May-2021 4592.01  777.86 69.11 1.00 146.02 3008.50
   20:21:52.753.08-May-2021 4592.01  777.86 69.11 1.00 146.22 3008.50
   20:21:52.953.08-May-2021 4592.01  778.16 69.11 1.00 146.42 3008.50
   20:21:53.153.08-May-2021 4592.01  760.37 69.10 1.00 146.62 3008.50
   20:21:53.353.08-May-2021 4592.01  764.13 69.10 1.00 146.82 3008.50
   20:21:53.553.08-May-2021 4592.01  790.32 69.10 1.00 147.02 3008.50
   20:21:53.753.08-May-2021 4592.01  790.32 69.10 1.00 147.22 3008.50
   20:21:53.953.08-May-2021 4592.01  820.19 69.10 1.00 147.42 3008.50
   20:21:54.153.08-May-2021 4592.01  807.68 69.10 1.00 147.62 3008.50
   20:21:54.353.08-May-2021 4592.01  790.54 69.10 1.00 147.82 3008.50
   20:21:54.553.08-May-2021 4592.01  779.49 69.10 1.00 148.02 3008.50
   20:21:54.753.08-May-2021 4592.01  779.49 69.10 1.00 148.22 3008.50
   20:21:54.953.08-May-2021 4592.01  765.70 69.10 1.00 148.42 3008.50
   20:21:55.153.08-May-2021 4592.01  764.49 69.09 1.00 148.62 3008.50
   20:21:55.353.08-May-2021 4592.01  756.08 69.09 1.00 148.82 3008.50
   20:21:55.553.08-May-2021 4592.01  751.22 69.09 1.00 149.02 3008.50
   20:21:55.753.08-May-2021 4592.01  751.22 69.09 1.00 149.22 3008.50
   20:21:55.953.08-May-2021 4592.01  747.81 69.09 1.00 149.42 3008.50
   20:21:56.153.08-May-2021 4592.01  748.91 69.09 1.00 149.62 3008.50
   20:21:56.354.08-May-2021 4592.01  748.88 69.09 1.00 149.82 3008.50
   20:21:56.554.08-May-2021 4592.01  743.44 69.09 1.00 150.02 3008.50
   20:21:56.754.08-May-2021 4592.01  743.44 69.09 1.00 150.22 3008.50
   20:21:56.954.08-May-2021 4592.01  753.16 69.09 1.00 150.42 3008.50
   20:21:57.154.08-May-2021 4592.01  757.88 69.09 1.00 150.62 3008.50
   20:21:57.354.08-May-2021 4592.01  742.98 69.08 1.00 150.82 3008.50
   20:21:57.554.08-May-2021 4592.01  741.86 69.08 1.00 151.02 3008.50
   20:21:57.754.08-May-2021 4592.01  741.86 69.08 1.00 151.22 3008.50
   20:21:57.954.08-May-2021 4592.01  740.31 69.08 1.00 151.42 3008.50
   20:21:58.154.08-May-2021 4592.01  739.73 69.08 1.00 151.62 3008.50
   20:21:58.354.08-May-2021 4592.01  743.93 69.08 1.00 151.82 3008.50
   20:21:58.554.08-May-2021 4592.01  750.07 69.08 1.00 152.02 3008.50
   20:21:58.754.08-May-2021 4592.01  750.07 69.08 1.00 152.22 3008.50
   20:21:58.954.08-May-2021 4592.01  763.18 69.08 1.00 152.42 3008.50
   20:21:59.154.08-May-2021 4592.01  764.14 69.08 1.00 152.62 3008.50
   20:21:59.354.08-May-2021 4592.01  763.05 69.08 1.00 152.82 3008.50
   20:21:59.554.08-May-2021 4592.01  764.78 69.08 1.00 153.02 3008.50
   20:21:59.754.08-May-2021 4592.01  764.78 69.08 1.00 153.22 3008.50
   20:21:59.954.08-May-2021 4592.01  780.13 69.08 1.00 153.42 3008.50
   20:22:00.154.08-May-2021 4592.01  790.17 69.08 1.00 153.62 3008.50
   20:22:00.354.08-May-2021 4592.01  798.45 69.08 1.00 153.82 3008.50
   20:22:00.554.08-May-2021 4592.01  804.37 69.08 1.00 154.02 3008.50
   20:22:00.754.08-May-2021 4592.01  804.37 69.08 1.00 154.22 3008.50
   20:22:00.954.08-May-2021 4592.01  815.98 69.08 1.00 154.42 3008.50
   20:22:01.154.08-May-2021 4592.01  821.62 69.08 1.00 154.62 3008.50
   20:22:01.354.08-May-2021 4592.01  826.62 69.08 1.00 154.82 3008.50
   20:22:01.554.08-May-2021 4592.01  832.64 69.08 1.00 155.02 3008.50
   20:22:01.754.08-May-2021 4592.01  832.64 69.08 1.00 155.22 3008.50
   20:22:01.954.08-May-2021 4592.01  845.03 69.08 1.00 155.42 3008.50
   20:22:02.154.08-May-2021 4592.01  850.20 69.07 1.00 155.62 3008.50
   20:22:02.354.08-May-2021 4592.01  855.37 69.07 1.00 155.82 3008.50
   20:22:02.554.08-May-2021 4592.01  860.33 69.07 1.00 156.02 3008.50
   20:22:02.754.08-May-2021 4592.01  860.33 69.07 1.00 156.22 3008.50
   20:22:02.954.08-May-2021 4592.01  869.99 69.07 1.00 156.42 3008.50
   20:22:03.154.08-May-2021 4592.01  874.60 69.07 1.00 156.62 3008.50
   20:22:03.354.08-May-2021 4592.01  879.12 69.07 1.00 156.82 3008.50
   20:22:03.554.08-May-2021 4592.01  883.52 69.07 1.00 157.02 3008.50
   20:22:03.754.08-May-2021 4592.01  883.52 69.07 1.00 157.22 3008.50
   20:22:03.954.08-May-2021 4592.01  891.55 69.07 1.00 157.42 3008.50
   20:22:04.154.08-May-2021 4592.01  896.77 69.07 1.00 157.62 3008.50
   20:22:04.354.08-May-2021 4592.01  900.51 69.07 1.00 157.82 3008.50
   20:22:04.554.08-May-2021 4592.01  905.26 69.07 1.00 158.02 3008.50
   20:22:04.754.08-May-2021 4592.01  905.26 69.07 1.00 158.22 3008.50
   20:22:04.954.08-May-2021 4592.01  913.53 69.07 1.00 158.42 3008.50
   20:22:05.154.08-May-2021 4592.01  917.55 69.07 1.00 158.62 3008.50
   20:22:05.354.08-May-2021 4592.01  921.57 69.07 1.00 158.82 3008.50
   20:22:05.554.08-May-2021 4592.01  925.50 69.07 1.00 159.02 3008.50
   20:22:05.754.08-May-2021 4592.01  925.50 69.07 1.00 159.22 3008.50
   20:22:05.955.08-May-2021 4592.01  933.15 69.07 1.00 159.42 3008.50
   20:22:06.155.08-May-2021 4592.01  936.93 69.07 1.00 159.62 3008.50
   20:22:06.355.08-May-2021 4592.01  940.61 69.07 1.00 159.82 3008.50
   20:22:06.555.08-May-2021 4592.01  943.81 69.07 1.00 160.02 3008.50
   20:22:06.755.08-May-2021 4592.01  943.81 69.07 1.00 160.22 3008.50
   20:22:06.955.08-May-2021 4592.01  951.53 69.07 1.00 160.42 3008.50
   20:22:07.155.08-May-2021 4592.01  955.34 69.07 1.00 160.62 3008.50
   20:22:07.355.08-May-2021 4592.01  959.01 69.07 1.00 160.82 3008.50
