~Version Information
 VERS.                  2.0:   CWLS log ASCII Standard -VERSION 2.0
 WRAP.                   NO:   One line per depth step
~Well Information Block
#MNEM.UNIT     VALUE/NAME     DESCRIPTION
#---------     -----------    ---------------------------
 STRT.S             20:19:26 08-May-21: START TIME 20:19:26 08-May-21
 STOP.S             20:26:06 08-May-21: STOP TIME  20:26:06 08-May-21
 STEP.S                   0.00: STEP TIME
 NULL.                 -999.25: NULL VALUE
 PROV.                    Baku:  PROVINCE
 STAT.                    Baku:  STATE NAME
 SON .        AZ-XX-0906571588:  JOB NUMBER
 WTYP.                Deviated:  WELL TYPE
 COMP.     BP Exploration (Caspian Sea) ltd:  COMPANY
 BASE.              Azerbaijan:  LOGGING EQUIPMENT BASE LOCATION
 REGN.                   EESSA:  REGION
 CTRY.              Azerbaijan:  COUNTRY NAME
 FLD .                     ACG:  FIELD NAME
 WELL.                     J28:  WELL NAME
 RIG .             West Chirag:  RIG NAME
 DMF .             Drill Floor:  DRILL MEAS FROM
 PDAT.       Caspian Sea Level:  PERMANENT DATUM
 HPTY.       Minimum Curvature:  HOLE POS TYPE
 MDS .        Operator Entered:  MAG DATA SOURCE
 NREF.                    Grid:  NORTH REFERENCE
 SRVC.          TURAN DRILLING:  CONTRACTOR
 JOBN.        AZ-XX-0906571588:  JOB TICKET NUMB
 DCON.     Halliburton Sperry Drilling:  DIRECTNL CONTR
 STIM.      00.44.00 11-Feb-21:  START TIME
 DATE.      00.00.00 05-May-21:  END TIME
 SPUD.               13-Feb-21:  SPUD DATE
 MWDS.                    Baku:  MWD SHOP
 DOE .                     N/A:  DOE NUMBER
 UNIT.                     N/A:  LOGGING EQUIPMENT ID
 UWI .                     N/A:  UNIQUE WELL IDENTIFIER
 API .                     N/A:  API NUMBER
 CNTY.                        :  COUNTY
 LOC .                        :  LOCATION
 LMF .             Drill Floor:  LOG MEASURED FROM
 TVDS.m                  43.00:  TVDSS CORRECTN
 SDEP.m                 341.00:  START DEPTH
 EGL .m                   0.00:  GROUND ELEVATION
 WDMS.m                 169.80:  WD ELEV
 AGAP.m                  43.00:  AIR GAP
 EPD .m                   0.00:  ELEVATION
 APD .m                  43.00:  DEPTH ABOVE PD
 LATI.deg                40.13:  LATITUDE
 LONG.deg                51.22:  LONGITUDE
 UTMY.m             4443793.85:  UTM Y
 UTMX.m              519005.06:  UTM X
 WHEW.m                 -11.57:  WELL HEAD E/W
 WHNS.m                   8.57:  WELL HEAD N/S
 VSEW.m                 -11.57:  VERT SEC E/W
 VSNS.m                   8.57:  VERT SEC N/S
 DFWL.m                   0.00:  DISTANCE FWL
 DFSL.m                   0.00:  DISTANCE FSL
 VSDR.deg               299.34:  VERT SEC DIRECT
 GVFD.g                   1.00:  GRAVITY FIELD
 AZTC.deg                 6.36:  AZM TOTAL CORR
 MFLD.nT              50391.00:  MAGNETIC FIELD
 MDIP.deg                59.65:  MAGNETIC DIP
 MDEC.deg                 6.48:  MAGNETIC DECL
 GRDC.deg                 0.12:  GRID CORRECTION
 DEP .m                 334.96:  DEPTH
 TDD .m                1407.26:  TOTAL DEPTH (DRILLER)
 EKB .m                  43.00:  KB ELEVATION
 EDF .m                  43.00:  DF ELEVATION
 TDL .m                 228.00:  TOTAL DEPTH (LOGGER)
 VSC .                       0:  VS TO CLOSURE
 MAGU.                 1854484:  MAGUTM CHECKSUM
~Parameter Information Block
#MNEM.UNIT       Value        Description
#---------     -----------    ---------------------------
 AV  .mps                 4.00:  Ann Velocity 
 AVMX.mps                 4.73:  Max Ann Veloc 
 AZIF.deg               304.48:  Azm, Final 
 BHAT.        Rotary Steerable:  BHA Type 
 BREV.rev            257300.00:  Rev Bit Total 
 BROT.°/30m               0.00:  Build Rotating 
 BS  .in                  8.50:  Bit Size 
 BSZ .in                  8.50:  Bit Size 
 BTPL.psig              589.00:  Bit Press Loss 
 CABU.                      No:  Customer Abuse 
 CGEO.          Mubariz ghayev:  Customer Geo 
 COMM.                     $w`:  Run Comments 1 
 TCS .hr                 64.25:  Time Ciculation Ended 
 CV  .mps                 3.50:  Crit Velocity 
 CVMX.mps                 4.52:  Max Crit Veloc 
 DD1 .             Aziz Aliyev:  Direct Drillr 1 
 DD2 .         Intigam Rahimov:  Direct Drillr 2 
 DD3 .          Rashad Habibov:  Direct Drillr 3 
 DDSV.               Geo-Pilot:  DD Service 
 DEFF.%                  98.00:  % Det Eff 
 DLRX.°/30m               0.00:  Dogleg Rot Max 
 DLSO.°/30m               0.00:  Dogleg Oriented 
 DLSX.°/30m               0.00:  Dogleg Str Max 
 DRET.      10.45.04 08-May-21:  Drill End Time 
 DRST.      03.30.04 04-May-21:  Drill Start Tim 
 DTIM.hr                 14.97:  Time Drilling 
 EDEP.m                4640.01:  End Depth 
 ENG1.         Dail Mahammadov:  Engineer 1 
 ENG2.           Eldar Hajiyev:  Engineer 2 
 ENG3.       Bakhtiar Jabbarli:  Engineer 3 
 ENG4.       Natik Hasanagayev:  Engineer 4 
 ETIM.      09.30.04 14-May-21:  End Time 
 FLOI.gpm               460.00:  Flow In 
 FLON.gpm               200.00:  Flow In Min 
 FLOS.cptm                0.00:  Fluid Loss 
 FLOX.gpm               505.00:  Flow In Max 
 HFLO.                      No:  High Flow 
 HPRE.                      No:  High Pressure 
 HTEM.                      No:  High Temp 
 HYDO.m                   1.80:  Hydro Offset 
 IFIN.deg                66.71:  Inc, Final 
 IMAX.deg                67.03:  Inc Max 
 IMIN.deg                66.63:  Inc Min 
 IMND.m                4550.58:  Inc Min Depth 
 IMXD.m                4439.01:  Inc Max Depth 
 JARR.                      No:  Jarring 
 LETM.      10.45.04 08-May-21:  Log End Time 
 LOST.hr                     0:  Lost Rig Time 
 LSTM.      03.30.04 04-May-21:  Log Start Time 
 MDCL.ppm             37000.00:  Mud Chlorides 
 MDES.     Inversion Oil/Synthetic:  Mud Desc 
 DFD .sg                  1.38:  Mud Density 
 MDMN.sg                  1.35:  Dens Mud Min 
 MDMX.sg                  1.40:  Dens Mud Max 
 MOIL.                   57.40:  Run Mud Oil % 
 MOWR.                   70:30:  Run Mud OWR 
 MSND.                    0.00:  Run Mud Sand % 
 MSOL.                   18.00:  Run Mud Solids% 
 DFV .spqt               71.00:  Mud Viscosity 
 MWOD.in                  6.75:  MWD Tool OD 
 MWSI.                      No:  Serv Intrp, MWD 
 OTIM.hr                242.76:  Time Operating 
 PCON.           Look Like New:  Pad Condition 
 PMAX.psia            12183.92:  Press Op, Max 
 PV  .cP                 27.00:  Mud PV 
 RUN .                    1300:  Run Number 
 ROPA.m/hr               15.00:  ROP Avg 
 ROPN.m/hr                9.00:  ROP Min 
 ROPX.m/hr               19.00:  ROP Max 
 RPMA.rpm               120.00:  RPM Surface Avg 
 RPMN.rpm               100.00:  RPM Surface Min 
 RPMX.rpm               120.00:  RPM Surface Max 
 RRUN.                    1300:  Rig Run Number 
 RTIM.hr                  5.00:  Time Reaming 
 SAZI.deg               304.73:  Azm, Start 
 SDEP.m                4412.01:  Start Depth 
 SIDD.                      No:  Serv Intrp, DD 
 SINC.deg                66.82:  Inc, Start 
 SPPA.psig             2800.00:  SPP Avg 
 SPPN.psig             2610.00:  SPP Min 
 SPPX.psig             3100.00:  SPP Max 
 STIM.      03.30.00 04-May-21:  Start Time 
 SVCS.                 DD, MWD:  Services 
 SVER.                    9.20:  Sperry Version 
 TDAT.m                 228.00:  Tot Depth Attmp 
 TDDF.                      No:  Trip for DD 
 TDLG.m                 228.00:  Tot Depth Loggd 
 TFF .                      No:  Trip for Fail 
 TQAA.f-kp               15.00:  Torque Abs Avg 
 TQAN.f-kp               12.00:  Torque Abs Min 
 TQAX.f-kp               22.00:  Torque Abs Max 
 TRRT.°/30m               0.00:  Turn Rotating 
 MRT .                    HCIM:  Maximum Recorded Temperature 
 TTMX.degC               90.20:  Max Tool Temp 
 VS01.                90627813:  Virtual Str1 SN 
 VS02.                90634712:  Virtual Str2 SN 
 VS03.                90643410:  Virtual Str3 SN 
 VS04.                90634712:  Virtual Str4 SN 
 WBMN.klb                 9.00:  WOB Min 
 WITN.        Elmaddin Rahimov:  Customer Rep 
 WITN.         Haytham Mostafa:  Customer Rep 2 
 WOBA.klb                15.00:  WOB Avg 
 WOBX.klb                23.00:  WOB Max 
 YP  .lhf2               29.00:  Yield Point 
~Curve Information Block
#MNEM.UNIT                 API CODE     Curve Description
#---------               -----------    ---------------------------
 TIME.HHMMSS            00 000 000 000:  GT Time & Date
 GTDEPTH.m              00 000 000 000:  GT Depth
 GTPQH.psia             00 000 000 000:  GT HR Quartz Pressure
 GTTQ.degC              00 000 000 000:  GT Quartz Temperature
 GTTN.NONE              00 000 000 000:  GT Test Number
 GTET.sec               00 000 000 000:  GT Elapsed Test Time
 GTTVD.m                00 000 000 000:  GT True Vertical Depth
#Other Information
#
#WARRANTY: Halliburton will use its best efforts to furnish customers with 
#accurate information and interpretations that are part of, and incident to, the services 
#provided.  However, Halliburton cannot and does not warrant the accuracy 
#or correctness of such information and interpretations.  Under no circumstances should any 
#such information or interpretation be relied upon as the sole basis for any drilling, 
#completion, production, or financial decision or any procedure involving any risk to the 
#safety of any drilling venture, drilling rig or its crew or any other third party.  The 
#Customer has full responsibility for all drilling, completion and production operation.  
#Halliburton makes no representations or warranties, either expressed or 
#implied, including, but not limited to, the implied warranties of merchantability or fitness 
#for a particular purpose, with respect to the services rendered.  In no event will 
#Halliburton be liable for failure to obtain any particular results or for 
#any damages, including, but not limited to, indirect, special or consequential damages, 
#resulting from the use of any information or interpretation provided by Halliburton.
#
~A           TIME           GTDEPTH  GTPQH  GTTQ  GTTN  GTET   GTTVD  
# ...
   20:23:16.562.08-May-2021 4592.01 1823.13 69.10 1.00 230.02 3008.50
   20:23:16.762.08-May-2021 4592.01 1823.13 69.10 1.00 230.22 3008.50
   20:23:16.962.08-May-2021 4592.01 1824.49 69.10 1.00 230.42 3008.50
   20:23:17.162.08-May-2021 4592.01 1827.48 69.11 1.00 230.62 3008.50
   20:23:17.362.08-May-2021 4592.01 1829.17 69.10 1.00 230.82 3008.50
   20:23:17.562.08-May-2021 4592.01 1830.72 69.10 1.00 231.02 3008.50
   20:23:17.762.08-May-2021 4592.01 1830.72 69.10 1.00 231.22 3008.50
   20:23:17.962.08-May-2021 4592.01 1833.36 69.11 1.00 231.42 3008.50
   20:23:18.162.08-May-2021 4592.01 1834.44 69.10 1.00 231.62 3008.50
   20:23:18.362.08-May-2021 4592.01 1836.54 69.11 1.00 231.82 3008.50
   20:23:18.562.08-May-2021 4592.01 1837.49 69.11 1.00 232.02 3008.50
   20:23:18.762.08-May-2021 4592.01 1837.49 69.11 1.00 232.22 3008.50
   20:23:18.962.08-May-2021 4592.01 1839.95 69.11 1.00 232.42 3008.50
   20:23:19.162.08-May-2021 4592.01 1842.42 69.11 1.00 232.62 3008.50
   20:23:19.362.08-May-2021 4592.01 1843.08 69.11 1.00 232.82 3008.50
   20:23:19.562.08-May-2021 4592.01 1844.92 69.11 1.00 233.02 3008.50
   20:23:19.762.08-May-2021 4592.01 1844.92 69.11 1.00 233.22 3008.50
   20:23:19.962.08-May-2021 4592.01 1847.44 69.11 1.00 233.42 3008.50
   20:23:20.162.08-May-2021 4592.01 1848.80 69.11 1.00 233.62 3008.50
   20:23:20.362.08-May-2021 4592.01 1850.11 69.11 1.00 233.82 3008.50
   20:23:20.562.08-May-2021 4592.01 1851.48 69.11 1.00 234.02 3008.50
   20:23:20.762.08-May-2021 4592.01 1851.48 69.11 1.00 234.22 3008.50
   20:23:20.962.08-May-2021 4592.01 1852.80 69.11 1.00 234.42 3008.50
   20:23:21.162.08-May-2021 4592.01 1855.50 69.11 1.00 234.62 3008.50
   20:23:21.362.08-May-2021 4592.01 1856.89 69.11 1.00 234.82 3008.50
   20:23:21.562.08-May-2021 4592.01 1857.84 69.11 1.00 235.02 3008.50
   20:23:21.762.08-May-2021 4592.01 1857.84 69.11 1.00 235.22 3008.50
   20:23:21.962.08-May-2021 4592.01 1860.74 69.11 1.00 235.42 3008.50
   20:23:22.162.08-May-2021 4592.01 1862.42 69.11 1.00 235.62 3008.50
   20:23:22.362.08-May-2021 4592.01 1863.71 69.11 1.00 235.82 3008.50
   20:23:22.562.08-May-2021 4592.01 1865.05 69.11 1.00 236.02 3008.50
   20:23:22.762.08-May-2021 4592.01 1865.05 69.11 1.00 236.22 3008.50
   20:23:22.962.08-May-2021 4592.01 1867.73 69.11 1.00 236.42 3008.50
   20:23:23.162.08-May-2021 4592.01 1869.08 69.11 1.00 236.62 3008.50
   20:23:23.363.08-May-2021 4592.01 1870.34 69.11 1.00 236.82 3008.50
   20:23:23.563.08-May-2021 4592.01 1871.69 69.11 1.00 237.02 3008.50
   20:23:23.763.08-May-2021 4592.01 1871.69 69.11 1.00 237.22 3008.50
   20:23:23.963.08-May-2021 4592.01 1874.28 69.11 1.00 237.42 3008.50
   20:23:24.163.08-May-2021 4592.01 1874.98 69.11 1.00 237.62 3008.50
   20:23:24.363.08-May-2021 4592.01 1877.29 69.11 1.00 237.82 3008.50
   20:23:24.563.08-May-2021 4592.01 1877.91 69.11 1.00 238.02 3008.50
   20:23:24.763.08-May-2021 4592.01 1877.91 69.11 1.00 238.22 3008.50
   20:23:24.963.08-May-2021 4592.01 1879.32 69.11 1.00 238.42 3008.50
   20:23:25.163.08-May-2021 4592.01 1882.32 69.11 1.00 238.62 3008.50
   20:23:25.363.08-May-2021 4592.01 1883.62 69.11 1.00 238.82 3008.50
   20:23:25.563.08-May-2021 4592.01 1884.57 69.11 1.00 239.02 3008.50
   20:23:25.763.08-May-2021 4592.01 1884.57 69.11 1.00 239.22 3008.50
   20:23:25.963.08-May-2021 4592.01 1887.63 69.11 1.00 239.42 3008.50
   20:23:26.163.08-May-2021 4592.01 1889.22 69.11 1.00 239.62 3008.50
   20:23:26.363.08-May-2021 4592.01 1890.35 69.11 1.00 239.82 3008.50
   20:23:26.563.08-May-2021 4592.01 1891.30 69.11 1.00 240.02 3008.50
   20:23:26.763.08-May-2021 4592.01 1891.30 69.11 1.00 240.22 3008.50
   20:23:26.963.08-May-2021 4592.01 1894.52 69.11 1.00 240.42 3008.50
   20:23:27.163.08-May-2021 4592.01 1895.93 69.11 1.00 240.62 3008.50
   20:23:27.363.08-May-2021 4592.01 1897.08 69.11 1.00 240.82 3008.50
   20:23:27.563.08-May-2021 4592.01 1898.47 69.11 1.00 241.02 3008.50
   20:23:27.763.08-May-2021 4592.01 1898.47 69.11 1.00 241.22 3008.50
   20:23:27.963.08-May-2021 4592.01 1901.02 69.11 1.00 241.42 3008.50
   20:23:28.163.08-May-2021 4592.01 1902.29 69.11 1.00 241.62 3008.50
   20:23:28.363.08-May-2021 4592.01 1903.53 69.11 1.00 241.83 3008.50
   20:23:28.563.08-May-2021 4592.01 1904.83 69.11 1.00 242.03 3008.50
   20:23:28.763.08-May-2021 4592.01 1904.83 69.11 1.00 242.23 3008.50
   20:23:28.963.08-May-2021 4592.01 1906.07 69.11 1.00 242.43 3008.50
   20:23:29.163.08-May-2021 4592.01 1908.27 69.11 1.00 242.63 3008.50
   20:23:29.363.08-May-2021 4592.01 1910.24 69.11 1.00 242.83 3008.50
   20:23:29.563.08-May-2021 4592.01 1911.25 69.11 1.00 243.03 3008.50
   20:23:29.763.08-May-2021 4592.01 1911.25 69.11 1.00 243.23 3008.50
   20:23:29.963.08-May-2021 4592.01 1913.82 69.11 1.00 243.43 3008.50
   20:23:30.163.08-May-2021 4592.01 1915.26 69.11 1.00 243.63 3008.50
   20:23:30.363.08-May-2021 4592.01 1916.51 69.11 1.00 243.83 3008.50
   20:23:30.563.08-May-2021 4592.01 1917.86 69.11 1.00 244.03 3008.50
   20:23:30.763.08-May-2021 4592.01 1917.86 69.11 1.00 244.23 3008.50
   20:23:30.963.08-May-2021 4592.01 1920.44 69.11 1.00 244.43 3008.50
   20:23:31.163.08-May-2021 4592.01 1921.74 69.11 1.00 244.63 3008.50
   20:23:31.363.08-May-2021 4592.01 1923.01 69.11 1.00 244.83 3008.50
   20:23:31.563.08-May-2021 4592.01 1924.29 69.11 1.00 245.03 3008.50
   20:23:31.763.08-May-2021 4592.01 1924.29 69.11 1.00 245.23 3008.50
   20:23:31.963.08-May-2021 4592.01 1926.88 69.11 1.00 245.43 3008.50
   20:23:32.163.08-May-2021 4592.01 1928.25 69.11 1.00 245.63 3008.50
   20:23:32.363.08-May-2021 4592.01 1929.29 69.11 1.00 245.83 3008.50
   20:23:32.563.08-May-2021 4592.01 1930.84 69.11 1.00 246.03 3008.50
   20:23:32.763.08-May-2021 4592.01 1930.84 69.11 1.00 246.23 3008.50
   20:23:32.963.08-May-2021 4592.01 1933.64 69.11 1.00 246.43 3008.50
   20:23:33.164.08-May-2021 4592.01 1934.77 69.11 1.00 246.63 3008.50
   20:23:33.364.08-May-2021 4592.01 1935.81 69.11 1.00 246.83 3008.50
   20:23:33.564.08-May-2021 4592.01 1937.52 69.11 1.00 247.03 3008.50
   20:23:33.764.08-May-2021 4592.01 1937.52 69.11 1.00 247.23 3008.50
   20:23:33.964.08-May-2021 4592.01 1940.06 69.11 1.00 247.43 3008.50
   20:23:34.164.08-May-2021 4592.01 1940.92 69.11 1.00 247.63 3008.50
   20:23:34.364.08-May-2021 4592.01 1942.84 69.11 1.00 247.83 3008.50
   20:23:34.564.08-May-2021 4592.01 1943.90 69.11 1.00 248.03 3008.50
   20:23:34.764.08-May-2021 4592.01 1943.90 69.11 1.00 248.23 3008.50
   20:23:34.964.08-May-2021 4592.01 1946.39 69.11 1.00 248.43 3008.50
   20:23:35.164.08-May-2021 4592.01 1947.70 69.11 1.00 248.63 3008.50
   20:23:35.364.08-May-2021 4592.01 1948.98 69.11 1.00 248.83 3008.50
   20:23:35.564.08-May-2021 4592.01 1950.22 69.11 1.00 249.03 3008.50
   20:23:35.764.08-May-2021 4592.01 1950.22 69.11 1.00 249.23 3008.50
   20:23:35.964.08-May-2021 4592.01 1952.66 69.11 1.00 249.43 3008.50
   20:23:36.164.08-May-2021 4592.01 1953.86 69.11 1.00 249.63 3008.50
   20:23:36.364.08-May-2021 4592.01 1953.87 69.11 1.00 249.83 3008.50
   20:23:36.564.08-May-2021 4592.01 1804.57 69.11 1.00 250.03 3008.50
   20:23:36.764.08-May-2021 4592.01 1804.57 69.11 1.00 250.23 3008.50
   20:23:36.964.08-May-2021 4592.01  876.34 69.11 1.00 250.43 3008.50
   20:23:37.164.08-May-2021 4592.01  811.14 69.11 1.00 250.63 3008.50
   20:23:37.364.08-May-2021 4592.01  787.45 69.11 1.00 250.83 3008.50
   20:23:37.564.08-May-2021 4592.01  772.24 69.11 1.00 251.03 3008.50
   20:23:37.764.08-May-2021 4592.01  772.24 69.11 1.00 251.23 3008.50
   20:23:37.964.08-May-2021 4592.01  765.19 69.11 1.00 251.43 3008.50
   20:23:38.164.08-May-2021 4592.01  760.82 69.11 1.00 251.63 3008.50
   20:23:38.364.08-May-2021 4592.01  759.22 69.10 1.00 251.83 3008.50
   20:23:38.564.08-May-2021 4592.01  756.93 69.10 1.00 252.03 3008.50
   20:23:38.764.08-May-2021 4592.01  756.93 69.10 1.00 252.23 3008.50
   20:23:38.964.08-May-2021 4592.01  808.35 69.10 1.00 252.43 3008.50
   20:23:39.164.08-May-2021 4592.01  797.38 69.10 1.00 252.63 3008.50
   20:23:39.364.08-May-2021 4592.01  867.85 69.10 1.00 252.83 3008.50
