~Version Information
 VERS.                  2.0:   CWLS log ASCII Standard -VERSION 2.0
 WRAP.                   NO:   One line per depth step
~Well Information Block
#MNEM.UNIT     VALUE/NAME     DESCRIPTION
#---------     -----------    ---------------------------
 STRT.S             01:50:25 10-May-21: START TIME 01:50:25 10-May-21
 STOP.S             01:58:33 10-May-21: STOP TIME  01:58:33 10-May-21
 STEP.S                   0.00: STEP TIME
 NULL.                 -999.25: NULL VALUE
 PROV.                    Baku:  PROVINCE
 STAT.                    Baku:  STATE NAME
 SON .        AZ-XX-0906571588:  JOB NUMBER
 WTYP.                Deviated:  WELL TYPE
 COMP.     BP Exploration (Caspian Sea) ltd:  COMPANY
 BASE.              Azerbaijan:  LOGGING EQUIPMENT BASE LOCATION
 REGN.                   EESSA:  REGION
 CTRY.              Azerbaijan:  COUNTRY NAME
 FLD .                     ACG:  FIELD NAME
 WELL.                     J28:  WELL NAME
 RIG .             West Chirag:  RIG NAME
 DMF .             Drill Floor:  DRILL MEAS FROM
 PDAT.       Caspian Sea Level:  PERMANENT DATUM
 HPTY.       Minimum Curvature:  HOLE POS TYPE
 MDS .        Operator Entered:  MAG DATA SOURCE
 NREF.                    Grid:  NORTH REFERENCE
 SRVC.          TURAN DRILLING:  CONTRACTOR
 JOBN.        AZ-XX-0906571588:  JOB TICKET NUMB
 DCON.     Halliburton Sperry Drilling:  DIRECTNL CONTR
 STIM.      00.44.00 11-Feb-21:  START TIME
 DATE.      00.00.00 05-May-21:  END TIME
 SPUD.               13-Feb-21:  SPUD DATE
 MWDS.                    Baku:  MWD SHOP
 DOE .                     N/A:  DOE NUMBER
 UNIT.                     N/A:  LOGGING EQUIPMENT ID
 UWI .                     N/A:  UNIQUE WELL IDENTIFIER
 API .                     N/A:  API NUMBER
 CNTY.                        :  COUNTY
 LOC .                        :  LOCATION
 LMF .             Drill Floor:  LOG MEASURED FROM
 TVDS.m                  43.00:  TVDSS CORRECTN
 SDEP.m                 341.00:  START DEPTH
 EGL .m                   0.00:  GROUND ELEVATION
 WDMS.m                 169.80:  WD ELEV
 AGAP.m                  43.00:  AIR GAP
 EPD .m                   0.00:  ELEVATION
 APD .m                  43.00:  DEPTH ABOVE PD
 LATI.deg                40.13:  LATITUDE
 LONG.deg                51.22:  LONGITUDE
 UTMY.m             4443793.85:  UTM Y
 UTMX.m              519005.06:  UTM X
 WHEW.m                 -11.57:  WELL HEAD E/W
 WHNS.m                   8.57:  WELL HEAD N/S
 VSEW.m                 -11.57:  VERT SEC E/W
 VSNS.m                   8.57:  VERT SEC N/S
 DFWL.m                   0.00:  DISTANCE FWL
 DFSL.m                   0.00:  DISTANCE FSL
 VSDR.deg               299.34:  VERT SEC DIRECT
 GVFD.g                   1.00:  GRAVITY FIELD
 AZTC.deg                 6.36:  AZM TOTAL CORR
 MFLD.nT              50391.00:  MAGNETIC FIELD
 MDIP.deg                59.65:  MAGNETIC DIP
 MDEC.deg                 6.48:  MAGNETIC DECL
 GRDC.deg                 0.12:  GRID CORRECTION
 DEP .m                 334.96:  DEPTH
 TDD .m                1407.26:  TOTAL DEPTH (DRILLER)
 EKB .m                  43.00:  KB ELEVATION
 EDF .m                  43.00:  DF ELEVATION
 TDL .m                 228.00:  TOTAL DEPTH (LOGGER)
 VSC .                       0:  VS TO CLOSURE
 MAGU.                 1854484:  MAGUTM CHECKSUM
~Parameter Information Block
#MNEM.UNIT       Value        Description
#---------     -----------    ---------------------------
 AV  .mps                 4.00:  Ann Velocity 
 AVMX.mps                 4.73:  Max Ann Veloc 
 AZIF.deg               304.48:  Azm, Final 
 BHAT.        Rotary Steerable:  BHA Type 
 BREV.rev            257300.00:  Rev Bit Total 
 BROT.°/30m               0.00:  Build Rotating 
 BS  .in                  8.50:  Bit Size 
 BSZ .in                  8.50:  Bit Size 
 BTPL.psig              589.00:  Bit Press Loss 
 CABU.                      No:  Customer Abuse 
 CGEO.          Mubariz ghayev:  Customer Geo 
 COMM.                     Í‚:  Run Comments 1 
 TCS .hr                 64.25:  Time Ciculation Ended 
 CV  .mps                 3.50:  Crit Velocity 
 CVMX.mps                 4.52:  Max Crit Veloc 
 DD1 .             Aziz Aliyev:  Direct Drillr 1 
 DD2 .         Intigam Rahimov:  Direct Drillr 2 
 DD3 .          Rashad Habibov:  Direct Drillr 3 
 DDSV.               Geo-Pilot:  DD Service 
 DEFF.%                  98.00:  % Det Eff 
 DLRX.°/30m               0.00:  Dogleg Rot Max 
 DLSO.°/30m               0.00:  Dogleg Oriented 
 DLSX.°/30m               0.00:  Dogleg Str Max 
 DRET.      10.45.04 08-May-21:  Drill End Time 
 DRST.      03.30.04 04-May-21:  Drill Start Tim 
 DTIM.hr                 14.97:  Time Drilling 
 EDEP.m                4640.01:  End Depth 
 ENG1.         Dail Mahammadov:  Engineer 1 
 ENG2.           Eldar Hajiyev:  Engineer 2 
 ENG3.       Bakhtiar Jabbarli:  Engineer 3 
 ENG4.       Natik Hasanagayev:  Engineer 4 
 ETIM.      09.30.04 14-May-21:  End Time 
 FLOI.gpm               460.00:  Flow In 
 FLON.gpm               200.00:  Flow In Min 
 FLOS.cptm                0.00:  Fluid Loss 
 FLOX.gpm               505.00:  Flow In Max 
 HFLO.                      No:  High Flow 
 HPRE.                      No:  High Pressure 
 HTEM.                      No:  High Temp 
 HYDO.m                   1.80:  Hydro Offset 
 IFIN.deg                66.71:  Inc, Final 
 IMAX.deg                67.03:  Inc Max 
 IMIN.deg                66.63:  Inc Min 
 IMND.m                4550.58:  Inc Min Depth 
 IMXD.m                4439.01:  Inc Max Depth 
 JARR.                      No:  Jarring 
 LETM.      10.45.04 08-May-21:  Log End Time 
 LOST.hr                     0:  Lost Rig Time 
 LSTM.      03.30.04 04-May-21:  Log Start Time 
 MDCL.ppm             37000.00:  Mud Chlorides 
 MDES.     Inversion Oil/Synthetic:  Mud Desc 
 DFD .sg                  1.38:  Mud Density 
 MDMN.sg                  1.35:  Dens Mud Min 
 MDMX.sg                  1.40:  Dens Mud Max 
 MOIL.                   57.40:  Run Mud Oil % 
 MOWR.                   70:30:  Run Mud OWR 
 MSND.                    0.00:  Run Mud Sand % 
 MSOL.                   18.00:  Run Mud Solids% 
 DFV .spqt               71.00:  Mud Viscosity 
 MWOD.in                  6.75:  MWD Tool OD 
 MWSI.                      No:  Serv Intrp, MWD 
 OTIM.hr                242.76:  Time Operating 
 PCON.           Look Like New:  Pad Condition 
 PMAX.psia            12183.92:  Press Op, Max 
 PV  .cP                 27.00:  Mud PV 
 RUN .                    1300:  Run Number 
 ROPA.m/hr               15.00:  ROP Avg 
 ROPN.m/hr                9.00:  ROP Min 
 ROPX.m/hr               19.00:  ROP Max 
 RPMA.rpm               120.00:  RPM Surface Avg 
 RPMN.rpm               100.00:  RPM Surface Min 
 RPMX.rpm               120.00:  RPM Surface Max 
 RRUN.                    1300:  Rig Run Number 
 RTIM.hr                  5.00:  Time Reaming 
 SAZI.deg               304.73:  Azm, Start 
 SDEP.m                4412.01:  Start Depth 
 SIDD.                      No:  Serv Intrp, DD 
 SINC.deg                66.82:  Inc, Start 
 SPPA.psig             2800.00:  SPP Avg 
 SPPN.psig             2610.00:  SPP Min 
 SPPX.psig             3100.00:  SPP Max 
 STIM.      03.30.00 04-May-21:  Start Time 
 SVCS.                 DD, MWD:  Services 
 SVER.                    9.20:  Sperry Version 
 TDAT.m                 228.00:  Tot Depth Attmp 
 TDDF.                      No:  Trip for DD 
 TDLG.m                 228.00:  Tot Depth Loggd 
 TFF .                      No:  Trip for Fail 
 TQAA.f-kp               15.00:  Torque Abs Avg 
 TQAN.f-kp               12.00:  Torque Abs Min 
 TQAX.f-kp               22.00:  Torque Abs Max 
 TRRT.°/30m               0.00:  Turn Rotating 
 MRT .                    HCIM:  Maximum Recorded Temperature 
 TTMX.degC               90.20:  Max Tool Temp 
 VS01.                90627813:  Virtual Str1 SN 
 VS02.                90634712:  Virtual Str2 SN 
 VS03.                90643410:  Virtual Str3 SN 
 VS04.                90634712:  Virtual Str4 SN 
 WBMN.klb                 9.00:  WOB Min 
 WITN.        Elmaddin Rahimov:  Customer Rep 
 WITN.         Haytham Mostafa:  Customer Rep 2 
 WOBA.klb                15.00:  WOB Avg 
 WOBX.klb                23.00:  WOB Max 
 YP  .lhf2               29.00:  Yield Point 
~Curve Information Block
#MNEM.UNIT                 API CODE     Curve Description
#---------               -----------    ---------------------------
 TIME.HHMMSS            00 000 000 000:  GT Time & Date
 GTDEPTH.m              00 000 000 000:  GT Depth
 GTPQH.psia             00 000 000 000:  GT HR Quartz Pressure
 GTTQ.degC              00 000 000 000:  GT Quartz Temperature
 GTTN.NONE              00 000 000 000:  GT Test Number
 GTET.sec               00 000 000 000:  GT Elapsed Test Time
 GTTVD.m                00 000 000 000:  GT True Vertical Depth
#Other Information
#
#WARRANTY: Halliburton will use its best efforts to furnish customers with 
#accurate information and interpretations that are part of, and incident to, the services 
#provided.  However, Halliburton cannot and does not warrant the accuracy 
#or correctness of such information and interpretations.  Under no circumstances should any 
#such information or interpretation be relied upon as the sole basis for any drilling, 
#completion, production, or financial decision or any procedure involving any risk to the 
#safety of any drilling venture, drilling rig or its crew or any other third party.  The 
#Customer has full responsibility for all drilling, completion and production operation.  
#Halliburton makes no representations or warranties, either expressed or 
#implied, including, but not limited to, the implied warranties of merchantability or fitness 
#for a particular purpose, with respect to the services rendered.  In no event will 
#Halliburton be liable for failure to obtain any particular results or for 
#any damages, including, but not limited to, indirect, special or consequential damages, 
#resulting from the use of any information or interpretation provided by Halliburton.
#
~A           TIME           GTDEPTH  GTPQH  GTTQ  GTTN   GTET   GTTVD  
# ...
   01:51:55.757.10-May-2021 4567.51  624.30 61.03 19.00  90.42 2998.78
   01:51:55.957.10-May-2021 4567.51  624.52 61.03 19.00  90.62 2998.78
   01:51:56.157.10-May-2021 4567.51  624.72 61.03 19.00  90.82 2998.78
   01:51:56.357.10-May-2021 4567.51  624.95 61.03 19.00  91.02 2998.78
   01:51:56.557.10-May-2021 4567.51  624.95 61.03 19.00  91.22 2998.78
   01:51:56.757.10-May-2021 4567.51  625.36 61.03 19.00  91.42 2998.78
   01:51:56.957.10-May-2021 4567.51  625.55 61.03 19.00  91.62 2998.78
   01:51:57.157.10-May-2021 4567.51  625.76 61.03 19.00  91.82 2998.78
   01:51:57.357.10-May-2021 4567.51  625.64 61.03 19.00  92.02 2998.78
   01:51:57.557.10-May-2021 4567.51  625.64 61.03 19.00  92.22 2998.78
   01:51:57.757.10-May-2021 4567.51  626.48 61.03 19.00  92.42 2998.78
   01:51:57.958.10-May-2021 4567.51  626.59 61.03 19.00  92.62 2998.78
   01:51:58.158.10-May-2021 4567.51  626.52 61.03 19.00  92.82 2998.78
   01:51:58.358.10-May-2021 4567.51  627.27 61.03 19.00  93.02 2998.78
   01:51:58.558.10-May-2021 4567.51  627.27 61.03 19.00  93.22 2998.78
   01:51:58.758.10-May-2021 4567.51  627.35 61.03 19.00  93.42 2998.78
   01:51:58.958.10-May-2021 4567.51  627.58 61.03 19.00  93.62 2998.78
   01:51:59.158.10-May-2021 4567.51  627.42 61.03 19.00  93.82 2998.78
   01:51:59.358.10-May-2021 4567.51  628.25 61.03 19.00  94.02 2998.78
   01:51:59.558.10-May-2021 4567.51  628.25 61.03 19.00  94.22 2998.78
   01:51:59.758.10-May-2021 4567.51  628.36 61.03 19.00  94.42 2998.78
   01:51:59.958.10-May-2021 4567.51  628.25 61.03 19.00  94.62 2998.78
   01:52:00.158.10-May-2021 4567.51  628.77 61.03 19.00  94.82 2998.78
   01:52:00.358.10-May-2021 4567.51  629.01 61.03 19.00  95.02 2998.78
   01:52:00.558.10-May-2021 4567.51  629.01 61.03 19.00  95.22 2998.78
   01:52:00.758.10-May-2021 4567.51  629.22 61.03 19.00  95.42 2998.78
   01:52:00.958.10-May-2021 4567.51  629.41 61.03 19.00  95.62 2998.78
   01:52:01.158.10-May-2021 4567.51  629.59 61.03 19.00  95.82 2998.78
   01:52:01.358.10-May-2021 4567.51  629.77 61.03 19.00  96.02 2998.78
   01:52:01.558.10-May-2021 4567.51  629.77 61.03 19.00  96.22 2998.78
   01:52:01.758.10-May-2021 4567.51  630.12 61.03 19.00  96.42 2998.78
   01:52:01.958.10-May-2021 4567.51  630.28 61.03 19.00  96.62 2998.78
   01:52:02.158.10-May-2021 4567.51  630.46 61.03 19.00  96.82 2998.78
   01:52:02.358.10-May-2021 4567.51  630.62 61.03 19.00  97.02 2998.78
   01:52:02.558.10-May-2021 4567.51  630.62 61.03 19.00  97.22 2998.78
   01:52:02.758.10-May-2021 4567.51  631.31 61.03 19.00  97.42 2998.78
   01:52:02.958.10-May-2021 4567.51  631.17 61.03 19.00  97.62 2998.78
   01:52:03.158.10-May-2021 4567.51  631.45 61.03 19.00  97.82 2998.78
   01:52:03.358.10-May-2021 4567.51  631.49 61.03 19.00  98.02 2998.78
   01:52:03.559.10-May-2021 4567.51  631.49 61.03 19.00  98.22 2998.78
   01:52:03.759.10-May-2021 4567.51  631.85 61.03 19.00  98.42 2998.78
   01:52:03.959.10-May-2021 4567.51  632.01 61.03 19.00  98.62 2998.78
   01:52:04.159.10-May-2021 4567.51  632.18 61.03 19.00  98.82 2998.78
   01:52:04.359.10-May-2021 4567.51  632.35 61.03 19.00  99.02 2998.78
   01:52:04.559.10-May-2021 4567.51  632.35 61.03 19.00  99.22 2998.78
   01:52:04.759.10-May-2021 4567.51  632.65 61.03 19.00  99.42 2998.78
   01:52:04.959.10-May-2021 4567.51  632.81 61.03 19.00  99.62 2998.78
   01:52:05.159.10-May-2021 4567.51  632.70 61.03 19.00  99.82 2998.78
   01:52:05.359.10-May-2021 4567.51  633.45 61.03 19.00 100.02 2998.78
   01:52:05.559.10-May-2021 4567.51  633.45 61.03 19.00 100.22 2998.78
   01:52:05.759.10-May-2021 4567.51  633.45 61.03 19.00 100.42 2998.78
   01:52:05.959.10-May-2021 4567.51  633.31 61.03 19.00 100.62 2998.78
   01:52:06.159.10-May-2021 4567.51  634.10 61.03 19.00 100.82 2998.78
   01:52:06.359.10-May-2021 4567.51  633.94 61.03 19.00 101.02 2998.78
   01:52:06.559.10-May-2021 4567.51  633.94 61.03 19.00 101.22 2998.78
   01:52:06.759.10-May-2021 4567.51  634.24 61.03 19.00 101.42 2998.78
   01:52:06.959.10-May-2021 4567.51  634.15 61.03 19.00 101.62 2998.78
   01:52:07.159.10-May-2021 4567.51  634.70 61.03 19.00 101.82 2998.78
   01:52:07.359.10-May-2021 4567.51  634.82 61.03 19.00 102.02 2998.78
   01:52:07.559.10-May-2021 4567.51  634.82 61.03 19.00 102.22 2998.78
   01:52:07.759.10-May-2021 4567.51  634.70 61.03 19.00 102.42 2998.78
   01:52:07.959.10-May-2021 4567.51  635.46 61.03 19.00 102.62 2998.78
   01:52:08.159.10-May-2021 4567.51  635.42 61.03 19.00 102.82 2998.78
   01:52:08.359.10-May-2021 4567.51  635.47 61.03 19.00 103.02 2998.78
   01:52:08.559.10-May-2021 4567.51  635.47 61.03 19.00 103.22 2998.78
   01:52:08.759.10-May-2021 4567.51  635.74 61.03 19.00 103.42 2998.78
   01:52:08.959.10-May-2021 4567.51  635.90 61.03 19.00 103.62 2998.78
   01:52:09.160.10-May-2021 4567.51  636.04 61.03 19.00 103.82 2998.78
   01:52:09.360.10-May-2021 4567.51  636.19 61.03 19.00 104.02 2998.78
   01:52:09.560.10-May-2021 4567.51  636.19 61.03 19.00 104.22 2998.78
   01:52:09.760.10-May-2021 4567.51  636.45 61.03 19.00 104.42 2998.78
   01:52:09.960.10-May-2021 4567.51  636.60 61.03 19.00 104.62 2998.78
   01:52:10.160.10-May-2021 4567.51  636.61 61.03 19.00 104.82 2998.78
   01:52:10.360.10-May-2021 4567.51  636.69 61.03 19.00 105.02 2998.78
   01:52:10.560.10-May-2021 4567.51  636.69 61.03 19.00 105.22 2998.78
   01:52:10.760.10-May-2021 4567.51  637.29 61.03 19.00 105.42 2998.78
   01:52:10.960.10-May-2021 4567.51  637.32 61.03 19.00 105.62 2998.78
   01:52:11.160.10-May-2021 4567.51  637.46 61.03 19.00 105.82 2998.78
   01:52:11.360.10-May-2021 4567.51  637.58 61.03 19.00 106.02 2998.78
   01:52:11.560.10-May-2021 4567.51  637.58 61.03 19.00 106.22 2998.78
   01:52:11.760.10-May-2021 4567.51  637.86 61.03 19.00 106.42 2998.78
   01:52:11.960.10-May-2021 4567.51  637.99 61.03 19.00 106.62 2998.78
   01:52:12.160.10-May-2021 4567.51  638.13 61.03 19.00 106.82 2998.78
   01:52:12.360.10-May-2021 4567.51  638.23 61.03 19.00 107.02 2998.78
   01:52:12.560.10-May-2021 4567.51  638.23 61.03 19.00 107.22 2998.78
   01:52:12.760.10-May-2021 4567.51  638.13 61.03 19.00 107.42 2998.78
   01:52:12.960.10-May-2021 4567.51  638.96 61.03 19.00 107.62 2998.78
   01:52:13.160.10-May-2021 4567.51  638.78 61.03 19.00 107.82 2998.78
   01:52:13.360.10-May-2021 4567.51  639.06 61.03 19.00 108.02 2998.78
   01:52:13.560.10-May-2021 4567.51  639.06 61.03 19.00 108.22 2998.78
   01:52:13.760.10-May-2021 4567.51  639.46 61.03 19.00 108.42 2998.78
   01:52:13.960.10-May-2021 4567.51  639.29 61.03 19.00 108.62 2998.78
   01:52:14.160.10-May-2021 4567.51  639.61 61.03 19.00 108.82 2998.78
   01:52:14.360.10-May-2021 4567.51  639.55 61.03 19.00 109.02 2998.78
   01:52:14.560.10-May-2021 4567.51  639.55 61.03 19.00 109.22 2998.78
   01:52:14.761.10-May-2021 4567.51  639.43 61.03 19.00 109.42 2998.78
   01:52:14.961.10-May-2021 4567.51  640.24 61.03 19.00 109.62 2998.78
   01:52:15.161.10-May-2021 4567.51  640.06 61.03 19.00 109.82 2998.78
   01:52:15.361.10-May-2021 4567.51  640.17 61.03 19.00 110.02 2998.78
   01:52:15.561.10-May-2021 4567.51  640.17 61.03 19.00 110.22 2998.78
   01:52:15.761.10-May-2021 4567.51  640.68 61.03 19.00 110.42 2998.78
   01:52:15.961.10-May-2021 4567.51  640.63 61.03 19.00 110.62 2998.78
   01:52:16.161.10-May-2021 4567.51  640.65 61.03 19.00 110.82 2998.78
   01:52:16.361.10-May-2021 4567.51  640.81 61.03 19.00 111.02 2998.78
   01:52:16.561.10-May-2021 4567.51  640.81 61.03 19.00 111.22 2998.78
   01:52:16.761.10-May-2021 4567.51  641.18 61.03 19.00 111.42 2998.78
   01:52:16.961.10-May-2021 4567.51  641.57 61.03 19.00 111.62 2998.78
   01:52:17.161.10-May-2021 4567.51  641.70 61.03 19.00 111.82 2998.78
   01:52:17.361.10-May-2021 4567.51  641.79 61.03 19.00 112.02 2998.78
   01:52:17.561.10-May-2021 4567.51  641.79 61.03 19.00 112.22 2998.78
   01:52:17.761.10-May-2021 4567.51  642.02 61.03 19.00 112.42 2998.78
   01:52:17.961.10-May-2021 4567.51  641.87 61.03 19.00 112.62 2998.78
   01:52:18.161.10-May-2021 4567.51  642.37 61.03 19.00 112.82 2998.78
