~Version Information
 VERS.                  2.0:   CWLS log ASCII Standard -VERSION 2.0
 WRAP.                   NO:   One line per depth step
~Well Information Block
#MNEM.UNIT     VALUE/NAME     DESCRIPTION
#---------     -----------    ---------------------------
 STRT.S             00:47:21 09-May-21: START TIME 00:47:21 09-May-21
 STOP.S             00:54:19 09-May-21: STOP TIME  00:54:19 09-May-21
 STEP.S                   0.00: STEP TIME
 NULL.                 -999.25: NULL VALUE
 PROV.                    Baku:  PROVINCE
 STAT.                    Baku:  STATE NAME
 SON .        AZ-XX-0906571588:  JOB NUMBER
 WTYP.                Deviated:  WELL TYPE
 COMP.     BP Exploration (Caspian Sea) ltd:  COMPANY
 BASE.              Azerbaijan:  LOGGING EQUIPMENT BASE LOCATION
 REGN.                   EESSA:  REGION
 CTRY.              Azerbaijan:  COUNTRY NAME
 FLD .                     ACG:  FIELD NAME
 WELL.                     J28:  WELL NAME
 RIG .             West Chirag:  RIG NAME
 DMF .             Drill Floor:  DRILL MEAS FROM
 PDAT.       Caspian Sea Level:  PERMANENT DATUM
 HPTY.       Minimum Curvature:  HOLE POS TYPE
 MDS .        Operator Entered:  MAG DATA SOURCE
 NREF.                    Grid:  NORTH REFERENCE
 SRVC.          TURAN DRILLING:  CONTRACTOR
 JOBN.        AZ-XX-0906571588:  JOB TICKET NUMB
 DCON.     Halliburton Sperry Drilling:  DIRECTNL CONTR
 STIM.      00.44.00 11-Feb-21:  START TIME
 DATE.      00.00.00 05-May-21:  END TIME
 SPUD.               13-Feb-21:  SPUD DATE
 MWDS.                    Baku:  MWD SHOP
 DOE .                     N/A:  DOE NUMBER
 UNIT.                     N/A:  LOGGING EQUIPMENT ID
 UWI .                     N/A:  UNIQUE WELL IDENTIFIER
 API .                     N/A:  API NUMBER
 CNTY.                        :  COUNTY
 LOC .                        :  LOCATION
 LMF .             Drill Floor:  LOG MEASURED FROM
 TVDS.m                  43.00:  TVDSS CORRECTN
 SDEP.m                 341.00:  START DEPTH
 EGL .m                   0.00:  GROUND ELEVATION
 WDMS.m                 169.80:  WD ELEV
 AGAP.m                  43.00:  AIR GAP
 EPD .m                   0.00:  ELEVATION
 APD .m                  43.00:  DEPTH ABOVE PD
 LATI.deg                40.13:  LATITUDE
 LONG.deg                51.22:  LONGITUDE
 UTMY.m             4443793.85:  UTM Y
 UTMX.m              519005.06:  UTM X
 WHEW.m                 -11.57:  WELL HEAD E/W
 WHNS.m                   8.57:  WELL HEAD N/S
 VSEW.m                 -11.57:  VERT SEC E/W
 VSNS.m                   8.57:  VERT SEC N/S
 DFWL.m                   0.00:  DISTANCE FWL
 DFSL.m                   0.00:  DISTANCE FSL
 VSDR.deg               299.34:  VERT SEC DIRECT
 GVFD.g                   1.00:  GRAVITY FIELD
 AZTC.deg                 6.36:  AZM TOTAL CORR
 MFLD.nT              50391.00:  MAGNETIC FIELD
 MDIP.deg                59.65:  MAGNETIC DIP
 MDEC.deg                 6.48:  MAGNETIC DECL
 GRDC.deg                 0.12:  GRID CORRECTION
 DEP .m                 334.96:  DEPTH
 TDD .m                1407.26:  TOTAL DEPTH (DRILLER)
 EKB .m                  43.00:  KB ELEVATION
 EDF .m                  43.00:  DF ELEVATION
 TDL .m                 228.00:  TOTAL DEPTH (LOGGER)
 VSC .                       0:  VS TO CLOSURE
 MAGU.                 1854484:  MAGUTM CHECKSUM
~Parameter Information Block
#MNEM.UNIT       Value        Description
#---------     -----------    ---------------------------
 AV  .mps                 4.00:  Ann Velocity 
 AVMX.mps                 4.73:  Max Ann Veloc 
 AZIF.deg               304.48:  Azm, Final 
 BHAT.        Rotary Steerable:  BHA Type 
 BREV.rev            257300.00:  Rev Bit Total 
 BROT.°/30m               0.00:  Build Rotating 
 BS  .in                  8.50:  Bit Size 
 BSZ .in                  8.50:  Bit Size 
 BTPL.psig              589.00:  Bit Press Loss 
 CABU.                      No:  Customer Abuse 
 CGEO.          Mubariz ghayev:  Customer Geo 
 COMM.                     ­R:  Run Comments 1 
 TCS .hr                 64.25:  Time Ciculation Ended 
 CV  .mps                 3.50:  Crit Velocity 
 CVMX.mps                 4.52:  Max Crit Veloc 
 DD1 .             Aziz Aliyev:  Direct Drillr 1 
 DD2 .         Intigam Rahimov:  Direct Drillr 2 
 DD3 .          Rashad Habibov:  Direct Drillr 3 
 DDSV.               Geo-Pilot:  DD Service 
 DEFF.%                  98.00:  % Det Eff 
 DLRX.°/30m               0.00:  Dogleg Rot Max 
 DLSO.°/30m               0.00:  Dogleg Oriented 
 DLSX.°/30m               0.00:  Dogleg Str Max 
 DRET.      10.45.04 08-May-21:  Drill End Time 
 DRST.      03.30.04 04-May-21:  Drill Start Tim 
 DTIM.hr                 14.97:  Time Drilling 
 EDEP.m                4640.01:  End Depth 
 ENG1.         Dail Mahammadov:  Engineer 1 
 ENG2.           Eldar Hajiyev:  Engineer 2 
 ENG3.       Bakhtiar Jabbarli:  Engineer 3 
 ENG4.       Natik Hasanagayev:  Engineer 4 
 ETIM.      09.30.04 14-May-21:  End Time 
 FLOI.gpm               460.00:  Flow In 
 FLON.gpm               200.00:  Flow In Min 
 FLOS.cptm                0.00:  Fluid Loss 
 FLOX.gpm               505.00:  Flow In Max 
 HFLO.                      No:  High Flow 
 HPRE.                      No:  High Pressure 
 HTEM.                      No:  High Temp 
 HYDO.m                   1.80:  Hydro Offset 
 IFIN.deg                66.71:  Inc, Final 
 IMAX.deg                67.03:  Inc Max 
 IMIN.deg                66.63:  Inc Min 
 IMND.m                4550.58:  Inc Min Depth 
 IMXD.m                4439.01:  Inc Max Depth 
 JARR.                      No:  Jarring 
 LETM.      10.45.04 08-May-21:  Log End Time 
 LOST.hr                     0:  Lost Rig Time 
 LSTM.      03.30.04 04-May-21:  Log Start Time 
 MDCL.ppm             37000.00:  Mud Chlorides 
 MDES.     Inversion Oil/Synthetic:  Mud Desc 
 DFD .sg                  1.38:  Mud Density 
 MDMN.sg                  1.35:  Dens Mud Min 
 MDMX.sg                  1.40:  Dens Mud Max 
 MOIL.                   57.40:  Run Mud Oil % 
 MOWR.                   70:30:  Run Mud OWR 
 MSND.                    0.00:  Run Mud Sand % 
 MSOL.                   18.00:  Run Mud Solids% 
 DFV .spqt               71.00:  Mud Viscosity 
 MWOD.in                  6.75:  MWD Tool OD 
 MWSI.                      No:  Serv Intrp, MWD 
 OTIM.hr                242.76:  Time Operating 
 PCON.           Look Like New:  Pad Condition 
 PMAX.psia            12183.92:  Press Op, Max 
 PV  .cP                 27.00:  Mud PV 
 RUN .                    1300:  Run Number 
 ROPA.m/hr               15.00:  ROP Avg 
 ROPN.m/hr                9.00:  ROP Min 
 ROPX.m/hr               19.00:  ROP Max 
 RPMA.rpm               120.00:  RPM Surface Avg 
 RPMN.rpm               100.00:  RPM Surface Min 
 RPMX.rpm               120.00:  RPM Surface Max 
 RRUN.                    1300:  Rig Run Number 
 RTIM.hr                  5.00:  Time Reaming 
 SAZI.deg               304.73:  Azm, Start 
 SDEP.m                4412.01:  Start Depth 
 SIDD.                      No:  Serv Intrp, DD 
 SINC.deg                66.82:  Inc, Start 
 SPPA.psig             2800.00:  SPP Avg 
 SPPN.psig             2610.00:  SPP Min 
 SPPX.psig             3100.00:  SPP Max 
 STIM.      03.30.00 04-May-21:  Start Time 
 SVCS.                 DD, MWD:  Services 
 SVER.                    9.20:  Sperry Version 
 TDAT.m                 228.00:  Tot Depth Attmp 
 TDDF.                      No:  Trip for DD 
 TDLG.m                 228.00:  Tot Depth Loggd 
 TFF .                      No:  Trip for Fail 
 TQAA.f-kp               15.00:  Torque Abs Avg 
 TQAN.f-kp               12.00:  Torque Abs Min 
 TQAX.f-kp               22.00:  Torque Abs Max 
 TRRT.°/30m               0.00:  Turn Rotating 
 MRT .                    HCIM:  Maximum Recorded Temperature 
 TTMX.degC               90.20:  Max Tool Temp 
 VS01.                90627813:  Virtual Str1 SN 
 VS02.                90634712:  Virtual Str2 SN 
 VS03.                90643410:  Virtual Str3 SN 
 VS04.                90634712:  Virtual Str4 SN 
 WBMN.klb                 9.00:  WOB Min 
 WITN.        Elmaddin Rahimov:  Customer Rep 
 WITN.         Haytham Mostafa:  Customer Rep 2 
 WOBA.klb                15.00:  WOB Avg 
 WOBX.klb                23.00:  WOB Max 
 YP  .lhf2               29.00:  Yield Point 
~Curve Information Block
#MNEM.UNIT                 API CODE     Curve Description
#---------               -----------    ---------------------------
 TIME.HHMMSS            00 000 000 000:  GT Time & Date
 GTDEPTH.m              00 000 000 000:  GT Depth
 GTPQH.psia             00 000 000 000:  GT HR Quartz Pressure
 GTTQ.degC              00 000 000 000:  GT Quartz Temperature
 GTTN.NONE              00 000 000 000:  GT Test Number
 GTET.sec               00 000 000 000:  GT Elapsed Test Time
 GTTVD.m                00 000 000 000:  GT True Vertical Depth
#Other Information
#
#WARRANTY: Halliburton will use its best efforts to furnish customers with 
#accurate information and interpretations that are part of, and incident to, the services 
#provided.  However, Halliburton cannot and does not warrant the accuracy 
#or correctness of such information and interpretations.  Under no circumstances should any 
#such information or interpretation be relied upon as the sole basis for any drilling, 
#completion, production, or financial decision or any procedure involving any risk to the 
#safety of any drilling venture, drilling rig or its crew or any other third party.  The 
#Customer has full responsibility for all drilling, completion and production operation.  
#Halliburton makes no representations or warranties, either expressed or 
#implied, including, but not limited to, the implied warranties of merchantability or fitness 
#for a particular purpose, with respect to the services rendered.  In no event will 
#Halliburton be liable for failure to obtain any particular results or for 
#any damages, including, but not limited to, indirect, special or consequential damages, 
#resulting from the use of any information or interpretation provided by Halliburton.
#
~A           TIME           GTDEPTH  GTPQH  GTTQ  GTTN  GTET   GTTVD  
# ...
   00:53:06.352.09-May-2021 4512.01 3259.92 67.56 8.00 345.13 2976.83
   00:53:06.552.09-May-2021 4512.01 3259.92 67.56 8.00 345.33 2976.83
   00:53:06.752.09-May-2021 4512.01 3259.80 67.56 8.00 345.53 2976.83
   00:53:06.952.09-May-2021 4512.01 3259.79 67.56 8.00 345.73 2976.83
   00:53:07.152.09-May-2021 4512.01 3259.74 67.56 8.00 345.93 2976.83
   00:53:07.352.09-May-2021 4512.01 3259.75 67.56 8.00 346.13 2976.83
   00:53:07.552.09-May-2021 4512.01 3259.75 67.56 8.00 346.33 2976.83
   00:53:07.752.09-May-2021 4512.01 3259.62 67.56 8.00 346.53 2976.83
   00:53:07.952.09-May-2021 4512.01 3259.77 67.56 8.00 346.73 2976.83
   00:53:08.152.09-May-2021 4512.01 3259.77 67.56 8.00 346.93 2976.83
   00:53:08.353.09-May-2021 4512.01 3259.93 67.56 8.00 347.13 2976.83
   00:53:08.553.09-May-2021 4512.01 3259.93 67.56 8.00 347.33 2976.83
   00:53:08.753.09-May-2021 4512.01 3259.78 67.56 8.00 347.53 2976.83
   00:53:08.953.09-May-2021 4512.01 3259.80 67.56 8.00 347.73 2976.83
   00:53:09.153.09-May-2021 4512.01 3259.74 67.56 8.00 347.93 2976.83
   00:53:09.353.09-May-2021 4512.01 3259.74 67.56 8.00 348.13 2976.83
   00:53:09.553.09-May-2021 4512.01 3259.74 67.56 8.00 348.33 2976.83
   00:53:09.753.09-May-2021 4512.01 3259.63 67.56 8.00 348.53 2976.83
   00:53:09.953.09-May-2021 4512.01 3259.80 67.56 8.00 348.73 2976.83
   00:53:10.153.09-May-2021 4512.01 3259.80 67.56 8.00 348.93 2976.83
   00:53:10.353.09-May-2021 4512.01 3259.78 67.56 8.00 349.13 2976.83
   00:53:10.553.09-May-2021 4512.01 3259.78 67.56 8.00 349.33 2976.83
   00:53:10.753.09-May-2021 4512.01 3259.76 67.56 8.00 349.53 2976.83
   00:53:10.953.09-May-2021 4512.01 3259.78 67.56 8.00 349.73 2976.83
   00:53:11.154.09-May-2021 4512.01 3259.79 67.56 8.00 349.93 2976.83
   00:53:11.354.09-May-2021 4512.01 3259.78 67.56 8.00 350.13 2976.83
   00:53:11.554.09-May-2021 4512.01 3259.78 67.56 8.00 350.33 2976.83
   00:53:11.754.09-May-2021 4512.01 3259.75 67.56 8.00 350.53 2976.83
   00:53:11.954.09-May-2021 4512.01 3259.77 67.56 8.00 350.73 2976.83
   00:53:12.154.09-May-2021 4512.01 3259.92 67.56 8.00 350.93 2976.83
   00:53:12.354.09-May-2021 4512.01 3259.63 67.56 8.00 351.13 2976.83
   00:53:12.554.09-May-2021 4512.01 3259.63 67.56 8.00 351.33 2976.83
   00:53:12.754.09-May-2021 4512.01 3259.79 67.56 8.00 351.53 2976.83
   00:53:12.954.09-May-2021 4512.01 3259.78 67.56 8.00 351.73 2976.83
   00:53:13.154.09-May-2021 4512.01 3259.77 67.56 8.00 351.93 2976.83
   00:53:13.354.09-May-2021 4512.01 3259.77 67.56 8.00 352.13 2976.83
   00:53:13.554.09-May-2021 4512.01 3259.77 67.56 8.00 352.33 2976.83
   00:53:13.754.09-May-2021 4512.01 3259.78 67.56 8.00 352.53 2976.83
   00:53:13.955.09-May-2021 4512.01 3259.79 67.56 8.00 352.73 2976.83
   00:53:14.155.09-May-2021 4512.01 3259.77 67.56 8.00 352.93 2976.83
   00:53:14.355.09-May-2021 4512.01 3259.76 67.56 8.00 353.13 2976.83
   00:53:14.555.09-May-2021 4512.01 3259.76 67.56 8.00 353.33 2976.83
   00:53:14.755.09-May-2021 4512.01 3259.75 67.56 8.00 353.53 2976.83
   00:53:14.955.09-May-2021 4512.01 3259.64 67.56 8.00 353.73 2976.83
   00:53:15.155.09-May-2021 4512.01 3259.79 67.56 8.00 353.93 2976.83
   00:53:15.355.09-May-2021 4512.01 3259.79 67.56 8.00 354.13 2976.83
   00:53:15.555.09-May-2021 4512.01 3259.79 67.56 8.00 354.33 2976.83
   00:53:15.755.09-May-2021 4512.01 3259.74 67.56 8.00 354.53 2976.83
   00:53:15.955.09-May-2021 4512.01 3259.93 67.56 8.00 354.73 2976.83
   00:53:16.155.09-May-2021 4512.01 3259.63 67.56 8.00 354.93 2976.83
   00:53:16.355.09-May-2021 4512.01 3259.78 67.56 8.00 355.13 2976.83
   00:53:16.555.09-May-2021 4512.01 3259.78 67.56 8.00 355.33 2976.83
   00:53:16.756.09-May-2021 4512.01 3259.92 67.56 8.00 355.53 2976.83
   00:53:16.956.09-May-2021 4512.01 3259.64 67.56 8.00 355.73 2976.83
   00:53:17.156.09-May-2021 4512.01 3259.79 67.56 8.00 355.93 2976.83
   00:53:17.356.09-May-2021 4512.01 3259.79 67.56 8.00 356.13 2976.83
   00:53:17.556.09-May-2021 4512.01 3259.79 67.56 8.00 356.33 2976.83
   00:53:17.756.09-May-2021 4512.01 3259.74 67.56 8.00 356.53 2976.83
   00:53:17.956.09-May-2021 4512.01 3259.93 67.56 8.00 356.73 2976.83
   00:53:18.156.09-May-2021 4512.01 3259.63 67.56 8.00 356.93 2976.83
   00:53:18.356.09-May-2021 4512.01 3259.81 67.56 8.00 357.13 2976.83
   00:53:18.556.09-May-2021 4512.01 3259.81 67.56 8.00 357.33 2976.83
   00:53:18.756.09-May-2021 4512.01 3259.77 67.56 8.00 357.53 2976.83
   00:53:18.956.09-May-2021 4512.01 3259.79 67.56 8.00 357.73 2976.83
   00:53:19.156.09-May-2021 4512.01 3259.75 67.56 8.00 357.93 2976.83
   00:53:19.357.09-May-2021 4512.01 3259.78 67.56 8.00 358.13 2976.83
   00:53:19.557.09-May-2021 4512.01 3259.78 67.56 8.00 358.33 2976.83
   00:53:19.757.09-May-2021 4512.01 3259.77 67.56 8.00 358.53 2976.83
   00:53:19.957.09-May-2021 4512.01 3259.78 67.56 8.00 358.73 2976.83
   00:53:20.157.09-May-2021 4512.01 3259.75 67.56 8.00 358.93 2976.83
   00:53:20.357.09-May-2021 4512.01 3259.76 67.56 8.00 359.13 2976.83
   00:53:20.557.09-May-2021 4512.01 3259.76 67.56 8.00 359.33 2976.83
   00:53:20.757.09-May-2021 4512.01 3259.64 67.56 8.00 359.53 2976.83
   00:53:20.957.09-May-2021 4512.01 3259.80 67.56 8.00 359.73 2976.83
   00:53:21.157.09-May-2021 4512.01 3259.78 67.56 8.00 359.93 2976.83
   00:53:21.357.09-May-2021 4512.01 3259.78 67.56 8.00 360.13 2976.83
   00:53:21.557.09-May-2021 4512.01 3259.78 67.56 8.00 360.33 2976.83
   00:53:21.757.09-May-2021 4512.01 3259.75 67.56 8.00 360.53 2976.83
   00:53:21.957.09-May-2021 4512.01 3259.78 67.56 8.00 360.73 2976.83
   00:53:22.158.09-May-2021 4512.01 3259.78 67.56 8.00 360.93 2976.83
   00:53:22.358.09-May-2021 4512.01 3259.79 67.56 8.00 361.13 2976.83
   00:53:22.558.09-May-2021 4512.01 3259.79 67.56 8.00 361.33 2976.83
   00:53:22.758.09-May-2021 4512.01 3259.75 67.56 8.00 361.53 2976.83
   00:53:22.958.09-May-2021 4512.01 3259.76 67.56 8.00 361.73 2976.83
   00:53:23.158.09-May-2021 4512.01 3259.92 67.56 8.00 361.93 2976.83
   00:53:23.358.09-May-2021 4512.01 3222.79 67.56 8.00 362.13 2976.83
   00:53:23.558.09-May-2021 4512.01 3222.79 67.56 8.00 362.33 2976.83
   00:53:23.758.09-May-2021 4512.01 4178.72 67.56 8.00 362.53 2976.83
   00:53:23.958.09-May-2021 4512.01 6794.32 67.56 8.00 362.73 2976.83
   00:53:24.158.09-May-2021 4512.01 6798.23 67.56 8.00 362.93 2976.83
   00:53:24.358.09-May-2021 4512.01 6793.45 67.56 8.00 363.13 2976.83
   00:53:24.558.09-May-2021 4512.01 6793.45 67.56 8.00 363.33 2976.83
   00:53:24.758.09-May-2021 4512.01 6794.97 67.56 8.00 363.53 2976.83
   00:53:24.959.09-May-2021 4512.01 6801.34 67.56 8.00 363.73 2976.83
   00:53:25.159.09-May-2021 4512.01 6795.92 67.57 8.00 363.93 2976.83
   00:53:25.359.09-May-2021 4512.01 6798.45 67.57 8.00 364.13 2976.83
   00:53:25.559.09-May-2021 4512.01 6798.45 67.57 8.00 364.33 2976.83
   00:53:25.759.09-May-2021 4512.01 6798.46 67.57 8.00 364.53 2976.83
   00:53:25.959.09-May-2021 4512.01 6796.24 67.57 8.00 364.73 2976.83
   00:53:26.159.09-May-2021 4512.01 6803.27 67.58 8.00 364.93 2976.83
   00:53:26.359.09-May-2021 4512.01 6798.98 67.58 8.00 365.13 2976.83
   00:53:26.559.09-May-2021 4512.01 6798.98 67.58 8.00 365.33 2976.83
   00:53:26.759.09-May-2021 4512.01 6801.87 67.58 8.00 365.53 2976.83
   00:53:26.959.09-May-2021 4512.01 6800.46 67.59 8.00 365.73 2976.83
   00:53:27.159.09-May-2021 4512.01 6799.20 67.59 8.00 365.93 2976.83
   00:53:27.359.09-May-2021 4512.01 6798.74 67.59 8.00 366.13 2976.83
   00:53:27.559.09-May-2021 4512.01 6798.74 67.59 8.00 366.33 2976.83
   00:53:27.760.09-May-2021 4512.01 6799.54 67.60 8.00 366.53 2976.83
   00:53:27.960.09-May-2021 4512.01 6799.68 67.60 8.00 366.73 2976.83
   00:53:28.160.09-May-2021 4512.01 6800.64 67.60 8.00 366.93 2976.83
   00:53:28.360.09-May-2021 4512.01 6800.87 67.60 8.00 367.13 2976.83
   00:53:28.560.09-May-2021 4512.01 6800.87 67.60 8.00 367.33 2976.83
   00:53:28.760.09-May-2021 4512.01 6807.94 67.61 8.00 367.53 2976.83
   00:53:28.960.09-May-2021 4512.01 6802.66 67.61 8.00 367.73 2976.83
   00:53:29.160.09-May-2021 4512.01 6804.84 67.61 8.00 367.93 2976.83
