~Version Information
 VERS.                  2.0:   CWLS log ASCII Standard -VERSION 2.0
 WRAP.                   NO:   One line per depth step
~Well Information Block
#MNEM.UNIT     VALUE/NAME     DESCRIPTION
#---------     -----------    ---------------------------
 STRT.S             00:24:13 10-May-21: START TIME 00:24:13 10-May-21
 STOP.S             00:32:26 10-May-21: STOP TIME  00:32:26 10-May-21
 STEP.S                   0.00: STEP TIME
 NULL.                 -999.25: NULL VALUE
 PROV.                    Baku:  PROVINCE
 STAT.                    Baku:  STATE NAME
 SON .        AZ-XX-0906571588:  JOB NUMBER
 WTYP.                Deviated:  WELL TYPE
 COMP.     BP Exploration (Caspian Sea) ltd:  COMPANY
 BASE.              Azerbaijan:  LOGGING EQUIPMENT BASE LOCATION
 REGN.                   EESSA:  REGION
 CTRY.              Azerbaijan:  COUNTRY NAME
 FLD .                     ACG:  FIELD NAME
 WELL.                     J28:  WELL NAME
 RIG .             West Chirag:  RIG NAME
 DMF .             Drill Floor:  DRILL MEAS FROM
 PDAT.       Caspian Sea Level:  PERMANENT DATUM
 HPTY.       Minimum Curvature:  HOLE POS TYPE
 MDS .        Operator Entered:  MAG DATA SOURCE
 NREF.                    Grid:  NORTH REFERENCE
 SRVC.          TURAN DRILLING:  CONTRACTOR
 JOBN.        AZ-XX-0906571588:  JOB TICKET NUMB
 DCON.     Halliburton Sperry Drilling:  DIRECTNL CONTR
 STIM.      00.44.00 11-Feb-21:  START TIME
 DATE.      00.00.00 05-May-21:  END TIME
 SPUD.               13-Feb-21:  SPUD DATE
 MWDS.                    Baku:  MWD SHOP
 DOE .                     N/A:  DOE NUMBER
 UNIT.                     N/A:  LOGGING EQUIPMENT ID
 UWI .                     N/A:  UNIQUE WELL IDENTIFIER
 API .                     N/A:  API NUMBER
 CNTY.                        :  COUNTY
 LOC .                        :  LOCATION
 LMF .             Drill Floor:  LOG MEASURED FROM
 TVDS.m                  43.00:  TVDSS CORRECTN
 SDEP.m                 341.00:  START DEPTH
 EGL .m                   0.00:  GROUND ELEVATION
 WDMS.m                 169.80:  WD ELEV
 AGAP.m                  43.00:  AIR GAP
 EPD .m                   0.00:  ELEVATION
 APD .m                  43.00:  DEPTH ABOVE PD
 LATI.deg                40.13:  LATITUDE
 LONG.deg                51.22:  LONGITUDE
 UTMY.m             4443793.85:  UTM Y
 UTMX.m              519005.06:  UTM X
 WHEW.m                 -11.57:  WELL HEAD E/W
 WHNS.m                   8.57:  WELL HEAD N/S
 VSEW.m                 -11.57:  VERT SEC E/W
 VSNS.m                   8.57:  VERT SEC N/S
 DFWL.m                   0.00:  DISTANCE FWL
 DFSL.m                   0.00:  DISTANCE FSL
 VSDR.deg               299.34:  VERT SEC DIRECT
 GVFD.g                   1.00:  GRAVITY FIELD
 AZTC.deg                 6.36:  AZM TOTAL CORR
 MFLD.nT              50391.00:  MAGNETIC FIELD
 MDIP.deg                59.65:  MAGNETIC DIP
 MDEC.deg                 6.48:  MAGNETIC DECL
 GRDC.deg                 0.12:  GRID CORRECTION
 DEP .m                 334.96:  DEPTH
 TDD .m                1407.26:  TOTAL DEPTH (DRILLER)
 EKB .m                  43.00:  KB ELEVATION
 EDF .m                  43.00:  DF ELEVATION
 TDL .m                 228.00:  TOTAL DEPTH (LOGGER)
 VSC .                       0:  VS TO CLOSURE
 MAGU.                 1854484:  MAGUTM CHECKSUM
~Parameter Information Block
#MNEM.UNIT       Value        Description
#---------     -----------    ---------------------------
 AV  .mps                 4.00:  Ann Velocity 
 AVMX.mps                 4.73:  Max Ann Veloc 
 AZIF.deg               304.48:  Azm, Final 
 BHAT.        Rotary Steerable:  BHA Type 
 BREV.rev            257300.00:  Rev Bit Total 
 BROT.°/30m               0.00:  Build Rotating 
 BS  .in                  8.50:  Bit Size 
 BSZ .in                  8.50:  Bit Size 
 BTPL.psig              589.00:  Bit Press Loss 
 CABU.                      No:  Customer Abuse 
 CGEO.          Mubariz ghayev:  Customer Geo 
 TCS .hr                 64.25:  Time Ciculation Ended 
 CV  .mps                 3.50:  Crit Velocity 
 CVMX.mps                 4.52:  Max Crit Veloc 
 DD1 .             Aziz Aliyev:  Direct Drillr 1 
 DD2 .         Intigam Rahimov:  Direct Drillr 2 
 DD3 .          Rashad Habibov:  Direct Drillr 3 
 DDSV.               Geo-Pilot:  DD Service 
 DEFF.%                  98.00:  % Det Eff 
 DLRX.°/30m               0.00:  Dogleg Rot Max 
 DLSO.°/30m               0.00:  Dogleg Oriented 
 DLSX.°/30m               0.00:  Dogleg Str Max 
 DRET.      10.45.04 08-May-21:  Drill End Time 
 DRST.      03.30.04 04-May-21:  Drill Start Tim 
 DTIM.hr                 14.97:  Time Drilling 
 EDEP.m                4640.01:  End Depth 
 ENG1.         Dail Mahammadov:  Engineer 1 
 ENG2.           Eldar Hajiyev:  Engineer 2 
 ENG3.       Bakhtiar Jabbarli:  Engineer 3 
 ENG4.       Natik Hasanagayev:  Engineer 4 
 ETIM.      09.30.04 14-May-21:  End Time 
 FLOI.gpm               460.00:  Flow In 
 FLON.gpm               200.00:  Flow In Min 
 FLOS.cptm                0.00:  Fluid Loss 
 FLOX.gpm               505.00:  Flow In Max 
 HFLO.                      No:  High Flow 
 HPRE.                      No:  High Pressure 
 HTEM.                      No:  High Temp 
 HYDO.m                   1.80:  Hydro Offset 
 IFIN.deg                66.71:  Inc, Final 
 IMAX.deg                67.03:  Inc Max 
 IMIN.deg                66.63:  Inc Min 
 IMND.m                4550.58:  Inc Min Depth 
 IMXD.m                4439.01:  Inc Max Depth 
 JARR.                      No:  Jarring 
 LETM.      10.45.04 08-May-21:  Log End Time 
 LOST.hr                     0:  Lost Rig Time 
 LSTM.      03.30.04 04-May-21:  Log Start Time 
 MDCL.ppm             37000.00:  Mud Chlorides 
 MDES.     Inversion Oil/Synthetic:  Mud Desc 
 DFD .sg                  1.38:  Mud Density 
 MDMN.sg                  1.35:  Dens Mud Min 
 MDMX.sg                  1.40:  Dens Mud Max 
 MOIL.                   57.40:  Run Mud Oil % 
 MOWR.                   70:30:  Run Mud OWR 
 MSND.                    0.00:  Run Mud Sand % 
 MSOL.                   18.00:  Run Mud Solids% 
 DFV .spqt               71.00:  Mud Viscosity 
 MWOD.in                  6.75:  MWD Tool OD 
 MWSI.                      No:  Serv Intrp, MWD 
 OTIM.hr                242.76:  Time Operating 
 PCON.           Look Like New:  Pad Condition 
 PMAX.psia            12183.92:  Press Op, Max 
 PV  .cP                 27.00:  Mud PV 
 RUN .                    1300:  Run Number 
 ROPA.m/hr               15.00:  ROP Avg 
 ROPN.m/hr                9.00:  ROP Min 
 ROPX.m/hr               19.00:  ROP Max 
 RPMA.rpm               120.00:  RPM Surface Avg 
 RPMN.rpm               100.00:  RPM Surface Min 
 RPMX.rpm               120.00:  RPM Surface Max 
 RRUN.                    1300:  Rig Run Number 
 RTIM.hr                  5.00:  Time Reaming 
 SAZI.deg               304.73:  Azm, Start 
 SDEP.m                4412.01:  Start Depth 
 SIDD.                      No:  Serv Intrp, DD 
 SINC.deg                66.82:  Inc, Start 
 SPPA.psig             2800.00:  SPP Avg 
 SPPN.psig             2610.00:  SPP Min 
 SPPX.psig             3100.00:  SPP Max 
 STIM.      03.30.00 04-May-21:  Start Time 
 SVCS.                 DD, MWD:  Services 
 SVER.                    9.20:  Sperry Version 
 TDAT.m                 228.00:  Tot Depth Attmp 
 TDDF.                      No:  Trip for DD 
 TDLG.m                 228.00:  Tot Depth Loggd 
 TFF .                      No:  Trip for Fail 
 TQAA.f-kp               15.00:  Torque Abs Avg 
 TQAN.f-kp               12.00:  Torque Abs Min 
 TQAX.f-kp               22.00:  Torque Abs Max 
 TRRT.°/30m               0.00:  Turn Rotating 
 MRT .                    HCIM:  Maximum Recorded Temperature 
 TTMX.degC               90.20:  Max Tool Temp 
 VS01.                90627813:  Virtual Str1 SN 
 VS02.                90634712:  Virtual Str2 SN 
 VS03.                90643410:  Virtual Str3 SN 
 VS04.                90634712:  Virtual Str4 SN 
 WBMN.klb                 9.00:  WOB Min 
 WITN.        Elmaddin Rahimov:  Customer Rep 
 WITN.         Haytham Mostafa:  Customer Rep 2 
 WOBA.klb                15.00:  WOB Avg 
 WOBX.klb                23.00:  WOB Max 
 YP  .lhf2               29.00:  Yield Point 
~Curve Information Block
#MNEM.UNIT                 API CODE     Curve Description
#---------               -----------    ---------------------------
 TIME.HHMMSS            00 000 000 000:  GT Time & Date
 GTDEPTH.m              00 000 000 000:  GT Depth
 GTPQH.psia             00 000 000 000:  GT HR Quartz Pressure
 GTTQ.degC              00 000 000 000:  GT Quartz Temperature
 GTTN.NONE              00 000 000 000:  GT Test Number
 GTET.sec               00 000 000 000:  GT Elapsed Test Time
 GTTVD.m                00 000 000 000:  GT True Vertical Depth
#Other Information
#
#WARRANTY: Halliburton will use its best efforts to furnish customers with 
#accurate information and interpretations that are part of, and incident to, the services 
#provided.  However, Halliburton cannot and does not warrant the accuracy 
#or correctness of such information and interpretations.  Under no circumstances should any 
#such information or interpretation be relied upon as the sole basis for any drilling, 
#completion, production, or financial decision or any procedure involving any risk to the 
#safety of any drilling venture, drilling rig or its crew or any other third party.  The 
#Customer has full responsibility for all drilling, completion and production operation.  
#Halliburton makes no representations or warranties, either expressed or 
#implied, including, but not limited to, the implied warranties of merchantability or fitness 
#for a particular purpose, with respect to the services rendered.  In no event will 
#Halliburton be liable for failure to obtain any particular results or for 
#any damages, including, but not limited to, indirect, special or consequential damages, 
#resulting from the use of any information or interpretation provided by Halliburton.
#
~A           TIME           GTDEPTH  GTPQH  GTTQ  GTTN   GTET   GTTVD  
# ...
   00:25:44.046.10-May-2021 4497.51  609.35 60.47 18.00  90.44 2971.13
   00:25:44.246.10-May-2021 4497.51  609.59 60.47 18.00  90.64 2971.13
   00:25:44.447.10-May-2021 4497.51  609.85 60.47 18.00  90.84 2971.13
   00:25:44.647.10-May-2021 4497.51  610.08 60.47 18.00  91.04 2971.13
   00:25:44.847.10-May-2021 4497.51  610.08 60.47 18.00  91.24 2971.13
   00:25:45.047.10-May-2021 4497.51  610.58 60.47 18.00  91.44 2971.13
   00:25:45.247.10-May-2021 4497.51  610.82 60.47 18.00  91.64 2971.13
   00:25:45.447.10-May-2021 4497.51  610.59 60.47 18.00  91.84 2971.13
   00:25:45.647.10-May-2021 4497.51  611.45 60.47 18.00  92.04 2971.13
   00:25:45.847.10-May-2021 4497.51  611.45 60.47 18.00  92.24 2971.13
   00:25:46.047.10-May-2021 4497.51  611.23 60.47 18.00  92.44 2971.13
   00:25:46.247.10-May-2021 4497.51  612.26 60.47 18.00  92.64 2971.13
   00:25:46.447.10-May-2021 4497.51  612.20 60.47 18.00  92.84 2971.13
   00:25:46.647.10-May-2021 4497.51  612.48 60.47 18.00  93.04 2971.13
   00:25:46.848.10-May-2021 4497.51  612.48 60.47 18.00  93.24 2971.13
   00:25:47.048.10-May-2021 4497.51  612.57 60.47 18.00  93.44 2971.13
   00:25:47.248.10-May-2021 4497.51  613.26 60.47 18.00  93.64 2971.13
   00:25:47.448.10-May-2021 4497.51  613.36 60.47 18.00  93.84 2971.13
   00:25:47.648.10-May-2021 4497.51  613.76 60.47 18.00  94.04 2971.13
   00:25:47.848.10-May-2021 4497.51  613.76 60.47 18.00  94.24 2971.13
   00:25:48.048.10-May-2021 4497.51  614.14 60.47 18.00  94.44 2971.13
   00:25:48.248.10-May-2021 4497.51  614.32 60.47 18.00  94.64 2971.13
   00:25:48.448.10-May-2021 4497.51  614.68 60.47 18.00  94.84 2971.13
   00:25:48.648.10-May-2021 4497.51  614.74 60.47 18.00  95.04 2971.13
   00:25:48.848.10-May-2021 4497.51  614.74 60.47 18.00  95.24 2971.13
   00:25:49.049.10-May-2021 4497.51  614.74 60.47 18.00  95.44 2971.13
   00:25:49.249.10-May-2021 4497.51  615.46 60.48 18.00  95.64 2971.13
   00:25:49.449.10-May-2021 4497.51  615.70 60.48 18.00  95.84 2971.13
   00:25:49.649.10-May-2021 4497.51  615.92 60.48 18.00  96.04 2971.13
   00:25:49.849.10-May-2021 4497.51  615.92 60.48 18.00  96.24 2971.13
   00:25:50.049.10-May-2021 4497.51  616.39 60.48 18.00  96.44 2971.13
   00:25:50.249.10-May-2021 4497.51  616.64 60.48 18.00  96.64 2971.13
   00:25:50.449.10-May-2021 4497.51  616.32 60.48 18.00  96.84 2971.13
   00:25:50.649.10-May-2021 4497.51  617.35 60.48 18.00  97.04 2971.13
   00:25:50.849.10-May-2021 4497.51  617.35 60.48 18.00  97.24 2971.13
   00:25:51.049.10-May-2021 4497.51  617.67 60.48 18.00  97.44 2971.13
   00:25:51.249.10-May-2021 4497.51  617.76 60.48 18.00  97.64 2971.13
   00:25:51.450.10-May-2021 4497.51  618.01 60.48 18.00  97.84 2971.13
   00:25:51.650.10-May-2021 4497.51  618.28 60.48 18.00  98.04 2971.13
   00:25:51.850.10-May-2021 4497.51  618.28 60.48 18.00  98.24 2971.13
   00:25:52.050.10-May-2021 4497.51  618.82 60.48 18.00  98.44 2971.13
   00:25:52.250.10-May-2021 4497.51  619.08 60.48 18.00  98.64 2971.13
   00:25:52.450.10-May-2021 4497.51  619.33 60.48 18.00  98.84 2971.13
   00:25:52.650.10-May-2021 4497.51  619.59 60.48 18.00  99.04 2971.13
   00:25:52.850.10-May-2021 4497.51  619.59 60.48 18.00  99.24 2971.13
   00:25:53.050.10-May-2021 4497.51  619.86 60.48 18.00  99.44 2971.13
   00:25:53.250.10-May-2021 4497.51  620.54 60.48 18.00  99.64 2971.13
   00:25:53.450.10-May-2021 4497.51  620.68 60.48 18.00  99.84 2971.13
   00:25:53.650.10-May-2021 4497.51  620.62 60.48 18.00 100.04 2971.13
   00:25:53.851.10-May-2021 4497.51  620.62 60.48 18.00 100.24 2971.13
   00:25:54.051.10-May-2021 4497.51  621.48 60.48 18.00 100.44 2971.13
   00:25:54.251.10-May-2021 4497.51  621.71 60.48 18.00 100.64 2971.13
   00:25:54.451.10-May-2021 4497.51  621.83 60.48 18.00 100.84 2971.13
   00:25:54.651.10-May-2021 4497.51  621.60 60.48 18.00 101.04 2971.13
   00:25:54.851.10-May-2021 4497.51  621.60 60.48 18.00 101.24 2971.13
   00:25:55.051.10-May-2021 4497.51  622.62 60.48 18.00 101.44 2971.13
   00:25:55.251.10-May-2021 4497.51  623.04 60.48 18.00 101.64 2971.13
   00:25:55.451.10-May-2021 4497.51  623.16 60.48 18.00 101.84 2971.13
   00:25:55.651.10-May-2021 4497.51  622.97 60.48 18.00 102.04 2971.13
   00:25:55.851.10-May-2021 4497.51  622.97 60.48 18.00 102.24 2971.13
   00:25:56.052.10-May-2021 4497.51  623.98 60.48 18.00 102.44 2971.13
   00:25:56.252.10-May-2021 4497.51  624.12 60.48 18.00 102.64 2971.13
   00:25:56.452.10-May-2021 4497.51  624.46 60.48 18.00 102.84 2971.13
   00:25:56.652.10-May-2021 4497.51  624.68 60.48 18.00 103.04 2971.13
   00:25:56.852.10-May-2021 4497.51  624.68 60.48 18.00 103.24 2971.13
   00:25:57.052.10-May-2021 4497.51  625.19 60.48 18.00 103.44 2971.13
   00:25:57.252.10-May-2021 4497.51  625.45 60.48 18.00 103.64 2971.13
   00:25:57.452.10-May-2021 4497.51  625.68 60.48 18.00 103.84 2971.13
   00:25:57.652.10-May-2021 4497.51  625.94 60.48 18.00 104.04 2971.13
   00:25:57.852.10-May-2021 4497.51  625.94 60.48 18.00 104.24 2971.13
   00:25:58.052.10-May-2021 4497.51  626.23 60.48 18.00 104.44 2971.13
   00:25:58.252.10-May-2021 4497.51  626.45 60.48 18.00 104.64 2971.13
   00:25:58.453.10-May-2021 4497.51  627.05 60.48 18.00 104.84 2971.13
   00:25:58.653.10-May-2021 4497.51  627.23 60.48 18.00 105.04 2971.13
   00:25:58.853.10-May-2021 4497.51  627.23 60.48 18.00 105.25 2971.13
   00:25:59.053.10-May-2021 4497.51  627.64 60.48 18.00 105.45 2971.13
   00:25:59.253.10-May-2021 4497.51  627.87 60.48 18.00 105.65 2971.13
   00:25:59.453.10-May-2021 4497.51  628.11 60.48 18.00 105.85 2971.13
   00:25:59.653.10-May-2021 4497.51  628.35 60.48 18.00 106.05 2971.13
   00:25:59.853.10-May-2021 4497.51  628.35 60.48 18.00 106.25 2971.13
   00:26:00.053.10-May-2021 4497.51  628.82 60.48 18.00 106.45 2971.13
   00:26:00.253.10-May-2021 4497.51  629.06 60.48 18.00 106.65 2971.13
   00:26:00.453.10-May-2021 4497.51  629.29 60.48 18.00 106.85 2971.13
   00:26:00.653.10-May-2021 4497.51  628.98 60.48 18.00 107.05 2971.13
   00:26:00.854.10-May-2021 4497.51  628.98 60.48 18.00 107.25 2971.13
   00:26:01.054.10-May-2021 4497.51  629.90 60.48 18.00 107.45 2971.13
   00:26:01.254.10-May-2021 4497.51  630.28 60.48 18.00 107.65 2971.13
   00:26:01.454.10-May-2021 4497.51  630.01 60.48 18.00 107.85 2971.13
   00:26:01.654.10-May-2021 4497.51  630.69 60.48 18.00 108.05 2971.13
   00:26:01.854.10-May-2021 4497.51  630.69 60.48 18.00 108.25 2971.13
   00:26:02.054.10-May-2021 4497.51  631.23 60.48 18.00 108.45 2971.13
   00:26:02.254.10-May-2021 4497.51  631.29 60.48 18.00 108.65 2971.13
   00:26:02.454.10-May-2021 4497.51  631.09 60.48 18.00 108.85 2971.13
   00:26:02.654.10-May-2021 4497.51  632.03 60.48 18.00 109.05 2971.13
   00:26:02.854.10-May-2021 4497.51  632.03 60.48 18.00 109.25 2971.13
   00:26:03.054.10-May-2021 4497.51  631.72 60.48 18.00 109.45 2971.13
   00:26:03.255.10-May-2021 4497.51  632.68 60.48 18.00 109.65 2971.13
   00:26:03.455.10-May-2021 4497.51  632.65 60.48 18.00 109.85 2971.13
   00:26:03.655.10-May-2021 4497.51  632.91 60.48 18.00 110.05 2971.13
   00:26:03.855.10-May-2021 4497.51  632.91 60.48 18.00 110.25 2971.13
   00:26:04.055.10-May-2021 4497.51  633.27 60.48 18.00 110.45 2971.13
   00:26:04.255.10-May-2021 4497.51  633.54 60.48 18.00 110.65 2971.13
   00:26:04.455.10-May-2021 4497.51  633.74 60.48 18.00 110.85 2971.13
   00:26:04.655.10-May-2021 4497.51  633.97 60.48 18.00 111.05 2971.13
   00:26:04.855.10-May-2021 4497.51  633.97 60.48 18.00 111.25 2971.13
   00:26:05.055.10-May-2021 4497.51  634.42 60.48 18.00 111.45 2971.13
   00:26:05.255.10-May-2021 4497.51  634.62 60.48 18.00 111.65 2971.13
   00:26:05.456.10-May-2021 4497.51  634.86 60.48 18.00 111.85 2971.13
   00:26:05.656.10-May-2021 4497.51  634.60 60.48 18.00 112.05 2971.13
   00:26:05.856.10-May-2021 4497.51  634.60 60.48 18.00 112.25 2971.13
   00:26:06.056.10-May-2021 4497.51  635.58 60.48 18.00 112.45 2971.13
   00:26:06.256.10-May-2021 4497.51  635.69 60.48 18.00 112.65 2971.13
   00:26:06.456.10-May-2021 4497.51  635.94 60.48 18.00 112.85 2971.13
