~Version Information
 VERS.                  2.0:   CWLS log ASCII Standard -VERSION 2.0
 WRAP.                   NO:   One line per depth step
~Well Information Block
#MNEM.UNIT     VALUE/NAME     DESCRIPTION
#---------     -----------    ---------------------------
 STRT.S             00:24:13 10-May-21: START TIME 00:24:13 10-May-21
 STOP.S             00:32:26 10-May-21: STOP TIME  00:32:26 10-May-21
 STEP.S                   0.00: STEP TIME
 NULL.                 -999.25: NULL VALUE
 PROV.                    Baku:  PROVINCE
 STAT.                    Baku:  STATE NAME
 SON .        AZ-XX-0906571588:  JOB NUMBER
 WTYP.                Deviated:  WELL TYPE
 COMP.     BP Exploration (Caspian Sea) ltd:  COMPANY
 BASE.              Azerbaijan:  LOGGING EQUIPMENT BASE LOCATION
 REGN.                   EESSA:  REGION
 CTRY.              Azerbaijan:  COUNTRY NAME
 FLD .                     ACG:  FIELD NAME
 WELL.                     J28:  WELL NAME
 RIG .             West Chirag:  RIG NAME
 DMF .             Drill Floor:  DRILL MEAS FROM
 PDAT.       Caspian Sea Level:  PERMANENT DATUM
 HPTY.       Minimum Curvature:  HOLE POS TYPE
 MDS .        Operator Entered:  MAG DATA SOURCE
 NREF.                    Grid:  NORTH REFERENCE
 SRVC.          TURAN DRILLING:  CONTRACTOR
 JOBN.        AZ-XX-0906571588:  JOB TICKET NUMB
 DCON.     Halliburton Sperry Drilling:  DIRECTNL CONTR
 STIM.      00.44.00 11-Feb-21:  START TIME
 DATE.      00.00.00 05-May-21:  END TIME
 SPUD.               13-Feb-21:  SPUD DATE
 MWDS.                    Baku:  MWD SHOP
 DOE .                     N/A:  DOE NUMBER
 UNIT.                     N/A:  LOGGING EQUIPMENT ID
 UWI .                     N/A:  UNIQUE WELL IDENTIFIER
 API .                     N/A:  API NUMBER
 CNTY.                        :  COUNTY
 LOC .                        :  LOCATION
 LMF .             Drill Floor:  LOG MEASURED FROM
 TVDS.m                  43.00:  TVDSS CORRECTN
 SDEP.m                 341.00:  START DEPTH
 EGL .m                   0.00:  GROUND ELEVATION
 WDMS.m                 169.80:  WD ELEV
 AGAP.m                  43.00:  AIR GAP
 EPD .m                   0.00:  ELEVATION
 APD .m                  43.00:  DEPTH ABOVE PD
 LATI.deg                40.13:  LATITUDE
 LONG.deg                51.22:  LONGITUDE
 UTMY.m             4443793.85:  UTM Y
 UTMX.m              519005.06:  UTM X
 WHEW.m                 -11.57:  WELL HEAD E/W
 WHNS.m                   8.57:  WELL HEAD N/S
 VSEW.m                 -11.57:  VERT SEC E/W
 VSNS.m                   8.57:  VERT SEC N/S
 DFWL.m                   0.00:  DISTANCE FWL
 DFSL.m                   0.00:  DISTANCE FSL
 VSDR.deg               299.34:  VERT SEC DIRECT
 GVFD.g                   1.00:  GRAVITY FIELD
 AZTC.deg                 6.36:  AZM TOTAL CORR
 MFLD.nT              50391.00:  MAGNETIC FIELD
 MDIP.deg                59.65:  MAGNETIC DIP
 MDEC.deg                 6.48:  MAGNETIC DECL
 GRDC.deg                 0.12:  GRID CORRECTION
 DEP .m                 334.96:  DEPTH
 TDD .m                1407.26:  TOTAL DEPTH (DRILLER)
 EKB .m                  43.00:  KB ELEVATION
 EDF .m                  43.00:  DF ELEVATION
 TDL .m                 228.00:  TOTAL DEPTH (LOGGER)
 VSC .                       0:  VS TO CLOSURE
 MAGU.                 1854484:  MAGUTM CHECKSUM
~Parameter Information Block
#MNEM.UNIT       Value        Description
#---------     -----------    ---------------------------
 AV  .mps                 4.00:  Ann Velocity 
 AVMX.mps                 4.73:  Max Ann Veloc 
 AZIF.deg               304.48:  Azm, Final 
 BHAT.        Rotary Steerable:  BHA Type 
 BREV.rev            257300.00:  Rev Bit Total 
 BROT.°/30m               0.00:  Build Rotating 
 BS  .in                  8.50:  Bit Size 
 BSZ .in                  8.50:  Bit Size 
 BTPL.psig              589.00:  Bit Press Loss 
 CABU.                      No:  Customer Abuse 
 CGEO.          Mubariz ghayev:  Customer Geo 
 TCS .hr                 64.25:  Time Ciculation Ended 
 CV  .mps                 3.50:  Crit Velocity 
 CVMX.mps                 4.52:  Max Crit Veloc 
 DD1 .             Aziz Aliyev:  Direct Drillr 1 
 DD2 .         Intigam Rahimov:  Direct Drillr 2 
 DD3 .          Rashad Habibov:  Direct Drillr 3 
 DDSV.               Geo-Pilot:  DD Service 
 DEFF.%                  98.00:  % Det Eff 
 DLRX.°/30m               0.00:  Dogleg Rot Max 
 DLSO.°/30m               0.00:  Dogleg Oriented 
 DLSX.°/30m               0.00:  Dogleg Str Max 
 DRET.      10.45.04 08-May-21:  Drill End Time 
 DRST.      03.30.04 04-May-21:  Drill Start Tim 
 DTIM.hr                 14.97:  Time Drilling 
 EDEP.m                4640.01:  End Depth 
 ENG1.         Dail Mahammadov:  Engineer 1 
 ENG2.           Eldar Hajiyev:  Engineer 2 
 ENG3.       Bakhtiar Jabbarli:  Engineer 3 
 ENG4.       Natik Hasanagayev:  Engineer 4 
 ETIM.      09.30.04 14-May-21:  End Time 
 FLOI.gpm               460.00:  Flow In 
 FLON.gpm               200.00:  Flow In Min 
 FLOS.cptm                0.00:  Fluid Loss 
 FLOX.gpm               505.00:  Flow In Max 
 HFLO.                      No:  High Flow 
 HPRE.                      No:  High Pressure 
 HTEM.                      No:  High Temp 
 HYDO.m                   1.80:  Hydro Offset 
 IFIN.deg                66.71:  Inc, Final 
 IMAX.deg                67.03:  Inc Max 
 IMIN.deg                66.63:  Inc Min 
 IMND.m                4550.58:  Inc Min Depth 
 IMXD.m                4439.01:  Inc Max Depth 
 JARR.                      No:  Jarring 
 LETM.      10.45.04 08-May-21:  Log End Time 
 LOST.hr                     0:  Lost Rig Time 
 LSTM.      03.30.04 04-May-21:  Log Start Time 
 MDCL.ppm             37000.00:  Mud Chlorides 
 MDES.     Inversion Oil/Synthetic:  Mud Desc 
 DFD .sg                  1.38:  Mud Density 
 MDMN.sg                  1.35:  Dens Mud Min 
 MDMX.sg                  1.40:  Dens Mud Max 
 MOIL.                   57.40:  Run Mud Oil % 
 MOWR.                   70:30:  Run Mud OWR 
 MSND.                    0.00:  Run Mud Sand % 
 MSOL.                   18.00:  Run Mud Solids% 
 DFV .spqt               71.00:  Mud Viscosity 
 MWOD.in                  6.75:  MWD Tool OD 
 MWSI.                      No:  Serv Intrp, MWD 
 OTIM.hr                242.76:  Time Operating 
 PCON.           Look Like New:  Pad Condition 
 PMAX.psia            12183.92:  Press Op, Max 
 PV  .cP                 27.00:  Mud PV 
 RUN .                    1300:  Run Number 
 ROPA.m/hr               15.00:  ROP Avg 
 ROPN.m/hr                9.00:  ROP Min 
 ROPX.m/hr               19.00:  ROP Max 
 RPMA.rpm               120.00:  RPM Surface Avg 
 RPMN.rpm               100.00:  RPM Surface Min 
 RPMX.rpm               120.00:  RPM Surface Max 
 RRUN.                    1300:  Rig Run Number 
 RTIM.hr                  5.00:  Time Reaming 
 SAZI.deg               304.73:  Azm, Start 
 SDEP.m                4412.01:  Start Depth 
 SIDD.                      No:  Serv Intrp, DD 
 SINC.deg                66.82:  Inc, Start 
 SPPA.psig             2800.00:  SPP Avg 
 SPPN.psig             2610.00:  SPP Min 
 SPPX.psig             3100.00:  SPP Max 
 STIM.      03.30.00 04-May-21:  Start Time 
 SVCS.                 DD, MWD:  Services 
 SVER.                    9.20:  Sperry Version 
 TDAT.m                 228.00:  Tot Depth Attmp 
 TDDF.                      No:  Trip for DD 
 TDLG.m                 228.00:  Tot Depth Loggd 
 TFF .                      No:  Trip for Fail 
 TQAA.f-kp               15.00:  Torque Abs Avg 
 TQAN.f-kp               12.00:  Torque Abs Min 
 TQAX.f-kp               22.00:  Torque Abs Max 
 TRRT.°/30m               0.00:  Turn Rotating 
 MRT .                    HCIM:  Maximum Recorded Temperature 
 TTMX.degC               90.20:  Max Tool Temp 
 VS01.                90627813:  Virtual Str1 SN 
 VS02.                90634712:  Virtual Str2 SN 
 VS03.                90643410:  Virtual Str3 SN 
 VS04.                90634712:  Virtual Str4 SN 
 WBMN.klb                 9.00:  WOB Min 
 WITN.        Elmaddin Rahimov:  Customer Rep 
 WITN.         Haytham Mostafa:  Customer Rep 2 
 WOBA.klb                15.00:  WOB Avg 
 WOBX.klb                23.00:  WOB Max 
 YP  .lhf2               29.00:  Yield Point 
~Curve Information Block
#MNEM.UNIT                 API CODE     Curve Description
#---------               -----------    ---------------------------
 TIME.HHMMSS            00 000 000 000:  GT Time & Date
 GTDEPTH.m              00 000 000 000:  GT Depth
 GTPQH.psia             00 000 000 000:  GT HR Quartz Pressure
 GTTQ.degC              00 000 000 000:  GT Quartz Temperature
 GTTN.NONE              00 000 000 000:  GT Test Number
 GTET.sec               00 000 000 000:  GT Elapsed Test Time
 GTTVD.m                00 000 000 000:  GT True Vertical Depth
#Other Information
#
#WARRANTY: Halliburton will use its best efforts to furnish customers with 
#accurate information and interpretations that are part of, and incident to, the services 
#provided.  However, Halliburton cannot and does not warrant the accuracy 
#or correctness of such information and interpretations.  Under no circumstances should any 
#such information or interpretation be relied upon as the sole basis for any drilling, 
#completion, production, or financial decision or any procedure involving any risk to the 
#safety of any drilling venture, drilling rig or its crew or any other third party.  The 
#Customer has full responsibility for all drilling, completion and production operation.  
#Halliburton makes no representations or warranties, either expressed or 
#implied, including, but not limited to, the implied warranties of merchantability or fitness 
#for a particular purpose, with respect to the services rendered.  In no event will 
#Halliburton be liable for failure to obtain any particular results or for 
#any damages, including, but not limited to, indirect, special or consequential damages, 
#resulting from the use of any information or interpretation provided by Halliburton.
#
~A           TIME           GTDEPTH  GTPQH  GTTQ  GTTN   GTET   GTTVD  
# ...
   00:29:52.753.10-May-2021 4497.51  455.77 60.45 18.00 339.15 2971.13
   00:29:52.953.10-May-2021 4497.51  455.77 60.45 18.00 339.35 2971.13
   00:29:53.153.10-May-2021 4497.51  456.32 60.45 18.00 339.55 2971.13
   00:29:53.353.10-May-2021 4497.51  456.58 60.45 18.00 339.75 2971.13
   00:29:53.553.10-May-2021 4497.51  456.82 60.45 18.00 339.95 2971.13
   00:29:53.753.10-May-2021 4497.51  457.05 60.45 18.00 340.15 2971.13
   00:29:53.953.10-May-2021 4497.51  457.05 60.45 18.00 340.35 2971.13
   00:29:54.153.10-May-2021 4497.51  457.53 60.45 18.00 340.55 2971.13
   00:29:54.353.10-May-2021 4497.51  457.78 60.45 18.00 340.75 2971.13
   00:29:54.554.10-May-2021 4497.51  457.80 60.45 18.00 340.95 2971.13
   00:29:54.754.10-May-2021 4497.51  458.05 60.45 18.00 341.15 2971.13
   00:29:54.954.10-May-2021 4497.51  458.05 60.45 18.00 341.35 2971.13
   00:29:55.154.10-May-2021 4497.51  458.78 60.45 18.00 341.55 2971.13
   00:29:55.354.10-May-2021 4497.51  458.89 60.45 18.00 341.75 2971.13
   00:29:55.554.10-May-2021 4497.51  459.21 60.45 18.00 341.95 2971.13
   00:29:55.754.10-May-2021 4497.51  459.04 60.45 18.00 342.15 2971.13
   00:29:55.954.10-May-2021 4497.51  459.04 60.45 18.00 342.35 2971.13
   00:29:56.154.10-May-2021 4497.51  459.81 60.45 18.00 342.55 2971.13
   00:29:56.354.10-May-2021 4497.51  460.26 60.45 18.00 342.75 2971.13
   00:29:56.554.10-May-2021 4497.51  460.11 60.45 18.00 342.95 2971.13
   00:29:56.754.10-May-2021 4497.51  460.41 60.44 18.00 343.15 2971.13
   00:29:56.955.10-May-2021 4497.51  460.41 60.44 18.00 343.35 2971.13
   00:29:57.155.10-May-2021 4497.51  461.14 60.44 18.00 343.55 2971.13
   00:29:57.355.10-May-2021 4497.51  461.26 60.44 18.00 343.75 2971.13
   00:29:57.555.10-May-2021 4497.51  461.11 60.44 18.00 343.95 2971.13
   00:29:57.755.10-May-2021 4497.51  461.91 60.44 18.00 344.15 2971.13
   00:29:57.955.10-May-2021 4497.51  461.91 60.44 18.00 344.35 2971.13
   00:29:58.155.10-May-2021 4497.51  462.14 60.44 18.00 344.55 2971.13
   00:29:58.355.10-May-2021 4497.51  462.48 60.44 18.00 344.75 2971.13
   00:29:58.555.10-May-2021 4497.51  462.63 60.44 18.00 344.95 2971.13
   00:29:58.755.10-May-2021 4497.51  462.89 60.44 18.00 345.15 2971.13
   00:29:58.955.10-May-2021 4497.51  462.89 60.44 18.00 345.35 2971.13
   00:29:59.156.10-May-2021 4497.51  463.34 60.44 18.00 345.55 2971.13
   00:29:59.356.10-May-2021 4497.51  463.54 60.44 18.00 345.75 2971.13
   00:29:59.556.10-May-2021 4497.51  463.78 60.44 18.00 345.95 2971.13
   00:29:59.756.10-May-2021 4497.51  464.01 60.44 18.00 346.15 2971.13
   00:29:59.956.10-May-2021 4497.51  464.01 60.44 18.00 346.35 2971.13
   00:30:00.156.10-May-2021 4497.51  464.50 60.44 18.00 346.55 2971.13
   00:30:00.356.10-May-2021 4497.51  464.61 60.44 18.00 346.75 2971.13
   00:30:00.556.10-May-2021 4497.51  465.01 60.44 18.00 346.95 2971.13
   00:30:00.756.10-May-2021 4497.51  465.08 60.44 18.00 347.15 2971.13
   00:30:00.956.10-May-2021 4497.51  465.08 60.44 18.00 347.35 2971.13
   00:30:01.156.10-May-2021 4497.51  465.56 60.44 18.00 347.55 2971.13
   00:30:01.356.10-May-2021 4497.51  465.76 60.44 18.00 347.75 2971.13
   00:30:01.557.10-May-2021 4497.51  465.99 60.44 18.00 347.95 2971.13
   00:30:01.757.10-May-2021 4497.51  466.19 60.44 18.00 348.15 2971.13
   00:30:01.957.10-May-2021 4497.51  466.19 60.44 18.00 348.35 2971.13
   00:30:02.157.10-May-2021 4497.51  466.63 60.44 18.00 348.55 2971.13
   00:30:02.357.10-May-2021 4497.51  466.87 60.44 18.00 348.75 2971.13
   00:30:02.557.10-May-2021 4497.51  466.55 60.44 18.00 348.95 2971.13
   00:30:02.757.10-May-2021 4497.51  467.56 60.44 18.00 349.15 2971.13
   00:30:02.957.10-May-2021 4497.51  467.56 60.44 18.00 349.35 2971.13
   00:30:03.157.10-May-2021 4497.51  467.82 60.44 18.00 349.55 2971.13
   00:30:03.357.10-May-2021 4497.51  467.93 60.44 18.00 349.75 2971.13
   00:30:03.557.10-May-2021 4497.51  467.72 60.44 18.00 349.95 2971.13
   00:30:03.757.10-May-2021 4497.51  468.62 60.44 18.00 350.15 2971.13
   00:30:03.958.10-May-2021 4497.51  468.62 60.44 18.00 350.35 2971.13
   00:30:04.158.10-May-2021 4497.51  468.80 60.44 18.00 350.55 2971.13
   00:30:04.358.10-May-2021 4497.51  469.05 60.44 18.00 350.75 2971.13
   00:30:04.558.10-May-2021 4497.51  468.69 60.44 18.00 350.95 2971.13
   00:30:04.758.10-May-2021 4497.51  469.73 60.44 18.00 351.15 2971.13
   00:30:04.958.10-May-2021 4497.51  469.73 60.44 18.00 351.35 2971.13
   00:30:05.158.10-May-2021 4497.51  469.45 60.44 18.00 351.55 2971.13
   00:30:05.358.10-May-2021 4497.51  470.40 60.44 18.00 351.75 2971.13
   00:30:05.558.10-May-2021 4497.51  470.27 60.44 18.00 351.95 2971.13
   00:30:05.758.10-May-2021 4497.51  470.66 60.44 18.00 352.15 2971.13
   00:30:05.958.10-May-2021 4497.51  470.66 60.44 18.00 352.35 2971.13
   00:30:06.158.10-May-2021 4497.51  470.95 60.44 18.00 352.55 2971.13
   00:30:06.359.10-May-2021 4497.51  471.17 60.44 18.00 352.75 2971.13
   00:30:06.559.10-May-2021 4497.51  471.39 60.44 18.00 352.95 2971.13
   00:30:06.759.10-May-2021 4497.51  471.60 60.44 18.00 353.15 2971.13
   00:30:06.959.10-May-2021 4497.51  471.60 60.44 18.00 353.35 2971.13
   00:30:07.159.10-May-2021 4497.51  472.01 60.44 18.00 353.55 2971.13
   00:30:07.359.10-May-2021 4497.51  472.24 60.44 18.00 353.75 2971.13
   00:30:07.559.10-May-2021 4497.51  472.45 60.44 18.00 353.95 2971.13
   00:30:07.759.10-May-2021 4497.51  472.24 60.44 18.00 354.15 2971.13
   00:30:07.959.10-May-2021 4497.51  472.24 60.44 18.00 354.35 2971.13
   00:30:08.159.10-May-2021 4497.51  473.17 60.44 18.00 354.55 2971.13
   00:30:08.359.10-May-2021 4497.51  473.25 60.44 18.00 354.75 2971.13
   00:30:08.560.10-May-2021 4497.51  473.55 60.44 18.00 354.95 2971.13
   00:30:08.760.10-May-2021 4497.51  473.73 60.44 18.00 355.15 2971.13
   00:30:08.960.10-May-2021 4497.51  473.73 60.44 18.00 355.35 2971.13
   00:30:09.160.10-May-2021 4497.51  474.17 60.44 18.00 355.55 2971.13
   00:30:09.360.10-May-2021 4497.51  474.37 60.44 18.00 355.75 2971.13
   00:30:09.560.10-May-2021 4497.51  474.57 60.44 18.00 355.95 2971.13
   00:30:09.760.10-May-2021 4497.51  474.77 60.44 18.00 356.15 2971.13
   00:30:09.960.10-May-2021 4497.51  474.77 60.44 18.00 356.35 2971.13
   00:30:10.160.10-May-2021 4497.51  474.98 60.44 18.00 356.55 2971.13
   00:30:10.360.10-May-2021 4497.51  475.22 60.44 18.00 356.75 2971.13
   00:30:10.560.10-May-2021 4497.51  475.74 60.44 18.00 356.95 2971.13
   00:30:10.760.10-May-2021 4497.51  475.90 60.44 18.00 357.15 2971.13
   00:30:10.961.10-May-2021 4497.51  475.90 60.44 18.00 357.35 2971.13
   00:30:11.161.10-May-2021 4497.51  475.67 60.44 18.00 357.55 2971.13
   00:30:11.361.10-May-2021 4497.51  476.69 60.44 18.00 357.75 2971.13
   00:30:11.561.10-May-2021 4497.51  476.56 60.44 18.00 357.95 2971.13
   00:30:11.761.10-May-2021 4497.51  476.91 60.44 18.00 358.15 2971.13
   00:30:11.961.10-May-2021 4497.51  476.91 60.44 18.00 358.35 2971.13
   00:30:12.161.10-May-2021 4497.51  476.98 60.44 18.00 358.55 2971.13
   00:30:12.361.10-May-2021 4497.51  477.25 60.44 18.00 358.75 2971.13
   00:30:12.561.10-May-2021 4497.51  477.77 60.44 18.00 358.95 2971.13
   00:30:12.761.10-May-2021 4497.51  477.96 60.44 18.00 359.15 2971.13
   00:30:12.961.10-May-2021 4497.51  477.96 60.44 18.00 359.35 2971.13
   00:30:13.161.10-May-2021 4497.51  478.06 60.44 18.00 359.55 2971.13
   00:30:13.362.10-May-2021 4497.51  478.23 60.44 18.00 359.75 2971.13
   00:30:13.562.10-May-2021 4497.51  478.75 60.44 18.00 359.95 2971.13
   00:30:13.762.10-May-2021 4497.51  478.97 60.44 18.00 360.15 2971.13
   00:30:13.962.10-May-2021 4497.51  478.97 60.44 18.00 360.35 2971.13
   00:30:14.162.10-May-2021 4497.51  479.32 60.44 18.00 360.55 2971.13
   00:30:14.362.10-May-2021 4497.51  479.52 60.44 18.00 360.75 2971.13
   00:30:14.562.10-May-2021 4497.51  479.71 60.44 18.00 360.95 2971.13
   00:30:14.762.10-May-2021 4497.51  479.92 60.44 18.00 361.15 2971.13
   00:30:14.962.10-May-2021 4497.51  479.92 60.44 18.00 361.35 2971.13
   00:30:15.162.10-May-2021 4497.51  480.33 60.44 18.00 361.55 2971.13
