~Version Information
 VERS.                  2.0:   CWLS log ASCII Standard -VERSION 2.0
 WRAP.                   NO:   One line per depth step
~Well Information Block
#MNEM.UNIT     VALUE/NAME     DESCRIPTION
#---------     -----------    ---------------------------
 STRT.S             23:07:02 09-May-21: START TIME 23:07:02 09-May-21
 STOP.S             23:13:42 09-May-21: STOP TIME  23:13:42 09-May-21
 STEP.S                   0.00: STEP TIME
 NULL.                 -999.25: NULL VALUE
 PROV.                    Baku:  PROVINCE
 STAT.                    Baku:  STATE NAME
 SON .        AZ-XX-0906571588:  JOB NUMBER
 WTYP.                Deviated:  WELL TYPE
 COMP.     BP Exploration (Caspian Sea) ltd:  COMPANY
 BASE.              Azerbaijan:  LOGGING EQUIPMENT BASE LOCATION
 REGN.                   EESSA:  REGION
 CTRY.              Azerbaijan:  COUNTRY NAME
 FLD .                     ACG:  FIELD NAME
 WELL.                     J28:  WELL NAME
 RIG .             West Chirag:  RIG NAME
 DMF .             Drill Floor:  DRILL MEAS FROM
 PDAT.       Caspian Sea Level:  PERMANENT DATUM
 HPTY.       Minimum Curvature:  HOLE POS TYPE
 MDS .        Operator Entered:  MAG DATA SOURCE
 NREF.                    Grid:  NORTH REFERENCE
 SRVC.          TURAN DRILLING:  CONTRACTOR
 JOBN.        AZ-XX-0906571588:  JOB TICKET NUMB
 DCON.     Halliburton Sperry Drilling:  DIRECTNL CONTR
 STIM.      00.44.00 11-Feb-21:  START TIME
 DATE.      00.00.00 05-May-21:  END TIME
 SPUD.               13-Feb-21:  SPUD DATE
 MWDS.                    Baku:  MWD SHOP
 DOE .                     N/A:  DOE NUMBER
 UNIT.                     N/A:  LOGGING EQUIPMENT ID
 UWI .                     N/A:  UNIQUE WELL IDENTIFIER
 API .                     N/A:  API NUMBER
 CNTY.                        :  COUNTY
 LOC .                        :  LOCATION
 LMF .             Drill Floor:  LOG MEASURED FROM
 TVDS.m                  43.00:  TVDSS CORRECTN
 SDEP.m                 341.00:  START DEPTH
 EGL .m                   0.00:  GROUND ELEVATION
 WDMS.m                 169.80:  WD ELEV
 AGAP.m                  43.00:  AIR GAP
 EPD .m                   0.00:  ELEVATION
 APD .m                  43.00:  DEPTH ABOVE PD
 LATI.deg                40.13:  LATITUDE
 LONG.deg                51.22:  LONGITUDE
 UTMY.m             4443793.85:  UTM Y
 UTMX.m              519005.06:  UTM X
 WHEW.m                 -11.57:  WELL HEAD E/W
 WHNS.m                   8.57:  WELL HEAD N/S
 VSEW.m                 -11.57:  VERT SEC E/W
 VSNS.m                   8.57:  VERT SEC N/S
 DFWL.m                   0.00:  DISTANCE FWL
 DFSL.m                   0.00:  DISTANCE FSL
 VSDR.deg               299.34:  VERT SEC DIRECT
 GVFD.g                   1.00:  GRAVITY FIELD
 AZTC.deg                 6.36:  AZM TOTAL CORR
 MFLD.nT              50391.00:  MAGNETIC FIELD
 MDIP.deg                59.65:  MAGNETIC DIP
 MDEC.deg                 6.48:  MAGNETIC DECL
 GRDC.deg                 0.12:  GRID CORRECTION
 DEP .m                 334.96:  DEPTH
 TDD .m                1407.26:  TOTAL DEPTH (DRILLER)
 EKB .m                  43.00:  KB ELEVATION
 EDF .m                  43.00:  DF ELEVATION
 TDL .m                 228.00:  TOTAL DEPTH (LOGGER)
 VSC .                       0:  VS TO CLOSURE
 MAGU.                 1854484:  MAGUTM CHECKSUM
~Parameter Information Block
#MNEM.UNIT       Value        Description
#---------     -----------    ---------------------------
 AV  .mps                 4.00:  Ann Velocity 
 AVMX.mps                 4.73:  Max Ann Veloc 
 AZIF.deg               304.48:  Azm, Final 
 BHAT.        Rotary Steerable:  BHA Type 
 BREV.rev            257300.00:  Rev Bit Total 
 BROT.°/30m               0.00:  Build Rotating 
 BS  .in                  8.50:  Bit Size 
 BSZ .in                  8.50:  Bit Size 
 BTPL.psig              589.00:  Bit Press Loss 
 CABU.                      No:  Customer Abuse 
 CGEO.          Mubariz ghayev:  Customer Geo 
 COMM.                     d:  Run Comments 1 
 TCS .hr                 64.25:  Time Ciculation Ended 
 CV  .mps                 3.50:  Crit Velocity 
 CVMX.mps                 4.52:  Max Crit Veloc 
 DD1 .             Aziz Aliyev:  Direct Drillr 1 
 DD2 .         Intigam Rahimov:  Direct Drillr 2 
 DD3 .          Rashad Habibov:  Direct Drillr 3 
 DDSV.               Geo-Pilot:  DD Service 
 DEFF.%                  98.00:  % Det Eff 
 DLRX.°/30m               0.00:  Dogleg Rot Max 
 DLSO.°/30m               0.00:  Dogleg Oriented 
 DLSX.°/30m               0.00:  Dogleg Str Max 
 DRET.      10.45.04 08-May-21:  Drill End Time 
 DRST.      03.30.04 04-May-21:  Drill Start Tim 
 DTIM.hr                 14.97:  Time Drilling 
 EDEP.m                4640.01:  End Depth 
 ENG1.         Dail Mahammadov:  Engineer 1 
 ENG2.           Eldar Hajiyev:  Engineer 2 
 ENG3.       Bakhtiar Jabbarli:  Engineer 3 
 ENG4.       Natik Hasanagayev:  Engineer 4 
 ETIM.      09.30.04 14-May-21:  End Time 
 FLOI.gpm               460.00:  Flow In 
 FLON.gpm               200.00:  Flow In Min 
 FLOS.cptm                0.00:  Fluid Loss 
 FLOX.gpm               505.00:  Flow In Max 
 HFLO.                      No:  High Flow 
 HPRE.                      No:  High Pressure 
 HTEM.                      No:  High Temp 
 HYDO.m                   1.80:  Hydro Offset 
 IFIN.deg                66.71:  Inc, Final 
 IMAX.deg                67.03:  Inc Max 
 IMIN.deg                66.63:  Inc Min 
 IMND.m                4550.58:  Inc Min Depth 
 IMXD.m                4439.01:  Inc Max Depth 
 JARR.                      No:  Jarring 
 LETM.      10.45.04 08-May-21:  Log End Time 
 LOST.hr                     0:  Lost Rig Time 
 LSTM.      03.30.04 04-May-21:  Log Start Time 
 MDCL.ppm             37000.00:  Mud Chlorides 
 MDES.     Inversion Oil/Synthetic:  Mud Desc 
 DFD .sg                  1.38:  Mud Density 
 MDMN.sg                  1.35:  Dens Mud Min 
 MDMX.sg                  1.40:  Dens Mud Max 
 MOIL.                   57.40:  Run Mud Oil % 
 MOWR.                   70:30:  Run Mud OWR 
 MSND.                    0.00:  Run Mud Sand % 
 MSOL.                   18.00:  Run Mud Solids% 
 DFV .spqt               71.00:  Mud Viscosity 
 MWOD.in                  6.75:  MWD Tool OD 
 MWSI.                      No:  Serv Intrp, MWD 
 OTIM.hr                242.76:  Time Operating 
 PCON.           Look Like New:  Pad Condition 
 PMAX.psia            12183.92:  Press Op, Max 
 PV  .cP                 27.00:  Mud PV 
 RUN .                    1300:  Run Number 
 ROPA.m/hr               15.00:  ROP Avg 
 ROPN.m/hr                9.00:  ROP Min 
 ROPX.m/hr               19.00:  ROP Max 
 RPMA.rpm               120.00:  RPM Surface Avg 
 RPMN.rpm               100.00:  RPM Surface Min 
 RPMX.rpm               120.00:  RPM Surface Max 
 RRUN.                    1300:  Rig Run Number 
 RTIM.hr                  5.00:  Time Reaming 
 SAZI.deg               304.73:  Azm, Start 
 SDEP.m                4412.01:  Start Depth 
 SIDD.                      No:  Serv Intrp, DD 
 SINC.deg                66.82:  Inc, Start 
 SPPA.psig             2800.00:  SPP Avg 
 SPPN.psig             2610.00:  SPP Min 
 SPPX.psig             3100.00:  SPP Max 
 STIM.      03.30.00 04-May-21:  Start Time 
 SVCS.                 DD, MWD:  Services 
 SVER.                    9.20:  Sperry Version 
 TDAT.m                 228.00:  Tot Depth Attmp 
 TDDF.                      No:  Trip for DD 
 TDLG.m                 228.00:  Tot Depth Loggd 
 TFF .                      No:  Trip for Fail 
 TQAA.f-kp               15.00:  Torque Abs Avg 
 TQAN.f-kp               12.00:  Torque Abs Min 
 TQAX.f-kp               22.00:  Torque Abs Max 
 TRRT.°/30m               0.00:  Turn Rotating 
 MRT .                    HCIM:  Maximum Recorded Temperature 
 TTMX.degC               90.20:  Max Tool Temp 
 VS01.                90627813:  Virtual Str1 SN 
 VS02.                90634712:  Virtual Str2 SN 
 VS03.                90643410:  Virtual Str3 SN 
 VS04.                90634712:  Virtual Str4 SN 
 WBMN.klb                 9.00:  WOB Min 
 WITN.        Elmaddin Rahimov:  Customer Rep 
 WITN.         Haytham Mostafa:  Customer Rep 2 
 WOBA.klb                15.00:  WOB Avg 
 WOBX.klb                23.00:  WOB Max 
 YP  .lhf2               29.00:  Yield Point 
~Curve Information Block
#MNEM.UNIT                 API CODE     Curve Description
#---------               -----------    ---------------------------
 TIME.HHMMSS            00 000 000 000:  GT Time & Date
 GTDEPTH.m              00 000 000 000:  GT Depth
 GTPQH.psia             00 000 000 000:  GT HR Quartz Pressure
 GTTQ.degC              00 000 000 000:  GT Quartz Temperature
 GTTN.NONE              00 000 000 000:  GT Test Number
 GTET.sec               00 000 000 000:  GT Elapsed Test Time
 GTTVD.m                00 000 000 000:  GT True Vertical Depth
#Other Information
#
#WARRANTY: Halliburton will use its best efforts to furnish customers with 
#accurate information and interpretations that are part of, and incident to, the services 
#provided.  However, Halliburton cannot and does not warrant the accuracy 
#or correctness of such information and interpretations.  Under no circumstances should any 
#such information or interpretation be relied upon as the sole basis for any drilling, 
#completion, production, or financial decision or any procedure involving any risk to the 
#safety of any drilling venture, drilling rig or its crew or any other third party.  The 
#Customer has full responsibility for all drilling, completion and production operation.  
#Halliburton makes no representations or warranties, either expressed or 
#implied, including, but not limited to, the implied warranties of merchantability or fitness 
#for a particular purpose, with respect to the services rendered.  In no event will 
#Halliburton be liable for failure to obtain any particular results or for 
#any damages, including, but not limited to, indirect, special or consequential damages, 
#resulting from the use of any information or interpretation provided by Halliburton.
#
~A           TIME           GTDEPTH  GTPQH  GTTQ  GTTN   GTET   GTTVD  
# ...
   23:13:04.342.09-May-2021 4503.01 6540.28 60.38 17.00 361.51 2973.29
   23:13:04.542.09-May-2021 4503.01 6539.57 60.38 17.00 361.71 2973.29
   23:13:04.742.09-May-2021 4503.01 6537.84 60.38 17.00 361.91 2973.29
   23:13:04.942.09-May-2021 4503.01 6537.84 60.38 17.00 362.11 2973.29
   23:13:05.142.09-May-2021 4503.01 6546.11 60.38 17.00 362.31 2973.29
   23:13:05.342.09-May-2021 4503.01 6543.95 60.39 17.00 362.51 2973.29
   23:13:05.542.09-May-2021 4503.01 6546.74 60.39 17.00 362.71 2973.29
   23:13:05.742.09-May-2021 4503.01 6542.47 60.39 17.00 362.91 2973.29
   23:13:05.942.09-May-2021 4503.01 6542.47 60.39 17.00 363.11 2973.29
   23:13:06.142.09-May-2021 4503.01 6544.67 60.40 17.00 363.31 2973.29
   23:13:06.342.09-May-2021 4503.01 6551.00 60.40 17.00 363.51 2973.29
   23:13:06.542.09-May-2021 4503.01 6548.48 60.40 17.00 363.71 2973.29
   23:13:06.742.09-May-2021 4503.01 6551.19 60.41 17.00 363.91 2973.29
   23:13:06.942.09-May-2021 4503.01 6551.19 60.41 17.00 364.11 2973.29
   23:13:07.142.09-May-2021 4503.01 6552.05 60.42 17.00 364.30 2973.29
   23:13:07.342.09-May-2021 4503.01 6553.38 60.42 17.00 364.50 2973.29
   23:13:07.542.09-May-2021 4503.01 6547.52 60.42 17.00 364.70 2973.29
   23:13:07.741.09-May-2021 4503.01 6548.65 60.43 17.00 364.90 2973.29
   23:13:07.941.09-May-2021 4503.01 6548.65 60.43 17.00 365.10 2973.29
   23:13:08.141.09-May-2021 4503.01 6548.05 60.43 17.00 365.30 2973.29
   23:13:08.341.09-May-2021 4503.01 6547.93 60.44 17.00 365.50 2973.29
   23:13:08.541.09-May-2021 4503.01 6547.82 60.44 17.00 365.70 2973.29
   23:13:08.741.09-May-2021 4503.01 6547.73 60.44 17.00 365.90 2973.29
   23:13:08.941.09-May-2021 4503.01 6547.73 60.44 17.00 366.10 2973.29
   23:13:09.141.09-May-2021 4503.01 6548.31 60.45 17.00 366.30 2973.29
   23:13:09.341.09-May-2021 4503.01 6552.17 60.45 17.00 366.50 2973.29
   23:13:09.541.09-May-2021 4503.01 6553.51 60.46 17.00 366.70 2973.29
   23:13:09.741.09-May-2021 4503.01 6552.63 60.46 17.00 366.90 2973.29
   23:13:09.941.09-May-2021 4503.01 6552.63 60.46 17.00 367.10 2973.29
   23:13:10.141.09-May-2021 4503.01 6549.42 60.46 17.00 367.30 2973.29
   23:13:10.341.09-May-2021 4503.01 6548.96 60.47 17.00 367.50 2973.29
   23:13:10.541.09-May-2021 4503.01 6549.53 60.47 17.00 367.70 2973.29
   23:13:10.741.09-May-2021 4503.01 6549.35 60.47 17.00 367.90 2973.29
   23:13:10.941.09-May-2021 4503.01 6549.35 60.47 17.00 368.10 2973.29
   23:13:11.141.09-May-2021 4503.01 6549.21 60.47 17.00 368.30 2973.29
   23:13:11.341.09-May-2021 4503.01 6549.06 60.48 17.00 368.50 2973.29
   23:13:11.540.09-May-2021 4503.01 6549.03 60.48 17.00 368.70 2973.29
   23:13:11.740.09-May-2021 4503.01 6549.34 60.48 17.00 368.90 2973.29
   23:13:11.940.09-May-2021 4503.01 6549.34 60.48 17.00 369.10 2973.29
   23:13:12.140.09-May-2021 4503.01 6556.26 60.48 17.00 369.30 2973.29
   23:13:12.340.09-May-2021 4503.01 6554.33 60.49 17.00 369.50 2973.29
   23:13:12.540.09-May-2021 4503.01 6554.88 60.49 17.00 369.70 2973.29
   23:13:12.740.09-May-2021 4503.01 6549.05 60.49 17.00 369.90 2973.29
   23:13:12.940.09-May-2021 4503.01 6549.05 60.49 17.00 370.10 2973.29
   23:13:13.140.09-May-2021 4503.01 6555.13 60.49 17.00 370.30 2973.29
   23:13:13.340.09-May-2021 4503.01 6556.33 60.49 17.00 370.50 2973.29
   23:13:13.540.09-May-2021 4503.01 6553.67 60.49 17.00 370.70 2973.29
   23:13:13.740.09-May-2021 4503.01 6555.60 60.50 17.00 370.90 2973.29
   23:13:13.940.09-May-2021 4503.01 6555.60 60.50 17.00 371.10 2973.29
   23:13:14.140.09-May-2021 4503.01 6556.08 60.50 17.00 371.30 2973.29
   23:13:14.340.09-May-2021 4503.01 6552.26 60.50 17.00 371.50 2973.29
   23:13:14.540.09-May-2021 4503.01 6551.15 60.50 17.00 371.70 2973.29
   23:13:14.740.09-May-2021 4503.01 6554.10 60.50 17.00 371.90 2973.29
   23:13:14.940.09-May-2021 4503.01 6554.10 60.50 17.00 372.10 2973.29
   23:13:15.140.09-May-2021 4503.01 6553.89 60.50 17.00 372.30 2973.29
   23:13:15.339.09-May-2021 4503.01 6555.01 60.50 17.00 372.50 2973.29
   23:13:15.539.09-May-2021 4503.01 6550.38 60.50 17.00 372.70 2973.29
   23:13:15.739.09-May-2021 4503.01 6549.82 60.50 17.00 372.90 2973.29
   23:13:15.939.09-May-2021 4503.01 6549.82 60.50 17.00 373.10 2973.29
   23:13:16.139.09-May-2021 4503.01 6549.61 60.50 17.00 373.30 2973.29
   23:13:16.339.09-May-2021 4503.01 6549.63 60.50 17.00 373.50 2973.29
   23:13:16.539.09-May-2021 4503.01 6549.44 60.50 17.00 373.70 2973.29
   23:13:16.739.09-May-2021 4503.01 6549.03 60.50 17.00 373.90 2973.29
   23:13:16.939.09-May-2021 4503.01 6549.03 60.50 17.00 374.10 2973.29
   23:13:17.139.09-May-2021 4503.01 6549.30 60.50 17.00 374.30 2973.29
   23:13:17.339.09-May-2021 4503.01 6553.11 60.50 17.00 374.50 2973.29
   23:13:17.539.09-May-2021 4503.01 6554.66 60.50 17.00 374.70 2973.29
   23:13:17.739.09-May-2021 4503.01 6553.87 60.51 17.00 374.90 2973.29
   23:13:17.939.09-May-2021 4503.01 6553.87 60.51 17.00 375.10 2973.29
   23:13:18.139.09-May-2021 4503.01 6554.71 60.51 17.00 375.30 2973.29
   23:13:18.339.09-May-2021 4503.01 6549.95 60.51 17.00 375.50 2973.29
   23:13:18.539.09-May-2021 4503.01 6550.30 60.51 17.00 375.70 2973.29
   23:13:18.739.09-May-2021 4503.01 6550.05 60.51 17.00 375.90 2973.29
   23:13:18.939.09-May-2021 4503.01 6550.05 60.51 17.00 376.10 2973.29
   23:13:19.138.09-May-2021 4503.01 6549.70 60.51 17.00 376.30 2973.29
   23:13:19.338.09-May-2021 4503.01 6549.36 60.51 17.00 376.50 2973.29
   23:13:19.538.09-May-2021 4503.01 6549.34 60.51 17.00 376.70 2973.29
   23:13:19.738.09-May-2021 4503.01 6549.19 60.51 17.00 376.90 2973.29
   23:13:19.938.09-May-2021 4503.01 6549.19 60.51 17.00 377.10 2973.29
   23:13:20.138.09-May-2021 4503.01 6558.36 60.51 17.00 377.30 2973.29
   23:13:20.338.09-May-2021 4503.01 6551.43 60.50 17.00 377.50 2973.29
   23:13:20.538.09-May-2021 4503.01 6553.04 60.50 17.00 377.70 2973.29
   23:13:20.738.09-May-2021 4503.01 6551.86 60.50 17.00 377.90 2973.29
   23:13:20.938.09-May-2021 4503.01 6551.86 60.50 17.00 378.10 2973.29
   23:13:21.138.09-May-2021 4503.01 6559.24 60.50 17.00 378.30 2973.29
   23:13:21.338.09-May-2021 4503.01 6551.81 60.50 17.00 378.50 2973.29
   23:13:21.538.09-May-2021 4503.01 6553.80 60.50 17.00 378.70 2973.29
   23:13:21.738.09-May-2021 4503.01 6552.32 60.50 17.00 378.90 2973.29
   23:13:21.938.09-May-2021 4503.01 6552.32 60.50 17.00 379.10 2973.29
   23:13:22.138.09-May-2021 4503.01 6554.03 60.50 17.00 379.30 2973.29
   23:13:22.338.09-May-2021 4503.01 6555.22 60.50 17.00 379.50 2973.29
   23:13:22.538.09-May-2021 4503.01 6553.30 60.50 17.00 379.70 2973.29
   23:13:22.738.09-May-2021 4503.01 6556.28 60.50 17.00 379.90 2973.29
   23:13:22.937.09-May-2021 4503.01 6556.28 60.50 17.00 380.10 2973.29
   23:13:23.137.09-May-2021 4503.01 6555.98 60.50 17.00 380.30 2973.29
   23:13:23.337.09-May-2021 4503.01 6550.77 60.50 17.00 380.50 2973.29
   23:13:23.537.09-May-2021 4503.01 6549.55 60.50 17.00 380.70 2973.29
   23:13:23.737.09-May-2021 4503.01 6549.69 60.50 17.00 380.90 2973.29
   23:13:23.937.09-May-2021 4503.01 6549.69 60.50 17.00 381.10 2973.29
   23:13:24.137.09-May-2021 4503.01 6549.67 60.50 17.00 381.30 2973.29
   23:13:24.337.09-May-2021 4503.01 6549.31 60.50 17.00 381.50 2973.29
   23:13:24.537.09-May-2021 4503.01 6549.25 60.50 17.00 381.70 2973.29
   23:13:24.737.09-May-2021 4503.01 6548.90 60.50 17.00 381.90 2973.29
   23:13:24.937.09-May-2021 4503.01 6548.90 60.50 17.00 382.10 2973.29
   23:13:25.137.09-May-2021 4503.01 6552.38 60.50 17.00 382.30 2973.29
   23:13:25.337.09-May-2021 4503.01 6554.32 60.50 17.00 382.50 2973.29
   23:13:25.537.09-May-2021 4503.01 6553.99 60.50 17.00 382.70 2973.29
   23:13:25.737.09-May-2021 4503.01 6554.98 60.50 17.00 382.90 2973.29
   23:13:25.937.09-May-2021 4503.01 6554.98 60.50 17.00 383.10 2973.29
   23:13:26.137.09-May-2021 4503.01 6549.34 60.50 17.00 383.30 2973.29
   23:13:26.337.09-May-2021 4503.01 6549.46 60.50 17.00 383.50 2973.29
   23:13:26.537.09-May-2021 4503.01 6549.40 60.50 17.00 383.70 2973.29
   23:13:26.736.09-May-2021 4503.01 6549.34 60.50 17.00 383.90 2973.29
