~Version Information
 VERS.                  2.0:   CWLS log ASCII Standard -VERSION 2.0
 WRAP.                   NO:   One line per depth step
~Well Information Block
#MNEM.UNIT     VALUE/NAME     DESCRIPTION
#---------     -----------    ---------------------------
 STRT.S             00:24:13 10-May-21: START TIME 00:24:13 10-May-21
 STOP.S             00:32:26 10-May-21: STOP TIME  00:32:26 10-May-21
 STEP.S                   0.00: STEP TIME
 NULL.                 -999.25: NULL VALUE
 PROV.                    Baku:  PROVINCE
 STAT.                    Baku:  STATE NAME
 SON .        AZ-XX-0906571588:  JOB NUMBER
 WTYP.                Deviated:  WELL TYPE
 COMP.     BP Exploration (Caspian Sea) ltd:  COMPANY
 BASE.              Azerbaijan:  LOGGING EQUIPMENT BASE LOCATION
 REGN.                   EESSA:  REGION
 CTRY.              Azerbaijan:  COUNTRY NAME
 FLD .                     ACG:  FIELD NAME
 WELL.                     J28:  WELL NAME
 RIG .             West Chirag:  RIG NAME
 DMF .             Drill Floor:  DRILL MEAS FROM
 PDAT.       Caspian Sea Level:  PERMANENT DATUM
 HPTY.       Minimum Curvature:  HOLE POS TYPE
 MDS .        Operator Entered:  MAG DATA SOURCE
 NREF.                    Grid:  NORTH REFERENCE
 SRVC.          TURAN DRILLING:  CONTRACTOR
 JOBN.        AZ-XX-0906571588:  JOB TICKET NUMB
 DCON.     Halliburton Sperry Drilling:  DIRECTNL CONTR
 STIM.      00.44.00 11-Feb-21:  START TIME
 DATE.      00.00.00 05-May-21:  END TIME
 SPUD.               13-Feb-21:  SPUD DATE
 MWDS.                    Baku:  MWD SHOP
 DOE .                     N/A:  DOE NUMBER
 UNIT.                     N/A:  LOGGING EQUIPMENT ID
 UWI .                     N/A:  UNIQUE WELL IDENTIFIER
 API .                     N/A:  API NUMBER
 CNTY.                        :  COUNTY
 LOC .                        :  LOCATION
 LMF .             Drill Floor:  LOG MEASURED FROM
 TVDS.m                  43.00:  TVDSS CORRECTN
 SDEP.m                 341.00:  START DEPTH
 EGL .m                   0.00:  GROUND ELEVATION
 WDMS.m                 169.80:  WD ELEV
 AGAP.m                  43.00:  AIR GAP
 EPD .m                   0.00:  ELEVATION
 APD .m                  43.00:  DEPTH ABOVE PD
 LATI.deg                40.13:  LATITUDE
 LONG.deg                51.22:  LONGITUDE
 UTMY.m             4443793.85:  UTM Y
 UTMX.m              519005.06:  UTM X
 WHEW.m                 -11.57:  WELL HEAD E/W
 WHNS.m                   8.57:  WELL HEAD N/S
 VSEW.m                 -11.57:  VERT SEC E/W
 VSNS.m                   8.57:  VERT SEC N/S
 DFWL.m                   0.00:  DISTANCE FWL
 DFSL.m                   0.00:  DISTANCE FSL
 VSDR.deg               299.34:  VERT SEC DIRECT
 GVFD.g                   1.00:  GRAVITY FIELD
 AZTC.deg                 6.36:  AZM TOTAL CORR
 MFLD.nT              50391.00:  MAGNETIC FIELD
 MDIP.deg                59.65:  MAGNETIC DIP
 MDEC.deg                 6.48:  MAGNETIC DECL
 GRDC.deg                 0.12:  GRID CORRECTION
 DEP .m                 334.96:  DEPTH
 TDD .m                1407.26:  TOTAL DEPTH (DRILLER)
 EKB .m                  43.00:  KB ELEVATION
 EDF .m                  43.00:  DF ELEVATION
 TDL .m                 228.00:  TOTAL DEPTH (LOGGER)
 VSC .                       0:  VS TO CLOSURE
 MAGU.                 1854484:  MAGUTM CHECKSUM
~Parameter Information Block
#MNEM.UNIT       Value        Description
#---------     -----------    ---------------------------
 AV  .mps                 4.00:  Ann Velocity 
 AVMX.mps                 4.73:  Max Ann Veloc 
 AZIF.deg               304.48:  Azm, Final 
 BHAT.        Rotary Steerable:  BHA Type 
 BREV.rev            257300.00:  Rev Bit Total 
 BROT.°/30m               0.00:  Build Rotating 
 BS  .in                  8.50:  Bit Size 
 BSZ .in                  8.50:  Bit Size 
 BTPL.psig              589.00:  Bit Press Loss 
 CABU.                      No:  Customer Abuse 
 CGEO.          Mubariz ghayev:  Customer Geo 
 TCS .hr                 64.25:  Time Ciculation Ended 
 CV  .mps                 3.50:  Crit Velocity 
 CVMX.mps                 4.52:  Max Crit Veloc 
 DD1 .             Aziz Aliyev:  Direct Drillr 1 
 DD2 .         Intigam Rahimov:  Direct Drillr 2 
 DD3 .          Rashad Habibov:  Direct Drillr 3 
 DDSV.               Geo-Pilot:  DD Service 
 DEFF.%                  98.00:  % Det Eff 
 DLRX.°/30m               0.00:  Dogleg Rot Max 
 DLSO.°/30m               0.00:  Dogleg Oriented 
 DLSX.°/30m               0.00:  Dogleg Str Max 
 DRET.      10.45.04 08-May-21:  Drill End Time 
 DRST.      03.30.04 04-May-21:  Drill Start Tim 
 DTIM.hr                 14.97:  Time Drilling 
 EDEP.m                4640.01:  End Depth 
 ENG1.         Dail Mahammadov:  Engineer 1 
 ENG2.           Eldar Hajiyev:  Engineer 2 
 ENG3.       Bakhtiar Jabbarli:  Engineer 3 
 ENG4.       Natik Hasanagayev:  Engineer 4 
 ETIM.      09.30.04 14-May-21:  End Time 
 FLOI.gpm               460.00:  Flow In 
 FLON.gpm               200.00:  Flow In Min 
 FLOS.cptm                0.00:  Fluid Loss 
 FLOX.gpm               505.00:  Flow In Max 
 HFLO.                      No:  High Flow 
 HPRE.                      No:  High Pressure 
 HTEM.                      No:  High Temp 
 HYDO.m                   1.80:  Hydro Offset 
 IFIN.deg                66.71:  Inc, Final 
 IMAX.deg                67.03:  Inc Max 
 IMIN.deg                66.63:  Inc Min 
 IMND.m                4550.58:  Inc Min Depth 
 IMXD.m                4439.01:  Inc Max Depth 
 JARR.                      No:  Jarring 
 LETM.      10.45.04 08-May-21:  Log End Time 
 LOST.hr                     0:  Lost Rig Time 
 LSTM.      03.30.04 04-May-21:  Log Start Time 
 MDCL.ppm             37000.00:  Mud Chlorides 
 MDES.     Inversion Oil/Synthetic:  Mud Desc 
 DFD .sg                  1.38:  Mud Density 
 MDMN.sg                  1.35:  Dens Mud Min 
 MDMX.sg                  1.40:  Dens Mud Max 
 MOIL.                   57.40:  Run Mud Oil % 
 MOWR.                   70:30:  Run Mud OWR 
 MSND.                    0.00:  Run Mud Sand % 
 MSOL.                   18.00:  Run Mud Solids% 
 DFV .spqt               71.00:  Mud Viscosity 
 MWOD.in                  6.75:  MWD Tool OD 
 MWSI.                      No:  Serv Intrp, MWD 
 OTIM.hr                242.76:  Time Operating 
 PCON.           Look Like New:  Pad Condition 
 PMAX.psia            12183.92:  Press Op, Max 
 PV  .cP                 27.00:  Mud PV 
 RUN .                    1300:  Run Number 
 ROPA.m/hr               15.00:  ROP Avg 
 ROPN.m/hr                9.00:  ROP Min 
 ROPX.m/hr               19.00:  ROP Max 
 RPMA.rpm               120.00:  RPM Surface Avg 
 RPMN.rpm               100.00:  RPM Surface Min 
 RPMX.rpm               120.00:  RPM Surface Max 
 RRUN.                    1300:  Rig Run Number 
 RTIM.hr                  5.00:  Time Reaming 
 SAZI.deg               304.73:  Azm, Start 
 SDEP.m                4412.01:  Start Depth 
 SIDD.                      No:  Serv Intrp, DD 
 SINC.deg                66.82:  Inc, Start 
 SPPA.psig             2800.00:  SPP Avg 
 SPPN.psig             2610.00:  SPP Min 
 SPPX.psig             3100.00:  SPP Max 
 STIM.      03.30.00 04-May-21:  Start Time 
 SVCS.                 DD, MWD:  Services 
 SVER.                    9.20:  Sperry Version 
 TDAT.m                 228.00:  Tot Depth Attmp 
 TDDF.                      No:  Trip for DD 
 TDLG.m                 228.00:  Tot Depth Loggd 
 TFF .                      No:  Trip for Fail 
 TQAA.f-kp               15.00:  Torque Abs Avg 
 TQAN.f-kp               12.00:  Torque Abs Min 
 TQAX.f-kp               22.00:  Torque Abs Max 
 TRRT.°/30m               0.00:  Turn Rotating 
 MRT .                    HCIM:  Maximum Recorded Temperature 
 TTMX.degC               90.20:  Max Tool Temp 
 VS01.                90627813:  Virtual Str1 SN 
 VS02.                90634712:  Virtual Str2 SN 
 VS03.                90643410:  Virtual Str3 SN 
 VS04.                90634712:  Virtual Str4 SN 
 WBMN.klb                 9.00:  WOB Min 
 WITN.        Elmaddin Rahimov:  Customer Rep 
 WITN.         Haytham Mostafa:  Customer Rep 2 
 WOBA.klb                15.00:  WOB Avg 
 WOBX.klb                23.00:  WOB Max 
 YP  .lhf2               29.00:  Yield Point 
~Curve Information Block
#MNEM.UNIT                 API CODE     Curve Description
#---------               -----------    ---------------------------
 TIME.HHMMSS            00 000 000 000:  GT Time & Date
 GTDEPTH.m              00 000 000 000:  GT Depth
 GTPQH.psia             00 000 000 000:  GT HR Quartz Pressure
 GTTQ.degC              00 000 000 000:  GT Quartz Temperature
 GTTN.NONE              00 000 000 000:  GT Test Number
 GTET.sec               00 000 000 000:  GT Elapsed Test Time
 GTTVD.m                00 000 000 000:  GT True Vertical Depth
#Other Information
#
#WARRANTY: Halliburton will use its best efforts to furnish customers with 
#accurate information and interpretations that are part of, and incident to, the services 
#provided.  However, Halliburton cannot and does not warrant the accuracy 
#or correctness of such information and interpretations.  Under no circumstances should any 
#such information or interpretation be relied upon as the sole basis for any drilling, 
#completion, production, or financial decision or any procedure involving any risk to the 
#safety of any drilling venture, drilling rig or its crew or any other third party.  The 
#Customer has full responsibility for all drilling, completion and production operation.  
#Halliburton makes no representations or warranties, either expressed or 
#implied, including, but not limited to, the implied warranties of merchantability or fitness 
#for a particular purpose, with respect to the services rendered.  In no event will 
#Halliburton be liable for failure to obtain any particular results or for 
#any damages, including, but not limited to, indirect, special or consequential damages, 
#resulting from the use of any information or interpretation provided by Halliburton.
#
~A           TIME           GTDEPTH  GTPQH  GTTQ  GTTN   GTET   GTTVD  
# ...
   00:29:07.533.10-May-2021 4497.51  530.75 60.46 18.00 293.93 2971.13
   00:29:07.734.10-May-2021 4497.51  531.06 60.46 18.00 294.13 2971.13
   00:29:07.934.10-May-2021 4497.51  531.06 60.46 18.00 294.33 2971.13
   00:29:08.134.10-May-2021 4497.51  531.25 60.46 18.00 294.53 2971.13
   00:29:08.334.10-May-2021 4497.51  531.46 60.46 18.00 294.73 2971.13
   00:29:08.534.10-May-2021 4497.51  531.61 60.46 18.00 294.93 2971.13
   00:29:08.734.10-May-2021 4497.51  531.80 60.46 18.00 295.13 2971.13
   00:29:08.934.10-May-2021 4497.51  531.80 60.46 18.00 295.33 2971.13
   00:29:09.134.10-May-2021 4497.51  531.80 60.46 18.00 295.53 2971.13
   00:29:09.334.10-May-2021 4497.51  532.29 60.46 18.00 295.73 2971.13
   00:29:09.534.10-May-2021 4497.51  532.46 60.46 18.00 295.93 2971.13
   00:29:09.734.10-May-2021 4497.51  532.18 60.46 18.00 296.13 2971.13
   00:29:09.934.10-May-2021 4497.51  532.18 60.46 18.00 296.33 2971.13
   00:29:10.135.10-May-2021 4497.51  533.05 60.46 18.00 296.53 2971.13
   00:29:10.335.10-May-2021 4497.51  532.69 60.46 18.00 296.73 2971.13
   00:29:10.535.10-May-2021 4497.51  533.41 60.46 18.00 296.93 2971.13
   00:29:10.735.10-May-2021 4497.51  533.46 60.46 18.00 297.13 2971.13
   00:29:10.935.10-May-2021 4497.51  533.46 60.46 18.00 297.33 2971.13
   00:29:11.135.10-May-2021 4497.51  533.61 60.46 18.00 297.53 2971.13
   00:29:11.335.10-May-2021 4497.51  534.16 60.46 18.00 297.73 2971.13
   00:29:11.535.10-May-2021 4497.51  534.32 60.46 18.00 297.93 2971.13
   00:29:11.735.10-May-2021 4497.51  534.32 60.46 18.00 298.13 2971.13
   00:29:11.935.10-May-2021 4497.51  534.32 60.46 18.00 298.33 2971.13
   00:29:12.135.10-May-2021 4497.51  534.89 60.46 18.00 298.53 2971.13
   00:29:12.335.10-May-2021 4497.51  534.96 60.46 18.00 298.73 2971.13
   00:29:12.536.10-May-2021 4497.51  535.04 60.46 18.00 298.93 2971.13
   00:29:12.736.10-May-2021 4497.51  535.24 60.46 18.00 299.13 2971.13
   00:29:12.936.10-May-2021 4497.51  535.24 60.46 18.00 299.33 2971.13
   00:29:13.136.10-May-2021 4497.51  535.53 60.46 18.00 299.53 2971.13
   00:29:13.336.10-May-2021 4497.51  535.70 60.46 18.00 299.73 2971.13
   00:29:13.536.10-May-2021 4497.51  535.87 60.46 18.00 299.93 2971.13
   00:29:13.736.10-May-2021 4497.51  536.06 60.46 18.00 300.13 2971.13
   00:29:13.936.10-May-2021 4497.51  536.06 60.46 18.00 300.33 2971.13
   00:29:14.136.10-May-2021 4497.51  536.40 60.46 18.00 300.53 2971.13
   00:29:14.336.10-May-2021 4497.51  536.33 60.46 18.00 300.73 2971.13
   00:29:14.536.10-May-2021 4497.51  536.52 60.46 18.00 300.93 2971.13
   00:29:14.737.10-May-2021 4497.51  537.01 60.46 18.00 301.13 2971.13
   00:29:14.937.10-May-2021 4497.51  537.01 60.46 18.00 301.33 2971.13
   00:29:15.137.10-May-2021 4497.51  537.24 60.46 18.00 301.53 2971.13
   00:29:15.337.10-May-2021 4497.51  537.43 60.46 18.00 301.73 2971.13
   00:29:15.537.10-May-2021 4497.51  537.55 60.46 18.00 301.93 2971.13
   00:29:15.737.10-May-2021 4497.51  537.72 60.46 18.00 302.13 2971.13
   00:29:15.937.10-May-2021 4497.51  537.72 60.46 18.00 302.33 2971.13
   00:29:16.137.10-May-2021 4497.51  538.07 60.46 18.00 302.53 2971.13
   00:29:16.337.10-May-2021 4497.51  538.22 60.46 18.00 302.73 2971.13
   00:29:16.537.10-May-2021 4497.51  538.40 60.46 18.00 302.93 2971.13
   00:29:16.737.10-May-2021 4497.51  538.54 60.46 18.00 303.13 2971.13
   00:29:16.937.10-May-2021 4497.51  538.54 60.46 18.00 303.33 2971.13
   00:29:17.138.10-May-2021 4497.51  539.13 60.46 18.00 303.53 2971.13
   00:29:17.338.10-May-2021 4497.51  539.02 60.46 18.00 303.73 2971.13
   00:29:17.538.10-May-2021 4497.51  538.96 60.46 18.00 303.93 2971.13
   00:29:17.738.10-May-2021 4497.51  539.48 60.46 18.00 304.13 2971.13
   00:29:17.938.10-May-2021 4497.51  539.48 60.46 18.00 304.33 2971.13
   00:29:18.138.10-May-2021 4497.51  539.92 60.46 18.00 304.53 2971.13
   00:29:18.338.10-May-2021 4497.51  539.35 60.46 18.00 304.73 2971.13
   00:29:18.538.10-May-2021 4497.51  540.34 60.46 18.00 304.93 2971.13
   00:29:18.738.10-May-2021 4497.51  540.17 60.46 18.00 305.13 2971.13
   00:29:18.938.10-May-2021 4497.51  540.17 60.46 18.00 305.33 2971.13
   00:29:19.138.10-May-2021 4497.51  540.10 60.46 18.00 305.53 2971.13
   00:29:19.338.10-May-2021 4497.51  540.93 60.46 18.00 305.73 2971.13
   00:29:19.539.10-May-2021 4497.51  540.87 60.46 18.00 305.93 2971.13
   00:29:19.739.10-May-2021 4497.51  541.08 60.46 18.00 306.13 2971.13
   00:29:19.939.10-May-2021 4497.51  541.08 60.46 18.00 306.33 2971.13
   00:29:20.139.10-May-2021 4497.51  541.34 60.46 18.00 306.53 2971.13
   00:29:20.339.10-May-2021 4497.51  541.51 60.46 18.00 306.73 2971.13
   00:29:20.539.10-May-2021 4497.51  541.67 60.46 18.00 306.93 2971.13
   00:29:20.739.10-May-2021 4497.51  541.83 60.46 18.00 307.13 2971.13
   00:29:20.939.10-May-2021 4497.51  541.83 60.46 18.00 307.33 2971.13
   00:29:21.139.10-May-2021 4497.51  542.16 60.46 18.00 307.53 2971.13
   00:29:21.339.10-May-2021 4497.51  542.33 60.46 18.00 307.73 2971.13
   00:29:21.539.10-May-2021 4497.51  542.47 60.46 18.00 307.93 2971.13
   00:29:21.739.10-May-2021 4497.51  542.19 60.46 18.00 308.13 2971.13
   00:29:21.940.10-May-2021 4497.51  542.19 60.46 18.00 308.33 2971.13
   00:29:22.140.10-May-2021 4497.51  543.08 60.46 18.00 308.53 2971.13
   00:29:22.340.10-May-2021 4497.51  543.14 60.46 18.00 308.73 2971.13
   00:29:22.540.10-May-2021 4497.51  543.35 60.46 18.00 308.93 2971.13
   00:29:22.740.10-May-2021 4497.51  543.44 60.46 18.00 309.13 2971.13
   00:29:22.940.10-May-2021 4497.51  543.44 60.46 18.00 309.33 2971.13
   00:29:23.140.10-May-2021 4497.51  543.78 60.46 18.00 309.53 2971.13
   00:29:23.340.10-May-2021 4497.51  543.94 60.46 18.00 309.73 2971.13
   00:29:23.540.10-May-2021 4497.51  544.11 60.46 18.00 309.93 2971.13
   00:29:23.740.10-May-2021 4497.51  544.26 60.46 18.00 310.13 2971.13
   00:29:23.940.10-May-2021 4497.51  544.26 60.46 18.00 310.33 2971.13
   00:29:24.141.10-May-2021 4497.51  544.18 60.46 18.00 310.53 2971.13
   00:29:24.341.10-May-2021 4497.51  544.80 60.46 18.00 310.73 2971.13
   00:29:24.541.10-May-2021 4497.51  544.90 60.46 18.00 310.93 2971.13
   00:29:24.741.10-May-2021 4497.51  545.28 60.46 18.00 311.13 2971.13
   00:29:24.941.10-May-2021 4497.51  545.28 60.46 18.00 311.33 2971.13
   00:29:25.141.10-May-2021 4497.51  545.60 60.46 18.00 311.53 2971.13
   00:29:25.341.10-May-2021 4497.51  545.65 60.46 18.00 311.73 2971.13
   00:29:25.541.10-May-2021 4497.51  545.49 60.45 18.00 311.93 2971.13
   00:29:25.741.10-May-2021 4497.51  545.72 60.45 18.00 312.13 2971.13
   00:29:25.941.10-May-2021 4497.51  545.72 60.45 18.00 312.33 2971.13
   00:29:26.141.10-May-2021 4497.51  546.34 60.45 18.00 312.53 2971.13
   00:29:26.341.10-May-2021 4497.51  546.40 60.45 18.00 312.73 2971.13
   00:29:26.542.10-May-2021 4497.51  545.99 60.45 18.00 312.93 2971.13
   00:29:26.742.10-May-2021 4497.51  546.99 60.45 18.00 313.13 2971.13
   00:29:26.942.10-May-2021 4497.51  546.99 60.45 18.00 313.33 2971.13
   00:29:27.142.10-May-2021 4497.51  547.19 60.45 18.00 313.53 2971.13
   00:29:27.342.10-May-2021 4497.51  547.16 60.45 18.00 313.73 2971.13
   00:29:27.542.10-May-2021 4497.51  547.33 60.45 18.00 313.93 2971.13
   00:29:27.742.10-May-2021 4497.51  547.49 60.45 18.00 314.13 2971.13
   00:29:27.942.10-May-2021 4497.51  547.49 60.45 18.00 314.33 2971.13
   00:29:28.142.10-May-2021 4497.51  547.81 60.45 18.00 314.53 2971.13
   00:29:28.342.10-May-2021 4497.51  547.99 60.45 18.00 314.73 2971.13
   00:29:28.542.10-May-2021 4497.51  548.13 60.45 18.00 314.93 2971.13
   00:29:28.742.10-May-2021 4497.51  548.29 60.45 18.00 315.13 2971.13
   00:29:28.943.10-May-2021 4497.51  548.29 60.45 18.00 315.33 2971.13
   00:29:29.143.10-May-2021 4497.51  548.29 60.45 18.00 315.53 2971.13
   00:29:29.343.10-May-2021 4497.51  549.00 60.45 18.00 315.74 2971.13
   00:29:29.543.10-May-2021 4497.51  548.97 60.45 18.00 315.94 2971.13
   00:29:29.743.10-May-2021 4497.51  549.13 60.45 18.00 316.14 2971.13
   00:29:29.943.10-May-2021 4497.51  549.13 60.45 18.00 316.34 2971.13
