~Version Information
 VERS.                  2.0:   CWLS log ASCII Standard -VERSION 2.0
 WRAP.                   NO:   One line per depth step
~Well Information Block
#MNEM.UNIT     VALUE/NAME     DESCRIPTION
#---------     -----------    ---------------------------
 STRT.S             00:30:13 09-May-21: START TIME 00:30:13 09-May-21
 STOP.S             00:37:03 09-May-21: STOP TIME  00:37:03 09-May-21
 STEP.S                   0.00: STEP TIME
 NULL.                 -999.25: NULL VALUE
 PROV.                    Baku:  PROVINCE
 STAT.                    Baku:  STATE NAME
 SON .        AZ-XX-0906571588:  JOB NUMBER
 WTYP.                Deviated:  WELL TYPE
 COMP.     BP Exploration (Caspian Sea) ltd:  COMPANY
 BASE.              Azerbaijan:  LOGGING EQUIPMENT BASE LOCATION
 REGN.                   EESSA:  REGION
 CTRY.              Azerbaijan:  COUNTRY NAME
 FLD .                     ACG:  FIELD NAME
 WELL.                     J28:  WELL NAME
 RIG .             West Chirag:  RIG NAME
 DMF .             Drill Floor:  DRILL MEAS FROM
 PDAT.       Caspian Sea Level:  PERMANENT DATUM
 HPTY.       Minimum Curvature:  HOLE POS TYPE
 MDS .        Operator Entered:  MAG DATA SOURCE
 NREF.                    Grid:  NORTH REFERENCE
 SRVC.          TURAN DRILLING:  CONTRACTOR
 JOBN.        AZ-XX-0906571588:  JOB TICKET NUMB
 DCON.     Halliburton Sperry Drilling:  DIRECTNL CONTR
 STIM.      00.44.00 11-Feb-21:  START TIME
 DATE.      00.00.00 05-May-21:  END TIME
 SPUD.               13-Feb-21:  SPUD DATE
 MWDS.                    Baku:  MWD SHOP
 DOE .                     N/A:  DOE NUMBER
 UNIT.                     N/A:  LOGGING EQUIPMENT ID
 UWI .                     N/A:  UNIQUE WELL IDENTIFIER
 API .                     N/A:  API NUMBER
 CNTY.                        :  COUNTY
 LOC .                        :  LOCATION
 LMF .             Drill Floor:  LOG MEASURED FROM
 TVDS.m                  43.00:  TVDSS CORRECTN
 SDEP.m                 341.00:  START DEPTH
 EGL .m                   0.00:  GROUND ELEVATION
 WDMS.m                 169.80:  WD ELEV
 AGAP.m                  43.00:  AIR GAP
 EPD .m                   0.00:  ELEVATION
 APD .m                  43.00:  DEPTH ABOVE PD
 LATI.deg                40.13:  LATITUDE
 LONG.deg                51.22:  LONGITUDE
 UTMY.m             4443793.85:  UTM Y
 UTMX.m              519005.06:  UTM X
 WHEW.m                 -11.57:  WELL HEAD E/W
 WHNS.m                   8.57:  WELL HEAD N/S
 VSEW.m                 -11.57:  VERT SEC E/W
 VSNS.m                   8.57:  VERT SEC N/S
 DFWL.m                   0.00:  DISTANCE FWL
 DFSL.m                   0.00:  DISTANCE FSL
 VSDR.deg               299.34:  VERT SEC DIRECT
 GVFD.g                   1.00:  GRAVITY FIELD
 AZTC.deg                 6.36:  AZM TOTAL CORR
 MFLD.nT              50391.00:  MAGNETIC FIELD
 MDIP.deg                59.65:  MAGNETIC DIP
 MDEC.deg                 6.48:  MAGNETIC DECL
 GRDC.deg                 0.12:  GRID CORRECTION
 DEP .m                 334.96:  DEPTH
 TDD .m                1407.26:  TOTAL DEPTH (DRILLER)
 EKB .m                  43.00:  KB ELEVATION
 EDF .m                  43.00:  DF ELEVATION
 TDL .m                 228.00:  TOTAL DEPTH (LOGGER)
 VSC .                       0:  VS TO CLOSURE
 MAGU.                 1854484:  MAGUTM CHECKSUM
~Parameter Information Block
#MNEM.UNIT       Value        Description
#---------     -----------    ---------------------------
 AV  .mps                 4.00:  Ann Velocity 
 AVMX.mps                 4.73:  Max Ann Veloc 
 AZIF.deg               304.48:  Azm, Final 
 BHAT.        Rotary Steerable:  BHA Type 
 BREV.rev            257300.00:  Rev Bit Total 
 BROT.°/30m               0.00:  Build Rotating 
 BS  .in                  8.50:  Bit Size 
 BSZ .in                  8.50:  Bit Size 
 BTPL.psig              589.00:  Bit Press Loss 
 CABU.                      No:  Customer Abuse 
 CGEO.          Mubariz ghayev:  Customer Geo 
 TCS .hr                 64.25:  Time Ciculation Ended 
 CV  .mps                 3.50:  Crit Velocity 
 CVMX.mps                 4.52:  Max Crit Veloc 
 DD1 .             Aziz Aliyev:  Direct Drillr 1 
 DD2 .         Intigam Rahimov:  Direct Drillr 2 
 DD3 .          Rashad Habibov:  Direct Drillr 3 
 DDSV.               Geo-Pilot:  DD Service 
 DEFF.%                  98.00:  % Det Eff 
 DLRX.°/30m               0.00:  Dogleg Rot Max 
 DLSO.°/30m               0.00:  Dogleg Oriented 
 DLSX.°/30m               0.00:  Dogleg Str Max 
 DRET.      10.45.04 08-May-21:  Drill End Time 
 DRST.      03.30.04 04-May-21:  Drill Start Tim 
 DTIM.hr                 14.97:  Time Drilling 
 EDEP.m                4640.01:  End Depth 
 ENG1.         Dail Mahammadov:  Engineer 1 
 ENG2.           Eldar Hajiyev:  Engineer 2 
 ENG3.       Bakhtiar Jabbarli:  Engineer 3 
 ENG4.       Natik Hasanagayev:  Engineer 4 
 ETIM.      09.30.04 14-May-21:  End Time 
 FLOI.gpm               460.00:  Flow In 
 FLON.gpm               200.00:  Flow In Min 
 FLOS.cptm                0.00:  Fluid Loss 
 FLOX.gpm               505.00:  Flow In Max 
 HFLO.                      No:  High Flow 
 HPRE.                      No:  High Pressure 
 HTEM.                      No:  High Temp 
 HYDO.m                   1.80:  Hydro Offset 
 IFIN.deg                66.71:  Inc, Final 
 IMAX.deg                67.03:  Inc Max 
 IMIN.deg                66.63:  Inc Min 
 IMND.m                4550.58:  Inc Min Depth 
 IMXD.m                4439.01:  Inc Max Depth 
 JARR.                      No:  Jarring 
 LETM.      10.45.04 08-May-21:  Log End Time 
 LOST.hr                     0:  Lost Rig Time 
 LSTM.      03.30.04 04-May-21:  Log Start Time 
 MDCL.ppm             37000.00:  Mud Chlorides 
 MDES.     Inversion Oil/Synthetic:  Mud Desc 
 DFD .sg                  1.38:  Mud Density 
 MDMN.sg                  1.35:  Dens Mud Min 
 MDMX.sg                  1.40:  Dens Mud Max 
 MOIL.                   57.40:  Run Mud Oil % 
 MOWR.                   70:30:  Run Mud OWR 
 MSND.                    0.00:  Run Mud Sand % 
 MSOL.                   18.00:  Run Mud Solids% 
 DFV .spqt               71.00:  Mud Viscosity 
 MWOD.in                  6.75:  MWD Tool OD 
 MWSI.                      No:  Serv Intrp, MWD 
 OTIM.hr                242.76:  Time Operating 
 PCON.           Look Like New:  Pad Condition 
 PMAX.psia            12183.92:  Press Op, Max 
 PV  .cP                 27.00:  Mud PV 
 RUN .                    1300:  Run Number 
 ROPA.m/hr               15.00:  ROP Avg 
 ROPN.m/hr                9.00:  ROP Min 
 ROPX.m/hr               19.00:  ROP Max 
 RPMA.rpm               120.00:  RPM Surface Avg 
 RPMN.rpm               100.00:  RPM Surface Min 
 RPMX.rpm               120.00:  RPM Surface Max 
 RRUN.                    1300:  Rig Run Number 
 RTIM.hr                  5.00:  Time Reaming 
 SAZI.deg               304.73:  Azm, Start 
 SDEP.m                4412.01:  Start Depth 
 SIDD.                      No:  Serv Intrp, DD 
 SINC.deg                66.82:  Inc, Start 
 SPPA.psig             2800.00:  SPP Avg 
 SPPN.psig             2610.00:  SPP Min 
 SPPX.psig             3100.00:  SPP Max 
 STIM.      03.30.00 04-May-21:  Start Time 
 SVCS.                 DD, MWD:  Services 
 SVER.                    9.20:  Sperry Version 
 TDAT.m                 228.00:  Tot Depth Attmp 
 TDDF.                      No:  Trip for DD 
 TDLG.m                 228.00:  Tot Depth Loggd 
 TFF .                      No:  Trip for Fail 
 TQAA.f-kp               15.00:  Torque Abs Avg 
 TQAN.f-kp               12.00:  Torque Abs Min 
 TQAX.f-kp               22.00:  Torque Abs Max 
 TRRT.°/30m               0.00:  Turn Rotating 
 MRT .                    HCIM:  Maximum Recorded Temperature 
 TTMX.degC               90.20:  Max Tool Temp 
 VS01.                90627813:  Virtual Str1 SN 
 VS02.                90634712:  Virtual Str2 SN 
 VS03.                90643410:  Virtual Str3 SN 
 VS04.                90634712:  Virtual Str4 SN 
 WBMN.klb                 9.00:  WOB Min 
 WITN.        Elmaddin Rahimov:  Customer Rep 
 WITN.         Haytham Mostafa:  Customer Rep 2 
 WOBA.klb                15.00:  WOB Avg 
 WOBX.klb                23.00:  WOB Max 
 YP  .lhf2               29.00:  Yield Point 
~Curve Information Block
#MNEM.UNIT                 API CODE     Curve Description
#---------               -----------    ---------------------------
 TIME.HHMMSS            00 000 000 000:  GT Time & Date
 GTDEPTH.m              00 000 000 000:  GT Depth
 GTPQH.psia             00 000 000 000:  GT HR Quartz Pressure
 GTTQ.degC              00 000 000 000:  GT Quartz Temperature
 GTTN.NONE              00 000 000 000:  GT Test Number
 GTET.sec               00 000 000 000:  GT Elapsed Test Time
 GTTVD.m                00 000 000 000:  GT True Vertical Depth
#Other Information
#
#WARRANTY: Halliburton will use its best efforts to furnish customers with 
#accurate information and interpretations that are part of, and incident to, the services 
#provided.  However, Halliburton cannot and does not warrant the accuracy 
#or correctness of such information and interpretations.  Under no circumstances should any 
#such information or interpretation be relied upon as the sole basis for any drilling, 
#completion, production, or financial decision or any procedure involving any risk to the 
#safety of any drilling venture, drilling rig or its crew or any other third party.  The 
#Customer has full responsibility for all drilling, completion and production operation.  
#Halliburton makes no representations or warranties, either expressed or 
#implied, including, but not limited to, the implied warranties of merchantability or fitness 
#for a particular purpose, with respect to the services rendered.  In no event will 
#Halliburton be liable for failure to obtain any particular results or for 
#any damages, including, but not limited to, indirect, special or consequential damages, 
#resulting from the use of any information or interpretation provided by Halliburton.
#
~A           TIME           GTDEPTH  GTPQH  GTTQ  GTTN  GTET   GTTVD  
# ...
   00:36:21.988.09-May-2021 4516.51 6808.00 67.80 7.00 368.13 2978.60
   00:36:22.188.09-May-2021 4516.51 6808.00 67.80 7.00 368.33 2978.60
   00:36:22.388.09-May-2021 4516.51 6815.51 67.80 7.00 368.53 2978.60
   00:36:22.588.09-May-2021 4516.51 6813.19 67.80 7.00 368.73 2978.60
   00:36:22.788.09-May-2021 4516.51 6812.97 67.80 7.00 368.93 2978.60
   00:36:22.988.09-May-2021 4516.51 6807.48 67.81 7.00 369.13 2978.60
   00:36:23.188.09-May-2021 4516.51 6807.48 67.81 7.00 369.33 2978.60
   00:36:23.388.09-May-2021 4516.51 6806.93 67.81 7.00 369.53 2978.60
   00:36:23.588.09-May-2021 4516.51 6814.91 67.81 7.00 369.73 2978.60
   00:36:23.789.09-May-2021 4516.51 6815.76 67.81 7.00 369.93 2978.60
   00:36:23.989.09-May-2021 4516.51 6814.19 67.81 7.00 370.13 2978.60
   00:36:24.189.09-May-2021 4516.51 6814.19 67.81 7.00 370.33 2978.60
   00:36:24.389.09-May-2021 4516.51 6808.83 67.82 7.00 370.53 2978.60
   00:36:24.589.09-May-2021 4516.51 6808.68 67.82 7.00 370.73 2978.60
   00:36:24.789.09-May-2021 4516.51 6808.83 67.82 7.00 370.93 2978.60
   00:36:24.989.09-May-2021 4516.51 6808.62 67.82 7.00 371.13 2978.60
   00:36:25.189.09-May-2021 4516.51 6808.62 67.82 7.00 371.33 2978.60
   00:36:25.389.09-May-2021 4516.51 6808.96 67.82 7.00 371.53 2978.60
   00:36:25.589.09-May-2021 4516.51 6809.13 67.82 7.00 371.73 2978.60
   00:36:25.789.09-May-2021 4516.51 6808.55 67.82 7.00 371.93 2978.60
   00:36:25.989.09-May-2021 4516.51 6807.44 67.83 7.00 372.13 2978.60
   00:36:26.189.09-May-2021 4516.51 6807.44 67.83 7.00 372.33 2978.60
   00:36:26.389.09-May-2021 4516.51 6814.95 67.83 7.00 372.53 2978.60
   00:36:26.590.09-May-2021 4516.51 6813.22 67.83 7.00 372.74 2978.60
   00:36:26.790.09-May-2021 4516.51 6807.41 67.83 7.00 372.94 2978.60
   00:36:26.990.09-May-2021 4516.51 6808.68 67.83 7.00 373.14 2978.60
   00:36:27.190.09-May-2021 4516.51 6808.68 67.83 7.00 373.34 2978.60
   00:36:27.390.09-May-2021 4516.51 6807.47 67.83 7.00 373.54 2978.60
   00:36:27.590.09-May-2021 4516.51 6806.87 67.83 7.00 373.74 2978.60
   00:36:27.790.09-May-2021 4516.51 6807.27 67.83 7.00 373.94 2978.60
   00:36:27.990.09-May-2021 4516.51 6807.46 67.83 7.00 374.14 2978.60
   00:36:28.190.09-May-2021 4516.51 6807.46 67.83 7.00 374.34 2978.60
   00:36:28.390.09-May-2021 4516.51 6806.98 67.83 7.00 374.54 2978.60
   00:36:28.590.09-May-2021 4516.51 6806.04 67.83 7.00 374.74 2978.60
   00:36:28.790.09-May-2021 4516.51 6814.14 67.83 7.00 374.94 2978.60
   00:36:28.990.09-May-2021 4516.51 6809.69 67.83 7.00 375.14 2978.60
   00:36:29.191.09-May-2021 4516.51 6809.69 67.83 7.00 375.34 2978.60
   00:36:29.391.09-May-2021 4516.51 6811.73 67.83 7.00 375.54 2978.60
   00:36:29.591.09-May-2021 4516.51 6809.09 67.83 7.00 375.74 2978.60
   00:36:29.791.09-May-2021 4516.51 6817.61 67.84 7.00 375.94 2978.60
   00:36:29.991.09-May-2021 4516.51 6809.83 67.84 7.00 376.14 2978.60
   00:36:30.191.09-May-2021 4516.51 6809.83 67.84 7.00 376.34 2978.60
   00:36:30.391.09-May-2021 4516.51 6809.21 67.84 7.00 376.54 2978.60
   00:36:30.591.09-May-2021 4516.51 6820.12 67.84 7.00 376.74 2978.60
   00:36:30.791.09-May-2021 4516.51 6811.35 67.84 7.00 376.94 2978.60
   00:36:30.991.09-May-2021 4516.51 6813.03 67.84 7.00 377.14 2978.60
   00:36:31.191.09-May-2021 4516.51 6813.03 67.84 7.00 377.34 2978.60
   00:36:31.391.09-May-2021 4516.51 6820.24 67.84 7.00 377.54 2978.60
   00:36:31.591.09-May-2021 4516.51 6817.41 67.84 7.00 377.74 2978.60
   00:36:31.791.09-May-2021 4516.51 6814.47 67.84 7.00 377.94 2978.60
   00:36:31.992.09-May-2021 4516.51 6807.66 67.84 7.00 378.14 2978.60
   00:36:32.192.09-May-2021 4516.51 6807.66 67.84 7.00 378.34 2978.60
   00:36:32.392.09-May-2021 4516.51 6809.14 67.84 7.00 378.54 2978.60
   00:36:32.592.09-May-2021 4516.51 6809.22 67.84 7.00 378.74 2978.60
   00:36:32.792.09-May-2021 4516.51 6808.64 67.84 7.00 378.94 2978.60
   00:36:32.992.09-May-2021 4516.51 6808.54 67.84 7.00 379.14 2978.60
   00:36:33.192.09-May-2021 4516.51 6808.54 67.84 7.00 379.34 2978.60
   00:36:33.392.09-May-2021 4516.51 6808.49 67.84 7.00 379.54 2978.60
   00:36:33.592.09-May-2021 4516.51 6808.67 67.84 7.00 379.74 2978.60
   00:36:33.792.09-May-2021 4516.51 6808.99 67.84 7.00 379.94 2978.60
   00:36:33.992.09-May-2021 4516.51 6820.30 67.84 7.00 380.14 2978.60
   00:36:34.192.09-May-2021 4516.51 6820.30 67.84 7.00 380.34 2978.60
   00:36:34.392.09-May-2021 4516.51 6813.76 67.84 7.00 380.54 2978.60
   00:36:34.592.09-May-2021 4516.51 6809.80 67.84 7.00 380.74 2978.60
   00:36:34.793.09-May-2021 4516.51 6810.60 67.84 7.00 380.94 2978.60
   00:36:34.993.09-May-2021 4516.51 6809.71 67.83 7.00 381.14 2978.60
   00:36:35.193.09-May-2021 4516.51 6809.71 67.83 7.00 381.34 2978.60
   00:36:35.393.09-May-2021 4516.51 6807.77 67.83 7.00 381.54 2978.60
   00:36:35.593.09-May-2021 4516.51 6807.51 67.83 7.00 381.74 2978.60
   00:36:35.793.09-May-2021 4516.51 6806.83 67.83 7.00 381.94 2978.60
   00:36:35.993.09-May-2021 4516.51 6806.91 67.83 7.00 382.14 2978.60
   00:36:36.193.09-May-2021 4516.51 6806.91 67.83 7.00 382.34 2978.60
   00:36:36.393.09-May-2021 4516.51 6806.67 67.83 7.00 382.54 2978.60
   00:36:36.593.09-May-2021 4516.51 6811.46 67.83 7.00 382.74 2978.60
   00:36:36.793.09-May-2021 4516.51 6812.17 67.83 7.00 382.94 2978.60
   00:36:36.993.09-May-2021 4516.51 6814.40 67.83 7.00 383.14 2978.60
   00:36:37.193.09-May-2021 4516.51 6814.40 67.83 7.00 383.34 2978.60
   00:36:37.393.09-May-2021 4516.51 6808.62 67.83 7.00 383.54 2978.60
   00:36:37.594.09-May-2021 4516.51 6807.71 67.83 7.00 383.74 2978.60
   00:36:37.794.09-May-2021 4516.51 6816.33 67.83 7.00 383.94 2978.60
   00:36:37.994.09-May-2021 4516.51 6815.13 67.83 7.00 384.14 2978.60
   00:36:38.194.09-May-2021 4516.51 6815.13 67.83 7.00 384.34 2978.60
   00:36:38.394.09-May-2021 4516.51 6806.55 67.83 7.00 384.54 2978.60
   00:36:38.594.09-May-2021 4516.51 6817.26 67.83 7.00 384.74 2978.60
   00:36:38.794.09-May-2021 4516.51 6814.30 67.83 7.00 384.94 2978.60
   00:36:38.994.09-May-2021 4516.51 6812.48 67.83 7.00 385.14 2978.60
   00:36:39.194.09-May-2021 4516.51 6812.48 67.83 7.00 385.34 2978.60
   00:36:39.394.09-May-2021 4516.51 6808.50 67.83 7.00 385.54 2978.60
   00:36:39.594.09-May-2021 4516.51 6816.05 67.83 7.00 385.74 2978.60
   00:36:39.794.09-May-2021 4516.51 6813.71 67.83 7.00 385.94 2978.60
   00:36:39.994.09-May-2021 4516.51 6812.51 67.83 7.00 386.14 2978.60
   00:36:40.194.09-May-2021 4516.51 6812.51 67.83 7.00 386.34 2978.60
   00:36:40.395.09-May-2021 4516.51 6808.06 67.83 7.00 386.54 2978.60
   00:36:40.595.09-May-2021 4516.51 6807.74 67.83 7.00 386.74 2978.60
   00:36:40.795.09-May-2021 4516.51 6807.49 67.83 7.00 386.94 2978.60
   00:36:40.995.09-May-2021 4516.51 6807.44 67.83 7.00 387.14 2978.60
   00:36:41.195.09-May-2021 4516.51 6807.44 67.83 7.00 387.34 2978.60
   00:36:41.395.09-May-2021 4516.51 6807.39 67.83 7.00 387.54 2978.60
   00:36:41.595.09-May-2021 4516.51 6807.96 67.83 7.00 387.74 2978.60
   00:36:41.795.09-May-2021 4516.51 6808.60 67.83 7.00 387.94 2978.60
   00:36:41.995.09-May-2021 4516.51 6809.59 67.83 7.00 388.14 2978.60
   00:36:42.195.09-May-2021 4516.51 6809.59 67.83 7.00 388.34 2978.60
   00:36:42.395.09-May-2021 4516.51 6811.48 67.83 7.00 388.54 2978.60
   00:36:42.595.09-May-2021 4516.51 6813.39 67.83 7.00 388.74 2978.60
   00:36:42.795.09-May-2021 4516.51 6809.84 67.83 7.00 388.94 2978.60
   00:36:42.996.09-May-2021 4516.51 6810.76 67.83 7.00 389.14 2978.60
   00:36:43.196.09-May-2021 4516.51 6810.76 67.83 7.00 389.34 2978.60
   00:36:43.396.09-May-2021 4516.51 6807.79 67.83 7.00 389.54 2978.60
   00:36:43.596.09-May-2021 4516.51 6806.77 67.83 7.00 389.74 2978.60
   00:36:43.796.09-May-2021 4516.51 6806.37 67.83 7.00 389.94 2978.60
   00:36:43.996.09-May-2021 4516.51 6806.37 67.83 7.00 390.14 2978.60
   00:36:44.196.09-May-2021 4516.51 6806.37 67.83 7.00 390.34 2978.60
   00:36:44.396.09-May-2021 4516.51 6806.66 67.83 7.00 390.54 2978.60
   00:36:44.596.09-May-2021 4516.51 6807.07 67.83 7.00 390.74 2978.60
   00:36:44.796.09-May-2021 4516.51 6810.30 67.83 7.00 390.94 2978.60
