~Version Information
 VERS.                  2.0:   CWLS log ASCII Standard -VERSION 2.0
 WRAP.                   NO:   One line per depth step
~Well Information Block
#MNEM.UNIT     VALUE/NAME     DESCRIPTION
#---------     -----------    ---------------------------
 STRT.S             01:38:21 09-May-21: START TIME 01:38:21 09-May-21
 STOP.S             01:44:59 09-May-21: STOP TIME  01:44:59 09-May-21
 STEP.S                   0.00: STEP TIME
 NULL.                 -999.25: NULL VALUE
 PROV.                    Baku:  PROVINCE
 STAT.                    Baku:  STATE NAME
 SON .        AZ-XX-0906571588:  JOB NUMBER
 WTYP.                Deviated:  WELL TYPE
 COMP.     BP Exploration (Caspian Sea) ltd:  COMPANY
 BASE.              Azerbaijan:  LOGGING EQUIPMENT BASE LOCATION
 REGN.                   EESSA:  REGION
 CTRY.              Azerbaijan:  COUNTRY NAME
 FLD .                     ACG:  FIELD NAME
 WELL.                     J28:  WELL NAME
 RIG .             West Chirag:  RIG NAME
 DMF .             Drill Floor:  DRILL MEAS FROM
 PDAT.       Caspian Sea Level:  PERMANENT DATUM
 HPTY.       Minimum Curvature:  HOLE POS TYPE
 MDS .        Operator Entered:  MAG DATA SOURCE
 NREF.                    Grid:  NORTH REFERENCE
 SRVC.          TURAN DRILLING:  CONTRACTOR
 JOBN.        AZ-XX-0906571588:  JOB TICKET NUMB
 DCON.     Halliburton Sperry Drilling:  DIRECTNL CONTR
 STIM.      00.44.00 11-Feb-21:  START TIME
 DATE.      00.00.00 05-May-21:  END TIME
 SPUD.               13-Feb-21:  SPUD DATE
 MWDS.                    Baku:  MWD SHOP
 DOE .                     N/A:  DOE NUMBER
 UNIT.                     N/A:  LOGGING EQUIPMENT ID
 UWI .                     N/A:  UNIQUE WELL IDENTIFIER
 API .                     N/A:  API NUMBER
 CNTY.                        :  COUNTY
 LOC .                        :  LOCATION
 LMF .             Drill Floor:  LOG MEASURED FROM
 TVDS.m                  43.00:  TVDSS CORRECTN
 SDEP.m                 341.00:  START DEPTH
 EGL .m                   0.00:  GROUND ELEVATION
 WDMS.m                 169.80:  WD ELEV
 AGAP.m                  43.00:  AIR GAP
 EPD .m                   0.00:  ELEVATION
 APD .m                  43.00:  DEPTH ABOVE PD
 LATI.deg                40.13:  LATITUDE
 LONG.deg                51.22:  LONGITUDE
 UTMY.m             4443793.85:  UTM Y
 UTMX.m              519005.06:  UTM X
 WHEW.m                 -11.57:  WELL HEAD E/W
 WHNS.m                   8.57:  WELL HEAD N/S
 VSEW.m                 -11.57:  VERT SEC E/W
 VSNS.m                   8.57:  VERT SEC N/S
 DFWL.m                   0.00:  DISTANCE FWL
 DFSL.m                   0.00:  DISTANCE FSL
 VSDR.deg               299.34:  VERT SEC DIRECT
 GVFD.g                   1.00:  GRAVITY FIELD
 AZTC.deg                 6.36:  AZM TOTAL CORR
 MFLD.nT              50391.00:  MAGNETIC FIELD
 MDIP.deg                59.65:  MAGNETIC DIP
 MDEC.deg                 6.48:  MAGNETIC DECL
 GRDC.deg                 0.12:  GRID CORRECTION
 DEP .m                 334.96:  DEPTH
 TDD .m                1407.26:  TOTAL DEPTH (DRILLER)
 EKB .m                  43.00:  KB ELEVATION
 EDF .m                  43.00:  DF ELEVATION
 TDL .m                 228.00:  TOTAL DEPTH (LOGGER)
 VSC .                       0:  VS TO CLOSURE
 MAGU.                 1854484:  MAGUTM CHECKSUM
~Parameter Information Block
#MNEM.UNIT       Value        Description
#---------     -----------    ---------------------------
 AV  .mps                 4.00:  Ann Velocity 
 AVMX.mps                 4.73:  Max Ann Veloc 
 AZIF.deg               304.48:  Azm, Final 
 BHAT.        Rotary Steerable:  BHA Type 
 BREV.rev            257300.00:  Rev Bit Total 
 BROT.°/30m               0.00:  Build Rotating 
 BS  .in                  8.50:  Bit Size 
 BSZ .in                  8.50:  Bit Size 
 BTPL.psig              589.00:  Bit Press Loss 
 CABU.                      No:  Customer Abuse 
 CGEO.          Mubariz ghayev:  Customer Geo 
 TCS .hr                 64.25:  Time Ciculation Ended 
 CV  .mps                 3.50:  Crit Velocity 
 CVMX.mps                 4.52:  Max Crit Veloc 
 DD1 .             Aziz Aliyev:  Direct Drillr 1 
 DD2 .         Intigam Rahimov:  Direct Drillr 2 
 DD3 .          Rashad Habibov:  Direct Drillr 3 
 DDSV.               Geo-Pilot:  DD Service 
 DEFF.%                  98.00:  % Det Eff 
 DLRX.°/30m               0.00:  Dogleg Rot Max 
 DLSO.°/30m               0.00:  Dogleg Oriented 
 DLSX.°/30m               0.00:  Dogleg Str Max 
 DRET.      10.45.04 08-May-21:  Drill End Time 
 DRST.      03.30.04 04-May-21:  Drill Start Tim 
 DTIM.hr                 14.97:  Time Drilling 
 EDEP.m                4640.01:  End Depth 
 ENG1.         Dail Mahammadov:  Engineer 1 
 ENG2.           Eldar Hajiyev:  Engineer 2 
 ENG3.       Bakhtiar Jabbarli:  Engineer 3 
 ENG4.       Natik Hasanagayev:  Engineer 4 
 ETIM.      09.30.04 14-May-21:  End Time 
 FLOI.gpm               460.00:  Flow In 
 FLON.gpm               200.00:  Flow In Min 
 FLOS.cptm                0.00:  Fluid Loss 
 FLOX.gpm               505.00:  Flow In Max 
 HFLO.                      No:  High Flow 
 HPRE.                      No:  High Pressure 
 HTEM.                      No:  High Temp 
 HYDO.m                   1.80:  Hydro Offset 
 IFIN.deg                66.71:  Inc, Final 
 IMAX.deg                67.03:  Inc Max 
 IMIN.deg                66.63:  Inc Min 
 IMND.m                4550.58:  Inc Min Depth 
 IMXD.m                4439.01:  Inc Max Depth 
 JARR.                      No:  Jarring 
 LETM.      10.45.04 08-May-21:  Log End Time 
 LOST.hr                     0:  Lost Rig Time 
 LSTM.      03.30.04 04-May-21:  Log Start Time 
 MDCL.ppm             37000.00:  Mud Chlorides 
 MDES.     Inversion Oil/Synthetic:  Mud Desc 
 DFD .sg                  1.38:  Mud Density 
 MDMN.sg                  1.35:  Dens Mud Min 
 MDMX.sg                  1.40:  Dens Mud Max 
 MOIL.                   57.40:  Run Mud Oil % 
 MOWR.                   70:30:  Run Mud OWR 
 MSND.                    0.00:  Run Mud Sand % 
 MSOL.                   18.00:  Run Mud Solids% 
 DFV .spqt               71.00:  Mud Viscosity 
 MWOD.in                  6.75:  MWD Tool OD 
 MWSI.                      No:  Serv Intrp, MWD 
 OTIM.hr                242.76:  Time Operating 
 PCON.           Look Like New:  Pad Condition 
 PMAX.psia            12183.92:  Press Op, Max 
 PV  .cP                 27.00:  Mud PV 
 RUN .                    1300:  Run Number 
 ROPA.m/hr               15.00:  ROP Avg 
 ROPN.m/hr                9.00:  ROP Min 
 ROPX.m/hr               19.00:  ROP Max 
 RPMA.rpm               120.00:  RPM Surface Avg 
 RPMN.rpm               100.00:  RPM Surface Min 
 RPMX.rpm               120.00:  RPM Surface Max 
 RRUN.                    1300:  Rig Run Number 
 RTIM.hr                  5.00:  Time Reaming 
 SAZI.deg               304.73:  Azm, Start 
 SDEP.m                4412.01:  Start Depth 
 SIDD.                      No:  Serv Intrp, DD 
 SINC.deg                66.82:  Inc, Start 
 SPPA.psig             2800.00:  SPP Avg 
 SPPN.psig             2610.00:  SPP Min 
 SPPX.psig             3100.00:  SPP Max 
 STIM.      03.30.00 04-May-21:  Start Time 
 SVCS.                 DD, MWD:  Services 
 SVER.                    9.20:  Sperry Version 
 TDAT.m                 228.00:  Tot Depth Attmp 
 TDDF.                      No:  Trip for DD 
 TDLG.m                 228.00:  Tot Depth Loggd 
 TFF .                      No:  Trip for Fail 
 TQAA.f-kp               15.00:  Torque Abs Avg 
 TQAN.f-kp               12.00:  Torque Abs Min 
 TQAX.f-kp               22.00:  Torque Abs Max 
 TRRT.°/30m               0.00:  Turn Rotating 
 MRT .                    HCIM:  Maximum Recorded Temperature 
 TTMX.degC               90.20:  Max Tool Temp 
 VS01.                90627813:  Virtual Str1 SN 
 VS02.                90634712:  Virtual Str2 SN 
 VS03.                90643410:  Virtual Str3 SN 
 VS04.                90634712:  Virtual Str4 SN 
 WBMN.klb                 9.00:  WOB Min 
 WITN.        Elmaddin Rahimov:  Customer Rep 
 WITN.         Haytham Mostafa:  Customer Rep 2 
 WOBA.klb                15.00:  WOB Avg 
 WOBX.klb                23.00:  WOB Max 
 YP  .lhf2               29.00:  Yield Point 
~Curve Information Block
#MNEM.UNIT                 API CODE     Curve Description
#---------               -----------    ---------------------------
 TIME.HHMMSS            00 000 000 000:  GT Time & Date
 GTDEPTH.m              00 000 000 000:  GT Depth
 GTPQH.psia             00 000 000 000:  GT HR Quartz Pressure
 GTTQ.degC              00 000 000 000:  GT Quartz Temperature
 GTTN.NONE              00 000 000 000:  GT Test Number
 GTET.sec               00 000 000 000:  GT Elapsed Test Time
 GTTVD.m                00 000 000 000:  GT True Vertical Depth
#Other Information
#
#WARRANTY: Halliburton will use its best efforts to furnish customers with 
#accurate information and interpretations that are part of, and incident to, the services 
#provided.  However, Halliburton cannot and does not warrant the accuracy 
#or correctness of such information and interpretations.  Under no circumstances should any 
#such information or interpretation be relied upon as the sole basis for any drilling, 
#completion, production, or financial decision or any procedure involving any risk to the 
#safety of any drilling venture, drilling rig or its crew or any other third party.  The 
#Customer has full responsibility for all drilling, completion and production operation.  
#Halliburton makes no representations or warranties, either expressed or 
#implied, including, but not limited to, the implied warranties of merchantability or fitness 
#for a particular purpose, with respect to the services rendered.  In no event will 
#Halliburton be liable for failure to obtain any particular results or for 
#any damages, including, but not limited to, indirect, special or consequential damages, 
#resulting from the use of any information or interpretation provided by Halliburton.
#
~A           TIME           GTDEPTH  GTPQH  GTTQ  GTTN   GTET   GTTVD  
# ...
   01:38:43.944.09-May-2021 4502.51 6702.25 67.60 10.00  22.61 2973.10
   01:38:44.144.09-May-2021 4502.51 6702.41 67.60 10.00  22.81 2973.10
   01:38:44.344.09-May-2021 4502.51 6702.56 67.60 10.00  23.01 2973.10
   01:38:44.544.09-May-2021 4502.51 6702.56 67.60 10.00  23.21 2973.10
   01:38:44.744.09-May-2021 4502.51 6702.96 67.60 10.00  23.41 2973.10
   01:38:44.944.09-May-2021 4502.51 6703.34 67.60 10.00  23.61 2973.10
   01:38:45.144.09-May-2021 4502.51 6703.38 67.60 10.00  23.81 2973.10
   01:38:45.344.09-May-2021 4502.51 6703.67 67.60 10.00  24.01 2973.10
   01:38:45.544.09-May-2021 4502.51 6703.67 67.60 10.00  24.21 2973.10
   01:38:45.744.09-May-2021 4502.51 6711.73 67.60 10.00  24.41 2973.10
   01:38:45.944.09-May-2021 4502.51 6714.29 67.60 10.00  24.61 2973.10
   01:38:46.144.09-May-2021 4502.51 6705.54 67.60 10.00  24.81 2973.10
   01:38:46.345.09-May-2021 4502.51 6707.23 67.60 10.00  25.01 2973.10
   01:38:46.545.09-May-2021 4502.51 6707.23 67.60 10.00  25.21 2973.10
   01:38:46.745.09-May-2021 4502.51 6706.93 67.60 10.00  25.41 2973.10
   01:38:46.945.09-May-2021 4502.51 6706.67 67.60 10.00  25.61 2973.10
   01:38:47.145.09-May-2021 4502.51 6706.35 67.60 10.00  25.81 2973.10
   01:38:47.345.09-May-2021 4502.51 6706.26 67.59 10.00  26.01 2973.10
   01:38:47.545.09-May-2021 4502.51 6706.26 67.59 10.00  26.21 2973.10
   01:38:47.745.09-May-2021 4502.51 6706.42 67.59 10.00  26.41 2973.10
   01:38:47.945.09-May-2021 4502.51 6706.88 67.59 10.00  26.61 2973.10
   01:38:48.145.09-May-2021 4502.51 6716.67 67.59 10.00  26.81 2973.10
   01:38:48.345.09-May-2021 4502.51 6710.92 67.59 10.00  27.01 2973.10
   01:38:48.545.09-May-2021 4502.51 6710.92 67.59 10.00  27.21 2973.10
   01:38:48.745.09-May-2021 4502.51 6712.67 67.59 10.00  27.41 2973.10
   01:38:48.945.09-May-2021 4502.51 6721.26 67.59 10.00  27.61 2973.10
   01:38:49.146.09-May-2021 4502.51 6713.61 67.59 10.00  27.81 2973.10
   01:38:49.346.09-May-2021 4502.51 6715.20 67.59 10.00  28.01 2973.10
   01:38:49.546.09-May-2021 4502.51 6715.20 67.59 10.00  28.21 2973.10
   01:38:49.746.09-May-2021 4502.51 6717.21 67.59 10.00  28.41 2973.10
   01:38:49.946.09-May-2021 4502.51 6717.46 67.59 10.00  28.61 2973.10
   01:38:50.146.09-May-2021 4502.51 6716.69 67.59 10.00  28.81 2973.10
   01:38:50.346.09-May-2021 4502.51 6712.85 67.59 10.00  29.01 2973.10
   01:38:50.546.09-May-2021 4502.51 6712.85 67.59 10.00  29.21 2973.10
   01:38:50.746.09-May-2021 4502.51 6718.11 67.59 10.00  29.41 2973.10
   01:38:50.946.09-May-2021 4502.51 6717.02 67.59 10.00  29.61 2973.10
   01:38:51.146.09-May-2021 4502.51 6716.87 67.59 10.00  29.81 2973.10
   01:38:51.346.09-May-2021 4502.51 6717.27 67.59 10.00  30.01 2973.10
   01:38:51.546.09-May-2021 4502.51 6717.27 67.59 10.00  30.21 2973.10
   01:38:51.747.09-May-2021 4502.51 6713.11 67.59 10.00  30.41 2973.10
   01:38:51.947.09-May-2021 4502.51 6712.97 67.59 10.00  30.61 2973.10
   01:38:52.147.09-May-2021 4502.51 6712.88 67.59 10.00  30.81 2973.10
   01:38:52.347.09-May-2021 4502.51 6713.41 67.59 10.00  31.01 2973.10
   01:38:52.547.09-May-2021 4502.51 6713.41 67.59 10.00  31.21 2973.10
   01:38:52.747.09-May-2021 4502.51 6713.66 67.59 10.00  31.41 2973.10
   01:38:52.947.09-May-2021 4502.51 6714.22 67.59 10.00  31.61 2973.10
   01:38:53.147.09-May-2021 4502.51 6714.37 67.59 10.00  31.81 2973.10
   01:38:53.347.09-May-2021 4502.51 6717.34 67.59 10.00  32.01 2973.10
   01:38:53.547.09-May-2021 4502.51 6717.34 67.59 10.00  32.21 2973.10
   01:38:53.747.09-May-2021 4502.51 6723.08 67.59 10.00  32.41 2973.10
   01:38:53.947.09-May-2021 4502.51 6711.35 67.59 10.00  32.61 2973.10
   01:38:54.147.09-May-2021 4502.51 6823.09 67.59 10.00  32.81 2973.10
   01:38:54.347.09-May-2021 4502.51 6926.67 67.59 10.00  33.01 2973.10
   01:38:54.548.09-May-2021 4502.51 6926.67 67.59 10.00  33.21 2973.10
   01:38:54.748.09-May-2021 4502.51 6976.60 67.59 10.00  33.41 2973.10
   01:38:54.948.09-May-2021 4502.51 6973.98 67.59 10.00  33.61 2973.10
   01:38:55.148.09-May-2021 4502.51 6971.49 67.59 10.00  33.81 2973.10
   01:38:55.348.09-May-2021 4502.51 6970.15 67.59 10.00  34.01 2973.10
   01:38:55.548.09-May-2021 4502.51 6970.15 67.59 10.00  34.21 2973.10
   01:38:55.748.09-May-2021 4502.51 6973.77 67.59 10.00  34.41 2973.10
   01:38:55.948.09-May-2021 4502.51 6976.93 67.59 10.00  34.61 2973.10
   01:38:56.148.09-May-2021 4502.51 6987.96 67.59 10.00  34.81 2973.10
   01:38:56.348.09-May-2021 4502.51 6984.34 67.59 10.00  35.01 2973.10
   01:38:56.548.09-May-2021 4502.51 6984.34 67.59 10.00  35.21 2973.10
   01:38:56.748.09-May-2021 4502.51 6985.92 67.59 10.00  35.41 2973.10
   01:38:56.948.09-May-2021 4502.51 6997.09 67.59 10.00  35.61 2973.10
   01:38:57.148.09-May-2021 4502.51 6991.46 67.59 10.00  35.81 2973.10
   01:38:57.349.09-May-2021 4502.51 7001.05 67.59 10.00  36.01 2973.10
   01:38:57.549.09-May-2021 4502.51 7001.05 67.59 10.00  36.21 2973.10
   01:38:57.749.09-May-2021 4502.51 7013.45 67.59 10.00  36.41 2973.10
   01:38:57.949.09-May-2021 4502.51 7010.67 67.59 10.00  36.61 2973.10
   01:38:58.149.09-May-2021 4502.51 7016.42 67.59 10.00  36.81 2973.10
   01:38:58.349.09-May-2021 4502.51 7012.88 67.59 10.00  37.01 2973.10
   01:38:58.549.09-May-2021 4502.51 7012.88 67.59 10.00  37.21 2973.10
   01:38:58.749.09-May-2021 4502.51 6995.69 67.59 10.00  37.41 2973.10
   01:38:58.949.09-May-2021 4502.51 6997.60 67.59 10.00  37.61 2973.10
   01:38:59.149.09-May-2021 4502.51 6993.18 67.59 10.00  37.81 2973.10
   01:38:59.349.09-May-2021 4502.51 6991.51 67.59 10.00  38.01 2973.10
   01:38:59.549.09-May-2021 4502.51 6991.51 67.59 10.00  38.21 2973.10
   01:38:59.749.09-May-2021 4502.51 6968.96 67.59 10.00  38.41 2973.10
   01:38:59.949.09-May-2021 4502.51 6955.04 67.59 10.00  38.61 2973.10
   01:39:00.150.09-May-2021 4502.51 6940.54 67.59 10.00  38.81 2973.10
   01:39:00.350.09-May-2021 4502.51 6924.69 67.59 10.00  39.01 2973.10
   01:39:00.550.09-May-2021 4502.51 6924.69 67.59 10.00  39.21 2973.10
   01:39:00.750.09-May-2021 4502.51 6894.30 67.59 10.00  39.41 2973.10
   01:39:00.950.09-May-2021 4502.51 6882.49 67.59 10.00  39.61 2973.10
   01:39:01.150.09-May-2021 4502.51 6873.84 67.59 10.00  39.81 2973.10
   01:39:01.350.09-May-2021 4502.51 6867.23 67.59 10.00  40.01 2973.10
   01:39:01.550.09-May-2021 4502.51 6867.23 67.59 10.00  40.21 2973.10
   01:39:01.750.09-May-2021 4502.51 6862.70 67.59 10.00  40.41 2973.10
   01:39:01.950.09-May-2021 4502.51 6856.42 67.59 10.00  40.61 2973.10
   01:39:02.150.09-May-2021 4502.51 6739.27 67.59 10.00  40.81 2973.10
   01:39:02.350.09-May-2021 4502.51 6593.02 67.59 10.00  41.01 2973.10
   01:39:02.550.09-May-2021 4502.51 6593.02 67.59 10.00  41.21 2973.10
   01:39:02.750.09-May-2021 4502.51 6069.27 67.59 10.00  41.42 2973.10
   01:39:02.951.09-May-2021 4502.51 5484.80 67.59 10.00  41.62 2973.10
   01:39:03.151.09-May-2021 4502.51 4995.29 67.59 10.00  41.82 2973.10
   01:39:03.351.09-May-2021 4502.51 4761.10 67.59 10.00  42.02 2973.10
   01:39:03.551.09-May-2021 4502.51 4761.10 67.59 10.00  42.22 2973.10
   01:39:03.751.09-May-2021 4502.51 3313.49 67.59 10.00  42.42 2973.10
   01:39:03.951.09-May-2021 4502.51 3174.53 67.59 10.00  42.62 2973.10
   01:39:04.151.09-May-2021 4502.51 3091.69 67.59 10.00  42.82 2973.10
   01:39:04.351.09-May-2021 4502.51 2849.66 67.59 10.00  43.02 2973.10
   01:39:04.551.09-May-2021 4502.51 2849.66 67.59 10.00  43.22 2973.10
   01:39:04.751.09-May-2021 4502.51 2051.54 67.58 10.00  43.42 2973.10
   01:39:04.951.09-May-2021 4502.51 1605.86 67.58 10.00  43.62 2973.10
   01:39:05.151.09-May-2021 4502.51 1263.71 67.58 10.00  43.82 2973.10
   01:39:05.351.09-May-2021 4502.51 1055.41 67.57 10.00  44.02 2973.10
   01:39:05.552.09-May-2021 4502.51 1055.41 67.57 10.00  44.22 2973.10
   01:39:05.752.09-May-2021 4502.51  806.08 67.57 10.00  44.42 2973.10
   01:39:05.952.09-May-2021 4502.51  735.08 67.56 10.00  44.62 2973.10
   01:39:06.152.09-May-2021 4502.51  696.32 67.56 10.00  44.82 2973.10
   01:39:06.352.09-May-2021 4502.51  672.83 67.56 10.00  45.02 2973.10
