~Version Information
 VERS.                  2.0:   CWLS log ASCII Standard -VERSION 2.0
 WRAP.                   NO:   One line per depth step
~Well Information Block
#MNEM.UNIT     VALUE/NAME     DESCRIPTION
#---------     -----------    ---------------------------
 STRT.S             20:19:26 08-May-21: START TIME 20:19:26 08-May-21
 STOP.S             20:26:06 08-May-21: STOP TIME  20:26:06 08-May-21
 STEP.S                   0.00: STEP TIME
 NULL.                 -999.25: NULL VALUE
 PROV.                    Baku:  PROVINCE
 STAT.                    Baku:  STATE NAME
 SON .        AZ-XX-0906571588:  JOB NUMBER
 WTYP.                Deviated:  WELL TYPE
 COMP.     BP Exploration (Caspian Sea) ltd:  COMPANY
 BASE.              Azerbaijan:  LOGGING EQUIPMENT BASE LOCATION
 REGN.                   EESSA:  REGION
 CTRY.              Azerbaijan:  COUNTRY NAME
 FLD .                     ACG:  FIELD NAME
 WELL.                     J28:  WELL NAME
 RIG .             West Chirag:  RIG NAME
 DMF .             Drill Floor:  DRILL MEAS FROM
 PDAT.       Caspian Sea Level:  PERMANENT DATUM
 HPTY.       Minimum Curvature:  HOLE POS TYPE
 MDS .        Operator Entered:  MAG DATA SOURCE
 NREF.                    Grid:  NORTH REFERENCE
 SRVC.          TURAN DRILLING:  CONTRACTOR
 JOBN.        AZ-XX-0906571588:  JOB TICKET NUMB
 DCON.     Halliburton Sperry Drilling:  DIRECTNL CONTR
 STIM.      00.44.00 11-Feb-21:  START TIME
 DATE.      00.00.00 05-May-21:  END TIME
 SPUD.               13-Feb-21:  SPUD DATE
 MWDS.                    Baku:  MWD SHOP
 DOE .                     N/A:  DOE NUMBER
 UNIT.                     N/A:  LOGGING EQUIPMENT ID
 UWI .                     N/A:  UNIQUE WELL IDENTIFIER
 API .                     N/A:  API NUMBER
 CNTY.                        :  COUNTY
 LOC .                        :  LOCATION
 LMF .             Drill Floor:  LOG MEASURED FROM
 TVDS.m                  43.00:  TVDSS CORRECTN
 SDEP.m                 341.00:  START DEPTH
 EGL .m                   0.00:  GROUND ELEVATION
 WDMS.m                 169.80:  WD ELEV
 AGAP.m                  43.00:  AIR GAP
 EPD .m                   0.00:  ELEVATION
 APD .m                  43.00:  DEPTH ABOVE PD
 LATI.deg                40.13:  LATITUDE
 LONG.deg                51.22:  LONGITUDE
 UTMY.m             4443793.85:  UTM Y
 UTMX.m              519005.06:  UTM X
 WHEW.m                 -11.57:  WELL HEAD E/W
 WHNS.m                   8.57:  WELL HEAD N/S
 VSEW.m                 -11.57:  VERT SEC E/W
 VSNS.m                   8.57:  VERT SEC N/S
 DFWL.m                   0.00:  DISTANCE FWL
 DFSL.m                   0.00:  DISTANCE FSL
 VSDR.deg               299.34:  VERT SEC DIRECT
 GVFD.g                   1.00:  GRAVITY FIELD
 AZTC.deg                 6.36:  AZM TOTAL CORR
 MFLD.nT              50391.00:  MAGNETIC FIELD
 MDIP.deg                59.65:  MAGNETIC DIP
 MDEC.deg                 6.48:  MAGNETIC DECL
 GRDC.deg                 0.12:  GRID CORRECTION
 DEP .m                 334.96:  DEPTH
 TDD .m                1407.26:  TOTAL DEPTH (DRILLER)
 EKB .m                  43.00:  KB ELEVATION
 EDF .m                  43.00:  DF ELEVATION
 TDL .m                 228.00:  TOTAL DEPTH (LOGGER)
 VSC .                       0:  VS TO CLOSURE
 MAGU.                 1854484:  MAGUTM CHECKSUM
~Parameter Information Block
#MNEM.UNIT       Value        Description
#---------     -----------    ---------------------------
 AV  .mps                 4.00:  Ann Velocity 
 AVMX.mps                 4.73:  Max Ann Veloc 
 AZIF.deg               304.48:  Azm, Final 
 BHAT.        Rotary Steerable:  BHA Type 
 BREV.rev            257300.00:  Rev Bit Total 
 BROT.°/30m               0.00:  Build Rotating 
 BS  .in                  8.50:  Bit Size 
 BSZ .in                  8.50:  Bit Size 
 BTPL.psig              589.00:  Bit Press Loss 
 CABU.                      No:  Customer Abuse 
 CGEO.          Mubariz ghayev:  Customer Geo 
 COMM.                     $w`:  Run Comments 1 
 TCS .hr                 64.25:  Time Ciculation Ended 
 CV  .mps                 3.50:  Crit Velocity 
 CVMX.mps                 4.52:  Max Crit Veloc 
 DD1 .             Aziz Aliyev:  Direct Drillr 1 
 DD2 .         Intigam Rahimov:  Direct Drillr 2 
 DD3 .          Rashad Habibov:  Direct Drillr 3 
 DDSV.               Geo-Pilot:  DD Service 
 DEFF.%                  98.00:  % Det Eff 
 DLRX.°/30m               0.00:  Dogleg Rot Max 
 DLSO.°/30m               0.00:  Dogleg Oriented 
 DLSX.°/30m               0.00:  Dogleg Str Max 
 DRET.      10.45.04 08-May-21:  Drill End Time 
 DRST.      03.30.04 04-May-21:  Drill Start Tim 
 DTIM.hr                 14.97:  Time Drilling 
 EDEP.m                4640.01:  End Depth 
 ENG1.         Dail Mahammadov:  Engineer 1 
 ENG2.           Eldar Hajiyev:  Engineer 2 
 ENG3.       Bakhtiar Jabbarli:  Engineer 3 
 ENG4.       Natik Hasanagayev:  Engineer 4 
 ETIM.      09.30.04 14-May-21:  End Time 
 FLOI.gpm               460.00:  Flow In 
 FLON.gpm               200.00:  Flow In Min 
 FLOS.cptm                0.00:  Fluid Loss 
 FLOX.gpm               505.00:  Flow In Max 
 HFLO.                      No:  High Flow 
 HPRE.                      No:  High Pressure 
 HTEM.                      No:  High Temp 
 HYDO.m                   1.80:  Hydro Offset 
 IFIN.deg                66.71:  Inc, Final 
 IMAX.deg                67.03:  Inc Max 
 IMIN.deg                66.63:  Inc Min 
 IMND.m                4550.58:  Inc Min Depth 
 IMXD.m                4439.01:  Inc Max Depth 
 JARR.                      No:  Jarring 
 LETM.      10.45.04 08-May-21:  Log End Time 
 LOST.hr                     0:  Lost Rig Time 
 LSTM.      03.30.04 04-May-21:  Log Start Time 
 MDCL.ppm             37000.00:  Mud Chlorides 
 MDES.     Inversion Oil/Synthetic:  Mud Desc 
 DFD .sg                  1.38:  Mud Density 
 MDMN.sg                  1.35:  Dens Mud Min 
 MDMX.sg                  1.40:  Dens Mud Max 
 MOIL.                   57.40:  Run Mud Oil % 
 MOWR.                   70:30:  Run Mud OWR 
 MSND.                    0.00:  Run Mud Sand % 
 MSOL.                   18.00:  Run Mud Solids% 
 DFV .spqt               71.00:  Mud Viscosity 
 MWOD.in                  6.75:  MWD Tool OD 
 MWSI.                      No:  Serv Intrp, MWD 
 OTIM.hr                242.76:  Time Operating 
 PCON.           Look Like New:  Pad Condition 
 PMAX.psia            12183.92:  Press Op, Max 
 PV  .cP                 27.00:  Mud PV 
 RUN .                    1300:  Run Number 
 ROPA.m/hr               15.00:  ROP Avg 
 ROPN.m/hr                9.00:  ROP Min 
 ROPX.m/hr               19.00:  ROP Max 
 RPMA.rpm               120.00:  RPM Surface Avg 
 RPMN.rpm               100.00:  RPM Surface Min 
 RPMX.rpm               120.00:  RPM Surface Max 
 RRUN.                    1300:  Rig Run Number 
 RTIM.hr                  5.00:  Time Reaming 
 SAZI.deg               304.73:  Azm, Start 
 SDEP.m                4412.01:  Start Depth 
 SIDD.                      No:  Serv Intrp, DD 
 SINC.deg                66.82:  Inc, Start 
 SPPA.psig             2800.00:  SPP Avg 
 SPPN.psig             2610.00:  SPP Min 
 SPPX.psig             3100.00:  SPP Max 
 STIM.      03.30.00 04-May-21:  Start Time 
 SVCS.                 DD, MWD:  Services 
 SVER.                    9.20:  Sperry Version 
 TDAT.m                 228.00:  Tot Depth Attmp 
 TDDF.                      No:  Trip for DD 
 TDLG.m                 228.00:  Tot Depth Loggd 
 TFF .                      No:  Trip for Fail 
 TQAA.f-kp               15.00:  Torque Abs Avg 
 TQAN.f-kp               12.00:  Torque Abs Min 
 TQAX.f-kp               22.00:  Torque Abs Max 
 TRRT.°/30m               0.00:  Turn Rotating 
 MRT .                    HCIM:  Maximum Recorded Temperature 
 TTMX.degC               90.20:  Max Tool Temp 
 VS01.                90627813:  Virtual Str1 SN 
 VS02.                90634712:  Virtual Str2 SN 
 VS03.                90643410:  Virtual Str3 SN 
 VS04.                90634712:  Virtual Str4 SN 
 WBMN.klb                 9.00:  WOB Min 
 WITN.        Elmaddin Rahimov:  Customer Rep 
 WITN.         Haytham Mostafa:  Customer Rep 2 
 WOBA.klb                15.00:  WOB Avg 
 WOBX.klb                23.00:  WOB Max 
 YP  .lhf2               29.00:  Yield Point 
~Curve Information Block
#MNEM.UNIT                 API CODE     Curve Description
#---------               -----------    ---------------------------
 TIME.HHMMSS            00 000 000 000:  GT Time & Date
 GTDEPTH.m              00 000 000 000:  GT Depth
 GTPQH.psia             00 000 000 000:  GT HR Quartz Pressure
 GTTQ.degC              00 000 000 000:  GT Quartz Temperature
 GTTN.NONE              00 000 000 000:  GT Test Number
 GTET.sec               00 000 000 000:  GT Elapsed Test Time
 GTTVD.m                00 000 000 000:  GT True Vertical Depth
#Other Information
#
#WARRANTY: Halliburton will use its best efforts to furnish customers with 
#accurate information and interpretations that are part of, and incident to, the services 
#provided.  However, Halliburton cannot and does not warrant the accuracy 
#or correctness of such information and interpretations.  Under no circumstances should any 
#such information or interpretation be relied upon as the sole basis for any drilling, 
#completion, production, or financial decision or any procedure involving any risk to the 
#safety of any drilling venture, drilling rig or its crew or any other third party.  The 
#Customer has full responsibility for all drilling, completion and production operation.  
#Halliburton makes no representations or warranties, either expressed or 
#implied, including, but not limited to, the implied warranties of merchantability or fitness 
#for a particular purpose, with respect to the services rendered.  In no event will 
#Halliburton be liable for failure to obtain any particular results or for 
#any damages, including, but not limited to, indirect, special or consequential damages, 
#resulting from the use of any information or interpretation provided by Halliburton.
#
~A           TIME           GTDEPTH  GTPQH  GTTQ  GTTN  GTET   GTTVD  
# ...
   20:21:21.550.08-May-2021 4592.01 2100.40 69.10 1.00 115.01 3008.50
   20:21:21.750.08-May-2021 4592.01 2100.40 69.10 1.00 115.21 3008.50
   20:21:21.950.08-May-2021 4592.01 2148.51 69.10 1.00 115.41 3008.50
   20:21:22.150.08-May-2021 4592.01 2158.98 69.10 1.00 115.61 3008.50
   20:21:22.350.08-May-2021 4592.01 2170.41 69.10 1.00 115.81 3008.50
   20:21:22.550.08-May-2021 4592.01 2177.97 69.10 1.00 116.01 3008.50
   20:21:22.750.08-May-2021 4592.01 2177.97 69.10 1.00 116.21 3008.50
   20:21:22.950.08-May-2021 4592.01 2190.02 69.10 1.00 116.41 3008.50
   20:21:23.150.08-May-2021 4592.01 2194.80 69.10 1.00 116.61 3008.50
   20:21:23.350.08-May-2021 4592.01 2201.23 69.10 1.00 116.81 3008.50
   20:21:23.550.08-May-2021 4592.01 2212.07 69.10 1.00 117.01 3008.50
   20:21:23.750.08-May-2021 4592.01 2212.07 69.10 1.00 117.21 3008.50
   20:21:23.950.08-May-2021 4592.01 2224.60 69.10 1.00 117.41 3008.50
   20:21:24.150.08-May-2021 4592.01 2229.37 69.11 1.00 117.61 3008.50
   20:21:24.350.08-May-2021 4592.01 2232.75 69.11 1.00 117.81 3008.50
   20:21:24.550.08-May-2021 4592.01 2237.23 69.11 1.00 118.01 3008.50
   20:21:24.750.08-May-2021 4592.01 2237.23 69.11 1.00 118.21 3008.50
   20:21:24.950.08-May-2021 4592.01 2243.75 69.11 1.00 118.41 3008.50
   20:21:25.150.08-May-2021 4592.01 2246.49 69.11 1.00 118.61 3008.50
   20:21:25.350.08-May-2021 4592.01 2249.24 69.11 1.00 118.81 3008.50
   20:21:25.550.08-May-2021 4592.01 2251.80 69.11 1.00 119.01 3008.50
   20:21:25.750.08-May-2021 4592.01 2251.80 69.11 1.00 119.21 3008.50
   20:21:25.950.08-May-2021 4592.01 2256.98 69.11 1.00 119.41 3008.50
   20:21:26.150.08-May-2021 4592.01 2259.43 69.11 1.00 119.61 3008.50
   20:21:26.350.08-May-2021 4592.01 2261.95 69.11 1.00 119.81 3008.50
   20:21:26.550.08-May-2021 4592.01 2264.29 69.11 1.00 120.01 3008.50
   20:21:26.750.08-May-2021 4592.01 2264.29 69.11 1.00 120.21 3008.50
   20:21:26.950.08-May-2021 4592.01 2268.29 69.11 1.00 120.41 3008.50
   20:21:27.150.08-May-2021 4592.01 2271.66 69.11 1.00 120.61 3008.50
   20:21:27.351.08-May-2021 4592.01 2273.79 69.11 1.00 120.81 3008.50
   20:21:27.551.08-May-2021 4592.01 2276.50 69.11 1.00 121.01 3008.50
   20:21:27.751.08-May-2021 4592.01 2276.50 69.11 1.00 121.21 3008.50
   20:21:27.951.08-May-2021 4592.01 2281.44 69.11 1.00 121.41 3008.50
   20:21:28.151.08-May-2021 4592.01 2282.86 69.11 1.00 121.61 3008.50
   20:21:28.351.08-May-2021 4592.01 2285.60 69.11 1.00 121.81 3008.50
   20:21:28.551.08-May-2021 4592.01 2286.74 69.11 1.00 122.01 3008.50
   20:21:28.751.08-May-2021 4592.01 2286.74 69.11 1.00 122.21 3008.50
   20:21:28.951.08-May-2021 4592.01 2291.91 69.11 1.00 122.41 3008.50
   20:21:29.151.08-May-2021 4592.01 2293.96 69.11 1.00 122.61 3008.50
   20:21:29.351.08-May-2021 4592.01 2295.82 69.11 1.00 122.81 3008.50
   20:21:29.551.08-May-2021 4592.01 2298.10 69.11 1.00 123.01 3008.50
   20:21:29.751.08-May-2021 4592.01 2298.10 69.11 1.00 123.21 3008.50
   20:21:29.951.08-May-2021 4592.01 2301.97 69.11 1.00 123.41 3008.50
   20:21:30.151.08-May-2021 4592.01 2303.75 69.11 1.00 123.61 3008.50
   20:21:30.351.08-May-2021 4592.01 2305.64 69.11 1.00 123.81 3008.50
   20:21:30.551.08-May-2021 4592.01 2307.39 69.11 1.00 124.01 3008.50
   20:21:30.751.08-May-2021 4592.01 2307.39 69.11 1.00 124.21 3008.50
   20:21:30.951.08-May-2021 4592.01 2310.89 69.11 1.00 124.41 3008.50
   20:21:31.151.08-May-2021 4592.01 2312.58 69.11 1.00 124.61 3008.50
   20:21:31.351.08-May-2021 4592.01 2314.27 69.11 1.00 124.81 3008.50
   20:21:31.551.08-May-2021 4592.01 2315.85 69.11 1.00 125.01 3008.50
   20:21:31.751.08-May-2021 4592.01 2315.85 69.11 1.00 125.21 3008.50
   20:21:31.951.08-May-2021 4592.01 2319.37 69.11 1.00 125.41 3008.50
   20:21:32.151.08-May-2021 4592.01 2321.28 69.11 1.00 125.61 3008.50
   20:21:32.351.08-May-2021 4592.01 2323.14 69.11 1.00 125.81 3008.50
   20:21:32.551.08-May-2021 4592.01 2324.69 69.11 1.00 126.01 3008.50
   20:21:32.751.08-May-2021 4592.01 2324.69 69.11 1.00 126.21 3008.50
   20:21:32.951.08-May-2021 4592.01 2328.00 69.11 1.00 126.41 3008.50
   20:21:33.151.08-May-2021 4592.01 2329.63 69.11 1.00 126.61 3008.50
   20:21:33.351.08-May-2021 4592.01 2331.18 69.11 1.00 126.81 3008.50
   20:21:33.551.08-May-2021 4592.01 2332.77 69.11 1.00 127.01 3008.50
   20:21:33.751.08-May-2021 4592.01 2332.77 69.11 1.00 127.21 3008.50
   20:21:33.951.08-May-2021 4592.01 2335.83 69.11 1.00 127.41 3008.50
   20:21:34.151.08-May-2021 4592.01 2337.32 69.11 1.00 127.61 3008.50
   20:21:34.351.08-May-2021 4592.01 2338.17 69.11 1.00 127.81 3008.50
   20:21:34.551.08-May-2021 4592.01 2340.93 69.11 1.00 128.01 3008.50
   20:21:34.751.08-May-2021 4592.01 2340.93 69.11 1.00 128.21 3008.50
   20:21:34.951.08-May-2021 4592.01 2343.90 69.12 1.00 128.41 3008.50
   20:21:35.151.08-May-2021 4592.01 2345.16 69.12 1.00 128.61 3008.50
   20:21:35.351.08-May-2021 4592.01 2346.56 69.12 1.00 128.81 3008.50
   20:21:35.551.08-May-2021 4592.01 2347.78 69.12 1.00 129.01 3008.50
   20:21:35.751.08-May-2021 4592.01 2347.78 69.12 1.00 129.21 3008.50
   20:21:35.951.08-May-2021 4592.01 2351.29 69.12 1.00 129.41 3008.50
   20:21:36.151.08-May-2021 4592.01 2353.00 69.12 1.00 129.61 3008.50
   20:21:36.351.08-May-2021 4592.01 2354.07 69.12 1.00 129.81 3008.50
   20:21:36.551.08-May-2021 4592.01 2356.37 69.12 1.00 130.01 3008.50
   20:21:36.751.08-May-2021 4592.01 2356.37 69.12 1.00 130.21 3008.50
   20:21:36.952.08-May-2021 4592.01 2359.44 69.12 1.00 130.41 3008.50
   20:21:37.152.08-May-2021 4592.01 2360.88 69.12 1.00 130.61 3008.50
   20:21:37.352.08-May-2021 4592.01 2362.38 69.12 1.00 130.81 3008.50
   20:21:37.552.08-May-2021 4592.01 2363.08 69.12 1.00 131.01 3008.50
   20:21:37.752.08-May-2021 4592.01 2363.08 69.12 1.00 131.21 3008.50
   20:21:37.952.08-May-2021 4592.01 2367.14 69.12 1.00 131.41 3008.50
   20:21:38.152.08-May-2021 4592.01 2369.28 69.12 1.00 131.61 3008.50
   20:21:38.352.08-May-2021 4592.01 2371.07 69.12 1.00 131.81 3008.50
   20:21:38.552.08-May-2021 4592.01 2373.15 69.12 1.00 132.01 3008.50
   20:21:38.752.08-May-2021 4592.01 2373.15 69.12 1.00 132.21 3008.50
   20:21:38.952.08-May-2021 4592.01 2376.74 69.12 1.00 132.41 3008.50
   20:21:39.152.08-May-2021 4592.01 2378.49 69.12 1.00 132.61 3008.50
   20:21:39.352.08-May-2021 4592.01 2380.06 69.12 1.00 132.81 3008.50
   20:21:39.552.08-May-2021 4592.01 2381.73 69.12 1.00 133.01 3008.50
   20:21:39.752.08-May-2021 4592.01 2381.73 69.12 1.00 133.21 3008.50
   20:21:39.952.08-May-2021 4592.01 2384.80 69.12 1.00 133.41 3008.50
   20:21:40.152.08-May-2021 4592.01 2385.52 69.12 1.00 133.61 3008.50
   20:21:40.352.08-May-2021 4592.01 2388.31 69.12 1.00 133.81 3008.50
   20:21:40.552.08-May-2021 4592.01 2389.27 69.12 1.00 134.01 3008.50
   20:21:40.752.08-May-2021 4592.01 2389.27 69.12 1.00 134.21 3008.50
   20:21:40.952.08-May-2021 4592.01 2392.60 69.12 1.00 134.41 3008.50
   20:21:41.152.08-May-2021 4592.01 2394.14 69.12 1.00 134.61 3008.50
   20:21:41.352.08-May-2021 4592.01 2395.60 69.12 1.00 134.81 3008.50
   20:21:41.552.08-May-2021 4592.01 2397.06 69.12 1.00 135.01 3008.50
   20:21:41.752.08-May-2021 4592.01 2397.06 69.12 1.00 135.21 3008.50
   20:21:41.952.08-May-2021 4592.01 2399.93 69.12 1.00 135.41 3008.50
   20:21:42.152.08-May-2021 4592.01 2401.44 69.12 1.00 135.61 3008.50
   20:21:42.352.08-May-2021 4592.01 2402.80 69.12 1.00 135.81 3008.50
   20:21:42.552.08-May-2021 4592.01 2404.19 69.12 1.00 136.01 3008.50
   20:21:42.752.08-May-2021 4592.01 2404.19 69.12 1.00 136.21 3008.50
   20:21:42.952.08-May-2021 4592.01 2407.27 69.12 1.00 136.41 3008.50
   20:21:43.152.08-May-2021 4592.01 2408.37 69.12 1.00 136.61 3008.50
   20:21:43.352.08-May-2021 4592.01 2409.45 69.12 1.00 136.81 3008.50
   20:21:43.552.08-May-2021 4592.01 2412.21 69.12 1.00 137.01 3008.50
   20:21:43.752.08-May-2021 4592.01 2412.21 69.12 1.00 137.21 3008.50
   20:21:43.952.08-May-2021 4592.01 2414.89 69.12 1.00 137.41 3008.50
   20:21:44.152.08-May-2021 4592.01 2415.81 69.12 1.00 137.61 3008.50
   20:21:44.352.08-May-2021 4592.01 2417.81 69.12 1.00 137.81 3008.50
