~Version Information
 VERS.                  2.0:   CWLS log ASCII Standard -VERSION 2.0
 WRAP.                   NO:   One line per depth step
~Well Information Block
#MNEM.UNIT     VALUE/NAME     DESCRIPTION
#---------     -----------    ---------------------------
 STRT.S             20:58:23 08-May-21: START TIME 20:58:23 08-May-21
 STOP.S             21:05:15 08-May-21: STOP TIME  21:05:15 08-May-21
 STEP.S                   0.00: STEP TIME
 NULL.                 -999.25: NULL VALUE
 PROV.                    Baku:  PROVINCE
 STAT.                    Baku:  STATE NAME
 SON .        AZ-XX-0906571588:  JOB NUMBER
 WTYP.                Deviated:  WELL TYPE
 COMP.     BP Exploration (Caspian Sea) ltd:  COMPANY
 BASE.              Azerbaijan:  LOGGING EQUIPMENT BASE LOCATION
 REGN.                   EESSA:  REGION
 CTRY.              Azerbaijan:  COUNTRY NAME
 FLD .                     ACG:  FIELD NAME
 WELL.                     J28:  WELL NAME
 RIG .             West Chirag:  RIG NAME
 DMF .             Drill Floor:  DRILL MEAS FROM
 PDAT.       Caspian Sea Level:  PERMANENT DATUM
 HPTY.       Minimum Curvature:  HOLE POS TYPE
 MDS .        Operator Entered:  MAG DATA SOURCE
 NREF.                    Grid:  NORTH REFERENCE
 SRVC.          TURAN DRILLING:  CONTRACTOR
 JOBN.        AZ-XX-0906571588:  JOB TICKET NUMB
 DCON.     Halliburton Sperry Drilling:  DIRECTNL CONTR
 STIM.      00.44.00 11-Feb-21:  START TIME
 DATE.      00.00.00 05-May-21:  END TIME
 SPUD.               13-Feb-21:  SPUD DATE
 MWDS.                    Baku:  MWD SHOP
 DOE .                     N/A:  DOE NUMBER
 UNIT.                     N/A:  LOGGING EQUIPMENT ID
 UWI .                     N/A:  UNIQUE WELL IDENTIFIER
 API .                     N/A:  API NUMBER
 CNTY.                        :  COUNTY
 LOC .                        :  LOCATION
 LMF .             Drill Floor:  LOG MEASURED FROM
 TVDS.m                  43.00:  TVDSS CORRECTN
 SDEP.m                 341.00:  START DEPTH
 EGL .m                   0.00:  GROUND ELEVATION
 WDMS.m                 169.80:  WD ELEV
 AGAP.m                  43.00:  AIR GAP
 EPD .m                   0.00:  ELEVATION
 APD .m                  43.00:  DEPTH ABOVE PD
 LATI.deg                40.13:  LATITUDE
 LONG.deg                51.22:  LONGITUDE
 UTMY.m             4443793.85:  UTM Y
 UTMX.m              519005.06:  UTM X
 WHEW.m                 -11.57:  WELL HEAD E/W
 WHNS.m                   8.57:  WELL HEAD N/S
 VSEW.m                 -11.57:  VERT SEC E/W
 VSNS.m                   8.57:  VERT SEC N/S
 DFWL.m                   0.00:  DISTANCE FWL
 DFSL.m                   0.00:  DISTANCE FSL
 VSDR.deg               299.34:  VERT SEC DIRECT
 GVFD.g                   1.00:  GRAVITY FIELD
 AZTC.deg                 6.36:  AZM TOTAL CORR
 MFLD.nT              50391.00:  MAGNETIC FIELD
 MDIP.deg                59.65:  MAGNETIC DIP
 MDEC.deg                 6.48:  MAGNETIC DECL
 GRDC.deg                 0.12:  GRID CORRECTION
 DEP .m                 334.96:  DEPTH
 TDD .m                1407.26:  TOTAL DEPTH (DRILLER)
 EKB .m                  43.00:  KB ELEVATION
 EDF .m                  43.00:  DF ELEVATION
 TDL .m                 228.00:  TOTAL DEPTH (LOGGER)
 VSC .                       0:  VS TO CLOSURE
 MAGU.                 1854484:  MAGUTM CHECKSUM
~Parameter Information Block
#MNEM.UNIT       Value        Description
#---------     -----------    ---------------------------
 AV  .mps                 4.00:  Ann Velocity 
 AVMX.mps                 4.73:  Max Ann Veloc 
 AZIF.deg               304.48:  Azm, Final 
 BHAT.        Rotary Steerable:  BHA Type 
 BREV.rev            257300.00:  Rev Bit Total 
 BROT.°/30m               0.00:  Build Rotating 
 BS  .in                  8.50:  Bit Size 
 BSZ .in                  8.50:  Bit Size 
 BTPL.psig              589.00:  Bit Press Loss 
 CABU.                      No:  Customer Abuse 
 CGEO.          Mubariz ghayev:  Customer Geo 
 COMM.                     ”<v:  Run Comments 1 
 TCS .hr                 64.25:  Time Ciculation Ended 
 CV  .mps                 3.50:  Crit Velocity 
 CVMX.mps                 4.52:  Max Crit Veloc 
 DD1 .             Aziz Aliyev:  Direct Drillr 1 
 DD2 .         Intigam Rahimov:  Direct Drillr 2 
 DD3 .          Rashad Habibov:  Direct Drillr 3 
 DDSV.               Geo-Pilot:  DD Service 
 DEFF.%                  98.00:  % Det Eff 
 DLRX.°/30m               0.00:  Dogleg Rot Max 
 DLSO.°/30m               0.00:  Dogleg Oriented 
 DLSX.°/30m               0.00:  Dogleg Str Max 
 DRET.      10.45.04 08-May-21:  Drill End Time 
 DRST.      03.30.04 04-May-21:  Drill Start Tim 
 DTIM.hr                 14.97:  Time Drilling 
 EDEP.m                4640.01:  End Depth 
 ENG1.         Dail Mahammadov:  Engineer 1 
 ENG2.           Eldar Hajiyev:  Engineer 2 
 ENG3.       Bakhtiar Jabbarli:  Engineer 3 
 ENG4.       Natik Hasanagayev:  Engineer 4 
 ETIM.      09.30.04 14-May-21:  End Time 
 FLOI.gpm               460.00:  Flow In 
 FLON.gpm               200.00:  Flow In Min 
 FLOS.cptm                0.00:  Fluid Loss 
 FLOX.gpm               505.00:  Flow In Max 
 HFLO.                      No:  High Flow 
 HPRE.                      No:  High Pressure 
 HTEM.                      No:  High Temp 
 HYDO.m                   1.80:  Hydro Offset 
 IFIN.deg                66.71:  Inc, Final 
 IMAX.deg                67.03:  Inc Max 
 IMIN.deg                66.63:  Inc Min 
 IMND.m                4550.58:  Inc Min Depth 
 IMXD.m                4439.01:  Inc Max Depth 
 JARR.                      No:  Jarring 
 LETM.      10.45.04 08-May-21:  Log End Time 
 LOST.hr                     0:  Lost Rig Time 
 LSTM.      03.30.04 04-May-21:  Log Start Time 
 MDCL.ppm             37000.00:  Mud Chlorides 
 MDES.     Inversion Oil/Synthetic:  Mud Desc 
 DFD .sg                  1.38:  Mud Density 
 MDMN.sg                  1.35:  Dens Mud Min 
 MDMX.sg                  1.40:  Dens Mud Max 
 MOIL.                   57.40:  Run Mud Oil % 
 MOWR.                   70:30:  Run Mud OWR 
 MSND.                    0.00:  Run Mud Sand % 
 MSOL.                   18.00:  Run Mud Solids% 
 DFV .spqt               71.00:  Mud Viscosity 
 MWOD.in                  6.75:  MWD Tool OD 
 MWSI.                      No:  Serv Intrp, MWD 
 OTIM.hr                242.76:  Time Operating 
 PCON.           Look Like New:  Pad Condition 
 PMAX.psia            12183.92:  Press Op, Max 
 PV  .cP                 27.00:  Mud PV 
 RUN .                    1300:  Run Number 
 ROPA.m/hr               15.00:  ROP Avg 
 ROPN.m/hr                9.00:  ROP Min 
 ROPX.m/hr               19.00:  ROP Max 
 RPMA.rpm               120.00:  RPM Surface Avg 
 RPMN.rpm               100.00:  RPM Surface Min 
 RPMX.rpm               120.00:  RPM Surface Max 
 RRUN.                    1300:  Rig Run Number 
 RTIM.hr                  5.00:  Time Reaming 
 SAZI.deg               304.73:  Azm, Start 
 SDEP.m                4412.01:  Start Depth 
 SIDD.                      No:  Serv Intrp, DD 
 SINC.deg                66.82:  Inc, Start 
 SPPA.psig             2800.00:  SPP Avg 
 SPPN.psig             2610.00:  SPP Min 
 SPPX.psig             3100.00:  SPP Max 
 STIM.      03.30.00 04-May-21:  Start Time 
 SVCS.                 DD, MWD:  Services 
 SVER.                    9.20:  Sperry Version 
 TDAT.m                 228.00:  Tot Depth Attmp 
 TDDF.                      No:  Trip for DD 
 TDLG.m                 228.00:  Tot Depth Loggd 
 TFF .                      No:  Trip for Fail 
 TQAA.f-kp               15.00:  Torque Abs Avg 
 TQAN.f-kp               12.00:  Torque Abs Min 
 TQAX.f-kp               22.00:  Torque Abs Max 
 TRRT.°/30m               0.00:  Turn Rotating 
 MRT .                    HCIM:  Maximum Recorded Temperature 
 TTMX.degC               90.20:  Max Tool Temp 
 VS01.                90627813:  Virtual Str1 SN 
 VS02.                90634712:  Virtual Str2 SN 
 VS03.                90643410:  Virtual Str3 SN 
 VS04.                90634712:  Virtual Str4 SN 
 WBMN.klb                 9.00:  WOB Min 
 WITN.        Elmaddin Rahimov:  Customer Rep 
 WITN.         Haytham Mostafa:  Customer Rep 2 
 WOBA.klb                15.00:  WOB Avg 
 WOBX.klb                23.00:  WOB Max 
 YP  .lhf2               29.00:  Yield Point 
~Curve Information Block
#MNEM.UNIT                 API CODE     Curve Description
#---------               -----------    ---------------------------
 TIME.HHMMSS            00 000 000 000:  GT Time & Date
 GTDEPTH.m              00 000 000 000:  GT Depth
 GTPQH.psia             00 000 000 000:  GT HR Quartz Pressure
 GTTQ.degC              00 000 000 000:  GT Quartz Temperature
 GTTN.NONE              00 000 000 000:  GT Test Number
 GTET.sec               00 000 000 000:  GT Elapsed Test Time
 GTTVD.m                00 000 000 000:  GT True Vertical Depth
#Other Information
#
#WARRANTY: Halliburton will use its best efforts to furnish customers with 
#accurate information and interpretations that are part of, and incident to, the services 
#provided.  However, Halliburton cannot and does not warrant the accuracy 
#or correctness of such information and interpretations.  Under no circumstances should any 
#such information or interpretation be relied upon as the sole basis for any drilling, 
#completion, production, or financial decision or any procedure involving any risk to the 
#safety of any drilling venture, drilling rig or its crew or any other third party.  The 
#Customer has full responsibility for all drilling, completion and production operation.  
#Halliburton makes no representations or warranties, either expressed or 
#implied, including, but not limited to, the implied warranties of merchantability or fitness 
#for a particular purpose, with respect to the services rendered.  In no event will 
#Halliburton be liable for failure to obtain any particular results or for 
#any damages, including, but not limited to, indirect, special or consequential damages, 
#resulting from the use of any information or interpretation provided by Halliburton.
#
~A           TIME           GTDEPTH  GTPQH  GTTQ  GTTN  GTET   GTTVD  
# ...
   21:02:13.803.08-May-2021 4593.01 3777.62 69.01 2.00 230.02 3008.90
   21:02:14.003.08-May-2021 4593.01 3777.62 69.01 2.00 230.22 3008.90
   21:02:14.203.08-May-2021 4593.01 3777.58 69.01 2.00 230.42 3008.90
   21:02:14.404.08-May-2021 4593.01 3777.54 69.01 2.00 230.62 3008.90
   21:02:14.604.08-May-2021 4593.01 3777.36 69.01 2.00 230.82 3008.90
   21:02:14.804.08-May-2021 4593.01 3777.87 69.01 2.00 231.02 3008.90
   21:02:15.004.08-May-2021 4593.01 3777.87 69.01 2.00 231.22 3008.90
   21:02:15.204.08-May-2021 4593.01 3777.66 69.01 2.00 231.42 3008.90
   21:02:15.404.08-May-2021 4593.01 3777.57 69.01 2.00 231.62 3008.90
   21:02:15.604.08-May-2021 4593.01 3777.39 69.01 2.00 231.82 3008.90
   21:02:15.804.08-May-2021 4593.01 3777.72 69.01 2.00 232.02 3008.90
   21:02:16.004.08-May-2021 4593.01 3777.72 69.01 2.00 232.22 3008.90
   21:02:16.204.08-May-2021 4593.01 3777.64 69.01 2.00 232.42 3008.90
   21:02:16.404.08-May-2021 4593.01 3777.49 69.01 2.00 232.62 3008.90
   21:02:16.604.08-May-2021 4593.01 3777.50 69.01 2.00 232.82 3008.90
   21:02:16.804.08-May-2021 4593.01 3777.74 69.01 2.00 233.02 3008.90
   21:02:17.004.08-May-2021 4593.01 3777.74 69.01 2.00 233.22 3008.90
   21:02:17.204.08-May-2021 4593.01 3777.80 69.01 2.00 233.42 3008.90
   21:02:17.404.08-May-2021 4593.01 3777.46 69.01 2.00 233.62 3008.90
   21:02:17.604.08-May-2021 4593.01 3777.44 69.01 2.00 233.82 3008.90
   21:02:17.804.08-May-2021 4593.01 3777.64 69.01 2.00 234.02 3008.90
   21:02:18.004.08-May-2021 4593.01 3777.64 69.01 2.00 234.22 3008.90
   21:02:18.204.08-May-2021 4593.01 3777.49 69.01 2.00 234.42 3008.90
   21:02:18.404.08-May-2021 4593.01 3777.63 69.01 2.00 234.62 3008.90
   21:02:18.604.08-May-2021 4593.01 3777.50 69.01 2.00 234.82 3008.90
   21:02:18.804.08-May-2021 4593.01 3777.53 69.01 2.00 235.02 3008.90
   21:02:19.004.08-May-2021 4593.01 3777.53 69.01 2.00 235.22 3008.90
   21:02:19.204.08-May-2021 4593.01 3777.37 69.01 2.00 235.42 3008.90
   21:02:19.404.08-May-2021 4593.01 3777.84 69.01 2.00 235.62 3008.90
   21:02:19.604.08-May-2021 4593.01 3777.44 69.01 2.00 235.82 3008.90
   21:02:19.804.08-May-2021 4593.01 3777.61 69.01 2.00 236.02 3008.90
   21:02:20.004.08-May-2021 4593.01 3777.61 69.01 2.00 236.22 3008.90
   21:02:20.204.08-May-2021 4593.01 3777.65 69.01 2.00 236.42 3008.90
   21:02:20.404.08-May-2021 4593.01 3777.52 69.01 2.00 236.62 3008.90
   21:02:20.604.08-May-2021 4593.01 3777.46 69.01 2.00 236.82 3008.90
   21:02:20.804.08-May-2021 4593.01 3777.62 69.01 2.00 237.02 3008.90
   21:02:21.004.08-May-2021 4593.01 3777.62 69.01 2.00 237.22 3008.90
   21:02:21.204.08-May-2021 4593.01 3777.43 69.01 2.00 237.42 3008.90
   21:02:21.404.08-May-2021 4593.01 3777.66 69.01 2.00 237.62 3008.90
   21:02:21.604.08-May-2021 4593.01 3777.53 69.01 2.00 237.82 3008.90
   21:02:21.804.08-May-2021 4593.01 3777.35 69.01 2.00 238.02 3008.90
   21:02:22.004.08-May-2021 4593.01 3777.35 69.01 2.00 238.22 3008.90
   21:02:22.204.08-May-2021 4593.01 3777.32 69.01 2.00 238.42 3008.90
   21:02:22.404.08-May-2021 4593.01 3777.63 69.01 2.00 238.62 3008.90
   21:02:22.604.08-May-2021 4593.01 3777.50 69.01 2.00 238.82 3008.90
   21:02:22.804.08-May-2021 4593.01 3777.61 69.01 2.00 239.02 3008.90
   21:02:23.004.08-May-2021 4593.01 3777.61 69.01 2.00 239.22 3008.90
   21:02:23.204.08-May-2021 4593.01 3777.41 69.01 2.00 239.42 3008.90
   21:02:23.404.08-May-2021 4593.01 3777.63 69.01 2.00 239.62 3008.90
   21:02:23.604.08-May-2021 4593.01 3777.44 69.01 2.00 239.82 3008.90
   21:02:23.804.08-May-2021 4593.01 3777.64 69.01 2.00 240.02 3008.90
   21:02:24.005.08-May-2021 4593.01 3777.64 69.01 2.00 240.22 3008.90
   21:02:24.205.08-May-2021 4593.01 3777.44 69.01 2.00 240.42 3008.90
   21:02:24.405.08-May-2021 4593.01 3777.58 69.01 2.00 240.62 3008.90
   21:02:24.605.08-May-2021 4593.01 3777.57 69.01 2.00 240.82 3008.90
   21:02:24.805.08-May-2021 4593.01 3777.62 69.01 2.00 241.02 3008.90
   21:02:25.005.08-May-2021 4593.01 3777.62 69.01 2.00 241.22 3008.90
   21:02:25.205.08-May-2021 4593.01 3777.58 69.01 2.00 241.42 3008.90
   21:02:25.405.08-May-2021 4593.01 3777.48 69.01 2.00 241.62 3008.90
   21:02:25.605.08-May-2021 4593.01 3777.47 69.01 2.00 241.83 3008.90
   21:02:25.805.08-May-2021 4593.01 3777.59 69.01 2.00 242.03 3008.90
   21:02:26.005.08-May-2021 4593.01 3777.59 69.01 2.00 242.23 3008.90
   21:02:26.205.08-May-2021 4593.01 3777.52 69.01 2.00 242.43 3008.90
   21:02:26.405.08-May-2021 4593.01 3777.60 69.01 2.00 242.63 3008.90
   21:02:26.605.08-May-2021 4593.01 3777.51 69.01 2.00 242.83 3008.90
   21:02:26.805.08-May-2021 4593.01 3777.53 69.01 2.00 243.03 3008.90
   21:02:27.005.08-May-2021 4593.01 3777.53 69.01 2.00 243.23 3008.90
   21:02:27.205.08-May-2021 4593.01 3777.51 69.01 2.00 243.43 3008.90
   21:02:27.405.08-May-2021 4593.01 3777.66 69.01 2.00 243.63 3008.90
   21:02:27.605.08-May-2021 4593.01 3777.69 69.01 2.00 243.83 3008.90
   21:02:27.805.08-May-2021 4593.01 3777.33 69.01 2.00 244.03 3008.90
   21:02:28.005.08-May-2021 4593.01 3777.33 69.01 2.00 244.23 3008.90
   21:02:28.205.08-May-2021 4593.01 3777.60 69.01 2.00 244.43 3008.90
   21:02:28.405.08-May-2021 4593.01 3777.44 69.01 2.00 244.63 3008.90
   21:02:28.605.08-May-2021 4593.01 3777.50 69.01 2.00 244.83 3008.90
   21:02:28.805.08-May-2021 4593.01 3777.60 69.01 2.00 245.03 3008.90
   21:02:29.005.08-May-2021 4593.01 3777.60 69.01 2.00 245.23 3008.90
   21:02:29.205.08-May-2021 4593.01 3777.54 69.01 2.00 245.43 3008.90
   21:02:29.405.08-May-2021 4593.01 3777.58 69.01 2.00 245.63 3008.90
   21:02:29.605.08-May-2021 4593.01 3777.48 69.01 2.00 245.83 3008.90
   21:02:29.805.08-May-2021 4593.01 3777.57 69.01 2.00 246.03 3008.90
   21:02:30.005.08-May-2021 4593.01 3777.57 69.01 2.00 246.23 3008.90
   21:02:30.205.08-May-2021 4593.01 3777.56 69.01 2.00 246.43 3008.90
   21:02:30.405.08-May-2021 4593.01 3777.34 69.01 2.00 246.63 3008.90
   21:02:30.605.08-May-2021 4593.01 3777.68 69.01 2.00 246.83 3008.90
   21:02:30.805.08-May-2021 4593.01 3777.34 69.01 2.00 247.03 3008.90
   21:02:31.005.08-May-2021 4593.01 3777.34 69.01 2.00 247.23 3008.90
   21:02:31.205.08-May-2021 4593.01 3777.46 69.01 2.00 247.43 3008.90
   21:02:31.405.08-May-2021 4593.01 3777.58 69.01 2.00 247.63 3008.90
   21:02:31.605.08-May-2021 4593.01 3777.52 69.01 2.00 247.83 3008.90
   21:02:31.805.08-May-2021 4593.01 3777.50 69.01 2.00 248.03 3008.90
   21:02:32.005.08-May-2021 4593.01 3777.50 69.01 2.00 248.23 3008.90
   21:02:32.205.08-May-2021 4593.01 3777.30 69.01 2.00 248.43 3008.90
   21:02:32.405.08-May-2021 4593.01 3777.76 69.01 2.00 248.63 3008.90
   21:02:32.605.08-May-2021 4593.01 3777.45 69.01 2.00 248.83 3008.90
   21:02:32.805.08-May-2021 4593.01 3777.36 69.01 2.00 249.03 3008.90
   21:02:33.005.08-May-2021 4593.01 3777.36 69.01 2.00 249.23 3008.90
   21:02:33.205.08-May-2021 4593.01 3777.35 69.01 2.00 249.43 3008.90
   21:02:33.405.08-May-2021 4593.01 3777.65 69.01 2.00 249.63 3008.90
   21:02:33.605.08-May-2021 4593.01 3777.49 69.01 2.00 249.83 3008.90
   21:02:33.806.08-May-2021 4593.01 3777.55 69.01 2.00 250.03 3008.90
   21:02:34.006.08-May-2021 4593.01 3777.55 69.01 2.00 250.23 3008.90
   21:02:34.206.08-May-2021 4593.01 3754.42 69.01 2.00 250.43 3008.90
   21:02:34.406.08-May-2021 4593.01 3348.75 69.01 2.00 250.63 3008.90
   21:02:34.606.08-May-2021 4593.01 2977.60 69.01 2.00 250.83 3008.90
   21:02:34.806.08-May-2021 4593.01 2710.96 69.01 2.00 251.03 3008.90
   21:02:35.006.08-May-2021 4593.01 2710.96 69.01 2.00 251.23 3008.90
   21:02:35.206.08-May-2021 4593.01 2344.21 69.01 2.00 251.43 3008.90
   21:02:35.406.08-May-2021 4593.01 2207.80 69.01 2.00 251.63 3008.90
   21:02:35.606.08-May-2021 4593.01 2088.58 69.01 2.00 251.83 3008.90
   21:02:35.806.08-May-2021 4593.01 1976.15 69.01 2.00 252.03 3008.90
   21:02:36.006.08-May-2021 4593.01 1976.15 69.01 2.00 252.23 3008.90
   21:02:36.206.08-May-2021 4593.01 1796.74 69.01 2.00 252.43 3008.90
   21:02:36.406.08-May-2021 4593.01 1722.31 69.01 2.00 252.63 3008.90
   21:02:36.606.08-May-2021 4593.01 1667.16 69.01 2.00 252.83 3008.90
