~Version Information
 VERS.                  2.0:   CWLS log ASCII Standard -VERSION 2.0
 WRAP.                   NO:   One line per depth step
~Well Information Block
#MNEM.UNIT     VALUE/NAME     DESCRIPTION
#---------     -----------    ---------------------------
 STRT.S             01:50:25 10-May-21: START TIME 01:50:25 10-May-21
 STOP.S             01:58:33 10-May-21: STOP TIME  01:58:33 10-May-21
 STEP.S                   0.00: STEP TIME
 NULL.                 -999.25: NULL VALUE
 PROV.                    Baku:  PROVINCE
 STAT.                    Baku:  STATE NAME
 SON .        AZ-XX-0906571588:  JOB NUMBER
 WTYP.                Deviated:  WELL TYPE
 COMP.     BP Exploration (Caspian Sea) ltd:  COMPANY
 BASE.              Azerbaijan:  LOGGING EQUIPMENT BASE LOCATION
 REGN.                   EESSA:  REGION
 CTRY.              Azerbaijan:  COUNTRY NAME
 FLD .                     ACG:  FIELD NAME
 WELL.                     J28:  WELL NAME
 RIG .             West Chirag:  RIG NAME
 DMF .             Drill Floor:  DRILL MEAS FROM
 PDAT.       Caspian Sea Level:  PERMANENT DATUM
 HPTY.       Minimum Curvature:  HOLE POS TYPE
 MDS .        Operator Entered:  MAG DATA SOURCE
 NREF.                    Grid:  NORTH REFERENCE
 SRVC.          TURAN DRILLING:  CONTRACTOR
 JOBN.        AZ-XX-0906571588:  JOB TICKET NUMB
 DCON.     Halliburton Sperry Drilling:  DIRECTNL CONTR
 STIM.      00.44.00 11-Feb-21:  START TIME
 DATE.      00.00.00 05-May-21:  END TIME
 SPUD.               13-Feb-21:  SPUD DATE
 MWDS.                    Baku:  MWD SHOP
 DOE .                     N/A:  DOE NUMBER
 UNIT.                     N/A:  LOGGING EQUIPMENT ID
 UWI .                     N/A:  UNIQUE WELL IDENTIFIER
 API .                     N/A:  API NUMBER
 CNTY.                        :  COUNTY
 LOC .                        :  LOCATION
 LMF .             Drill Floor:  LOG MEASURED FROM
 TVDS.m                  43.00:  TVDSS CORRECTN
 SDEP.m                 341.00:  START DEPTH
 EGL .m                   0.00:  GROUND ELEVATION
 WDMS.m                 169.80:  WD ELEV
 AGAP.m                  43.00:  AIR GAP
 EPD .m                   0.00:  ELEVATION
 APD .m                  43.00:  DEPTH ABOVE PD
 LATI.deg                40.13:  LATITUDE
 LONG.deg                51.22:  LONGITUDE
 UTMY.m             4443793.85:  UTM Y
 UTMX.m              519005.06:  UTM X
 WHEW.m                 -11.57:  WELL HEAD E/W
 WHNS.m                   8.57:  WELL HEAD N/S
 VSEW.m                 -11.57:  VERT SEC E/W
 VSNS.m                   8.57:  VERT SEC N/S
 DFWL.m                   0.00:  DISTANCE FWL
 DFSL.m                   0.00:  DISTANCE FSL
 VSDR.deg               299.34:  VERT SEC DIRECT
 GVFD.g                   1.00:  GRAVITY FIELD
 AZTC.deg                 6.36:  AZM TOTAL CORR
 MFLD.nT              50391.00:  MAGNETIC FIELD
 MDIP.deg                59.65:  MAGNETIC DIP
 MDEC.deg                 6.48:  MAGNETIC DECL
 GRDC.deg                 0.12:  GRID CORRECTION
 DEP .m                 334.96:  DEPTH
 TDD .m                1407.26:  TOTAL DEPTH (DRILLER)
 EKB .m                  43.00:  KB ELEVATION
 EDF .m                  43.00:  DF ELEVATION
 TDL .m                 228.00:  TOTAL DEPTH (LOGGER)
 VSC .                       0:  VS TO CLOSURE
 MAGU.                 1854484:  MAGUTM CHECKSUM
~Parameter Information Block
#MNEM.UNIT       Value        Description
#---------     -----------    ---------------------------
 AV  .mps                 4.00:  Ann Velocity 
 AVMX.mps                 4.73:  Max Ann Veloc 
 AZIF.deg               304.48:  Azm, Final 
 BHAT.        Rotary Steerable:  BHA Type 
 BREV.rev            257300.00:  Rev Bit Total 
 BROT.°/30m               0.00:  Build Rotating 
 BS  .in                  8.50:  Bit Size 
 BSZ .in                  8.50:  Bit Size 
 BTPL.psig              589.00:  Bit Press Loss 
 CABU.                      No:  Customer Abuse 
 CGEO.          Mubariz ghayev:  Customer Geo 
 COMM.                     Í‚:  Run Comments 1 
 TCS .hr                 64.25:  Time Ciculation Ended 
 CV  .mps                 3.50:  Crit Velocity 
 CVMX.mps                 4.52:  Max Crit Veloc 
 DD1 .             Aziz Aliyev:  Direct Drillr 1 
 DD2 .         Intigam Rahimov:  Direct Drillr 2 
 DD3 .          Rashad Habibov:  Direct Drillr 3 
 DDSV.               Geo-Pilot:  DD Service 
 DEFF.%                  98.00:  % Det Eff 
 DLRX.°/30m               0.00:  Dogleg Rot Max 
 DLSO.°/30m               0.00:  Dogleg Oriented 
 DLSX.°/30m               0.00:  Dogleg Str Max 
 DRET.      10.45.04 08-May-21:  Drill End Time 
 DRST.      03.30.04 04-May-21:  Drill Start Tim 
 DTIM.hr                 14.97:  Time Drilling 
 EDEP.m                4640.01:  End Depth 
 ENG1.         Dail Mahammadov:  Engineer 1 
 ENG2.           Eldar Hajiyev:  Engineer 2 
 ENG3.       Bakhtiar Jabbarli:  Engineer 3 
 ENG4.       Natik Hasanagayev:  Engineer 4 
 ETIM.      09.30.04 14-May-21:  End Time 
 FLOI.gpm               460.00:  Flow In 
 FLON.gpm               200.00:  Flow In Min 
 FLOS.cptm                0.00:  Fluid Loss 
 FLOX.gpm               505.00:  Flow In Max 
 HFLO.                      No:  High Flow 
 HPRE.                      No:  High Pressure 
 HTEM.                      No:  High Temp 
 HYDO.m                   1.80:  Hydro Offset 
 IFIN.deg                66.71:  Inc, Final 
 IMAX.deg                67.03:  Inc Max 
 IMIN.deg                66.63:  Inc Min 
 IMND.m                4550.58:  Inc Min Depth 
 IMXD.m                4439.01:  Inc Max Depth 
 JARR.                      No:  Jarring 
 LETM.      10.45.04 08-May-21:  Log End Time 
 LOST.hr                     0:  Lost Rig Time 
 LSTM.      03.30.04 04-May-21:  Log Start Time 
 MDCL.ppm             37000.00:  Mud Chlorides 
 MDES.     Inversion Oil/Synthetic:  Mud Desc 
 DFD .sg                  1.38:  Mud Density 
 MDMN.sg                  1.35:  Dens Mud Min 
 MDMX.sg                  1.40:  Dens Mud Max 
 MOIL.                   57.40:  Run Mud Oil % 
 MOWR.                   70:30:  Run Mud OWR 
 MSND.                    0.00:  Run Mud Sand % 
 MSOL.                   18.00:  Run Mud Solids% 
 DFV .spqt               71.00:  Mud Viscosity 
 MWOD.in                  6.75:  MWD Tool OD 
 MWSI.                      No:  Serv Intrp, MWD 
 OTIM.hr                242.76:  Time Operating 
 PCON.           Look Like New:  Pad Condition 
 PMAX.psia            12183.92:  Press Op, Max 
 PV  .cP                 27.00:  Mud PV 
 RUN .                    1300:  Run Number 
 ROPA.m/hr               15.00:  ROP Avg 
 ROPN.m/hr                9.00:  ROP Min 
 ROPX.m/hr               19.00:  ROP Max 
 RPMA.rpm               120.00:  RPM Surface Avg 
 RPMN.rpm               100.00:  RPM Surface Min 
 RPMX.rpm               120.00:  RPM Surface Max 
 RRUN.                    1300:  Rig Run Number 
 RTIM.hr                  5.00:  Time Reaming 
 SAZI.deg               304.73:  Azm, Start 
 SDEP.m                4412.01:  Start Depth 
 SIDD.                      No:  Serv Intrp, DD 
 SINC.deg                66.82:  Inc, Start 
 SPPA.psig             2800.00:  SPP Avg 
 SPPN.psig             2610.00:  SPP Min 
 SPPX.psig             3100.00:  SPP Max 
 STIM.      03.30.00 04-May-21:  Start Time 
 SVCS.                 DD, MWD:  Services 
 SVER.                    9.20:  Sperry Version 
 TDAT.m                 228.00:  Tot Depth Attmp 
 TDDF.                      No:  Trip for DD 
 TDLG.m                 228.00:  Tot Depth Loggd 
 TFF .                      No:  Trip for Fail 
 TQAA.f-kp               15.00:  Torque Abs Avg 
 TQAN.f-kp               12.00:  Torque Abs Min 
 TQAX.f-kp               22.00:  Torque Abs Max 
 TRRT.°/30m               0.00:  Turn Rotating 
 MRT .                    HCIM:  Maximum Recorded Temperature 
 TTMX.degC               90.20:  Max Tool Temp 
 VS01.                90627813:  Virtual Str1 SN 
 VS02.                90634712:  Virtual Str2 SN 
 VS03.                90643410:  Virtual Str3 SN 
 VS04.                90634712:  Virtual Str4 SN 
 WBMN.klb                 9.00:  WOB Min 
 WITN.        Elmaddin Rahimov:  Customer Rep 
 WITN.         Haytham Mostafa:  Customer Rep 2 
 WOBA.klb                15.00:  WOB Avg 
 WOBX.klb                23.00:  WOB Max 
 YP  .lhf2               29.00:  Yield Point 
~Curve Information Block
#MNEM.UNIT                 API CODE     Curve Description
#---------               -----------    ---------------------------
 TIME.HHMMSS            00 000 000 000:  GT Time & Date
 GTDEPTH.m              00 000 000 000:  GT Depth
 GTPQH.psia             00 000 000 000:  GT HR Quartz Pressure
 GTTQ.degC              00 000 000 000:  GT Quartz Temperature
 GTTN.NONE              00 000 000 000:  GT Test Number
 GTET.sec               00 000 000 000:  GT Elapsed Test Time
 GTTVD.m                00 000 000 000:  GT True Vertical Depth
#Other Information
#
#WARRANTY: Halliburton will use its best efforts to furnish customers with 
#accurate information and interpretations that are part of, and incident to, the services 
#provided.  However, Halliburton cannot and does not warrant the accuracy 
#or correctness of such information and interpretations.  Under no circumstances should any 
#such information or interpretation be relied upon as the sole basis for any drilling, 
#completion, production, or financial decision or any procedure involving any risk to the 
#safety of any drilling venture, drilling rig or its crew or any other third party.  The 
#Customer has full responsibility for all drilling, completion and production operation.  
#Halliburton makes no representations or warranties, either expressed or 
#implied, including, but not limited to, the implied warranties of merchantability or fitness 
#for a particular purpose, with respect to the services rendered.  In no event will 
#Halliburton be liable for failure to obtain any particular results or for 
#any damages, including, but not limited to, indirect, special or consequential damages, 
#resulting from the use of any information or interpretation provided by Halliburton.
#
~A           TIME           GTDEPTH  GTPQH  GTTQ  GTTN   GTET   GTTVD  
# ...
   01:55:19.193.10-May-2021 4567.51  499.58 60.94 19.00 293.85 2998.78
   01:55:19.393.10-May-2021 4567.51  499.58 60.94 19.00 294.05 2998.78
   01:55:19.593.10-May-2021 4567.51  499.58 60.94 19.00 294.25 2998.78
   01:55:19.793.10-May-2021 4567.51  499.61 60.94 19.00 294.45 2998.78
   01:55:19.993.10-May-2021 4567.51  499.63 60.94 19.00 294.65 2998.78
   01:55:20.194.10-May-2021 4567.51  499.65 60.94 19.00 294.85 2998.78
   01:55:20.394.10-May-2021 4567.51  499.44 60.94 19.00 295.05 2998.78
   01:55:20.594.10-May-2021 4567.51  499.44 60.94 19.00 295.25 2998.78
   01:55:20.794.10-May-2021 4567.51  499.81 60.94 19.00 295.45 2998.78
   01:55:20.994.10-May-2021 4567.51  499.72 60.94 19.00 295.65 2998.78
   01:55:21.194.10-May-2021 4567.51  499.68 60.94 19.00 295.85 2998.78
   01:55:21.394.10-May-2021 4567.51  499.72 60.94 19.00 296.05 2998.78
   01:55:21.594.10-May-2021 4567.51  499.72 60.94 19.00 296.25 2998.78
   01:55:21.794.10-May-2021 4567.51  499.69 60.94 19.00 296.45 2998.78
   01:55:21.994.10-May-2021 4567.51  499.68 60.94 19.00 296.65 2998.78
   01:55:22.194.10-May-2021 4567.51  499.70 60.94 19.00 296.85 2998.78
   01:55:22.394.10-May-2021 4567.51  499.72 60.94 19.00 297.05 2998.78
   01:55:22.594.10-May-2021 4567.51  499.72 60.94 19.00 297.25 2998.78
   01:55:22.794.10-May-2021 4567.51  499.73 60.94 19.00 297.45 2998.78
   01:55:22.994.10-May-2021 4567.51  499.39 60.94 19.00 297.65 2998.78
   01:55:23.194.10-May-2021 4567.51  499.77 60.94 19.00 297.85 2998.78
   01:55:23.394.10-May-2021 4567.51  499.82 60.94 19.00 298.05 2998.78
   01:55:23.594.10-May-2021 4567.51  499.82 60.94 19.00 298.25 2998.78
   01:55:23.794.10-May-2021 4567.51  499.84 60.94 19.00 298.45 2998.78
   01:55:23.994.10-May-2021 4567.51  499.79 60.94 19.00 298.65 2998.78
   01:55:24.194.10-May-2021 4567.51  499.39 60.94 19.00 298.85 2998.78
   01:55:24.394.10-May-2021 4567.51  500.03 60.94 19.00 299.05 2998.78
   01:55:24.594.10-May-2021 4567.51  500.03 60.94 19.00 299.25 2998.78
   01:55:24.794.10-May-2021 4567.51  499.90 60.94 19.00 299.45 2998.78
   01:55:24.994.10-May-2021 4567.51  499.86 60.94 19.00 299.65 2998.78
   01:55:25.194.10-May-2021 4567.51  499.64 60.94 19.00 299.85 2998.78
   01:55:25.394.10-May-2021 4567.51  499.58 60.94 19.00 300.05 2998.78
   01:55:25.594.10-May-2021 4567.51  499.58 60.94 19.00 300.25 2998.78
   01:55:25.795.10-May-2021 4567.51  499.92 60.94 19.00 300.45 2998.78
   01:55:25.995.10-May-2021 4567.51  499.91 60.94 19.00 300.65 2998.78
   01:55:26.195.10-May-2021 4567.51  499.90 60.94 19.00 300.85 2998.78
   01:55:26.395.10-May-2021 4567.51  499.43 60.94 19.00 301.05 2998.78
   01:55:26.595.10-May-2021 4567.51  499.43 60.94 19.00 301.25 2998.78
   01:55:26.795.10-May-2021 4567.51  499.79 60.94 19.00 301.45 2998.78
   01:55:26.995.10-May-2021 4567.51  500.00 60.94 19.00 301.65 2998.78
   01:55:27.195.10-May-2021 4567.51  499.89 60.94 19.00 301.85 2998.78
   01:55:27.395.10-May-2021 4567.51  499.89 60.94 19.00 302.05 2998.78
   01:55:27.595.10-May-2021 4567.51  499.89 60.94 19.00 302.25 2998.78
   01:55:27.795.10-May-2021 4567.51  499.90 60.94 19.00 302.45 2998.78
   01:55:27.995.10-May-2021 4567.51  499.90 60.94 19.00 302.65 2998.78
   01:55:28.195.10-May-2021 4567.51  499.91 60.94 19.00 302.85 2998.78
   01:55:28.395.10-May-2021 4567.51  499.95 60.94 19.00 303.05 2998.78
   01:55:28.595.10-May-2021 4567.51  499.95 60.94 19.00 303.25 2998.78
   01:55:28.795.10-May-2021 4567.51  499.91 60.94 19.00 303.45 2998.78
   01:55:28.995.10-May-2021 4567.51  499.57 60.94 19.00 303.65 2998.78
   01:55:29.195.10-May-2021 4567.51  500.16 60.94 19.00 303.85 2998.78
   01:55:29.395.10-May-2021 4567.51  499.99 60.94 19.00 304.05 2998.78
   01:55:29.595.10-May-2021 4567.51  499.99 60.94 19.00 304.25 2998.78
   01:55:29.795.10-May-2021 4567.51  500.03 60.94 19.00 304.45 2998.78
   01:55:29.995.10-May-2021 4567.51  499.98 60.94 19.00 304.65 2998.78
   01:55:30.195.10-May-2021 4567.51  500.00 60.94 19.00 304.85 2998.78
   01:55:30.395.10-May-2021 4567.51  499.99 60.94 19.00 305.05 2998.78
   01:55:30.595.10-May-2021 4567.51  499.99 60.94 19.00 305.25 2998.78
   01:55:30.795.10-May-2021 4567.51  500.01 60.94 19.00 305.45 2998.78
   01:55:30.995.10-May-2021 4567.51  500.04 60.94 19.00 305.65 2998.78
   01:55:31.195.10-May-2021 4567.51  500.05 60.94 19.00 305.85 2998.78
   01:55:31.396.10-May-2021 4567.51  499.84 60.94 19.00 306.05 2998.78
   01:55:31.596.10-May-2021 4567.51  499.84 60.94 19.00 306.25 2998.78
   01:55:31.796.10-May-2021 4567.51  500.21 60.94 19.00 306.45 2998.78
   01:55:31.996.10-May-2021 4567.51  500.13 60.94 19.00 306.65 2998.78
   01:55:32.196.10-May-2021 4567.51  500.11 60.94 19.00 306.85 2998.78
   01:55:32.396.10-May-2021 4567.51  500.12 60.94 19.00 307.05 2998.78
   01:55:32.596.10-May-2021 4567.51  500.12 60.94 19.00 307.25 2998.78
   01:55:32.796.10-May-2021 4567.51  500.31 60.94 19.00 307.45 2998.78
   01:55:32.996.10-May-2021 4567.51  500.01 60.94 19.00 307.65 2998.78
   01:55:33.196.10-May-2021 4567.51  500.24 60.94 19.00 307.85 2998.78
   01:55:33.396.10-May-2021 4567.51  500.13 60.94 19.00 308.05 2998.78
   01:55:33.596.10-May-2021 4567.51  500.13 60.94 19.00 308.25 2998.78
   01:55:33.796.10-May-2021 4567.51  499.71 60.94 19.00 308.45 2998.78
   01:55:33.996.10-May-2021 4567.51  500.32 60.94 19.00 308.65 2998.78
   01:55:34.196.10-May-2021 4567.51  500.15 60.94 19.00 308.85 2998.78
   01:55:34.396.10-May-2021 4567.51  500.15 60.94 19.00 309.06 2998.78
   01:55:34.596.10-May-2021 4567.51  500.15 60.94 19.00 309.26 2998.78
   01:55:34.796.10-May-2021 4567.51  499.80 60.94 19.00 309.46 2998.78
   01:55:34.996.10-May-2021 4567.51  500.17 60.94 19.00 309.66 2998.78
   01:55:35.196.10-May-2021 4567.51  500.18 60.94 19.00 309.86 2998.78
   01:55:35.396.10-May-2021 4567.51  500.23 60.94 19.00 310.06 2998.78
   01:55:35.596.10-May-2021 4567.51  500.23 60.94 19.00 310.26 2998.78
   01:55:35.796.10-May-2021 4567.51  500.15 60.94 19.00 310.46 2998.78
   01:55:35.996.10-May-2021 4567.51  500.15 60.94 19.00 310.66 2998.78
   01:55:36.196.10-May-2021 4567.51  500.15 60.94 19.00 310.86 2998.78
   01:55:36.396.10-May-2021 4567.51  500.16 60.94 19.00 311.06 2998.78
   01:55:36.596.10-May-2021 4567.51  500.16 60.94 19.00 311.26 2998.78
   01:55:36.796.10-May-2021 4567.51  500.20 60.94 19.00 311.46 2998.78
   01:55:36.997.10-May-2021 4567.51  500.23 60.93 19.00 311.66 2998.78
   01:55:37.197.10-May-2021 4567.51  500.18 60.93 19.00 311.86 2998.78
   01:55:37.397.10-May-2021 4567.51  499.80 60.93 19.00 312.06 2998.78
   01:55:37.597.10-May-2021 4567.51  499.80 60.93 19.00 312.26 2998.78
   01:55:37.797.10-May-2021 4567.51  500.18 60.93 19.00 312.46 2998.78
   01:55:37.997.10-May-2021 4567.51  500.27 60.93 19.00 312.66 2998.78
   01:55:38.197.10-May-2021 4567.51  500.25 60.93 19.00 312.86 2998.78
   01:55:38.397.10-May-2021 4567.51  500.22 60.93 19.00 313.06 2998.78
   01:55:38.597.10-May-2021 4567.51  500.22 60.93 19.00 313.26 2998.78
   01:55:38.797.10-May-2021 4567.51  500.23 60.93 19.00 313.46 2998.78
   01:55:38.997.10-May-2021 4567.51  500.24 60.93 19.00 313.66 2998.78
   01:55:39.197.10-May-2021 4567.51  500.24 60.93 19.00 313.86 2998.78
   01:55:39.397.10-May-2021 4567.51  500.29 60.93 19.00 314.06 2998.78
   01:55:39.597.10-May-2021 4567.51  500.29 60.93 19.00 314.26 2998.78
   01:55:39.797.10-May-2021 4567.51  500.24 60.93 19.00 314.46 2998.78
   01:55:39.997.10-May-2021 4567.51  499.83 60.93 19.00 314.66 2998.78
   01:55:40.197.10-May-2021 4567.51  496.05 60.93 19.00 314.86 2998.78
   01:55:40.397.10-May-2021 4567.51  491.07 60.93 19.00 315.06 2998.78
   01:55:40.597.10-May-2021 4567.51  491.07 60.93 19.00 315.26 2998.78
   01:55:40.797.10-May-2021 4567.51  490.18 60.93 19.00 315.46 2998.78
   01:55:40.997.10-May-2021 4567.51  489.56 60.93 19.00 315.66 2998.78
   01:55:41.197.10-May-2021 4567.51  489.21 60.93 19.00 315.86 2998.78
   01:55:41.397.10-May-2021 4567.51  488.75 60.93 19.00 316.06 2998.78
   01:55:41.597.10-May-2021 4567.51  488.75 60.93 19.00 316.26 2998.78
