~Version Information
 VERS.                  2.0:   CWLS log ASCII Standard -VERSION 2.0
 WRAP.                   NO:   One line per depth step
~Well Information Block
#MNEM.UNIT     VALUE/NAME     DESCRIPTION
#---------     -----------    ---------------------------
 STRT.S             03:18:48 09-May-21: START TIME 03:18:48 09-May-21
 STOP.S             03:25:48 09-May-21: STOP TIME  03:25:48 09-May-21
 STEP.S                   0.00: STEP TIME
 NULL.                 -999.25: NULL VALUE
 PROV.                    Baku:  PROVINCE
 STAT.                    Baku:  STATE NAME
 SON .        AZ-XX-0906571588:  JOB NUMBER
 WTYP.                Deviated:  WELL TYPE
 COMP.     BP Exploration (Caspian Sea) ltd:  COMPANY
 BASE.              Azerbaijan:  LOGGING EQUIPMENT BASE LOCATION
 REGN.                   EESSA:  REGION
 CTRY.              Azerbaijan:  COUNTRY NAME
 FLD .                     ACG:  FIELD NAME
 WELL.                     J28:  WELL NAME
 RIG .             West Chirag:  RIG NAME
 DMF .             Drill Floor:  DRILL MEAS FROM
 PDAT.       Caspian Sea Level:  PERMANENT DATUM
 HPTY.       Minimum Curvature:  HOLE POS TYPE
 MDS .        Operator Entered:  MAG DATA SOURCE
 NREF.                    Grid:  NORTH REFERENCE
 SRVC.          TURAN DRILLING:  CONTRACTOR
 JOBN.        AZ-XX-0906571588:  JOB TICKET NUMB
 DCON.     Halliburton Sperry Drilling:  DIRECTNL CONTR
 STIM.      00.44.00 11-Feb-21:  START TIME
 DATE.      00.00.00 05-May-21:  END TIME
 SPUD.               13-Feb-21:  SPUD DATE
 MWDS.                    Baku:  MWD SHOP
 DOE .                     N/A:  DOE NUMBER
 UNIT.                     N/A:  LOGGING EQUIPMENT ID
 UWI .                     N/A:  UNIQUE WELL IDENTIFIER
 API .                     N/A:  API NUMBER
 CNTY.                        :  COUNTY
 LOC .                        :  LOCATION
 LMF .             Drill Floor:  LOG MEASURED FROM
 TVDS.m                  43.00:  TVDSS CORRECTN
 SDEP.m                 341.00:  START DEPTH
 EGL .m                   0.00:  GROUND ELEVATION
 WDMS.m                 169.80:  WD ELEV
 AGAP.m                  43.00:  AIR GAP
 EPD .m                   0.00:  ELEVATION
 APD .m                  43.00:  DEPTH ABOVE PD
 LATI.deg                40.13:  LATITUDE
 LONG.deg                51.22:  LONGITUDE
 UTMY.m             4443793.85:  UTM Y
 UTMX.m              519005.06:  UTM X
 WHEW.m                 -11.57:  WELL HEAD E/W
 WHNS.m                   8.57:  WELL HEAD N/S
 VSEW.m                 -11.57:  VERT SEC E/W
 VSNS.m                   8.57:  VERT SEC N/S
 DFWL.m                   0.00:  DISTANCE FWL
 DFSL.m                   0.00:  DISTANCE FSL
 VSDR.deg               299.34:  VERT SEC DIRECT
 GVFD.g                   1.00:  GRAVITY FIELD
 AZTC.deg                 6.36:  AZM TOTAL CORR
 MFLD.nT              50391.00:  MAGNETIC FIELD
 MDIP.deg                59.65:  MAGNETIC DIP
 MDEC.deg                 6.48:  MAGNETIC DECL
 GRDC.deg                 0.12:  GRID CORRECTION
 DEP .m                 334.96:  DEPTH
 TDD .m                1407.26:  TOTAL DEPTH (DRILLER)
 EKB .m                  43.00:  KB ELEVATION
 EDF .m                  43.00:  DF ELEVATION
 TDL .m                 228.00:  TOTAL DEPTH (LOGGER)
 VSC .                       0:  VS TO CLOSURE
 MAGU.                 1854484:  MAGUTM CHECKSUM
~Parameter Information Block
#MNEM.UNIT       Value        Description
#---------     -----------    ---------------------------
 AV  .mps                 4.00:  Ann Velocity 
 AVMX.mps                 4.73:  Max Ann Veloc 
 AZIF.deg               304.48:  Azm, Final 
 BHAT.        Rotary Steerable:  BHA Type 
 BREV.rev            257300.00:  Rev Bit Total 
 BROT.°/30m               0.00:  Build Rotating 
 BS  .in                  8.50:  Bit Size 
 BSZ .in                  8.50:  Bit Size 
 BTPL.psig              589.00:  Bit Press Loss 
 CABU.                      No:  Customer Abuse 
 CGEO.          Mubariz ghayev:  Customer Geo 
 COMM.                     ü>:  Run Comments 1 
 TCS .hr                 64.25:  Time Ciculation Ended 
 CV  .mps                 3.50:  Crit Velocity 
 CVMX.mps                 4.52:  Max Crit Veloc 
 DD1 .             Aziz Aliyev:  Direct Drillr 1 
 DD2 .         Intigam Rahimov:  Direct Drillr 2 
 DD3 .          Rashad Habibov:  Direct Drillr 3 
 DDSV.               Geo-Pilot:  DD Service 
 DEFF.%                  98.00:  % Det Eff 
 DLRX.°/30m               0.00:  Dogleg Rot Max 
 DLSO.°/30m               0.00:  Dogleg Oriented 
 DLSX.°/30m               0.00:  Dogleg Str Max 
 DRET.      10.45.04 08-May-21:  Drill End Time 
 DRST.      03.30.04 04-May-21:  Drill Start Tim 
 DTIM.hr                 14.97:  Time Drilling 
 EDEP.m                4640.01:  End Depth 
 ENG1.         Dail Mahammadov:  Engineer 1 
 ENG2.           Eldar Hajiyev:  Engineer 2 
 ENG3.       Bakhtiar Jabbarli:  Engineer 3 
 ENG4.       Natik Hasanagayev:  Engineer 4 
 ETIM.      09.30.04 14-May-21:  End Time 
 FLOI.gpm               460.00:  Flow In 
 FLON.gpm               200.00:  Flow In Min 
 FLOS.cptm                0.00:  Fluid Loss 
 FLOX.gpm               505.00:  Flow In Max 
 HFLO.                      No:  High Flow 
 HPRE.                      No:  High Pressure 
 HTEM.                      No:  High Temp 
 HYDO.m                   1.80:  Hydro Offset 
 IFIN.deg                66.71:  Inc, Final 
 IMAX.deg                67.03:  Inc Max 
 IMIN.deg                66.63:  Inc Min 
 IMND.m                4550.58:  Inc Min Depth 
 IMXD.m                4439.01:  Inc Max Depth 
 JARR.                      No:  Jarring 
 LETM.      10.45.04 08-May-21:  Log End Time 
 LOST.hr                     0:  Lost Rig Time 
 LSTM.      03.30.04 04-May-21:  Log Start Time 
 MDCL.ppm             37000.00:  Mud Chlorides 
 MDES.     Inversion Oil/Synthetic:  Mud Desc 
 DFD .sg                  1.38:  Mud Density 
 MDMN.sg                  1.35:  Dens Mud Min 
 MDMX.sg                  1.40:  Dens Mud Max 
 MOIL.                   57.40:  Run Mud Oil % 
 MOWR.                   70:30:  Run Mud OWR 
 MSND.                    0.00:  Run Mud Sand % 
 MSOL.                   18.00:  Run Mud Solids% 
 DFV .spqt               71.00:  Mud Viscosity 
 MWOD.in                  6.75:  MWD Tool OD 
 MWSI.                      No:  Serv Intrp, MWD 
 OTIM.hr                242.76:  Time Operating 
 PCON.           Look Like New:  Pad Condition 
 PMAX.psia            12183.92:  Press Op, Max 
 PV  .cP                 27.00:  Mud PV 
 RUN .                    1300:  Run Number 
 ROPA.m/hr               15.00:  ROP Avg 
 ROPN.m/hr                9.00:  ROP Min 
 ROPX.m/hr               19.00:  ROP Max 
 RPMA.rpm               120.00:  RPM Surface Avg 
 RPMN.rpm               100.00:  RPM Surface Min 
 RPMX.rpm               120.00:  RPM Surface Max 
 RRUN.                    1300:  Rig Run Number 
 RTIM.hr                  5.00:  Time Reaming 
 SAZI.deg               304.73:  Azm, Start 
 SDEP.m                4412.01:  Start Depth 
 SIDD.                      No:  Serv Intrp, DD 
 SINC.deg                66.82:  Inc, Start 
 SPPA.psig             2800.00:  SPP Avg 
 SPPN.psig             2610.00:  SPP Min 
 SPPX.psig             3100.00:  SPP Max 
 STIM.      03.30.00 04-May-21:  Start Time 
 SVCS.                 DD, MWD:  Services 
 SVER.                    9.20:  Sperry Version 
 TDAT.m                 228.00:  Tot Depth Attmp 
 TDDF.                      No:  Trip for DD 
 TDLG.m                 228.00:  Tot Depth Loggd 
 TFF .                      No:  Trip for Fail 
 TQAA.f-kp               15.00:  Torque Abs Avg 
 TQAN.f-kp               12.00:  Torque Abs Min 
 TQAX.f-kp               22.00:  Torque Abs Max 
 TRRT.°/30m               0.00:  Turn Rotating 
 MRT .                    HCIM:  Maximum Recorded Temperature 
 TTMX.degC               90.20:  Max Tool Temp 
 VS01.                90627813:  Virtual Str1 SN 
 VS02.                90634712:  Virtual Str2 SN 
 VS03.                90643410:  Virtual Str3 SN 
 VS04.                90634712:  Virtual Str4 SN 
 WBMN.klb                 9.00:  WOB Min 
 WITN.        Elmaddin Rahimov:  Customer Rep 
 WITN.         Haytham Mostafa:  Customer Rep 2 
 WOBA.klb                15.00:  WOB Avg 
 WOBX.klb                23.00:  WOB Max 
 YP  .lhf2               29.00:  Yield Point 
~Curve Information Block
#MNEM.UNIT                 API CODE     Curve Description
#---------               -----------    ---------------------------
 TIME.HHMMSS            00 000 000 000:  GT Time & Date
 GTDEPTH.m              00 000 000 000:  GT Depth
 GTPQH.psia             00 000 000 000:  GT HR Quartz Pressure
 GTTQ.degC              00 000 000 000:  GT Quartz Temperature
 GTTN.NONE              00 000 000 000:  GT Test Number
 GTET.sec               00 000 000 000:  GT Elapsed Test Time
 GTTVD.m                00 000 000 000:  GT True Vertical Depth
#Other Information
#
#WARRANTY: Halliburton will use its best efforts to furnish customers with 
#accurate information and interpretations that are part of, and incident to, the services 
#provided.  However, Halliburton cannot and does not warrant the accuracy 
#or correctness of such information and interpretations.  Under no circumstances should any 
#such information or interpretation be relied upon as the sole basis for any drilling, 
#completion, production, or financial decision or any procedure involving any risk to the 
#safety of any drilling venture, drilling rig or its crew or any other third party.  The 
#Customer has full responsibility for all drilling, completion and production operation.  
#Halliburton makes no representations or warranties, either expressed or 
#implied, including, but not limited to, the implied warranties of merchantability or fitness 
#for a particular purpose, with respect to the services rendered.  In no event will 
#Halliburton be liable for failure to obtain any particular results or for 
#any damages, including, but not limited to, indirect, special or consequential damages, 
#resulting from the use of any information or interpretation provided by Halliburton.
#
~A           TIME           GTDEPTH  GTPQH  GTTQ  GTTN   GTET   GTTVD  
# ...
   03:25:12.965.09-May-2021 4480.01 6788.31 67.62 12.00 384.26 2964.27
   03:25:13.165.09-May-2021 4480.01 6787.11 67.62 12.00 384.46 2964.27
   03:25:13.365.09-May-2021 4480.01 6785.33 67.62 12.00 384.66 2964.27
   03:25:13.565.09-May-2021 4480.01 6794.12 67.62 12.00 384.86 2964.27
   03:25:13.765.09-May-2021 4480.01 6788.10 67.62 12.00 385.06 2964.27
   03:25:13.966.09-May-2021 4480.01 6788.10 67.62 12.00 385.26 2964.27
   03:25:14.166.09-May-2021 4480.01 6788.59 67.62 12.00 385.46 2964.27
   03:25:14.366.09-May-2021 4480.01 6783.74 67.62 12.00 385.66 2964.27
   03:25:14.566.09-May-2021 4480.01 6783.73 67.62 12.00 385.86 2964.27
   03:25:14.766.09-May-2021 4480.01 6782.45 67.62 12.00 386.06 2964.27
   03:25:14.966.09-May-2021 4480.01 6782.45 67.62 12.00 386.26 2964.27
   03:25:15.166.09-May-2021 4480.01 6782.59 67.62 12.00 386.46 2964.27
   03:25:15.366.09-May-2021 4480.01 6782.32 67.62 12.00 386.66 2964.27
   03:25:15.566.09-May-2021 4480.01 6782.62 67.62 12.00 386.86 2964.27
   03:25:15.766.09-May-2021 4480.01 6782.59 67.62 12.00 387.06 2964.27
   03:25:15.966.09-May-2021 4480.01 6782.59 67.62 12.00 387.26 2964.27
   03:25:16.166.09-May-2021 4480.01 6785.98 67.61 12.00 387.46 2964.27
   03:25:16.366.09-May-2021 4480.01 6791.85 67.61 12.00 387.66 2964.27
   03:25:16.566.09-May-2021 4480.01 6787.75 67.61 12.00 387.86 2964.27
   03:25:16.766.09-May-2021 4480.01 6790.66 67.61 12.00 388.06 2964.27
   03:25:16.966.09-May-2021 4480.01 6790.66 67.61 12.00 388.26 2964.27
   03:25:17.166.09-May-2021 4480.01 6785.17 67.61 12.00 388.46 2964.27
   03:25:17.366.09-May-2021 4480.01 6783.01 67.61 12.00 388.67 2964.27
   03:25:17.566.09-May-2021 4480.01 6783.05 67.61 12.00 388.87 2964.27
   03:25:17.766.09-May-2021 4480.01 6781.93 67.61 12.00 389.07 2964.27
   03:25:17.966.09-May-2021 4480.01 6781.93 67.61 12.00 389.27 2964.27
   03:25:18.166.09-May-2021 4480.01 6781.47 67.61 12.00 389.47 2964.27
   03:25:18.366.09-May-2021 4480.01 6780.69 67.61 12.00 389.67 2964.27
   03:25:18.566.09-May-2021 4480.01 6780.72 67.61 12.00 389.87 2964.27
   03:25:18.766.09-May-2021 4480.01 6780.44 67.61 12.00 390.07 2964.27
   03:25:18.966.09-May-2021 4480.01 6780.44 67.61 12.00 390.27 2964.27
   03:25:19.166.09-May-2021 4480.01 6782.08 67.61 12.00 390.47 2964.27
   03:25:19.366.09-May-2021 4480.01 6790.51 67.61 12.00 390.67 2964.27
   03:25:19.566.09-May-2021 4480.01 6782.90 67.61 12.00 390.87 2964.27
   03:25:19.766.09-May-2021 4480.01 6790.45 67.61 12.00 391.07 2964.27
   03:25:19.967.09-May-2021 4480.01 6790.45 67.61 12.00 391.27 2964.27
   03:25:20.167.09-May-2021 4480.01 6786.56 67.61 12.00 391.47 2964.27
   03:25:20.367.09-May-2021 4480.01 6788.21 67.61 12.00 391.67 2964.27
   03:25:20.567.09-May-2021 4480.01 6783.04 67.61 12.00 391.87 2964.27
   03:25:20.767.09-May-2021 4480.01 6782.89 67.61 12.00 392.07 2964.27
   03:25:20.967.09-May-2021 4480.01 6782.89 67.61 12.00 392.27 2964.27
   03:25:21.167.09-May-2021 4480.01 6785.47 67.61 12.00 392.47 2964.27
   03:25:21.367.09-May-2021 4480.01 6785.79 67.61 12.00 392.67 2964.27
   03:25:21.567.09-May-2021 4480.01 6786.45 67.61 12.00 392.87 2964.27
   03:25:21.767.09-May-2021 4480.01 6781.73 67.61 12.00 393.07 2964.27
   03:25:21.967.09-May-2021 4480.01 6781.73 67.61 12.00 393.27 2964.27
   03:25:22.167.09-May-2021 4480.01 6784.81 67.61 12.00 393.47 2964.27
   03:25:22.367.09-May-2021 4480.01 6785.65 67.61 12.00 393.67 2964.27
   03:25:22.567.09-May-2021 4480.01 6787.16 67.61 12.00 393.87 2964.27
   03:25:22.767.09-May-2021 4480.01 6782.69 67.61 12.00 394.07 2964.27
   03:25:22.967.09-May-2021 4480.01 6782.69 67.61 12.00 394.27 2964.27
   03:25:23.167.09-May-2021 4480.01 6781.99 67.61 12.00 394.47 2964.27
   03:25:23.367.09-May-2021 4480.01 6782.81 67.61 12.00 394.67 2964.27
   03:25:23.567.09-May-2021 4480.01 6782.33 67.61 12.00 394.87 2964.27
   03:25:23.767.09-May-2021 4480.01 6782.41 67.61 12.00 395.07 2964.27
   03:25:23.967.09-May-2021 4480.01 6782.41 67.61 12.00 395.27 2964.27
   03:25:24.167.09-May-2021 4480.01 6782.95 67.61 12.00 395.47 2964.27
   03:25:24.367.09-May-2021 4480.01 6782.43 67.61 12.00 395.67 2964.27
   03:25:24.567.09-May-2021 4480.01 6785.26 67.61 12.00 395.87 2964.27
   03:25:24.767.09-May-2021 4480.01 6790.63 67.61 12.00 396.07 2964.27
   03:25:24.967.09-May-2021 4480.01 6790.63 67.61 12.00 396.27 2964.27
   03:25:25.167.09-May-2021 4480.01 6789.28 67.61 12.00 396.47 2964.27
   03:25:25.367.09-May-2021 4480.01 6781.88 67.61 12.00 396.67 2964.27
   03:25:25.567.09-May-2021 4480.01 6784.65 67.61 12.00 396.87 2964.27
   03:25:25.767.09-May-2021 4480.01 6782.57 67.61 12.00 397.07 2964.27
   03:25:25.968.09-May-2021 4480.01 6782.57 67.61 12.00 397.27 2964.27
   03:25:26.168.09-May-2021 4480.01 6781.28 67.61 12.00 397.47 2964.27
   03:25:26.368.09-May-2021 4480.01 6781.38 67.61 12.00 397.67 2964.27
   03:25:26.568.09-May-2021 4480.01 6781.33 67.61 12.00 397.87 2964.27
   03:25:26.768.09-May-2021 4480.01 6781.66 67.61 12.00 398.07 2964.27
   03:25:26.968.09-May-2021 4480.01 6781.66 67.61 12.00 398.27 2964.27
   03:25:27.168.09-May-2021 4480.01 6780.68 67.61 12.00 398.47 2964.27
   03:25:27.368.09-May-2021 4480.01 6791.29 67.61 12.00 398.67 2964.27
   03:25:27.568.09-May-2021 4480.01 6781.84 67.61 12.00 398.87 2964.27
   03:25:27.768.09-May-2021 4480.01 6790.71 67.61 12.00 399.07 2964.27
   03:25:27.968.09-May-2021 4480.01 6790.71 67.61 12.00 399.27 2964.27
   03:25:28.168.09-May-2021 4480.01 6785.63 67.61 12.00 399.47 2964.27
   03:25:28.368.09-May-2021 4480.01 6789.50 67.61 12.00 399.67 2964.27
   03:25:28.568.09-May-2021 4480.01 6784.40 67.61 12.00 399.87 2964.27
   03:25:28.768.09-May-2021 4480.01 6788.29 67.61 12.00 400.07 2964.27
   03:25:28.968.09-May-2021 4480.01 6788.29 67.61 12.00 400.27 2964.27
   03:25:29.168.09-May-2021 4480.01 6785.94 67.61 12.00 400.47 2964.27
   03:25:29.368.09-May-2021 4480.01 6791.33 67.61 12.00 400.67 2964.27
   03:25:29.568.09-May-2021 4480.01 6780.64 67.61 12.00 400.87 2964.27
   03:25:29.768.09-May-2021 4480.01 6792.37 67.61 12.00 401.07 2964.27
   03:25:29.968.09-May-2021 4480.01 6792.37 67.61 12.00 401.27 2964.27
   03:25:30.168.09-May-2021 4480.01 6787.07 67.61 12.00 401.47 2964.27
   03:25:30.368.09-May-2021 4480.01 6788.51 67.61 12.00 401.67 2964.27
   03:25:30.568.09-May-2021 4480.01 6783.49 67.61 12.00 401.87 2964.27
   03:25:30.768.09-May-2021 4480.01 6784.39 67.61 12.00 402.07 2964.27
   03:25:30.968.09-May-2021 4480.01 6784.39 67.61 12.00 402.27 2964.27
   03:25:31.168.09-May-2021 4480.01 6782.70 67.61 12.00 402.47 2964.27
   03:25:31.368.09-May-2021 4480.01 6782.72 67.61 12.00 402.67 2964.27
   03:25:31.568.09-May-2021 4480.01 6782.05 67.61 12.00 402.87 2964.27
   03:25:31.768.09-May-2021 4480.01 6782.67 67.61 12.00 403.07 2964.27
   03:25:31.969.09-May-2021 4480.01 6782.67 67.61 12.00 403.27 2964.27
   03:25:32.169.09-May-2021 4480.01 6782.49 67.61 12.00 403.47 2964.27
   03:25:32.369.09-May-2021 4480.01 6786.18 67.61 12.00 403.67 2964.27
   03:25:32.569.09-May-2021 4480.01 6791.89 67.61 12.00 403.87 2964.27
   03:25:32.769.09-May-2021 4480.01 6786.64 67.61 12.00 404.07 2964.27
   03:25:32.969.09-May-2021 4480.01 6786.64 67.61 12.00 404.27 2964.27
   03:25:33.169.09-May-2021 4480.01 6781.77 67.61 12.00 404.47 2964.27
   03:25:33.369.09-May-2021 4480.01 6784.85 67.60 12.00 404.67 2964.27
   03:25:33.569.09-May-2021 4480.01 6782.42 67.60 12.00 404.87 2964.27
   03:25:33.769.09-May-2021 4480.01 6782.56 67.60 12.00 405.07 2964.27
   03:25:33.969.09-May-2021 4480.01 6782.56 67.60 12.00 405.27 2964.27
   03:25:34.169.09-May-2021 4480.01 6781.01 67.60 12.00 405.47 2964.27
   03:25:34.369.09-May-2021 4480.01 6781.12 67.60 12.00 405.67 2964.27
   03:25:34.569.09-May-2021 4480.01 6780.43 67.60 12.00 405.87 2964.27
   03:25:34.769.09-May-2021 4480.01 6780.84 67.60 12.00 406.07 2964.27
   03:25:34.969.09-May-2021 4480.01 6780.84 67.60 12.00 406.27 2964.27
   03:25:35.169.09-May-2021 4480.01 6791.90 67.60 12.00 406.47 2964.27
   03:25:35.369.09-May-2021 4480.01 6782.42 67.60 12.00 406.67 2964.27
