~Version Information
 VERS.                  2.0:   CWLS log ASCII Standard -VERSION 2.0
 WRAP.                   NO:   One line per depth step
~Well Information Block
#MNEM.UNIT     VALUE/NAME     DESCRIPTION
#---------     -----------    ---------------------------
 STRT.S             21:53:52 08-May-21: START TIME 21:53:52 08-May-21
 STOP.S             22:00:27 08-May-21: STOP TIME  22:00:27 08-May-21
 STEP.S                   0.00: STEP TIME
 NULL.                 -999.25: NULL VALUE
 PROV.                    Baku:  PROVINCE
 STAT.                    Baku:  STATE NAME
 SON .        AZ-XX-0906571588:  JOB NUMBER
 WTYP.                Deviated:  WELL TYPE
 COMP.     BP Exploration (Caspian Sea) ltd:  COMPANY
 BASE.              Azerbaijan:  LOGGING EQUIPMENT BASE LOCATION
 REGN.                   EESSA:  REGION
 CTRY.              Azerbaijan:  COUNTRY NAME
 FLD .                     ACG:  FIELD NAME
 WELL.                     J28:  WELL NAME
 RIG .             West Chirag:  RIG NAME
 DMF .             Drill Floor:  DRILL MEAS FROM
 PDAT.       Caspian Sea Level:  PERMANENT DATUM
 HPTY.       Minimum Curvature:  HOLE POS TYPE
 MDS .        Operator Entered:  MAG DATA SOURCE
 NREF.                    Grid:  NORTH REFERENCE
 SRVC.          TURAN DRILLING:  CONTRACTOR
 JOBN.        AZ-XX-0906571588:  JOB TICKET NUMB
 DCON.     Halliburton Sperry Drilling:  DIRECTNL CONTR
 STIM.      00.44.00 11-Feb-21:  START TIME
 DATE.      00.00.00 05-May-21:  END TIME
 SPUD.               13-Feb-21:  SPUD DATE
 MWDS.                    Baku:  MWD SHOP
 DOE .                     N/A:  DOE NUMBER
 UNIT.                     N/A:  LOGGING EQUIPMENT ID
 UWI .                     N/A:  UNIQUE WELL IDENTIFIER
 API .                     N/A:  API NUMBER
 CNTY.                        :  COUNTY
 LOC .                        :  LOCATION
 LMF .             Drill Floor:  LOG MEASURED FROM
 TVDS.m                  43.00:  TVDSS CORRECTN
 SDEP.m                 341.00:  START DEPTH
 EGL .m                   0.00:  GROUND ELEVATION
 WDMS.m                 169.80:  WD ELEV
 AGAP.m                  43.00:  AIR GAP
 EPD .m                   0.00:  ELEVATION
 APD .m                  43.00:  DEPTH ABOVE PD
 LATI.deg                40.13:  LATITUDE
 LONG.deg                51.22:  LONGITUDE
 UTMY.m             4443793.85:  UTM Y
 UTMX.m              519005.06:  UTM X
 WHEW.m                 -11.57:  WELL HEAD E/W
 WHNS.m                   8.57:  WELL HEAD N/S
 VSEW.m                 -11.57:  VERT SEC E/W
 VSNS.m                   8.57:  VERT SEC N/S
 DFWL.m                   0.00:  DISTANCE FWL
 DFSL.m                   0.00:  DISTANCE FSL
 VSDR.deg               299.34:  VERT SEC DIRECT
 GVFD.g                   1.00:  GRAVITY FIELD
 AZTC.deg                 6.36:  AZM TOTAL CORR
 MFLD.nT              50391.00:  MAGNETIC FIELD
 MDIP.deg                59.65:  MAGNETIC DIP
 MDEC.deg                 6.48:  MAGNETIC DECL
 GRDC.deg                 0.12:  GRID CORRECTION
 DEP .m                 334.96:  DEPTH
 TDD .m                1407.26:  TOTAL DEPTH (DRILLER)
 EKB .m                  43.00:  KB ELEVATION
 EDF .m                  43.00:  DF ELEVATION
 TDL .m                 228.00:  TOTAL DEPTH (LOGGER)
 VSC .                       0:  VS TO CLOSURE
 MAGU.                 1854484:  MAGUTM CHECKSUM
~Parameter Information Block
#MNEM.UNIT       Value        Description
#---------     -----------    ---------------------------
 AV  .mps                 4.00:  Ann Velocity 
 AVMX.mps                 4.73:  Max Ann Veloc 
 AZIF.deg               304.48:  Azm, Final 
 BHAT.        Rotary Steerable:  BHA Type 
 BREV.rev            257300.00:  Rev Bit Total 
 BROT.°/30m               0.00:  Build Rotating 
 BS  .in                  8.50:  Bit Size 
 BSZ .in                  8.50:  Bit Size 
 BTPL.psig              589.00:  Bit Press Loss 
 CABU.                      No:  Customer Abuse 
 CGEO.          Mubariz ghayev:  Customer Geo 
 COMM.                     ¤=s:  Run Comments 1 
 TCS .hr                 64.25:  Time Ciculation Ended 
 CV  .mps                 3.50:  Crit Velocity 
 CVMX.mps                 4.52:  Max Crit Veloc 
 DD1 .             Aziz Aliyev:  Direct Drillr 1 
 DD2 .         Intigam Rahimov:  Direct Drillr 2 
 DD3 .          Rashad Habibov:  Direct Drillr 3 
 DDSV.               Geo-Pilot:  DD Service 
 DEFF.%                  98.00:  % Det Eff 
 DLRX.°/30m               0.00:  Dogleg Rot Max 
 DLSO.°/30m               0.00:  Dogleg Oriented 
 DLSX.°/30m               0.00:  Dogleg Str Max 
 DRET.      10.45.04 08-May-21:  Drill End Time 
 DRST.      03.30.04 04-May-21:  Drill Start Tim 
 DTIM.hr                 14.97:  Time Drilling 
 EDEP.m                4640.01:  End Depth 
 ENG1.         Dail Mahammadov:  Engineer 1 
 ENG2.           Eldar Hajiyev:  Engineer 2 
 ENG3.       Bakhtiar Jabbarli:  Engineer 3 
 ENG4.       Natik Hasanagayev:  Engineer 4 
 ETIM.      09.30.04 14-May-21:  End Time 
 FLOI.gpm               460.00:  Flow In 
 FLON.gpm               200.00:  Flow In Min 
 FLOS.cptm                0.00:  Fluid Loss 
 FLOX.gpm               505.00:  Flow In Max 
 HFLO.                      No:  High Flow 
 HPRE.                      No:  High Pressure 
 HTEM.                      No:  High Temp 
 HYDO.m                   1.80:  Hydro Offset 
 IFIN.deg                66.71:  Inc, Final 
 IMAX.deg                67.03:  Inc Max 
 IMIN.deg                66.63:  Inc Min 
 IMND.m                4550.58:  Inc Min Depth 
 IMXD.m                4439.01:  Inc Max Depth 
 JARR.                      No:  Jarring 
 LETM.      10.45.04 08-May-21:  Log End Time 
 LOST.hr                     0:  Lost Rig Time 
 LSTM.      03.30.04 04-May-21:  Log Start Time 
 MDCL.ppm             37000.00:  Mud Chlorides 
 MDES.     Inversion Oil/Synthetic:  Mud Desc 
 DFD .sg                  1.38:  Mud Density 
 MDMN.sg                  1.35:  Dens Mud Min 
 MDMX.sg                  1.40:  Dens Mud Max 
 MOIL.                   57.40:  Run Mud Oil % 
 MOWR.                   70:30:  Run Mud OWR 
 MSND.                    0.00:  Run Mud Sand % 
 MSOL.                   18.00:  Run Mud Solids% 
 DFV .spqt               71.00:  Mud Viscosity 
 MWOD.in                  6.75:  MWD Tool OD 
 MWSI.                      No:  Serv Intrp, MWD 
 OTIM.hr                242.76:  Time Operating 
 PCON.           Look Like New:  Pad Condition 
 PMAX.psia            12183.92:  Press Op, Max 
 PV  .cP                 27.00:  Mud PV 
 RUN .                    1300:  Run Number 
 ROPA.m/hr               15.00:  ROP Avg 
 ROPN.m/hr                9.00:  ROP Min 
 ROPX.m/hr               19.00:  ROP Max 
 RPMA.rpm               120.00:  RPM Surface Avg 
 RPMN.rpm               100.00:  RPM Surface Min 
 RPMX.rpm               120.00:  RPM Surface Max 
 RRUN.                    1300:  Rig Run Number 
 RTIM.hr                  5.00:  Time Reaming 
 SAZI.deg               304.73:  Azm, Start 
 SDEP.m                4412.01:  Start Depth 
 SIDD.                      No:  Serv Intrp, DD 
 SINC.deg                66.82:  Inc, Start 
 SPPA.psig             2800.00:  SPP Avg 
 SPPN.psig             2610.00:  SPP Min 
 SPPX.psig             3100.00:  SPP Max 
 STIM.      03.30.00 04-May-21:  Start Time 
 SVCS.                 DD, MWD:  Services 
 SVER.                    9.20:  Sperry Version 
 TDAT.m                 228.00:  Tot Depth Attmp 
 TDDF.                      No:  Trip for DD 
 TDLG.m                 228.00:  Tot Depth Loggd 
 TFF .                      No:  Trip for Fail 
 TQAA.f-kp               15.00:  Torque Abs Avg 
 TQAN.f-kp               12.00:  Torque Abs Min 
 TQAX.f-kp               22.00:  Torque Abs Max 
 TRRT.°/30m               0.00:  Turn Rotating 
 MRT .                    HCIM:  Maximum Recorded Temperature 
 TTMX.degC               90.20:  Max Tool Temp 
 VS01.                90627813:  Virtual Str1 SN 
 VS02.                90634712:  Virtual Str2 SN 
 VS03.                90643410:  Virtual Str3 SN 
 VS04.                90634712:  Virtual Str4 SN 
 WBMN.klb                 9.00:  WOB Min 
 WITN.        Elmaddin Rahimov:  Customer Rep 
 WITN.         Haytham Mostafa:  Customer Rep 2 
 WOBA.klb                15.00:  WOB Avg 
 WOBX.klb                23.00:  WOB Max 
 YP  .lhf2               29.00:  Yield Point 
~Curve Information Block
#MNEM.UNIT                 API CODE     Curve Description
#---------               -----------    ---------------------------
 TIME.HHMMSS            00 000 000 000:  GT Time & Date
 GTDEPTH.m              00 000 000 000:  GT Depth
 GTPQH.psia             00 000 000 000:  GT HR Quartz Pressure
 GTTQ.degC              00 000 000 000:  GT Quartz Temperature
 GTTN.NONE              00 000 000 000:  GT Test Number
 GTET.sec               00 000 000 000:  GT Elapsed Test Time
 GTTVD.m                00 000 000 000:  GT True Vertical Depth
#Other Information
#
#WARRANTY: Halliburton will use its best efforts to furnish customers with 
#accurate information and interpretations that are part of, and incident to, the services 
#provided.  However, Halliburton cannot and does not warrant the accuracy 
#or correctness of such information and interpretations.  Under no circumstances should any 
#such information or interpretation be relied upon as the sole basis for any drilling, 
#completion, production, or financial decision or any procedure involving any risk to the 
#safety of any drilling venture, drilling rig or its crew or any other third party.  The 
#Customer has full responsibility for all drilling, completion and production operation.  
#Halliburton makes no representations or warranties, either expressed or 
#implied, including, but not limited to, the implied warranties of merchantability or fitness 
#for a particular purpose, with respect to the services rendered.  In no event will 
#Halliburton be liable for failure to obtain any particular results or for 
#any damages, including, but not limited to, indirect, special or consequential damages, 
#resulting from the use of any information or interpretation provided by Halliburton.
#
~A           TIME           GTDEPTH  GTPQH  GTTQ  GTTN  GTET   GTTVD  
# ...
   21:57:19.000.08-May-2021 4568.51  724.55 68.96 3.00 207.00 2999.18
   21:57:19.200.08-May-2021 4568.51  724.55 68.96 3.00 207.20 2999.18
   21:57:19.400.08-May-2021 4568.51  724.67 68.96 3.00 207.40 2999.18
   21:57:19.600.08-May-2021 4568.51  724.73 68.96 3.00 207.60 2999.18
   21:57:19.800.08-May-2021 4568.51  724.76 68.96 3.00 207.80 2999.18
   21:57:20.000.08-May-2021 4568.51  724.79 68.96 3.00 208.00 2999.18
   21:57:20.200.08-May-2021 4568.51  724.79 68.96 3.00 208.20 2999.18
   21:57:20.400.08-May-2021 4568.51  724.85 68.96 3.00 208.40 2999.18
   21:57:20.600.08-May-2021 4568.51  724.91 68.96 3.00 208.60 2999.18
   21:57:20.800.08-May-2021 4568.51  724.59 68.96 3.00 208.80 2999.18
   21:57:21.000.08-May-2021 4568.51  725.28 68.96 3.00 209.00 2999.18
   21:57:21.200.08-May-2021 4568.51  725.28 68.96 3.00 209.20 2999.18
   21:57:21.400.08-May-2021 4568.51  725.22 68.96 3.00 209.40 2999.18
   21:57:21.600.08-May-2021 4568.51  725.14 68.96 3.00 209.60 2999.18
   21:57:21.800.08-May-2021 4568.51  724.73 68.96 3.00 209.80 2999.18
   21:57:22.000.08-May-2021 4568.51  726.03 68.96 3.00 210.00 2999.18
   21:57:22.200.08-May-2021 4568.51  726.03 68.96 3.00 210.20 2999.18
   21:57:22.400.08-May-2021 4568.51  725.71 68.96 3.00 210.40 2999.18
   21:57:22.600.08-May-2021 4568.51  725.66 68.96 3.00 210.60 2999.18
   21:57:22.800.08-May-2021 4568.51  725.35 68.96 3.00 210.80 2999.18
   21:57:23.000.08-May-2021 4568.51  725.77 68.96 3.00 211.00 2999.18
   21:57:23.200.08-May-2021 4568.51  725.77 68.96 3.00 211.20 2999.18
   21:57:23.400.08-May-2021 4568.51  725.84 68.96 3.00 211.40 2999.18
   21:57:23.600.08-May-2021 4568.51  726.80 68.96 3.00 211.60 2999.18
   21:57:23.800.08-May-2021 4568.51  728.71 68.96 3.00 211.80 2999.18
   21:57:24.000.08-May-2021 4568.51  729.30 68.96 3.00 212.00 2999.18
   21:57:24.200.08-May-2021 4568.51  729.30 68.96 3.00 212.20 2999.18
   21:57:24.400.08-May-2021 4568.51  729.15 68.96 3.00 212.40 2999.18
   21:57:24.600.08-May-2021 4568.51  729.21 68.96 3.00 212.60 2999.18
   21:57:24.800.08-May-2021 4568.51  729.17 68.96 3.00 212.80 2999.18
   21:57:25.000.08-May-2021 4568.51  729.25 68.96 3.00 213.00 2999.18
   21:57:25.200.08-May-2021 4568.51  729.25 68.96 3.00 213.20 2999.18
   21:57:25.400.08-May-2021 4568.51  729.32 68.96 3.00 213.40 2999.18
   21:57:25.600.08-May-2021 4568.51  729.39 68.96 3.00 213.60 2999.18
   21:57:25.800.08-May-2021 4568.51  729.42 68.96 3.00 213.80 2999.18
   21:57:26.000.08-May-2021 4568.51  729.49 68.96 3.00 214.00 2999.18
   21:57:26.200.08-May-2021 4568.51  729.49 68.96 3.00 214.20 2999.18
   21:57:26.400.08-May-2021 4568.51  729.18 68.96 3.00 214.40 2999.18
   21:57:26.600.08-May-2021 4568.51  729.98 68.96 3.00 214.60 2999.18
   21:57:26.800.08-May-2021 4568.51  729.68 68.96 3.00 214.80 2999.18
   21:57:27.000.08-May-2021 4568.51  729.74 68.96 3.00 215.00 2999.18
   21:57:27.200.08-May-2021 4568.51  729.74 68.96 3.00 215.20 2999.18
   21:57:27.400.08-May-2021 4568.51  729.79 68.96 3.00 215.40 2999.18
   21:57:27.600.08-May-2021 4568.51  729.85 68.96 3.00 215.60 2999.18
   21:57:27.800.08-May-2021 4568.51  729.85 68.96 3.00 215.80 2999.18
   21:57:28.000.08-May-2021 4568.51  729.87 68.96 3.00 216.00 2999.18
   21:57:28.200.08-May-2021 4568.51  729.87 68.96 3.00 216.20 2999.18
   21:57:28.400.08-May-2021 4568.51  729.91 68.96 3.00 216.40 2999.18
   21:57:28.600.08-May-2021 4568.51  730.01 68.96 3.00 216.60 2999.18
   21:57:28.800.08-May-2021 4568.51  729.66 68.96 3.00 216.80 2999.18
   21:57:29.000.08-May-2021 4568.51  730.29 68.96 3.00 217.00 2999.18
   21:57:29.200.08-May-2021 4568.51  730.29 68.96 3.00 217.20 2999.18
   21:57:29.400.08-May-2021 4568.51  730.06 68.96 3.00 217.40 2999.18
   21:57:29.600.08-May-2021 4568.51  730.26 68.96 3.00 217.60 2999.18
   21:57:29.800.08-May-2021 4568.51  729.96 68.96 3.00 217.80 2999.18
   21:57:30.000.08-May-2021 4568.51  730.61 68.96 3.00 218.00 2999.18
   21:57:30.200.08-May-2021 4568.51  730.61 68.96 3.00 218.20 2999.18
   21:57:30.400.08-May-2021 4568.51  730.40 68.96 3.00 218.40 2999.18
   21:57:30.600.08-May-2021 4568.51  730.45 68.96 3.00 218.60 2999.18
   21:57:30.800.08-May-2021 4568.51  730.40 68.96 3.00 218.80 2999.18
   21:57:31.000.08-May-2021 4568.51  730.01 68.96 3.00 219.00 2999.18
   21:57:31.200.08-May-2021 4568.51  730.01 68.96 3.00 219.20 2999.18
   21:57:31.400.08-May-2021 4568.51  730.52 68.96 3.00 219.40 2999.18
   21:57:31.600.08-May-2021 4568.51  730.63 68.96 3.00 219.60 2999.18
   21:57:31.800.08-May-2021 4568.51  730.16 68.96 3.00 219.80 2999.18
   21:57:32.000.08-May-2021 4568.51  731.05 68.96 3.00 220.00 2999.18
   21:57:32.200.08-May-2021 4568.51  731.05 68.96 3.00 220.20 2999.18
   21:57:32.400.08-May-2021 4568.51  730.90 68.96 3.00 220.40 2999.18
   21:57:32.600.08-May-2021 4568.51  730.81 68.96 3.00 220.60 2999.18
   21:57:32.800.08-May-2021 4568.51  730.81 68.96 3.00 220.80 2999.18
   21:57:33.000.08-May-2021 4568.51  730.85 68.96 3.00 221.00 2999.18
   21:57:33.200.08-May-2021 4568.51  730.85 68.96 3.00 221.20 2999.18
   21:57:33.400.08-May-2021 4568.51  730.96 68.96 3.00 221.40 2999.18
   21:57:33.600.08-May-2021 4568.51  731.01 68.96 3.00 221.60 2999.18
   21:57:33.800.08-May-2021 4568.51  731.05 68.96 3.00 221.80 2999.18
   21:57:34.000.08-May-2021 4568.51  731.13 68.96 3.00 222.00 2999.18
   21:57:34.200.08-May-2021 4568.51  731.13 68.96 3.00 222.20 2999.18
   21:57:34.400.08-May-2021 4568.51  730.89 68.96 3.00 222.40 2999.18
   21:57:34.600.08-May-2021 4568.51  731.53 68.96 3.00 222.60 2999.18
   21:57:34.800.08-May-2021 4568.51  731.24 68.96 3.00 222.80 2999.18
   21:57:35.000.08-May-2021 4568.51  731.40 68.96 3.00 223.00 2999.18
   21:57:35.200.08-May-2021 4568.51  731.40 68.96 3.00 223.20 2999.18
   21:57:35.400.08-May-2021 4568.51  731.39 68.96 3.00 223.40 2999.18
   21:57:35.600.08-May-2021 4568.51  731.43 68.96 3.00 223.60 2999.18
   21:57:35.800.08-May-2021 4568.51  731.44 68.96 3.00 223.80 2999.18
   21:57:36.000.08-May-2021 4568.51  731.47 68.96 3.00 224.00 2999.18
   21:57:36.200.08-May-2021 4568.51  731.47 68.96 3.00 224.20 2999.18
   21:57:36.400.08-May-2021 4568.51  731.54 68.96 3.00 224.40 2999.18
   21:57:36.600.08-May-2021 4568.51  731.61 68.96 3.00 224.60 2999.18
   21:57:36.800.08-May-2021 4568.51  731.32 68.96 3.00 224.80 2999.18
   21:57:37.000.08-May-2021 4568.51  731.69 68.96 3.00 225.00 2999.18
   21:57:37.200.08-May-2021 4568.51  731.69 68.96 3.00 225.20 2999.18
   21:57:37.400.08-May-2021 4568.51  731.88 68.96 3.00 225.40 2999.18
   21:57:37.600.08-May-2021 4568.51  731.85 68.96 3.00 225.60 2999.18
   21:57:37.800.08-May-2021 4568.51  731.55 68.96 3.00 225.80 2999.18
   21:57:38.000.08-May-2021 4568.51  731.87 68.96 3.00 226.00 2999.18
   21:57:38.200.08-May-2021 4568.51  731.87 68.96 3.00 226.20 2999.18
   21:57:38.400.08-May-2021 4568.51  732.04 68.96 3.00 226.40 2999.18
   21:57:38.600.08-May-2021 4568.51  732.01 68.96 3.00 226.60 2999.18
   21:57:38.800.08-May-2021 4568.51  732.06 68.96 3.00 226.80 2999.18
   21:57:39.000.08-May-2021 4568.51  731.52 68.96 3.00 227.00 2999.18
   21:57:39.200.08-May-2021 4568.51  731.52 68.96 3.00 227.20 2999.18
   21:57:39.400.08-May-2021 4568.51  732.02 68.96 3.00 227.40 2999.18
   21:57:39.600.08-May-2021 4568.51  732.35 68.96 3.00 227.60 2999.18
   21:57:39.800.08-May-2021 4568.51  732.28 68.96 3.00 227.80 2999.18
   21:57:40.000.08-May-2021 4568.51  731.88 68.96 3.00 228.00 2999.18
   21:57:40.200.08-May-2021 4568.51  731.88 68.96 3.00 228.20 2999.18
   21:57:40.400.08-May-2021 4568.51  732.31 68.96 3.00 228.40 2999.18
   21:57:40.600.08-May-2021 4568.51  732.44 68.96 3.00 228.60 2999.18
   21:57:40.800.08-May-2021 4568.51  732.48 68.96 3.00 228.80 2999.18
   21:57:41.000.08-May-2021 4568.51  732.44 68.96 3.00 229.00 2999.18
   21:57:41.200.08-May-2021 4568.51  732.44 68.96 3.00 229.20 2999.18
   21:57:41.400.08-May-2021 4568.51  732.53 68.96 3.00 229.40 2999.18
   21:57:41.600.08-May-2021 4568.51  732.57 68.96 3.00 229.60 2999.18
   21:57:41.800.08-May-2021 4568.51  732.63 68.96 3.00 229.80 2999.18
