~Version Information
 VERS.                  2.0:   CWLS log ASCII Standard -VERSION 2.0
 WRAP.                   NO:   One line per depth step
~Well Information Block
#MNEM.UNIT     VALUE/NAME     DESCRIPTION
#---------     -----------    ---------------------------
 STRT.S             00:30:13 09-May-21: START TIME 00:30:13 09-May-21
 STOP.S             00:37:03 09-May-21: STOP TIME  00:37:03 09-May-21
 STEP.S                   0.00: STEP TIME
 NULL.                 -999.25: NULL VALUE
 PROV.                    Baku:  PROVINCE
 STAT.                    Baku:  STATE NAME
 SON .        AZ-XX-0906571588:  JOB NUMBER
 WTYP.                Deviated:  WELL TYPE
 COMP.     BP Exploration (Caspian Sea) ltd:  COMPANY
 BASE.              Azerbaijan:  LOGGING EQUIPMENT BASE LOCATION
 REGN.                   EESSA:  REGION
 CTRY.              Azerbaijan:  COUNTRY NAME
 FLD .                     ACG:  FIELD NAME
 WELL.                     J28:  WELL NAME
 RIG .             West Chirag:  RIG NAME
 DMF .             Drill Floor:  DRILL MEAS FROM
 PDAT.       Caspian Sea Level:  PERMANENT DATUM
 HPTY.       Minimum Curvature:  HOLE POS TYPE
 MDS .        Operator Entered:  MAG DATA SOURCE
 NREF.                    Grid:  NORTH REFERENCE
 SRVC.          TURAN DRILLING:  CONTRACTOR
 JOBN.        AZ-XX-0906571588:  JOB TICKET NUMB
 DCON.     Halliburton Sperry Drilling:  DIRECTNL CONTR
 STIM.      00.44.00 11-Feb-21:  START TIME
 DATE.      00.00.00 05-May-21:  END TIME
 SPUD.               13-Feb-21:  SPUD DATE
 MWDS.                    Baku:  MWD SHOP
 DOE .                     N/A:  DOE NUMBER
 UNIT.                     N/A:  LOGGING EQUIPMENT ID
 UWI .                     N/A:  UNIQUE WELL IDENTIFIER
 API .                     N/A:  API NUMBER
 CNTY.                        :  COUNTY
 LOC .                        :  LOCATION
 LMF .             Drill Floor:  LOG MEASURED FROM
 TVDS.m                  43.00:  TVDSS CORRECTN
 SDEP.m                 341.00:  START DEPTH
 EGL .m                   0.00:  GROUND ELEVATION
 WDMS.m                 169.80:  WD ELEV
 AGAP.m                  43.00:  AIR GAP
 EPD .m                   0.00:  ELEVATION
 APD .m                  43.00:  DEPTH ABOVE PD
 LATI.deg                40.13:  LATITUDE
 LONG.deg                51.22:  LONGITUDE
 UTMY.m             4443793.85:  UTM Y
 UTMX.m              519005.06:  UTM X
 WHEW.m                 -11.57:  WELL HEAD E/W
 WHNS.m                   8.57:  WELL HEAD N/S
 VSEW.m                 -11.57:  VERT SEC E/W
 VSNS.m                   8.57:  VERT SEC N/S
 DFWL.m                   0.00:  DISTANCE FWL
 DFSL.m                   0.00:  DISTANCE FSL
 VSDR.deg               299.34:  VERT SEC DIRECT
 GVFD.g                   1.00:  GRAVITY FIELD
 AZTC.deg                 6.36:  AZM TOTAL CORR
 MFLD.nT              50391.00:  MAGNETIC FIELD
 MDIP.deg                59.65:  MAGNETIC DIP
 MDEC.deg                 6.48:  MAGNETIC DECL
 GRDC.deg                 0.12:  GRID CORRECTION
 DEP .m                 334.96:  DEPTH
 TDD .m                1407.26:  TOTAL DEPTH (DRILLER)
 EKB .m                  43.00:  KB ELEVATION
 EDF .m                  43.00:  DF ELEVATION
 TDL .m                 228.00:  TOTAL DEPTH (LOGGER)
 VSC .                       0:  VS TO CLOSURE
 MAGU.                 1854484:  MAGUTM CHECKSUM
~Parameter Information Block
#MNEM.UNIT       Value        Description
#---------     -----------    ---------------------------
 AV  .mps                 4.00:  Ann Velocity 
 AVMX.mps                 4.73:  Max Ann Veloc 
 AZIF.deg               304.48:  Azm, Final 
 BHAT.        Rotary Steerable:  BHA Type 
 BREV.rev            257300.00:  Rev Bit Total 
 BROT.°/30m               0.00:  Build Rotating 
 BS  .in                  8.50:  Bit Size 
 BSZ .in                  8.50:  Bit Size 
 BTPL.psig              589.00:  Bit Press Loss 
 CABU.                      No:  Customer Abuse 
 CGEO.          Mubariz ghayev:  Customer Geo 
 TCS .hr                 64.25:  Time Ciculation Ended 
 CV  .mps                 3.50:  Crit Velocity 
 CVMX.mps                 4.52:  Max Crit Veloc 
 DD1 .             Aziz Aliyev:  Direct Drillr 1 
 DD2 .         Intigam Rahimov:  Direct Drillr 2 
 DD3 .          Rashad Habibov:  Direct Drillr 3 
 DDSV.               Geo-Pilot:  DD Service 
 DEFF.%                  98.00:  % Det Eff 
 DLRX.°/30m               0.00:  Dogleg Rot Max 
 DLSO.°/30m               0.00:  Dogleg Oriented 
 DLSX.°/30m               0.00:  Dogleg Str Max 
 DRET.      10.45.04 08-May-21:  Drill End Time 
 DRST.      03.30.04 04-May-21:  Drill Start Tim 
 DTIM.hr                 14.97:  Time Drilling 
 EDEP.m                4640.01:  End Depth 
 ENG1.         Dail Mahammadov:  Engineer 1 
 ENG2.           Eldar Hajiyev:  Engineer 2 
 ENG3.       Bakhtiar Jabbarli:  Engineer 3 
 ENG4.       Natik Hasanagayev:  Engineer 4 
 ETIM.      09.30.04 14-May-21:  End Time 
 FLOI.gpm               460.00:  Flow In 
 FLON.gpm               200.00:  Flow In Min 
 FLOS.cptm                0.00:  Fluid Loss 
 FLOX.gpm               505.00:  Flow In Max 
 HFLO.                      No:  High Flow 
 HPRE.                      No:  High Pressure 
 HTEM.                      No:  High Temp 
 HYDO.m                   1.80:  Hydro Offset 
 IFIN.deg                66.71:  Inc, Final 
 IMAX.deg                67.03:  Inc Max 
 IMIN.deg                66.63:  Inc Min 
 IMND.m                4550.58:  Inc Min Depth 
 IMXD.m                4439.01:  Inc Max Depth 
 JARR.                      No:  Jarring 
 LETM.      10.45.04 08-May-21:  Log End Time 
 LOST.hr                     0:  Lost Rig Time 
 LSTM.      03.30.04 04-May-21:  Log Start Time 
 MDCL.ppm             37000.00:  Mud Chlorides 
 MDES.     Inversion Oil/Synthetic:  Mud Desc 
 DFD .sg                  1.38:  Mud Density 
 MDMN.sg                  1.35:  Dens Mud Min 
 MDMX.sg                  1.40:  Dens Mud Max 
 MOIL.                   57.40:  Run Mud Oil % 
 MOWR.                   70:30:  Run Mud OWR 
 MSND.                    0.00:  Run Mud Sand % 
 MSOL.                   18.00:  Run Mud Solids% 
 DFV .spqt               71.00:  Mud Viscosity 
 MWOD.in                  6.75:  MWD Tool OD 
 MWSI.                      No:  Serv Intrp, MWD 
 OTIM.hr                242.76:  Time Operating 
 PCON.           Look Like New:  Pad Condition 
 PMAX.psia            12183.92:  Press Op, Max 
 PV  .cP                 27.00:  Mud PV 
 RUN .                    1300:  Run Number 
 ROPA.m/hr               15.00:  ROP Avg 
 ROPN.m/hr                9.00:  ROP Min 
 ROPX.m/hr               19.00:  ROP Max 
 RPMA.rpm               120.00:  RPM Surface Avg 
 RPMN.rpm               100.00:  RPM Surface Min 
 RPMX.rpm               120.00:  RPM Surface Max 
 RRUN.                    1300:  Rig Run Number 
 RTIM.hr                  5.00:  Time Reaming 
 SAZI.deg               304.73:  Azm, Start 
 SDEP.m                4412.01:  Start Depth 
 SIDD.                      No:  Serv Intrp, DD 
 SINC.deg                66.82:  Inc, Start 
 SPPA.psig             2800.00:  SPP Avg 
 SPPN.psig             2610.00:  SPP Min 
 SPPX.psig             3100.00:  SPP Max 
 STIM.      03.30.00 04-May-21:  Start Time 
 SVCS.                 DD, MWD:  Services 
 SVER.                    9.20:  Sperry Version 
 TDAT.m                 228.00:  Tot Depth Attmp 
 TDDF.                      No:  Trip for DD 
 TDLG.m                 228.00:  Tot Depth Loggd 
 TFF .                      No:  Trip for Fail 
 TQAA.f-kp               15.00:  Torque Abs Avg 
 TQAN.f-kp               12.00:  Torque Abs Min 
 TQAX.f-kp               22.00:  Torque Abs Max 
 TRRT.°/30m               0.00:  Turn Rotating 
 MRT .                    HCIM:  Maximum Recorded Temperature 
 TTMX.degC               90.20:  Max Tool Temp 
 VS01.                90627813:  Virtual Str1 SN 
 VS02.                90634712:  Virtual Str2 SN 
 VS03.                90643410:  Virtual Str3 SN 
 VS04.                90634712:  Virtual Str4 SN 
 WBMN.klb                 9.00:  WOB Min 
 WITN.        Elmaddin Rahimov:  Customer Rep 
 WITN.         Haytham Mostafa:  Customer Rep 2 
 WOBA.klb                15.00:  WOB Avg 
 WOBX.klb                23.00:  WOB Max 
 YP  .lhf2               29.00:  Yield Point 
~Curve Information Block
#MNEM.UNIT                 API CODE     Curve Description
#---------               -----------    ---------------------------
 TIME.HHMMSS            00 000 000 000:  GT Time & Date
 GTDEPTH.m              00 000 000 000:  GT Depth
 GTPQH.psia             00 000 000 000:  GT HR Quartz Pressure
 GTTQ.degC              00 000 000 000:  GT Quartz Temperature
 GTTN.NONE              00 000 000 000:  GT Test Number
 GTET.sec               00 000 000 000:  GT Elapsed Test Time
 GTTVD.m                00 000 000 000:  GT True Vertical Depth
#Other Information
#
#WARRANTY: Halliburton will use its best efforts to furnish customers with 
#accurate information and interpretations that are part of, and incident to, the services 
#provided.  However, Halliburton cannot and does not warrant the accuracy 
#or correctness of such information and interpretations.  Under no circumstances should any 
#such information or interpretation be relied upon as the sole basis for any drilling, 
#completion, production, or financial decision or any procedure involving any risk to the 
#safety of any drilling venture, drilling rig or its crew or any other third party.  The 
#Customer has full responsibility for all drilling, completion and production operation.  
#Halliburton makes no representations or warranties, either expressed or 
#implied, including, but not limited to, the implied warranties of merchantability or fitness 
#for a particular purpose, with respect to the services rendered.  In no event will 
#Halliburton be liable for failure to obtain any particular results or for 
#any damages, including, but not limited to, indirect, special or consequential damages, 
#resulting from the use of any information or interpretation provided by Halliburton.
#
~A           TIME           GTDEPTH  GTPQH  GTTQ  GTTN  GTET   GTTVD  
# ...
   00:32:31.905.09-May-2021 4516.51 3298.08 67.77 7.00 138.05 2978.60
   00:32:32.105.09-May-2021 4516.51 3298.08 67.77 7.00 138.25 2978.60
   00:32:32.305.09-May-2021 4516.51 3297.87 67.77 7.00 138.45 2978.60
   00:32:32.505.09-May-2021 4516.51 3297.91 67.77 7.00 138.65 2978.60
   00:32:32.705.09-May-2021 4516.51 3297.93 67.77 7.00 138.85 2978.60
   00:32:32.905.09-May-2021 4516.51 3297.93 67.77 7.00 139.05 2978.60
   00:32:33.105.09-May-2021 4516.51 3297.93 67.77 7.00 139.25 2978.60
   00:32:33.305.09-May-2021 4516.51 3297.98 67.77 7.00 139.45 2978.60
   00:32:33.505.09-May-2021 4516.51 3298.04 67.77 7.00 139.65 2978.60
   00:32:33.705.09-May-2021 4516.51 3298.01 67.77 7.00 139.85 2978.60
   00:32:33.905.09-May-2021 4516.51 3297.57 67.77 7.00 140.05 2978.60
   00:32:34.105.09-May-2021 4516.51 3297.57 67.77 7.00 140.25 2978.60
   00:32:34.305.09-May-2021 4516.51 3298.05 67.77 7.00 140.45 2978.60
   00:32:34.505.09-May-2021 4516.51 3298.27 67.77 7.00 140.65 2978.60
   00:32:34.706.09-May-2021 4516.51 3297.99 67.77 7.00 140.85 2978.60
   00:32:34.906.09-May-2021 4516.51 3298.01 67.77 7.00 141.05 2978.60
   00:32:35.106.09-May-2021 4516.51 3298.01 67.77 7.00 141.25 2978.60
   00:32:35.306.09-May-2021 4516.51 3297.97 67.77 7.00 141.45 2978.60
   00:32:35.506.09-May-2021 4516.51 3297.99 67.77 7.00 141.65 2978.60
   00:32:35.706.09-May-2021 4516.51 3298.02 67.77 7.00 141.85 2978.60
   00:32:35.906.09-May-2021 4516.51 3298.05 67.77 7.00 142.05 2978.60
   00:32:36.106.09-May-2021 4516.51 3298.05 67.77 7.00 142.25 2978.60
   00:32:36.306.09-May-2021 4516.51 3298.06 67.77 7.00 142.45 2978.60
   00:32:36.506.09-May-2021 4516.51 3297.64 67.76 7.00 142.65 2978.60
   00:32:36.706.09-May-2021 4516.51 3298.36 67.77 7.00 142.85 2978.60
   00:32:36.906.09-May-2021 4516.51 3298.11 67.77 7.00 143.05 2978.60
   00:32:37.106.09-May-2021 4516.51 3298.11 67.77 7.00 143.25 2978.60
   00:32:37.306.09-May-2021 4516.51 3298.08 67.77 7.00 143.45 2978.60
   00:32:37.507.09-May-2021 4516.51 3298.06 67.76 7.00 143.65 2978.60
   00:32:37.707.09-May-2021 4516.51 3297.70 67.76 7.00 143.85 2978.60
   00:32:37.907.09-May-2021 4516.51 3298.44 67.76 7.00 144.05 2978.60
   00:32:38.107.09-May-2021 4516.51 3298.44 67.76 7.00 144.25 2978.60
   00:32:38.307.09-May-2021 4516.51 3298.02 67.77 7.00 144.45 2978.60
   00:32:38.507.09-May-2021 4516.51 3297.74 67.76 7.00 144.65 2978.60
   00:32:38.707.09-May-2021 4516.51 3298.14 67.76 7.00 144.85 2978.60
   00:32:38.907.09-May-2021 4516.51 3298.26 67.76 7.00 145.05 2978.60
   00:32:39.107.09-May-2021 4516.51 3298.26 67.76 7.00 145.25 2978.60
   00:32:39.307.09-May-2021 4516.51 3298.07 67.76 7.00 145.45 2978.60
   00:32:39.507.09-May-2021 4516.51 3297.74 67.76 7.00 145.65 2978.60
   00:32:39.707.09-May-2021 4516.51 3298.21 67.76 7.00 145.85 2978.60
   00:32:39.907.09-May-2021 4516.51 3298.30 67.76 7.00 146.05 2978.60
   00:32:40.108.09-May-2021 4516.51 3298.30 67.76 7.00 146.25 2978.60
   00:32:40.308.09-May-2021 4516.51 3298.30 67.76 7.00 146.45 2978.60
   00:32:40.508.09-May-2021 4516.51 3298.17 67.76 7.00 146.65 2978.60
   00:32:40.708.09-May-2021 4516.51 3298.16 67.76 7.00 146.85 2978.60
   00:32:40.908.09-May-2021 4516.51 3298.18 67.76 7.00 147.05 2978.60
   00:32:41.108.09-May-2021 4516.51 3298.18 67.76 7.00 147.25 2978.60
   00:32:41.308.09-May-2021 4516.51 3298.21 67.76 7.00 147.45 2978.60
   00:32:41.508.09-May-2021 4516.51 3298.25 67.76 7.00 147.65 2978.60
   00:32:41.708.09-May-2021 4516.51 3298.26 67.76 7.00 147.85 2978.60
   00:32:41.908.09-May-2021 4516.51 3298.27 67.76 7.00 148.05 2978.60
   00:32:42.108.09-May-2021 4516.51 3298.27 67.76 7.00 148.25 2978.60
   00:32:42.308.09-May-2021 4516.51 3298.56 67.76 7.00 148.45 2978.60
   00:32:42.508.09-May-2021 4516.51 3154.04 67.76 7.00 148.65 2978.60
   00:32:42.708.09-May-2021 4516.51 2615.87 67.76 7.00 148.85 2978.60
   00:32:42.909.09-May-2021 4516.51 2247.10 67.76 7.00 149.05 2978.60
   00:32:43.109.09-May-2021 4516.51 2247.10 67.76 7.00 149.25 2978.60
   00:32:43.309.09-May-2021 4516.51 1810.28 67.76 7.00 149.45 2978.60
   00:32:43.509.09-May-2021 4516.51 1653.49 67.76 7.00 149.65 2978.60
   00:32:43.709.09-May-2021 4516.51 1542.54 67.76 7.00 149.85 2978.60
   00:32:43.909.09-May-2021 4516.51 1463.34 67.76 7.00 150.05 2978.60
   00:32:44.109.09-May-2021 4516.51 1463.34 67.76 7.00 150.25 2978.60
   00:32:44.309.09-May-2021 4516.51 1272.10 67.76 7.00 150.45 2978.60
   00:32:44.509.09-May-2021 4516.51 1159.01 67.76 7.00 150.65 2978.60
   00:32:44.709.09-May-2021 4516.51 1077.08 67.76 7.00 150.85 2978.60
   00:32:44.909.09-May-2021 4516.51 1073.43 67.76 7.00 151.05 2978.60
   00:32:45.109.09-May-2021 4516.51 1073.43 67.76 7.00 151.25 2978.60
   00:32:45.309.09-May-2021 4516.51 1056.48 67.76 7.00 151.45 2978.60
   00:32:45.509.09-May-2021 4516.51 1039.31 67.75 7.00 151.65 2978.60
   00:32:45.710.09-May-2021 4516.51 1113.78 67.75 7.00 151.86 2978.60
   00:32:45.910.09-May-2021 4516.51 1103.01 67.75 7.00 152.06 2978.60
   00:32:46.110.09-May-2021 4516.51 1103.01 67.75 7.00 152.26 2978.60
   00:32:46.310.09-May-2021 4516.51  949.94 67.75 7.00 152.46 2978.60
   00:32:46.510.09-May-2021 4516.51  942.91 67.75 7.00 152.66 2978.60
   00:32:46.710.09-May-2021 4516.51  936.06 67.75 7.00 152.86 2978.60
   00:32:46.910.09-May-2021 4516.51  938.34 67.74 7.00 153.06 2978.60
   00:32:47.110.09-May-2021 4516.51  938.34 67.74 7.00 153.26 2978.60
   00:32:47.310.09-May-2021 4516.51  916.09 67.74 7.00 153.46 2978.60
   00:32:47.510.09-May-2021 4516.51  898.33 67.74 7.00 153.66 2978.60
   00:32:47.710.09-May-2021 4516.51  892.74 67.74 7.00 153.86 2978.60
   00:32:47.910.09-May-2021 4516.51  894.17 67.74 7.00 154.06 2978.60
   00:32:48.110.09-May-2021 4516.51  894.17 67.74 7.00 154.26 2978.60
   00:32:48.310.09-May-2021 4516.51  906.90 67.73 7.00 154.46 2978.60
   00:32:48.511.09-May-2021 4516.51  908.03 67.73 7.00 154.66 2978.60
   00:32:48.711.09-May-2021 4516.51  904.10 67.73 7.00 154.86 2978.60
   00:32:48.911.09-May-2021 4516.51  899.23 67.73 7.00 155.06 2978.60
   00:32:49.111.09-May-2021 4516.51  899.23 67.73 7.00 155.26 2978.60
   00:32:49.311.09-May-2021 4516.51  881.01 67.73 7.00 155.46 2978.60
   00:32:49.511.09-May-2021 4516.51  874.75 67.72 7.00 155.66 2978.60
   00:32:49.711.09-May-2021 4516.51  865.71 67.72 7.00 155.86 2978.60
   00:32:49.911.09-May-2021 4516.51  868.76 67.72 7.00 156.06 2978.60
   00:32:50.111.09-May-2021 4516.51  868.76 67.72 7.00 156.26 2978.60
   00:32:50.311.09-May-2021 4516.51  863.68 67.72 7.00 156.46 2978.60
   00:32:50.511.09-May-2021 4516.51  865.57 67.72 7.00 156.66 2978.60
   00:32:50.711.09-May-2021 4516.51  882.93 67.72 7.00 156.86 2978.60
   00:32:50.911.09-May-2021 4516.51  896.11 67.72 7.00 157.06 2978.60
   00:32:51.111.09-May-2021 4516.51  896.11 67.72 7.00 157.26 2978.60
   00:32:51.312.09-May-2021 4516.51  882.23 67.72 7.00 157.46 2978.60
   00:32:51.512.09-May-2021 4516.51  863.35 67.71 7.00 157.66 2978.60
   00:32:51.712.09-May-2021 4516.51  845.81 67.71 7.00 157.86 2978.60
   00:32:51.912.09-May-2021 4516.51  838.98 67.71 7.00 158.06 2978.60
   00:32:52.112.09-May-2021 4516.51  838.98 67.71 7.00 158.26 2978.60
   00:32:52.312.09-May-2021 4516.51  833.46 67.71 7.00 158.46 2978.60
   00:32:52.512.09-May-2021 4516.51  835.22 67.71 7.00 158.66 2978.60
   00:32:52.712.09-May-2021 4516.51  926.48 67.71 7.00 158.86 2978.60
   00:32:52.912.09-May-2021 4516.51 1106.46 67.71 7.00 159.06 2978.60
   00:32:53.112.09-May-2021 4516.51 1106.46 67.71 7.00 159.26 2978.60
   00:32:53.312.09-May-2021 4516.51 1459.38 67.71 7.00 159.46 2978.60
   00:32:53.512.09-May-2021 4516.51 1593.29 67.71 7.00 159.66 2978.60
   00:32:53.712.09-May-2021 4516.51 1714.25 67.71 7.00 159.86 2978.60
   00:32:53.913.09-May-2021 4516.51 1824.44 67.71 7.00 160.06 2978.60
   00:32:54.113.09-May-2021 4516.51 1824.44 67.71 7.00 160.26 2978.60
   00:32:54.313.09-May-2021 4516.51 2018.94 67.71 7.00 160.46 2978.60
   00:32:54.513.09-May-2021 4516.51 2105.08 67.71 7.00 160.66 2978.60
   00:32:54.713.09-May-2021 4516.51 2184.60 67.71 7.00 160.86 2978.60
