~Version Information
 VERS.                  2.0:   CWLS log ASCII Standard -VERSION 2.0
 WRAP.                   NO:   One line per depth step
~Well Information Block
#MNEM.UNIT     VALUE/NAME     DESCRIPTION
#---------     -----------    ---------------------------
 STRT.S             00:12:22 09-May-21: START TIME 00:12:22 09-May-21
 STOP.S             00:19:08 09-May-21: STOP TIME  00:19:08 09-May-21
 STEP.S                   0.00: STEP TIME
 NULL.                 -999.25: NULL VALUE
 PROV.                    Baku:  PROVINCE
 STAT.                    Baku:  STATE NAME
 SON .        AZ-XX-0906571588:  JOB NUMBER
 WTYP.                Deviated:  WELL TYPE
 COMP.     BP Exploration (Caspian Sea) ltd:  COMPANY
 BASE.              Azerbaijan:  LOGGING EQUIPMENT BASE LOCATION
 REGN.                   EESSA:  REGION
 CTRY.              Azerbaijan:  COUNTRY NAME
 FLD .                     ACG:  FIELD NAME
 WELL.                     J28:  WELL NAME
 RIG .             West Chirag:  RIG NAME
 DMF .             Drill Floor:  DRILL MEAS FROM
 PDAT.       Caspian Sea Level:  PERMANENT DATUM
 HPTY.       Minimum Curvature:  HOLE POS TYPE
 MDS .        Operator Entered:  MAG DATA SOURCE
 NREF.                    Grid:  NORTH REFERENCE
 SRVC.          TURAN DRILLING:  CONTRACTOR
 JOBN.        AZ-XX-0906571588:  JOB TICKET NUMB
 DCON.     Halliburton Sperry Drilling:  DIRECTNL CONTR
 STIM.      00.44.00 11-Feb-21:  START TIME
 DATE.      00.00.00 05-May-21:  END TIME
 SPUD.               13-Feb-21:  SPUD DATE
 MWDS.                    Baku:  MWD SHOP
 DOE .                     N/A:  DOE NUMBER
 UNIT.                     N/A:  LOGGING EQUIPMENT ID
 UWI .                     N/A:  UNIQUE WELL IDENTIFIER
 API .                     N/A:  API NUMBER
 CNTY.                        :  COUNTY
 LOC .                        :  LOCATION
 LMF .             Drill Floor:  LOG MEASURED FROM
 TVDS.m                  43.00:  TVDSS CORRECTN
 SDEP.m                 341.00:  START DEPTH
 EGL .m                   0.00:  GROUND ELEVATION
 WDMS.m                 169.80:  WD ELEV
 AGAP.m                  43.00:  AIR GAP
 EPD .m                   0.00:  ELEVATION
 APD .m                  43.00:  DEPTH ABOVE PD
 LATI.deg                40.13:  LATITUDE
 LONG.deg                51.22:  LONGITUDE
 UTMY.m             4443793.85:  UTM Y
 UTMX.m              519005.06:  UTM X
 WHEW.m                 -11.57:  WELL HEAD E/W
 WHNS.m                   8.57:  WELL HEAD N/S
 VSEW.m                 -11.57:  VERT SEC E/W
 VSNS.m                   8.57:  VERT SEC N/S
 DFWL.m                   0.00:  DISTANCE FWL
 DFSL.m                   0.00:  DISTANCE FSL
 VSDR.deg               299.34:  VERT SEC DIRECT
 GVFD.g                   1.00:  GRAVITY FIELD
 AZTC.deg                 6.36:  AZM TOTAL CORR
 MFLD.nT              50391.00:  MAGNETIC FIELD
 MDIP.deg                59.65:  MAGNETIC DIP
 MDEC.deg                 6.48:  MAGNETIC DECL
 GRDC.deg                 0.12:  GRID CORRECTION
 DEP .m                 334.96:  DEPTH
 TDD .m                1407.26:  TOTAL DEPTH (DRILLER)
 EKB .m                  43.00:  KB ELEVATION
 EDF .m                  43.00:  DF ELEVATION
 TDL .m                 228.00:  TOTAL DEPTH (LOGGER)
 VSC .                       0:  VS TO CLOSURE
 MAGU.                 1854484:  MAGUTM CHECKSUM
~Parameter Information Block
#MNEM.UNIT       Value        Description
#---------     -----------    ---------------------------
 AV  .mps                 4.00:  Ann Velocity 
 AVMX.mps                 4.73:  Max Ann Veloc 
 AZIF.deg               304.48:  Azm, Final 
 BHAT.        Rotary Steerable:  BHA Type 
 BREV.rev            257300.00:  Rev Bit Total 
 BROT.°/30m               0.00:  Build Rotating 
 BS  .in                  8.50:  Bit Size 
 BSZ .in                  8.50:  Bit Size 
 BTPL.psig              589.00:  Bit Press Loss 
 CABU.                      No:  Customer Abuse 
 CGEO.          Mubariz ghayev:  Customer Geo 
 COMM.                     <Š|:  Run Comments 1 
 TCS .hr                 64.25:  Time Ciculation Ended 
 CV  .mps                 3.50:  Crit Velocity 
 CVMX.mps                 4.52:  Max Crit Veloc 
 DD1 .             Aziz Aliyev:  Direct Drillr 1 
 DD2 .         Intigam Rahimov:  Direct Drillr 2 
 DD3 .          Rashad Habibov:  Direct Drillr 3 
 DDSV.               Geo-Pilot:  DD Service 
 DEFF.%                  98.00:  % Det Eff 
 DLRX.°/30m               0.00:  Dogleg Rot Max 
 DLSO.°/30m               0.00:  Dogleg Oriented 
 DLSX.°/30m               0.00:  Dogleg Str Max 
 DRET.      10.45.04 08-May-21:  Drill End Time 
 DRST.      03.30.04 04-May-21:  Drill Start Tim 
 DTIM.hr                 14.97:  Time Drilling 
 EDEP.m                4640.01:  End Depth 
 ENG1.         Dail Mahammadov:  Engineer 1 
 ENG2.           Eldar Hajiyev:  Engineer 2 
 ENG3.       Bakhtiar Jabbarli:  Engineer 3 
 ENG4.       Natik Hasanagayev:  Engineer 4 
 ETIM.      09.30.04 14-May-21:  End Time 
 FLOI.gpm               460.00:  Flow In 
 FLON.gpm               200.00:  Flow In Min 
 FLOS.cptm                0.00:  Fluid Loss 
 FLOX.gpm               505.00:  Flow In Max 
 HFLO.                      No:  High Flow 
 HPRE.                      No:  High Pressure 
 HTEM.                      No:  High Temp 
 HYDO.m                   1.80:  Hydro Offset 
 IFIN.deg                66.71:  Inc, Final 
 IMAX.deg                67.03:  Inc Max 
 IMIN.deg                66.63:  Inc Min 
 IMND.m                4550.58:  Inc Min Depth 
 IMXD.m                4439.01:  Inc Max Depth 
 JARR.                      No:  Jarring 
 LETM.      10.45.04 08-May-21:  Log End Time 
 LOST.hr                     0:  Lost Rig Time 
 LSTM.      03.30.04 04-May-21:  Log Start Time 
 MDCL.ppm             37000.00:  Mud Chlorides 
 MDES.     Inversion Oil/Synthetic:  Mud Desc 
 DFD .sg                  1.38:  Mud Density 
 MDMN.sg                  1.35:  Dens Mud Min 
 MDMX.sg                  1.40:  Dens Mud Max 
 MOIL.                   57.40:  Run Mud Oil % 
 MOWR.                   70:30:  Run Mud OWR 
 MSND.                    0.00:  Run Mud Sand % 
 MSOL.                   18.00:  Run Mud Solids% 
 DFV .spqt               71.00:  Mud Viscosity 
 MWOD.in                  6.75:  MWD Tool OD 
 MWSI.                      No:  Serv Intrp, MWD 
 OTIM.hr                242.76:  Time Operating 
 PCON.           Look Like New:  Pad Condition 
 PMAX.psia            12183.92:  Press Op, Max 
 PV  .cP                 27.00:  Mud PV 
 RUN .                    1300:  Run Number 
 ROPA.m/hr               15.00:  ROP Avg 
 ROPN.m/hr                9.00:  ROP Min 
 ROPX.m/hr               19.00:  ROP Max 
 RPMA.rpm               120.00:  RPM Surface Avg 
 RPMN.rpm               100.00:  RPM Surface Min 
 RPMX.rpm               120.00:  RPM Surface Max 
 RRUN.                    1300:  Rig Run Number 
 RTIM.hr                  5.00:  Time Reaming 
 SAZI.deg               304.73:  Azm, Start 
 SDEP.m                4412.01:  Start Depth 
 SIDD.                      No:  Serv Intrp, DD 
 SINC.deg                66.82:  Inc, Start 
 SPPA.psig             2800.00:  SPP Avg 
 SPPN.psig             2610.00:  SPP Min 
 SPPX.psig             3100.00:  SPP Max 
 STIM.      03.30.00 04-May-21:  Start Time 
 SVCS.                 DD, MWD:  Services 
 SVER.                    9.20:  Sperry Version 
 TDAT.m                 228.00:  Tot Depth Attmp 
 TDDF.                      No:  Trip for DD 
 TDLG.m                 228.00:  Tot Depth Loggd 
 TFF .                      No:  Trip for Fail 
 TQAA.f-kp               15.00:  Torque Abs Avg 
 TQAN.f-kp               12.00:  Torque Abs Min 
 TQAX.f-kp               22.00:  Torque Abs Max 
 TRRT.°/30m               0.00:  Turn Rotating 
 MRT .                    HCIM:  Maximum Recorded Temperature 
 TTMX.degC               90.20:  Max Tool Temp 
 VS01.                90627813:  Virtual Str1 SN 
 VS02.                90634712:  Virtual Str2 SN 
 VS03.                90643410:  Virtual Str3 SN 
 VS04.                90634712:  Virtual Str4 SN 
 WBMN.klb                 9.00:  WOB Min 
 WITN.        Elmaddin Rahimov:  Customer Rep 
 WITN.         Haytham Mostafa:  Customer Rep 2 
 WOBA.klb                15.00:  WOB Avg 
 WOBX.klb                23.00:  WOB Max 
 YP  .lhf2               29.00:  Yield Point 
~Curve Information Block
#MNEM.UNIT                 API CODE     Curve Description
#---------               -----------    ---------------------------
 TIME.HHMMSS            00 000 000 000:  GT Time & Date
 GTDEPTH.m              00 000 000 000:  GT Depth
 GTPQH.psia             00 000 000 000:  GT HR Quartz Pressure
 GTTQ.degC              00 000 000 000:  GT Quartz Temperature
 GTTN.NONE              00 000 000 000:  GT Test Number
 GTET.sec               00 000 000 000:  GT Elapsed Test Time
 GTTVD.m                00 000 000 000:  GT True Vertical Depth
#Other Information
#
#WARRANTY: Halliburton will use its best efforts to furnish customers with 
#accurate information and interpretations that are part of, and incident to, the services 
#provided.  However, Halliburton cannot and does not warrant the accuracy 
#or correctness of such information and interpretations.  Under no circumstances should any 
#such information or interpretation be relied upon as the sole basis for any drilling, 
#completion, production, or financial decision or any procedure involving any risk to the 
#safety of any drilling venture, drilling rig or its crew or any other third party.  The 
#Customer has full responsibility for all drilling, completion and production operation.  
#Halliburton makes no representations or warranties, either expressed or 
#implied, including, but not limited to, the implied warranties of merchantability or fitness 
#for a particular purpose, with respect to the services rendered.  In no event will 
#Halliburton be liable for failure to obtain any particular results or for 
#any damages, including, but not limited to, indirect, special or consequential damages, 
#resulting from the use of any information or interpretation provided by Halliburton.
#
~A           TIME           GTDEPTH  GTPQH  GTTQ  GTTN  GTET   GTTVD  
# ...
   00:18:30.600.09-May-2021 4527.01 6824.16 68.18 6.00 368.13 2982.74
   00:18:30.800.09-May-2021 4527.01 6824.16 68.18 6.00 368.33 2982.74
   00:18:31.000.09-May-2021 4527.01 6823.57 68.18 6.00 368.53 2982.74
   00:18:31.200.09-May-2021 4527.01 6823.37 68.18 6.00 368.73 2982.74
   00:18:31.400.09-May-2021 4527.01 6823.60 68.19 6.00 368.93 2982.74
   00:18:31.600.09-May-2021 4527.01 6823.89 68.19 6.00 369.13 2982.74
   00:18:31.800.09-May-2021 4527.01 6823.89 68.19 6.00 369.33 2982.74
   00:18:32.000.09-May-2021 4527.01 6822.64 68.19 6.00 369.53 2982.74
   00:18:32.200.09-May-2021 4527.01 6831.47 68.19 6.00 369.73 2982.74
   00:18:32.400.09-May-2021 4527.01 6830.85 68.20 6.00 369.93 2982.74
   00:18:32.600.09-May-2021 4527.01 6827.29 68.20 6.00 370.13 2982.74
   00:18:32.801.09-May-2021 4527.01 6827.29 68.20 6.00 370.33 2982.74
   00:18:33.001.09-May-2021 4527.01 6824.72 68.20 6.00 370.53 2982.74
   00:18:33.201.09-May-2021 4527.01 6822.53 68.20 6.00 370.73 2982.74
   00:18:33.401.09-May-2021 4527.01 6831.66 68.20 6.00 370.93 2982.74
   00:18:33.601.09-May-2021 4527.01 6830.71 68.20 6.00 371.13 2982.74
   00:18:33.801.09-May-2021 4527.01 6830.71 68.20 6.00 371.33 2982.74
   00:18:34.001.09-May-2021 4527.01 6822.21 68.21 6.00 371.53 2982.74
   00:18:34.201.09-May-2021 4527.01 6832.85 68.21 6.00 371.73 2982.74
   00:18:34.401.09-May-2021 4527.01 6831.93 68.21 6.00 371.93 2982.74
   00:18:34.601.09-May-2021 4527.01 6827.72 68.21 6.00 372.13 2982.74
   00:18:34.801.09-May-2021 4527.01 6827.72 68.21 6.00 372.33 2982.74
   00:18:35.001.09-May-2021 4527.01 6825.70 68.21 6.00 372.53 2982.74
   00:18:35.201.09-May-2021 4527.01 6823.48 68.21 6.00 372.74 2982.74
   00:18:35.401.09-May-2021 4527.01 6832.82 68.21 6.00 372.94 2982.74
   00:18:35.602.09-May-2021 4527.01 6831.97 68.21 6.00 373.14 2982.74
   00:18:35.802.09-May-2021 4527.01 6831.97 68.21 6.00 373.34 2982.74
   00:18:36.002.09-May-2021 4527.01 6824.73 68.21 6.00 373.54 2982.74
   00:18:36.202.09-May-2021 4527.01 6826.17 68.21 6.00 373.74 2982.74
   00:18:36.402.09-May-2021 4527.01 6825.79 68.21 6.00 373.94 2982.74
   00:18:36.602.09-May-2021 4527.01 6825.41 68.21 6.00 374.14 2982.74
   00:18:36.802.09-May-2021 4527.01 6825.41 68.21 6.00 374.34 2982.74
   00:18:37.002.09-May-2021 4527.01 6825.35 68.22 6.00 374.54 2982.74
   00:18:37.202.09-May-2021 4527.01 6825.23 68.22 6.00 374.74 2982.74
   00:18:37.402.09-May-2021 4527.01 6825.89 68.22 6.00 374.94 2982.74
   00:18:37.602.09-May-2021 4527.01 6825.68 68.22 6.00 375.14 2982.74
   00:18:37.802.09-May-2021 4527.01 6825.68 68.22 6.00 375.34 2982.74
   00:18:38.002.09-May-2021 4527.01 6833.68 68.22 6.00 375.54 2982.74
   00:18:38.202.09-May-2021 4527.01 6828.63 68.22 6.00 375.74 2982.74
   00:18:38.403.09-May-2021 4527.01 6830.23 68.22 6.00 375.94 2982.74
   00:18:38.603.09-May-2021 4527.01 6826.15 68.22 6.00 376.14 2982.74
   00:18:38.803.09-May-2021 4527.01 6826.15 68.22 6.00 376.34 2982.74
   00:18:39.003.09-May-2021 4527.01 6825.88 68.22 6.00 376.54 2982.74
   00:18:39.203.09-May-2021 4527.01 6824.68 68.22 6.00 376.74 2982.74
   00:18:39.403.09-May-2021 4527.01 6824.28 68.22 6.00 376.94 2982.74
   00:18:39.603.09-May-2021 4527.01 6823.97 68.22 6.00 377.14 2982.74
   00:18:39.803.09-May-2021 4527.01 6823.97 68.22 6.00 377.34 2982.74
   00:18:40.003.09-May-2021 4527.01 6824.93 68.22 6.00 377.54 2982.74
   00:18:40.203.09-May-2021 4527.01 6825.11 68.22 6.00 377.74 2982.74
   00:18:40.403.09-May-2021 4527.01 6823.68 68.22 6.00 377.94 2982.74
   00:18:40.603.09-May-2021 4527.01 6826.37 68.22 6.00 378.14 2982.74
   00:18:40.803.09-May-2021 4527.01 6826.37 68.22 6.00 378.34 2982.74
   00:18:41.003.09-May-2021 4527.01 6832.91 68.22 6.00 378.54 2982.74
   00:18:41.204.09-May-2021 4527.01 6830.52 68.22 6.00 378.74 2982.74
   00:18:41.404.09-May-2021 4527.01 6827.06 68.22 6.00 378.94 2982.74
   00:18:41.604.09-May-2021 4527.01 6823.93 68.22 6.00 379.14 2982.74
   00:18:41.804.09-May-2021 4527.01 6823.93 68.22 6.00 379.34 2982.74
   00:18:42.004.09-May-2021 4527.01 6827.45 68.22 6.00 379.54 2982.74
   00:18:42.204.09-May-2021 4527.01 6829.66 68.22 6.00 379.74 2982.74
   00:18:42.404.09-May-2021 4527.01 6824.64 68.22 6.00 379.94 2982.74
   00:18:42.604.09-May-2021 4527.01 6832.88 68.22 6.00 380.14 2982.74
   00:18:42.804.09-May-2021 4527.01 6832.88 68.22 6.00 380.34 2982.74
   00:18:43.004.09-May-2021 4527.01 6829.69 68.22 6.00 380.54 2982.74
   00:18:43.204.09-May-2021 4527.01 6824.64 68.22 6.00 380.74 2982.74
   00:18:43.404.09-May-2021 4527.01 6828.26 68.22 6.00 380.94 2982.74
   00:18:43.604.09-May-2021 4527.01 6828.49 68.22 6.00 381.14 2982.74
   00:18:43.805.09-May-2021 4527.01 6828.49 68.22 6.00 381.34 2982.74
   00:18:44.005.09-May-2021 4527.01 6829.76 68.22 6.00 381.54 2982.74
   00:18:44.205.09-May-2021 4527.01 6826.69 68.22 6.00 381.74 2982.74
   00:18:44.405.09-May-2021 4527.01 6825.58 68.22 6.00 381.94 2982.74
   00:18:44.605.09-May-2021 4527.01 6825.60 68.22 6.00 382.14 2982.74
   00:18:44.805.09-May-2021 4527.01 6825.60 68.22 6.00 382.34 2982.74
   00:18:45.005.09-May-2021 4527.01 6825.71 68.22 6.00 382.54 2982.74
   00:18:45.205.09-May-2021 4527.01 6826.27 68.22 6.00 382.74 2982.74
   00:18:45.405.09-May-2021 4527.01 6826.03 68.22 6.00 382.94 2982.74
   00:18:45.605.09-May-2021 4527.01 6826.68 68.22 6.00 383.14 2982.74
   00:18:45.805.09-May-2021 4527.01 6826.68 68.22 6.00 383.34 2982.74
   00:18:46.005.09-May-2021 4527.01 6827.32 68.21 6.00 383.54 2982.74
   00:18:46.205.09-May-2021 4527.01 6834.07 68.21 6.00 383.74 2982.74
   00:18:46.405.09-May-2021 4527.01 6834.67 68.21 6.00 383.94 2982.74
   00:18:46.606.09-May-2021 4527.01 6831.78 68.21 6.00 384.14 2982.74
   00:18:46.806.09-May-2021 4527.01 6831.78 68.21 6.00 384.34 2982.74
   00:18:47.006.09-May-2021 4527.01 6825.98 68.21 6.00 384.54 2982.74
   00:18:47.206.09-May-2021 4527.01 6825.49 68.21 6.00 384.74 2982.74
   00:18:47.406.09-May-2021 4527.01 6824.98 68.21 6.00 384.94 2982.74
   00:18:47.606.09-May-2021 4527.01 6824.28 68.21 6.00 385.14 2982.74
   00:18:47.806.09-May-2021 4527.01 6824.28 68.21 6.00 385.34 2982.74
   00:18:48.006.09-May-2021 4527.01 6823.75 68.21 6.00 385.54 2982.74
   00:18:48.206.09-May-2021 4527.01 6823.48 68.21 6.00 385.74 2982.74
   00:18:48.406.09-May-2021 4527.01 6823.99 68.21 6.00 385.94 2982.74
   00:18:48.606.09-May-2021 4527.01 6824.46 68.21 6.00 386.14 2982.74
   00:18:48.806.09-May-2021 4527.01 6824.46 68.21 6.00 386.34 2982.74
   00:18:49.006.09-May-2021 4527.01 6827.19 68.21 6.00 386.54 2982.74
   00:18:49.206.09-May-2021 4527.01 6828.87 68.21 6.00 386.74 2982.74
   00:18:49.407.09-May-2021 4527.01 6825.57 68.21 6.00 386.94 2982.74
   00:18:49.607.09-May-2021 4527.01 6826.93 68.21 6.00 387.14 2982.74
   00:18:49.807.09-May-2021 4527.01 6826.93 68.21 6.00 387.34 2982.74
   00:18:50.007.09-May-2021 4527.01 6832.68 68.21 6.00 387.54 2982.74
   00:18:50.207.09-May-2021 4527.01 6831.05 68.21 6.00 387.74 2982.74
   00:18:50.407.09-May-2021 4527.01 6827.27 68.21 6.00 387.94 2982.74
   00:18:50.607.09-May-2021 4527.01 6833.23 68.21 6.00 388.14 2982.74
   00:18:50.807.09-May-2021 4527.01 6833.23 68.21 6.00 388.34 2982.74
   00:18:51.007.09-May-2021 4527.01 6828.31 68.21 6.00 388.54 2982.74
   00:18:51.207.09-May-2021 4527.01 6833.12 68.21 6.00 388.74 2982.74
   00:18:51.407.09-May-2021 4527.01 6829.69 68.21 6.00 388.94 2982.74
   00:18:51.607.09-May-2021 4527.01 6831.52 68.21 6.00 389.14 2982.74
   00:18:51.807.09-May-2021 4527.01 6831.52 68.21 6.00 389.34 2982.74
   00:18:52.007.09-May-2021 4527.01 6825.83 68.21 6.00 389.54 2982.74
   00:18:52.208.09-May-2021 4527.01 6824.45 68.21 6.00 389.74 2982.74
   00:18:52.408.09-May-2021 4527.01 6824.12 68.21 6.00 389.94 2982.74
   00:18:52.608.09-May-2021 4527.01 6824.37 68.21 6.00 390.14 2982.74
   00:18:52.808.09-May-2021 4527.01 6824.37 68.21 6.00 390.34 2982.74
   00:18:53.008.09-May-2021 4527.01 6824.67 68.21 6.00 390.54 2982.74
   00:18:53.208.09-May-2021 4527.01 6824.84 68.21 6.00 390.74 2982.74
   00:18:53.408.09-May-2021 4527.01 6825.23 68.21 6.00 390.94 2982.74
