~Version Information
 VERS.                  2.0:   CWLS log ASCII Standard -VERSION 2.0
 WRAP.                   NO:   One line per depth step
~Well Information Block
#MNEM.UNIT     VALUE/NAME     DESCRIPTION
#---------     -----------    ---------------------------
 STRT.S             02:35:25 09-May-21: START TIME 02:35:25 09-May-21
 STOP.S             02:42:01 09-May-21: STOP TIME  02:42:01 09-May-21
 STEP.S                   0.00: STEP TIME
 NULL.                 -999.25: NULL VALUE
 PROV.                    Baku:  PROVINCE
 STAT.                    Baku:  STATE NAME
 SON .        AZ-XX-0906571588:  JOB NUMBER
 WTYP.                Deviated:  WELL TYPE
 COMP.     BP Exploration (Caspian Sea) ltd:  COMPANY
 BASE.              Azerbaijan:  LOGGING EQUIPMENT BASE LOCATION
 REGN.                   EESSA:  REGION
 CTRY.              Azerbaijan:  COUNTRY NAME
 FLD .                     ACG:  FIELD NAME
 WELL.                     J28:  WELL NAME
 RIG .             West Chirag:  RIG NAME
 DMF .             Drill Floor:  DRILL MEAS FROM
 PDAT.       Caspian Sea Level:  PERMANENT DATUM
 HPTY.       Minimum Curvature:  HOLE POS TYPE
 MDS .        Operator Entered:  MAG DATA SOURCE
 NREF.                    Grid:  NORTH REFERENCE
 SRVC.          TURAN DRILLING:  CONTRACTOR
 JOBN.        AZ-XX-0906571588:  JOB TICKET NUMB
 DCON.     Halliburton Sperry Drilling:  DIRECTNL CONTR
 STIM.      00.44.00 11-Feb-21:  START TIME
 DATE.      00.00.00 05-May-21:  END TIME
 SPUD.               13-Feb-21:  SPUD DATE
 MWDS.                    Baku:  MWD SHOP
 DOE .                     N/A:  DOE NUMBER
 UNIT.                     N/A:  LOGGING EQUIPMENT ID
 UWI .                     N/A:  UNIQUE WELL IDENTIFIER
 API .                     N/A:  API NUMBER
 CNTY.                        :  COUNTY
 LOC .                        :  LOCATION
 LMF .             Drill Floor:  LOG MEASURED FROM
 TVDS.m                  43.00:  TVDSS CORRECTN
 SDEP.m                 341.00:  START DEPTH
 EGL .m                   0.00:  GROUND ELEVATION
 WDMS.m                 169.80:  WD ELEV
 AGAP.m                  43.00:  AIR GAP
 EPD .m                   0.00:  ELEVATION
 APD .m                  43.00:  DEPTH ABOVE PD
 LATI.deg                40.13:  LATITUDE
 LONG.deg                51.22:  LONGITUDE
 UTMY.m             4443793.85:  UTM Y
 UTMX.m              519005.06:  UTM X
 WHEW.m                 -11.57:  WELL HEAD E/W
 WHNS.m                   8.57:  WELL HEAD N/S
 VSEW.m                 -11.57:  VERT SEC E/W
 VSNS.m                   8.57:  VERT SEC N/S
 DFWL.m                   0.00:  DISTANCE FWL
 DFSL.m                   0.00:  DISTANCE FSL
 VSDR.deg               299.34:  VERT SEC DIRECT
 GVFD.g                   1.00:  GRAVITY FIELD
 AZTC.deg                 6.36:  AZM TOTAL CORR
 MFLD.nT              50391.00:  MAGNETIC FIELD
 MDIP.deg                59.65:  MAGNETIC DIP
 MDEC.deg                 6.48:  MAGNETIC DECL
 GRDC.deg                 0.12:  GRID CORRECTION
 DEP .m                 334.96:  DEPTH
 TDD .m                1407.26:  TOTAL DEPTH (DRILLER)
 EKB .m                  43.00:  KB ELEVATION
 EDF .m                  43.00:  DF ELEVATION
 TDL .m                 228.00:  TOTAL DEPTH (LOGGER)
 VSC .                       0:  VS TO CLOSURE
 MAGU.                 1854484:  MAGUTM CHECKSUM
~Parameter Information Block
#MNEM.UNIT       Value        Description
#---------     -----------    ---------------------------
 AV  .mps                 4.00:  Ann Velocity 
 AVMX.mps                 4.73:  Max Ann Veloc 
 AZIF.deg               304.48:  Azm, Final 
 BHAT.        Rotary Steerable:  BHA Type 
 BREV.rev            257300.00:  Rev Bit Total 
 BROT.°/30m               0.00:  Build Rotating 
 BS  .in                  8.50:  Bit Size 
 BSZ .in                  8.50:  Bit Size 
 BTPL.psig              589.00:  Bit Press Loss 
 CABU.                      No:  Customer Abuse 
 CGEO.          Mubariz ghayev:  Customer Geo 
 COMM.                     LÑz:  Run Comments 1 
 TCS .hr                 64.25:  Time Ciculation Ended 
 CV  .mps                 3.50:  Crit Velocity 
 CVMX.mps                 4.52:  Max Crit Veloc 
 DD1 .             Aziz Aliyev:  Direct Drillr 1 
 DD2 .         Intigam Rahimov:  Direct Drillr 2 
 DD3 .          Rashad Habibov:  Direct Drillr 3 
 DDSV.               Geo-Pilot:  DD Service 
 DEFF.%                  98.00:  % Det Eff 
 DLRX.°/30m               0.00:  Dogleg Rot Max 
 DLSO.°/30m               0.00:  Dogleg Oriented 
 DLSX.°/30m               0.00:  Dogleg Str Max 
 DRET.      10.45.04 08-May-21:  Drill End Time 
 DRST.      03.30.04 04-May-21:  Drill Start Tim 
 DTIM.hr                 14.97:  Time Drilling 
 EDEP.m                4640.01:  End Depth 
 ENG1.         Dail Mahammadov:  Engineer 1 
 ENG2.           Eldar Hajiyev:  Engineer 2 
 ENG3.       Bakhtiar Jabbarli:  Engineer 3 
 ENG4.       Natik Hasanagayev:  Engineer 4 
 ETIM.      09.30.04 14-May-21:  End Time 
 FLOI.gpm               460.00:  Flow In 
 FLON.gpm               200.00:  Flow In Min 
 FLOS.cptm                0.00:  Fluid Loss 
 FLOX.gpm               505.00:  Flow In Max 
 HFLO.                      No:  High Flow 
 HPRE.                      No:  High Pressure 
 HTEM.                      No:  High Temp 
 HYDO.m                   1.80:  Hydro Offset 
 IFIN.deg                66.71:  Inc, Final 
 IMAX.deg                67.03:  Inc Max 
 IMIN.deg                66.63:  Inc Min 
 IMND.m                4550.58:  Inc Min Depth 
 IMXD.m                4439.01:  Inc Max Depth 
 JARR.                      No:  Jarring 
 LETM.      10.45.04 08-May-21:  Log End Time 
 LOST.hr                     0:  Lost Rig Time 
 LSTM.      03.30.04 04-May-21:  Log Start Time 
 MDCL.ppm             37000.00:  Mud Chlorides 
 MDES.     Inversion Oil/Synthetic:  Mud Desc 
 DFD .sg                  1.38:  Mud Density 
 MDMN.sg                  1.35:  Dens Mud Min 
 MDMX.sg                  1.40:  Dens Mud Max 
 MOIL.                   57.40:  Run Mud Oil % 
 MOWR.                   70:30:  Run Mud OWR 
 MSND.                    0.00:  Run Mud Sand % 
 MSOL.                   18.00:  Run Mud Solids% 
 DFV .spqt               71.00:  Mud Viscosity 
 MWOD.in                  6.75:  MWD Tool OD 
 MWSI.                      No:  Serv Intrp, MWD 
 OTIM.hr                242.76:  Time Operating 
 PCON.           Look Like New:  Pad Condition 
 PMAX.psia            12183.92:  Press Op, Max 
 PV  .cP                 27.00:  Mud PV 
 RUN .                    1300:  Run Number 
 ROPA.m/hr               15.00:  ROP Avg 
 ROPN.m/hr                9.00:  ROP Min 
 ROPX.m/hr               19.00:  ROP Max 
 RPMA.rpm               120.00:  RPM Surface Avg 
 RPMN.rpm               100.00:  RPM Surface Min 
 RPMX.rpm               120.00:  RPM Surface Max 
 RRUN.                    1300:  Rig Run Number 
 RTIM.hr                  5.00:  Time Reaming 
 SAZI.deg               304.73:  Azm, Start 
 SDEP.m                4412.01:  Start Depth 
 SIDD.                      No:  Serv Intrp, DD 
 SINC.deg                66.82:  Inc, Start 
 SPPA.psig             2800.00:  SPP Avg 
 SPPN.psig             2610.00:  SPP Min 
 SPPX.psig             3100.00:  SPP Max 
 STIM.      03.30.00 04-May-21:  Start Time 
 SVCS.                 DD, MWD:  Services 
 SVER.                    9.20:  Sperry Version 
 TDAT.m                 228.00:  Tot Depth Attmp 
 TDDF.                      No:  Trip for DD 
 TDLG.m                 228.00:  Tot Depth Loggd 
 TFF .                      No:  Trip for Fail 
 TQAA.f-kp               15.00:  Torque Abs Avg 
 TQAN.f-kp               12.00:  Torque Abs Min 
 TQAX.f-kp               22.00:  Torque Abs Max 
 TRRT.°/30m               0.00:  Turn Rotating 
 MRT .                    HCIM:  Maximum Recorded Temperature 
 TTMX.degC               90.20:  Max Tool Temp 
 VS01.                90627813:  Virtual Str1 SN 
 VS02.                90634712:  Virtual Str2 SN 
 VS03.                90643410:  Virtual Str3 SN 
 VS04.                90634712:  Virtual Str4 SN 
 WBMN.klb                 9.00:  WOB Min 
 WITN.        Elmaddin Rahimov:  Customer Rep 
 WITN.         Haytham Mostafa:  Customer Rep 2 
 WOBA.klb                15.00:  WOB Avg 
 WOBX.klb                23.00:  WOB Max 
 YP  .lhf2               29.00:  Yield Point 
~Curve Information Block
#MNEM.UNIT                 API CODE     Curve Description
#---------               -----------    ---------------------------
 TIME.HHMMSS            00 000 000 000:  GT Time & Date
 GTDEPTH.m              00 000 000 000:  GT Depth
 GTPQH.psia             00 000 000 000:  GT HR Quartz Pressure
 GTTQ.degC              00 000 000 000:  GT Quartz Temperature
 GTTN.NONE              00 000 000 000:  GT Test Number
 GTET.sec               00 000 000 000:  GT Elapsed Test Time
 GTTVD.m                00 000 000 000:  GT True Vertical Depth
#Other Information
#
#WARRANTY: Halliburton will use its best efforts to furnish customers with 
#accurate information and interpretations that are part of, and incident to, the services 
#provided.  However, Halliburton cannot and does not warrant the accuracy 
#or correctness of such information and interpretations.  Under no circumstances should any 
#such information or interpretation be relied upon as the sole basis for any drilling, 
#completion, production, or financial decision or any procedure involving any risk to the 
#safety of any drilling venture, drilling rig or its crew or any other third party.  The 
#Customer has full responsibility for all drilling, completion and production operation.  
#Halliburton makes no representations or warranties, either expressed or 
#implied, including, but not limited to, the implied warranties of merchantability or fitness 
#for a particular purpose, with respect to the services rendered.  In no event will 
#Halliburton be liable for failure to obtain any particular results or for 
#any damages, including, but not limited to, indirect, special or consequential damages, 
#resulting from the use of any information or interpretation provided by Halliburton.
#
~A           TIME           GTDEPTH  GTPQH  GTTQ  GTTN   GTET   GTTVD  
# ...
   02:37:18.285.09-May-2021 4482.51 1360.97 67.68 11.00 113.02 2965.25
   02:37:18.485.09-May-2021 4482.51 1360.97 67.68 11.00 113.22 2965.25
   02:37:18.685.09-May-2021 4482.51 1363.90 67.68 11.00 113.42 2965.25
   02:37:18.885.09-May-2021 4482.51 1365.38 67.68 11.00 113.62 2965.25
   02:37:19.085.09-May-2021 4482.51 1366.62 67.68 11.00 113.82 2965.25
   02:37:19.285.09-May-2021 4482.51 1367.89 67.68 11.00 114.02 2965.25
   02:37:19.485.09-May-2021 4482.51 1367.89 67.68 11.00 114.22 2965.25
   02:37:19.685.09-May-2021 4482.51 1371.44 67.68 11.00 114.42 2965.25
   02:37:19.885.09-May-2021 4482.51 1372.65 67.68 11.00 114.62 2965.25
   02:37:20.085.09-May-2021 4482.51 1374.15 67.68 11.00 114.82 2965.25
   02:37:20.285.09-May-2021 4482.51 1375.53 67.68 11.00 115.02 2965.25
   02:37:20.485.09-May-2021 4482.51 1375.53 67.68 11.00 115.22 2965.25
   02:37:20.685.09-May-2021 4482.51 1376.92 67.68 11.00 115.42 2965.25
   02:37:20.885.09-May-2021 4482.51 1379.71 67.68 11.00 115.62 2965.25
   02:37:21.085.09-May-2021 4482.51 1381.05 67.68 11.00 115.82 2965.25
   02:37:21.285.09-May-2021 4482.51 1382.48 67.68 11.00 116.02 2965.25
   02:37:21.485.09-May-2021 4482.51 1382.48 67.68 11.00 116.22 2965.25
   02:37:21.685.09-May-2021 4482.51 1384.52 67.68 11.00 116.42 2965.25
   02:37:21.885.09-May-2021 4482.51 1384.61 67.68 11.00 116.62 2965.25
   02:37:22.085.09-May-2021 4482.51 1385.87 67.68 11.00 116.82 2965.25
   02:37:22.285.09-May-2021 4482.51 1387.15 67.68 11.00 117.02 2965.25
   02:37:22.485.09-May-2021 4482.51 1387.15 67.68 11.00 117.22 2965.25
   02:37:22.685.09-May-2021 4482.51 1389.95 67.68 11.00 117.42 2965.25
   02:37:22.885.09-May-2021 4482.51 1390.99 67.68 11.00 117.62 2965.25
   02:37:23.085.09-May-2021 4482.51 1392.68 67.68 11.00 117.82 2965.25
   02:37:23.285.09-May-2021 4482.51 1393.79 67.68 11.00 118.02 2965.25
   02:37:23.485.09-May-2021 4482.51 1393.79 67.68 11.00 118.22 2965.25
   02:37:23.685.09-May-2021 4482.51 1396.85 67.68 11.00 118.42 2965.25
   02:37:23.885.09-May-2021 4482.51 1398.31 67.68 11.00 118.62 2965.25
   02:37:24.086.09-May-2021 4482.51 1399.43 67.68 11.00 118.82 2965.25
   02:37:24.286.09-May-2021 4482.51 1400.71 67.68 11.00 119.02 2965.25
   02:37:24.486.09-May-2021 4482.51 1400.71 67.68 11.00 119.22 2965.25
   02:37:24.686.09-May-2021 4482.51 1402.76 67.68 11.00 119.42 2965.25
   02:37:24.886.09-May-2021 4482.51 1434.78 67.68 11.00 119.62 2965.25
   02:37:25.086.09-May-2021 4482.51 1436.08 67.68 11.00 119.82 2965.25
   02:37:25.286.09-May-2021 4482.51 1437.39 67.68 11.00 120.02 2965.25
   02:37:25.486.09-May-2021 4482.51 1437.39 67.68 11.00 120.22 2965.25
   02:37:25.686.09-May-2021 4482.51 1440.02 67.68 11.00 120.42 2965.25
   02:37:25.886.09-May-2021 4482.51 1441.30 67.68 11.00 120.62 2965.25
   02:37:26.086.09-May-2021 4482.51 1442.60 67.68 11.00 120.82 2965.25
   02:37:26.286.09-May-2021 4482.51 1443.92 67.68 11.00 121.02 2965.25
   02:37:26.486.09-May-2021 4482.51 1443.92 67.68 11.00 121.22 2965.25
   02:37:26.686.09-May-2021 4482.51 1446.14 67.68 11.00 121.42 2965.25
   02:37:26.886.09-May-2021 4482.51 1448.05 67.68 11.00 121.62 2965.25
   02:37:27.086.09-May-2021 4482.51 1449.35 67.68 11.00 121.82 2965.25
   02:37:27.286.09-May-2021 4482.51 1450.74 67.68 11.00 122.02 2965.25
   02:37:27.486.09-May-2021 4482.51 1450.74 67.68 11.00 122.22 2965.25
   02:37:27.686.09-May-2021 4482.51 1453.14 67.68 11.00 122.42 2965.25
   02:37:27.886.09-May-2021 4482.51 1454.35 67.68 11.00 122.62 2965.25
   02:37:28.086.09-May-2021 4482.51 1455.53 67.68 11.00 122.82 2965.25
   02:37:28.286.09-May-2021 4482.51 1456.76 67.68 11.00 123.02 2965.25
   02:37:28.486.09-May-2021 4482.51 1456.76 67.68 11.00 123.22 2965.25
   02:37:28.686.09-May-2021 4482.51 1457.90 67.68 11.00 123.42 2965.25
   02:37:28.886.09-May-2021 4482.51 1460.26 67.68 11.00 123.62 2965.25
   02:37:29.086.09-May-2021 4482.51 1461.42 67.68 11.00 123.82 2965.25
   02:37:29.286.09-May-2021 4482.51 1462.46 67.68 11.00 124.02 2965.25
   02:37:29.486.09-May-2021 4482.51 1462.46 67.68 11.00 124.22 2965.25
   02:37:29.686.09-May-2021 4482.51 1465.14 67.68 11.00 124.42 2965.25
   02:37:29.886.09-May-2021 4482.51 1466.30 67.68 11.00 124.62 2965.25
   02:37:30.087.09-May-2021 4482.51 1466.66 67.68 11.00 124.82 2965.25
   02:37:30.287.09-May-2021 4482.51 1468.77 67.68 11.00 125.02 2965.25
   02:37:30.487.09-May-2021 4482.51 1468.77 67.68 11.00 125.22 2965.25
   02:37:30.687.09-May-2021 4482.51 1471.03 67.68 11.00 125.42 2965.25
   02:37:30.887.09-May-2021 4482.51 1471.98 67.68 11.00 125.62 2965.25
   02:37:31.087.09-May-2021 4482.51 1473.17 67.68 11.00 125.82 2965.25
   02:37:31.287.09-May-2021 4482.51 1473.92 67.68 11.00 126.02 2965.25
   02:37:31.487.09-May-2021 4482.51 1473.92 67.68 11.00 126.22 2965.25
   02:37:31.687.09-May-2021 4482.51 1476.82 67.68 11.00 126.42 2965.25
   02:37:31.887.09-May-2021 4482.51 1477.84 67.68 11.00 126.62 2965.25
   02:37:32.087.09-May-2021 4482.51 1478.64 67.68 11.00 126.82 2965.25
   02:37:32.287.09-May-2021 4482.51 1480.43 67.68 11.00 127.02 2965.25
   02:37:32.487.09-May-2021 4482.51 1480.43 67.68 11.00 127.22 2965.25
   02:37:32.687.09-May-2021 4482.51 1481.28 67.69 11.00 127.42 2965.25
   02:37:32.887.09-May-2021 4482.51 1483.64 67.69 11.00 127.62 2965.25
   02:37:33.087.09-May-2021 4482.51 1484.77 67.68 11.00 127.82 2965.25
   02:37:33.287.09-May-2021 4482.51 1485.90 67.69 11.00 128.02 2965.25
   02:37:33.487.09-May-2021 4482.51 1485.90 67.69 11.00 128.22 2965.25
   02:37:33.687.09-May-2021 4482.51 1488.15 67.69 11.00 128.42 2965.25
   02:37:33.887.09-May-2021 4482.51 1489.25 67.69 11.00 128.62 2965.25
   02:37:34.087.09-May-2021 4482.51 1490.42 67.69 11.00 128.82 2965.25
   02:37:34.287.09-May-2021 4482.51 1491.58 67.69 11.00 129.02 2965.25
   02:37:34.487.09-May-2021 4482.51 1491.58 67.69 11.00 129.22 2965.25
   02:37:34.687.09-May-2021 4482.51 1493.48 67.69 11.00 129.42 2965.25
   02:37:34.887.09-May-2021 4482.51 1495.14 67.69 11.00 129.62 2965.25
   02:37:35.087.09-May-2021 4482.51 1496.26 67.69 11.00 129.82 2965.25
   02:37:35.287.09-May-2021 4482.51 1497.24 67.69 11.00 130.02 2965.25
   02:37:35.487.09-May-2021 4482.51 1497.24 67.69 11.00 130.22 2965.25
   02:37:35.687.09-May-2021 4482.51 1499.53 67.69 11.00 130.42 2965.25
   02:37:35.887.09-May-2021 4482.51 1500.64 67.69 11.00 130.62 2965.25
   02:37:36.088.09-May-2021 4482.51 1501.73 67.69 11.00 130.82 2965.25
   02:37:36.288.09-May-2021 4482.51 1502.84 67.69 11.00 131.02 2965.25
   02:37:36.488.09-May-2021 4482.51 1502.84 67.69 11.00 131.22 2965.25
   02:37:36.688.09-May-2021 4482.51 1503.91 67.69 11.00 131.42 2965.25
   02:37:36.888.09-May-2021 4482.51 1506.05 67.69 11.00 131.62 2965.25
   02:37:37.088.09-May-2021 4482.51 1507.17 67.69 11.00 131.82 2965.25
   02:37:37.288.09-May-2021 4482.51 1507.67 67.69 11.00 132.02 2965.25
   02:37:37.488.09-May-2021 4482.51 1507.67 67.69 11.00 132.22 2965.25
   02:37:37.688.09-May-2021 4482.51 1510.40 67.69 11.00 132.42 2965.25
   02:37:37.888.09-May-2021 4482.51 1511.55 67.69 11.00 132.62 2965.25
   02:37:38.088.09-May-2021 4482.51 1512.50 67.69 11.00 132.82 2965.25
   02:37:38.288.09-May-2021 4482.51 1513.27 67.69 11.00 133.02 2965.25
   02:37:38.488.09-May-2021 4482.51 1513.27 67.69 11.00 133.22 2965.25
   02:37:38.688.09-May-2021 4482.51 1515.69 67.69 11.00 133.42 2965.25
   02:37:38.888.09-May-2021 4482.51 1516.80 67.69 11.00 133.62 2965.25
   02:37:39.088.09-May-2021 4482.51 1517.05 67.69 11.00 133.82 2965.25
   02:37:39.288.09-May-2021 4482.51 1519.23 67.69 11.00 134.02 2965.25
   02:37:39.488.09-May-2021 4482.51 1519.23 67.69 11.00 134.22 2965.25
   02:37:39.688.09-May-2021 4482.51 1521.23 67.69 11.00 134.42 2965.25
   02:37:39.888.09-May-2021 4482.51 1522.11 67.69 11.00 134.62 2965.25
   02:37:40.088.09-May-2021 4482.51 1523.79 67.69 11.00 134.82 2965.25
   02:37:40.288.09-May-2021 4482.51 1524.99 67.69 11.00 135.02 2965.25
   02:37:40.488.09-May-2021 4482.51 1524.99 67.69 11.00 135.22 2965.25
   02:37:40.688.09-May-2021 4482.51 1525.85 67.69 11.00 135.42 2965.25
