~Version Information
 VERS.                  2.0:   CWLS log ASCII Standard -VERSION 2.0
 WRAP.                   NO:   One line per depth step
~Well Information Block
#MNEM.UNIT     VALUE/NAME     DESCRIPTION
#---------     -----------    ---------------------------
 STRT.S             23:15:39 08-May-21: START TIME 23:15:39 08-May-21
 STOP.S             23:22:30 08-May-21: STOP TIME  23:22:30 08-May-21
 STEP.S                   0.00: STEP TIME
 NULL.                 -999.25: NULL VALUE
 PROV.                    Baku:  PROVINCE
 STAT.                    Baku:  STATE NAME
 SON .        AZ-XX-0906571588:  JOB NUMBER
 WTYP.                Deviated:  WELL TYPE
 COMP.     BP Exploration (Caspian Sea) ltd:  COMPANY
 BASE.              Azerbaijan:  LOGGING EQUIPMENT BASE LOCATION
 REGN.                   EESSA:  REGION
 CTRY.              Azerbaijan:  COUNTRY NAME
 FLD .                     ACG:  FIELD NAME
 WELL.                     J28:  WELL NAME
 RIG .             West Chirag:  RIG NAME
 DMF .             Drill Floor:  DRILL MEAS FROM
 PDAT.       Caspian Sea Level:  PERMANENT DATUM
 HPTY.       Minimum Curvature:  HOLE POS TYPE
 MDS .        Operator Entered:  MAG DATA SOURCE
 NREF.                    Grid:  NORTH REFERENCE
 SRVC.          TURAN DRILLING:  CONTRACTOR
 JOBN.        AZ-XX-0906571588:  JOB TICKET NUMB
 DCON.     Halliburton Sperry Drilling:  DIRECTNL CONTR
 STIM.      00.44.00 11-Feb-21:  START TIME
 DATE.      00.00.00 05-May-21:  END TIME
 SPUD.               13-Feb-21:  SPUD DATE
 MWDS.                    Baku:  MWD SHOP
 DOE .                     N/A:  DOE NUMBER
 UNIT.                     N/A:  LOGGING EQUIPMENT ID
 UWI .                     N/A:  UNIQUE WELL IDENTIFIER
 API .                     N/A:  API NUMBER
 CNTY.                        :  COUNTY
 LOC .                        :  LOCATION
 LMF .             Drill Floor:  LOG MEASURED FROM
 TVDS.m                  43.00:  TVDSS CORRECTN
 SDEP.m                 341.00:  START DEPTH
 EGL .m                   0.00:  GROUND ELEVATION
 WDMS.m                 169.80:  WD ELEV
 AGAP.m                  43.00:  AIR GAP
 EPD .m                   0.00:  ELEVATION
 APD .m                  43.00:  DEPTH ABOVE PD
 LATI.deg                40.13:  LATITUDE
 LONG.deg                51.22:  LONGITUDE
 UTMY.m             4443793.85:  UTM Y
 UTMX.m              519005.06:  UTM X
 WHEW.m                 -11.57:  WELL HEAD E/W
 WHNS.m                   8.57:  WELL HEAD N/S
 VSEW.m                 -11.57:  VERT SEC E/W
 VSNS.m                   8.57:  VERT SEC N/S
 DFWL.m                   0.00:  DISTANCE FWL
 DFSL.m                   0.00:  DISTANCE FSL
 VSDR.deg               299.34:  VERT SEC DIRECT
 GVFD.g                   1.00:  GRAVITY FIELD
 AZTC.deg                 6.36:  AZM TOTAL CORR
 MFLD.nT              50391.00:  MAGNETIC FIELD
 MDIP.deg                59.65:  MAGNETIC DIP
 MDEC.deg                 6.48:  MAGNETIC DECL
 GRDC.deg                 0.12:  GRID CORRECTION
 DEP .m                 334.96:  DEPTH
 TDD .m                1407.26:  TOTAL DEPTH (DRILLER)
 EKB .m                  43.00:  KB ELEVATION
 EDF .m                  43.00:  DF ELEVATION
 TDL .m                 228.00:  TOTAL DEPTH (LOGGER)
 VSC .                       0:  VS TO CLOSURE
 MAGU.                 1854484:  MAGUTM CHECKSUM
~Parameter Information Block
#MNEM.UNIT       Value        Description
#---------     -----------    ---------------------------
 AV  .mps                 4.00:  Ann Velocity 
 AVMX.mps                 4.73:  Max Ann Veloc 
 AZIF.deg               304.48:  Azm, Final 
 BHAT.        Rotary Steerable:  BHA Type 
 BREV.rev            257300.00:  Rev Bit Total 
 BROT.°/30m               0.00:  Build Rotating 
 BS  .in                  8.50:  Bit Size 
 BSZ .in                  8.50:  Bit Size 
 BTPL.psig              589.00:  Bit Press Loss 
 CABU.                      No:  Customer Abuse 
 CGEO.          Mubariz ghayev:  Customer Geo 
 COMM.                     dˆ[:  Run Comments 1 
 TCS .hr                 64.25:  Time Ciculation Ended 
 CV  .mps                 3.50:  Crit Velocity 
 CVMX.mps                 4.52:  Max Crit Veloc 
 DD1 .             Aziz Aliyev:  Direct Drillr 1 
 DD2 .         Intigam Rahimov:  Direct Drillr 2 
 DD3 .          Rashad Habibov:  Direct Drillr 3 
 DDSV.               Geo-Pilot:  DD Service 
 DEFF.%                  98.00:  % Det Eff 
 DLRX.°/30m               0.00:  Dogleg Rot Max 
 DLSO.°/30m               0.00:  Dogleg Oriented 
 DLSX.°/30m               0.00:  Dogleg Str Max 
 DRET.      10.45.04 08-May-21:  Drill End Time 
 DRST.      03.30.04 04-May-21:  Drill Start Tim 
 DTIM.hr                 14.97:  Time Drilling 
 EDEP.m                4640.01:  End Depth 
 ENG1.         Dail Mahammadov:  Engineer 1 
 ENG2.           Eldar Hajiyev:  Engineer 2 
 ENG3.       Bakhtiar Jabbarli:  Engineer 3 
 ENG4.       Natik Hasanagayev:  Engineer 4 
 ETIM.      09.30.04 14-May-21:  End Time 
 FLOI.gpm               460.00:  Flow In 
 FLON.gpm               200.00:  Flow In Min 
 FLOS.cptm                0.00:  Fluid Loss 
 FLOX.gpm               505.00:  Flow In Max 
 HFLO.                      No:  High Flow 
 HPRE.                      No:  High Pressure 
 HTEM.                      No:  High Temp 
 HYDO.m                   1.80:  Hydro Offset 
 IFIN.deg                66.71:  Inc, Final 
 IMAX.deg                67.03:  Inc Max 
 IMIN.deg                66.63:  Inc Min 
 IMND.m                4550.58:  Inc Min Depth 
 IMXD.m                4439.01:  Inc Max Depth 
 JARR.                      No:  Jarring 
 LETM.      10.45.04 08-May-21:  Log End Time 
 LOST.hr                     0:  Lost Rig Time 
 LSTM.      03.30.04 04-May-21:  Log Start Time 
 MDCL.ppm             37000.00:  Mud Chlorides 
 MDES.     Inversion Oil/Synthetic:  Mud Desc 
 DFD .sg                  1.38:  Mud Density 
 MDMN.sg                  1.35:  Dens Mud Min 
 MDMX.sg                  1.40:  Dens Mud Max 
 MOIL.                   57.40:  Run Mud Oil % 
 MOWR.                   70:30:  Run Mud OWR 
 MSND.                    0.00:  Run Mud Sand % 
 MSOL.                   18.00:  Run Mud Solids% 
 DFV .spqt               71.00:  Mud Viscosity 
 MWOD.in                  6.75:  MWD Tool OD 
 MWSI.                      No:  Serv Intrp, MWD 
 OTIM.hr                242.76:  Time Operating 
 PCON.           Look Like New:  Pad Condition 
 PMAX.psia            12183.92:  Press Op, Max 
 PV  .cP                 27.00:  Mud PV 
 RUN .                    1300:  Run Number 
 ROPA.m/hr               15.00:  ROP Avg 
 ROPN.m/hr                9.00:  ROP Min 
 ROPX.m/hr               19.00:  ROP Max 
 RPMA.rpm               120.00:  RPM Surface Avg 
 RPMN.rpm               100.00:  RPM Surface Min 
 RPMX.rpm               120.00:  RPM Surface Max 
 RRUN.                    1300:  Rig Run Number 
 RTIM.hr                  5.00:  Time Reaming 
 SAZI.deg               304.73:  Azm, Start 
 SDEP.m                4412.01:  Start Depth 
 SIDD.                      No:  Serv Intrp, DD 
 SINC.deg                66.82:  Inc, Start 
 SPPA.psig             2800.00:  SPP Avg 
 SPPN.psig             2610.00:  SPP Min 
 SPPX.psig             3100.00:  SPP Max 
 STIM.      03.30.00 04-May-21:  Start Time 
 SVCS.                 DD, MWD:  Services 
 SVER.                    9.20:  Sperry Version 
 TDAT.m                 228.00:  Tot Depth Attmp 
 TDDF.                      No:  Trip for DD 
 TDLG.m                 228.00:  Tot Depth Loggd 
 TFF .                      No:  Trip for Fail 
 TQAA.f-kp               15.00:  Torque Abs Avg 
 TQAN.f-kp               12.00:  Torque Abs Min 
 TQAX.f-kp               22.00:  Torque Abs Max 
 TRRT.°/30m               0.00:  Turn Rotating 
 MRT .                    HCIM:  Maximum Recorded Temperature 
 TTMX.degC               90.20:  Max Tool Temp 
 VS01.                90627813:  Virtual Str1 SN 
 VS02.                90634712:  Virtual Str2 SN 
 VS03.                90643410:  Virtual Str3 SN 
 VS04.                90634712:  Virtual Str4 SN 
 WBMN.klb                 9.00:  WOB Min 
 WITN.        Elmaddin Rahimov:  Customer Rep 
 WITN.         Haytham Mostafa:  Customer Rep 2 
 WOBA.klb                15.00:  WOB Avg 
 WOBX.klb                23.00:  WOB Max 
 YP  .lhf2               29.00:  Yield Point 
~Curve Information Block
#MNEM.UNIT                 API CODE     Curve Description
#---------               -----------    ---------------------------
 TIME.HHMMSS            00 000 000 000:  GT Time & Date
 GTDEPTH.m              00 000 000 000:  GT Depth
 GTPQH.psia             00 000 000 000:  GT HR Quartz Pressure
 GTTQ.degC              00 000 000 000:  GT Quartz Temperature
 GTTN.NONE              00 000 000 000:  GT Test Number
 GTET.sec               00 000 000 000:  GT Elapsed Test Time
 GTTVD.m                00 000 000 000:  GT True Vertical Depth
#Other Information
#
#WARRANTY: Halliburton will use its best efforts to furnish customers with 
#accurate information and interpretations that are part of, and incident to, the services 
#provided.  However, Halliburton cannot and does not warrant the accuracy 
#or correctness of such information and interpretations.  Under no circumstances should any 
#such information or interpretation be relied upon as the sole basis for any drilling, 
#completion, production, or financial decision or any procedure involving any risk to the 
#safety of any drilling venture, drilling rig or its crew or any other third party.  The 
#Customer has full responsibility for all drilling, completion and production operation.  
#Halliburton makes no representations or warranties, either expressed or 
#implied, including, but not limited to, the implied warranties of merchantability or fitness 
#for a particular purpose, with respect to the services rendered.  In no event will 
#Halliburton be liable for failure to obtain any particular results or for 
#any damages, including, but not limited to, indirect, special or consequential damages, 
#resulting from the use of any information or interpretation provided by Halliburton.
#
~A           TIME           GTDEPTH  GTPQH  GTTQ  GTTN  GTET   GTTVD  
# ...
   23:21:01.558.08-May-2021 4549.51 3248.52 68.54 5.00 321.90 2991.64
   23:21:01.758.08-May-2021 4549.51 3248.52 68.54 5.00 322.10 2991.64
   23:21:01.958.08-May-2021 4549.51 3248.52 68.54 5.00 322.30 2991.64
   23:21:02.158.08-May-2021 4549.51 3248.51 68.54 5.00 322.50 2991.64
   23:21:02.358.08-May-2021 4549.51 3248.51 68.54 5.00 322.70 2991.64
   23:21:02.558.08-May-2021 4549.51 3248.51 68.54 5.00 322.90 2991.64
   23:21:02.758.08-May-2021 4549.51 3248.51 68.54 5.00 323.10 2991.64
   23:21:02.958.08-May-2021 4549.51 3248.48 68.54 5.00 323.30 2991.64
   23:21:03.158.08-May-2021 4549.51 3248.48 68.54 5.00 323.50 2991.64
   23:21:03.358.08-May-2021 4549.51 3248.52 68.54 5.00 323.70 2991.64
   23:21:03.557.08-May-2021 4549.51 3248.47 68.54 5.00 323.90 2991.64
   23:21:03.757.08-May-2021 4549.51 3248.47 68.54 5.00 324.10 2991.64
   23:21:03.957.08-May-2021 4549.51 3248.43 68.54 5.00 324.30 2991.64
   23:21:04.157.08-May-2021 4549.51 3248.57 68.54 5.00 324.50 2991.64
   23:21:04.357.08-May-2021 4549.51 3248.42 68.54 5.00 324.70 2991.64
   23:21:04.557.08-May-2021 4549.51 3248.51 68.54 5.00 324.90 2991.64
   23:21:04.757.08-May-2021 4549.51 3248.51 68.54 5.00 325.10 2991.64
   23:21:04.957.08-May-2021 4549.51 3248.48 68.54 5.00 325.30 2991.64
   23:21:05.157.08-May-2021 4549.51 3248.46 68.54 5.00 325.50 2991.64
   23:21:05.357.08-May-2021 4549.51 3248.42 68.54 5.00 325.70 2991.64
   23:21:05.557.08-May-2021 4549.51 3248.56 68.54 5.00 325.90 2991.64
   23:21:05.757.08-May-2021 4549.51 3248.56 68.54 5.00 326.10 2991.64
   23:21:05.957.08-May-2021 4549.51 3248.50 68.54 5.00 326.30 2991.64
   23:21:06.157.08-May-2021 4549.51 3248.52 68.54 5.00 326.50 2991.64
   23:21:06.357.08-May-2021 4549.51 3248.52 68.54 5.00 326.70 2991.64
   23:21:06.557.08-May-2021 4549.51 3248.51 68.54 5.00 326.90 2991.64
   23:21:06.756.08-May-2021 4549.51 3248.51 68.54 5.00 327.10 2991.64
   23:21:06.956.08-May-2021 4549.51 3248.52 68.54 5.00 327.30 2991.64
   23:21:07.156.08-May-2021 4549.51 3248.51 68.54 5.00 327.50 2991.64
   23:21:07.356.08-May-2021 4549.51 3248.52 68.54 5.00 327.70 2991.64
   23:21:07.556.08-May-2021 4549.51 3248.50 68.54 5.00 327.90 2991.64
   23:21:07.756.08-May-2021 4549.51 3248.50 68.54 5.00 328.10 2991.64
   23:21:07.956.08-May-2021 4549.51 3248.48 68.54 5.00 328.30 2991.64
   23:21:08.156.08-May-2021 4549.51 3248.55 68.54 5.00 328.50 2991.64
   23:21:08.356.08-May-2021 4549.51 3248.44 68.54 5.00 328.70 2991.64
   23:21:08.556.08-May-2021 4549.51 3248.49 68.54 5.00 328.90 2991.64
   23:21:08.756.08-May-2021 4549.51 3248.49 68.54 5.00 329.10 2991.64
   23:21:08.956.08-May-2021 4549.51 3248.51 68.54 5.00 329.30 2991.64
   23:21:09.156.08-May-2021 4549.51 3248.50 68.54 5.00 329.50 2991.64
   23:21:09.356.08-May-2021 4549.51 3248.51 68.54 5.00 329.70 2991.64
   23:21:09.556.08-May-2021 4549.51 3248.51 68.54 5.00 329.90 2991.64
   23:21:09.756.08-May-2021 4549.51 3248.51 68.54 5.00 330.10 2991.64
   23:21:09.955.08-May-2021 4549.51 3248.51 68.54 5.00 330.30 2991.64
   23:21:10.155.08-May-2021 4549.51 3248.50 68.54 5.00 330.50 2991.64
   23:21:10.355.08-May-2021 4549.51 3248.51 68.54 5.00 330.70 2991.64
   23:21:10.555.08-May-2021 4549.51 3248.47 68.54 5.00 330.90 2991.64
   23:21:10.755.08-May-2021 4549.51 3248.47 68.54 5.00 331.10 2991.64
   23:21:10.955.08-May-2021 4549.51 3248.46 68.54 5.00 331.30 2991.64
   23:21:11.155.08-May-2021 4549.51 3248.50 68.54 5.00 331.50 2991.64
   23:21:11.355.08-May-2021 4549.51 3248.52 68.54 5.00 331.70 2991.64
   23:21:11.555.08-May-2021 4549.51 3248.42 68.54 5.00 331.90 2991.64
   23:21:11.755.08-May-2021 4549.51 3248.42 68.54 5.00 332.10 2991.64
   23:21:11.955.08-May-2021 4549.51 3248.47 68.54 5.00 332.30 2991.64
   23:21:12.155.08-May-2021 4549.51 3248.52 68.54 5.00 332.50 2991.64
   23:21:12.355.08-May-2021 4549.51 3248.45 68.54 5.00 332.70 2991.64
   23:21:12.555.08-May-2021 4549.51 3248.53 68.54 5.00 332.90 2991.64
   23:21:12.755.08-May-2021 4549.51 3248.53 68.54 5.00 333.10 2991.64
   23:21:12.955.08-May-2021 4549.51 3248.43 68.54 5.00 333.30 2991.64
   23:21:13.154.08-May-2021 4549.51 3248.58 68.54 5.00 333.50 2991.64
   23:21:13.354.08-May-2021 4549.51 3248.46 68.54 5.00 333.70 2991.64
   23:21:13.554.08-May-2021 4549.51 3248.50 68.54 5.00 333.90 2991.64
   23:21:13.754.08-May-2021 4549.51 3248.50 68.54 5.00 334.10 2991.64
   23:21:13.954.08-May-2021 4549.51 3248.50 68.54 5.00 334.30 2991.64
   23:21:14.154.08-May-2021 4549.51 3248.51 68.54 5.00 334.50 2991.64
   23:21:14.354.08-May-2021 4549.51 3248.50 68.54 5.00 334.70 2991.64
   23:21:14.554.08-May-2021 4549.51 3248.49 68.54 5.00 334.90 2991.64
   23:21:14.754.08-May-2021 4549.51 3248.49 68.54 5.00 335.10 2991.64
   23:21:14.954.08-May-2021 4549.51 3248.50 68.54 5.00 335.30 2991.64
   23:21:15.154.08-May-2021 4549.51 3248.50 68.54 5.00 335.50 2991.64
   23:21:15.354.08-May-2021 4549.51 3248.50 68.54 5.00 335.70 2991.64
   23:21:15.554.08-May-2021 4549.51 3248.42 68.54 5.00 335.90 2991.64
   23:21:15.754.08-May-2021 4549.51 3248.42 68.54 5.00 336.10 2991.64
   23:21:15.954.08-May-2021 4549.51 3248.46 68.54 5.00 336.30 2991.64
   23:21:16.154.08-May-2021 4549.51 3248.51 68.54 5.00 336.50 2991.64
   23:21:16.353.08-May-2021 4549.51 3248.50 68.54 5.00 336.70 2991.64
   23:21:16.553.08-May-2021 4549.51 3248.50 68.54 5.00 336.90 2991.64
   23:21:16.753.08-May-2021 4549.51 3248.50 68.54 5.00 337.09 2991.64
   23:21:16.953.08-May-2021 4549.51 3248.49 68.54 5.00 337.29 2991.64
   23:21:17.153.08-May-2021 4549.51 3248.50 68.54 5.00 337.49 2991.64
   23:21:17.353.08-May-2021 4549.51 3248.50 68.54 5.00 337.69 2991.64
   23:21:17.553.08-May-2021 4549.51 3248.49 68.54 5.00 337.89 2991.64
   23:21:17.753.08-May-2021 4549.51 3248.49 68.54 5.00 338.09 2991.64
   23:21:17.953.08-May-2021 4549.51 3248.49 68.54 5.00 338.29 2991.64
   23:21:18.153.08-May-2021 4549.51 3248.43 68.54 5.00 338.49 2991.64
   23:21:18.353.08-May-2021 4549.51 3248.57 68.54 5.00 338.69 2991.64
   23:21:18.553.08-May-2021 4549.51 3248.46 68.54 5.00 338.89 2991.64
   23:21:18.753.08-May-2021 4549.51 3248.46 68.54 5.00 339.09 2991.64
   23:21:18.953.08-May-2021 4549.51 3248.49 68.53 5.00 339.29 2991.64
   23:21:19.153.08-May-2021 4549.51 3248.50 68.54 5.00 339.49 2991.64
   23:21:19.353.08-May-2021 4549.51 3248.54 68.53 5.00 339.69 2991.64
   23:21:19.552.08-May-2021 4549.51 3248.44 68.53 5.00 339.89 2991.64
   23:21:19.752.08-May-2021 4549.51 3248.44 68.53 5.00 340.09 2991.64
   23:21:19.952.08-May-2021 4549.51 3248.45 68.53 5.00 340.29 2991.64
   23:21:20.152.08-May-2021 4549.51 3248.47 68.53 5.00 340.49 2991.64
   23:21:20.352.08-May-2021 4549.51 3248.48 68.53 5.00 340.69 2991.64
   23:21:20.552.08-May-2021 4549.51 3248.49 68.53 5.00 340.89 2991.64
   23:21:20.752.08-May-2021 4549.51 3248.49 68.53 5.00 341.09 2991.64
   23:21:20.952.08-May-2021 4549.51 3248.41 68.53 5.00 341.29 2991.64
   23:21:21.152.08-May-2021 4549.51 3248.49 68.53 5.00 341.49 2991.64
   23:21:21.352.08-May-2021 4549.51 3248.47 68.53 5.00 341.69 2991.64
   23:21:21.552.08-May-2021 4549.51 3248.49 68.53 5.00 341.89 2991.64
   23:21:21.752.08-May-2021 4549.51 3248.49 68.53 5.00 342.09 2991.64
   23:21:21.952.08-May-2021 4549.51 3248.49 68.53 5.00 342.29 2991.64
   23:21:22.152.08-May-2021 4549.51 3248.49 68.53 5.00 342.49 2991.64
   23:21:22.352.08-May-2021 4549.51 3248.49 68.53 5.00 342.69 2991.64
   23:21:22.552.08-May-2021 4549.51 3248.49 68.53 5.00 342.89 2991.64
   23:21:22.751.08-May-2021 4549.51 3248.49 68.53 5.00 343.09 2991.64
   23:21:22.951.08-May-2021 4549.51 3248.49 68.53 5.00 343.29 2991.64
   23:21:23.151.08-May-2021 4549.51 3248.49 68.53 5.00 343.49 2991.64
   23:21:23.351.08-May-2021 4549.51 3248.56 68.53 5.00 343.69 2991.64
   23:21:23.551.08-May-2021 4549.51 3248.45 68.53 5.00 343.89 2991.64
   23:21:23.751.08-May-2021 4549.51 3248.45 68.53 5.00 344.09 2991.64
   23:21:23.951.08-May-2021 4549.51 3248.45 68.53 5.00 344.29 2991.64
   23:21:24.151.08-May-2021 4549.51 3248.49 68.53 5.00 344.49 2991.64
   23:21:24.351.08-May-2021 4549.51 3248.49 68.53 5.00 344.69 2991.64
