~Version Information
 VERS.                  2.0:   CWLS log ASCII Standard -VERSION 2.0
 WRAP.                   NO:   One line per depth step
~Well Information Block
#MNEM.UNIT     VALUE/NAME     DESCRIPTION
#---------     -----------    ---------------------------
 STRT.S             01:50:25 10-May-21: START TIME 01:50:25 10-May-21
 STOP.S             01:58:33 10-May-21: STOP TIME  01:58:33 10-May-21
 STEP.S                   0.00: STEP TIME
 NULL.                 -999.25: NULL VALUE
 PROV.                    Baku:  PROVINCE
 STAT.                    Baku:  STATE NAME
 SON .        AZ-XX-0906571588:  JOB NUMBER
 WTYP.                Deviated:  WELL TYPE
 COMP.     BP Exploration (Caspian Sea) ltd:  COMPANY
 BASE.              Azerbaijan:  LOGGING EQUIPMENT BASE LOCATION
 REGN.                   EESSA:  REGION
 CTRY.              Azerbaijan:  COUNTRY NAME
 FLD .                     ACG:  FIELD NAME
 WELL.                     J28:  WELL NAME
 RIG .             West Chirag:  RIG NAME
 DMF .             Drill Floor:  DRILL MEAS FROM
 PDAT.       Caspian Sea Level:  PERMANENT DATUM
 HPTY.       Minimum Curvature:  HOLE POS TYPE
 MDS .        Operator Entered:  MAG DATA SOURCE
 NREF.                    Grid:  NORTH REFERENCE
 SRVC.          TURAN DRILLING:  CONTRACTOR
 JOBN.        AZ-XX-0906571588:  JOB TICKET NUMB
 DCON.     Halliburton Sperry Drilling:  DIRECTNL CONTR
 STIM.      00.44.00 11-Feb-21:  START TIME
 DATE.      00.00.00 05-May-21:  END TIME
 SPUD.               13-Feb-21:  SPUD DATE
 MWDS.                    Baku:  MWD SHOP
 DOE .                     N/A:  DOE NUMBER
 UNIT.                     N/A:  LOGGING EQUIPMENT ID
 UWI .                     N/A:  UNIQUE WELL IDENTIFIER
 API .                     N/A:  API NUMBER
 CNTY.                        :  COUNTY
 LOC .                        :  LOCATION
 LMF .             Drill Floor:  LOG MEASURED FROM
 TVDS.m                  43.00:  TVDSS CORRECTN
 SDEP.m                 341.00:  START DEPTH
 EGL .m                   0.00:  GROUND ELEVATION
 WDMS.m                 169.80:  WD ELEV
 AGAP.m                  43.00:  AIR GAP
 EPD .m                   0.00:  ELEVATION
 APD .m                  43.00:  DEPTH ABOVE PD
 LATI.deg                40.13:  LATITUDE
 LONG.deg                51.22:  LONGITUDE
 UTMY.m             4443793.85:  UTM Y
 UTMX.m              519005.06:  UTM X
 WHEW.m                 -11.57:  WELL HEAD E/W
 WHNS.m                   8.57:  WELL HEAD N/S
 VSEW.m                 -11.57:  VERT SEC E/W
 VSNS.m                   8.57:  VERT SEC N/S
 DFWL.m                   0.00:  DISTANCE FWL
 DFSL.m                   0.00:  DISTANCE FSL
 VSDR.deg               299.34:  VERT SEC DIRECT
 GVFD.g                   1.00:  GRAVITY FIELD
 AZTC.deg                 6.36:  AZM TOTAL CORR
 MFLD.nT              50391.00:  MAGNETIC FIELD
 MDIP.deg                59.65:  MAGNETIC DIP
 MDEC.deg                 6.48:  MAGNETIC DECL
 GRDC.deg                 0.12:  GRID CORRECTION
 DEP .m                 334.96:  DEPTH
 TDD .m                1407.26:  TOTAL DEPTH (DRILLER)
 EKB .m                  43.00:  KB ELEVATION
 EDF .m                  43.00:  DF ELEVATION
 TDL .m                 228.00:  TOTAL DEPTH (LOGGER)
 VSC .                       0:  VS TO CLOSURE
 MAGU.                 1854484:  MAGUTM CHECKSUM
~Parameter Information Block
#MNEM.UNIT       Value        Description
#---------     -----------    ---------------------------
 AV  .mps                 4.00:  Ann Velocity 
 AVMX.mps                 4.73:  Max Ann Veloc 
 AZIF.deg               304.48:  Azm, Final 
 BHAT.        Rotary Steerable:  BHA Type 
 BREV.rev            257300.00:  Rev Bit Total 
 BROT.°/30m               0.00:  Build Rotating 
 BS  .in                  8.50:  Bit Size 
 BSZ .in                  8.50:  Bit Size 
 BTPL.psig              589.00:  Bit Press Loss 
 CABU.                      No:  Customer Abuse 
 CGEO.          Mubariz ghayev:  Customer Geo 
 COMM.                     Í‚:  Run Comments 1 
 TCS .hr                 64.25:  Time Ciculation Ended 
 CV  .mps                 3.50:  Crit Velocity 
 CVMX.mps                 4.52:  Max Crit Veloc 
 DD1 .             Aziz Aliyev:  Direct Drillr 1 
 DD2 .         Intigam Rahimov:  Direct Drillr 2 
 DD3 .          Rashad Habibov:  Direct Drillr 3 
 DDSV.               Geo-Pilot:  DD Service 
 DEFF.%                  98.00:  % Det Eff 
 DLRX.°/30m               0.00:  Dogleg Rot Max 
 DLSO.°/30m               0.00:  Dogleg Oriented 
 DLSX.°/30m               0.00:  Dogleg Str Max 
 DRET.      10.45.04 08-May-21:  Drill End Time 
 DRST.      03.30.04 04-May-21:  Drill Start Tim 
 DTIM.hr                 14.97:  Time Drilling 
 EDEP.m                4640.01:  End Depth 
 ENG1.         Dail Mahammadov:  Engineer 1 
 ENG2.           Eldar Hajiyev:  Engineer 2 
 ENG3.       Bakhtiar Jabbarli:  Engineer 3 
 ENG4.       Natik Hasanagayev:  Engineer 4 
 ETIM.      09.30.04 14-May-21:  End Time 
 FLOI.gpm               460.00:  Flow In 
 FLON.gpm               200.00:  Flow In Min 
 FLOS.cptm                0.00:  Fluid Loss 
 FLOX.gpm               505.00:  Flow In Max 
 HFLO.                      No:  High Flow 
 HPRE.                      No:  High Pressure 
 HTEM.                      No:  High Temp 
 HYDO.m                   1.80:  Hydro Offset 
 IFIN.deg                66.71:  Inc, Final 
 IMAX.deg                67.03:  Inc Max 
 IMIN.deg                66.63:  Inc Min 
 IMND.m                4550.58:  Inc Min Depth 
 IMXD.m                4439.01:  Inc Max Depth 
 JARR.                      No:  Jarring 
 LETM.      10.45.04 08-May-21:  Log End Time 
 LOST.hr                     0:  Lost Rig Time 
 LSTM.      03.30.04 04-May-21:  Log Start Time 
 MDCL.ppm             37000.00:  Mud Chlorides 
 MDES.     Inversion Oil/Synthetic:  Mud Desc 
 DFD .sg                  1.38:  Mud Density 
 MDMN.sg                  1.35:  Dens Mud Min 
 MDMX.sg                  1.40:  Dens Mud Max 
 MOIL.                   57.40:  Run Mud Oil % 
 MOWR.                   70:30:  Run Mud OWR 
 MSND.                    0.00:  Run Mud Sand % 
 MSOL.                   18.00:  Run Mud Solids% 
 DFV .spqt               71.00:  Mud Viscosity 
 MWOD.in                  6.75:  MWD Tool OD 
 MWSI.                      No:  Serv Intrp, MWD 
 OTIM.hr                242.76:  Time Operating 
 PCON.           Look Like New:  Pad Condition 
 PMAX.psia            12183.92:  Press Op, Max 
 PV  .cP                 27.00:  Mud PV 
 RUN .                    1300:  Run Number 
 ROPA.m/hr               15.00:  ROP Avg 
 ROPN.m/hr                9.00:  ROP Min 
 ROPX.m/hr               19.00:  ROP Max 
 RPMA.rpm               120.00:  RPM Surface Avg 
 RPMN.rpm               100.00:  RPM Surface Min 
 RPMX.rpm               120.00:  RPM Surface Max 
 RRUN.                    1300:  Rig Run Number 
 RTIM.hr                  5.00:  Time Reaming 
 SAZI.deg               304.73:  Azm, Start 
 SDEP.m                4412.01:  Start Depth 
 SIDD.                      No:  Serv Intrp, DD 
 SINC.deg                66.82:  Inc, Start 
 SPPA.psig             2800.00:  SPP Avg 
 SPPN.psig             2610.00:  SPP Min 
 SPPX.psig             3100.00:  SPP Max 
 STIM.      03.30.00 04-May-21:  Start Time 
 SVCS.                 DD, MWD:  Services 
 SVER.                    9.20:  Sperry Version 
 TDAT.m                 228.00:  Tot Depth Attmp 
 TDDF.                      No:  Trip for DD 
 TDLG.m                 228.00:  Tot Depth Loggd 
 TFF .                      No:  Trip for Fail 
 TQAA.f-kp               15.00:  Torque Abs Avg 
 TQAN.f-kp               12.00:  Torque Abs Min 
 TQAX.f-kp               22.00:  Torque Abs Max 
 TRRT.°/30m               0.00:  Turn Rotating 
 MRT .                    HCIM:  Maximum Recorded Temperature 
 TTMX.degC               90.20:  Max Tool Temp 
 VS01.                90627813:  Virtual Str1 SN 
 VS02.                90634712:  Virtual Str2 SN 
 VS03.                90643410:  Virtual Str3 SN 
 VS04.                90634712:  Virtual Str4 SN 
 WBMN.klb                 9.00:  WOB Min 
 WITN.        Elmaddin Rahimov:  Customer Rep 
 WITN.         Haytham Mostafa:  Customer Rep 2 
 WOBA.klb                15.00:  WOB Avg 
 WOBX.klb                23.00:  WOB Max 
 YP  .lhf2               29.00:  Yield Point 
~Curve Information Block
#MNEM.UNIT                 API CODE     Curve Description
#---------               -----------    ---------------------------
 TIME.HHMMSS            00 000 000 000:  GT Time & Date
 GTDEPTH.m              00 000 000 000:  GT Depth
 GTPQH.psia             00 000 000 000:  GT HR Quartz Pressure
 GTTQ.degC              00 000 000 000:  GT Quartz Temperature
 GTTN.NONE              00 000 000 000:  GT Test Number
 GTET.sec               00 000 000 000:  GT Elapsed Test Time
 GTTVD.m                00 000 000 000:  GT True Vertical Depth
#Other Information
#
#WARRANTY: Halliburton will use its best efforts to furnish customers with 
#accurate information and interpretations that are part of, and incident to, the services 
#provided.  However, Halliburton cannot and does not warrant the accuracy 
#or correctness of such information and interpretations.  Under no circumstances should any 
#such information or interpretation be relied upon as the sole basis for any drilling, 
#completion, production, or financial decision or any procedure involving any risk to the 
#safety of any drilling venture, drilling rig or its crew or any other third party.  The 
#Customer has full responsibility for all drilling, completion and production operation.  
#Halliburton makes no representations or warranties, either expressed or 
#implied, including, but not limited to, the implied warranties of merchantability or fitness 
#for a particular purpose, with respect to the services rendered.  In no event will 
#Halliburton be liable for failure to obtain any particular results or for 
#any damages, including, but not limited to, indirect, special or consequential damages, 
#resulting from the use of any information or interpretation provided by Halliburton.
#
~A           TIME           GTDEPTH  GTPQH  GTTQ  GTTN   GTET   GTTVD  
# ...
   01:54:11.381.10-May-2021 4567.51  494.18 60.98 19.00 226.04 2998.78
   01:54:11.581.10-May-2021 4567.51  494.18 60.98 19.00 226.24 2998.78
   01:54:11.781.10-May-2021 4567.51  494.26 60.98 19.00 226.44 2998.78
   01:54:11.981.10-May-2021 4567.51  494.26 60.98 19.00 226.64 2998.78
   01:54:12.181.10-May-2021 4567.51  493.92 60.98 19.00 226.84 2998.78
   01:54:12.381.10-May-2021 4567.51  494.28 60.98 19.00 227.04 2998.78
   01:54:12.581.10-May-2021 4567.51  494.28 60.98 19.00 227.24 2998.78
   01:54:12.782.10-May-2021 4567.51  494.39 60.98 19.00 227.44 2998.78
   01:54:12.982.10-May-2021 4567.51  494.35 60.98 19.00 227.64 2998.78
   01:54:13.182.10-May-2021 4567.51  494.37 60.98 19.00 227.84 2998.78
   01:54:13.382.10-May-2021 4567.51  494.38 60.98 19.00 228.04 2998.78
   01:54:13.582.10-May-2021 4567.51  494.38 60.98 19.00 228.24 2998.78
   01:54:13.782.10-May-2021 4567.51  494.44 60.98 19.00 228.44 2998.78
   01:54:13.982.10-May-2021 4567.51  494.45 60.98 19.00 228.64 2998.78
   01:54:14.182.10-May-2021 4567.51  494.51 60.98 19.00 228.84 2998.78
   01:54:14.382.10-May-2021 4567.51  494.56 60.98 19.00 229.04 2998.78
   01:54:14.582.10-May-2021 4567.51  494.56 60.98 19.00 229.24 2998.78
   01:54:14.782.10-May-2021 4567.51  494.18 60.98 19.00 229.44 2998.78
   01:54:14.982.10-May-2021 4567.51  494.84 60.98 19.00 229.64 2998.78
   01:54:15.182.10-May-2021 4567.51  494.60 60.98 19.00 229.84 2998.78
   01:54:15.382.10-May-2021 4567.51  494.71 60.98 19.00 230.04 2998.78
   01:54:15.582.10-May-2021 4567.51  494.71 60.98 19.00 230.24 2998.78
   01:54:15.782.10-May-2021 4567.51  494.72 60.98 19.00 230.44 2998.78
   01:54:15.982.10-May-2021 4567.51  494.75 60.98 19.00 230.64 2998.78
   01:54:16.182.10-May-2021 4567.51  494.76 60.98 19.00 230.84 2998.78
   01:54:16.382.10-May-2021 4567.51  494.78 60.98 19.00 231.04 2998.78
   01:54:16.582.10-May-2021 4567.51  494.78 60.98 19.00 231.24 2998.78
   01:54:16.782.10-May-2021 4567.51  494.86 60.98 19.00 231.44 2998.78
   01:54:16.982.10-May-2021 4567.51  494.90 60.98 19.00 231.64 2998.78
   01:54:17.182.10-May-2021 4567.51  494.86 60.98 19.00 231.84 2998.78
   01:54:17.382.10-May-2021 4567.51  494.54 60.98 19.00 232.04 2998.78
   01:54:17.582.10-May-2021 4567.51  494.54 60.98 19.00 232.24 2998.78
   01:54:17.782.10-May-2021 4567.51  494.99 60.98 19.00 232.44 2998.78
   01:54:17.982.10-May-2021 4567.51  495.01 60.98 19.00 232.64 2998.78
   01:54:18.182.10-May-2021 4567.51  495.10 60.98 19.00 232.84 2998.78
   01:54:18.383.10-May-2021 4567.51  494.87 60.98 19.00 233.04 2998.78
   01:54:18.583.10-May-2021 4567.51  494.87 60.98 19.00 233.24 2998.78
   01:54:18.783.10-May-2021 4567.51  495.27 60.98 19.00 233.44 2998.78
   01:54:18.983.10-May-2021 4567.51  495.19 60.98 19.00 233.64 2998.78
   01:54:19.183.10-May-2021 4567.51  495.19 60.98 19.00 233.84 2998.78
   01:54:19.383.10-May-2021 4567.51  495.17 60.98 19.00 234.04 2998.78
   01:54:19.583.10-May-2021 4567.51  495.17 60.98 19.00 234.24 2998.78
   01:54:19.783.10-May-2021 4567.51  495.41 60.98 19.00 234.44 2998.78
   01:54:19.983.10-May-2021 4567.51  495.25 60.98 19.00 234.64 2998.78
   01:54:20.183.10-May-2021 4567.51  495.27 60.98 19.00 234.84 2998.78
   01:54:20.383.10-May-2021 4567.51  495.35 60.98 19.00 235.04 2998.78
   01:54:20.583.10-May-2021 4567.51  495.35 60.98 19.00 235.24 2998.78
   01:54:20.783.10-May-2021 4567.51  495.34 60.98 19.00 235.44 2998.78
   01:54:20.983.10-May-2021 4567.51  495.37 60.98 19.00 235.64 2998.78
   01:54:21.183.10-May-2021 4567.51  495.44 60.98 19.00 235.84 2998.78
   01:54:21.383.10-May-2021 4567.51  495.39 60.98 19.00 236.04 2998.78
   01:54:21.583.10-May-2021 4567.51  495.39 60.98 19.00 236.24 2998.78
   01:54:21.783.10-May-2021 4567.51  495.41 60.98 19.00 236.44 2998.78
   01:54:21.983.10-May-2021 4567.51  495.43 60.98 19.00 236.64 2998.78
   01:54:22.183.10-May-2021 4567.51  495.45 60.98 19.00 236.84 2998.78
   01:54:22.383.10-May-2021 4567.51  495.49 60.98 19.00 237.04 2998.78
   01:54:22.583.10-May-2021 4567.51  495.49 60.98 19.00 237.24 2998.78
   01:54:22.783.10-May-2021 4567.51  495.56 60.98 19.00 237.44 2998.78
   01:54:22.983.10-May-2021 4567.51  495.57 60.98 19.00 237.64 2998.78
   01:54:23.183.10-May-2021 4567.51  495.19 60.98 19.00 237.84 2998.78
   01:54:23.383.10-May-2021 4567.51  495.83 60.98 19.00 238.04 2998.78
   01:54:23.583.10-May-2021 4567.51  495.83 60.98 19.00 238.24 2998.78
   01:54:23.783.10-May-2021 4567.51  495.70 60.98 19.00 238.44 2998.78
   01:54:23.984.10-May-2021 4567.51  495.70 60.98 19.00 238.64 2998.78
   01:54:24.184.10-May-2021 4567.51  495.68 60.97 19.00 238.84 2998.78
   01:54:24.384.10-May-2021 4567.51  495.73 60.97 19.00 239.04 2998.78
   01:54:24.584.10-May-2021 4567.51  495.73 60.97 19.00 239.24 2998.78
   01:54:24.784.10-May-2021 4567.51  495.75 60.97 19.00 239.44 2998.78
   01:54:24.984.10-May-2021 4567.51  495.77 60.97 19.00 239.64 2998.78
   01:54:25.184.10-May-2021 4567.51  495.82 60.97 19.00 239.84 2998.78
   01:54:25.384.10-May-2021 4567.51  495.86 60.97 19.00 240.04 2998.78
   01:54:25.584.10-May-2021 4567.51  495.86 60.97 19.00 240.24 2998.78
   01:54:25.784.10-May-2021 4567.51  495.49 60.97 19.00 240.44 2998.78
   01:54:25.984.10-May-2021 4567.51  496.09 60.97 19.00 240.64 2998.78
   01:54:26.184.10-May-2021 4567.51  495.94 60.97 19.00 240.84 2998.78
   01:54:26.384.10-May-2021 4567.51  495.96 60.97 19.00 241.04 2998.78
   01:54:26.584.10-May-2021 4567.51  495.96 60.97 19.00 241.24 2998.78
   01:54:26.784.10-May-2021 4567.51  495.95 60.97 19.00 241.44 2998.78
   01:54:26.984.10-May-2021 4567.51  495.64 60.97 19.00 241.64 2998.78
   01:54:27.184.10-May-2021 4567.51  496.23 60.97 19.00 241.84 2998.78
   01:54:27.384.10-May-2021 4567.51  496.09 60.97 19.00 242.04 2998.78
   01:54:27.584.10-May-2021 4567.51  496.09 60.97 19.00 242.24 2998.78
   01:54:27.784.10-May-2021 4567.51  496.13 60.97 19.00 242.44 2998.78
   01:54:27.984.10-May-2021 4567.51  495.71 60.97 19.00 242.64 2998.78
   01:54:28.184.10-May-2021 4567.51  496.34 60.97 19.00 242.84 2998.78
   01:54:28.384.10-May-2021 4567.51  496.16 60.97 19.00 243.04 2998.78
   01:54:28.584.10-May-2021 4567.51  496.16 60.97 19.00 243.24 2998.78
   01:54:28.784.10-May-2021 4567.51  496.26 60.97 19.00 243.44 2998.78
   01:54:28.984.10-May-2021 4567.51  495.83 60.97 19.00 243.64 2998.78
   01:54:29.184.10-May-2021 4567.51  496.47 60.97 19.00 243.84 2998.78
   01:54:29.384.10-May-2021 4567.51  496.21 60.97 19.00 244.04 2998.78
   01:54:29.585.10-May-2021 4567.51  496.21 60.97 19.00 244.24 2998.78
   01:54:29.785.10-May-2021 4567.51  496.30 60.97 19.00 244.44 2998.78
   01:54:29.985.10-May-2021 4567.51  496.30 60.97 19.00 244.64 2998.78
   01:54:30.185.10-May-2021 4567.51  496.32 60.97 19.00 244.84 2998.78
   01:54:30.385.10-May-2021 4567.51  496.33 60.97 19.00 245.04 2998.78
   01:54:30.585.10-May-2021 4567.51  496.33 60.97 19.00 245.24 2998.78
   01:54:30.785.10-May-2021 4567.51  496.38 60.97 19.00 245.44 2998.78
   01:54:30.985.10-May-2021 4567.51  496.41 60.97 19.00 245.64 2998.78
   01:54:31.185.10-May-2021 4567.51  496.45 60.97 19.00 245.84 2998.78
   01:54:31.385.10-May-2021 4567.51  496.30 60.97 19.00 246.04 2998.78
   01:54:31.585.10-May-2021 4567.51  496.30 60.97 19.00 246.24 2998.78
   01:54:31.785.10-May-2021 4567.51  496.64 60.97 19.00 246.44 2998.78
   01:54:31.985.10-May-2021 4567.51  496.56 60.97 19.00 246.64 2998.78
   01:54:32.185.10-May-2021 4567.51  496.52 60.97 19.00 246.84 2998.78
   01:54:32.385.10-May-2021 4567.51  496.57 60.97 19.00 247.04 2998.78
   01:54:32.585.10-May-2021 4567.51  496.57 60.97 19.00 247.24 2998.78
   01:54:32.785.10-May-2021 4567.51  496.57 60.97 19.00 247.44 2998.78
   01:54:32.985.10-May-2021 4567.51  496.57 60.97 19.00 247.64 2998.78
   01:54:33.185.10-May-2021 4567.51  496.60 60.97 19.00 247.84 2998.78
   01:54:33.385.10-May-2021 4567.51  496.60 60.97 19.00 248.04 2998.78
   01:54:33.585.10-May-2021 4567.51  496.60 60.97 19.00 248.24 2998.78
   01:54:33.785.10-May-2021 4567.51  496.68 60.97 19.00 248.44 2998.78
