~Version Information
 VERS.                  2.0:   CWLS log ASCII Standard -VERSION 2.0
 WRAP.                   NO:   One line per depth step
~Well Information Block
#MNEM.UNIT     VALUE/NAME     DESCRIPTION
#---------     -----------    ---------------------------
 STRT.S             20:19:26 08-May-21: START TIME 20:19:26 08-May-21
 STOP.S             20:26:06 08-May-21: STOP TIME  20:26:06 08-May-21
 STEP.S                   0.00: STEP TIME
 NULL.                 -999.25: NULL VALUE
 PROV.                    Baku:  PROVINCE
 STAT.                    Baku:  STATE NAME
 SON .        AZ-XX-0906571588:  JOB NUMBER
 WTYP.                Deviated:  WELL TYPE
 COMP.     BP Exploration (Caspian Sea) ltd:  COMPANY
 BASE.              Azerbaijan:  LOGGING EQUIPMENT BASE LOCATION
 REGN.                   EESSA:  REGION
 CTRY.              Azerbaijan:  COUNTRY NAME
 FLD .                     ACG:  FIELD NAME
 WELL.                     J28:  WELL NAME
 RIG .             West Chirag:  RIG NAME
 DMF .             Drill Floor:  DRILL MEAS FROM
 PDAT.       Caspian Sea Level:  PERMANENT DATUM
 HPTY.       Minimum Curvature:  HOLE POS TYPE
 MDS .        Operator Entered:  MAG DATA SOURCE
 NREF.                    Grid:  NORTH REFERENCE
 SRVC.          TURAN DRILLING:  CONTRACTOR
 JOBN.        AZ-XX-0906571588:  JOB TICKET NUMB
 DCON.     Halliburton Sperry Drilling:  DIRECTNL CONTR
 STIM.      00.44.00 11-Feb-21:  START TIME
 DATE.      00.00.00 05-May-21:  END TIME
 SPUD.               13-Feb-21:  SPUD DATE
 MWDS.                    Baku:  MWD SHOP
 DOE .                     N/A:  DOE NUMBER
 UNIT.                     N/A:  LOGGING EQUIPMENT ID
 UWI .                     N/A:  UNIQUE WELL IDENTIFIER
 API .                     N/A:  API NUMBER
 CNTY.                        :  COUNTY
 LOC .                        :  LOCATION
 LMF .             Drill Floor:  LOG MEASURED FROM
 TVDS.m                  43.00:  TVDSS CORRECTN
 SDEP.m                 341.00:  START DEPTH
 EGL .m                   0.00:  GROUND ELEVATION
 WDMS.m                 169.80:  WD ELEV
 AGAP.m                  43.00:  AIR GAP
 EPD .m                   0.00:  ELEVATION
 APD .m                  43.00:  DEPTH ABOVE PD
 LATI.deg                40.13:  LATITUDE
 LONG.deg                51.22:  LONGITUDE
 UTMY.m             4443793.85:  UTM Y
 UTMX.m              519005.06:  UTM X
 WHEW.m                 -11.57:  WELL HEAD E/W
 WHNS.m                   8.57:  WELL HEAD N/S
 VSEW.m                 -11.57:  VERT SEC E/W
 VSNS.m                   8.57:  VERT SEC N/S
 DFWL.m                   0.00:  DISTANCE FWL
 DFSL.m                   0.00:  DISTANCE FSL
 VSDR.deg               299.34:  VERT SEC DIRECT
 GVFD.g                   1.00:  GRAVITY FIELD
 AZTC.deg                 6.36:  AZM TOTAL CORR
 MFLD.nT              50391.00:  MAGNETIC FIELD
 MDIP.deg                59.65:  MAGNETIC DIP
 MDEC.deg                 6.48:  MAGNETIC DECL
 GRDC.deg                 0.12:  GRID CORRECTION
 DEP .m                 334.96:  DEPTH
 TDD .m                1407.26:  TOTAL DEPTH (DRILLER)
 EKB .m                  43.00:  KB ELEVATION
 EDF .m                  43.00:  DF ELEVATION
 TDL .m                 228.00:  TOTAL DEPTH (LOGGER)
 VSC .                       0:  VS TO CLOSURE
 MAGU.                 1854484:  MAGUTM CHECKSUM
~Parameter Information Block
#MNEM.UNIT       Value        Description
#---------     -----------    ---------------------------
 AV  .mps                 4.00:  Ann Velocity 
 AVMX.mps                 4.73:  Max Ann Veloc 
 AZIF.deg               304.48:  Azm, Final 
 BHAT.        Rotary Steerable:  BHA Type 
 BREV.rev            257300.00:  Rev Bit Total 
 BROT.°/30m               0.00:  Build Rotating 
 BS  .in                  8.50:  Bit Size 
 BSZ .in                  8.50:  Bit Size 
 BTPL.psig              589.00:  Bit Press Loss 
 CABU.                      No:  Customer Abuse 
 CGEO.          Mubariz ghayev:  Customer Geo 
 COMM.                     $w`:  Run Comments 1 
 TCS .hr                 64.25:  Time Ciculation Ended 
 CV  .mps                 3.50:  Crit Velocity 
 CVMX.mps                 4.52:  Max Crit Veloc 
 DD1 .             Aziz Aliyev:  Direct Drillr 1 
 DD2 .         Intigam Rahimov:  Direct Drillr 2 
 DD3 .          Rashad Habibov:  Direct Drillr 3 
 DDSV.               Geo-Pilot:  DD Service 
 DEFF.%                  98.00:  % Det Eff 
 DLRX.°/30m               0.00:  Dogleg Rot Max 
 DLSO.°/30m               0.00:  Dogleg Oriented 
 DLSX.°/30m               0.00:  Dogleg Str Max 
 DRET.      10.45.04 08-May-21:  Drill End Time 
 DRST.      03.30.04 04-May-21:  Drill Start Tim 
 DTIM.hr                 14.97:  Time Drilling 
 EDEP.m                4640.01:  End Depth 
 ENG1.         Dail Mahammadov:  Engineer 1 
 ENG2.           Eldar Hajiyev:  Engineer 2 
 ENG3.       Bakhtiar Jabbarli:  Engineer 3 
 ENG4.       Natik Hasanagayev:  Engineer 4 
 ETIM.      09.30.04 14-May-21:  End Time 
 FLOI.gpm               460.00:  Flow In 
 FLON.gpm               200.00:  Flow In Min 
 FLOS.cptm                0.00:  Fluid Loss 
 FLOX.gpm               505.00:  Flow In Max 
 HFLO.                      No:  High Flow 
 HPRE.                      No:  High Pressure 
 HTEM.                      No:  High Temp 
 HYDO.m                   1.80:  Hydro Offset 
 IFIN.deg                66.71:  Inc, Final 
 IMAX.deg                67.03:  Inc Max 
 IMIN.deg                66.63:  Inc Min 
 IMND.m                4550.58:  Inc Min Depth 
 IMXD.m                4439.01:  Inc Max Depth 
 JARR.                      No:  Jarring 
 LETM.      10.45.04 08-May-21:  Log End Time 
 LOST.hr                     0:  Lost Rig Time 
 LSTM.      03.30.04 04-May-21:  Log Start Time 
 MDCL.ppm             37000.00:  Mud Chlorides 
 MDES.     Inversion Oil/Synthetic:  Mud Desc 
 DFD .sg                  1.38:  Mud Density 
 MDMN.sg                  1.35:  Dens Mud Min 
 MDMX.sg                  1.40:  Dens Mud Max 
 MOIL.                   57.40:  Run Mud Oil % 
 MOWR.                   70:30:  Run Mud OWR 
 MSND.                    0.00:  Run Mud Sand % 
 MSOL.                   18.00:  Run Mud Solids% 
 DFV .spqt               71.00:  Mud Viscosity 
 MWOD.in                  6.75:  MWD Tool OD 
 MWSI.                      No:  Serv Intrp, MWD 
 OTIM.hr                242.76:  Time Operating 
 PCON.           Look Like New:  Pad Condition 
 PMAX.psia            12183.92:  Press Op, Max 
 PV  .cP                 27.00:  Mud PV 
 RUN .                    1300:  Run Number 
 ROPA.m/hr               15.00:  ROP Avg 
 ROPN.m/hr                9.00:  ROP Min 
 ROPX.m/hr               19.00:  ROP Max 
 RPMA.rpm               120.00:  RPM Surface Avg 
 RPMN.rpm               100.00:  RPM Surface Min 
 RPMX.rpm               120.00:  RPM Surface Max 
 RRUN.                    1300:  Rig Run Number 
 RTIM.hr                  5.00:  Time Reaming 
 SAZI.deg               304.73:  Azm, Start 
 SDEP.m                4412.01:  Start Depth 
 SIDD.                      No:  Serv Intrp, DD 
 SINC.deg                66.82:  Inc, Start 
 SPPA.psig             2800.00:  SPP Avg 
 SPPN.psig             2610.00:  SPP Min 
 SPPX.psig             3100.00:  SPP Max 
 STIM.      03.30.00 04-May-21:  Start Time 
 SVCS.                 DD, MWD:  Services 
 SVER.                    9.20:  Sperry Version 
 TDAT.m                 228.00:  Tot Depth Attmp 
 TDDF.                      No:  Trip for DD 
 TDLG.m                 228.00:  Tot Depth Loggd 
 TFF .                      No:  Trip for Fail 
 TQAA.f-kp               15.00:  Torque Abs Avg 
 TQAN.f-kp               12.00:  Torque Abs Min 
 TQAX.f-kp               22.00:  Torque Abs Max 
 TRRT.°/30m               0.00:  Turn Rotating 
 MRT .                    HCIM:  Maximum Recorded Temperature 
 TTMX.degC               90.20:  Max Tool Temp 
 VS01.                90627813:  Virtual Str1 SN 
 VS02.                90634712:  Virtual Str2 SN 
 VS03.                90643410:  Virtual Str3 SN 
 VS04.                90634712:  Virtual Str4 SN 
 WBMN.klb                 9.00:  WOB Min 
 WITN.        Elmaddin Rahimov:  Customer Rep 
 WITN.         Haytham Mostafa:  Customer Rep 2 
 WOBA.klb                15.00:  WOB Avg 
 WOBX.klb                23.00:  WOB Max 
 YP  .lhf2               29.00:  Yield Point 
~Curve Information Block
#MNEM.UNIT                 API CODE     Curve Description
#---------               -----------    ---------------------------
 TIME.HHMMSS            00 000 000 000:  GT Time & Date
 GTDEPTH.m              00 000 000 000:  GT Depth
 GTPQH.psia             00 000 000 000:  GT HR Quartz Pressure
 GTTQ.degC              00 000 000 000:  GT Quartz Temperature
 GTTN.NONE              00 000 000 000:  GT Test Number
 GTET.sec               00 000 000 000:  GT Elapsed Test Time
 GTTVD.m                00 000 000 000:  GT True Vertical Depth
#Other Information
#
#WARRANTY: Halliburton will use its best efforts to furnish customers with 
#accurate information and interpretations that are part of, and incident to, the services 
#provided.  However, Halliburton cannot and does not warrant the accuracy 
#or correctness of such information and interpretations.  Under no circumstances should any 
#such information or interpretation be relied upon as the sole basis for any drilling, 
#completion, production, or financial decision or any procedure involving any risk to the 
#safety of any drilling venture, drilling rig or its crew or any other third party.  The 
#Customer has full responsibility for all drilling, completion and production operation.  
#Halliburton makes no representations or warranties, either expressed or 
#implied, including, but not limited to, the implied warranties of merchantability or fitness 
#for a particular purpose, with respect to the services rendered.  In no event will 
#Halliburton be liable for failure to obtain any particular results or for 
#any damages, including, but not limited to, indirect, special or consequential damages, 
#resulting from the use of any information or interpretation provided by Halliburton.
#
~A           TIME           GTDEPTH  GTPQH  GTTQ  GTTN  GTET   GTTVD  
# ...
   20:24:25.569.08-May-2021 4592.01 3776.44 69.14 1.00 299.03 3008.50
   20:24:25.769.08-May-2021 4592.01 3776.44 69.14 1.00 299.23 3008.50
   20:24:25.969.08-May-2021 4592.01 3776.31 69.14 1.00 299.43 3008.50
   20:24:26.169.08-May-2021 4592.01 3776.39 69.14 1.00 299.63 3008.50
   20:24:26.369.08-May-2021 4592.01 3776.32 69.14 1.00 299.83 3008.50
   20:24:26.569.08-May-2021 4592.01 3776.37 69.14 1.00 300.03 3008.50
   20:24:26.769.08-May-2021 4592.01 3776.37 69.14 1.00 300.23 3008.50
   20:24:26.969.08-May-2021 4592.01 3776.41 69.14 1.00 300.43 3008.50
   20:24:27.169.08-May-2021 4592.01 3776.23 69.14 1.00 300.63 3008.50
   20:24:27.369.08-May-2021 4592.01 3776.69 69.14 1.00 300.83 3008.50
   20:24:27.569.08-May-2021 4592.01 3776.21 69.14 1.00 301.03 3008.50
   20:24:27.769.08-May-2021 4592.01 3776.21 69.14 1.00 301.23 3008.50
   20:24:27.969.08-May-2021 4592.01 3776.40 69.14 1.00 301.43 3008.50
   20:24:28.169.08-May-2021 4592.01 3776.31 69.14 1.00 301.63 3008.50
   20:24:28.369.08-May-2021 4592.01 3776.23 69.14 1.00 301.83 3008.50
   20:24:28.569.08-May-2021 4592.01 3776.47 69.14 1.00 302.03 3008.50
   20:24:28.769.08-May-2021 4592.01 3776.47 69.14 1.00 302.23 3008.50
   20:24:28.969.08-May-2021 4592.01 3776.27 69.14 1.00 302.43 3008.50
   20:24:29.169.08-May-2021 4592.01 3776.71 69.14 1.00 302.63 3008.50
   20:24:29.369.08-May-2021 4592.01 3775.91 69.14 1.00 302.83 3008.50
   20:24:29.569.08-May-2021 4592.01 3776.49 69.14 1.00 303.03 3008.50
   20:24:29.769.08-May-2021 4592.01 3776.49 69.14 1.00 303.23 3008.50
   20:24:29.969.08-May-2021 4592.01 3776.53 69.14 1.00 303.43 3008.50
   20:24:30.169.08-May-2021 4592.01 3776.22 69.14 1.00 303.63 3008.50
   20:24:30.369.08-May-2021 4592.01 3776.22 69.14 1.00 303.83 3008.50
   20:24:30.569.08-May-2021 4592.01 3776.29 69.14 1.00 304.03 3008.50
   20:24:30.769.08-May-2021 4592.01 3776.29 69.14 1.00 304.23 3008.50
   20:24:30.969.08-May-2021 4592.01 3776.27 69.14 1.00 304.43 3008.50
   20:24:31.170.08-May-2021 4592.01 3776.40 69.14 1.00 304.63 3008.50
   20:24:31.370.08-May-2021 4592.01 3776.30 69.14 1.00 304.83 3008.50
   20:24:31.570.08-May-2021 4592.01 3776.36 69.14 1.00 305.03 3008.50
   20:24:31.770.08-May-2021 4592.01 3776.36 69.14 1.00 305.23 3008.50
   20:24:31.970.08-May-2021 4592.01 3776.28 69.14 1.00 305.43 3008.50
   20:24:32.170.08-May-2021 4592.01 3776.47 69.14 1.00 305.63 3008.50
   20:24:32.370.08-May-2021 4592.01 3776.30 69.14 1.00 305.83 3008.50
   20:24:32.570.08-May-2021 4592.01 3776.22 69.14 1.00 306.03 3008.50
   20:24:32.770.08-May-2021 4592.01 3776.22 69.14 1.00 306.23 3008.50
   20:24:32.970.08-May-2021 4592.01 3776.64 69.14 1.00 306.43 3008.50
   20:24:33.170.08-May-2021 4592.01 3776.45 69.14 1.00 306.63 3008.50
   20:24:33.370.08-May-2021 4592.01 3776.14 69.14 1.00 306.83 3008.50
   20:24:33.570.08-May-2021 4592.01 3776.50 69.14 1.00 307.03 3008.50
   20:24:33.770.08-May-2021 4592.01 3776.50 69.14 1.00 307.23 3008.50
   20:24:33.970.08-May-2021 4592.01 3776.27 69.14 1.00 307.43 3008.50
   20:24:34.170.08-May-2021 4592.01 3776.44 69.14 1.00 307.63 3008.50
   20:24:34.370.08-May-2021 4592.01 3776.27 69.14 1.00 307.83 3008.50
   20:24:34.570.08-May-2021 4592.01 3776.36 69.14 1.00 308.03 3008.50
   20:24:34.770.08-May-2021 4592.01 3776.36 69.14 1.00 308.23 3008.50
   20:24:34.970.08-May-2021 4592.01 3776.34 69.14 1.00 308.43 3008.50
   20:24:35.170.08-May-2021 4592.01 3776.31 69.14 1.00 308.63 3008.50
   20:24:35.370.08-May-2021 4592.01 3776.54 69.14 1.00 308.83 3008.50
   20:24:35.570.08-May-2021 4592.01 3776.32 69.14 1.00 309.03 3008.50
   20:24:35.770.08-May-2021 4592.01 3776.32 69.14 1.00 309.23 3008.50
   20:24:35.970.08-May-2021 4592.01 3776.33 69.14 1.00 309.43 3008.50
   20:24:36.170.08-May-2021 4592.01 3776.46 69.14 1.00 309.63 3008.50
   20:24:36.370.08-May-2021 4592.01 3776.19 69.14 1.00 309.83 3008.50
   20:24:36.570.08-May-2021 4592.01 3776.48 69.14 1.00 310.03 3008.50
   20:24:36.770.08-May-2021 4592.01 3776.48 69.14 1.00 310.23 3008.50
   20:24:36.970.08-May-2021 4592.01 3776.31 69.14 1.00 310.43 3008.50
   20:24:37.170.08-May-2021 4592.01 3776.62 69.14 1.00 310.63 3008.50
   20:24:37.370.08-May-2021 4592.01 3776.08 69.14 1.00 310.83 3008.50
   20:24:37.570.08-May-2021 4592.01 3776.51 69.14 1.00 311.03 3008.50
   20:24:37.770.08-May-2021 4592.01 3776.51 69.14 1.00 311.23 3008.50
   20:24:37.970.08-May-2021 4592.01 3776.62 69.14 1.00 311.43 3008.50
   20:24:38.170.08-May-2021 4592.01 3776.17 69.14 1.00 311.63 3008.50
   20:24:38.370.08-May-2021 4592.01 3776.45 69.14 1.00 311.83 3008.50
   20:24:38.570.08-May-2021 4592.01 3776.26 69.14 1.00 312.03 3008.50
   20:24:38.770.08-May-2021 4592.01 3776.26 69.14 1.00 312.23 3008.50
   20:24:38.970.08-May-2021 4592.01 3776.46 69.14 1.00 312.43 3008.50
   20:24:39.170.08-May-2021 4592.01 3776.24 69.14 1.00 312.63 3008.50
   20:24:39.370.08-May-2021 4592.01 3776.35 69.14 1.00 312.83 3008.50
   20:24:39.570.08-May-2021 4592.01 3776.40 69.14 1.00 313.03 3008.50
   20:24:39.770.08-May-2021 4592.01 3776.40 69.14 1.00 313.23 3008.50
   20:24:39.970.08-May-2021 4592.01 3776.43 69.14 1.00 313.43 3008.50
   20:24:40.170.08-May-2021 4592.01 3776.27 69.14 1.00 313.63 3008.50
   20:24:40.370.08-May-2021 4592.01 3776.43 69.14 1.00 313.83 3008.50
   20:24:40.570.08-May-2021 4592.01 3776.20 69.14 1.00 314.03 3008.50
   20:24:40.771.08-May-2021 4592.01 3776.20 69.14 1.00 314.23 3008.50
   20:24:40.971.08-May-2021 4592.01 3776.20 69.14 1.00 314.43 3008.50
   20:24:41.171.08-May-2021 4592.01 3776.37 69.14 1.00 314.63 3008.50
   20:24:41.371.08-May-2021 4592.01 3776.29 69.14 1.00 314.83 3008.50
   20:24:41.571.08-May-2021 4592.01 3776.29 69.14 1.00 315.03 3008.50
   20:24:41.771.08-May-2021 4592.01 3776.29 69.14 1.00 315.23 3008.50
   20:24:41.971.08-May-2021 4592.01 3776.26 69.14 1.00 315.43 3008.50
   20:24:42.171.08-May-2021 4592.01 3776.38 69.13 1.00 315.63 3008.50
   20:24:42.371.08-May-2021 4592.01 3776.34 69.13 1.00 315.83 3008.50
   20:24:42.571.08-May-2021 4592.01 3776.31 69.13 1.00 316.03 3008.50
   20:24:42.771.08-May-2021 4592.01 3776.31 69.13 1.00 316.23 3008.50
   20:24:42.971.08-May-2021 4592.01 3776.35 69.13 1.00 316.43 3008.50
   20:24:43.171.08-May-2021 4592.01 3776.25 69.13 1.00 316.63 3008.50
   20:24:43.371.08-May-2021 4592.01 3776.63 69.13 1.00 316.83 3008.50
   20:24:43.571.08-May-2021 4592.01 3776.14 69.13 1.00 317.03 3008.50
   20:24:43.771.08-May-2021 4592.01 3776.14 69.13 1.00 317.23 3008.50
   20:24:43.971.08-May-2021 4592.01 3776.25 69.13 1.00 317.43 3008.50
   20:24:44.171.08-May-2021 4592.01 3776.42 69.13 1.00 317.63 3008.50
   20:24:44.371.08-May-2021 4592.01 3776.18 69.13 1.00 317.83 3008.50
   20:24:44.571.08-May-2021 4592.01 3776.51 69.13 1.00 318.03 3008.50
   20:24:44.771.08-May-2021 4592.01 3776.51 69.13 1.00 318.23 3008.50
   20:24:44.971.08-May-2021 4592.01 3776.33 69.13 1.00 318.43 3008.50
   20:24:45.171.08-May-2021 4592.01 3776.65 69.13 1.00 318.63 3008.50
   20:24:45.371.08-May-2021 4592.01 3775.94 69.13 1.00 318.83 3008.50
   20:24:45.571.08-May-2021 4592.01 3776.52 69.13 1.00 319.03 3008.50
   20:24:45.771.08-May-2021 4592.01 3776.52 69.13 1.00 319.23 3008.50
   20:24:45.971.08-May-2021 4592.01 3776.67 69.13 1.00 319.43 3008.50
   20:24:46.171.08-May-2021 4592.01 3776.14 69.13 1.00 319.63 3008.50
   20:24:46.371.08-May-2021 4592.01 3776.40 69.13 1.00 319.83 3008.50
   20:24:46.571.08-May-2021 4592.01 3776.22 69.13 1.00 320.03 3008.50
   20:24:46.771.08-May-2021 4592.01 3776.22 69.13 1.00 320.23 3008.50
   20:24:46.971.08-May-2021 4592.01 3776.33 69.13 1.00 320.43 3008.50
   20:24:47.171.08-May-2021 4592.01 3776.33 69.13 1.00 320.63 3008.50
   20:24:47.371.08-May-2021 4592.01 3776.39 69.13 1.00 320.83 3008.50
   20:24:47.571.08-May-2021 4592.01 3776.25 69.13 1.00 321.03 3008.50
   20:24:47.771.08-May-2021 4592.01 3776.25 69.13 1.00 321.23 3008.50
   20:24:47.971.08-May-2021 4592.01 3776.39 69.13 1.00 321.43 3008.50
   20:24:48.171.08-May-2021 4592.01 3776.24 69.13 1.00 321.63 3008.50
   20:24:48.371.08-May-2021 4592.01 3776.40 69.13 1.00 321.83 3008.50
