~Version Information
 VERS.                  2.0:   CWLS log ASCII Standard -VERSION 2.0
 WRAP.                   NO:   One line per depth step
~Well Information Block
#MNEM.UNIT     VALUE/NAME     DESCRIPTION
#---------     -----------    ---------------------------
 STRT.S             01:50:25 10-May-21: START TIME 01:50:25 10-May-21
 STOP.S             01:58:33 10-May-21: STOP TIME  01:58:33 10-May-21
 STEP.S                   0.00: STEP TIME
 NULL.                 -999.25: NULL VALUE
 PROV.                    Baku:  PROVINCE
 STAT.                    Baku:  STATE NAME
 SON .        AZ-XX-0906571588:  JOB NUMBER
 WTYP.                Deviated:  WELL TYPE
 COMP.     BP Exploration (Caspian Sea) ltd:  COMPANY
 BASE.              Azerbaijan:  LOGGING EQUIPMENT BASE LOCATION
 REGN.                   EESSA:  REGION
 CTRY.              Azerbaijan:  COUNTRY NAME
 FLD .                     ACG:  FIELD NAME
 WELL.                     J28:  WELL NAME
 RIG .             West Chirag:  RIG NAME
 DMF .             Drill Floor:  DRILL MEAS FROM
 PDAT.       Caspian Sea Level:  PERMANENT DATUM
 HPTY.       Minimum Curvature:  HOLE POS TYPE
 MDS .        Operator Entered:  MAG DATA SOURCE
 NREF.                    Grid:  NORTH REFERENCE
 SRVC.          TURAN DRILLING:  CONTRACTOR
 JOBN.        AZ-XX-0906571588:  JOB TICKET NUMB
 DCON.     Halliburton Sperry Drilling:  DIRECTNL CONTR
 STIM.      00.44.00 11-Feb-21:  START TIME
 DATE.      00.00.00 05-May-21:  END TIME
 SPUD.               13-Feb-21:  SPUD DATE
 MWDS.                    Baku:  MWD SHOP
 DOE .                     N/A:  DOE NUMBER
 UNIT.                     N/A:  LOGGING EQUIPMENT ID
 UWI .                     N/A:  UNIQUE WELL IDENTIFIER
 API .                     N/A:  API NUMBER
 CNTY.                        :  COUNTY
 LOC .                        :  LOCATION
 LMF .             Drill Floor:  LOG MEASURED FROM
 TVDS.m                  43.00:  TVDSS CORRECTN
 SDEP.m                 341.00:  START DEPTH
 EGL .m                   0.00:  GROUND ELEVATION
 WDMS.m                 169.80:  WD ELEV
 AGAP.m                  43.00:  AIR GAP
 EPD .m                   0.00:  ELEVATION
 APD .m                  43.00:  DEPTH ABOVE PD
 LATI.deg                40.13:  LATITUDE
 LONG.deg                51.22:  LONGITUDE
 UTMY.m             4443793.85:  UTM Y
 UTMX.m              519005.06:  UTM X
 WHEW.m                 -11.57:  WELL HEAD E/W
 WHNS.m                   8.57:  WELL HEAD N/S
 VSEW.m                 -11.57:  VERT SEC E/W
 VSNS.m                   8.57:  VERT SEC N/S
 DFWL.m                   0.00:  DISTANCE FWL
 DFSL.m                   0.00:  DISTANCE FSL
 VSDR.deg               299.34:  VERT SEC DIRECT
 GVFD.g                   1.00:  GRAVITY FIELD
 AZTC.deg                 6.36:  AZM TOTAL CORR
 MFLD.nT              50391.00:  MAGNETIC FIELD
 MDIP.deg                59.65:  MAGNETIC DIP
 MDEC.deg                 6.48:  MAGNETIC DECL
 GRDC.deg                 0.12:  GRID CORRECTION
 DEP .m                 334.96:  DEPTH
 TDD .m                1407.26:  TOTAL DEPTH (DRILLER)
 EKB .m                  43.00:  KB ELEVATION
 EDF .m                  43.00:  DF ELEVATION
 TDL .m                 228.00:  TOTAL DEPTH (LOGGER)
 VSC .                       0:  VS TO CLOSURE
 MAGU.                 1854484:  MAGUTM CHECKSUM
~Parameter Information Block
#MNEM.UNIT       Value        Description
#---------     -----------    ---------------------------
 AV  .mps                 4.00:  Ann Velocity 
 AVMX.mps                 4.73:  Max Ann Veloc 
 AZIF.deg               304.48:  Azm, Final 
 BHAT.        Rotary Steerable:  BHA Type 
 BREV.rev            257300.00:  Rev Bit Total 
 BROT.°/30m               0.00:  Build Rotating 
 BS  .in                  8.50:  Bit Size 
 BSZ .in                  8.50:  Bit Size 
 BTPL.psig              589.00:  Bit Press Loss 
 CABU.                      No:  Customer Abuse 
 CGEO.          Mubariz ghayev:  Customer Geo 
 COMM.                     Í‚:  Run Comments 1 
 TCS .hr                 64.25:  Time Ciculation Ended 
 CV  .mps                 3.50:  Crit Velocity 
 CVMX.mps                 4.52:  Max Crit Veloc 
 DD1 .             Aziz Aliyev:  Direct Drillr 1 
 DD2 .         Intigam Rahimov:  Direct Drillr 2 
 DD3 .          Rashad Habibov:  Direct Drillr 3 
 DDSV.               Geo-Pilot:  DD Service 
 DEFF.%                  98.00:  % Det Eff 
 DLRX.°/30m               0.00:  Dogleg Rot Max 
 DLSO.°/30m               0.00:  Dogleg Oriented 
 DLSX.°/30m               0.00:  Dogleg Str Max 
 DRET.      10.45.04 08-May-21:  Drill End Time 
 DRST.      03.30.04 04-May-21:  Drill Start Tim 
 DTIM.hr                 14.97:  Time Drilling 
 EDEP.m                4640.01:  End Depth 
 ENG1.         Dail Mahammadov:  Engineer 1 
 ENG2.           Eldar Hajiyev:  Engineer 2 
 ENG3.       Bakhtiar Jabbarli:  Engineer 3 
 ENG4.       Natik Hasanagayev:  Engineer 4 
 ETIM.      09.30.04 14-May-21:  End Time 
 FLOI.gpm               460.00:  Flow In 
 FLON.gpm               200.00:  Flow In Min 
 FLOS.cptm                0.00:  Fluid Loss 
 FLOX.gpm               505.00:  Flow In Max 
 HFLO.                      No:  High Flow 
 HPRE.                      No:  High Pressure 
 HTEM.                      No:  High Temp 
 HYDO.m                   1.80:  Hydro Offset 
 IFIN.deg                66.71:  Inc, Final 
 IMAX.deg                67.03:  Inc Max 
 IMIN.deg                66.63:  Inc Min 
 IMND.m                4550.58:  Inc Min Depth 
 IMXD.m                4439.01:  Inc Max Depth 
 JARR.                      No:  Jarring 
 LETM.      10.45.04 08-May-21:  Log End Time 
 LOST.hr                     0:  Lost Rig Time 
 LSTM.      03.30.04 04-May-21:  Log Start Time 
 MDCL.ppm             37000.00:  Mud Chlorides 
 MDES.     Inversion Oil/Synthetic:  Mud Desc 
 DFD .sg                  1.38:  Mud Density 
 MDMN.sg                  1.35:  Dens Mud Min 
 MDMX.sg                  1.40:  Dens Mud Max 
 MOIL.                   57.40:  Run Mud Oil % 
 MOWR.                   70:30:  Run Mud OWR 
 MSND.                    0.00:  Run Mud Sand % 
 MSOL.                   18.00:  Run Mud Solids% 
 DFV .spqt               71.00:  Mud Viscosity 
 MWOD.in                  6.75:  MWD Tool OD 
 MWSI.                      No:  Serv Intrp, MWD 
 OTIM.hr                242.76:  Time Operating 
 PCON.           Look Like New:  Pad Condition 
 PMAX.psia            12183.92:  Press Op, Max 
 PV  .cP                 27.00:  Mud PV 
 RUN .                    1300:  Run Number 
 ROPA.m/hr               15.00:  ROP Avg 
 ROPN.m/hr                9.00:  ROP Min 
 ROPX.m/hr               19.00:  ROP Max 
 RPMA.rpm               120.00:  RPM Surface Avg 
 RPMN.rpm               100.00:  RPM Surface Min 
 RPMX.rpm               120.00:  RPM Surface Max 
 RRUN.                    1300:  Rig Run Number 
 RTIM.hr                  5.00:  Time Reaming 
 SAZI.deg               304.73:  Azm, Start 
 SDEP.m                4412.01:  Start Depth 
 SIDD.                      No:  Serv Intrp, DD 
 SINC.deg                66.82:  Inc, Start 
 SPPA.psig             2800.00:  SPP Avg 
 SPPN.psig             2610.00:  SPP Min 
 SPPX.psig             3100.00:  SPP Max 
 STIM.      03.30.00 04-May-21:  Start Time 
 SVCS.                 DD, MWD:  Services 
 SVER.                    9.20:  Sperry Version 
 TDAT.m                 228.00:  Tot Depth Attmp 
 TDDF.                      No:  Trip for DD 
 TDLG.m                 228.00:  Tot Depth Loggd 
 TFF .                      No:  Trip for Fail 
 TQAA.f-kp               15.00:  Torque Abs Avg 
 TQAN.f-kp               12.00:  Torque Abs Min 
 TQAX.f-kp               22.00:  Torque Abs Max 
 TRRT.°/30m               0.00:  Turn Rotating 
 MRT .                    HCIM:  Maximum Recorded Temperature 
 TTMX.degC               90.20:  Max Tool Temp 
 VS01.                90627813:  Virtual Str1 SN 
 VS02.                90634712:  Virtual Str2 SN 
 VS03.                90643410:  Virtual Str3 SN 
 VS04.                90634712:  Virtual Str4 SN 
 WBMN.klb                 9.00:  WOB Min 
 WITN.        Elmaddin Rahimov:  Customer Rep 
 WITN.         Haytham Mostafa:  Customer Rep 2 
 WOBA.klb                15.00:  WOB Avg 
 WOBX.klb                23.00:  WOB Max 
 YP  .lhf2               29.00:  Yield Point 
~Curve Information Block
#MNEM.UNIT                 API CODE     Curve Description
#---------               -----------    ---------------------------
 TIME.HHMMSS            00 000 000 000:  GT Time & Date
 GTDEPTH.m              00 000 000 000:  GT Depth
 GTPQH.psia             00 000 000 000:  GT HR Quartz Pressure
 GTTQ.degC              00 000 000 000:  GT Quartz Temperature
 GTTN.NONE              00 000 000 000:  GT Test Number
 GTET.sec               00 000 000 000:  GT Elapsed Test Time
 GTTVD.m                00 000 000 000:  GT True Vertical Depth
#Other Information
#
#WARRANTY: Halliburton will use its best efforts to furnish customers with 
#accurate information and interpretations that are part of, and incident to, the services 
#provided.  However, Halliburton cannot and does not warrant the accuracy 
#or correctness of such information and interpretations.  Under no circumstances should any 
#such information or interpretation be relied upon as the sole basis for any drilling, 
#completion, production, or financial decision or any procedure involving any risk to the 
#safety of any drilling venture, drilling rig or its crew or any other third party.  The 
#Customer has full responsibility for all drilling, completion and production operation.  
#Halliburton makes no representations or warranties, either expressed or 
#implied, including, but not limited to, the implied warranties of merchantability or fitness 
#for a particular purpose, with respect to the services rendered.  In no event will 
#Halliburton be liable for failure to obtain any particular results or for 
#any damages, including, but not limited to, indirect, special or consequential damages, 
#resulting from the use of any information or interpretation provided by Halliburton.
#
~A           TIME           GTDEPTH  GTPQH  GTTQ  GTTN   GTET   GTTVD  
# ...
   01:52:40.965.10-May-2021 4567.51  652.67 61.02 19.00 135.62 2998.78
   01:52:41.165.10-May-2021 4567.51  652.73 61.02 19.00 135.82 2998.78
   01:52:41.365.10-May-2021 4567.51  652.81 61.02 19.00 136.02 2998.78
   01:52:41.565.10-May-2021 4567.51  652.81 61.02 19.00 136.22 2998.78
   01:52:41.765.10-May-2021 4567.51  652.64 61.02 19.00 136.42 2998.78
   01:52:41.965.10-May-2021 4567.51  653.32 61.02 19.00 136.62 2998.78
   01:52:42.165.10-May-2021 4567.51  653.18 61.02 19.00 136.82 2998.78
   01:52:42.365.10-May-2021 4567.51  653.14 61.02 19.00 137.02 2998.78
   01:52:42.565.10-May-2021 4567.51  653.14 61.02 19.00 137.22 2998.78
   01:52:42.766.10-May-2021 4567.51  653.28 61.02 19.00 137.42 2998.78
   01:52:42.966.10-May-2021 4567.51  653.38 61.02 19.00 137.62 2998.78
   01:52:43.166.10-May-2021 4567.51  653.44 61.02 19.00 137.82 2998.78
   01:52:43.366.10-May-2021 4567.51  653.51 61.02 19.00 138.02 2998.78
   01:52:43.566.10-May-2021 4567.51  653.51 61.02 19.00 138.22 2998.78
   01:52:43.766.10-May-2021 4567.51  653.64 61.02 19.00 138.42 2998.78
   01:52:43.966.10-May-2021 4567.51  653.71 61.02 19.00 138.62 2998.78
   01:52:44.166.10-May-2021 4567.51  653.49 61.02 19.00 138.82 2998.78
   01:52:44.366.10-May-2021 4567.51  653.96 61.02 19.00 139.02 2998.78
   01:52:44.566.10-May-2021 4567.51  653.96 61.02 19.00 139.22 2998.78
   01:52:44.766.10-May-2021 4567.51  654.13 61.02 19.00 139.42 2998.78
   01:52:44.966.10-May-2021 4567.51  654.05 61.02 19.00 139.62 2998.78
   01:52:45.166.10-May-2021 4567.51  653.98 61.02 19.00 139.82 2998.78
   01:52:45.366.10-May-2021 4567.51  654.03 61.02 19.00 140.02 2998.78
   01:52:45.566.10-May-2021 4567.51  654.03 61.02 19.00 140.22 2998.78
   01:52:45.766.10-May-2021 4567.51  654.27 61.02 19.00 140.43 2998.78
   01:52:45.966.10-May-2021 4567.51  654.24 61.02 19.00 140.63 2998.78
   01:52:46.166.10-May-2021 4567.51  654.75 61.02 19.00 140.83 2998.78
   01:52:46.366.10-May-2021 4567.51  654.65 61.02 19.00 141.03 2998.78
   01:52:46.566.10-May-2021 4567.51  654.65 61.02 19.00 141.23 2998.78
   01:52:46.766.10-May-2021 4567.51  654.36 61.02 19.00 141.43 2998.78
   01:52:46.966.10-May-2021 4567.51  655.00 61.02 19.00 141.63 2998.78
   01:52:47.166.10-May-2021 4567.51  654.87 61.02 19.00 141.83 2998.78
   01:52:47.366.10-May-2021 4567.51  654.87 61.02 19.00 142.03 2998.78
   01:52:47.566.10-May-2021 4567.51  654.87 61.02 19.00 142.23 2998.78
   01:52:47.766.10-May-2021 4567.51  654.92 61.02 19.00 142.43 2998.78
   01:52:47.966.10-May-2021 4567.51  655.02 61.02 19.00 142.63 2998.78
   01:52:48.166.10-May-2021 4567.51  655.07 61.02 19.00 142.83 2998.78
   01:52:48.367.10-May-2021 4567.51  655.14 61.02 19.00 143.03 2998.78
   01:52:48.567.10-May-2021 4567.51  655.14 61.02 19.00 143.23 2998.78
   01:52:48.767.10-May-2021 4567.51  655.25 61.02 19.00 143.43 2998.78
   01:52:48.967.10-May-2021 4567.51  655.32 61.02 19.00 143.63 2998.78
   01:52:49.167.10-May-2021 4567.51  655.22 61.02 19.00 143.83 2998.78
   01:52:49.367.10-May-2021 4567.51  655.24 61.02 19.00 144.03 2998.78
   01:52:49.567.10-May-2021 4567.51  655.24 61.02 19.00 144.23 2998.78
   01:52:49.767.10-May-2021 4567.51  655.70 61.02 19.00 144.43 2998.78
   01:52:49.967.10-May-2021 4567.51  655.66 61.02 19.00 144.63 2998.78
   01:52:50.167.10-May-2021 4567.51  655.70 61.02 19.00 144.83 2998.78
   01:52:50.367.10-May-2021 4567.51  655.72 61.02 19.00 145.03 2998.78
   01:52:50.567.10-May-2021 4567.51  655.72 61.02 19.00 145.23 2998.78
   01:52:50.767.10-May-2021 4567.51  655.85 61.02 19.00 145.43 2998.78
   01:52:50.967.10-May-2021 4567.51  655.93 61.02 19.00 145.63 2998.78
   01:52:51.167.10-May-2021 4567.51  655.98 61.02 19.00 145.83 2998.78
   01:52:51.367.10-May-2021 4567.51  656.05 61.02 19.00 146.03 2998.78
   01:52:51.567.10-May-2021 4567.51  656.05 61.02 19.00 146.23 2998.78
   01:52:51.767.10-May-2021 4567.51  655.77 61.02 19.00 146.43 2998.78
   01:52:51.967.10-May-2021 4567.51  656.49 61.02 19.00 146.63 2998.78
   01:52:52.167.10-May-2021 4567.51  656.27 61.02 19.00 146.83 2998.78
   01:52:52.367.10-May-2021 4567.51  656.51 61.02 19.00 147.03 2998.78
   01:52:52.567.10-May-2021 4567.51  656.51 61.02 19.00 147.23 2998.78
   01:52:52.767.10-May-2021 4567.51  656.05 61.02 19.00 147.43 2998.78
   01:52:52.967.10-May-2021 4567.51  656.78 61.02 19.00 147.63 2998.78
   01:52:53.167.10-May-2021 4567.51  656.56 61.02 19.00 147.83 2998.78
   01:52:53.367.10-May-2021 4567.51  656.68 61.02 19.00 148.03 2998.78
   01:52:53.567.10-May-2021 4567.51  656.68 61.02 19.00 148.23 2998.78
   01:52:53.767.10-May-2021 4567.51  657.00 61.02 19.00 148.43 2998.78
   01:52:53.968.10-May-2021 4567.51  656.94 61.02 19.00 148.63 2998.78
   01:52:54.168.10-May-2021 4567.51  656.90 61.02 19.00 148.83 2998.78
   01:52:54.368.10-May-2021 4567.51  656.61 61.02 19.00 149.03 2998.78
   01:52:54.568.10-May-2021 4567.51  656.61 61.02 19.00 149.23 2998.78
   01:52:54.768.10-May-2021 4567.51  657.14 61.02 19.00 149.43 2998.78
   01:52:54.968.10-May-2021 4567.51  657.10 61.02 19.00 149.63 2998.78
   01:52:55.168.10-May-2021 4567.51  657.17 61.02 19.00 149.83 2998.78
   01:52:55.368.10-May-2021 4567.51  657.15 61.02 19.00 150.03 2998.78
   01:52:55.568.10-May-2021 4567.51  657.15 61.02 19.00 150.23 2998.78
   01:52:55.768.10-May-2021 4567.51  657.29 61.02 19.00 150.43 2998.78
   01:52:55.968.10-May-2021 4567.51  657.35 61.02 19.00 150.63 2998.78
   01:52:56.168.10-May-2021 4567.51  657.39 61.02 19.00 150.83 2998.78
   01:52:56.368.10-May-2021 4567.51  657.45 61.02 19.00 151.03 2998.78
   01:52:56.568.10-May-2021 4567.51  657.45 61.02 19.00 151.23 2998.78
   01:52:56.768.10-May-2021 4567.51  657.41 61.02 19.00 151.43 2998.78
   01:52:56.968.10-May-2021 4567.51  657.41 61.02 19.00 151.63 2998.78
   01:52:57.168.10-May-2021 4567.51  657.93 61.02 19.00 151.83 2998.78
   01:52:57.368.10-May-2021 4567.51  657.86 61.02 19.00 152.03 2998.78
   01:52:57.568.10-May-2021 4567.51  657.86 61.02 19.00 152.23 2998.78
   01:52:57.768.10-May-2021 4567.51  657.84 61.02 19.00 152.43 2998.78
   01:52:57.968.10-May-2021 4567.51  657.88 61.02 19.00 152.63 2998.78
   01:52:58.168.10-May-2021 4567.51  657.94 61.02 19.00 152.83 2998.78
   01:52:58.368.10-May-2021 4567.51  658.00 61.02 19.00 153.03 2998.78
   01:52:58.568.10-May-2021 4567.51  658.00 61.02 19.00 153.23 2998.78
   01:52:58.768.10-May-2021 4567.51  658.11 61.02 19.00 153.43 2998.78
   01:52:58.968.10-May-2021 4567.51  658.15 61.02 19.00 153.63 2998.78
   01:52:59.168.10-May-2021 4567.51  658.19 61.02 19.00 153.83 2998.78
   01:52:59.368.10-May-2021 4567.51  657.87 61.02 19.00 154.03 2998.78
   01:52:59.568.10-May-2021 4567.51  657.87 61.02 19.00 154.23 2998.78
   01:52:59.769.10-May-2021 4567.51  658.36 61.02 19.00 154.43 2998.78
   01:52:59.969.10-May-2021 4567.51  658.59 61.02 19.00 154.63 2998.78
   01:53:00.169.10-May-2021 4567.51  658.45 61.02 19.00 154.83 2998.78
   01:53:00.369.10-May-2021 4567.51  658.20 61.02 19.00 155.03 2998.78
   01:53:00.569.10-May-2021 4567.51  658.20 61.02 19.00 155.23 2998.78
   01:53:00.769.10-May-2021 4567.51  658.76 61.02 19.00 155.43 2998.78
   01:53:00.969.10-May-2021 4567.51  658.85 61.02 19.00 155.63 2998.78
   01:53:01.169.10-May-2021 4567.51  658.39 61.02 19.00 155.83 2998.78
   01:53:01.369.10-May-2021 4567.51  659.09 61.02 19.00 156.03 2998.78
   01:53:01.569.10-May-2021 4567.51  659.09 61.02 19.00 156.23 2998.78
   01:53:01.769.10-May-2021 4567.51  658.59 61.02 19.00 156.43 2998.78
   01:53:01.969.10-May-2021 4567.51  659.20 61.02 19.00 156.63 2998.78
   01:53:02.169.10-May-2021 4567.51  658.98 61.02 19.00 156.83 2998.78
   01:53:02.369.10-May-2021 4567.51  659.14 61.02 19.00 157.03 2998.78
   01:53:02.569.10-May-2021 4567.51  659.14 61.02 19.00 157.23 2998.78
   01:53:02.769.10-May-2021 4567.51  659.07 61.02 19.00 157.43 2998.78
   01:53:02.969.10-May-2021 4567.51  659.13 61.02 19.00 157.63 2998.78
   01:53:03.169.10-May-2021 4567.51  659.18 61.02 19.00 157.83 2998.78
   01:53:03.369.10-May-2021 4567.51  659.22 61.02 19.00 158.03 2998.78
