~Version Information
 VERS.                  2.0:   CWLS log ASCII Standard -VERSION 2.0
 WRAP.                   NO:   One line per depth step
~Well Information Block
#MNEM.UNIT     VALUE/NAME     DESCRIPTION
#---------     -----------    ---------------------------
 STRT.S             01:50:25 10-May-21: START TIME 01:50:25 10-May-21
 STOP.S             01:58:33 10-May-21: STOP TIME  01:58:33 10-May-21
 STEP.S                   0.00: STEP TIME
 NULL.                 -999.25: NULL VALUE
 PROV.                    Baku:  PROVINCE
 STAT.                    Baku:  STATE NAME
 SON .        AZ-XX-0906571588:  JOB NUMBER
 WTYP.                Deviated:  WELL TYPE
 COMP.     BP Exploration (Caspian Sea) ltd:  COMPANY
 BASE.              Azerbaijan:  LOGGING EQUIPMENT BASE LOCATION
 REGN.                   EESSA:  REGION
 CTRY.              Azerbaijan:  COUNTRY NAME
 FLD .                     ACG:  FIELD NAME
 WELL.                     J28:  WELL NAME
 RIG .             West Chirag:  RIG NAME
 DMF .             Drill Floor:  DRILL MEAS FROM
 PDAT.       Caspian Sea Level:  PERMANENT DATUM
 HPTY.       Minimum Curvature:  HOLE POS TYPE
 MDS .        Operator Entered:  MAG DATA SOURCE
 NREF.                    Grid:  NORTH REFERENCE
 SRVC.          TURAN DRILLING:  CONTRACTOR
 JOBN.        AZ-XX-0906571588:  JOB TICKET NUMB
 DCON.     Halliburton Sperry Drilling:  DIRECTNL CONTR
 STIM.      00.44.00 11-Feb-21:  START TIME
 DATE.      00.00.00 05-May-21:  END TIME
 SPUD.               13-Feb-21:  SPUD DATE
 MWDS.                    Baku:  MWD SHOP
 DOE .                     N/A:  DOE NUMBER
 UNIT.                     N/A:  LOGGING EQUIPMENT ID
 UWI .                     N/A:  UNIQUE WELL IDENTIFIER
 API .                     N/A:  API NUMBER
 CNTY.                        :  COUNTY
 LOC .                        :  LOCATION
 LMF .             Drill Floor:  LOG MEASURED FROM
 TVDS.m                  43.00:  TVDSS CORRECTN
 SDEP.m                 341.00:  START DEPTH
 EGL .m                   0.00:  GROUND ELEVATION
 WDMS.m                 169.80:  WD ELEV
 AGAP.m                  43.00:  AIR GAP
 EPD .m                   0.00:  ELEVATION
 APD .m                  43.00:  DEPTH ABOVE PD
 LATI.deg                40.13:  LATITUDE
 LONG.deg                51.22:  LONGITUDE
 UTMY.m             4443793.85:  UTM Y
 UTMX.m              519005.06:  UTM X
 WHEW.m                 -11.57:  WELL HEAD E/W
 WHNS.m                   8.57:  WELL HEAD N/S
 VSEW.m                 -11.57:  VERT SEC E/W
 VSNS.m                   8.57:  VERT SEC N/S
 DFWL.m                   0.00:  DISTANCE FWL
 DFSL.m                   0.00:  DISTANCE FSL
 VSDR.deg               299.34:  VERT SEC DIRECT
 GVFD.g                   1.00:  GRAVITY FIELD
 AZTC.deg                 6.36:  AZM TOTAL CORR
 MFLD.nT              50391.00:  MAGNETIC FIELD
 MDIP.deg                59.65:  MAGNETIC DIP
 MDEC.deg                 6.48:  MAGNETIC DECL
 GRDC.deg                 0.12:  GRID CORRECTION
 DEP .m                 334.96:  DEPTH
 TDD .m                1407.26:  TOTAL DEPTH (DRILLER)
 EKB .m                  43.00:  KB ELEVATION
 EDF .m                  43.00:  DF ELEVATION
 TDL .m                 228.00:  TOTAL DEPTH (LOGGER)
 VSC .                       0:  VS TO CLOSURE
 MAGU.                 1854484:  MAGUTM CHECKSUM
~Parameter Information Block
#MNEM.UNIT       Value        Description
#---------     -----------    ---------------------------
 AV  .mps                 4.00:  Ann Velocity 
 AVMX.mps                 4.73:  Max Ann Veloc 
 AZIF.deg               304.48:  Azm, Final 
 BHAT.        Rotary Steerable:  BHA Type 
 BREV.rev            257300.00:  Rev Bit Total 
 BROT.°/30m               0.00:  Build Rotating 
 BS  .in                  8.50:  Bit Size 
 BSZ .in                  8.50:  Bit Size 
 BTPL.psig              589.00:  Bit Press Loss 
 CABU.                      No:  Customer Abuse 
 CGEO.          Mubariz ghayev:  Customer Geo 
 COMM.                     Í‚:  Run Comments 1 
 TCS .hr                 64.25:  Time Ciculation Ended 
 CV  .mps                 3.50:  Crit Velocity 
 CVMX.mps                 4.52:  Max Crit Veloc 
 DD1 .             Aziz Aliyev:  Direct Drillr 1 
 DD2 .         Intigam Rahimov:  Direct Drillr 2 
 DD3 .          Rashad Habibov:  Direct Drillr 3 
 DDSV.               Geo-Pilot:  DD Service 
 DEFF.%                  98.00:  % Det Eff 
 DLRX.°/30m               0.00:  Dogleg Rot Max 
 DLSO.°/30m               0.00:  Dogleg Oriented 
 DLSX.°/30m               0.00:  Dogleg Str Max 
 DRET.      10.45.04 08-May-21:  Drill End Time 
 DRST.      03.30.04 04-May-21:  Drill Start Tim 
 DTIM.hr                 14.97:  Time Drilling 
 EDEP.m                4640.01:  End Depth 
 ENG1.         Dail Mahammadov:  Engineer 1 
 ENG2.           Eldar Hajiyev:  Engineer 2 
 ENG3.       Bakhtiar Jabbarli:  Engineer 3 
 ENG4.       Natik Hasanagayev:  Engineer 4 
 ETIM.      09.30.04 14-May-21:  End Time 
 FLOI.gpm               460.00:  Flow In 
 FLON.gpm               200.00:  Flow In Min 
 FLOS.cptm                0.00:  Fluid Loss 
 FLOX.gpm               505.00:  Flow In Max 
 HFLO.                      No:  High Flow 
 HPRE.                      No:  High Pressure 
 HTEM.                      No:  High Temp 
 HYDO.m                   1.80:  Hydro Offset 
 IFIN.deg                66.71:  Inc, Final 
 IMAX.deg                67.03:  Inc Max 
 IMIN.deg                66.63:  Inc Min 
 IMND.m                4550.58:  Inc Min Depth 
 IMXD.m                4439.01:  Inc Max Depth 
 JARR.                      No:  Jarring 
 LETM.      10.45.04 08-May-21:  Log End Time 
 LOST.hr                     0:  Lost Rig Time 
 LSTM.      03.30.04 04-May-21:  Log Start Time 
 MDCL.ppm             37000.00:  Mud Chlorides 
 MDES.     Inversion Oil/Synthetic:  Mud Desc 
 DFD .sg                  1.38:  Mud Density 
 MDMN.sg                  1.35:  Dens Mud Min 
 MDMX.sg                  1.40:  Dens Mud Max 
 MOIL.                   57.40:  Run Mud Oil % 
 MOWR.                   70:30:  Run Mud OWR 
 MSND.                    0.00:  Run Mud Sand % 
 MSOL.                   18.00:  Run Mud Solids% 
 DFV .spqt               71.00:  Mud Viscosity 
 MWOD.in                  6.75:  MWD Tool OD 
 MWSI.                      No:  Serv Intrp, MWD 
 OTIM.hr                242.76:  Time Operating 
 PCON.           Look Like New:  Pad Condition 
 PMAX.psia            12183.92:  Press Op, Max 
 PV  .cP                 27.00:  Mud PV 
 RUN .                    1300:  Run Number 
 ROPA.m/hr               15.00:  ROP Avg 
 ROPN.m/hr                9.00:  ROP Min 
 ROPX.m/hr               19.00:  ROP Max 
 RPMA.rpm               120.00:  RPM Surface Avg 
 RPMN.rpm               100.00:  RPM Surface Min 
 RPMX.rpm               120.00:  RPM Surface Max 
 RRUN.                    1300:  Rig Run Number 
 RTIM.hr                  5.00:  Time Reaming 
 SAZI.deg               304.73:  Azm, Start 
 SDEP.m                4412.01:  Start Depth 
 SIDD.                      No:  Serv Intrp, DD 
 SINC.deg                66.82:  Inc, Start 
 SPPA.psig             2800.00:  SPP Avg 
 SPPN.psig             2610.00:  SPP Min 
 SPPX.psig             3100.00:  SPP Max 
 STIM.      03.30.00 04-May-21:  Start Time 
 SVCS.                 DD, MWD:  Services 
 SVER.                    9.20:  Sperry Version 
 TDAT.m                 228.00:  Tot Depth Attmp 
 TDDF.                      No:  Trip for DD 
 TDLG.m                 228.00:  Tot Depth Loggd 
 TFF .                      No:  Trip for Fail 
 TQAA.f-kp               15.00:  Torque Abs Avg 
 TQAN.f-kp               12.00:  Torque Abs Min 
 TQAX.f-kp               22.00:  Torque Abs Max 
 TRRT.°/30m               0.00:  Turn Rotating 
 MRT .                    HCIM:  Maximum Recorded Temperature 
 TTMX.degC               90.20:  Max Tool Temp 
 VS01.                90627813:  Virtual Str1 SN 
 VS02.                90634712:  Virtual Str2 SN 
 VS03.                90643410:  Virtual Str3 SN 
 VS04.                90634712:  Virtual Str4 SN 
 WBMN.klb                 9.00:  WOB Min 
 WITN.        Elmaddin Rahimov:  Customer Rep 
 WITN.         Haytham Mostafa:  Customer Rep 2 
 WOBA.klb                15.00:  WOB Avg 
 WOBX.klb                23.00:  WOB Max 
 YP  .lhf2               29.00:  Yield Point 
~Curve Information Block
#MNEM.UNIT                 API CODE     Curve Description
#---------               -----------    ---------------------------
 TIME.HHMMSS            00 000 000 000:  GT Time & Date
 GTDEPTH.m              00 000 000 000:  GT Depth
 GTPQH.psia             00 000 000 000:  GT HR Quartz Pressure
 GTTQ.degC              00 000 000 000:  GT Quartz Temperature
 GTTN.NONE              00 000 000 000:  GT Test Number
 GTET.sec               00 000 000 000:  GT Elapsed Test Time
 GTTVD.m                00 000 000 000:  GT True Vertical Depth
#Other Information
#
#WARRANTY: Halliburton will use its best efforts to furnish customers with 
#accurate information and interpretations that are part of, and incident to, the services 
#provided.  However, Halliburton cannot and does not warrant the accuracy 
#or correctness of such information and interpretations.  Under no circumstances should any 
#such information or interpretation be relied upon as the sole basis for any drilling, 
#completion, production, or financial decision or any procedure involving any risk to the 
#safety of any drilling venture, drilling rig or its crew or any other third party.  The 
#Customer has full responsibility for all drilling, completion and production operation.  
#Halliburton makes no representations or warranties, either expressed or 
#implied, including, but not limited to, the implied warranties of merchantability or fitness 
#for a particular purpose, with respect to the services rendered.  In no event will 
#Halliburton be liable for failure to obtain any particular results or for 
#any damages, including, but not limited to, indirect, special or consequential damages, 
#resulting from the use of any information or interpretation provided by Halliburton.
#
~A           TIME           GTDEPTH  GTPQH  GTTQ  GTTN   GTET   GTTVD  
# ...
   01:57:12.213.10-May-2021 4567.51  493.48 60.88 19.00 406.87 2998.78
   01:57:12.414.10-May-2021 4567.51  493.87 60.88 19.00 407.07 2998.78
   01:57:12.614.10-May-2021 4567.51  493.87 60.88 19.00 407.27 2998.78
   01:57:12.814.10-May-2021 4567.51  493.76 60.88 19.00 407.47 2998.78
   01:57:13.014.10-May-2021 4567.51  493.80 60.88 19.00 407.67 2998.78
   01:57:13.214.10-May-2021 4567.51  493.41 60.88 19.00 407.87 2998.78
   01:57:13.414.10-May-2021 4567.51  493.76 60.88 19.00 408.07 2998.78
   01:57:13.614.10-May-2021 4567.51  493.76 60.88 19.00 408.27 2998.78
   01:57:13.814.10-May-2021 4567.51  493.83 60.88 19.00 408.47 2998.78
   01:57:14.014.10-May-2021 4567.51  493.76 60.88 19.00 408.67 2998.78
   01:57:14.214.10-May-2021 4567.51  493.55 60.88 19.00 408.87 2998.78
   01:57:14.414.10-May-2021 4567.51  493.49 60.88 19.00 409.07 2998.78
   01:57:14.614.10-May-2021 4567.51  493.49 60.88 19.00 409.27 2998.78
   01:57:14.814.10-May-2021 4567.51  493.78 60.88 19.00 409.47 2998.78
   01:57:15.014.10-May-2021 4567.51  493.76 60.88 19.00 409.67 2998.78
   01:57:15.214.10-May-2021 4567.51  493.76 60.88 19.00 409.87 2998.78
   01:57:15.414.10-May-2021 4567.51  493.29 60.88 19.00 410.07 2998.78
   01:57:15.614.10-May-2021 4567.51  493.29 60.88 19.00 410.27 2998.78
   01:57:15.814.10-May-2021 4567.51  493.62 60.88 19.00 410.47 2998.78
   01:57:16.014.10-May-2021 4567.51  493.81 60.88 19.00 410.67 2998.78
   01:57:16.214.10-May-2021 4567.51  493.69 60.88 19.00 410.87 2998.78
   01:57:16.414.10-May-2021 4567.51  493.69 60.88 19.00 411.07 2998.78
   01:57:16.614.10-May-2021 4567.51  493.69 60.88 19.00 411.27 2998.78
   01:57:16.814.10-May-2021 4567.51  493.68 60.88 19.00 411.47 2998.78
   01:57:17.014.10-May-2021 4567.51  493.69 60.88 19.00 411.67 2998.78
   01:57:17.214.10-May-2021 4567.51  493.68 60.88 19.00 411.87 2998.78
   01:57:17.414.10-May-2021 4567.51  493.72 60.88 19.00 412.07 2998.78
   01:57:17.614.10-May-2021 4567.51  493.72 60.88 19.00 412.27 2998.78
   01:57:17.814.10-May-2021 4567.51  493.69 60.88 19.00 412.47 2998.78
   01:57:18.015.10-May-2021 4567.51  493.32 60.88 19.00 412.67 2998.78
   01:57:18.215.10-May-2021 4567.51  493.90 60.88 19.00 412.87 2998.78
   01:57:18.415.10-May-2021 4567.51  493.71 60.88 19.00 413.07 2998.78
   01:57:18.615.10-May-2021 4567.51  493.71 60.88 19.00 413.27 2998.78
   01:57:18.815.10-May-2021 4567.51  493.74 60.88 19.00 413.47 2998.78
   01:57:19.015.10-May-2021 4567.51  493.69 60.88 19.00 413.67 2998.78
   01:57:19.215.10-May-2021 4567.51  493.70 60.88 19.00 413.87 2998.78
   01:57:19.415.10-May-2021 4567.51  493.68 60.88 19.00 414.07 2998.78
   01:57:19.615.10-May-2021 4567.51  493.68 60.88 19.00 414.27 2998.78
   01:57:19.815.10-May-2021 4567.51  493.67 60.88 19.00 414.47 2998.78
   01:57:20.015.10-May-2021 4567.51  493.70 60.88 19.00 414.67 2998.78
   01:57:20.215.10-May-2021 4567.51  493.72 60.87 19.00 414.87 2998.78
   01:57:20.415.10-May-2021 4567.51  493.51 60.87 19.00 415.07 2998.78
   01:57:20.615.10-May-2021 4567.51  493.51 60.87 19.00 415.27 2998.78
   01:57:20.815.10-May-2021 4567.51  493.85 60.87 19.00 415.47 2998.78
   01:57:21.015.10-May-2021 4567.51  493.76 60.87 19.00 415.67 2998.78
   01:57:21.215.10-May-2021 4567.51  493.74 60.87 19.00 415.87 2998.78
   01:57:21.415.10-May-2021 4567.51  493.76 60.87 19.00 416.07 2998.78
   01:57:21.615.10-May-2021 4567.51  493.76 60.87 19.00 416.27 2998.78
   01:57:21.815.10-May-2021 4567.51  493.73 60.87 19.00 416.47 2998.78
   01:57:22.015.10-May-2021 4567.51  493.73 60.87 19.00 416.67 2998.78
   01:57:22.215.10-May-2021 4567.51  493.81 60.87 19.00 416.87 2998.78
   01:57:22.415.10-May-2021 4567.51  493.73 60.87 19.00 417.07 2998.78
   01:57:22.615.10-May-2021 4567.51  493.73 60.87 19.00 417.27 2998.78
   01:57:22.815.10-May-2021 4567.51  493.45 60.87 19.00 417.47 2998.78
   01:57:23.015.10-May-2021 4567.51  493.84 60.87 19.00 417.67 2998.78
   01:57:23.215.10-May-2021 4567.51  493.75 60.87 19.00 417.87 2998.78
   01:57:23.415.10-May-2021 4567.51  493.73 60.87 19.00 418.07 2998.78
   01:57:23.616.10-May-2021 4567.51  493.73 60.87 19.00 418.27 2998.78
   01:57:23.816.10-May-2021 4567.51  493.26 60.87 19.00 418.47 2998.78
   01:57:24.016.10-May-2021 4567.51  493.92 60.87 19.00 418.67 2998.78
   01:57:24.216.10-May-2021 4567.51  493.58 60.87 19.00 418.87 2998.78
   01:57:24.416.10-May-2021 4567.51  493.79 60.87 19.00 419.07 2998.78
   01:57:24.616.10-May-2021 4567.51  493.79 60.87 19.00 419.27 2998.78
   01:57:24.816.10-May-2021 4567.51  493.67 60.87 19.00 419.47 2998.78
   01:57:25.016.10-May-2021 4567.51  493.65 60.87 19.00 419.67 2998.78
   01:57:25.216.10-May-2021 4567.51  493.66 60.87 19.00 419.87 2998.78
   01:57:25.416.10-May-2021 4567.51  493.65 60.87 19.00 420.07 2998.78
   01:57:25.616.10-May-2021 4567.51  493.65 60.87 19.00 420.27 2998.78
   01:57:25.816.10-May-2021 4567.51  493.68 60.87 19.00 420.47 2998.78
   01:57:26.016.10-May-2021 4567.51  493.70 60.87 19.00 420.67 2998.78
   01:57:26.216.10-May-2021 4567.51  493.64 60.87 19.00 420.87 2998.78
   01:57:26.416.10-May-2021 4567.51  493.30 60.87 19.00 421.07 2998.78
   01:57:26.616.10-May-2021 4567.51  493.30 60.87 19.00 421.28 2998.78
   01:57:26.816.10-May-2021 4567.51  493.68 60.87 19.00 421.48 2998.78
   01:57:27.016.10-May-2021 4567.51  493.65 60.87 19.00 421.68 2998.78
   01:57:27.216.10-May-2021 4567.51  493.71 60.87 19.00 421.88 2998.78
   01:57:27.416.10-May-2021 4567.51  493.65 60.87 19.00 422.08 2998.78
   01:57:27.616.10-May-2021 4567.51  493.65 60.87 19.00 422.28 2998.78
   01:57:27.816.10-May-2021 4567.51  493.65 60.87 19.00 422.48 2998.78
   01:57:28.016.10-May-2021 4567.51  493.65 60.87 19.00 422.68 2998.78
   01:57:28.216.10-May-2021 4567.51  493.65 60.87 19.00 422.88 2998.78
   01:57:28.416.10-May-2021 4567.51  493.68 60.87 19.00 423.08 2998.78
   01:57:28.616.10-May-2021 4567.51  493.68 60.87 19.00 423.28 2998.78
   01:57:28.816.10-May-2021 4567.51  491.43 60.87 19.00 423.48 2998.78
   01:57:29.016.10-May-2021 4567.51  493.41 60.87 19.00 423.68 2998.78
   01:57:29.217.10-May-2021 4567.51  493.81 60.87 19.00 423.88 2998.78
   01:57:29.417.10-May-2021 4567.51  493.72 60.87 19.00 424.08 2998.78
   01:57:29.617.10-May-2021 4567.51  493.72 60.87 19.00 424.28 2998.78
   01:57:29.817.10-May-2021 4567.51  493.73 60.87 19.00 424.48 2998.78
   01:57:30.017.10-May-2021 4567.51  493.34 60.87 19.00 424.68 2998.78
   01:57:30.217.10-May-2021 4567.51  493.69 60.87 19.00 424.88 2998.78
   01:57:30.417.10-May-2021 4567.51  493.68 60.87 19.00 425.08 2998.78
   01:57:30.617.10-May-2021 4567.51  493.68 60.87 19.00 425.28 2998.78
   01:57:30.817.10-May-2021 4567.51  493.69 60.87 19.00 425.48 2998.78
   01:57:31.017.10-May-2021 4567.51  493.48 60.87 19.00 425.68 2998.78
   01:57:31.217.10-May-2021 4567.51  493.40 60.87 19.00 425.88 2998.78
   01:57:31.417.10-May-2021 4567.51  493.79 60.87 19.00 426.08 2998.78
   01:57:31.617.10-May-2021 4567.51  493.79 60.87 19.00 426.28 2998.78
   01:57:31.817.10-May-2021 4567.51  493.68 60.87 19.00 426.48 2998.78
   01:57:32.017.10-May-2021 4567.51  493.69 60.87 19.00 426.68 2998.78
   01:57:32.217.10-May-2021 4567.51  493.21 60.87 19.00 426.88 2998.78
   01:57:32.417.10-May-2021 4567.51  493.68 60.87 19.00 427.08 2998.78
   01:57:32.617.10-May-2021 4567.51  493.85 60.87 19.00 427.28 2998.78
   01:57:32.817.10-May-2021 4567.51  493.85 60.87 19.00 427.48 2998.78
   01:57:33.017.10-May-2021 4567.51  493.85 60.87 19.00 427.68 2998.78
   01:57:33.217.10-May-2021 4567.51  493.61 60.87 19.00 427.88 2998.78
   01:57:33.417.10-May-2021 4567.51  493.61 60.87 19.00 428.08 2998.78
   01:57:33.617.10-May-2021 4567.51  493.61 60.87 19.00 428.28 2998.78
   01:57:33.817.10-May-2021 4567.51  493.59 60.87 19.00 428.48 2998.78
   01:57:34.017.10-May-2021 4567.51  493.60 60.87 19.00 428.68 2998.78
   01:57:34.217.10-May-2021 4567.51  493.62 60.87 19.00 428.88 2998.78
   01:57:34.417.10-May-2021 4567.51  493.64 60.87 19.00 429.08 2998.78
   01:57:34.617.10-May-2021 4567.51  493.64 60.87 19.00 429.28 2998.78
