~Version Information
 VERS.                  2.0:   CWLS log ASCII Standard -VERSION 2.0
 WRAP.                   NO:   One line per depth step
~Well Information Block
#MNEM.UNIT     VALUE/NAME     DESCRIPTION
#---------     -----------    ---------------------------
 STRT.S             06:41:26 09-May-21: START TIME 06:41:26 09-May-21
 STOP.S             06:48:05 09-May-21: STOP TIME  06:48:05 09-May-21
 STEP.S                   0.00: STEP TIME
 NULL.                 -999.25: NULL VALUE
 PROV.                    Baku:  PROVINCE
 STAT.                    Baku:  STATE NAME
 SON .        AZ-XX-0906571588:  JOB NUMBER
 WTYP.                Deviated:  WELL TYPE
 COMP.     BP Exploration (Caspian Sea) ltd:  COMPANY
 BASE.              Azerbaijan:  LOGGING EQUIPMENT BASE LOCATION
 REGN.                   EESSA:  REGION
 CTRY.              Azerbaijan:  COUNTRY NAME
 FLD .                     ACG:  FIELD NAME
 WELL.                     J28:  WELL NAME
 RIG .             West Chirag:  RIG NAME
 DMF .             Drill Floor:  DRILL MEAS FROM
 PDAT.       Caspian Sea Level:  PERMANENT DATUM
 HPTY.       Minimum Curvature:  HOLE POS TYPE
 MDS .        Operator Entered:  MAG DATA SOURCE
 NREF.                    Grid:  NORTH REFERENCE
 SRVC.          TURAN DRILLING:  CONTRACTOR
 JOBN.        AZ-XX-0906571588:  JOB TICKET NUMB
 DCON.     Halliburton Sperry Drilling:  DIRECTNL CONTR
 STIM.      00.44.00 11-Feb-21:  START TIME
 DATE.      00.00.00 05-May-21:  END TIME
 SPUD.               13-Feb-21:  SPUD DATE
 MWDS.                    Baku:  MWD SHOP
 DOE .                     N/A:  DOE NUMBER
 UNIT.                     N/A:  LOGGING EQUIPMENT ID
 UWI .                     N/A:  UNIQUE WELL IDENTIFIER
 API .                     N/A:  API NUMBER
 CNTY.                        :  COUNTY
 LOC .                        :  LOCATION
 LMF .             Drill Floor:  LOG MEASURED FROM
 TVDS.m                  43.00:  TVDSS CORRECTN
 SDEP.m                 341.00:  START DEPTH
 EGL .m                   0.00:  GROUND ELEVATION
 WDMS.m                 169.80:  WD ELEV
 AGAP.m                  43.00:  AIR GAP
 EPD .m                   0.00:  ELEVATION
 APD .m                  43.00:  DEPTH ABOVE PD
 LATI.deg                40.13:  LATITUDE
 LONG.deg                51.22:  LONGITUDE
 UTMY.m             4443793.85:  UTM Y
 UTMX.m              519005.06:  UTM X
 WHEW.m                 -11.57:  WELL HEAD E/W
 WHNS.m                   8.57:  WELL HEAD N/S
 VSEW.m                 -11.57:  VERT SEC E/W
 VSNS.m                   8.57:  VERT SEC N/S
 DFWL.m                   0.00:  DISTANCE FWL
 DFSL.m                   0.00:  DISTANCE FSL
 VSDR.deg               299.34:  VERT SEC DIRECT
 GVFD.g                   1.00:  GRAVITY FIELD
 AZTC.deg                 6.36:  AZM TOTAL CORR
 MFLD.nT              50391.00:  MAGNETIC FIELD
 MDIP.deg                59.65:  MAGNETIC DIP
 MDEC.deg                 6.48:  MAGNETIC DECL
 GRDC.deg                 0.12:  GRID CORRECTION
 DEP .m                 334.96:  DEPTH
 TDD .m                1407.26:  TOTAL DEPTH (DRILLER)
 EKB .m                  43.00:  KB ELEVATION
 EDF .m                  43.00:  DF ELEVATION
 TDL .m                 228.00:  TOTAL DEPTH (LOGGER)
 VSC .                       0:  VS TO CLOSURE
 MAGU.                 1854484:  MAGUTM CHECKSUM
~Parameter Information Block
#MNEM.UNIT       Value        Description
#---------     -----------    ---------------------------
 AV  .mps                 4.00:  Ann Velocity 
 AVMX.mps                 4.73:  Max Ann Veloc 
 AZIF.deg               304.48:  Azm, Final 
 BHAT.        Rotary Steerable:  BHA Type 
 BREV.rev            257300.00:  Rev Bit Total 
 BROT.°/30m               0.00:  Build Rotating 
 BS  .in                  8.50:  Bit Size 
 BSZ .in                  8.50:  Bit Size 
 BTPL.psig              589.00:  Bit Press Loss 
 CABU.                      No:  Customer Abuse 
 CGEO.          Mubariz ghayev:  Customer Geo 
 COMM.                     ì
‚:  Run Comments 1 
 TCS .hr                 64.25:  Time Ciculation Ended 
 CV  .mps                 3.50:  Crit Velocity 
 CVMX.mps                 4.52:  Max Crit Veloc 
 DD1 .             Aziz Aliyev:  Direct Drillr 1 
 DD2 .         Intigam Rahimov:  Direct Drillr 2 
 DD3 .          Rashad Habibov:  Direct Drillr 3 
 DDSV.               Geo-Pilot:  DD Service 
 DEFF.%                  98.00:  % Det Eff 
 DLRX.°/30m               0.00:  Dogleg Rot Max 
 DLSO.°/30m               0.00:  Dogleg Oriented 
 DLSX.°/30m               0.00:  Dogleg Str Max 
 DRET.      10.45.04 08-May-21:  Drill End Time 
 DRST.      03.30.04 04-May-21:  Drill Start Tim 
 DTIM.hr                 14.97:  Time Drilling 
 EDEP.m                4640.01:  End Depth 
 ENG1.         Dail Mahammadov:  Engineer 1 
 ENG2.           Eldar Hajiyev:  Engineer 2 
 ENG3.       Bakhtiar Jabbarli:  Engineer 3 
 ENG4.       Natik Hasanagayev:  Engineer 4 
 ETIM.      09.30.04 14-May-21:  End Time 
 FLOI.gpm               460.00:  Flow In 
 FLON.gpm               200.00:  Flow In Min 
 FLOS.cptm                0.00:  Fluid Loss 
 FLOX.gpm               505.00:  Flow In Max 
 HFLO.                      No:  High Flow 
 HPRE.                      No:  High Pressure 
 HTEM.                      No:  High Temp 
 HYDO.m                   1.80:  Hydro Offset 
 IFIN.deg                66.71:  Inc, Final 
 IMAX.deg                67.03:  Inc Max 
 IMIN.deg                66.63:  Inc Min 
 IMND.m                4550.58:  Inc Min Depth 
 IMXD.m                4439.01:  Inc Max Depth 
 JARR.                      No:  Jarring 
 LETM.      10.45.04 08-May-21:  Log End Time 
 LOST.hr                     0:  Lost Rig Time 
 LSTM.      03.30.04 04-May-21:  Log Start Time 
 MDCL.ppm             37000.00:  Mud Chlorides 
 MDES.     Inversion Oil/Synthetic:  Mud Desc 
 DFD .sg                  1.38:  Mud Density 
 MDMN.sg                  1.35:  Dens Mud Min 
 MDMX.sg                  1.40:  Dens Mud Max 
 MOIL.                   57.40:  Run Mud Oil % 
 MOWR.                   70:30:  Run Mud OWR 
 MSND.                    0.00:  Run Mud Sand % 
 MSOL.                   18.00:  Run Mud Solids% 
 DFV .spqt               71.00:  Mud Viscosity 
 MWOD.in                  6.75:  MWD Tool OD 
 MWSI.                      No:  Serv Intrp, MWD 
 OTIM.hr                242.76:  Time Operating 
 PCON.           Look Like New:  Pad Condition 
 PMAX.psia            12183.92:  Press Op, Max 
 PV  .cP                 27.00:  Mud PV 
 RUN .                    1300:  Run Number 
 ROPA.m/hr               15.00:  ROP Avg 
 ROPN.m/hr                9.00:  ROP Min 
 ROPX.m/hr               19.00:  ROP Max 
 RPMA.rpm               120.00:  RPM Surface Avg 
 RPMN.rpm               100.00:  RPM Surface Min 
 RPMX.rpm               120.00:  RPM Surface Max 
 RRUN.                    1300:  Rig Run Number 
 RTIM.hr                  5.00:  Time Reaming 
 SAZI.deg               304.73:  Azm, Start 
 SDEP.m                4412.01:  Start Depth 
 SIDD.                      No:  Serv Intrp, DD 
 SINC.deg                66.82:  Inc, Start 
 SPPA.psig             2800.00:  SPP Avg 
 SPPN.psig             2610.00:  SPP Min 
 SPPX.psig             3100.00:  SPP Max 
 STIM.      03.30.00 04-May-21:  Start Time 
 SVCS.                 DD, MWD:  Services 
 SVER.                    9.20:  Sperry Version 
 TDAT.m                 228.00:  Tot Depth Attmp 
 TDDF.                      No:  Trip for DD 
 TDLG.m                 228.00:  Tot Depth Loggd 
 TFF .                      No:  Trip for Fail 
 TQAA.f-kp               15.00:  Torque Abs Avg 
 TQAN.f-kp               12.00:  Torque Abs Min 
 TQAX.f-kp               22.00:  Torque Abs Max 
 TRRT.°/30m               0.00:  Turn Rotating 
 MRT .                    HCIM:  Maximum Recorded Temperature 
 TTMX.degC               90.20:  Max Tool Temp 
 VS01.                90627813:  Virtual Str1 SN 
 VS02.                90634712:  Virtual Str2 SN 
 VS03.                90643410:  Virtual Str3 SN 
 VS04.                90634712:  Virtual Str4 SN 
 WBMN.klb                 9.00:  WOB Min 
 WITN.        Elmaddin Rahimov:  Customer Rep 
 WITN.         Haytham Mostafa:  Customer Rep 2 
 WOBA.klb                15.00:  WOB Avg 
 WOBX.klb                23.00:  WOB Max 
 YP  .lhf2               29.00:  Yield Point 
~Curve Information Block
#MNEM.UNIT                 API CODE     Curve Description
#---------               -----------    ---------------------------
 TIME.HHMMSS            00 000 000 000:  GT Time & Date
 GTDEPTH.m              00 000 000 000:  GT Depth
 GTPQH.psia             00 000 000 000:  GT HR Quartz Pressure
 GTTQ.degC              00 000 000 000:  GT Quartz Temperature
 GTTN.NONE              00 000 000 000:  GT Test Number
 GTET.sec               00 000 000 000:  GT Elapsed Test Time
 GTTVD.m                00 000 000 000:  GT True Vertical Depth
#Other Information
#
#WARRANTY: Halliburton will use its best efforts to furnish customers with 
#accurate information and interpretations that are part of, and incident to, the services 
#provided.  However, Halliburton cannot and does not warrant the accuracy 
#or correctness of such information and interpretations.  Under no circumstances should any 
#such information or interpretation be relied upon as the sole basis for any drilling, 
#completion, production, or financial decision or any procedure involving any risk to the 
#safety of any drilling venture, drilling rig or its crew or any other third party.  The 
#Customer has full responsibility for all drilling, completion and production operation.  
#Halliburton makes no representations or warranties, either expressed or 
#implied, including, but not limited to, the implied warranties of merchantability or fitness 
#for a particular purpose, with respect to the services rendered.  In no event will 
#Halliburton be liable for failure to obtain any particular results or for 
#any damages, including, but not limited to, indirect, special or consequential damages, 
#resulting from the use of any information or interpretation provided by Halliburton.
#
~A           TIME           GTDEPTH  GTPQH  GTTQ  GTTN   GTET   GTTVD  
   06:41:26.000.09-May-2021 4440.01 6474.21 65.79 15.00   0.00 2948.57
   06:41:26.200.09-May-2021 4440.01 6474.21 65.79 15.00   0.20 2948.57
   06:41:26.400.09-May-2021 4440.01 6473.10 65.79 15.00   0.40 2948.57
   06:41:26.600.09-May-2021 4440.01 6470.91 65.78 15.00   0.60 2948.57
   06:41:26.800.09-May-2021 4440.01 6471.59 65.79 15.00   0.80 2948.57
   06:41:27.000.09-May-2021 4440.01 6470.71 65.78 15.00   1.00 2948.57
   06:41:27.200.09-May-2021 4440.01 6470.71 65.78 15.00   1.20 2948.57
   06:41:27.400.09-May-2021 4440.01 6470.03 65.78 15.00   1.40 2948.57
   06:41:27.600.09-May-2021 4440.01 6469.90 65.78 15.00   1.60 2948.57
   06:41:27.800.09-May-2021 4440.01 6469.94 65.78 15.00   1.80 2948.57
   06:41:28.000.09-May-2021 4440.01 6470.46 65.78 15.00   2.00 2948.57
   06:41:28.200.09-May-2021 4440.01 6470.46 65.78 15.00   2.20 2948.57
   06:41:28.400.09-May-2021 4440.01 6477.66 65.78 15.00   2.40 2948.57
   06:41:28.600.09-May-2021 4440.01 6477.78 65.78 15.00   2.60 2948.57
   06:41:28.800.09-May-2021 4440.01 6471.35 65.78 15.00   2.80 2948.57
   06:41:29.000.09-May-2021 4440.01 6483.11 65.78 15.00   3.00 2948.57
   06:41:29.200.09-May-2021 4440.01 6483.11 65.78 15.00   3.20 2948.57
   06:41:29.400.09-May-2021 4440.01 6479.58 65.78 15.00   3.40 2948.57
   06:41:29.600.09-May-2021 4440.01 6474.37 65.78 15.00   3.60 2948.57
   06:41:29.800.09-May-2021 4440.01 6482.59 65.78 15.00   3.80 2948.57
   06:41:30.000.09-May-2021 4440.01 6473.25 65.78 15.00   4.00 2948.57
   06:41:30.200.09-May-2021 4440.01 6473.25 65.78 15.00   4.20 2948.57
   06:41:30.400.09-May-2021 4440.01 6477.75 65.78 15.00   4.40 2948.57
   06:41:30.600.09-May-2021 4440.01 6483.46 65.78 15.00   4.60 2948.57
   06:41:30.800.09-May-2021 4440.01 6474.89 65.78 15.00   4.80 2948.57
   06:41:31.000.09-May-2021 4440.01 6478.28 65.78 15.00   5.00 2948.57
   06:41:31.200.09-May-2021 4440.01 6478.28 65.78 15.00   5.20 2948.57
   06:41:31.400.09-May-2021 4440.01 6476.06 65.78 15.00   5.40 2948.57
   06:41:31.600.09-May-2021 4440.01 6477.87 65.78 15.00   5.60 2948.57
   06:41:31.800.09-May-2021 4440.01 6479.78 65.78 15.00   5.80 2948.57
   06:41:32.000.09-May-2021 4440.01 6483.21 65.78 15.00   6.00 2948.57
   06:41:32.200.09-May-2021 4440.01 6483.21 65.78 15.00   6.20 2948.57
   06:41:32.400.09-May-2021 4440.01 6477.31 65.78 15.00   6.40 2948.57
   06:41:32.600.09-May-2021 4440.01 6476.45 65.78 15.00   6.60 2948.57
   06:41:32.800.09-May-2021 4440.01 6478.18 65.78 15.00   6.80 2948.57
   06:41:33.000.09-May-2021 4440.01 6485.21 65.78 15.00   7.00 2948.57
   06:41:33.200.09-May-2021 4440.01 6485.21 65.78 15.00   7.20 2948.57
   06:41:33.400.09-May-2021 4440.01 6481.83 65.78 15.00   7.40 2948.57
   06:41:33.600.09-May-2021 4440.01 6482.10 65.78 15.00   7.60 2948.57
   06:41:33.800.09-May-2021 4440.01 6478.99 65.78 15.00   7.80 2948.57
   06:41:34.000.09-May-2021 4440.01 6480.66 65.78 15.00   8.00 2948.57
   06:41:34.200.09-May-2021 4440.01 6480.66 65.78 15.00   8.20 2948.57
   06:41:34.400.09-May-2021 4440.01 6479.19 65.78 15.00   8.40 2948.57
   06:41:34.600.09-May-2021 4440.01 6478.53 65.78 15.00   8.60 2948.57
   06:41:34.800.09-May-2021 4440.01 6479.17 65.78 15.00   8.80 2948.57
   06:41:35.000.09-May-2021 4440.01 6479.17 65.78 15.00   9.00 2948.57
   06:41:35.200.09-May-2021 4440.01 6479.17 65.78 15.00   9.20 2948.57
   06:41:35.400.09-May-2021 4440.01 6479.28 65.78 15.00   9.40 2948.57
   06:41:35.600.09-May-2021 4440.01 6479.19 65.78 15.00   9.60 2948.57
   06:41:35.800.09-May-2021 4440.01 6484.93 65.78 15.00   9.80 2948.57
   06:41:36.000.09-May-2021 4440.01 6481.30 65.78 15.00  10.00 2948.57
   06:41:36.200.09-May-2021 4440.01 6481.30 65.78 15.00  10.20 2948.57
   06:41:36.400.09-May-2021 4440.01 6481.98 65.78 15.00  10.40 2948.57
   06:41:36.600.09-May-2021 4440.01 6481.01 65.78 15.00  10.60 2948.57
   06:41:36.800.09-May-2021 4440.01 6482.21 65.78 15.00  10.80 2948.57
   06:41:37.000.09-May-2021 4440.01 6480.49 65.78 15.00  11.00 2948.57
   06:41:37.200.09-May-2021 4440.01 6480.49 65.78 15.00  11.20 2948.57
   06:41:37.400.09-May-2021 4440.01 6480.67 65.78 15.00  11.40 2948.57
   06:41:37.600.09-May-2021 4440.01 6480.49 65.78 15.00  11.60 2948.57
   06:41:37.800.09-May-2021 4440.01 6480.87 65.78 15.00  11.80 2948.57
   06:41:38.000.09-May-2021 4440.01 6480.53 65.78 15.00  12.00 2948.57
   06:41:38.200.09-May-2021 4440.01 6480.53 65.78 15.00  12.20 2948.57
   06:41:38.400.09-May-2021 4440.01 6480.53 65.78 15.00  12.40 2948.57
   06:41:38.600.09-May-2021 4440.01 6489.00 65.78 15.00  12.60 2948.57
   06:41:38.800.09-May-2021 4440.01 6479.46 65.78 15.00  12.80 2948.57
   06:41:39.000.09-May-2021 4440.01 6484.91 65.78 15.00  13.00 2948.57
   06:41:39.200.09-May-2021 4440.01 6484.91 65.78 15.00  13.20 2948.57
   06:41:39.400.09-May-2021 4440.01 6481.31 65.78 15.00  13.40 2948.57
   06:41:39.600.09-May-2021 4440.01 6491.59 65.78 15.00  13.60 2948.57
   06:41:39.800.09-May-2021 4440.01 6479.77 65.78 15.00  13.80 2948.57
   06:41:40.000.09-May-2021 4440.01 6485.85 65.78 15.00  14.00 2948.57
   06:41:40.200.09-May-2021 4440.01 6485.85 65.78 15.00  14.20 2948.57
   06:41:40.400.09-May-2021 4440.01 6484.41 65.78 15.00  14.40 2948.57
   06:41:40.600.09-May-2021 4440.01 6492.34 65.78 15.00  14.60 2948.57
   06:41:40.800.09-May-2021 4440.01 6479.82 65.78 15.00  14.80 2948.57
   06:41:41.000.09-May-2021 4440.01 6488.54 65.78 15.00  15.00 2948.57
   06:41:41.200.09-May-2021 4440.01 6488.54 65.78 15.00  15.20 2948.57
   06:41:41.400.09-May-2021 4440.01 6484.80 65.78 15.00  15.40 2948.57
   06:41:41.600.09-May-2021 4440.01 6489.14 65.78 15.00  15.60 2948.57
   06:41:41.800.09-May-2021 4440.01 6483.26 65.78 15.00  15.80 2948.57
   06:41:42.000.09-May-2021 4440.01 6489.77 65.78 15.00  16.00 2948.57
   06:41:42.200.09-May-2021 4440.01 6489.77 65.78 15.00  16.20 2948.57
   06:41:42.400.09-May-2021 4440.01 6486.03 65.78 15.00  16.40 2948.57
   06:41:42.600.09-May-2021 4440.01 6491.41 65.78 15.00  16.60 2948.57
   06:41:42.800.09-May-2021 4440.01 6484.87 65.78 15.00  16.80 2948.57
   06:41:43.000.09-May-2021 4440.01 6486.68 65.78 15.00  17.00 2948.57
   06:41:43.200.09-May-2021 4440.01 6486.68 65.78 15.00  17.20 2948.57
   06:41:43.400.09-May-2021 4440.01 6491.86 65.78 15.00  17.40 2948.57
   06:41:43.600.09-May-2021 4440.01 6486.31 65.78 15.00  17.60 2948.57
   06:41:43.800.09-May-2021 4440.01 6493.39 65.78 15.00  17.80 2948.57
   06:41:44.000.09-May-2021 4440.01 6486.53 65.78 15.00  18.00 2948.57
   06:41:44.200.09-May-2021 4440.01 6486.53 65.78 15.00  18.20 2948.57
   06:41:44.400.09-May-2021 4440.01 6489.14 65.78 15.00  18.40 2948.57
   06:41:44.600.09-May-2021 4440.01 6486.75 65.78 15.00  18.60 2948.57
   06:41:44.800.09-May-2021 4440.01 6486.01 65.78 15.00  18.80 2948.57
   06:41:45.000.09-May-2021 4440.01 6486.43 65.78 15.00  19.00 2948.57
   06:41:45.200.09-May-2021 4440.01 6486.43 65.78 15.00  19.20 2948.57
   06:41:45.400.09-May-2021 4440.01 6486.60 65.78 15.00  19.40 2948.57
   06:41:45.600.09-May-2021 4440.01 6486.74 65.78 15.00  19.60 2948.57
   06:41:45.800.09-May-2021 4440.01 6487.90 65.77 15.00  19.80 2948.57
   06:41:46.000.09-May-2021 4440.01 6492.90 65.77 15.00  20.00 2948.57
   06:41:46.200.09-May-2021 4440.01 6492.90 65.77 15.00  20.20 2948.57
   06:41:46.400.09-May-2021 4440.01 6494.49 65.77 15.00  20.40 2948.57
   06:41:46.600.09-May-2021 4440.01 6487.91 65.77 15.00  20.60 2948.57
   06:41:46.800.09-May-2021 4440.01 6490.71 65.77 15.00  20.80 2948.57
   06:41:47.000.09-May-2021 4440.01 6487.51 65.77 15.00  21.00 2948.57
   06:41:47.200.09-May-2021 4440.01 6487.51 65.77 15.00  21.20 2948.57
   06:41:47.400.09-May-2021 4440.01 6487.58 65.77 15.00  21.40 2948.57
   06:41:47.600.09-May-2021 4440.01 6488.40 65.77 15.00  21.60 2948.57
   06:41:47.800.09-May-2021 4440.01 6488.01 65.77 15.00  21.80 2948.57
   06:41:48.000.09-May-2021 4440.01 6488.12 65.77 15.00  22.00 2948.57
   06:41:48.200.09-May-2021 4440.01 6488.12 65.77 15.00  22.20 2948.57
   06:41:48.400.09-May-2021 4440.01 6487.73 65.77 15.00  22.40 2948.57
