~Version Information
 VERS.                  2.0:   CWLS log ASCII Standard -VERSION 2.0
 WRAP.                   NO:   One line per depth step
~Well Information Block
#MNEM.UNIT     VALUE/NAME     DESCRIPTION
#---------     -----------    ---------------------------
 STRT.S             01:12:50 09-May-21: START TIME 01:12:50 09-May-21
 STOP.S             01:19:27 09-May-21: STOP TIME  01:19:27 09-May-21
 STEP.S                   0.00: STEP TIME
 NULL.                 -999.25: NULL VALUE
 PROV.                    Baku:  PROVINCE
 STAT.                    Baku:  STATE NAME
 SON .        AZ-XX-0906571588:  JOB NUMBER
 WTYP.                Deviated:  WELL TYPE
 COMP.     BP Exploration (Caspian Sea) ltd:  COMPANY
 BASE.              Azerbaijan:  LOGGING EQUIPMENT BASE LOCATION
 REGN.                   EESSA:  REGION
 CTRY.              Azerbaijan:  COUNTRY NAME
 FLD .                     ACG:  FIELD NAME
 WELL.                     J28:  WELL NAME
 RIG .             West Chirag:  RIG NAME
 DMF .             Drill Floor:  DRILL MEAS FROM
 PDAT.       Caspian Sea Level:  PERMANENT DATUM
 HPTY.       Minimum Curvature:  HOLE POS TYPE
 MDS .        Operator Entered:  MAG DATA SOURCE
 NREF.                    Grid:  NORTH REFERENCE
 SRVC.          TURAN DRILLING:  CONTRACTOR
 JOBN.        AZ-XX-0906571588:  JOB TICKET NUMB
 DCON.     Halliburton Sperry Drilling:  DIRECTNL CONTR
 STIM.      00.44.00 11-Feb-21:  START TIME
 DATE.      00.00.00 05-May-21:  END TIME
 SPUD.               13-Feb-21:  SPUD DATE
 MWDS.                    Baku:  MWD SHOP
 DOE .                     N/A:  DOE NUMBER
 UNIT.                     N/A:  LOGGING EQUIPMENT ID
 UWI .                     N/A:  UNIQUE WELL IDENTIFIER
 API .                     N/A:  API NUMBER
 CNTY.                        :  COUNTY
 LOC .                        :  LOCATION
 LMF .             Drill Floor:  LOG MEASURED FROM
 TVDS.m                  43.00:  TVDSS CORRECTN
 SDEP.m                 341.00:  START DEPTH
 EGL .m                   0.00:  GROUND ELEVATION
 WDMS.m                 169.80:  WD ELEV
 AGAP.m                  43.00:  AIR GAP
 EPD .m                   0.00:  ELEVATION
 APD .m                  43.00:  DEPTH ABOVE PD
 LATI.deg                40.13:  LATITUDE
 LONG.deg                51.22:  LONGITUDE
 UTMY.m             4443793.85:  UTM Y
 UTMX.m              519005.06:  UTM X
 WHEW.m                 -11.57:  WELL HEAD E/W
 WHNS.m                   8.57:  WELL HEAD N/S
 VSEW.m                 -11.57:  VERT SEC E/W
 VSNS.m                   8.57:  VERT SEC N/S
 DFWL.m                   0.00:  DISTANCE FWL
 DFSL.m                   0.00:  DISTANCE FSL
 VSDR.deg               299.34:  VERT SEC DIRECT
 GVFD.g                   1.00:  GRAVITY FIELD
 AZTC.deg                 6.36:  AZM TOTAL CORR
 MFLD.nT              50391.00:  MAGNETIC FIELD
 MDIP.deg                59.65:  MAGNETIC DIP
 MDEC.deg                 6.48:  MAGNETIC DECL
 GRDC.deg                 0.12:  GRID CORRECTION
 DEP .m                 334.96:  DEPTH
 TDD .m                1407.26:  TOTAL DEPTH (DRILLER)
 EKB .m                  43.00:  KB ELEVATION
 EDF .m                  43.00:  DF ELEVATION
 TDL .m                 228.00:  TOTAL DEPTH (LOGGER)
 VSC .                       0:  VS TO CLOSURE
 MAGU.                 1854484:  MAGUTM CHECKSUM
~Parameter Information Block
#MNEM.UNIT       Value        Description
#---------     -----------    ---------------------------
 AV  .mps                 4.00:  Ann Velocity 
 AVMX.mps                 4.73:  Max Ann Veloc 
 AZIF.deg               304.48:  Azm, Final 
 BHAT.        Rotary Steerable:  BHA Type 
 BREV.rev            257300.00:  Rev Bit Total 
 BROT.°/30m               0.00:  Build Rotating 
 BS  .in                  8.50:  Bit Size 
 BSZ .in                  8.50:  Bit Size 
 BTPL.psig              589.00:  Bit Press Loss 
 CABU.                      No:  Customer Abuse 
 CGEO.          Mubariz ghayev:  Customer Geo 
 COMM.                     ÌğZ:  Run Comments 1 
 TCS .hr                 64.25:  Time Ciculation Ended 
 CV  .mps                 3.50:  Crit Velocity 
 CVMX.mps                 4.52:  Max Crit Veloc 
 DD1 .             Aziz Aliyev:  Direct Drillr 1 
 DD2 .         Intigam Rahimov:  Direct Drillr 2 
 DD3 .          Rashad Habibov:  Direct Drillr 3 
 DDSV.               Geo-Pilot:  DD Service 
 DEFF.%                  98.00:  % Det Eff 
 DLRX.°/30m               0.00:  Dogleg Rot Max 
 DLSO.°/30m               0.00:  Dogleg Oriented 
 DLSX.°/30m               0.00:  Dogleg Str Max 
 DRET.      10.45.04 08-May-21:  Drill End Time 
 DRST.      03.30.04 04-May-21:  Drill Start Tim 
 DTIM.hr                 14.97:  Time Drilling 
 EDEP.m                4640.01:  End Depth 
 ENG1.         Dail Mahammadov:  Engineer 1 
 ENG2.           Eldar Hajiyev:  Engineer 2 
 ENG3.       Bakhtiar Jabbarli:  Engineer 3 
 ENG4.       Natik Hasanagayev:  Engineer 4 
 ETIM.      09.30.04 14-May-21:  End Time 
 FLOI.gpm               460.00:  Flow In 
 FLON.gpm               200.00:  Flow In Min 
 FLOS.cptm                0.00:  Fluid Loss 
 FLOX.gpm               505.00:  Flow In Max 
 HFLO.                      No:  High Flow 
 HPRE.                      No:  High Pressure 
 HTEM.                      No:  High Temp 
 HYDO.m                   1.80:  Hydro Offset 
 IFIN.deg                66.71:  Inc, Final 
 IMAX.deg                67.03:  Inc Max 
 IMIN.deg                66.63:  Inc Min 
 IMND.m                4550.58:  Inc Min Depth 
 IMXD.m                4439.01:  Inc Max Depth 
 JARR.                      No:  Jarring 
 LETM.      10.45.04 08-May-21:  Log End Time 
 LOST.hr                     0:  Lost Rig Time 
 LSTM.      03.30.04 04-May-21:  Log Start Time 
 MDCL.ppm             37000.00:  Mud Chlorides 
 MDES.     Inversion Oil/Synthetic:  Mud Desc 
 DFD .sg                  1.38:  Mud Density 
 MDMN.sg                  1.35:  Dens Mud Min 
 MDMX.sg                  1.40:  Dens Mud Max 
 MOIL.                   57.40:  Run Mud Oil % 
 MOWR.                   70:30:  Run Mud OWR 
 MSND.                    0.00:  Run Mud Sand % 
 MSOL.                   18.00:  Run Mud Solids% 
 DFV .spqt               71.00:  Mud Viscosity 
 MWOD.in                  6.75:  MWD Tool OD 
 MWSI.                      No:  Serv Intrp, MWD 
 OTIM.hr                242.76:  Time Operating 
 PCON.           Look Like New:  Pad Condition 
 PMAX.psia            12183.92:  Press Op, Max 
 PV  .cP                 27.00:  Mud PV 
 RUN .                    1300:  Run Number 
 ROPA.m/hr               15.00:  ROP Avg 
 ROPN.m/hr                9.00:  ROP Min 
 ROPX.m/hr               19.00:  ROP Max 
 RPMA.rpm               120.00:  RPM Surface Avg 
 RPMN.rpm               100.00:  RPM Surface Min 
 RPMX.rpm               120.00:  RPM Surface Max 
 RRUN.                    1300:  Rig Run Number 
 RTIM.hr                  5.00:  Time Reaming 
 SAZI.deg               304.73:  Azm, Start 
 SDEP.m                4412.01:  Start Depth 
 SIDD.                      No:  Serv Intrp, DD 
 SINC.deg                66.82:  Inc, Start 
 SPPA.psig             2800.00:  SPP Avg 
 SPPN.psig             2610.00:  SPP Min 
 SPPX.psig             3100.00:  SPP Max 
 STIM.      03.30.00 04-May-21:  Start Time 
 SVCS.                 DD, MWD:  Services 
 SVER.                    9.20:  Sperry Version 
 TDAT.m                 228.00:  Tot Depth Attmp 
 TDDF.                      No:  Trip for DD 
 TDLG.m                 228.00:  Tot Depth Loggd 
 TFF .                      No:  Trip for Fail 
 TQAA.f-kp               15.00:  Torque Abs Avg 
 TQAN.f-kp               12.00:  Torque Abs Min 
 TQAX.f-kp               22.00:  Torque Abs Max 
 TRRT.°/30m               0.00:  Turn Rotating 
 MRT .                    HCIM:  Maximum Recorded Temperature 
 TTMX.degC               90.20:  Max Tool Temp 
 VS01.                90627813:  Virtual Str1 SN 
 VS02.                90634712:  Virtual Str2 SN 
 VS03.                90643410:  Virtual Str3 SN 
 VS04.                90634712:  Virtual Str4 SN 
 WBMN.klb                 9.00:  WOB Min 
 WITN.        Elmaddin Rahimov:  Customer Rep 
 WITN.         Haytham Mostafa:  Customer Rep 2 
 WOBA.klb                15.00:  WOB Avg 
 WOBX.klb                23.00:  WOB Max 
 YP  .lhf2               29.00:  Yield Point 
~Curve Information Block
#MNEM.UNIT                 API CODE     Curve Description
#---------               -----------    ---------------------------
 TIME.HHMMSS            00 000 000 000:  GT Time & Date
 GTDEPTH.m              00 000 000 000:  GT Depth
 GTPQH.psia             00 000 000 000:  GT HR Quartz Pressure
 GTTQ.degC              00 000 000 000:  GT Quartz Temperature
 GTTN.NONE              00 000 000 000:  GT Test Number
 GTET.sec               00 000 000 000:  GT Elapsed Test Time
 GTTVD.m                00 000 000 000:  GT True Vertical Depth
#Other Information
#
#WARRANTY: Halliburton will use its best efforts to furnish customers with 
#accurate information and interpretations that are part of, and incident to, the services 
#provided.  However, Halliburton cannot and does not warrant the accuracy 
#or correctness of such information and interpretations.  Under no circumstances should any 
#such information or interpretation be relied upon as the sole basis for any drilling, 
#completion, production, or financial decision or any procedure involving any risk to the 
#safety of any drilling venture, drilling rig or its crew or any other third party.  The 
#Customer has full responsibility for all drilling, completion and production operation.  
#Halliburton makes no representations or warranties, either expressed or 
#implied, including, but not limited to, the implied warranties of merchantability or fitness 
#for a particular purpose, with respect to the services rendered.  In no event will 
#Halliburton be liable for failure to obtain any particular results or for 
#any damages, including, but not limited to, indirect, special or consequential damages, 
#resulting from the use of any information or interpretation provided by Halliburton.
#
~A           TIME           GTDEPTH  GTPQH  GTTQ  GTTN  GTET   GTTVD  
# ...
   01:17:26.881.09-May-2021 4503.51 1414.83 67.50 9.00 276.10 2973.49
   01:17:27.081.09-May-2021 4503.51 1414.83 67.50 9.00 276.30 2973.49
   01:17:27.281.09-May-2021 4503.51 1431.85 67.50 9.00 276.50 2973.49
   01:17:27.481.09-May-2021 4503.51 1439.97 67.50 9.00 276.70 2973.49
   01:17:27.681.09-May-2021 4503.51 1449.13 67.50 9.00 276.90 2973.49
   01:17:27.881.09-May-2021 4503.51 1457.12 67.50 9.00 277.10 2973.49
   01:17:28.081.09-May-2021 4503.51 1457.12 67.50 9.00 277.30 2973.49
   01:17:28.281.09-May-2021 4503.51 1473.30 67.50 9.00 277.50 2973.49
   01:17:28.482.09-May-2021 4503.51 1482.01 67.50 9.00 277.70 2973.49
   01:17:28.682.09-May-2021 4503.51 1489.93 67.50 9.00 277.90 2973.49
   01:17:28.882.09-May-2021 4503.51 1498.25 67.50 9.00 278.10 2973.49
   01:17:29.082.09-May-2021 4503.51 1498.25 67.50 9.00 278.30 2973.49
   01:17:29.282.09-May-2021 4503.51 1514.09 67.50 9.00 278.50 2973.49
   01:17:29.482.09-May-2021 4503.51 1521.73 67.51 9.00 278.70 2973.49
   01:17:29.682.09-May-2021 4503.51 1529.82 67.51 9.00 278.90 2973.49
   01:17:29.882.09-May-2021 4503.51 1537.41 67.51 9.00 279.10 2973.49
   01:17:30.082.09-May-2021 4503.51 1537.41 67.51 9.00 279.30 2973.49
   01:17:30.282.09-May-2021 4503.51 1552.88 67.51 9.00 279.50 2973.49
   01:17:30.482.09-May-2021 4503.51 1560.55 67.51 9.00 279.70 2973.49
   01:17:30.682.09-May-2021 4503.51 1568.16 67.51 9.00 279.90 2973.49
   01:17:30.882.09-May-2021 4503.51 1575.82 67.51 9.00 280.10 2973.49
   01:17:31.083.09-May-2021 4503.51 1575.82 67.51 9.00 280.30 2973.49
   01:17:31.283.09-May-2021 4503.51 1590.97 67.51 9.00 280.50 2973.49
   01:17:31.483.09-May-2021 4503.51 1598.44 67.51 9.00 280.70 2973.49
   01:17:31.683.09-May-2021 4503.51 1605.23 67.51 9.00 280.90 2973.49
   01:17:31.883.09-May-2021 4503.51 1613.04 67.51 9.00 281.10 2973.49
   01:17:32.083.09-May-2021 4503.51 1613.04 67.51 9.00 281.30 2973.49
   01:17:32.283.09-May-2021 4503.51 1627.02 67.51 9.00 281.50 2973.49
   01:17:32.483.09-May-2021 4503.51 1634.25 67.51 9.00 281.70 2973.49
   01:17:32.683.09-May-2021 4503.51 1641.29 67.51 9.00 281.90 2973.49
   01:17:32.883.09-May-2021 4503.51 1648.38 67.51 9.00 282.10 2973.49
   01:17:33.083.09-May-2021 4503.51 1648.38 67.51 9.00 282.30 2973.49
   01:17:33.283.09-May-2021 4503.51 1662.36 67.51 9.00 282.50 2973.49
   01:17:33.483.09-May-2021 4503.51 1669.28 67.51 9.00 282.70 2973.49
   01:17:33.683.09-May-2021 4503.51 1676.13 67.51 9.00 282.90 2973.49
   01:17:33.884.09-May-2021 4503.51 1682.93 67.51 9.00 283.10 2973.49
   01:17:34.084.09-May-2021 4503.51 1682.93 67.51 9.00 283.30 2973.49
   01:17:34.284.09-May-2021 4503.51 1695.72 67.51 9.00 283.50 2973.49
   01:17:34.484.09-May-2021 4503.51 1702.93 67.51 9.00 283.70 2973.49
   01:17:34.684.09-May-2021 4503.51 1709.06 67.51 9.00 283.90 2973.49
   01:17:34.884.09-May-2021 4503.51 1714.97 67.51 9.00 284.10 2973.49
   01:17:35.084.09-May-2021 4503.51 1714.97 67.51 9.00 284.30 2973.49
   01:17:35.284.09-May-2021 4503.51 1728.18 67.51 9.00 284.50 2973.49
   01:17:35.484.09-May-2021 4503.51 1734.73 67.51 9.00 284.70 2973.49
   01:17:35.684.09-May-2021 4503.51 1740.44 67.51 9.00 284.90 2973.49
   01:17:35.884.09-May-2021 4503.51 1747.27 67.52 9.00 285.10 2973.49
   01:17:36.084.09-May-2021 4503.51 1747.27 67.52 9.00 285.30 2973.49
   01:17:36.284.09-May-2021 4503.51 1759.53 67.52 9.00 285.50 2973.49
   01:17:36.484.09-May-2021 4503.51 1765.30 67.52 9.00 285.70 2973.49
   01:17:36.685.09-May-2021 4503.51 1771.56 67.52 9.00 285.90 2973.49
   01:17:36.885.09-May-2021 4503.51 1777.70 67.52 9.00 286.10 2973.49
   01:17:37.085.09-May-2021 4503.51 1777.70 67.52 9.00 286.30 2973.49
   01:17:37.285.09-May-2021 4503.51 1789.59 67.52 9.00 286.50 2973.49
   01:17:37.485.09-May-2021 4503.51 1795.59 67.52 9.00 286.70 2973.49
   01:17:37.685.09-May-2021 4503.51 1801.54 67.52 9.00 286.90 2973.49
   01:17:37.885.09-May-2021 4503.51 1807.45 67.52 9.00 287.10 2973.49
   01:17:38.085.09-May-2021 4503.51 1807.45 67.52 9.00 287.30 2973.49
   01:17:38.285.09-May-2021 4503.51 1819.19 67.52 9.00 287.50 2973.49
   01:17:38.485.09-May-2021 4503.51 1825.01 67.52 9.00 287.70 2973.49
   01:17:38.685.09-May-2021 4503.51 1830.77 67.52 9.00 287.90 2973.49
   01:17:38.885.09-May-2021 4503.51 1836.49 67.52 9.00 288.10 2973.49
   01:17:39.085.09-May-2021 4503.51 1836.49 67.52 9.00 288.30 2973.49
   01:17:39.285.09-May-2021 4503.51 1841.57 67.52 9.00 288.50 2973.49
   01:17:39.486.09-May-2021 4503.51 1853.04 67.52 9.00 288.70 2973.49
   01:17:39.686.09-May-2021 4503.51 1858.90 67.52 9.00 288.90 2973.49
   01:17:39.886.09-May-2021 4503.51 1864.22 67.52 9.00 289.10 2973.49
   01:17:40.086.09-May-2021 4503.51 1864.22 67.52 9.00 289.30 2973.49
   01:17:40.286.09-May-2021 4503.51 1875.32 67.52 9.00 289.50 2973.49
   01:17:40.486.09-May-2021 4503.51 1880.86 67.52 9.00 289.70 2973.49
   01:17:40.686.09-May-2021 4503.51 1886.35 67.52 9.00 289.91 2973.49
   01:17:40.886.09-May-2021 4503.51 1891.84 67.52 9.00 290.11 2973.49
   01:17:41.086.09-May-2021 4503.51 1891.84 67.52 9.00 290.31 2973.49
   01:17:41.286.09-May-2021 4503.51 1902.69 67.52 9.00 290.51 2973.49
   01:17:41.486.09-May-2021 4503.51 1908.06 67.52 9.00 290.71 2973.49
   01:17:41.686.09-May-2021 4503.51 1912.73 67.52 9.00 290.91 2973.49
   01:17:41.886.09-May-2021 4503.51 1918.53 67.52 9.00 291.11 2973.49
   01:17:42.086.09-May-2021 4503.51 1918.53 67.52 9.00 291.31 2973.49
   01:17:42.287.09-May-2021 4503.51 1928.87 67.52 9.00 291.51 2973.49
   01:17:42.487.09-May-2021 4503.51 1933.24 67.52 9.00 291.71 2973.49
   01:17:42.687.09-May-2021 4503.51 1938.90 67.52 9.00 291.91 2973.49
   01:17:42.887.09-May-2021 4503.51 1943.69 67.52 9.00 292.11 2973.49
   01:17:43.087.09-May-2021 4503.51 1943.69 67.52 9.00 292.31 2973.49
   01:17:43.287.09-May-2021 4503.51 1953.49 67.52 9.00 292.51 2973.49
   01:17:43.487.09-May-2021 4503.51 1958.78 67.52 9.00 292.71 2973.49
   01:17:43.687.09-May-2021 4503.51 1963.69 67.52 9.00 292.91 2973.49
   01:17:43.887.09-May-2021 4503.51 1968.33 67.52 9.00 293.11 2973.49
   01:17:44.087.09-May-2021 4503.51 1968.33 67.52 9.00 293.31 2973.49
   01:17:44.287.09-May-2021 4503.51 1978.37 67.53 9.00 293.51 2973.49
   01:17:44.487.09-May-2021 4503.51 1983.49 67.53 9.00 293.71 2973.49
   01:17:44.687.09-May-2021 4503.51 1988.08 67.53 9.00 293.91 2973.49
   01:17:44.888.09-May-2021 4503.51 1992.99 67.53 9.00 294.11 2973.49
   01:17:45.088.09-May-2021 4503.51 1992.99 67.53 9.00 294.31 2973.49
   01:17:45.288.09-May-2021 4503.51 2002.68 67.53 9.00 294.51 2973.49
   01:17:45.488.09-May-2021 4503.51 2007.52 67.53 9.00 294.71 2973.49
   01:17:45.688.09-May-2021 4503.51 2012.32 67.53 9.00 294.91 2973.49
   01:17:45.888.09-May-2021 4503.51 2017.13 67.53 9.00 295.11 2973.49
   01:17:46.088.09-May-2021 4503.51 2017.13 67.53 9.00 295.31 2973.49
   01:17:46.288.09-May-2021 4503.51 2026.60 67.53 9.00 295.51 2973.49
   01:17:46.488.09-May-2021 4503.51 2030.69 67.53 9.00 295.71 2973.49
   01:17:46.688.09-May-2021 4503.51 2035.80 67.53 9.00 295.91 2973.49
   01:17:46.888.09-May-2021 4503.51 2040.17 67.53 9.00 296.11 2973.49
   01:17:47.088.09-May-2021 4503.51 2040.17 67.53 9.00 296.31 2973.49
   01:17:47.288.09-May-2021 4503.51 2049.46 67.53 9.00 296.51 2973.49
   01:17:47.488.09-May-2021 4503.51 2054.10 67.53 9.00 296.71 2973.49
   01:17:47.689.09-May-2021 4503.51 2058.66 67.53 9.00 296.91 2973.49
   01:17:47.889.09-May-2021 4503.51 2063.28 67.53 9.00 297.11 2973.49
   01:17:48.089.09-May-2021 4503.51 2063.28 67.53 9.00 297.31 2973.49
   01:17:48.289.09-May-2021 4503.51 2072.35 67.53 9.00 297.51 2973.49
   01:17:48.489.09-May-2021 4503.51 2076.85 67.53 9.00 297.71 2973.49
   01:17:48.689.09-May-2021 4503.51 2081.33 67.53 9.00 297.91 2973.49
   01:17:48.889.09-May-2021 4503.51 2085.81 67.53 9.00 298.11 2973.49
   01:17:49.089.09-May-2021 4503.51 2085.81 67.53 9.00 298.31 2973.49
   01:17:49.289.09-May-2021 4503.51 2094.28 67.53 9.00 298.51 2973.49
   01:17:49.489.09-May-2021 4503.51 2098.61 67.53 9.00 298.71 2973.49
   01:17:49.689.09-May-2021 4503.51 2103.10 67.53 9.00 298.91 2973.49
