~Version Information
 VERS.                  2.0:   CWLS log ASCII Standard -VERSION 2.0
 WRAP.                   NO:   One line per depth step
~Well Information Block
#MNEM.UNIT     VALUE/NAME     DESCRIPTION
#---------     -----------    ---------------------------
 STRT.S             23:07:02 09-May-21: START TIME 23:07:02 09-May-21
 STOP.S             23:13:42 09-May-21: STOP TIME  23:13:42 09-May-21
 STEP.S                   0.00: STEP TIME
 NULL.                 -999.25: NULL VALUE
 PROV.                    Baku:  PROVINCE
 STAT.                    Baku:  STATE NAME
 SON .        AZ-XX-0906571588:  JOB NUMBER
 WTYP.                Deviated:  WELL TYPE
 COMP.     BP Exploration (Caspian Sea) ltd:  COMPANY
 BASE.              Azerbaijan:  LOGGING EQUIPMENT BASE LOCATION
 REGN.                   EESSA:  REGION
 CTRY.              Azerbaijan:  COUNTRY NAME
 FLD .                     ACG:  FIELD NAME
 WELL.                     J28:  WELL NAME
 RIG .             West Chirag:  RIG NAME
 DMF .             Drill Floor:  DRILL MEAS FROM
 PDAT.       Caspian Sea Level:  PERMANENT DATUM
 HPTY.       Minimum Curvature:  HOLE POS TYPE
 MDS .        Operator Entered:  MAG DATA SOURCE
 NREF.                    Grid:  NORTH REFERENCE
 SRVC.          TURAN DRILLING:  CONTRACTOR
 JOBN.        AZ-XX-0906571588:  JOB TICKET NUMB
 DCON.     Halliburton Sperry Drilling:  DIRECTNL CONTR
 STIM.      00.44.00 11-Feb-21:  START TIME
 DATE.      00.00.00 05-May-21:  END TIME
 SPUD.               13-Feb-21:  SPUD DATE
 MWDS.                    Baku:  MWD SHOP
 DOE .                     N/A:  DOE NUMBER
 UNIT.                     N/A:  LOGGING EQUIPMENT ID
 UWI .                     N/A:  UNIQUE WELL IDENTIFIER
 API .                     N/A:  API NUMBER
 CNTY.                        :  COUNTY
 LOC .                        :  LOCATION
 LMF .             Drill Floor:  LOG MEASURED FROM
 TVDS.m                  43.00:  TVDSS CORRECTN
 SDEP.m                 341.00:  START DEPTH
 EGL .m                   0.00:  GROUND ELEVATION
 WDMS.m                 169.80:  WD ELEV
 AGAP.m                  43.00:  AIR GAP
 EPD .m                   0.00:  ELEVATION
 APD .m                  43.00:  DEPTH ABOVE PD
 LATI.deg                40.13:  LATITUDE
 LONG.deg                51.22:  LONGITUDE
 UTMY.m             4443793.85:  UTM Y
 UTMX.m              519005.06:  UTM X
 WHEW.m                 -11.57:  WELL HEAD E/W
 WHNS.m                   8.57:  WELL HEAD N/S
 VSEW.m                 -11.57:  VERT SEC E/W
 VSNS.m                   8.57:  VERT SEC N/S
 DFWL.m                   0.00:  DISTANCE FWL
 DFSL.m                   0.00:  DISTANCE FSL
 VSDR.deg               299.34:  VERT SEC DIRECT
 GVFD.g                   1.00:  GRAVITY FIELD
 AZTC.deg                 6.36:  AZM TOTAL CORR
 MFLD.nT              50391.00:  MAGNETIC FIELD
 MDIP.deg                59.65:  MAGNETIC DIP
 MDEC.deg                 6.48:  MAGNETIC DECL
 GRDC.deg                 0.12:  GRID CORRECTION
 DEP .m                 334.96:  DEPTH
 TDD .m                1407.26:  TOTAL DEPTH (DRILLER)
 EKB .m                  43.00:  KB ELEVATION
 EDF .m                  43.00:  DF ELEVATION
 TDL .m                 228.00:  TOTAL DEPTH (LOGGER)
 VSC .                       0:  VS TO CLOSURE
 MAGU.                 1854484:  MAGUTM CHECKSUM
~Parameter Information Block
#MNEM.UNIT       Value        Description
#---------     -----------    ---------------------------
 AV  .mps                 4.00:  Ann Velocity 
 AVMX.mps                 4.73:  Max Ann Veloc 
 AZIF.deg               304.48:  Azm, Final 
 BHAT.        Rotary Steerable:  BHA Type 
 BREV.rev            257300.00:  Rev Bit Total 
 BROT.°/30m               0.00:  Build Rotating 
 BS  .in                  8.50:  Bit Size 
 BSZ .in                  8.50:  Bit Size 
 BTPL.psig              589.00:  Bit Press Loss 
 CABU.                      No:  Customer Abuse 
 CGEO.          Mubariz ghayev:  Customer Geo 
 COMM.                     d:  Run Comments 1 
 TCS .hr                 64.25:  Time Ciculation Ended 
 CV  .mps                 3.50:  Crit Velocity 
 CVMX.mps                 4.52:  Max Crit Veloc 
 DD1 .             Aziz Aliyev:  Direct Drillr 1 
 DD2 .         Intigam Rahimov:  Direct Drillr 2 
 DD3 .          Rashad Habibov:  Direct Drillr 3 
 DDSV.               Geo-Pilot:  DD Service 
 DEFF.%                  98.00:  % Det Eff 
 DLRX.°/30m               0.00:  Dogleg Rot Max 
 DLSO.°/30m               0.00:  Dogleg Oriented 
 DLSX.°/30m               0.00:  Dogleg Str Max 
 DRET.      10.45.04 08-May-21:  Drill End Time 
 DRST.      03.30.04 04-May-21:  Drill Start Tim 
 DTIM.hr                 14.97:  Time Drilling 
 EDEP.m                4640.01:  End Depth 
 ENG1.         Dail Mahammadov:  Engineer 1 
 ENG2.           Eldar Hajiyev:  Engineer 2 
 ENG3.       Bakhtiar Jabbarli:  Engineer 3 
 ENG4.       Natik Hasanagayev:  Engineer 4 
 ETIM.      09.30.04 14-May-21:  End Time 
 FLOI.gpm               460.00:  Flow In 
 FLON.gpm               200.00:  Flow In Min 
 FLOS.cptm                0.00:  Fluid Loss 
 FLOX.gpm               505.00:  Flow In Max 
 HFLO.                      No:  High Flow 
 HPRE.                      No:  High Pressure 
 HTEM.                      No:  High Temp 
 HYDO.m                   1.80:  Hydro Offset 
 IFIN.deg                66.71:  Inc, Final 
 IMAX.deg                67.03:  Inc Max 
 IMIN.deg                66.63:  Inc Min 
 IMND.m                4550.58:  Inc Min Depth 
 IMXD.m                4439.01:  Inc Max Depth 
 JARR.                      No:  Jarring 
 LETM.      10.45.04 08-May-21:  Log End Time 
 LOST.hr                     0:  Lost Rig Time 
 LSTM.      03.30.04 04-May-21:  Log Start Time 
 MDCL.ppm             37000.00:  Mud Chlorides 
 MDES.     Inversion Oil/Synthetic:  Mud Desc 
 DFD .sg                  1.38:  Mud Density 
 MDMN.sg                  1.35:  Dens Mud Min 
 MDMX.sg                  1.40:  Dens Mud Max 
 MOIL.                   57.40:  Run Mud Oil % 
 MOWR.                   70:30:  Run Mud OWR 
 MSND.                    0.00:  Run Mud Sand % 
 MSOL.                   18.00:  Run Mud Solids% 
 DFV .spqt               71.00:  Mud Viscosity 
 MWOD.in                  6.75:  MWD Tool OD 
 MWSI.                      No:  Serv Intrp, MWD 
 OTIM.hr                242.76:  Time Operating 
 PCON.           Look Like New:  Pad Condition 
 PMAX.psia            12183.92:  Press Op, Max 
 PV  .cP                 27.00:  Mud PV 
 RUN .                    1300:  Run Number 
 ROPA.m/hr               15.00:  ROP Avg 
 ROPN.m/hr                9.00:  ROP Min 
 ROPX.m/hr               19.00:  ROP Max 
 RPMA.rpm               120.00:  RPM Surface Avg 
 RPMN.rpm               100.00:  RPM Surface Min 
 RPMX.rpm               120.00:  RPM Surface Max 
 RRUN.                    1300:  Rig Run Number 
 RTIM.hr                  5.00:  Time Reaming 
 SAZI.deg               304.73:  Azm, Start 
 SDEP.m                4412.01:  Start Depth 
 SIDD.                      No:  Serv Intrp, DD 
 SINC.deg                66.82:  Inc, Start 
 SPPA.psig             2800.00:  SPP Avg 
 SPPN.psig             2610.00:  SPP Min 
 SPPX.psig             3100.00:  SPP Max 
 STIM.      03.30.00 04-May-21:  Start Time 
 SVCS.                 DD, MWD:  Services 
 SVER.                    9.20:  Sperry Version 
 TDAT.m                 228.00:  Tot Depth Attmp 
 TDDF.                      No:  Trip for DD 
 TDLG.m                 228.00:  Tot Depth Loggd 
 TFF .                      No:  Trip for Fail 
 TQAA.f-kp               15.00:  Torque Abs Avg 
 TQAN.f-kp               12.00:  Torque Abs Min 
 TQAX.f-kp               22.00:  Torque Abs Max 
 TRRT.°/30m               0.00:  Turn Rotating 
 MRT .                    HCIM:  Maximum Recorded Temperature 
 TTMX.degC               90.20:  Max Tool Temp 
 VS01.                90627813:  Virtual Str1 SN 
 VS02.                90634712:  Virtual Str2 SN 
 VS03.                90643410:  Virtual Str3 SN 
 VS04.                90634712:  Virtual Str4 SN 
 WBMN.klb                 9.00:  WOB Min 
 WITN.        Elmaddin Rahimov:  Customer Rep 
 WITN.         Haytham Mostafa:  Customer Rep 2 
 WOBA.klb                15.00:  WOB Avg 
 WOBX.klb                23.00:  WOB Max 
 YP  .lhf2               29.00:  Yield Point 
~Curve Information Block
#MNEM.UNIT                 API CODE     Curve Description
#---------               -----------    ---------------------------
 TIME.HHMMSS            00 000 000 000:  GT Time & Date
 GTDEPTH.m              00 000 000 000:  GT Depth
 GTPQH.psia             00 000 000 000:  GT HR Quartz Pressure
 GTTQ.degC              00 000 000 000:  GT Quartz Temperature
 GTTN.NONE              00 000 000 000:  GT Test Number
 GTET.sec               00 000 000 000:  GT Elapsed Test Time
 GTTVD.m                00 000 000 000:  GT True Vertical Depth
#Other Information
#
#WARRANTY: Halliburton will use its best efforts to furnish customers with 
#accurate information and interpretations that are part of, and incident to, the services 
#provided.  However, Halliburton cannot and does not warrant the accuracy 
#or correctness of such information and interpretations.  Under no circumstances should any 
#such information or interpretation be relied upon as the sole basis for any drilling, 
#completion, production, or financial decision or any procedure involving any risk to the 
#safety of any drilling venture, drilling rig or its crew or any other third party.  The 
#Customer has full responsibility for all drilling, completion and production operation.  
#Halliburton makes no representations or warranties, either expressed or 
#implied, including, but not limited to, the implied warranties of merchantability or fitness 
#for a particular purpose, with respect to the services rendered.  In no event will 
#Halliburton be liable for failure to obtain any particular results or for 
#any damages, including, but not limited to, indirect, special or consequential damages, 
#resulting from the use of any information or interpretation provided by Halliburton.
#
~A           TIME           GTDEPTH  GTPQH  GTTQ  GTTN   GTET   GTTVD  
# ...
   23:10:03.589.09-May-2021 4503.01 1047.62 60.40 17.00 180.75 2973.29
   23:10:03.789.09-May-2021 4503.01 1052.27 60.40 17.00 180.95 2973.29
   23:10:03.989.09-May-2021 4503.01 1052.27 60.40 17.00 181.15 2973.29
   23:10:04.189.09-May-2021 4503.01 1061.35 60.40 17.00 181.35 2973.29
   23:10:04.389.09-May-2021 4503.01 1065.73 60.40 17.00 181.55 2973.29
   23:10:04.589.09-May-2021 4503.01 1070.30 60.40 17.00 181.75 2973.29
   23:10:04.789.09-May-2021 4503.01 1075.00 60.40 17.00 181.95 2973.29
   23:10:04.989.09-May-2021 4503.01 1075.00 60.40 17.00 182.15 2973.29
   23:10:05.189.09-May-2021 4503.01 1084.51 60.40 17.00 182.35 2973.29
   23:10:05.389.09-May-2021 4503.01 1088.88 60.40 17.00 182.55 2973.29
   23:10:05.589.09-May-2021 4503.01 1093.39 60.40 17.00 182.75 2973.29
   23:10:05.789.09-May-2021 4503.01 1097.79 60.40 17.00 182.95 2973.29
   23:10:05.989.09-May-2021 4503.01 1097.79 60.40 17.00 183.15 2973.29
   23:10:06.189.09-May-2021 4503.01 1106.66 60.40 17.00 183.35 2973.29
   23:10:06.389.09-May-2021 4503.01 1111.08 60.40 17.00 183.55 2973.29
   23:10:06.589.09-May-2021 4503.01 1115.57 60.41 17.00 183.75 2973.29
   23:10:06.789.09-May-2021 4503.01 1120.07 60.41 17.00 183.95 2973.29
   23:10:06.989.09-May-2021 4503.01 1120.07 60.41 17.00 184.15 2973.29
   23:10:07.189.09-May-2021 4503.01 1128.69 60.41 17.00 184.35 2973.29
   23:10:07.388.09-May-2021 4503.01 1133.65 60.41 17.00 184.55 2973.29
   23:10:07.588.09-May-2021 4503.01 1138.11 60.41 17.00 184.75 2973.29
   23:10:07.788.09-May-2021 4503.01 1142.81 60.41 17.00 184.95 2973.29
   23:10:07.988.09-May-2021 4503.01 1142.81 60.41 17.00 185.15 2973.29
   23:10:08.188.09-May-2021 4503.01 1151.59 60.41 17.00 185.35 2973.29
   23:10:08.388.09-May-2021 4503.01 1156.10 60.41 17.00 185.55 2973.29
   23:10:08.588.09-May-2021 4503.01 1160.60 60.41 17.00 185.75 2973.29
   23:10:08.788.09-May-2021 4503.01 1165.20 60.41 17.00 185.95 2973.29
   23:10:08.988.09-May-2021 4503.01 1165.20 60.41 17.00 186.15 2973.29
   23:10:09.188.09-May-2021 4503.01 1174.19 60.41 17.00 186.35 2973.29
   23:10:09.388.09-May-2021 4503.01 1178.84 60.41 17.00 186.55 2973.29
   23:10:09.588.09-May-2021 4503.01 1183.29 60.41 17.00 186.75 2973.29
   23:10:09.788.09-May-2021 4503.01 1187.03 60.41 17.00 186.95 2973.29
   23:10:09.988.09-May-2021 4503.01 1187.03 60.41 17.00 187.15 2973.29
   23:10:10.188.09-May-2021 4503.01 1196.08 60.41 17.00 187.35 2973.29
   23:10:10.388.09-May-2021 4503.01 1196.08 60.41 17.00 187.55 2973.29
   23:10:10.588.09-May-2021 4503.01 1204.87 60.41 17.00 187.75 2973.29
   23:10:10.788.09-May-2021 4503.01 1208.74 60.41 17.00 187.95 2973.29
   23:10:10.988.09-May-2021 4503.01 1208.74 60.41 17.00 188.15 2973.29
   23:10:11.188.09-May-2021 4503.01 1217.38 60.41 17.00 188.35 2973.29
   23:10:11.387.09-May-2021 4503.01 1221.72 60.41 17.00 188.55 2973.29
   23:10:11.587.09-May-2021 4503.01 1225.63 60.41 17.00 188.75 2973.29
   23:10:11.787.09-May-2021 4503.01 1229.38 60.41 17.00 188.95 2973.29
   23:10:11.987.09-May-2021 4503.01 1229.38 60.41 17.00 189.15 2973.29
   23:10:12.187.09-May-2021 4503.01 1238.23 60.41 17.00 189.35 2973.29
   23:10:12.387.09-May-2021 4503.01 1242.24 60.41 17.00 189.55 2973.29
   23:10:12.587.09-May-2021 4503.01 1246.42 60.41 17.00 189.75 2973.29
   23:10:12.787.09-May-2021 4503.01 1270.10 60.41 17.00 189.95 2973.29
   23:10:12.987.09-May-2021 4503.01 1270.10 60.41 17.00 190.15 2973.29
   23:10:13.187.09-May-2021 4503.01 1277.48 60.41 17.00 190.35 2973.29
   23:10:13.387.09-May-2021 4503.01 1281.20 60.41 17.00 190.55 2973.29
   23:10:13.587.09-May-2021 4503.01 1284.89 60.41 17.00 190.75 2973.29
   23:10:13.787.09-May-2021 4503.01 1288.58 60.41 17.00 190.95 2973.29
   23:10:13.987.09-May-2021 4503.01 1288.58 60.41 17.00 191.15 2973.29
   23:10:14.187.09-May-2021 4503.01 1295.96 60.41 17.00 191.35 2973.29
   23:10:14.387.09-May-2021 4503.01 1299.20 60.41 17.00 191.55 2973.29
   23:10:14.587.09-May-2021 4503.01 1303.24 60.41 17.00 191.75 2973.29
   23:10:14.787.09-May-2021 4503.01 1306.74 60.41 17.00 191.95 2973.29
   23:10:14.987.09-May-2021 4503.01 1306.74 60.41 17.00 192.15 2973.29
   23:10:15.186.09-May-2021 4503.01 1313.99 60.41 17.00 192.35 2973.29
   23:10:15.386.09-May-2021 4503.01 1317.46 60.41 17.00 192.55 2973.29
   23:10:15.586.09-May-2021 4503.01 1320.97 60.41 17.00 192.75 2973.29
   23:10:15.786.09-May-2021 4503.01 1324.54 60.41 17.00 192.95 2973.29
   23:10:15.986.09-May-2021 4503.01 1324.54 60.41 17.00 193.15 2973.29
   23:10:16.186.09-May-2021 4503.01 1331.71 60.41 17.00 193.35 2973.29
   23:10:16.386.09-May-2021 4503.01 1335.28 60.41 17.00 193.55 2973.29
   23:10:16.586.09-May-2021 4503.01 1338.86 60.41 17.00 193.75 2973.29
   23:10:16.786.09-May-2021 4503.01 1342.39 60.41 17.00 193.95 2973.29
   23:10:16.986.09-May-2021 4503.01 1342.39 60.41 17.00 194.15 2973.29
   23:10:17.186.09-May-2021 4503.01 1349.53 60.41 17.00 194.35 2973.29
   23:10:17.386.09-May-2021 4503.01 1353.10 60.41 17.00 194.55 2973.29
   23:10:17.586.09-May-2021 4503.01 1357.13 60.41 17.00 194.75 2973.29
   23:10:17.786.09-May-2021 4503.01 1360.22 60.41 17.00 194.95 2973.29
   23:10:17.986.09-May-2021 4503.01 1360.22 60.41 17.00 195.15 2973.29
   23:10:18.186.09-May-2021 4503.01 1367.62 60.41 17.00 195.35 2973.29
   23:10:18.386.09-May-2021 4503.01 1371.47 60.41 17.00 195.55 2973.29
   23:10:18.586.09-May-2021 4503.01 1374.84 60.41 17.00 195.75 2973.29
   23:10:18.786.09-May-2021 4503.01 1378.43 60.41 17.00 195.95 2973.29
   23:10:18.985.09-May-2021 4503.01 1378.43 60.41 17.00 196.15 2973.29
   23:10:19.185.09-May-2021 4503.01 1385.71 60.42 17.00 196.35 2973.29
   23:10:19.385.09-May-2021 4503.01 1388.96 60.42 17.00 196.55 2973.29
   23:10:19.585.09-May-2021 4503.01 1392.27 60.42 17.00 196.75 2973.29
   23:10:19.785.09-May-2021 4503.01 1396.60 60.42 17.00 196.95 2973.29
   23:10:19.985.09-May-2021 4503.01 1396.60 60.42 17.00 197.15 2973.29
   23:10:20.185.09-May-2021 4503.01 1403.40 60.42 17.00 197.35 2973.29
   23:10:20.385.09-May-2021 4503.01 1406.70 60.42 17.00 197.55 2973.29
   23:10:20.585.09-May-2021 4503.01 1410.06 60.42 17.00 197.75 2973.29
   23:10:20.785.09-May-2021 4503.01 1413.53 60.42 17.00 197.95 2973.29
   23:10:20.985.09-May-2021 4503.01 1413.53 60.42 17.00 198.15 2973.29
   23:10:21.185.09-May-2021 4503.01 1420.43 60.42 17.00 198.35 2973.29
   23:10:21.385.09-May-2021 4503.01 1423.88 60.42 17.00 198.55 2973.29
   23:10:21.585.09-May-2021 4503.01 1427.29 60.42 17.00 198.75 2973.29
   23:10:21.785.09-May-2021 4503.01 1430.67 60.42 17.00 198.95 2973.29
   23:10:21.985.09-May-2021 4503.01 1430.67 60.42 17.00 199.15 2973.29
   23:10:22.185.09-May-2021 4503.01 1437.02 60.42 17.00 199.35 2973.29
   23:10:22.385.09-May-2021 4503.01 1441.08 60.42 17.00 199.55 2973.29
   23:10:22.585.09-May-2021 4503.01 1444.40 60.42 17.00 199.75 2973.29
   23:10:22.784.09-May-2021 4503.01 1447.50 60.42 17.00 199.95 2973.29
   23:10:22.984.09-May-2021 4503.01 1447.50 60.42 17.00 200.15 2973.29
   23:10:23.184.09-May-2021 4503.01 1453.98 60.42 17.00 200.35 2973.29
   23:10:23.384.09-May-2021 4503.01 1457.30 60.42 17.00 200.55 2973.29
   23:10:23.584.09-May-2021 4503.01 1460.59 60.42 17.00 200.75 2973.29
   23:10:23.784.09-May-2021 4503.01 1463.91 60.42 17.00 200.95 2973.29
   23:10:23.984.09-May-2021 4503.01 1463.91 60.42 17.00 201.15 2973.29
   23:10:24.184.09-May-2021 4503.01 1470.51 60.42 17.00 201.35 2973.29
   23:10:24.384.09-May-2021 4503.01 1473.81 60.42 17.00 201.55 2973.29
   23:10:24.584.09-May-2021 4503.01 1477.15 60.42 17.00 201.75 2973.29
   23:10:24.784.09-May-2021 4503.01 1480.10 60.42 17.00 201.95 2973.29
   23:10:24.984.09-May-2021 4503.01 1480.10 60.42 17.00 202.15 2973.29
   23:10:25.184.09-May-2021 4503.01 1487.15 60.42 17.00 202.35 2973.29
   23:10:25.384.09-May-2021 4503.01 1490.04 60.42 17.00 202.55 2973.29
   23:10:25.584.09-May-2021 4503.01 1493.58 60.42 17.00 202.75 2973.29
   23:10:25.784.09-May-2021 4503.01 1496.90 60.42 17.00 202.95 2973.29
   23:10:25.984.09-May-2021 4503.01 1496.90 60.42 17.00 203.15 2973.29
