~Version Information
 VERS.                  2.0:   CWLS log ASCII Standard -VERSION 2.0
 WRAP.                   NO:   One line per depth step
~Well Information Block
#MNEM.UNIT     VALUE/NAME     DESCRIPTION
#---------     -----------    ---------------------------
 STRT.S             23:15:39 08-May-21: START TIME 23:15:39 08-May-21
 STOP.S             23:22:30 08-May-21: STOP TIME  23:22:30 08-May-21
 STEP.S                   0.00: STEP TIME
 NULL.                 -999.25: NULL VALUE
 PROV.                    Baku:  PROVINCE
 STAT.                    Baku:  STATE NAME
 SON .        AZ-XX-0906571588:  JOB NUMBER
 WTYP.                Deviated:  WELL TYPE
 COMP.     BP Exploration (Caspian Sea) ltd:  COMPANY
 BASE.              Azerbaijan:  LOGGING EQUIPMENT BASE LOCATION
 REGN.                   EESSA:  REGION
 CTRY.              Azerbaijan:  COUNTRY NAME
 FLD .                     ACG:  FIELD NAME
 WELL.                     J28:  WELL NAME
 RIG .             West Chirag:  RIG NAME
 DMF .             Drill Floor:  DRILL MEAS FROM
 PDAT.       Caspian Sea Level:  PERMANENT DATUM
 HPTY.       Minimum Curvature:  HOLE POS TYPE
 MDS .        Operator Entered:  MAG DATA SOURCE
 NREF.                    Grid:  NORTH REFERENCE
 SRVC.          TURAN DRILLING:  CONTRACTOR
 JOBN.        AZ-XX-0906571588:  JOB TICKET NUMB
 DCON.     Halliburton Sperry Drilling:  DIRECTNL CONTR
 STIM.      00.44.00 11-Feb-21:  START TIME
 DATE.      00.00.00 05-May-21:  END TIME
 SPUD.               13-Feb-21:  SPUD DATE
 MWDS.                    Baku:  MWD SHOP
 DOE .                     N/A:  DOE NUMBER
 UNIT.                     N/A:  LOGGING EQUIPMENT ID
 UWI .                     N/A:  UNIQUE WELL IDENTIFIER
 API .                     N/A:  API NUMBER
 CNTY.                        :  COUNTY
 LOC .                        :  LOCATION
 LMF .             Drill Floor:  LOG MEASURED FROM
 TVDS.m                  43.00:  TVDSS CORRECTN
 SDEP.m                 341.00:  START DEPTH
 EGL .m                   0.00:  GROUND ELEVATION
 WDMS.m                 169.80:  WD ELEV
 AGAP.m                  43.00:  AIR GAP
 EPD .m                   0.00:  ELEVATION
 APD .m                  43.00:  DEPTH ABOVE PD
 LATI.deg                40.13:  LATITUDE
 LONG.deg                51.22:  LONGITUDE
 UTMY.m             4443793.85:  UTM Y
 UTMX.m              519005.06:  UTM X
 WHEW.m                 -11.57:  WELL HEAD E/W
 WHNS.m                   8.57:  WELL HEAD N/S
 VSEW.m                 -11.57:  VERT SEC E/W
 VSNS.m                   8.57:  VERT SEC N/S
 DFWL.m                   0.00:  DISTANCE FWL
 DFSL.m                   0.00:  DISTANCE FSL
 VSDR.deg               299.34:  VERT SEC DIRECT
 GVFD.g                   1.00:  GRAVITY FIELD
 AZTC.deg                 6.36:  AZM TOTAL CORR
 MFLD.nT              50391.00:  MAGNETIC FIELD
 MDIP.deg                59.65:  MAGNETIC DIP
 MDEC.deg                 6.48:  MAGNETIC DECL
 GRDC.deg                 0.12:  GRID CORRECTION
 DEP .m                 334.96:  DEPTH
 TDD .m                1407.26:  TOTAL DEPTH (DRILLER)
 EKB .m                  43.00:  KB ELEVATION
 EDF .m                  43.00:  DF ELEVATION
 TDL .m                 228.00:  TOTAL DEPTH (LOGGER)
 VSC .                       0:  VS TO CLOSURE
 MAGU.                 1854484:  MAGUTM CHECKSUM
~Parameter Information Block
#MNEM.UNIT       Value        Description
#---------     -----------    ---------------------------
 AV  .mps                 4.00:  Ann Velocity 
 AVMX.mps                 4.73:  Max Ann Veloc 
 AZIF.deg               304.48:  Azm, Final 
 BHAT.        Rotary Steerable:  BHA Type 
 BREV.rev            257300.00:  Rev Bit Total 
 BROT.°/30m               0.00:  Build Rotating 
 BS  .in                  8.50:  Bit Size 
 BSZ .in                  8.50:  Bit Size 
 BTPL.psig              589.00:  Bit Press Loss 
 CABU.                      No:  Customer Abuse 
 CGEO.          Mubariz ghayev:  Customer Geo 
 COMM.                     dˆ[:  Run Comments 1 
 TCS .hr                 64.25:  Time Ciculation Ended 
 CV  .mps                 3.50:  Crit Velocity 
 CVMX.mps                 4.52:  Max Crit Veloc 
 DD1 .             Aziz Aliyev:  Direct Drillr 1 
 DD2 .         Intigam Rahimov:  Direct Drillr 2 
 DD3 .          Rashad Habibov:  Direct Drillr 3 
 DDSV.               Geo-Pilot:  DD Service 
 DEFF.%                  98.00:  % Det Eff 
 DLRX.°/30m               0.00:  Dogleg Rot Max 
 DLSO.°/30m               0.00:  Dogleg Oriented 
 DLSX.°/30m               0.00:  Dogleg Str Max 
 DRET.      10.45.04 08-May-21:  Drill End Time 
 DRST.      03.30.04 04-May-21:  Drill Start Tim 
 DTIM.hr                 14.97:  Time Drilling 
 EDEP.m                4640.01:  End Depth 
 ENG1.         Dail Mahammadov:  Engineer 1 
 ENG2.           Eldar Hajiyev:  Engineer 2 
 ENG3.       Bakhtiar Jabbarli:  Engineer 3 
 ENG4.       Natik Hasanagayev:  Engineer 4 
 ETIM.      09.30.04 14-May-21:  End Time 
 FLOI.gpm               460.00:  Flow In 
 FLON.gpm               200.00:  Flow In Min 
 FLOS.cptm                0.00:  Fluid Loss 
 FLOX.gpm               505.00:  Flow In Max 
 HFLO.                      No:  High Flow 
 HPRE.                      No:  High Pressure 
 HTEM.                      No:  High Temp 
 HYDO.m                   1.80:  Hydro Offset 
 IFIN.deg                66.71:  Inc, Final 
 IMAX.deg                67.03:  Inc Max 
 IMIN.deg                66.63:  Inc Min 
 IMND.m                4550.58:  Inc Min Depth 
 IMXD.m                4439.01:  Inc Max Depth 
 JARR.                      No:  Jarring 
 LETM.      10.45.04 08-May-21:  Log End Time 
 LOST.hr                     0:  Lost Rig Time 
 LSTM.      03.30.04 04-May-21:  Log Start Time 
 MDCL.ppm             37000.00:  Mud Chlorides 
 MDES.     Inversion Oil/Synthetic:  Mud Desc 
 DFD .sg                  1.38:  Mud Density 
 MDMN.sg                  1.35:  Dens Mud Min 
 MDMX.sg                  1.40:  Dens Mud Max 
 MOIL.                   57.40:  Run Mud Oil % 
 MOWR.                   70:30:  Run Mud OWR 
 MSND.                    0.00:  Run Mud Sand % 
 MSOL.                   18.00:  Run Mud Solids% 
 DFV .spqt               71.00:  Mud Viscosity 
 MWOD.in                  6.75:  MWD Tool OD 
 MWSI.                      No:  Serv Intrp, MWD 
 OTIM.hr                242.76:  Time Operating 
 PCON.           Look Like New:  Pad Condition 
 PMAX.psia            12183.92:  Press Op, Max 
 PV  .cP                 27.00:  Mud PV 
 RUN .                    1300:  Run Number 
 ROPA.m/hr               15.00:  ROP Avg 
 ROPN.m/hr                9.00:  ROP Min 
 ROPX.m/hr               19.00:  ROP Max 
 RPMA.rpm               120.00:  RPM Surface Avg 
 RPMN.rpm               100.00:  RPM Surface Min 
 RPMX.rpm               120.00:  RPM Surface Max 
 RRUN.                    1300:  Rig Run Number 
 RTIM.hr                  5.00:  Time Reaming 
 SAZI.deg               304.73:  Azm, Start 
 SDEP.m                4412.01:  Start Depth 
 SIDD.                      No:  Serv Intrp, DD 
 SINC.deg                66.82:  Inc, Start 
 SPPA.psig             2800.00:  SPP Avg 
 SPPN.psig             2610.00:  SPP Min 
 SPPX.psig             3100.00:  SPP Max 
 STIM.      03.30.00 04-May-21:  Start Time 
 SVCS.                 DD, MWD:  Services 
 SVER.                    9.20:  Sperry Version 
 TDAT.m                 228.00:  Tot Depth Attmp 
 TDDF.                      No:  Trip for DD 
 TDLG.m                 228.00:  Tot Depth Loggd 
 TFF .                      No:  Trip for Fail 
 TQAA.f-kp               15.00:  Torque Abs Avg 
 TQAN.f-kp               12.00:  Torque Abs Min 
 TQAX.f-kp               22.00:  Torque Abs Max 
 TRRT.°/30m               0.00:  Turn Rotating 
 MRT .                    HCIM:  Maximum Recorded Temperature 
 TTMX.degC               90.20:  Max Tool Temp 
 VS01.                90627813:  Virtual Str1 SN 
 VS02.                90634712:  Virtual Str2 SN 
 VS03.                90643410:  Virtual Str3 SN 
 VS04.                90634712:  Virtual Str4 SN 
 WBMN.klb                 9.00:  WOB Min 
 WITN.        Elmaddin Rahimov:  Customer Rep 
 WITN.         Haytham Mostafa:  Customer Rep 2 
 WOBA.klb                15.00:  WOB Avg 
 WOBX.klb                23.00:  WOB Max 
 YP  .lhf2               29.00:  Yield Point 
~Curve Information Block
#MNEM.UNIT                 API CODE     Curve Description
#---------               -----------    ---------------------------
 TIME.HHMMSS            00 000 000 000:  GT Time & Date
 GTDEPTH.m              00 000 000 000:  GT Depth
 GTPQH.psia             00 000 000 000:  GT HR Quartz Pressure
 GTTQ.degC              00 000 000 000:  GT Quartz Temperature
 GTTN.NONE              00 000 000 000:  GT Test Number
 GTET.sec               00 000 000 000:  GT Elapsed Test Time
 GTTVD.m                00 000 000 000:  GT True Vertical Depth
#Other Information
#
#WARRANTY: Halliburton will use its best efforts to furnish customers with 
#accurate information and interpretations that are part of, and incident to, the services 
#provided.  However, Halliburton cannot and does not warrant the accuracy 
#or correctness of such information and interpretations.  Under no circumstances should any 
#such information or interpretation be relied upon as the sole basis for any drilling, 
#completion, production, or financial decision or any procedure involving any risk to the 
#safety of any drilling venture, drilling rig or its crew or any other third party.  The 
#Customer has full responsibility for all drilling, completion and production operation.  
#Halliburton makes no representations or warranties, either expressed or 
#implied, including, but not limited to, the implied warranties of merchantability or fitness 
#for a particular purpose, with respect to the services rendered.  In no event will 
#Halliburton be liable for failure to obtain any particular results or for 
#any damages, including, but not limited to, indirect, special or consequential damages, 
#resulting from the use of any information or interpretation provided by Halliburton.
#
~A           TIME           GTDEPTH  GTPQH  GTTQ  GTTN  GTET   GTTVD  
# ...
   23:19:29.587.08-May-2021 4549.51 3248.64 68.56 5.00 229.93 2991.64
   23:19:29.787.08-May-2021 4549.51 3248.64 68.56 5.00 230.13 2991.64
   23:19:29.987.08-May-2021 4549.51 3248.64 68.56 5.00 230.33 2991.64
   23:19:30.187.08-May-2021 4549.51 3248.64 68.56 5.00 230.53 2991.64
   23:19:30.386.08-May-2021 4549.51 3248.63 68.56 5.00 230.73 2991.64
   23:19:30.586.08-May-2021 4549.51 3248.64 68.56 5.00 230.93 2991.64
   23:19:30.786.08-May-2021 4549.51 3248.64 68.56 5.00 231.13 2991.64
   23:19:30.986.08-May-2021 4549.51 3248.62 68.56 5.00 231.33 2991.64
   23:19:31.186.08-May-2021 4549.51 3248.70 68.56 5.00 231.53 2991.64
   23:19:31.386.08-May-2021 4549.51 3248.61 68.56 5.00 231.73 2991.64
   23:19:31.586.08-May-2021 4549.51 3248.64 68.56 5.00 231.93 2991.64
   23:19:31.786.08-May-2021 4549.51 3248.64 68.56 5.00 232.13 2991.64
   23:19:31.986.08-May-2021 4549.51 3248.57 68.56 5.00 232.33 2991.64
   23:19:32.186.08-May-2021 4549.51 3248.73 68.56 5.00 232.53 2991.64
   23:19:32.386.08-May-2021 4549.51 3248.61 68.56 5.00 232.73 2991.64
   23:19:32.586.08-May-2021 4549.51 3248.65 68.56 5.00 232.93 2991.64
   23:19:32.786.08-May-2021 4549.51 3248.65 68.56 5.00 233.13 2991.64
   23:19:32.986.08-May-2021 4549.51 3248.69 68.56 5.00 233.33 2991.64
   23:19:33.186.08-May-2021 4549.51 3248.62 68.56 5.00 233.53 2991.64
   23:19:33.386.08-May-2021 4549.51 3248.57 68.56 5.00 233.73 2991.64
   23:19:33.585.08-May-2021 4549.51 3248.73 68.56 5.00 233.93 2991.64
   23:19:33.785.08-May-2021 4549.51 3248.73 68.56 5.00 234.13 2991.64
   23:19:33.985.08-May-2021 4549.51 3248.64 68.56 5.00 234.33 2991.64
   23:19:34.185.08-May-2021 4549.51 3248.62 68.56 5.00 234.53 2991.64
   23:19:34.385.08-May-2021 4549.51 3248.63 68.56 5.00 234.73 2991.64
   23:19:34.585.08-May-2021 4549.51 3248.64 68.56 5.00 234.93 2991.64
   23:19:34.785.08-May-2021 4549.51 3248.64 68.56 5.00 235.13 2991.64
   23:19:34.985.08-May-2021 4549.51 3248.63 68.56 5.00 235.33 2991.64
   23:19:35.185.08-May-2021 4549.51 3248.63 68.56 5.00 235.53 2991.64
   23:19:35.385.08-May-2021 4549.51 3248.63 68.56 5.00 235.73 2991.64
   23:19:35.585.08-May-2021 4549.51 3248.64 68.56 5.00 235.93 2991.64
   23:19:35.785.08-May-2021 4549.51 3248.64 68.56 5.00 236.13 2991.64
   23:19:35.985.08-May-2021 4549.51 3248.56 68.56 5.00 236.33 2991.64
   23:19:36.185.08-May-2021 4549.51 3248.73 68.55 5.00 236.53 2991.64
   23:19:36.385.08-May-2021 4549.51 3248.63 68.55 5.00 236.73 2991.64
   23:19:36.585.08-May-2021 4549.51 3248.63 68.55 5.00 236.93 2991.64
   23:19:36.784.08-May-2021 4549.51 3248.63 68.55 5.00 237.13 2991.64
   23:19:36.984.08-May-2021 4549.51 3248.64 68.55 5.00 237.33 2991.64
   23:19:37.184.08-May-2021 4549.51 3248.63 68.55 5.00 237.53 2991.64
   23:19:37.384.08-May-2021 4549.51 3248.63 68.55 5.00 237.73 2991.64
   23:19:37.584.08-May-2021 4549.51 3248.63 68.55 5.00 237.93 2991.64
   23:19:37.784.08-May-2021 4549.51 3248.63 68.55 5.00 238.13 2991.64
   23:19:37.984.08-May-2021 4549.51 3248.62 68.55 5.00 238.33 2991.64
   23:19:38.184.08-May-2021 4549.51 3248.63 68.55 5.00 238.53 2991.64
   23:19:38.384.08-May-2021 4549.51 3248.63 68.55 5.00 238.73 2991.64
   23:19:38.584.08-May-2021 4549.51 3248.57 68.55 5.00 238.93 2991.64
   23:19:38.784.08-May-2021 4549.51 3248.57 68.55 5.00 239.13 2991.64
   23:19:38.984.08-May-2021 4549.51 3248.62 68.55 5.00 239.33 2991.64
   23:19:39.184.08-May-2021 4549.51 3248.63 68.55 5.00 239.53 2991.64
   23:19:39.384.08-May-2021 4549.51 3248.62 68.55 5.00 239.73 2991.64
   23:19:39.584.08-May-2021 4549.51 3248.62 68.55 5.00 239.93 2991.64
   23:19:39.784.08-May-2021 4549.51 3248.62 68.55 5.00 240.13 2991.64
   23:19:39.983.08-May-2021 4549.51 3248.60 68.55 5.00 240.33 2991.64
   23:19:40.183.08-May-2021 4549.51 3248.62 68.55 5.00 240.53 2991.64
   23:19:40.383.08-May-2021 4549.51 3248.61 68.55 5.00 240.72 2991.64
   23:19:40.583.08-May-2021 4549.51 3248.62 68.55 5.00 240.92 2991.64
   23:19:40.783.08-May-2021 4549.51 3248.62 68.55 5.00 241.12 2991.64
   23:19:40.983.08-May-2021 4549.51 3248.64 68.55 5.00 241.32 2991.64
   23:19:41.183.08-May-2021 4549.51 3248.68 68.55 5.00 241.52 2991.64
   23:19:41.383.08-May-2021 4549.51 3248.58 68.55 5.00 241.72 2991.64
   23:19:41.583.08-May-2021 4549.51 3248.62 68.55 5.00 241.92 2991.64
   23:19:41.783.08-May-2021 4549.51 3248.62 68.55 5.00 242.12 2991.64
   23:19:41.983.08-May-2021 4549.51 3248.62 68.55 5.00 242.32 2991.64
   23:19:42.183.08-May-2021 4549.51 3248.62 68.55 5.00 242.52 2991.64
   23:19:42.383.08-May-2021 4549.51 3248.62 68.55 5.00 242.72 2991.64
   23:19:42.583.08-May-2021 4549.51 3248.62 68.55 5.00 242.92 2991.64
   23:19:42.783.08-May-2021 4549.51 3248.62 68.55 5.00 243.12 2991.64
   23:19:42.983.08-May-2021 4549.51 3248.62 68.55 5.00 243.32 2991.64
   23:19:43.182.08-May-2021 4549.51 3248.62 68.55 5.00 243.52 2991.64
   23:19:43.382.08-May-2021 4549.51 3248.63 68.55 5.00 243.72 2991.64
   23:19:43.582.08-May-2021 4549.51 3248.62 68.55 5.00 243.92 2991.64
   23:19:43.782.08-May-2021 4549.51 3248.62 68.55 5.00 244.12 2991.64
   23:19:43.982.08-May-2021 4549.51 3248.59 68.55 5.00 244.32 2991.64
   23:19:44.182.08-May-2021 4549.51 3248.62 68.55 5.00 244.52 2991.64
   23:19:44.382.08-May-2021 4549.51 3248.60 68.55 5.00 244.72 2991.64
   23:19:44.582.08-May-2021 4549.51 3248.62 68.55 5.00 244.92 2991.64
   23:19:44.782.08-May-2021 4549.51 3248.62 68.55 5.00 245.12 2991.64
   23:19:44.982.08-May-2021 4549.51 3248.62 68.55 5.00 245.32 2991.64
   23:19:45.182.08-May-2021 4549.51 3248.63 68.55 5.00 245.52 2991.64
   23:19:45.382.08-May-2021 4549.51 3248.62 68.55 5.00 245.72 2991.64
   23:19:45.582.08-May-2021 4549.51 3248.61 68.55 5.00 245.92 2991.64
   23:19:45.782.08-May-2021 4549.51 3248.61 68.55 5.00 246.12 2991.64
   23:19:45.982.08-May-2021 4549.51 3248.61 68.55 5.00 246.32 2991.64
   23:19:46.182.08-May-2021 4549.51 3248.62 68.55 5.00 246.52 2991.64
   23:19:46.381.08-May-2021 4549.51 3248.68 68.55 5.00 246.72 2991.64
   23:19:46.581.08-May-2021 4549.51 3248.59 68.55 5.00 246.92 2991.64
   23:19:46.781.08-May-2021 4549.51 3248.59 68.55 5.00 247.12 2991.64
   23:19:46.981.08-May-2021 4549.51 3248.60 68.55 5.00 247.32 2991.64
   23:19:47.181.08-May-2021 4549.51 3248.61 68.55 5.00 247.52 2991.64
   23:19:47.381.08-May-2021 4549.51 3248.61 68.55 5.00 247.72 2991.64
   23:19:47.581.08-May-2021 4549.51 3248.66 68.55 5.00 247.92 2991.64
   23:19:47.781.08-May-2021 4549.51 3248.66 68.55 5.00 248.12 2991.64
   23:19:47.981.08-May-2021 4549.51 3248.60 68.55 5.00 248.32 2991.64
   23:19:48.181.08-May-2021 4549.51 3248.60 68.55 5.00 248.52 2991.64
   23:19:48.381.08-May-2021 4549.51 3248.67 68.55 5.00 248.72 2991.64
   23:19:48.581.08-May-2021 4549.51 3248.59 68.55 5.00 248.92 2991.64
   23:19:48.781.08-May-2021 4549.51 3248.59 68.55 5.00 249.12 2991.64
   23:19:48.981.08-May-2021 4549.51 3248.67 68.55 5.00 249.32 2991.64
   23:19:49.181.08-May-2021 4549.51 3248.59 68.55 5.00 249.52 2991.64
   23:19:49.381.08-May-2021 4549.51 3248.60 68.55 5.00 249.72 2991.64
   23:19:49.580.08-May-2021 4549.51 3248.61 68.55 5.00 249.92 2991.64
   23:19:49.780.08-May-2021 4549.51 3248.61 68.55 5.00 250.12 2991.64
   23:19:49.980.08-May-2021 4549.51 3248.61 68.55 5.00 250.32 2991.64
   23:19:50.180.08-May-2021 4549.51 3248.60 68.55 5.00 250.52 2991.64
   23:19:50.380.08-May-2021 4549.51 3248.61 68.55 5.00 250.72 2991.64
   23:19:50.580.08-May-2021 4549.51 3248.61 68.55 5.00 250.92 2991.64
   23:19:50.780.08-May-2021 4549.51 3248.61 68.55 5.00 251.12 2991.64
   23:19:50.980.08-May-2021 4549.51 3248.61 68.55 5.00 251.32 2991.64
   23:19:51.180.08-May-2021 4549.51 3248.60 68.55 5.00 251.52 2991.64
   23:19:51.380.08-May-2021 4549.51 3248.61 68.55 5.00 251.72 2991.64
   23:19:51.580.08-May-2021 4549.51 3248.65 68.55 5.00 251.92 2991.64
   23:19:51.780.08-May-2021 4549.51 3248.65 68.55 5.00 252.12 2991.64
   23:19:51.980.08-May-2021 4549.51 3248.61 68.55 5.00 252.32 2991.64
   23:19:52.180.08-May-2021 4549.51 3248.61 68.55 5.00 252.52 2991.64
   23:19:52.380.08-May-2021 4549.51 3248.61 68.55 5.00 252.72 2991.64
