~Version Information
 VERS.                  2.0:   CWLS log ASCII Standard -VERSION 2.0
 WRAP.                   NO:   One line per depth step
~Well Information Block
#MNEM.UNIT     VALUE/NAME     DESCRIPTION
#---------     -----------    ---------------------------
 STRT.S             22:20:35 08-May-21: START TIME 22:20:35 08-May-21
 STOP.S             22:27:08 08-May-21: STOP TIME  22:27:08 08-May-21
 STEP.S                   0.00: STEP TIME
 NULL.                 -999.25: NULL VALUE
 PROV.                    Baku:  PROVINCE
 STAT.                    Baku:  STATE NAME
 SON .        AZ-XX-0906571588:  JOB NUMBER
 WTYP.                Deviated:  WELL TYPE
 COMP.     BP Exploration (Caspian Sea) ltd:  COMPANY
 BASE.              Azerbaijan:  LOGGING EQUIPMENT BASE LOCATION
 REGN.                   EESSA:  REGION
 CTRY.              Azerbaijan:  COUNTRY NAME
 FLD .                     ACG:  FIELD NAME
 WELL.                     J28:  WELL NAME
 RIG .             West Chirag:  RIG NAME
 DMF .             Drill Floor:  DRILL MEAS FROM
 PDAT.       Caspian Sea Level:  PERMANENT DATUM
 HPTY.       Minimum Curvature:  HOLE POS TYPE
 MDS .        Operator Entered:  MAG DATA SOURCE
 NREF.                    Grid:  NORTH REFERENCE
 SRVC.          TURAN DRILLING:  CONTRACTOR
 JOBN.        AZ-XX-0906571588:  JOB TICKET NUMB
 DCON.     Halliburton Sperry Drilling:  DIRECTNL CONTR
 STIM.      00.44.00 11-Feb-21:  START TIME
 DATE.      00.00.00 05-May-21:  END TIME
 SPUD.               13-Feb-21:  SPUD DATE
 MWDS.                    Baku:  MWD SHOP
 DOE .                     N/A:  DOE NUMBER
 UNIT.                     N/A:  LOGGING EQUIPMENT ID
 UWI .                     N/A:  UNIQUE WELL IDENTIFIER
 API .                     N/A:  API NUMBER
 CNTY.                        :  COUNTY
 LOC .                        :  LOCATION
 LMF .             Drill Floor:  LOG MEASURED FROM
 TVDS.m                  43.00:  TVDSS CORRECTN
 SDEP.m                 341.00:  START DEPTH
 EGL .m                   0.00:  GROUND ELEVATION
 WDMS.m                 169.80:  WD ELEV
 AGAP.m                  43.00:  AIR GAP
 EPD .m                   0.00:  ELEVATION
 APD .m                  43.00:  DEPTH ABOVE PD
 LATI.deg                40.13:  LATITUDE
 LONG.deg                51.22:  LONGITUDE
 UTMY.m             4443793.85:  UTM Y
 UTMX.m              519005.06:  UTM X
 WHEW.m                 -11.57:  WELL HEAD E/W
 WHNS.m                   8.57:  WELL HEAD N/S
 VSEW.m                 -11.57:  VERT SEC E/W
 VSNS.m                   8.57:  VERT SEC N/S
 DFWL.m                   0.00:  DISTANCE FWL
 DFSL.m                   0.00:  DISTANCE FSL
 VSDR.deg               299.34:  VERT SEC DIRECT
 GVFD.g                   1.00:  GRAVITY FIELD
 AZTC.deg                 6.36:  AZM TOTAL CORR
 MFLD.nT              50391.00:  MAGNETIC FIELD
 MDIP.deg                59.65:  MAGNETIC DIP
 MDEC.deg                 6.48:  MAGNETIC DECL
 GRDC.deg                 0.12:  GRID CORRECTION
 DEP .m                 334.96:  DEPTH
 TDD .m                1407.26:  TOTAL DEPTH (DRILLER)
 EKB .m                  43.00:  KB ELEVATION
 EDF .m                  43.00:  DF ELEVATION
 TDL .m                 228.00:  TOTAL DEPTH (LOGGER)
 VSC .                       0:  VS TO CLOSURE
 MAGU.                 1854484:  MAGUTM CHECKSUM
~Parameter Information Block
#MNEM.UNIT       Value        Description
#---------     -----------    ---------------------------
 AV  .mps                 4.00:  Ann Velocity 
 AVMX.mps                 4.73:  Max Ann Veloc 
 AZIF.deg               304.48:  Azm, Final 
 BHAT.        Rotary Steerable:  BHA Type 
 BREV.rev            257300.00:  Rev Bit Total 
 BROT.°/30m               0.00:  Build Rotating 
 BS  .in                  8.50:  Bit Size 
 BSZ .in                  8.50:  Bit Size 
 BTPL.psig              589.00:  Bit Press Loss 
 CABU.                      No:  Customer Abuse 
 CGEO.          Mubariz ghayev:  Customer Geo 
 COMM.                     lÿM:  Run Comments 1 
 TCS .hr                 64.25:  Time Ciculation Ended 
 CV  .mps                 3.50:  Crit Velocity 
 CVMX.mps                 4.52:  Max Crit Veloc 
 DD1 .             Aziz Aliyev:  Direct Drillr 1 
 DD2 .         Intigam Rahimov:  Direct Drillr 2 
 DD3 .          Rashad Habibov:  Direct Drillr 3 
 DDSV.               Geo-Pilot:  DD Service 
 DEFF.%                  98.00:  % Det Eff 
 DLRX.°/30m               0.00:  Dogleg Rot Max 
 DLSO.°/30m               0.00:  Dogleg Oriented 
 DLSX.°/30m               0.00:  Dogleg Str Max 
 DRET.      10.45.04 08-May-21:  Drill End Time 
 DRST.      03.30.04 04-May-21:  Drill Start Tim 
 DTIM.hr                 14.97:  Time Drilling 
 EDEP.m                4640.01:  End Depth 
 ENG1.         Dail Mahammadov:  Engineer 1 
 ENG2.           Eldar Hajiyev:  Engineer 2 
 ENG3.       Bakhtiar Jabbarli:  Engineer 3 
 ENG4.       Natik Hasanagayev:  Engineer 4 
 ETIM.      09.30.04 14-May-21:  End Time 
 FLOI.gpm               460.00:  Flow In 
 FLON.gpm               200.00:  Flow In Min 
 FLOS.cptm                0.00:  Fluid Loss 
 FLOX.gpm               505.00:  Flow In Max 
 HFLO.                      No:  High Flow 
 HPRE.                      No:  High Pressure 
 HTEM.                      No:  High Temp 
 HYDO.m                   1.80:  Hydro Offset 
 IFIN.deg                66.71:  Inc, Final 
 IMAX.deg                67.03:  Inc Max 
 IMIN.deg                66.63:  Inc Min 
 IMND.m                4550.58:  Inc Min Depth 
 IMXD.m                4439.01:  Inc Max Depth 
 JARR.                      No:  Jarring 
 LETM.      10.45.04 08-May-21:  Log End Time 
 LOST.hr                     0:  Lost Rig Time 
 LSTM.      03.30.04 04-May-21:  Log Start Time 
 MDCL.ppm             37000.00:  Mud Chlorides 
 MDES.     Inversion Oil/Synthetic:  Mud Desc 
 DFD .sg                  1.38:  Mud Density 
 MDMN.sg                  1.35:  Dens Mud Min 
 MDMX.sg                  1.40:  Dens Mud Max 
 MOIL.                   57.40:  Run Mud Oil % 
 MOWR.                   70:30:  Run Mud OWR 
 MSND.                    0.00:  Run Mud Sand % 
 MSOL.                   18.00:  Run Mud Solids% 
 DFV .spqt               71.00:  Mud Viscosity 
 MWOD.in                  6.75:  MWD Tool OD 
 MWSI.                      No:  Serv Intrp, MWD 
 OTIM.hr                242.76:  Time Operating 
 PCON.           Look Like New:  Pad Condition 
 PMAX.psia            12183.92:  Press Op, Max 
 PV  .cP                 27.00:  Mud PV 
 RUN .                    1300:  Run Number 
 ROPA.m/hr               15.00:  ROP Avg 
 ROPN.m/hr                9.00:  ROP Min 
 ROPX.m/hr               19.00:  ROP Max 
 RPMA.rpm               120.00:  RPM Surface Avg 
 RPMN.rpm               100.00:  RPM Surface Min 
 RPMX.rpm               120.00:  RPM Surface Max 
 RRUN.                    1300:  Rig Run Number 
 RTIM.hr                  5.00:  Time Reaming 
 SAZI.deg               304.73:  Azm, Start 
 SDEP.m                4412.01:  Start Depth 
 SIDD.                      No:  Serv Intrp, DD 
 SINC.deg                66.82:  Inc, Start 
 SPPA.psig             2800.00:  SPP Avg 
 SPPN.psig             2610.00:  SPP Min 
 SPPX.psig             3100.00:  SPP Max 
 STIM.      03.30.00 04-May-21:  Start Time 
 SVCS.                 DD, MWD:  Services 
 SVER.                    9.20:  Sperry Version 
 TDAT.m                 228.00:  Tot Depth Attmp 
 TDDF.                      No:  Trip for DD 
 TDLG.m                 228.00:  Tot Depth Loggd 
 TFF .                      No:  Trip for Fail 
 TQAA.f-kp               15.00:  Torque Abs Avg 
 TQAN.f-kp               12.00:  Torque Abs Min 
 TQAX.f-kp               22.00:  Torque Abs Max 
 TRRT.°/30m               0.00:  Turn Rotating 
 MRT .                    HCIM:  Maximum Recorded Temperature 
 TTMX.degC               90.20:  Max Tool Temp 
 VS01.                90627813:  Virtual Str1 SN 
 VS02.                90634712:  Virtual Str2 SN 
 VS03.                90643410:  Virtual Str3 SN 
 VS04.                90634712:  Virtual Str4 SN 
 WBMN.klb                 9.00:  WOB Min 
 WITN.        Elmaddin Rahimov:  Customer Rep 
 WITN.         Haytham Mostafa:  Customer Rep 2 
 WOBA.klb                15.00:  WOB Avg 
 WOBX.klb                23.00:  WOB Max 
 YP  .lhf2               29.00:  Yield Point 
~Curve Information Block
#MNEM.UNIT                 API CODE     Curve Description
#---------               -----------    ---------------------------
 TIME.HHMMSS            00 000 000 000:  GT Time & Date
 GTDEPTH.m              00 000 000 000:  GT Depth
 GTPQH.psia             00 000 000 000:  GT HR Quartz Pressure
 GTTQ.degC              00 000 000 000:  GT Quartz Temperature
 GTTN.NONE              00 000 000 000:  GT Test Number
 GTET.sec               00 000 000 000:  GT Elapsed Test Time
 GTTVD.m                00 000 000 000:  GT True Vertical Depth
#Other Information
#
#WARRANTY: Halliburton will use its best efforts to furnish customers with 
#accurate information and interpretations that are part of, and incident to, the services 
#provided.  However, Halliburton cannot and does not warrant the accuracy 
#or correctness of such information and interpretations.  Under no circumstances should any 
#such information or interpretation be relied upon as the sole basis for any drilling, 
#completion, production, or financial decision or any procedure involving any risk to the 
#safety of any drilling venture, drilling rig or its crew or any other third party.  The 
#Customer has full responsibility for all drilling, completion and production operation.  
#Halliburton makes no representations or warranties, either expressed or 
#implied, including, but not limited to, the implied warranties of merchantability or fitness 
#for a particular purpose, with respect to the services rendered.  In no event will 
#Halliburton be liable for failure to obtain any particular results or for 
#any damages, including, but not limited to, indirect, special or consequential damages, 
#resulting from the use of any information or interpretation provided by Halliburton.
#
~A           TIME           GTDEPTH  GTPQH  GTTQ  GTTN  GTET   GTTVD  
# ...
   22:26:20.000.08-May-2021 4569.01  749.75 68.48 4.00 345.00 2999.38
   22:26:20.200.08-May-2021 4569.01  749.75 68.48 4.00 345.20 2999.38
   22:26:20.400.08-May-2021 4569.01  750.22 68.48 4.00 345.40 2999.38
   22:26:20.600.08-May-2021 4569.01  749.76 68.48 4.00 345.60 2999.38
   22:26:20.800.08-May-2021 4569.01  749.98 68.48 4.00 345.80 2999.38
   22:26:21.000.08-May-2021 4569.01  749.91 68.48 4.00 346.00 2999.38
   22:26:21.200.08-May-2021 4569.01  749.91 68.48 4.00 346.20 2999.38
   22:26:21.400.08-May-2021 4569.01  749.63 68.48 4.00 346.40 2999.38
   22:26:21.600.08-May-2021 4569.01  750.29 68.48 4.00 346.60 2999.38
   22:26:21.800.08-May-2021 4569.01  749.90 68.48 4.00 346.80 2999.38
   22:26:22.000.08-May-2021 4569.01  750.01 68.48 4.00 347.00 2999.38
   22:26:22.200.08-May-2021 4569.01  750.01 68.48 4.00 347.20 2999.38
   22:26:22.400.08-May-2021 4569.01  749.56 68.48 4.00 347.40 2999.38
   22:26:22.600.08-May-2021 4569.01  750.33 68.48 4.00 347.60 2999.38
   22:26:22.800.08-May-2021 4569.01  750.02 68.48 4.00 347.80 2999.38
   22:26:23.000.08-May-2021 4569.01  750.22 68.48 4.00 348.00 2999.38
   22:26:23.200.08-May-2021 4569.01  750.22 68.48 4.00 348.20 2999.38
   22:26:23.400.08-May-2021 4569.01  749.76 68.48 4.00 348.40 2999.38
   22:26:23.600.08-May-2021 4569.01  750.10 68.48 4.00 348.60 2999.38
   22:26:23.800.08-May-2021 4569.01  750.34 68.48 4.00 348.80 2999.38
   22:26:24.000.08-May-2021 4569.01  750.24 68.48 4.00 349.00 2999.38
   22:26:24.200.08-May-2021 4569.01  750.24 68.48 4.00 349.20 2999.38
   22:26:24.400.08-May-2021 4569.01  750.22 68.48 4.00 349.40 2999.38
   22:26:24.600.08-May-2021 4569.01  750.32 68.48 4.00 349.60 2999.38
   22:26:24.800.08-May-2021 4569.01  750.30 68.48 4.00 349.80 2999.38
   22:26:25.000.08-May-2021 4569.01  750.32 68.48 4.00 350.00 2999.38
   22:26:25.200.08-May-2021 4569.01  750.32 68.48 4.00 350.20 2999.38
   22:26:25.400.08-May-2021 4569.01  750.43 68.48 4.00 350.40 2999.38
   22:26:25.600.08-May-2021 4569.01  750.51 68.48 4.00 350.60 2999.38
   22:26:25.800.08-May-2021 4569.01  750.13 68.48 4.00 350.80 2999.38
   22:26:26.000.08-May-2021 4569.01  750.78 68.48 4.00 351.00 2999.38
   22:26:26.200.08-May-2021 4569.01  750.78 68.48 4.00 351.20 2999.38
   22:26:26.400.08-May-2021 4569.01  750.61 68.48 4.00 351.40 2999.38
   22:26:26.600.08-May-2021 4569.01  750.67 68.48 4.00 351.60 2999.38
   22:26:26.800.08-May-2021 4569.01  750.56 68.48 4.00 351.80 2999.38
   22:26:27.000.08-May-2021 4569.01  750.61 68.48 4.00 352.00 2999.38
   22:26:27.200.08-May-2021 4569.01  750.61 68.48 4.00 352.20 2999.38
   22:26:27.400.08-May-2021 4569.01  750.64 68.48 4.00 352.40 2999.38
   22:26:27.600.08-May-2021 4569.01  750.66 68.48 4.00 352.60 2999.38
   22:26:27.800.08-May-2021 4569.01  750.66 68.48 4.00 352.80 2999.38
   22:26:28.000.08-May-2021 4569.01  750.73 68.48 4.00 353.00 2999.38
   22:26:28.200.08-May-2021 4569.01  750.73 68.48 4.00 353.20 2999.38
   22:26:28.400.08-May-2021 4569.01  750.88 68.48 4.00 353.40 2999.38
   22:26:28.600.08-May-2021 4569.01  750.95 68.48 4.00 353.60 2999.38
   22:26:28.800.08-May-2021 4569.01  750.86 68.48 4.00 353.80 2999.38
   22:26:29.000.08-May-2021 4569.01  750.83 68.48 4.00 354.00 2999.38
   22:26:29.200.08-May-2021 4569.01  750.83 68.48 4.00 354.20 2999.38
   22:26:29.400.08-May-2021 4569.01  750.47 68.48 4.00 354.40 2999.38
   22:26:29.600.08-May-2021 4569.01  751.18 68.48 4.00 354.60 2999.38
   22:26:29.800.08-May-2021 4569.01  750.81 68.48 4.00 354.80 2999.38
   22:26:30.000.08-May-2021 4569.01  751.09 68.48 4.00 355.00 2999.38
   22:26:30.200.08-May-2021 4569.01  751.09 68.48 4.00 355.20 2999.38
   22:26:30.400.08-May-2021 4569.01  750.59 68.48 4.00 355.40 2999.38
   22:26:30.600.08-May-2021 4569.01  751.07 68.48 4.00 355.60 2999.38
   22:26:30.800.08-May-2021 4569.01  751.15 68.48 4.00 355.80 2999.38
   22:26:31.000.08-May-2021 4569.01  751.13 68.48 4.00 356.00 2999.38
   22:26:31.200.08-May-2021 4569.01  751.13 68.48 4.00 356.20 2999.38
   22:26:31.400.08-May-2021 4569.01  751.51 68.48 4.00 356.40 2999.38
   22:26:31.600.08-May-2021 4569.01  751.17 68.48 4.00 356.60 2999.38
   22:26:31.800.08-May-2021 4569.01  751.38 68.48 4.00 356.80 2999.38
   22:26:32.000.08-May-2021 4569.01  751.22 68.48 4.00 357.00 2999.38
   22:26:32.200.08-May-2021 4569.01  751.22 68.48 4.00 357.20 2999.38
   22:26:32.400.08-May-2021 4569.01  751.28 68.48 4.00 357.40 2999.38
   22:26:32.600.08-May-2021 4569.01  751.30 68.48 4.00 357.60 2999.38
   22:26:32.800.08-May-2021 4569.01  818.70 68.48 4.00 357.80 2999.38
   22:26:33.000.08-May-2021 4569.01  982.97 68.48 4.00 358.00 2999.38
   22:26:33.200.08-May-2021 4569.01  982.97 68.48 4.00 358.20 2999.38
   22:26:33.400.08-May-2021 4569.01 6842.57 68.48 4.00 358.40 2999.38
   22:26:33.600.08-May-2021 4569.01 6838.61 68.48 4.00 358.60 2999.38
   22:26:33.800.08-May-2021 4569.01 6851.43 68.49 4.00 358.80 2999.38
   22:26:34.000.08-May-2021 4569.01 6842.37 68.49 4.00 359.00 2999.38
   22:26:34.200.08-May-2021 4569.01 6842.37 68.49 4.00 359.20 2999.38
   22:26:34.400.08-May-2021 4569.01 6843.53 68.49 4.00 359.40 2999.38
   22:26:34.600.08-May-2021 4569.01 6843.38 68.50 4.00 359.60 2999.38
   22:26:34.800.08-May-2021 4569.01 6843.91 68.50 4.00 359.80 2999.38
   22:26:35.000.08-May-2021 4569.01 6844.13 68.50 4.00 360.00 2999.38
   22:26:35.200.08-May-2021 4569.01 6844.13 68.50 4.00 360.20 2999.38
   22:26:35.400.08-May-2021 4569.01 6845.52 68.51 4.00 360.40 2999.38
   22:26:35.600.08-May-2021 4569.01 6845.95 68.51 4.00 360.60 2999.38
   22:26:35.800.08-May-2021 4569.01 6846.76 68.52 4.00 360.80 2999.38
   22:26:36.000.08-May-2021 4569.01 6847.71 68.52 4.00 361.00 2999.38
   22:26:36.200.08-May-2021 4569.01 6847.71 68.52 4.00 361.20 2999.38
   22:26:36.400.08-May-2021 4569.01 6859.75 68.53 4.00 361.40 2999.38
   22:26:36.600.08-May-2021 4569.01 6857.93 68.54 4.00 361.60 2999.38
   22:26:36.800.08-May-2021 4569.01 6850.58 68.54 4.00 361.80 2999.38
   22:26:37.000.08-May-2021 4569.01 6852.08 68.54 4.00 362.00 2999.38
   22:26:37.200.08-May-2021 4569.01 6852.08 68.54 4.00 362.20 2999.38
   22:26:37.400.08-May-2021 4569.01 6852.37 68.55 4.00 362.40 2999.38
   22:26:37.600.08-May-2021 4569.01 6861.01 68.56 4.00 362.60 2999.38
   22:26:37.800.08-May-2021 4569.01 6857.78 68.56 4.00 362.80 2999.38
   22:26:38.000.08-May-2021 4569.01 6850.75 68.56 4.00 363.00 2999.38
   22:26:38.200.08-May-2021 4569.01 6850.75 68.56 4.00 363.20 2999.38
   22:26:38.400.08-May-2021 4569.01 6852.13 68.57 4.00 363.40 2999.38
   22:26:38.600.08-May-2021 4569.01 6861.74 68.58 4.00 363.60 2999.38
   22:26:38.800.08-May-2021 4569.01 6859.26 68.58 4.00 363.80 2999.38
   22:26:39.000.08-May-2021 4569.01 6851.93 68.58 4.00 364.00 2999.38
   22:26:39.200.08-May-2021 4569.01 6851.93 68.58 4.00 364.20 2999.38
   22:26:39.400.08-May-2021 4569.01 6856.86 68.59 4.00 364.40 2999.38
   22:26:39.600.08-May-2021 4569.01 6854.67 68.59 4.00 364.60 2999.38
   22:26:39.800.08-May-2021 4569.01 6854.29 68.59 4.00 364.80 2999.38
   22:26:40.000.08-May-2021 4569.01 6853.67 68.60 4.00 365.00 2999.38
   22:26:40.200.08-May-2021 4569.01 6853.67 68.60 4.00 365.20 2999.38
   22:26:40.400.08-May-2021 4569.01 6852.76 68.60 4.00 365.40 2999.38
   22:26:40.600.08-May-2021 4569.01 6853.02 68.60 4.00 365.60 2999.38
   22:26:40.800.08-May-2021 4569.01 6852.61 68.61 4.00 365.80 2999.38
   22:26:41.000.08-May-2021 4569.01 6852.73 68.61 4.00 366.00 2999.38
   22:26:41.200.08-May-2021 4569.01 6852.73 68.61 4.00 366.20 2999.38
   22:26:41.400.08-May-2021 4569.01 6853.35 68.61 4.00 366.40 2999.38
   22:26:41.600.08-May-2021 4569.01 6853.99 68.62 4.00 366.60 2999.38
   22:26:41.800.08-May-2021 4569.01 6864.99 68.62 4.00 366.80 2999.38
   22:26:42.000.08-May-2021 4569.01 6860.61 68.62 4.00 367.00 2999.38
   22:26:42.200.08-May-2021 4569.01 6860.61 68.62 4.00 367.20 2999.38
   22:26:42.400.08-May-2021 4569.01 6855.90 68.62 4.00 367.40 2999.38
   22:26:42.600.08-May-2021 4569.01 6856.36 68.62 4.00 367.60 2999.38
   22:26:42.800.08-May-2021 4569.01 6854.29 68.63 4.00 367.80 2999.38
