~Version Information
 VERS.                  2.0:   CWLS log ASCII Standard -VERSION 2.0
 WRAP.                   NO:   One line per depth step
~Well Information Block
#MNEM.UNIT     VALUE/NAME     DESCRIPTION
#---------     -----------    ---------------------------
 STRT.S             20:58:23 08-May-21: START TIME 20:58:23 08-May-21
 STOP.S             21:05:15 08-May-21: STOP TIME  21:05:15 08-May-21
 STEP.S                   0.00: STEP TIME
 NULL.                 -999.25: NULL VALUE
 PROV.                    Baku:  PROVINCE
 STAT.                    Baku:  STATE NAME
 SON .        AZ-XX-0906571588:  JOB NUMBER
 WTYP.                Deviated:  WELL TYPE
 COMP.     BP Exploration (Caspian Sea) ltd:  COMPANY
 BASE.              Azerbaijan:  LOGGING EQUIPMENT BASE LOCATION
 REGN.                   EESSA:  REGION
 CTRY.              Azerbaijan:  COUNTRY NAME
 FLD .                     ACG:  FIELD NAME
 WELL.                     J28:  WELL NAME
 RIG .             West Chirag:  RIG NAME
 DMF .             Drill Floor:  DRILL MEAS FROM
 PDAT.       Caspian Sea Level:  PERMANENT DATUM
 HPTY.       Minimum Curvature:  HOLE POS TYPE
 MDS .        Operator Entered:  MAG DATA SOURCE
 NREF.                    Grid:  NORTH REFERENCE
 SRVC.          TURAN DRILLING:  CONTRACTOR
 JOBN.        AZ-XX-0906571588:  JOB TICKET NUMB
 DCON.     Halliburton Sperry Drilling:  DIRECTNL CONTR
 STIM.      00.44.00 11-Feb-21:  START TIME
 DATE.      00.00.00 05-May-21:  END TIME
 SPUD.               13-Feb-21:  SPUD DATE
 MWDS.                    Baku:  MWD SHOP
 DOE .                     N/A:  DOE NUMBER
 UNIT.                     N/A:  LOGGING EQUIPMENT ID
 UWI .                     N/A:  UNIQUE WELL IDENTIFIER
 API .                     N/A:  API NUMBER
 CNTY.                        :  COUNTY
 LOC .                        :  LOCATION
 LMF .             Drill Floor:  LOG MEASURED FROM
 TVDS.m                  43.00:  TVDSS CORRECTN
 SDEP.m                 341.00:  START DEPTH
 EGL .m                   0.00:  GROUND ELEVATION
 WDMS.m                 169.80:  WD ELEV
 AGAP.m                  43.00:  AIR GAP
 EPD .m                   0.00:  ELEVATION
 APD .m                  43.00:  DEPTH ABOVE PD
 LATI.deg                40.13:  LATITUDE
 LONG.deg                51.22:  LONGITUDE
 UTMY.m             4443793.85:  UTM Y
 UTMX.m              519005.06:  UTM X
 WHEW.m                 -11.57:  WELL HEAD E/W
 WHNS.m                   8.57:  WELL HEAD N/S
 VSEW.m                 -11.57:  VERT SEC E/W
 VSNS.m                   8.57:  VERT SEC N/S
 DFWL.m                   0.00:  DISTANCE FWL
 DFSL.m                   0.00:  DISTANCE FSL
 VSDR.deg               299.34:  VERT SEC DIRECT
 GVFD.g                   1.00:  GRAVITY FIELD
 AZTC.deg                 6.36:  AZM TOTAL CORR
 MFLD.nT              50391.00:  MAGNETIC FIELD
 MDIP.deg                59.65:  MAGNETIC DIP
 MDEC.deg                 6.48:  MAGNETIC DECL
 GRDC.deg                 0.12:  GRID CORRECTION
 DEP .m                 334.96:  DEPTH
 TDD .m                1407.26:  TOTAL DEPTH (DRILLER)
 EKB .m                  43.00:  KB ELEVATION
 EDF .m                  43.00:  DF ELEVATION
 TDL .m                 228.00:  TOTAL DEPTH (LOGGER)
 VSC .                       0:  VS TO CLOSURE
 MAGU.                 1854484:  MAGUTM CHECKSUM
~Parameter Information Block
#MNEM.UNIT       Value        Description
#---------     -----------    ---------------------------
 AV  .mps                 4.00:  Ann Velocity 
 AVMX.mps                 4.73:  Max Ann Veloc 
 AZIF.deg               304.48:  Azm, Final 
 BHAT.        Rotary Steerable:  BHA Type 
 BREV.rev            257300.00:  Rev Bit Total 
 BROT.°/30m               0.00:  Build Rotating 
 BS  .in                  8.50:  Bit Size 
 BSZ .in                  8.50:  Bit Size 
 BTPL.psig              589.00:  Bit Press Loss 
 CABU.                      No:  Customer Abuse 
 CGEO.          Mubariz ghayev:  Customer Geo 
 COMM.                     ”<v:  Run Comments 1 
 TCS .hr                 64.25:  Time Ciculation Ended 
 CV  .mps                 3.50:  Crit Velocity 
 CVMX.mps                 4.52:  Max Crit Veloc 
 DD1 .             Aziz Aliyev:  Direct Drillr 1 
 DD2 .         Intigam Rahimov:  Direct Drillr 2 
 DD3 .          Rashad Habibov:  Direct Drillr 3 
 DDSV.               Geo-Pilot:  DD Service 
 DEFF.%                  98.00:  % Det Eff 
 DLRX.°/30m               0.00:  Dogleg Rot Max 
 DLSO.°/30m               0.00:  Dogleg Oriented 
 DLSX.°/30m               0.00:  Dogleg Str Max 
 DRET.      10.45.04 08-May-21:  Drill End Time 
 DRST.      03.30.04 04-May-21:  Drill Start Tim 
 DTIM.hr                 14.97:  Time Drilling 
 EDEP.m                4640.01:  End Depth 
 ENG1.         Dail Mahammadov:  Engineer 1 
 ENG2.           Eldar Hajiyev:  Engineer 2 
 ENG3.       Bakhtiar Jabbarli:  Engineer 3 
 ENG4.       Natik Hasanagayev:  Engineer 4 
 ETIM.      09.30.04 14-May-21:  End Time 
 FLOI.gpm               460.00:  Flow In 
 FLON.gpm               200.00:  Flow In Min 
 FLOS.cptm                0.00:  Fluid Loss 
 FLOX.gpm               505.00:  Flow In Max 
 HFLO.                      No:  High Flow 
 HPRE.                      No:  High Pressure 
 HTEM.                      No:  High Temp 
 HYDO.m                   1.80:  Hydro Offset 
 IFIN.deg                66.71:  Inc, Final 
 IMAX.deg                67.03:  Inc Max 
 IMIN.deg                66.63:  Inc Min 
 IMND.m                4550.58:  Inc Min Depth 
 IMXD.m                4439.01:  Inc Max Depth 
 JARR.                      No:  Jarring 
 LETM.      10.45.04 08-May-21:  Log End Time 
 LOST.hr                     0:  Lost Rig Time 
 LSTM.      03.30.04 04-May-21:  Log Start Time 
 MDCL.ppm             37000.00:  Mud Chlorides 
 MDES.     Inversion Oil/Synthetic:  Mud Desc 
 DFD .sg                  1.38:  Mud Density 
 MDMN.sg                  1.35:  Dens Mud Min 
 MDMX.sg                  1.40:  Dens Mud Max 
 MOIL.                   57.40:  Run Mud Oil % 
 MOWR.                   70:30:  Run Mud OWR 
 MSND.                    0.00:  Run Mud Sand % 
 MSOL.                   18.00:  Run Mud Solids% 
 DFV .spqt               71.00:  Mud Viscosity 
 MWOD.in                  6.75:  MWD Tool OD 
 MWSI.                      No:  Serv Intrp, MWD 
 OTIM.hr                242.76:  Time Operating 
 PCON.           Look Like New:  Pad Condition 
 PMAX.psia            12183.92:  Press Op, Max 
 PV  .cP                 27.00:  Mud PV 
 RUN .                    1300:  Run Number 
 ROPA.m/hr               15.00:  ROP Avg 
 ROPN.m/hr                9.00:  ROP Min 
 ROPX.m/hr               19.00:  ROP Max 
 RPMA.rpm               120.00:  RPM Surface Avg 
 RPMN.rpm               100.00:  RPM Surface Min 
 RPMX.rpm               120.00:  RPM Surface Max 
 RRUN.                    1300:  Rig Run Number 
 RTIM.hr                  5.00:  Time Reaming 
 SAZI.deg               304.73:  Azm, Start 
 SDEP.m                4412.01:  Start Depth 
 SIDD.                      No:  Serv Intrp, DD 
 SINC.deg                66.82:  Inc, Start 
 SPPA.psig             2800.00:  SPP Avg 
 SPPN.psig             2610.00:  SPP Min 
 SPPX.psig             3100.00:  SPP Max 
 STIM.      03.30.00 04-May-21:  Start Time 
 SVCS.                 DD, MWD:  Services 
 SVER.                    9.20:  Sperry Version 
 TDAT.m                 228.00:  Tot Depth Attmp 
 TDDF.                      No:  Trip for DD 
 TDLG.m                 228.00:  Tot Depth Loggd 
 TFF .                      No:  Trip for Fail 
 TQAA.f-kp               15.00:  Torque Abs Avg 
 TQAN.f-kp               12.00:  Torque Abs Min 
 TQAX.f-kp               22.00:  Torque Abs Max 
 TRRT.°/30m               0.00:  Turn Rotating 
 MRT .                    HCIM:  Maximum Recorded Temperature 
 TTMX.degC               90.20:  Max Tool Temp 
 VS01.                90627813:  Virtual Str1 SN 
 VS02.                90634712:  Virtual Str2 SN 
 VS03.                90643410:  Virtual Str3 SN 
 VS04.                90634712:  Virtual Str4 SN 
 WBMN.klb                 9.00:  WOB Min 
 WITN.        Elmaddin Rahimov:  Customer Rep 
 WITN.         Haytham Mostafa:  Customer Rep 2 
 WOBA.klb                15.00:  WOB Avg 
 WOBX.klb                23.00:  WOB Max 
 YP  .lhf2               29.00:  Yield Point 
~Curve Information Block
#MNEM.UNIT                 API CODE     Curve Description
#---------               -----------    ---------------------------
 TIME.HHMMSS            00 000 000 000:  GT Time & Date
 GTDEPTH.m              00 000 000 000:  GT Depth
 GTPQH.psia             00 000 000 000:  GT HR Quartz Pressure
 GTTQ.degC              00 000 000 000:  GT Quartz Temperature
 GTTN.NONE              00 000 000 000:  GT Test Number
 GTET.sec               00 000 000 000:  GT Elapsed Test Time
 GTTVD.m                00 000 000 000:  GT True Vertical Depth
#Other Information
#
#WARRANTY: Halliburton will use its best efforts to furnish customers with 
#accurate information and interpretations that are part of, and incident to, the services 
#provided.  However, Halliburton cannot and does not warrant the accuracy 
#or correctness of such information and interpretations.  Under no circumstances should any 
#such information or interpretation be relied upon as the sole basis for any drilling, 
#completion, production, or financial decision or any procedure involving any risk to the 
#safety of any drilling venture, drilling rig or its crew or any other third party.  The 
#Customer has full responsibility for all drilling, completion and production operation.  
#Halliburton makes no representations or warranties, either expressed or 
#implied, including, but not limited to, the implied warranties of merchantability or fitness 
#for a particular purpose, with respect to the services rendered.  In no event will 
#Halliburton be liable for failure to obtain any particular results or for 
#any damages, including, but not limited to, indirect, special or consequential damages, 
#resulting from the use of any information or interpretation provided by Halliburton.
#
~A           TIME           GTDEPTH  GTPQH  GTTQ  GTTN  GTET   GTTVD  
# ...
   21:04:08.815.08-May-2021 4593.01 3777.72 69.02 2.00 345.04 3008.90
   21:04:09.015.08-May-2021 4593.01 3777.72 69.02 2.00 345.24 3008.90
   21:04:09.215.08-May-2021 4593.01 3777.81 69.02 2.00 345.44 3008.90
   21:04:09.415.08-May-2021 4593.01 3777.71 69.02 2.00 345.64 3008.90
   21:04:09.615.08-May-2021 4593.01 3777.72 69.02 2.00 345.84 3008.90
   21:04:09.815.08-May-2021 4593.01 3777.87 69.02 2.00 346.04 3008.90
   21:04:10.015.08-May-2021 4593.01 3777.87 69.02 2.00 346.24 3008.90
   21:04:10.215.08-May-2021 4593.01 3777.80 69.02 2.00 346.44 3008.90
   21:04:10.416.08-May-2021 4593.01 3777.82 69.02 2.00 346.64 3008.90
   21:04:10.616.08-May-2021 4593.01 3777.63 69.02 2.00 346.84 3008.90
   21:04:10.816.08-May-2021 4593.01 3777.93 69.02 2.00 347.04 3008.90
   21:04:11.016.08-May-2021 4593.01 3777.93 69.02 2.00 347.24 3008.90
   21:04:11.216.08-May-2021 4593.01 3777.69 69.02 2.00 347.44 3008.90
   21:04:11.416.08-May-2021 4593.01 3777.75 69.02 2.00 347.64 3008.90
   21:04:11.616.08-May-2021 4593.01 3777.86 69.02 2.00 347.84 3008.90
   21:04:11.816.08-May-2021 4593.01 3777.71 69.02 2.00 348.04 3008.90
   21:04:12.016.08-May-2021 4593.01 3777.71 69.02 2.00 348.24 3008.90
   21:04:12.216.08-May-2021 4593.01 3777.84 69.02 2.00 348.44 3008.90
   21:04:12.416.08-May-2021 4593.01 3777.71 69.02 2.00 348.64 3008.90
   21:04:12.616.08-May-2021 4593.01 3777.69 69.02 2.00 348.84 3008.90
   21:04:12.816.08-May-2021 4593.01 3777.84 69.02 2.00 349.04 3008.90
   21:04:13.016.08-May-2021 4593.01 3777.84 69.02 2.00 349.24 3008.90
   21:04:13.216.08-May-2021 4593.01 3777.60 69.02 2.00 349.44 3008.90
   21:04:13.416.08-May-2021 4593.01 3777.95 69.02 2.00 349.64 3008.90
   21:04:13.616.08-May-2021 4593.01 3777.75 69.02 2.00 349.84 3008.90
   21:04:13.816.08-May-2021 4593.01 3777.71 69.02 2.00 350.04 3008.90
   21:04:14.016.08-May-2021 4593.01 3777.71 69.02 2.00 350.24 3008.90
   21:04:14.216.08-May-2021 4593.01 3777.56 69.02 2.00 350.44 3008.90
   21:04:14.416.08-May-2021 4593.01 3777.99 69.02 2.00 350.64 3008.90
   21:04:14.616.08-May-2021 4593.01 3777.57 69.02 2.00 350.84 3008.90
   21:04:14.816.08-May-2021 4593.01 3777.93 69.02 2.00 351.04 3008.90
   21:04:15.016.08-May-2021 4593.01 3777.93 69.02 2.00 351.24 3008.90
   21:04:15.216.08-May-2021 4593.01 3777.69 69.02 2.00 351.44 3008.90
   21:04:15.416.08-May-2021 4593.01 3778.04 69.02 2.00 351.64 3008.90
   21:04:15.616.08-May-2021 4593.01 3777.52 69.02 2.00 351.84 3008.90
   21:04:15.816.08-May-2021 4593.01 3777.98 69.02 2.00 352.04 3008.90
   21:04:16.016.08-May-2021 4593.01 3777.98 69.02 2.00 352.24 3008.90
   21:04:16.216.08-May-2021 4593.01 3777.52 69.02 2.00 352.44 3008.90
   21:04:16.416.08-May-2021 4593.01 3778.12 69.02 2.00 352.64 3008.90
   21:04:16.616.08-May-2021 4593.01 3777.51 69.02 2.00 352.84 3008.90
   21:04:16.816.08-May-2021 4593.01 3777.76 69.02 2.00 353.04 3008.90
   21:04:17.016.08-May-2021 4593.01 3777.76 69.02 2.00 353.24 3008.90
   21:04:17.216.08-May-2021 4593.01 3777.76 69.02 2.00 353.44 3008.90
   21:04:17.416.08-May-2021 4593.01 3777.71 69.02 2.00 353.64 3008.90
   21:04:17.616.08-May-2021 4593.01 3777.84 69.02 2.00 353.84 3008.90
   21:04:17.816.08-May-2021 4593.01 3777.80 69.02 2.00 354.04 3008.90
   21:04:18.016.08-May-2021 4593.01 3777.80 69.02 2.00 354.24 3008.90
   21:04:18.216.08-May-2021 4593.01 3777.77 69.02 2.00 354.44 3008.90
   21:04:18.416.08-May-2021 4593.01 3777.82 69.02 2.00 354.64 3008.90
   21:04:18.616.08-May-2021 4593.01 3777.75 69.02 2.00 354.84 3008.90
   21:04:18.816.08-May-2021 4593.01 3777.62 69.02 2.00 355.04 3008.90
   21:04:19.016.08-May-2021 4593.01 3777.62 69.02 2.00 355.24 3008.90
   21:04:19.216.08-May-2021 4593.01 3777.47 69.02 2.00 355.44 3008.90
   21:04:19.416.08-May-2021 4593.01 3778.03 69.02 2.00 355.64 3008.90
   21:04:19.616.08-May-2021 4593.01 3777.73 69.02 2.00 355.84 3008.90
   21:04:19.816.08-May-2021 4593.01 3777.64 69.02 2.00 356.04 3008.90
   21:04:20.016.08-May-2021 4593.01 3777.64 69.02 2.00 356.24 3008.90
   21:04:20.217.08-May-2021 4593.01 3777.78 69.02 2.00 356.44 3008.90
   21:04:20.417.08-May-2021 4593.01 3777.71 69.02 2.00 356.64 3008.90
   21:04:20.617.08-May-2021 4593.01 3777.76 69.02 2.00 356.84 3008.90
   21:04:20.817.08-May-2021 4593.01 3777.80 69.02 2.00 357.04 3008.90
   21:04:21.017.08-May-2021 4593.01 3777.80 69.02 2.00 357.24 3008.90
   21:04:21.217.08-May-2021 4593.01 3778.49 69.02 2.00 357.44 3008.90
   21:04:21.417.08-May-2021 4593.01 3683.57 69.02 2.00 357.64 3008.90
   21:04:21.617.08-May-2021 4593.01 3728.57 69.02 2.00 357.84 3008.90
   21:04:21.817.08-May-2021 4593.01 5016.42 69.02 2.00 358.04 3008.90
   21:04:22.017.08-May-2021 4593.01 5016.42 69.02 2.00 358.24 3008.90
   21:04:22.217.08-May-2021 4593.01 6894.83 69.02 2.00 358.44 3008.90
   21:04:22.417.08-May-2021 4593.01 6906.74 69.02 2.00 358.64 3008.90
   21:04:22.617.08-May-2021 4593.01 6898.18 69.02 2.00 358.84 3008.90
   21:04:22.817.08-May-2021 4593.01 6894.11 69.02 2.00 359.04 3008.90
   21:04:23.017.08-May-2021 4593.01 6894.11 69.02 2.00 359.24 3008.90
   21:04:23.217.08-May-2021 4593.01 6896.00 69.02 2.00 359.44 3008.90
   21:04:23.417.08-May-2021 4593.01 6910.28 69.03 2.00 359.64 3008.90
   21:04:23.617.08-May-2021 4593.01 6899.37 69.03 2.00 359.84 3008.90
   21:04:23.817.08-May-2021 4593.01 6898.23 69.03 2.00 360.04 3008.90
   21:04:24.017.08-May-2021 4593.01 6898.23 69.03 2.00 360.24 3008.90
   21:04:24.217.08-May-2021 4593.01 6900.08 69.03 2.00 360.44 3008.90
   21:04:24.417.08-May-2021 4593.01 6914.55 69.04 2.00 360.64 3008.90
   21:04:24.617.08-May-2021 4593.01 6903.72 69.04 2.00 360.84 3008.90
   21:04:24.817.08-May-2021 4593.01 6901.85 69.04 2.00 361.04 3008.90
   21:04:25.017.08-May-2021 4593.01 6901.85 69.04 2.00 361.24 3008.90
   21:04:25.217.08-May-2021 4593.01 6901.29 69.05 2.00 361.44 3008.90
   21:04:25.417.08-May-2021 4593.01 6902.31 69.05 2.00 361.64 3008.90
   21:04:25.617.08-May-2021 4593.01 6902.15 69.05 2.00 361.84 3008.90
   21:04:25.817.08-May-2021 4593.01 6901.93 69.05 2.00 362.04 3008.90
   21:04:26.017.08-May-2021 4593.01 6901.93 69.05 2.00 362.24 3008.90
   21:04:26.217.08-May-2021 4593.01 6902.44 69.06 2.00 362.44 3008.90
   21:04:26.417.08-May-2021 4593.01 6902.81 69.06 2.00 362.64 3008.90
   21:04:26.617.08-May-2021 4593.01 6902.90 69.06 2.00 362.84 3008.90
   21:04:26.817.08-May-2021 4593.01 6904.00 69.06 2.00 363.04 3008.90
   21:04:27.017.08-May-2021 4593.01 6904.00 69.06 2.00 363.24 3008.90
   21:04:27.217.08-May-2021 4593.01 6907.87 69.07 2.00 363.44 3008.90
   21:04:27.417.08-May-2021 4593.01 6903.74 69.07 2.00 363.64 3008.90
   21:04:27.617.08-May-2021 4593.01 6906.90 69.07 2.00 363.84 3008.90
   21:04:27.817.08-May-2021 4593.01 6902.57 69.07 2.00 364.04 3008.90
   21:04:28.017.08-May-2021 4593.01 6902.57 69.07 2.00 364.24 3008.90
   21:04:28.217.08-May-2021 4593.01 6902.17 69.07 2.00 364.44 3008.90
   21:04:28.417.08-May-2021 4593.01 6901.32 69.08 2.00 364.64 3008.90
   21:04:28.617.08-May-2021 4593.01 6900.78 69.08 2.00 364.84 3008.90
   21:04:28.817.08-May-2021 4593.01 6901.03 69.08 2.00 365.04 3008.90
   21:04:29.017.08-May-2021 4593.01 6901.03 69.08 2.00 365.24 3008.90
   21:04:29.217.08-May-2021 4593.01 6901.25 69.08 2.00 365.44 3008.90
   21:04:29.417.08-May-2021 4593.01 6902.39 69.08 2.00 365.64 3008.90
   21:04:29.617.08-May-2021 4593.01 6914.80 69.08 2.00 365.84 3008.90
   21:04:29.818.08-May-2021 4593.01 6906.65 69.08 2.00 366.04 3008.90
   21:04:30.018.08-May-2021 4593.01 6906.65 69.08 2.00 366.24 3008.90
   21:04:30.218.08-May-2021 4593.01 6906.03 69.09 2.00 366.44 3008.90
   21:04:30.418.08-May-2021 4593.01 6909.85 69.09 2.00 366.64 3008.90
   21:04:30.618.08-May-2021 4593.01 6910.99 69.09 2.00 366.84 3008.90
   21:04:30.818.08-May-2021 4593.01 6904.36 69.09 2.00 367.04 3008.90
   21:04:31.018.08-May-2021 4593.01 6904.36 69.09 2.00 367.24 3008.90
   21:04:31.218.08-May-2021 4593.01 6904.22 69.09 2.00 367.44 3008.90
   21:04:31.418.08-May-2021 4593.01 6913.36 69.09 2.00 367.64 3008.90
   21:04:31.618.08-May-2021 4593.01 6907.86 69.09 2.00 367.84 3008.90
