~Version Information
 VERS.                  2.0:   CWLS log ASCII Standard -VERSION 2.0
 WRAP.                   NO:   One line per depth step
~Well Information Block
#MNEM.UNIT     VALUE/NAME     DESCRIPTION
#---------     -----------    ---------------------------
 STRT.S             00:12:22 09-May-21: START TIME 00:12:22 09-May-21
 STOP.S             00:19:08 09-May-21: STOP TIME  00:19:08 09-May-21
 STEP.S                   0.00: STEP TIME
 NULL.                 -999.25: NULL VALUE
 PROV.                    Baku:  PROVINCE
 STAT.                    Baku:  STATE NAME
 SON .        AZ-XX-0906571588:  JOB NUMBER
 WTYP.                Deviated:  WELL TYPE
 COMP.     BP Exploration (Caspian Sea) ltd:  COMPANY
 BASE.              Azerbaijan:  LOGGING EQUIPMENT BASE LOCATION
 REGN.                   EESSA:  REGION
 CTRY.              Azerbaijan:  COUNTRY NAME
 FLD .                     ACG:  FIELD NAME
 WELL.                     J28:  WELL NAME
 RIG .             West Chirag:  RIG NAME
 DMF .             Drill Floor:  DRILL MEAS FROM
 PDAT.       Caspian Sea Level:  PERMANENT DATUM
 HPTY.       Minimum Curvature:  HOLE POS TYPE
 MDS .        Operator Entered:  MAG DATA SOURCE
 NREF.                    Grid:  NORTH REFERENCE
 SRVC.          TURAN DRILLING:  CONTRACTOR
 JOBN.        AZ-XX-0906571588:  JOB TICKET NUMB
 DCON.     Halliburton Sperry Drilling:  DIRECTNL CONTR
 STIM.      00.44.00 11-Feb-21:  START TIME
 DATE.      00.00.00 05-May-21:  END TIME
 SPUD.               13-Feb-21:  SPUD DATE
 MWDS.                    Baku:  MWD SHOP
 DOE .                     N/A:  DOE NUMBER
 UNIT.                     N/A:  LOGGING EQUIPMENT ID
 UWI .                     N/A:  UNIQUE WELL IDENTIFIER
 API .                     N/A:  API NUMBER
 CNTY.                        :  COUNTY
 LOC .                        :  LOCATION
 LMF .             Drill Floor:  LOG MEASURED FROM
 TVDS.m                  43.00:  TVDSS CORRECTN
 SDEP.m                 341.00:  START DEPTH
 EGL .m                   0.00:  GROUND ELEVATION
 WDMS.m                 169.80:  WD ELEV
 AGAP.m                  43.00:  AIR GAP
 EPD .m                   0.00:  ELEVATION
 APD .m                  43.00:  DEPTH ABOVE PD
 LATI.deg                40.13:  LATITUDE
 LONG.deg                51.22:  LONGITUDE
 UTMY.m             4443793.85:  UTM Y
 UTMX.m              519005.06:  UTM X
 WHEW.m                 -11.57:  WELL HEAD E/W
 WHNS.m                   8.57:  WELL HEAD N/S
 VSEW.m                 -11.57:  VERT SEC E/W
 VSNS.m                   8.57:  VERT SEC N/S
 DFWL.m                   0.00:  DISTANCE FWL
 DFSL.m                   0.00:  DISTANCE FSL
 VSDR.deg               299.34:  VERT SEC DIRECT
 GVFD.g                   1.00:  GRAVITY FIELD
 AZTC.deg                 6.36:  AZM TOTAL CORR
 MFLD.nT              50391.00:  MAGNETIC FIELD
 MDIP.deg                59.65:  MAGNETIC DIP
 MDEC.deg                 6.48:  MAGNETIC DECL
 GRDC.deg                 0.12:  GRID CORRECTION
 DEP .m                 334.96:  DEPTH
 TDD .m                1407.26:  TOTAL DEPTH (DRILLER)
 EKB .m                  43.00:  KB ELEVATION
 EDF .m                  43.00:  DF ELEVATION
 TDL .m                 228.00:  TOTAL DEPTH (LOGGER)
 VSC .                       0:  VS TO CLOSURE
 MAGU.                 1854484:  MAGUTM CHECKSUM
~Parameter Information Block
#MNEM.UNIT       Value        Description
#---------     -----------    ---------------------------
 AV  .mps                 4.00:  Ann Velocity 
 AVMX.mps                 4.73:  Max Ann Veloc 
 AZIF.deg               304.48:  Azm, Final 
 BHAT.        Rotary Steerable:  BHA Type 
 BREV.rev            257300.00:  Rev Bit Total 
 BROT.°/30m               0.00:  Build Rotating 
 BS  .in                  8.50:  Bit Size 
 BSZ .in                  8.50:  Bit Size 
 BTPL.psig              589.00:  Bit Press Loss 
 CABU.                      No:  Customer Abuse 
 CGEO.          Mubariz ghayev:  Customer Geo 
 COMM.                     <Š|:  Run Comments 1 
 TCS .hr                 64.25:  Time Ciculation Ended 
 CV  .mps                 3.50:  Crit Velocity 
 CVMX.mps                 4.52:  Max Crit Veloc 
 DD1 .             Aziz Aliyev:  Direct Drillr 1 
 DD2 .         Intigam Rahimov:  Direct Drillr 2 
 DD3 .          Rashad Habibov:  Direct Drillr 3 
 DDSV.               Geo-Pilot:  DD Service 
 DEFF.%                  98.00:  % Det Eff 
 DLRX.°/30m               0.00:  Dogleg Rot Max 
 DLSO.°/30m               0.00:  Dogleg Oriented 
 DLSX.°/30m               0.00:  Dogleg Str Max 
 DRET.      10.45.04 08-May-21:  Drill End Time 
 DRST.      03.30.04 04-May-21:  Drill Start Tim 
 DTIM.hr                 14.97:  Time Drilling 
 EDEP.m                4640.01:  End Depth 
 ENG1.         Dail Mahammadov:  Engineer 1 
 ENG2.           Eldar Hajiyev:  Engineer 2 
 ENG3.       Bakhtiar Jabbarli:  Engineer 3 
 ENG4.       Natik Hasanagayev:  Engineer 4 
 ETIM.      09.30.04 14-May-21:  End Time 
 FLOI.gpm               460.00:  Flow In 
 FLON.gpm               200.00:  Flow In Min 
 FLOS.cptm                0.00:  Fluid Loss 
 FLOX.gpm               505.00:  Flow In Max 
 HFLO.                      No:  High Flow 
 HPRE.                      No:  High Pressure 
 HTEM.                      No:  High Temp 
 HYDO.m                   1.80:  Hydro Offset 
 IFIN.deg                66.71:  Inc, Final 
 IMAX.deg                67.03:  Inc Max 
 IMIN.deg                66.63:  Inc Min 
 IMND.m                4550.58:  Inc Min Depth 
 IMXD.m                4439.01:  Inc Max Depth 
 JARR.                      No:  Jarring 
 LETM.      10.45.04 08-May-21:  Log End Time 
 LOST.hr                     0:  Lost Rig Time 
 LSTM.      03.30.04 04-May-21:  Log Start Time 
 MDCL.ppm             37000.00:  Mud Chlorides 
 MDES.     Inversion Oil/Synthetic:  Mud Desc 
 DFD .sg                  1.38:  Mud Density 
 MDMN.sg                  1.35:  Dens Mud Min 
 MDMX.sg                  1.40:  Dens Mud Max 
 MOIL.                   57.40:  Run Mud Oil % 
 MOWR.                   70:30:  Run Mud OWR 
 MSND.                    0.00:  Run Mud Sand % 
 MSOL.                   18.00:  Run Mud Solids% 
 DFV .spqt               71.00:  Mud Viscosity 
 MWOD.in                  6.75:  MWD Tool OD 
 MWSI.                      No:  Serv Intrp, MWD 
 OTIM.hr                242.76:  Time Operating 
 PCON.           Look Like New:  Pad Condition 
 PMAX.psia            12183.92:  Press Op, Max 
 PV  .cP                 27.00:  Mud PV 
 RUN .                    1300:  Run Number 
 ROPA.m/hr               15.00:  ROP Avg 
 ROPN.m/hr                9.00:  ROP Min 
 ROPX.m/hr               19.00:  ROP Max 
 RPMA.rpm               120.00:  RPM Surface Avg 
 RPMN.rpm               100.00:  RPM Surface Min 
 RPMX.rpm               120.00:  RPM Surface Max 
 RRUN.                    1300:  Rig Run Number 
 RTIM.hr                  5.00:  Time Reaming 
 SAZI.deg               304.73:  Azm, Start 
 SDEP.m                4412.01:  Start Depth 
 SIDD.                      No:  Serv Intrp, DD 
 SINC.deg                66.82:  Inc, Start 
 SPPA.psig             2800.00:  SPP Avg 
 SPPN.psig             2610.00:  SPP Min 
 SPPX.psig             3100.00:  SPP Max 
 STIM.      03.30.00 04-May-21:  Start Time 
 SVCS.                 DD, MWD:  Services 
 SVER.                    9.20:  Sperry Version 
 TDAT.m                 228.00:  Tot Depth Attmp 
 TDDF.                      No:  Trip for DD 
 TDLG.m                 228.00:  Tot Depth Loggd 
 TFF .                      No:  Trip for Fail 
 TQAA.f-kp               15.00:  Torque Abs Avg 
 TQAN.f-kp               12.00:  Torque Abs Min 
 TQAX.f-kp               22.00:  Torque Abs Max 
 TRRT.°/30m               0.00:  Turn Rotating 
 MRT .                    HCIM:  Maximum Recorded Temperature 
 TTMX.degC               90.20:  Max Tool Temp 
 VS01.                90627813:  Virtual Str1 SN 
 VS02.                90634712:  Virtual Str2 SN 
 VS03.                90643410:  Virtual Str3 SN 
 VS04.                90634712:  Virtual Str4 SN 
 WBMN.klb                 9.00:  WOB Min 
 WITN.        Elmaddin Rahimov:  Customer Rep 
 WITN.         Haytham Mostafa:  Customer Rep 2 
 WOBA.klb                15.00:  WOB Avg 
 WOBX.klb                23.00:  WOB Max 
 YP  .lhf2               29.00:  Yield Point 
~Curve Information Block
#MNEM.UNIT                 API CODE     Curve Description
#---------               -----------    ---------------------------
 TIME.HHMMSS            00 000 000 000:  GT Time & Date
 GTDEPTH.m              00 000 000 000:  GT Depth
 GTPQH.psia             00 000 000 000:  GT HR Quartz Pressure
 GTTQ.degC              00 000 000 000:  GT Quartz Temperature
 GTTN.NONE              00 000 000 000:  GT Test Number
 GTET.sec               00 000 000 000:  GT Elapsed Test Time
 GTTVD.m                00 000 000 000:  GT True Vertical Depth
#Other Information
#
#WARRANTY: Halliburton will use its best efforts to furnish customers with 
#accurate information and interpretations that are part of, and incident to, the services 
#provided.  However, Halliburton cannot and does not warrant the accuracy 
#or correctness of such information and interpretations.  Under no circumstances should any 
#such information or interpretation be relied upon as the sole basis for any drilling, 
#completion, production, or financial decision or any procedure involving any risk to the 
#safety of any drilling venture, drilling rig or its crew or any other third party.  The 
#Customer has full responsibility for all drilling, completion and production operation.  
#Halliburton makes no representations or warranties, either expressed or 
#implied, including, but not limited to, the implied warranties of merchantability or fitness 
#for a particular purpose, with respect to the services rendered.  In no event will 
#Halliburton be liable for failure to obtain any particular results or for 
#any damages, including, but not limited to, indirect, special or consequential damages, 
#resulting from the use of any information or interpretation provided by Halliburton.
#
~A           TIME           GTDEPTH  GTPQH  GTTQ  GTTN  GTET   GTTVD  
# ...
   00:17:44.583.09-May-2021 4527.01 3259.93 68.14 6.00 322.12 2982.74
   00:17:44.783.09-May-2021 4527.01 3259.93 68.14 6.00 322.32 2982.74
   00:17:44.983.09-May-2021 4527.01 3260.01 68.14 6.00 322.52 2982.74
   00:17:45.183.09-May-2021 4527.01 3259.84 68.14 6.00 322.72 2982.74
   00:17:45.383.09-May-2021 4527.01 3260.20 68.14 6.00 322.92 2982.74
   00:17:45.583.09-May-2021 4527.01 3260.07 68.14 6.00 323.12 2982.74
   00:17:45.783.09-May-2021 4527.01 3260.07 68.14 6.00 323.32 2982.74
   00:17:45.984.09-May-2021 4527.01 3260.05 68.14 6.00 323.52 2982.74
   00:17:46.184.09-May-2021 4527.01 3260.00 68.14 6.00 323.72 2982.74
   00:17:46.384.09-May-2021 4527.01 3260.03 68.14 6.00 323.92 2982.74
   00:17:46.584.09-May-2021 4527.01 3260.03 68.14 6.00 324.12 2982.74
   00:17:46.784.09-May-2021 4527.01 3260.03 68.14 6.00 324.32 2982.74
   00:17:46.984.09-May-2021 4527.01 3260.05 68.14 6.00 324.52 2982.74
   00:17:47.184.09-May-2021 4527.01 3260.02 68.14 6.00 324.72 2982.74
   00:17:47.384.09-May-2021 4527.01 3260.00 68.14 6.00 324.92 2982.74
   00:17:47.584.09-May-2021 4527.01 3260.01 68.14 6.00 325.12 2982.74
   00:17:47.784.09-May-2021 4527.01 3260.01 68.14 6.00 325.32 2982.74
   00:17:47.984.09-May-2021 4527.01 3260.19 68.14 6.00 325.52 2982.74
   00:17:48.184.09-May-2021 4527.01 3260.06 68.14 6.00 325.72 2982.74
   00:17:48.384.09-May-2021 4527.01 3259.93 68.14 6.00 325.92 2982.74
   00:17:48.584.09-May-2021 4527.01 3260.02 68.14 6.00 326.12 2982.74
   00:17:48.785.09-May-2021 4527.01 3260.02 68.14 6.00 326.32 2982.74
   00:17:48.985.09-May-2021 4527.01 3260.02 68.14 6.00 326.52 2982.74
   00:17:49.185.09-May-2021 4527.01 3260.01 68.14 6.00 326.72 2982.74
   00:17:49.385.09-May-2021 4527.01 3260.03 68.14 6.00 326.92 2982.74
   00:17:49.585.09-May-2021 4527.01 3260.01 68.14 6.00 327.12 2982.74
   00:17:49.785.09-May-2021 4527.01 3260.03 68.14 6.00 327.32 2982.74
   00:17:49.985.09-May-2021 4527.01 3260.03 68.14 6.00 327.52 2982.74
   00:17:50.185.09-May-2021 4527.01 3260.01 68.14 6.00 327.72 2982.74
   00:17:50.385.09-May-2021 4527.01 3259.86 68.14 6.00 327.92 2982.74
   00:17:50.585.09-May-2021 4527.01 3260.20 68.14 6.00 328.12 2982.74
   00:17:50.785.09-May-2021 4527.01 3260.20 68.14 6.00 328.32 2982.74
   00:17:50.985.09-May-2021 4527.01 3259.92 68.14 6.00 328.52 2982.74
   00:17:51.185.09-May-2021 4527.01 3259.98 68.14 6.00 328.72 2982.74
   00:17:51.386.09-May-2021 4527.01 3259.78 68.14 6.00 328.92 2982.74
   00:17:51.586.09-May-2021 4527.01 3260.15 68.14 6.00 329.12 2982.74
   00:17:51.786.09-May-2021 4527.01 3260.15 68.14 6.00 329.32 2982.74
   00:17:51.986.09-May-2021 4527.01 3260.08 68.14 6.00 329.52 2982.74
   00:17:52.186.09-May-2021 4527.01 3259.95 68.14 6.00 329.72 2982.74
   00:17:52.386.09-May-2021 4527.01 3259.89 68.14 6.00 329.92 2982.74
   00:17:52.586.09-May-2021 4527.01 3260.18 68.14 6.00 330.12 2982.74
   00:17:52.786.09-May-2021 4527.01 3260.18 68.14 6.00 330.32 2982.74
   00:17:52.986.09-May-2021 4527.01 3259.92 68.14 6.00 330.52 2982.74
   00:17:53.186.09-May-2021 4527.01 3259.98 68.14 6.00 330.72 2982.74
   00:17:53.386.09-May-2021 4527.01 3259.75 68.14 6.00 330.92 2982.74
   00:17:53.586.09-May-2021 4527.01 3260.28 68.14 6.00 331.12 2982.74
   00:17:53.786.09-May-2021 4527.01 3260.28 68.14 6.00 331.32 2982.74
   00:17:53.986.09-May-2021 4527.01 3260.10 68.14 6.00 331.52 2982.74
   00:17:54.187.09-May-2021 4527.01 3259.99 68.14 6.00 331.72 2982.74
   00:17:54.387.09-May-2021 4527.01 3260.02 68.14 6.00 331.92 2982.74
   00:17:54.587.09-May-2021 4527.01 3260.01 68.14 6.00 332.12 2982.74
   00:17:54.787.09-May-2021 4527.01 3260.01 68.14 6.00 332.32 2982.74
   00:17:54.987.09-May-2021 4527.01 3260.01 68.14 6.00 332.52 2982.74
   00:17:55.187.09-May-2021 4527.01 3260.00 68.14 6.00 332.72 2982.74
   00:17:55.387.09-May-2021 4527.01 3260.04 68.14 6.00 332.92 2982.74
   00:17:55.587.09-May-2021 4527.01 3260.01 68.14 6.00 333.12 2982.74
   00:17:55.787.09-May-2021 4527.01 3260.01 68.14 6.00 333.32 2982.74
   00:17:55.987.09-May-2021 4527.01 3259.76 68.14 6.00 333.52 2982.74
   00:17:56.187.09-May-2021 4527.01 3260.28 68.14 6.00 333.72 2982.74
   00:17:56.387.09-May-2021 4527.01 3259.87 68.14 6.00 333.92 2982.74
   00:17:56.587.09-May-2021 4527.01 3260.08 68.14 6.00 334.12 2982.74
   00:17:56.787.09-May-2021 4527.01 3260.08 68.14 6.00 334.32 2982.74
   00:17:56.988.09-May-2021 4527.01 3260.00 68.14 6.00 334.52 2982.74
   00:17:57.188.09-May-2021 4527.01 3260.00 68.14 6.00 334.72 2982.74
   00:17:57.388.09-May-2021 4527.01 3260.01 68.14 6.00 334.92 2982.74
   00:17:57.588.09-May-2021 4527.01 3259.98 68.14 6.00 335.12 2982.74
   00:17:57.788.09-May-2021 4527.01 3259.98 68.14 6.00 335.32 2982.74
   00:17:57.988.09-May-2021 4527.01 3260.02 68.14 6.00 335.52 2982.74
   00:17:58.188.09-May-2021 4527.01 3260.01 68.14 6.00 335.72 2982.74
   00:17:58.388.09-May-2021 4527.01 3259.99 68.14 6.00 335.92 2982.74
   00:17:58.588.09-May-2021 4527.01 3259.73 68.14 6.00 336.12 2982.74
   00:17:58.788.09-May-2021 4527.01 3259.73 68.14 6.00 336.32 2982.74
   00:17:58.988.09-May-2021 4527.01 3259.86 68.14 6.00 336.52 2982.74
   00:17:59.188.09-May-2021 4527.01 3260.11 68.14 6.00 336.72 2982.74
   00:17:59.388.09-May-2021 4527.01 3260.01 68.14 6.00 336.92 2982.74
   00:17:59.588.09-May-2021 4527.01 3259.95 68.14 6.00 337.12 2982.74
   00:17:59.789.09-May-2021 4527.01 3259.95 68.14 6.00 337.32 2982.74
   00:17:59.989.09-May-2021 4527.01 3260.44 68.14 6.00 337.52 2982.74
   00:18:00.189.09-May-2021 4527.01 3259.86 68.14 6.00 337.72 2982.74
   00:18:00.389.09-May-2021 4527.01 3259.97 68.14 6.00 337.92 2982.74
   00:18:00.589.09-May-2021 4527.01 3259.75 68.14 6.00 338.12 2982.74
   00:18:00.789.09-May-2021 4527.01 3259.75 68.14 6.00 338.32 2982.74
   00:18:00.989.09-May-2021 4527.01 3259.86 68.14 6.00 338.52 2982.74
   00:18:01.189.09-May-2021 4527.01 3260.09 68.14 6.00 338.72 2982.74
   00:18:01.389.09-May-2021 4527.01 3260.00 68.14 6.00 338.92 2982.74
   00:18:01.589.09-May-2021 4527.01 3259.96 68.14 6.00 339.12 2982.74
   00:18:01.789.09-May-2021 4527.01 3259.96 68.14 6.00 339.32 2982.74
   00:18:01.989.09-May-2021 4527.01 3260.24 68.14 6.00 339.52 2982.74
   00:18:02.189.09-May-2021 4527.01 3259.93 68.14 6.00 339.72 2982.74
   00:18:02.389.09-May-2021 4527.01 3259.90 68.14 6.00 339.92 2982.74
   00:18:02.590.09-May-2021 4527.01 3260.02 68.14 6.00 340.12 2982.74
   00:18:02.790.09-May-2021 4527.01 3260.02 68.14 6.00 340.32 2982.74
   00:18:02.990.09-May-2021 4527.01 3260.00 68.14 6.00 340.52 2982.74
   00:18:03.190.09-May-2021 4527.01 3260.00 68.14 6.00 340.72 2982.74
   00:18:03.390.09-May-2021 4527.01 3260.01 68.14 6.00 340.92 2982.74
   00:18:03.590.09-May-2021 4527.01 3259.99 68.14 6.00 341.12 2982.74
   00:18:03.790.09-May-2021 4527.01 3259.99 68.14 6.00 341.32 2982.74
   00:18:03.990.09-May-2021 4527.01 3260.00 68.14 6.00 341.52 2982.74
   00:18:04.190.09-May-2021 4527.01 3259.96 68.14 6.00 341.72 2982.74
   00:18:04.390.09-May-2021 4527.01 3259.90 68.14 6.00 341.92 2982.74
   00:18:04.590.09-May-2021 4527.01 3260.23 68.14 6.00 342.12 2982.74
   00:18:04.790.09-May-2021 4527.01 3260.23 68.14 6.00 342.32 2982.74
   00:18:04.990.09-May-2021 4527.01 3259.87 68.14 6.00 342.52 2982.74
   00:18:05.191.09-May-2021 4527.01 3260.02 68.14 6.00 342.72 2982.74
   00:18:05.391.09-May-2021 4527.01 3259.97 68.14 6.00 342.92 2982.74
   00:18:05.591.09-May-2021 4527.01 3259.99 68.14 6.00 343.12 2982.74
   00:18:05.791.09-May-2021 4527.01 3259.99 68.14 6.00 343.32 2982.74
   00:18:05.991.09-May-2021 4527.01 3259.99 68.14 6.00 343.52 2982.74
   00:18:06.191.09-May-2021 4527.01 3260.00 68.14 6.00 343.72 2982.74
   00:18:06.391.09-May-2021 4527.01 3260.01 68.14 6.00 343.92 2982.74
   00:18:06.591.09-May-2021 4527.01 3259.99 68.14 6.00 344.12 2982.74
   00:18:06.791.09-May-2021 4527.01 3259.99 68.14 6.00 344.32 2982.74
   00:18:06.991.09-May-2021 4527.01 3259.89 68.14 6.00 344.52 2982.74
   00:18:07.191.09-May-2021 4527.01 3260.23 68.14 6.00 344.72 2982.74
   00:18:07.391.09-May-2021 4527.01 3259.94 68.14 6.00 344.92 2982.74
