~Version Information
 VERS.                  2.0:   CWLS log ASCII Standard -VERSION 2.0
 WRAP.                   NO:   One line per depth step
~Well Information Block
#MNEM.UNIT     VALUE/NAME     DESCRIPTION
#---------     -----------    ---------------------------
 STRT.S             02:17:40 10-May-21: START TIME 02:17:40 10-May-21
 STOP.S             02:25:48 10-May-21: STOP TIME  02:25:48 10-May-21
 STEP.S                   0.00: STEP TIME
 NULL.                 -999.25: NULL VALUE
 PROV.                    Baku:  PROVINCE
 STAT.                    Baku:  STATE NAME
 SON .        AZ-XX-0906571588:  JOB NUMBER
 WTYP.                Deviated:  WELL TYPE
 COMP.     BP Exploration (Caspian Sea) ltd:  COMPANY
 BASE.              Azerbaijan:  LOGGING EQUIPMENT BASE LOCATION
 REGN.                   EESSA:  REGION
 CTRY.              Azerbaijan:  COUNTRY NAME
 FLD .                     ACG:  FIELD NAME
 WELL.                     J28:  WELL NAME
 RIG .             West Chirag:  RIG NAME
 DMF .             Drill Floor:  DRILL MEAS FROM
 PDAT.       Caspian Sea Level:  PERMANENT DATUM
 HPTY.       Minimum Curvature:  HOLE POS TYPE
 MDS .        Operator Entered:  MAG DATA SOURCE
 NREF.                    Grid:  NORTH REFERENCE
 SRVC.          TURAN DRILLING:  CONTRACTOR
 JOBN.        AZ-XX-0906571588:  JOB TICKET NUMB
 DCON.     Halliburton Sperry Drilling:  DIRECTNL CONTR
 STIM.      00.44.00 11-Feb-21:  START TIME
 DATE.      00.00.00 05-May-21:  END TIME
 SPUD.               13-Feb-21:  SPUD DATE
 MWDS.                    Baku:  MWD SHOP
 DOE .                     N/A:  DOE NUMBER
 UNIT.                     N/A:  LOGGING EQUIPMENT ID
 UWI .                     N/A:  UNIQUE WELL IDENTIFIER
 API .                     N/A:  API NUMBER
 CNTY.                        :  COUNTY
 LOC .                        :  LOCATION
 LMF .             Drill Floor:  LOG MEASURED FROM
 TVDS.m                  43.00:  TVDSS CORRECTN
 SDEP.m                 341.00:  START DEPTH
 EGL .m                   0.00:  GROUND ELEVATION
 WDMS.m                 169.80:  WD ELEV
 AGAP.m                  43.00:  AIR GAP
 EPD .m                   0.00:  ELEVATION
 APD .m                  43.00:  DEPTH ABOVE PD
 LATI.deg                40.13:  LATITUDE
 LONG.deg                51.22:  LONGITUDE
 UTMY.m             4443793.85:  UTM Y
 UTMX.m              519005.06:  UTM X
 WHEW.m                 -11.57:  WELL HEAD E/W
 WHNS.m                   8.57:  WELL HEAD N/S
 VSEW.m                 -11.57:  VERT SEC E/W
 VSNS.m                   8.57:  VERT SEC N/S
 DFWL.m                   0.00:  DISTANCE FWL
 DFSL.m                   0.00:  DISTANCE FSL
 VSDR.deg               299.34:  VERT SEC DIRECT
 GVFD.g                   1.00:  GRAVITY FIELD
 AZTC.deg                 6.36:  AZM TOTAL CORR
 MFLD.nT              50391.00:  MAGNETIC FIELD
 MDIP.deg                59.65:  MAGNETIC DIP
 MDEC.deg                 6.48:  MAGNETIC DECL
 GRDC.deg                 0.12:  GRID CORRECTION
 DEP .m                 334.96:  DEPTH
 TDD .m                1407.26:  TOTAL DEPTH (DRILLER)
 EKB .m                  43.00:  KB ELEVATION
 EDF .m                  43.00:  DF ELEVATION
 TDL .m                 228.00:  TOTAL DEPTH (LOGGER)
 VSC .                       0:  VS TO CLOSURE
 MAGU.                 1854484:  MAGUTM CHECKSUM
~Parameter Information Block
#MNEM.UNIT       Value        Description
#---------     -----------    ---------------------------
 AV  .mps                 4.00:  Ann Velocity 
 AVMX.mps                 4.73:  Max Ann Veloc 
 AZIF.deg               304.48:  Azm, Final 
 BHAT.        Rotary Steerable:  BHA Type 
 BREV.rev            257300.00:  Rev Bit Total 
 BROT.°/30m               0.00:  Build Rotating 
 BS  .in                  8.50:  Bit Size 
 BSZ .in                  8.50:  Bit Size 
 BTPL.psig              589.00:  Bit Press Loss 
 CABU.                      No:  Customer Abuse 
 CGEO.          Mubariz ghayev:  Customer Geo 
 COMM.                     …:  Run Comments 1 
 TCS .hr                 64.25:  Time Ciculation Ended 
 CV  .mps                 3.50:  Crit Velocity 
 CVMX.mps                 4.52:  Max Crit Veloc 
 DD1 .             Aziz Aliyev:  Direct Drillr 1 
 DD2 .         Intigam Rahimov:  Direct Drillr 2 
 DD3 .          Rashad Habibov:  Direct Drillr 3 
 DDSV.               Geo-Pilot:  DD Service 
 DEFF.%                  98.00:  % Det Eff 
 DLRX.°/30m               0.00:  Dogleg Rot Max 
 DLSO.°/30m               0.00:  Dogleg Oriented 
 DLSX.°/30m               0.00:  Dogleg Str Max 
 DRET.      10.45.04 08-May-21:  Drill End Time 
 DRST.      03.30.04 04-May-21:  Drill Start Tim 
 DTIM.hr                 14.97:  Time Drilling 
 EDEP.m                4640.01:  End Depth 
 ENG1.         Dail Mahammadov:  Engineer 1 
 ENG2.           Eldar Hajiyev:  Engineer 2 
 ENG3.       Bakhtiar Jabbarli:  Engineer 3 
 ENG4.       Natik Hasanagayev:  Engineer 4 
 ETIM.      09.30.04 14-May-21:  End Time 
 FLOI.gpm               460.00:  Flow In 
 FLON.gpm               200.00:  Flow In Min 
 FLOS.cptm                0.00:  Fluid Loss 
 FLOX.gpm               505.00:  Flow In Max 
 HFLO.                      No:  High Flow 
 HPRE.                      No:  High Pressure 
 HTEM.                      No:  High Temp 
 HYDO.m                   1.80:  Hydro Offset 
 IFIN.deg                66.71:  Inc, Final 
 IMAX.deg                67.03:  Inc Max 
 IMIN.deg                66.63:  Inc Min 
 IMND.m                4550.58:  Inc Min Depth 
 IMXD.m                4439.01:  Inc Max Depth 
 JARR.                      No:  Jarring 
 LETM.      10.45.04 08-May-21:  Log End Time 
 LOST.hr                     0:  Lost Rig Time 
 LSTM.      03.30.04 04-May-21:  Log Start Time 
 MDCL.ppm             37000.00:  Mud Chlorides 
 MDES.     Inversion Oil/Synthetic:  Mud Desc 
 DFD .sg                  1.38:  Mud Density 
 MDMN.sg                  1.35:  Dens Mud Min 
 MDMX.sg                  1.40:  Dens Mud Max 
 MOIL.                   57.40:  Run Mud Oil % 
 MOWR.                   70:30:  Run Mud OWR 
 MSND.                    0.00:  Run Mud Sand % 
 MSOL.                   18.00:  Run Mud Solids% 
 DFV .spqt               71.00:  Mud Viscosity 
 MWOD.in                  6.75:  MWD Tool OD 
 MWSI.                      No:  Serv Intrp, MWD 
 OTIM.hr                242.76:  Time Operating 
 PCON.           Look Like New:  Pad Condition 
 PMAX.psia            12183.92:  Press Op, Max 
 PV  .cP                 27.00:  Mud PV 
 RUN .                    1300:  Run Number 
 ROPA.m/hr               15.00:  ROP Avg 
 ROPN.m/hr                9.00:  ROP Min 
 ROPX.m/hr               19.00:  ROP Max 
 RPMA.rpm               120.00:  RPM Surface Avg 
 RPMN.rpm               100.00:  RPM Surface Min 
 RPMX.rpm               120.00:  RPM Surface Max 
 RRUN.                    1300:  Rig Run Number 
 RTIM.hr                  5.00:  Time Reaming 
 SAZI.deg               304.73:  Azm, Start 
 SDEP.m                4412.01:  Start Depth 
 SIDD.                      No:  Serv Intrp, DD 
 SINC.deg                66.82:  Inc, Start 
 SPPA.psig             2800.00:  SPP Avg 
 SPPN.psig             2610.00:  SPP Min 
 SPPX.psig             3100.00:  SPP Max 
 STIM.      03.30.00 04-May-21:  Start Time 
 SVCS.                 DD, MWD:  Services 
 SVER.                    9.20:  Sperry Version 
 TDAT.m                 228.00:  Tot Depth Attmp 
 TDDF.                      No:  Trip for DD 
 TDLG.m                 228.00:  Tot Depth Loggd 
 TFF .                      No:  Trip for Fail 
 TQAA.f-kp               15.00:  Torque Abs Avg 
 TQAN.f-kp               12.00:  Torque Abs Min 
 TQAX.f-kp               22.00:  Torque Abs Max 
 TRRT.°/30m               0.00:  Turn Rotating 
 MRT .                    HCIM:  Maximum Recorded Temperature 
 TTMX.degC               90.20:  Max Tool Temp 
 VS01.                90627813:  Virtual Str1 SN 
 VS02.                90634712:  Virtual Str2 SN 
 VS03.                90643410:  Virtual Str3 SN 
 VS04.                90634712:  Virtual Str4 SN 
 WBMN.klb                 9.00:  WOB Min 
 WITN.        Elmaddin Rahimov:  Customer Rep 
 WITN.         Haytham Mostafa:  Customer Rep 2 
 WOBA.klb                15.00:  WOB Avg 
 WOBX.klb                23.00:  WOB Max 
 YP  .lhf2               29.00:  Yield Point 
~Curve Information Block
#MNEM.UNIT                 API CODE     Curve Description
#---------               -----------    ---------------------------
 TIME.HHMMSS            00 000 000 000:  GT Time & Date
 GTDEPTH.m              00 000 000 000:  GT Depth
 GTPQH.psia             00 000 000 000:  GT HR Quartz Pressure
 GTTQ.degC              00 000 000 000:  GT Quartz Temperature
 GTTN.NONE              00 000 000 000:  GT Test Number
 GTET.sec               00 000 000 000:  GT Elapsed Test Time
 GTTVD.m                00 000 000 000:  GT True Vertical Depth
#Other Information
#
#WARRANTY: Halliburton will use its best efforts to furnish customers with 
#accurate information and interpretations that are part of, and incident to, the services 
#provided.  However, Halliburton cannot and does not warrant the accuracy 
#or correctness of such information and interpretations.  Under no circumstances should any 
#such information or interpretation be relied upon as the sole basis for any drilling, 
#completion, production, or financial decision or any procedure involving any risk to the 
#safety of any drilling venture, drilling rig or its crew or any other third party.  The 
#Customer has full responsibility for all drilling, completion and production operation.  
#Halliburton makes no representations or warranties, either expressed or 
#implied, including, but not limited to, the implied warranties of merchantability or fitness 
#for a particular purpose, with respect to the services rendered.  In no event will 
#Halliburton be liable for failure to obtain any particular results or for 
#any damages, including, but not limited to, indirect, special or consequential damages, 
#resulting from the use of any information or interpretation provided by Halliburton.
#
~A           TIME           GTDEPTH  GTPQH  GTTQ  GTTN   GTET   GTTVD  
# ...
   02:18:03.236.10-May-2021 4568.01 6601.52 60.42 20.00  22.60 2998.98
   02:18:03.436.10-May-2021 4568.01 6600.77 60.42 20.00  22.80 2998.98
   02:18:03.636.10-May-2021 4568.01 6599.87 60.42 20.00  23.00 2998.98
   02:18:03.836.10-May-2021 4568.01 6599.87 60.42 20.00  23.20 2998.98
   02:18:04.036.10-May-2021 4568.01 6600.56 60.42 20.00  23.40 2998.98
   02:18:04.236.10-May-2021 4568.01 6601.28 60.42 20.00  23.60 2998.98
   02:18:04.436.10-May-2021 4568.01 6600.64 60.42 20.00  23.80 2998.98
   02:18:04.636.10-May-2021 4568.01 6599.67 60.42 20.00  24.00 2998.98
   02:18:04.836.10-May-2021 4568.01 6599.67 60.42 20.00  24.20 2998.98
   02:18:05.037.10-May-2021 4568.01 6606.64 60.42 20.00  24.40 2998.98
   02:18:05.237.10-May-2021 4568.01 6605.22 60.42 20.00  24.60 2998.98
   02:18:05.437.10-May-2021 4568.01 6605.53 60.42 20.00  24.80 2998.98
   02:18:05.637.10-May-2021 4568.01 6601.01 60.42 20.00  25.00 2998.98
   02:18:05.837.10-May-2021 4568.01 6601.01 60.42 20.00  25.20 2998.98
   02:18:06.037.10-May-2021 4568.01 6610.11 60.42 20.00  25.40 2998.98
   02:18:06.237.10-May-2021 4568.01 6606.20 60.42 20.00  25.60 2998.98
   02:18:06.437.10-May-2021 4568.01 6604.48 60.42 20.00  25.80 2998.98
   02:18:06.637.10-May-2021 4568.01 6603.91 60.42 20.00  26.00 2998.98
   02:18:06.837.10-May-2021 4568.01 6603.91 60.42 20.00  26.20 2998.98
   02:18:07.037.10-May-2021 4568.01 6607.03 60.42 20.00  26.40 2998.98
   02:18:07.237.10-May-2021 4568.01 6608.25 60.42 20.00  26.60 2998.98
   02:18:07.437.10-May-2021 4568.01 6603.45 60.42 20.00  26.80 2998.98
   02:18:07.637.10-May-2021 4568.01 6612.24 60.42 20.00  27.00 2998.98
   02:18:07.837.10-May-2021 4568.01 6612.24 60.42 20.00  27.20 2998.98
   02:18:08.037.10-May-2021 4568.01 6607.04 60.42 20.00  27.40 2998.98
   02:18:08.237.10-May-2021 4568.01 6604.93 60.42 20.00  27.60 2998.98
   02:18:08.437.10-May-2021 4568.01 6603.98 60.42 20.00  27.80 2998.98
   02:18:08.637.10-May-2021 4568.01 6603.62 60.42 20.00  28.00 2998.98
   02:18:08.837.10-May-2021 4568.01 6603.62 60.42 20.00  28.21 2998.98
   02:18:09.037.10-May-2021 4568.01 6603.51 60.42 20.00  28.41 2998.98
   02:18:09.237.10-May-2021 4568.01 6603.17 60.42 20.00  28.61 2998.98
   02:18:09.437.10-May-2021 4568.01 6602.97 60.42 20.00  28.81 2998.98
   02:18:09.637.10-May-2021 4568.01 6603.06 60.42 20.00  29.01 2998.98
   02:18:09.837.10-May-2021 4568.01 6603.06 60.42 20.00  29.21 2998.98
   02:18:10.037.10-May-2021 4568.01 6602.84 60.42 20.00  29.41 2998.98
   02:18:10.237.10-May-2021 4568.01 6611.69 60.42 20.00  29.61 2998.98
   02:18:10.437.10-May-2021 4568.01 6608.65 60.42 20.00  29.81 2998.98
   02:18:10.638.10-May-2021 4568.01 6607.75 60.42 20.00  30.01 2998.98
   02:18:10.838.10-May-2021 4568.01 6607.75 60.42 20.00  30.21 2998.98
   02:18:11.038.10-May-2021 4568.01 6605.11 60.42 20.00  30.41 2998.98
   02:18:11.238.10-May-2021 4568.01 6604.73 60.42 20.00  30.61 2998.98
   02:18:11.438.10-May-2021 4568.01 6604.40 60.42 20.00  30.81 2998.98
   02:18:11.638.10-May-2021 4568.01 6605.02 60.42 20.00  31.01 2998.98
   02:18:11.838.10-May-2021 4568.01 6605.02 60.42 20.00  31.21 2998.98
   02:18:12.038.10-May-2021 4568.01 6604.64 60.42 20.00  31.41 2998.98
   02:18:12.238.10-May-2021 4568.01 6604.67 60.42 20.00  31.61 2998.98
   02:18:12.438.10-May-2021 4568.01 6604.62 60.42 20.00  31.81 2998.98
   02:18:12.638.10-May-2021 4568.01 6593.01 60.42 20.00  32.01 2998.98
   02:18:12.838.10-May-2021 4568.01 6593.01 60.42 20.00  32.21 2998.98
   02:18:13.038.10-May-2021 4568.01 6532.54 60.42 20.00  32.41 2998.98
   02:18:13.238.10-May-2021 4568.01 6575.47 60.42 20.00  32.61 2998.98
   02:18:13.438.10-May-2021 4568.01 6645.73 60.42 20.00  32.81 2998.98
   02:18:13.638.10-May-2021 4568.01 6712.16 60.42 20.00  33.01 2998.98
   02:18:13.838.10-May-2021 4568.01 6712.16 60.42 20.00  33.21 2998.98
   02:18:14.038.10-May-2021 4568.01 6754.52 60.42 20.00  33.41 2998.98
   02:18:14.238.10-May-2021 4568.01 6756.42 60.42 20.00  33.61 2998.98
   02:18:14.438.10-May-2021 4568.01 6753.10 60.42 20.00  33.81 2998.98
   02:18:14.638.10-May-2021 4568.01 6753.58 60.42 20.00  34.01 2998.98
   02:18:14.838.10-May-2021 4568.01 6753.58 60.42 20.00  34.21 2998.98
   02:18:15.038.10-May-2021 4568.01 6761.57 60.42 20.00  34.41 2998.98
   02:18:15.238.10-May-2021 4568.01 6763.31 60.42 20.00  34.61 2998.98
   02:18:15.438.10-May-2021 4568.01 6759.79 60.42 20.00  34.81 2998.98
   02:18:15.638.10-May-2021 4568.01 6762.17 60.42 20.00  35.01 2998.98
   02:18:15.838.10-May-2021 4568.01 6762.17 60.42 20.00  35.21 2998.98
   02:18:16.038.10-May-2021 4568.01 6771.54 60.42 20.00  35.41 2998.98
   02:18:16.239.10-May-2021 4568.01 6775.44 60.42 20.00  35.61 2998.98
   02:18:16.439.10-May-2021 4568.01 6771.83 60.42 20.00  35.81 2998.98
   02:18:16.639.10-May-2021 4568.01 6769.84 60.42 20.00  36.01 2998.98
   02:18:16.839.10-May-2021 4568.01 6769.84 60.42 20.00  36.21 2998.98
   02:18:17.039.10-May-2021 4568.01 6758.45 60.42 20.00  36.41 2998.98
   02:18:17.239.10-May-2021 4568.01 6753.90 60.42 20.00  36.61 2998.98
   02:18:17.439.10-May-2021 4568.01 6741.32 60.42 20.00  36.81 2998.98
   02:18:17.639.10-May-2021 4568.01 6738.17 60.42 20.00  37.01 2998.98
   02:18:17.839.10-May-2021 4568.01 6738.17 60.42 20.00  37.21 2998.98
   02:18:18.039.10-May-2021 4568.01 6746.12 60.42 20.00  37.41 2998.98
   02:18:18.239.10-May-2021 4568.01 6763.60 60.42 20.00  37.61 2998.98
   02:18:18.439.10-May-2021 4568.01 6770.77 60.42 20.00  37.81 2998.98
   02:18:18.639.10-May-2021 4568.01 6767.49 60.42 20.00  38.01 2998.98
   02:18:18.839.10-May-2021 4568.01 6767.49 60.42 20.00  38.21 2998.98
   02:18:19.039.10-May-2021 4568.01 6766.68 60.42 20.00  38.41 2998.98
   02:18:19.239.10-May-2021 4568.01 6765.36 60.42 20.00  38.61 2998.98
   02:18:19.439.10-May-2021 4568.01 6763.59 60.42 20.00  38.81 2998.98
   02:18:19.639.10-May-2021 4568.01 6761.27 60.42 20.00  39.01 2998.98
   02:18:19.839.10-May-2021 4568.01 6761.27 60.42 20.00  39.21 2998.98
   02:18:20.039.10-May-2021 4568.01 6755.28 60.42 20.00  39.41 2998.98
   02:18:20.239.10-May-2021 4568.01 6752.36 60.42 20.00  39.61 2998.98
   02:18:20.439.10-May-2021 4568.01 6745.09 60.42 20.00  39.81 2998.98
   02:18:20.639.10-May-2021 4568.01 6629.12 60.42 20.00  40.01 2998.98
   02:18:20.839.10-May-2021 4568.01 6629.12 60.42 20.00  40.21 2998.98
   02:18:21.039.10-May-2021 4568.01 6445.56 60.42 20.00  40.41 2998.98
   02:18:21.239.10-May-2021 4568.01 6283.32 60.42 20.00  40.61 2998.98
   02:18:21.439.10-May-2021 4568.01 5846.86 60.42 20.00  40.81 2998.98
   02:18:21.639.10-May-2021 4568.01 5176.40 60.42 20.00  41.01 2998.98
   02:18:21.840.10-May-2021 4568.01 5176.40 60.42 20.00  41.21 2998.98
   02:18:22.040.10-May-2021 4568.01 3963.32 60.42 20.00  41.41 2998.98
   02:18:22.240.10-May-2021 4568.01 3474.88 60.42 20.00  41.61 2998.98
   02:18:22.440.10-May-2021 4568.01 2934.31 60.41 20.00  41.81 2998.98
   02:18:22.640.10-May-2021 4568.01 2588.73 60.41 20.00  42.01 2998.98
   02:18:22.840.10-May-2021 4568.01 2588.73 60.41 20.00  42.21 2998.98
   02:18:23.040.10-May-2021 4568.01 1634.70 60.41 20.00  42.41 2998.98
   02:18:23.240.10-May-2021 4568.01 1256.45 60.41 20.00  42.61 2998.98
   02:18:23.440.10-May-2021 4568.01  892.96 60.41 20.00  42.81 2998.98
   02:18:23.640.10-May-2021 4568.01  673.83 60.40 20.00  43.01 2998.98
   02:18:23.840.10-May-2021 4568.01  673.83 60.40 20.00  43.21 2998.98
   02:18:24.040.10-May-2021 4568.01  530.98 60.40 20.00  43.41 2998.98
   02:18:24.240.10-May-2021 4568.01  513.73 60.39 20.00  43.61 2998.98
   02:18:24.440.10-May-2021 4568.01  507.23 60.39 20.00  43.81 2998.98
   02:18:24.640.10-May-2021 4568.01  509.54 60.39 20.00  44.01 2998.98
   02:18:24.840.10-May-2021 4568.01  509.54 60.39 20.00  44.21 2998.98
   02:18:25.040.10-May-2021 4568.01  516.15 60.38 20.00  44.41 2998.98
   02:18:25.240.10-May-2021 4568.01  512.75 60.37 20.00  44.61 2998.98
   02:18:25.440.10-May-2021 4568.01  513.48 60.37 20.00  44.81 2998.98
   02:18:25.640.10-May-2021 4568.01  515.09 60.37 20.00  45.01 2998.98
