~Version Information
 VERS.                  2.0:   CWLS log ASCII Standard -VERSION 2.0
 WRAP.                   NO:   One line per depth step
~Well Information Block
#MNEM.UNIT     VALUE/NAME     DESCRIPTION
#---------     -----------    ---------------------------
 STRT.S             20:58:23 08-May-21: START TIME 20:58:23 08-May-21
 STOP.S             21:05:15 08-May-21: STOP TIME  21:05:15 08-May-21
 STEP.S                   0.00: STEP TIME
 NULL.                 -999.25: NULL VALUE
 PROV.                    Baku:  PROVINCE
 STAT.                    Baku:  STATE NAME
 SON .        AZ-XX-0906571588:  JOB NUMBER
 WTYP.                Deviated:  WELL TYPE
 COMP.     BP Exploration (Caspian Sea) ltd:  COMPANY
 BASE.              Azerbaijan:  LOGGING EQUIPMENT BASE LOCATION
 REGN.                   EESSA:  REGION
 CTRY.              Azerbaijan:  COUNTRY NAME
 FLD .                     ACG:  FIELD NAME
 WELL.                     J28:  WELL NAME
 RIG .             West Chirag:  RIG NAME
 DMF .             Drill Floor:  DRILL MEAS FROM
 PDAT.       Caspian Sea Level:  PERMANENT DATUM
 HPTY.       Minimum Curvature:  HOLE POS TYPE
 MDS .        Operator Entered:  MAG DATA SOURCE
 NREF.                    Grid:  NORTH REFERENCE
 SRVC.          TURAN DRILLING:  CONTRACTOR
 JOBN.        AZ-XX-0906571588:  JOB TICKET NUMB
 DCON.     Halliburton Sperry Drilling:  DIRECTNL CONTR
 STIM.      00.44.00 11-Feb-21:  START TIME
 DATE.      00.00.00 05-May-21:  END TIME
 SPUD.               13-Feb-21:  SPUD DATE
 MWDS.                    Baku:  MWD SHOP
 DOE .                     N/A:  DOE NUMBER
 UNIT.                     N/A:  LOGGING EQUIPMENT ID
 UWI .                     N/A:  UNIQUE WELL IDENTIFIER
 API .                     N/A:  API NUMBER
 CNTY.                        :  COUNTY
 LOC .                        :  LOCATION
 LMF .             Drill Floor:  LOG MEASURED FROM
 TVDS.m                  43.00:  TVDSS CORRECTN
 SDEP.m                 341.00:  START DEPTH
 EGL .m                   0.00:  GROUND ELEVATION
 WDMS.m                 169.80:  WD ELEV
 AGAP.m                  43.00:  AIR GAP
 EPD .m                   0.00:  ELEVATION
 APD .m                  43.00:  DEPTH ABOVE PD
 LATI.deg                40.13:  LATITUDE
 LONG.deg                51.22:  LONGITUDE
 UTMY.m             4443793.85:  UTM Y
 UTMX.m              519005.06:  UTM X
 WHEW.m                 -11.57:  WELL HEAD E/W
 WHNS.m                   8.57:  WELL HEAD N/S
 VSEW.m                 -11.57:  VERT SEC E/W
 VSNS.m                   8.57:  VERT SEC N/S
 DFWL.m                   0.00:  DISTANCE FWL
 DFSL.m                   0.00:  DISTANCE FSL
 VSDR.deg               299.34:  VERT SEC DIRECT
 GVFD.g                   1.00:  GRAVITY FIELD
 AZTC.deg                 6.36:  AZM TOTAL CORR
 MFLD.nT              50391.00:  MAGNETIC FIELD
 MDIP.deg                59.65:  MAGNETIC DIP
 MDEC.deg                 6.48:  MAGNETIC DECL
 GRDC.deg                 0.12:  GRID CORRECTION
 DEP .m                 334.96:  DEPTH
 TDD .m                1407.26:  TOTAL DEPTH (DRILLER)
 EKB .m                  43.00:  KB ELEVATION
 EDF .m                  43.00:  DF ELEVATION
 TDL .m                 228.00:  TOTAL DEPTH (LOGGER)
 VSC .                       0:  VS TO CLOSURE
 MAGU.                 1854484:  MAGUTM CHECKSUM
~Parameter Information Block
#MNEM.UNIT       Value        Description
#---------     -----------    ---------------------------
 AV  .mps                 4.00:  Ann Velocity 
 AVMX.mps                 4.73:  Max Ann Veloc 
 AZIF.deg               304.48:  Azm, Final 
 BHAT.        Rotary Steerable:  BHA Type 
 BREV.rev            257300.00:  Rev Bit Total 
 BROT.°/30m               0.00:  Build Rotating 
 BS  .in                  8.50:  Bit Size 
 BSZ .in                  8.50:  Bit Size 
 BTPL.psig              589.00:  Bit Press Loss 
 CABU.                      No:  Customer Abuse 
 CGEO.          Mubariz ghayev:  Customer Geo 
 COMM.                     ”<v:  Run Comments 1 
 TCS .hr                 64.25:  Time Ciculation Ended 
 CV  .mps                 3.50:  Crit Velocity 
 CVMX.mps                 4.52:  Max Crit Veloc 
 DD1 .             Aziz Aliyev:  Direct Drillr 1 
 DD2 .         Intigam Rahimov:  Direct Drillr 2 
 DD3 .          Rashad Habibov:  Direct Drillr 3 
 DDSV.               Geo-Pilot:  DD Service 
 DEFF.%                  98.00:  % Det Eff 
 DLRX.°/30m               0.00:  Dogleg Rot Max 
 DLSO.°/30m               0.00:  Dogleg Oriented 
 DLSX.°/30m               0.00:  Dogleg Str Max 
 DRET.      10.45.04 08-May-21:  Drill End Time 
 DRST.      03.30.04 04-May-21:  Drill Start Tim 
 DTIM.hr                 14.97:  Time Drilling 
 EDEP.m                4640.01:  End Depth 
 ENG1.         Dail Mahammadov:  Engineer 1 
 ENG2.           Eldar Hajiyev:  Engineer 2 
 ENG3.       Bakhtiar Jabbarli:  Engineer 3 
 ENG4.       Natik Hasanagayev:  Engineer 4 
 ETIM.      09.30.04 14-May-21:  End Time 
 FLOI.gpm               460.00:  Flow In 
 FLON.gpm               200.00:  Flow In Min 
 FLOS.cptm                0.00:  Fluid Loss 
 FLOX.gpm               505.00:  Flow In Max 
 HFLO.                      No:  High Flow 
 HPRE.                      No:  High Pressure 
 HTEM.                      No:  High Temp 
 HYDO.m                   1.80:  Hydro Offset 
 IFIN.deg                66.71:  Inc, Final 
 IMAX.deg                67.03:  Inc Max 
 IMIN.deg                66.63:  Inc Min 
 IMND.m                4550.58:  Inc Min Depth 
 IMXD.m                4439.01:  Inc Max Depth 
 JARR.                      No:  Jarring 
 LETM.      10.45.04 08-May-21:  Log End Time 
 LOST.hr                     0:  Lost Rig Time 
 LSTM.      03.30.04 04-May-21:  Log Start Time 
 MDCL.ppm             37000.00:  Mud Chlorides 
 MDES.     Inversion Oil/Synthetic:  Mud Desc 
 DFD .sg                  1.38:  Mud Density 
 MDMN.sg                  1.35:  Dens Mud Min 
 MDMX.sg                  1.40:  Dens Mud Max 
 MOIL.                   57.40:  Run Mud Oil % 
 MOWR.                   70:30:  Run Mud OWR 
 MSND.                    0.00:  Run Mud Sand % 
 MSOL.                   18.00:  Run Mud Solids% 
 DFV .spqt               71.00:  Mud Viscosity 
 MWOD.in                  6.75:  MWD Tool OD 
 MWSI.                      No:  Serv Intrp, MWD 
 OTIM.hr                242.76:  Time Operating 
 PCON.           Look Like New:  Pad Condition 
 PMAX.psia            12183.92:  Press Op, Max 
 PV  .cP                 27.00:  Mud PV 
 RUN .                    1300:  Run Number 
 ROPA.m/hr               15.00:  ROP Avg 
 ROPN.m/hr                9.00:  ROP Min 
 ROPX.m/hr               19.00:  ROP Max 
 RPMA.rpm               120.00:  RPM Surface Avg 
 RPMN.rpm               100.00:  RPM Surface Min 
 RPMX.rpm               120.00:  RPM Surface Max 
 RRUN.                    1300:  Rig Run Number 
 RTIM.hr                  5.00:  Time Reaming 
 SAZI.deg               304.73:  Azm, Start 
 SDEP.m                4412.01:  Start Depth 
 SIDD.                      No:  Serv Intrp, DD 
 SINC.deg                66.82:  Inc, Start 
 SPPA.psig             2800.00:  SPP Avg 
 SPPN.psig             2610.00:  SPP Min 
 SPPX.psig             3100.00:  SPP Max 
 STIM.      03.30.00 04-May-21:  Start Time 
 SVCS.                 DD, MWD:  Services 
 SVER.                    9.20:  Sperry Version 
 TDAT.m                 228.00:  Tot Depth Attmp 
 TDDF.                      No:  Trip for DD 
 TDLG.m                 228.00:  Tot Depth Loggd 
 TFF .                      No:  Trip for Fail 
 TQAA.f-kp               15.00:  Torque Abs Avg 
 TQAN.f-kp               12.00:  Torque Abs Min 
 TQAX.f-kp               22.00:  Torque Abs Max 
 TRRT.°/30m               0.00:  Turn Rotating 
 MRT .                    HCIM:  Maximum Recorded Temperature 
 TTMX.degC               90.20:  Max Tool Temp 
 VS01.                90627813:  Virtual Str1 SN 
 VS02.                90634712:  Virtual Str2 SN 
 VS03.                90643410:  Virtual Str3 SN 
 VS04.                90634712:  Virtual Str4 SN 
 WBMN.klb                 9.00:  WOB Min 
 WITN.        Elmaddin Rahimov:  Customer Rep 
 WITN.         Haytham Mostafa:  Customer Rep 2 
 WOBA.klb                15.00:  WOB Avg 
 WOBX.klb                23.00:  WOB Max 
 YP  .lhf2               29.00:  Yield Point 
~Curve Information Block
#MNEM.UNIT                 API CODE     Curve Description
#---------               -----------    ---------------------------
 TIME.HHMMSS            00 000 000 000:  GT Time & Date
 GTDEPTH.m              00 000 000 000:  GT Depth
 GTPQH.psia             00 000 000 000:  GT HR Quartz Pressure
 GTTQ.degC              00 000 000 000:  GT Quartz Temperature
 GTTN.NONE              00 000 000 000:  GT Test Number
 GTET.sec               00 000 000 000:  GT Elapsed Test Time
 GTTVD.m                00 000 000 000:  GT True Vertical Depth
#Other Information
#
#WARRANTY: Halliburton will use its best efforts to furnish customers with 
#accurate information and interpretations that are part of, and incident to, the services 
#provided.  However, Halliburton cannot and does not warrant the accuracy 
#or correctness of such information and interpretations.  Under no circumstances should any 
#such information or interpretation be relied upon as the sole basis for any drilling, 
#completion, production, or financial decision or any procedure involving any risk to the 
#safety of any drilling venture, drilling rig or its crew or any other third party.  The 
#Customer has full responsibility for all drilling, completion and production operation.  
#Halliburton makes no representations or warranties, either expressed or 
#implied, including, but not limited to, the implied warranties of merchantability or fitness 
#for a particular purpose, with respect to the services rendered.  In no event will 
#Halliburton be liable for failure to obtain any particular results or for 
#any damages, including, but not limited to, indirect, special or consequential damages, 
#resulting from the use of any information or interpretation provided by Halliburton.
#
~A           TIME           GTDEPTH  GTPQH  GTTQ  GTTN  GTET   GTTVD  
# ...
   21:01:04.796.08-May-2021 4593.01 3776.86 69.00 2.00 161.02 3008.90
   21:01:04.996.08-May-2021 4593.01 3776.86 69.00 2.00 161.22 3008.90
   21:01:05.196.08-May-2021 4593.01 3776.79 69.00 2.00 161.42 3008.90
   21:01:05.396.08-May-2021 4593.01 3777.03 69.00 2.00 161.62 3008.90
   21:01:05.596.08-May-2021 4593.01 3776.99 69.00 2.00 161.82 3008.90
   21:01:05.796.08-May-2021 4593.01 3776.98 69.00 2.00 162.02 3008.90
   21:01:05.996.08-May-2021 4593.01 3776.98 69.00 2.00 162.22 3008.90
   21:01:06.196.08-May-2021 4593.01 3777.09 69.00 2.00 162.42 3008.90
   21:01:06.396.08-May-2021 4593.01 3777.10 69.00 2.00 162.62 3008.90
   21:01:06.597.08-May-2021 4593.01 3777.20 69.00 2.00 162.82 3008.90
   21:01:06.797.08-May-2021 4593.01 3777.57 69.00 2.00 163.02 3008.90
   21:01:06.997.08-May-2021 4593.01 3777.57 69.00 2.00 163.22 3008.90
   21:01:07.197.08-May-2021 4593.01 3777.50 69.01 2.00 163.42 3008.90
   21:01:07.397.08-May-2021 4593.01 3777.15 69.01 2.00 163.62 3008.90
   21:01:07.597.08-May-2021 4593.01 3777.21 69.01 2.00 163.82 3008.90
   21:01:07.797.08-May-2021 4593.01 3777.39 69.01 2.00 164.02 3008.90
   21:01:07.997.08-May-2021 4593.01 3777.39 69.01 2.00 164.22 3008.90
   21:01:08.197.08-May-2021 4593.01 3777.26 69.01 2.00 164.42 3008.90
   21:01:08.397.08-May-2021 4593.01 3777.40 69.01 2.00 164.62 3008.90
   21:01:08.597.08-May-2021 4593.01 3777.34 69.01 2.00 164.82 3008.90
   21:01:08.797.08-May-2021 4593.01 3777.30 69.01 2.00 165.02 3008.90
   21:01:08.997.08-May-2021 4593.01 3777.30 69.01 2.00 165.22 3008.90
   21:01:09.197.08-May-2021 4593.01 3777.27 69.01 2.00 165.42 3008.90
   21:01:09.397.08-May-2021 4593.01 3777.61 69.01 2.00 165.62 3008.90
   21:01:09.597.08-May-2021 4593.01 3777.30 69.01 2.00 165.82 3008.90
   21:01:09.797.08-May-2021 4593.01 3777.52 69.01 2.00 166.02 3008.90
   21:01:09.997.08-May-2021 4593.01 3777.52 69.01 2.00 166.22 3008.90
   21:01:10.197.08-May-2021 4593.01 3777.60 69.01 2.00 166.42 3008.90
   21:01:10.397.08-May-2021 4593.01 3777.39 69.01 2.00 166.62 3008.90
   21:01:10.597.08-May-2021 4593.01 3777.42 69.01 2.00 166.82 3008.90
   21:01:10.797.08-May-2021 4593.01 3777.22 69.01 2.00 167.02 3008.90
   21:01:10.997.08-May-2021 4593.01 3777.22 69.01 2.00 167.22 3008.90
   21:01:11.197.08-May-2021 4593.01 3777.22 69.01 2.00 167.42 3008.90
   21:01:11.397.08-May-2021 4593.01 3777.60 69.01 2.00 167.62 3008.90
   21:01:11.597.08-May-2021 4593.01 3777.29 69.01 2.00 167.82 3008.90
   21:01:11.797.08-May-2021 4593.01 3777.81 69.01 2.00 168.02 3008.90
   21:01:11.997.08-May-2021 4593.01 3777.81 69.01 2.00 168.22 3008.90
   21:01:12.197.08-May-2021 4593.01 3777.67 69.01 2.00 168.42 3008.90
   21:01:12.397.08-May-2021 4593.01 3777.38 69.01 2.00 168.62 3008.90
   21:01:12.597.08-May-2021 4593.01 3777.45 69.01 2.00 168.82 3008.90
   21:01:12.797.08-May-2021 4593.01 3777.61 69.01 2.00 169.02 3008.90
   21:01:12.997.08-May-2021 4593.01 3777.61 69.01 2.00 169.22 3008.90
   21:01:13.197.08-May-2021 4593.01 3777.47 69.01 2.00 169.42 3008.90
   21:01:13.397.08-May-2021 4593.01 3777.58 69.01 2.00 169.62 3008.90
   21:01:13.597.08-May-2021 4593.01 3777.49 69.01 2.00 169.82 3008.90
   21:01:13.797.08-May-2021 4593.01 3777.49 69.01 2.00 170.02 3008.90
   21:01:13.997.08-May-2021 4593.01 3777.49 69.01 2.00 170.22 3008.90
   21:01:14.197.08-May-2021 4593.01 3777.36 69.01 2.00 170.42 3008.90
   21:01:14.397.08-May-2021 4593.01 3777.66 69.01 2.00 170.62 3008.90
   21:01:14.597.08-May-2021 4593.01 3777.61 69.01 2.00 170.82 3008.90
   21:01:14.797.08-May-2021 4593.01 3777.59 69.01 2.00 171.02 3008.90
   21:01:14.997.08-May-2021 4593.01 3777.59 69.01 2.00 171.22 3008.90
   21:01:15.197.08-May-2021 4593.01 3777.62 69.01 2.00 171.42 3008.90
   21:01:15.397.08-May-2021 4593.01 3777.56 69.01 2.00 171.62 3008.90
   21:01:15.597.08-May-2021 4593.01 3777.47 69.01 2.00 171.82 3008.90
   21:01:15.797.08-May-2021 4593.01 3777.61 69.01 2.00 172.02 3008.90
   21:01:15.997.08-May-2021 4593.01 3777.61 69.01 2.00 172.22 3008.90
   21:01:16.197.08-May-2021 4593.01 3777.49 69.01 2.00 172.42 3008.90
   21:01:16.398.08-May-2021 4593.01 3777.55 69.01 2.00 172.62 3008.90
   21:01:16.598.08-May-2021 4593.01 3777.64 69.01 2.00 172.82 3008.90
   21:01:16.798.08-May-2021 4593.01 3777.40 69.01 2.00 173.02 3008.90
   21:01:16.998.08-May-2021 4593.01 3777.40 69.01 2.00 173.22 3008.90
   21:01:17.198.08-May-2021 4593.01 3777.53 69.01 2.00 173.42 3008.90
   21:01:17.398.08-May-2021 4593.01 3777.55 69.01 2.00 173.62 3008.90
   21:01:17.598.08-May-2021 4593.01 3777.55 69.01 2.00 173.82 3008.90
   21:01:17.798.08-May-2021 4593.01 3777.58 69.01 2.00 174.02 3008.90
   21:01:17.998.08-May-2021 4593.01 3777.58 69.01 2.00 174.22 3008.90
   21:01:18.198.08-May-2021 4593.01 3777.26 69.01 2.00 174.42 3008.90
   21:01:18.398.08-May-2021 4593.01 3777.70 69.01 2.00 174.62 3008.90
   21:01:18.598.08-May-2021 4593.01 3777.51 69.01 2.00 174.82 3008.90
   21:01:18.798.08-May-2021 4593.01 3777.59 69.01 2.00 175.02 3008.90
   21:01:18.998.08-May-2021 4593.01 3777.59 69.01 2.00 175.22 3008.90
   21:01:19.198.08-May-2021 4593.01 3777.32 69.01 2.00 175.42 3008.90
   21:01:19.398.08-May-2021 4593.01 3777.61 69.01 2.00 175.62 3008.90
   21:01:19.598.08-May-2021 4593.01 3777.66 69.01 2.00 175.82 3008.90
   21:01:19.798.08-May-2021 4593.01 3777.61 69.01 2.00 176.02 3008.90
   21:01:19.998.08-May-2021 4593.01 3777.61 69.01 2.00 176.22 3008.90
   21:01:20.198.08-May-2021 4593.01 3777.49 69.01 2.00 176.42 3008.90
   21:01:20.398.08-May-2021 4593.01 3777.60 69.01 2.00 176.62 3008.90
   21:01:20.598.08-May-2021 4593.01 3777.46 69.01 2.00 176.82 3008.90
   21:01:20.798.08-May-2021 4593.01 3777.68 69.01 2.00 177.02 3008.90
   21:01:20.998.08-May-2021 4593.01 3777.68 69.01 2.00 177.22 3008.90
   21:01:21.198.08-May-2021 4593.01 3777.50 69.01 2.00 177.42 3008.90
   21:01:21.398.08-May-2021 4593.01 3777.65 69.01 2.00 177.62 3008.90
   21:01:21.598.08-May-2021 4593.01 3777.57 69.01 2.00 177.82 3008.90
   21:01:21.798.08-May-2021 4593.01 3777.55 69.01 2.00 178.02 3008.90
   21:01:21.998.08-May-2021 4593.01 3777.55 69.01 2.00 178.22 3008.90
   21:01:22.198.08-May-2021 4593.01 3777.65 69.01 2.00 178.42 3008.90
   21:01:22.398.08-May-2021 4593.01 3777.42 69.01 2.00 178.62 3008.90
   21:01:22.598.08-May-2021 4593.01 3777.85 69.01 2.00 178.82 3008.90
   21:01:22.798.08-May-2021 4593.01 3777.40 69.01 2.00 179.02 3008.90
   21:01:22.998.08-May-2021 4593.01 3777.40 69.01 2.00 179.22 3008.90
   21:01:23.198.08-May-2021 4593.01 3777.56 69.01 2.00 179.42 3008.90
   21:01:23.398.08-May-2021 4593.01 3777.64 69.01 2.00 179.62 3008.90
   21:01:23.598.08-May-2021 4593.01 3777.50 69.01 2.00 179.82 3008.90
   21:01:23.798.08-May-2021 4593.01 3777.57 69.01 2.00 180.02 3008.90
   21:01:23.998.08-May-2021 4593.01 3777.57 69.01 2.00 180.22 3008.90
   21:01:24.198.08-May-2021 4593.01 3777.53 69.01 2.00 180.42 3008.90
   21:01:24.398.08-May-2021 4593.01 3777.57 69.01 2.00 180.62 3008.90
   21:01:24.598.08-May-2021 4593.01 3777.64 69.01 2.00 180.82 3008.90
   21:01:24.798.08-May-2021 4593.01 3777.55 69.01 2.00 181.02 3008.90
   21:01:24.998.08-May-2021 4593.01 3777.55 69.01 2.00 181.22 3008.90
   21:01:25.198.08-May-2021 4593.01 3777.91 69.01 2.00 181.42 3008.90
   21:01:25.398.08-May-2021 4593.01 3777.33 69.01 2.00 181.62 3008.90
   21:01:25.598.08-May-2021 4593.01 3777.64 69.01 2.00 181.82 3008.90
   21:01:25.798.08-May-2021 4593.01 3777.62 69.01 2.00 182.02 3008.90
   21:01:25.999.08-May-2021 4593.01 3777.62 69.01 2.00 182.22 3008.90
   21:01:26.199.08-May-2021 4593.01 3777.47 69.01 2.00 182.42 3008.90
   21:01:26.399.08-May-2021 4593.01 3777.56 69.01 2.00 182.62 3008.90
   21:01:26.599.08-May-2021 4593.01 3777.56 69.01 2.00 182.82 3008.90
   21:01:26.799.08-May-2021 4593.01 3777.44 69.01 2.00 183.02 3008.90
   21:01:26.999.08-May-2021 4593.01 3777.44 69.01 2.00 183.22 3008.90
   21:01:27.199.08-May-2021 4593.01 3777.44 69.01 2.00 183.42 3008.90
   21:01:27.399.08-May-2021 4593.01 3777.57 69.01 2.00 183.62 3008.90
   21:01:27.599.08-May-2021 4593.01 3777.63 69.01 2.00 183.82 3008.90
