~Version Information
 VERS.                  2.0:   CWLS log ASCII Standard -VERSION 2.0
 WRAP.                   NO:   One line per depth step
~Well Information Block
#MNEM.UNIT     VALUE/NAME     DESCRIPTION
#---------     -----------    ---------------------------
 STRT.S             23:15:39 08-May-21: START TIME 23:15:39 08-May-21
 STOP.S             23:22:30 08-May-21: STOP TIME  23:22:30 08-May-21
 STEP.S                   0.00: STEP TIME
 NULL.                 -999.25: NULL VALUE
 PROV.                    Baku:  PROVINCE
 STAT.                    Baku:  STATE NAME
 SON .        AZ-XX-0906571588:  JOB NUMBER
 WTYP.                Deviated:  WELL TYPE
 COMP.     BP Exploration (Caspian Sea) ltd:  COMPANY
 BASE.              Azerbaijan:  LOGGING EQUIPMENT BASE LOCATION
 REGN.                   EESSA:  REGION
 CTRY.              Azerbaijan:  COUNTRY NAME
 FLD .                     ACG:  FIELD NAME
 WELL.                     J28:  WELL NAME
 RIG .             West Chirag:  RIG NAME
 DMF .             Drill Floor:  DRILL MEAS FROM
 PDAT.       Caspian Sea Level:  PERMANENT DATUM
 HPTY.       Minimum Curvature:  HOLE POS TYPE
 MDS .        Operator Entered:  MAG DATA SOURCE
 NREF.                    Grid:  NORTH REFERENCE
 SRVC.          TURAN DRILLING:  CONTRACTOR
 JOBN.        AZ-XX-0906571588:  JOB TICKET NUMB
 DCON.     Halliburton Sperry Drilling:  DIRECTNL CONTR
 STIM.      00.44.00 11-Feb-21:  START TIME
 DATE.      00.00.00 05-May-21:  END TIME
 SPUD.               13-Feb-21:  SPUD DATE
 MWDS.                    Baku:  MWD SHOP
 DOE .                     N/A:  DOE NUMBER
 UNIT.                     N/A:  LOGGING EQUIPMENT ID
 UWI .                     N/A:  UNIQUE WELL IDENTIFIER
 API .                     N/A:  API NUMBER
 CNTY.                        :  COUNTY
 LOC .                        :  LOCATION
 LMF .             Drill Floor:  LOG MEASURED FROM
 TVDS.m                  43.00:  TVDSS CORRECTN
 SDEP.m                 341.00:  START DEPTH
 EGL .m                   0.00:  GROUND ELEVATION
 WDMS.m                 169.80:  WD ELEV
 AGAP.m                  43.00:  AIR GAP
 EPD .m                   0.00:  ELEVATION
 APD .m                  43.00:  DEPTH ABOVE PD
 LATI.deg                40.13:  LATITUDE
 LONG.deg                51.22:  LONGITUDE
 UTMY.m             4443793.85:  UTM Y
 UTMX.m              519005.06:  UTM X
 WHEW.m                 -11.57:  WELL HEAD E/W
 WHNS.m                   8.57:  WELL HEAD N/S
 VSEW.m                 -11.57:  VERT SEC E/W
 VSNS.m                   8.57:  VERT SEC N/S
 DFWL.m                   0.00:  DISTANCE FWL
 DFSL.m                   0.00:  DISTANCE FSL
 VSDR.deg               299.34:  VERT SEC DIRECT
 GVFD.g                   1.00:  GRAVITY FIELD
 AZTC.deg                 6.36:  AZM TOTAL CORR
 MFLD.nT              50391.00:  MAGNETIC FIELD
 MDIP.deg                59.65:  MAGNETIC DIP
 MDEC.deg                 6.48:  MAGNETIC DECL
 GRDC.deg                 0.12:  GRID CORRECTION
 DEP .m                 334.96:  DEPTH
 TDD .m                1407.26:  TOTAL DEPTH (DRILLER)
 EKB .m                  43.00:  KB ELEVATION
 EDF .m                  43.00:  DF ELEVATION
 TDL .m                 228.00:  TOTAL DEPTH (LOGGER)
 VSC .                       0:  VS TO CLOSURE
 MAGU.                 1854484:  MAGUTM CHECKSUM
~Parameter Information Block
#MNEM.UNIT       Value        Description
#---------     -----------    ---------------------------
 AV  .mps                 4.00:  Ann Velocity 
 AVMX.mps                 4.73:  Max Ann Veloc 
 AZIF.deg               304.48:  Azm, Final 
 BHAT.        Rotary Steerable:  BHA Type 
 BREV.rev            257300.00:  Rev Bit Total 
 BROT.°/30m               0.00:  Build Rotating 
 BS  .in                  8.50:  Bit Size 
 BSZ .in                  8.50:  Bit Size 
 BTPL.psig              589.00:  Bit Press Loss 
 CABU.                      No:  Customer Abuse 
 CGEO.          Mubariz ghayev:  Customer Geo 
 COMM.                     dˆ[:  Run Comments 1 
 TCS .hr                 64.25:  Time Ciculation Ended 
 CV  .mps                 3.50:  Crit Velocity 
 CVMX.mps                 4.52:  Max Crit Veloc 
 DD1 .             Aziz Aliyev:  Direct Drillr 1 
 DD2 .         Intigam Rahimov:  Direct Drillr 2 
 DD3 .          Rashad Habibov:  Direct Drillr 3 
 DDSV.               Geo-Pilot:  DD Service 
 DEFF.%                  98.00:  % Det Eff 
 DLRX.°/30m               0.00:  Dogleg Rot Max 
 DLSO.°/30m               0.00:  Dogleg Oriented 
 DLSX.°/30m               0.00:  Dogleg Str Max 
 DRET.      10.45.04 08-May-21:  Drill End Time 
 DRST.      03.30.04 04-May-21:  Drill Start Tim 
 DTIM.hr                 14.97:  Time Drilling 
 EDEP.m                4640.01:  End Depth 
 ENG1.         Dail Mahammadov:  Engineer 1 
 ENG2.           Eldar Hajiyev:  Engineer 2 
 ENG3.       Bakhtiar Jabbarli:  Engineer 3 
 ENG4.       Natik Hasanagayev:  Engineer 4 
 ETIM.      09.30.04 14-May-21:  End Time 
 FLOI.gpm               460.00:  Flow In 
 FLON.gpm               200.00:  Flow In Min 
 FLOS.cptm                0.00:  Fluid Loss 
 FLOX.gpm               505.00:  Flow In Max 
 HFLO.                      No:  High Flow 
 HPRE.                      No:  High Pressure 
 HTEM.                      No:  High Temp 
 HYDO.m                   1.80:  Hydro Offset 
 IFIN.deg                66.71:  Inc, Final 
 IMAX.deg                67.03:  Inc Max 
 IMIN.deg                66.63:  Inc Min 
 IMND.m                4550.58:  Inc Min Depth 
 IMXD.m                4439.01:  Inc Max Depth 
 JARR.                      No:  Jarring 
 LETM.      10.45.04 08-May-21:  Log End Time 
 LOST.hr                     0:  Lost Rig Time 
 LSTM.      03.30.04 04-May-21:  Log Start Time 
 MDCL.ppm             37000.00:  Mud Chlorides 
 MDES.     Inversion Oil/Synthetic:  Mud Desc 
 DFD .sg                  1.38:  Mud Density 
 MDMN.sg                  1.35:  Dens Mud Min 
 MDMX.sg                  1.40:  Dens Mud Max 
 MOIL.                   57.40:  Run Mud Oil % 
 MOWR.                   70:30:  Run Mud OWR 
 MSND.                    0.00:  Run Mud Sand % 
 MSOL.                   18.00:  Run Mud Solids% 
 DFV .spqt               71.00:  Mud Viscosity 
 MWOD.in                  6.75:  MWD Tool OD 
 MWSI.                      No:  Serv Intrp, MWD 
 OTIM.hr                242.76:  Time Operating 
 PCON.           Look Like New:  Pad Condition 
 PMAX.psia            12183.92:  Press Op, Max 
 PV  .cP                 27.00:  Mud PV 
 RUN .                    1300:  Run Number 
 ROPA.m/hr               15.00:  ROP Avg 
 ROPN.m/hr                9.00:  ROP Min 
 ROPX.m/hr               19.00:  ROP Max 
 RPMA.rpm               120.00:  RPM Surface Avg 
 RPMN.rpm               100.00:  RPM Surface Min 
 RPMX.rpm               120.00:  RPM Surface Max 
 RRUN.                    1300:  Rig Run Number 
 RTIM.hr                  5.00:  Time Reaming 
 SAZI.deg               304.73:  Azm, Start 
 SDEP.m                4412.01:  Start Depth 
 SIDD.                      No:  Serv Intrp, DD 
 SINC.deg                66.82:  Inc, Start 
 SPPA.psig             2800.00:  SPP Avg 
 SPPN.psig             2610.00:  SPP Min 
 SPPX.psig             3100.00:  SPP Max 
 STIM.      03.30.00 04-May-21:  Start Time 
 SVCS.                 DD, MWD:  Services 
 SVER.                    9.20:  Sperry Version 
 TDAT.m                 228.00:  Tot Depth Attmp 
 TDDF.                      No:  Trip for DD 
 TDLG.m                 228.00:  Tot Depth Loggd 
 TFF .                      No:  Trip for Fail 
 TQAA.f-kp               15.00:  Torque Abs Avg 
 TQAN.f-kp               12.00:  Torque Abs Min 
 TQAX.f-kp               22.00:  Torque Abs Max 
 TRRT.°/30m               0.00:  Turn Rotating 
 MRT .                    HCIM:  Maximum Recorded Temperature 
 TTMX.degC               90.20:  Max Tool Temp 
 VS01.                90627813:  Virtual Str1 SN 
 VS02.                90634712:  Virtual Str2 SN 
 VS03.                90643410:  Virtual Str3 SN 
 VS04.                90634712:  Virtual Str4 SN 
 WBMN.klb                 9.00:  WOB Min 
 WITN.        Elmaddin Rahimov:  Customer Rep 
 WITN.         Haytham Mostafa:  Customer Rep 2 
 WOBA.klb                15.00:  WOB Avg 
 WOBX.klb                23.00:  WOB Max 
 YP  .lhf2               29.00:  Yield Point 
~Curve Information Block
#MNEM.UNIT                 API CODE     Curve Description
#---------               -----------    ---------------------------
 TIME.HHMMSS            00 000 000 000:  GT Time & Date
 GTDEPTH.m              00 000 000 000:  GT Depth
 GTPQH.psia             00 000 000 000:  GT HR Quartz Pressure
 GTTQ.degC              00 000 000 000:  GT Quartz Temperature
 GTTN.NONE              00 000 000 000:  GT Test Number
 GTET.sec               00 000 000 000:  GT Elapsed Test Time
 GTTVD.m                00 000 000 000:  GT True Vertical Depth
#Other Information
#
#WARRANTY: Halliburton will use its best efforts to furnish customers with 
#accurate information and interpretations that are part of, and incident to, the services 
#provided.  However, Halliburton cannot and does not warrant the accuracy 
#or correctness of such information and interpretations.  Under no circumstances should any 
#such information or interpretation be relied upon as the sole basis for any drilling, 
#completion, production, or financial decision or any procedure involving any risk to the 
#safety of any drilling venture, drilling rig or its crew or any other third party.  The 
#Customer has full responsibility for all drilling, completion and production operation.  
#Halliburton makes no representations or warranties, either expressed or 
#implied, including, but not limited to, the implied warranties of merchantability or fitness 
#for a particular purpose, with respect to the services rendered.  In no event will 
#Halliburton be liable for failure to obtain any particular results or for 
#any damages, including, but not limited to, indirect, special or consequential damages, 
#resulting from the use of any information or interpretation provided by Halliburton.
#
~A           TIME           GTDEPTH  GTPQH  GTTQ  GTTN  GTET   GTTVD  
# ...
   23:21:47.544.08-May-2021 4549.51 6835.63 68.55 5.00 367.89 2991.64
   23:21:47.744.08-May-2021 4549.51 6835.63 68.55 5.00 368.09 2991.64
   23:21:47.944.08-May-2021 4549.51 6836.08 68.56 5.00 368.29 2991.64
   23:21:48.144.08-May-2021 4549.51 6835.77 68.56 5.00 368.49 2991.64
   23:21:48.343.08-May-2021 4549.51 6835.55 68.57 5.00 368.69 2991.64
   23:21:48.543.08-May-2021 4549.51 6835.43 68.57 5.00 368.89 2991.64
   23:21:48.743.08-May-2021 4549.51 6835.43 68.57 5.00 369.08 2991.64
   23:21:48.943.08-May-2021 4549.51 6844.53 68.57 5.00 369.28 2991.64
   23:21:49.143.08-May-2021 4549.51 6842.30 68.57 5.00 369.48 2991.64
   23:21:49.343.08-May-2021 4549.51 6841.68 68.58 5.00 369.68 2991.64
   23:21:49.543.08-May-2021 4549.51 6837.63 68.58 5.00 369.88 2991.64
   23:21:49.743.08-May-2021 4549.51 6837.63 68.58 5.00 370.08 2991.64
   23:21:49.943.08-May-2021 4549.51 6837.17 68.58 5.00 370.28 2991.64
   23:21:50.143.08-May-2021 4549.51 6844.81 68.58 5.00 370.48 2991.64
   23:21:50.343.08-May-2021 4549.51 6847.44 68.59 5.00 370.68 2991.64
   23:21:50.543.08-May-2021 4549.51 6840.42 68.59 5.00 370.88 2991.64
   23:21:50.743.08-May-2021 4549.51 6840.42 68.59 5.00 371.08 2991.64
   23:21:50.943.08-May-2021 4549.51 6841.51 68.59 5.00 371.28 2991.64
   23:21:51.143.08-May-2021 4549.51 6846.05 68.59 5.00 371.48 2991.64
   23:21:51.343.08-May-2021 4549.51 6838.70 68.59 5.00 371.68 2991.64
   23:21:51.542.08-May-2021 4549.51 6847.14 68.60 5.00 371.88 2991.64
   23:21:51.742.08-May-2021 4549.51 6847.14 68.60 5.00 372.08 2991.64
   23:21:51.942.08-May-2021 4549.51 6840.78 68.60 5.00 372.28 2991.64
   23:21:52.142.08-May-2021 4549.51 6836.74 68.60 5.00 372.48 2991.64
   23:21:52.342.08-May-2021 4549.51 6837.31 68.60 5.00 372.68 2991.64
   23:21:52.542.08-May-2021 4549.51 6837.52 68.60 5.00 372.88 2991.64
   23:21:52.742.08-May-2021 4549.51 6837.52 68.60 5.00 373.08 2991.64
   23:21:52.942.08-May-2021 4549.51 6837.63 68.60 5.00 373.28 2991.64
   23:21:53.142.08-May-2021 4549.51 6837.65 68.60 5.00 373.48 2991.64
   23:21:53.342.08-May-2021 4549.51 6837.81 68.61 5.00 373.68 2991.64
   23:21:53.542.08-May-2021 4549.51 6838.13 68.61 5.00 373.88 2991.64
   23:21:53.742.08-May-2021 4549.51 6838.13 68.61 5.00 374.08 2991.64
   23:21:53.942.08-May-2021 4549.51 6839.02 68.61 5.00 374.28 2991.64
   23:21:54.142.08-May-2021 4549.51 6847.96 68.61 5.00 374.48 2991.64
   23:21:54.342.08-May-2021 4549.51 6852.21 68.61 5.00 374.68 2991.64
   23:21:54.542.08-May-2021 4549.51 6844.80 68.61 5.00 374.88 2991.64
   23:21:54.741.08-May-2021 4549.51 6844.80 68.61 5.00 375.08 2991.64
   23:21:54.941.08-May-2021 4549.51 6840.52 68.58 5.00 375.28 2991.64
   23:21:55.141.08-May-2021 4549.51 6840.80 68.61 5.00 375.48 2991.64
   23:21:55.341.08-May-2021 4549.51 6840.03 68.61 5.00 375.68 2991.64
   23:21:55.541.08-May-2021 4549.51 6839.64 68.61 5.00 375.88 2991.64
   23:21:55.741.08-May-2021 4549.51 6839.64 68.61 5.00 376.08 2991.64
   23:21:55.941.08-May-2021 4549.51 6837.88 68.61 5.00 376.28 2991.64
   23:21:56.141.08-May-2021 4549.51 6837.42 68.61 5.00 376.48 2991.64
   23:21:56.341.08-May-2021 4549.51 6837.15 68.61 5.00 376.68 2991.64
   23:21:56.541.08-May-2021 4549.51 6836.69 68.61 5.00 376.88 2991.64
   23:21:56.741.08-May-2021 4549.51 6836.69 68.61 5.00 377.08 2991.64
   23:21:56.941.08-May-2021 4549.51 6843.77 68.61 5.00 377.28 2991.64
   23:21:57.141.08-May-2021 4549.51 6841.64 68.61 5.00 377.48 2991.64
   23:21:57.341.08-May-2021 4549.51 6837.90 68.61 5.00 377.68 2991.64
   23:21:57.541.08-May-2021 4549.51 6839.55 68.61 5.00 377.88 2991.64
   23:21:57.741.08-May-2021 4549.51 6839.55 68.61 5.00 378.08 2991.64
   23:21:57.940.08-May-2021 4549.51 6845.86 68.62 5.00 378.28 2991.64
   23:21:58.140.08-May-2021 4549.51 6848.04 68.62 5.00 378.48 2991.64
   23:21:58.340.08-May-2021 4549.51 6840.42 68.62 5.00 378.68 2991.64
   23:21:58.540.08-May-2021 4549.51 6837.05 68.62 5.00 378.88 2991.64
   23:21:58.740.08-May-2021 4549.51 6837.05 68.62 5.00 379.08 2991.64
   23:21:58.940.08-May-2021 4549.51 6843.57 68.62 5.00 379.28 2991.64
   23:21:59.140.08-May-2021 4549.51 6840.95 68.62 5.00 379.48 2991.64
   23:21:59.340.08-May-2021 4549.51 6838.98 68.62 5.00 379.68 2991.64
   23:21:59.540.08-May-2021 4549.51 6851.76 68.62 5.00 379.88 2991.64
   23:21:59.740.08-May-2021 4549.51 6851.76 68.62 5.00 380.08 2991.64
   23:21:59.940.08-May-2021 4549.51 6841.52 68.62 5.00 380.28 2991.64
   23:22:00.140.08-May-2021 4549.51 6839.77 68.62 5.00 380.48 2991.64
   23:22:00.340.08-May-2021 4549.51 6840.12 68.62 5.00 380.68 2991.64
   23:22:00.540.08-May-2021 4549.51 6839.06 68.62 5.00 380.88 2991.64
   23:22:00.740.08-May-2021 4549.51 6839.06 68.62 5.00 381.08 2991.64
   23:22:00.940.08-May-2021 4549.51 6838.95 68.61 5.00 381.28 2991.64
   23:22:01.140.08-May-2021 4549.51 6838.68 68.61 5.00 381.48 2991.64
   23:22:01.339.08-May-2021 4549.51 6838.73 68.61 5.00 381.68 2991.64
   23:22:01.539.08-May-2021 4549.51 6838.73 68.61 5.00 381.88 2991.64
   23:22:01.739.08-May-2021 4549.51 6838.73 68.61 5.00 382.08 2991.64
   23:22:01.939.08-May-2021 4549.51 6839.63 68.61 5.00 382.28 2991.64
   23:22:02.139.08-May-2021 4549.51 6848.69 68.61 5.00 382.48 2991.64
   23:22:02.339.08-May-2021 4549.51 6844.49 68.61 5.00 382.68 2991.64
   23:22:02.539.08-May-2021 4549.51 6843.00 68.61 5.00 382.88 2991.64
   23:22:02.739.08-May-2021 4549.51 6843.00 68.61 5.00 383.08 2991.64
   23:22:02.939.08-May-2021 4549.51 6842.44 68.61 5.00 383.28 2991.64
   23:22:03.139.08-May-2021 4549.51 6840.13 68.61 5.00 383.48 2991.64
   23:22:03.339.08-May-2021 4549.51 6838.96 68.61 5.00 383.68 2991.64
   23:22:03.539.08-May-2021 4549.51 6838.84 68.61 5.00 383.88 2991.64
   23:22:03.739.08-May-2021 4549.51 6838.84 68.61 5.00 384.08 2991.64
   23:22:03.939.08-May-2021 4549.51 6837.82 68.61 5.00 384.28 2991.64
   23:22:04.139.08-May-2021 4549.51 6837.36 68.61 5.00 384.48 2991.64
   23:22:04.339.08-May-2021 4549.51 6837.31 68.61 5.00 384.68 2991.64
   23:22:04.538.08-May-2021 4549.51 6837.84 68.61 5.00 384.88 2991.64
   23:22:04.738.08-May-2021 4549.51 6837.84 68.61 5.00 385.08 2991.64
   23:22:04.938.08-May-2021 4549.51 6845.87 68.61 5.00 385.28 2991.64
   23:22:05.138.08-May-2021 4549.51 6846.69 68.61 5.00 385.48 2991.64
   23:22:05.338.08-May-2021 4549.51 6840.99 68.61 5.00 385.68 2991.64
   23:22:05.538.08-May-2021 4549.51 6838.71 68.61 5.00 385.88 2991.64
   23:22:05.738.08-May-2021 4549.51 6838.71 68.61 5.00 386.08 2991.64
   23:22:05.938.08-May-2021 4549.51 6839.06 68.61 5.00 386.28 2991.64
   23:22:06.138.08-May-2021 4549.51 6844.74 68.61 5.00 386.48 2991.64
   23:22:06.338.08-May-2021 4549.51 6845.80 68.61 5.00 386.68 2991.64
   23:22:06.538.08-May-2021 4549.51 6840.47 68.61 5.00 386.88 2991.64
   23:22:06.738.08-May-2021 4549.51 6840.47 68.61 5.00 387.08 2991.64
   23:22:06.938.08-May-2021 4549.51 6848.36 68.61 5.00 387.28 2991.64
   23:22:07.138.08-May-2021 4549.51 6841.46 68.61 5.00 387.48 2991.64
   23:22:07.338.08-May-2021 4549.51 6841.01 68.61 5.00 387.68 2991.64
   23:22:07.538.08-May-2021 4549.51 6838.40 68.61 5.00 387.88 2991.64
   23:22:07.737.08-May-2021 4549.51 6838.40 68.61 5.00 388.08 2991.64
   23:22:07.937.08-May-2021 4549.51 6844.09 68.61 5.00 388.28 2991.64
   23:22:08.137.08-May-2021 4549.51 6847.71 68.61 5.00 388.48 2991.64
   23:22:08.337.08-May-2021 4549.51 6841.67 68.61 5.00 388.68 2991.64
   23:22:08.537.08-May-2021 4549.51 6838.61 68.61 5.00 388.88 2991.64
   23:22:08.737.08-May-2021 4549.51 6838.61 68.61 5.00 389.08 2991.64
   23:22:08.937.08-May-2021 4549.51 6838.62 68.61 5.00 389.28 2991.64
   23:22:09.137.08-May-2021 4549.51 6838.29 68.61 5.00 389.48 2991.64
   23:22:09.337.08-May-2021 4549.51 6838.31 68.61 5.00 389.68 2991.64
   23:22:09.537.08-May-2021 4549.51 6838.27 68.61 5.00 389.88 2991.64
   23:22:09.737.08-May-2021 4549.51 6838.27 68.61 5.00 390.08 2991.64
   23:22:09.937.08-May-2021 4549.51 6838.88 68.60 5.00 390.28 2991.64
   23:22:10.137.08-May-2021 4549.51 6839.68 68.60 5.00 390.48 2991.64
   23:22:10.337.08-May-2021 4549.51 6838.60 68.60 5.00 390.68 2991.64
