~Version Information
 VERS.                  2.0:   CWLS log ASCII Standard -VERSION 2.0
 WRAP.                   NO:   One line per depth step
~Well Information Block
#MNEM.UNIT     VALUE/NAME     DESCRIPTION
#---------     -----------    ---------------------------
 STRT.S             22:20:35 08-May-21: START TIME 22:20:35 08-May-21
 STOP.S             22:27:08 08-May-21: STOP TIME  22:27:08 08-May-21
 STEP.S                   0.00: STEP TIME
 NULL.                 -999.25: NULL VALUE
 PROV.                    Baku:  PROVINCE
 STAT.                    Baku:  STATE NAME
 SON .        AZ-XX-0906571588:  JOB NUMBER
 WTYP.                Deviated:  WELL TYPE
 COMP.     BP Exploration (Caspian Sea) ltd:  COMPANY
 BASE.              Azerbaijan:  LOGGING EQUIPMENT BASE LOCATION
 REGN.                   EESSA:  REGION
 CTRY.              Azerbaijan:  COUNTRY NAME
 FLD .                     ACG:  FIELD NAME
 WELL.                     J28:  WELL NAME
 RIG .             West Chirag:  RIG NAME
 DMF .             Drill Floor:  DRILL MEAS FROM
 PDAT.       Caspian Sea Level:  PERMANENT DATUM
 HPTY.       Minimum Curvature:  HOLE POS TYPE
 MDS .        Operator Entered:  MAG DATA SOURCE
 NREF.                    Grid:  NORTH REFERENCE
 SRVC.          TURAN DRILLING:  CONTRACTOR
 JOBN.        AZ-XX-0906571588:  JOB TICKET NUMB
 DCON.     Halliburton Sperry Drilling:  DIRECTNL CONTR
 STIM.      00.44.00 11-Feb-21:  START TIME
 DATE.      00.00.00 05-May-21:  END TIME
 SPUD.               13-Feb-21:  SPUD DATE
 MWDS.                    Baku:  MWD SHOP
 DOE .                     N/A:  DOE NUMBER
 UNIT.                     N/A:  LOGGING EQUIPMENT ID
 UWI .                     N/A:  UNIQUE WELL IDENTIFIER
 API .                     N/A:  API NUMBER
 CNTY.                        :  COUNTY
 LOC .                        :  LOCATION
 LMF .             Drill Floor:  LOG MEASURED FROM
 TVDS.m                  43.00:  TVDSS CORRECTN
 SDEP.m                 341.00:  START DEPTH
 EGL .m                   0.00:  GROUND ELEVATION
 WDMS.m                 169.80:  WD ELEV
 AGAP.m                  43.00:  AIR GAP
 EPD .m                   0.00:  ELEVATION
 APD .m                  43.00:  DEPTH ABOVE PD
 LATI.deg                40.13:  LATITUDE
 LONG.deg                51.22:  LONGITUDE
 UTMY.m             4443793.85:  UTM Y
 UTMX.m              519005.06:  UTM X
 WHEW.m                 -11.57:  WELL HEAD E/W
 WHNS.m                   8.57:  WELL HEAD N/S
 VSEW.m                 -11.57:  VERT SEC E/W
 VSNS.m                   8.57:  VERT SEC N/S
 DFWL.m                   0.00:  DISTANCE FWL
 DFSL.m                   0.00:  DISTANCE FSL
 VSDR.deg               299.34:  VERT SEC DIRECT
 GVFD.g                   1.00:  GRAVITY FIELD
 AZTC.deg                 6.36:  AZM TOTAL CORR
 MFLD.nT              50391.00:  MAGNETIC FIELD
 MDIP.deg                59.65:  MAGNETIC DIP
 MDEC.deg                 6.48:  MAGNETIC DECL
 GRDC.deg                 0.12:  GRID CORRECTION
 DEP .m                 334.96:  DEPTH
 TDD .m                1407.26:  TOTAL DEPTH (DRILLER)
 EKB .m                  43.00:  KB ELEVATION
 EDF .m                  43.00:  DF ELEVATION
 TDL .m                 228.00:  TOTAL DEPTH (LOGGER)
 VSC .                       0:  VS TO CLOSURE
 MAGU.                 1854484:  MAGUTM CHECKSUM
~Parameter Information Block
#MNEM.UNIT       Value        Description
#---------     -----------    ---------------------------
 AV  .mps                 4.00:  Ann Velocity 
 AVMX.mps                 4.73:  Max Ann Veloc 
 AZIF.deg               304.48:  Azm, Final 
 BHAT.        Rotary Steerable:  BHA Type 
 BREV.rev            257300.00:  Rev Bit Total 
 BROT.°/30m               0.00:  Build Rotating 
 BS  .in                  8.50:  Bit Size 
 BSZ .in                  8.50:  Bit Size 
 BTPL.psig              589.00:  Bit Press Loss 
 CABU.                      No:  Customer Abuse 
 CGEO.          Mubariz ghayev:  Customer Geo 
 COMM.                     lÿM:  Run Comments 1 
 TCS .hr                 64.25:  Time Ciculation Ended 
 CV  .mps                 3.50:  Crit Velocity 
 CVMX.mps                 4.52:  Max Crit Veloc 
 DD1 .             Aziz Aliyev:  Direct Drillr 1 
 DD2 .         Intigam Rahimov:  Direct Drillr 2 
 DD3 .          Rashad Habibov:  Direct Drillr 3 
 DDSV.               Geo-Pilot:  DD Service 
 DEFF.%                  98.00:  % Det Eff 
 DLRX.°/30m               0.00:  Dogleg Rot Max 
 DLSO.°/30m               0.00:  Dogleg Oriented 
 DLSX.°/30m               0.00:  Dogleg Str Max 
 DRET.      10.45.04 08-May-21:  Drill End Time 
 DRST.      03.30.04 04-May-21:  Drill Start Tim 
 DTIM.hr                 14.97:  Time Drilling 
 EDEP.m                4640.01:  End Depth 
 ENG1.         Dail Mahammadov:  Engineer 1 
 ENG2.           Eldar Hajiyev:  Engineer 2 
 ENG3.       Bakhtiar Jabbarli:  Engineer 3 
 ENG4.       Natik Hasanagayev:  Engineer 4 
 ETIM.      09.30.04 14-May-21:  End Time 
 FLOI.gpm               460.00:  Flow In 
 FLON.gpm               200.00:  Flow In Min 
 FLOS.cptm                0.00:  Fluid Loss 
 FLOX.gpm               505.00:  Flow In Max 
 HFLO.                      No:  High Flow 
 HPRE.                      No:  High Pressure 
 HTEM.                      No:  High Temp 
 HYDO.m                   1.80:  Hydro Offset 
 IFIN.deg                66.71:  Inc, Final 
 IMAX.deg                67.03:  Inc Max 
 IMIN.deg                66.63:  Inc Min 
 IMND.m                4550.58:  Inc Min Depth 
 IMXD.m                4439.01:  Inc Max Depth 
 JARR.                      No:  Jarring 
 LETM.      10.45.04 08-May-21:  Log End Time 
 LOST.hr                     0:  Lost Rig Time 
 LSTM.      03.30.04 04-May-21:  Log Start Time 
 MDCL.ppm             37000.00:  Mud Chlorides 
 MDES.     Inversion Oil/Synthetic:  Mud Desc 
 DFD .sg                  1.38:  Mud Density 
 MDMN.sg                  1.35:  Dens Mud Min 
 MDMX.sg                  1.40:  Dens Mud Max 
 MOIL.                   57.40:  Run Mud Oil % 
 MOWR.                   70:30:  Run Mud OWR 
 MSND.                    0.00:  Run Mud Sand % 
 MSOL.                   18.00:  Run Mud Solids% 
 DFV .spqt               71.00:  Mud Viscosity 
 MWOD.in                  6.75:  MWD Tool OD 
 MWSI.                      No:  Serv Intrp, MWD 
 OTIM.hr                242.76:  Time Operating 
 PCON.           Look Like New:  Pad Condition 
 PMAX.psia            12183.92:  Press Op, Max 
 PV  .cP                 27.00:  Mud PV 
 RUN .                    1300:  Run Number 
 ROPA.m/hr               15.00:  ROP Avg 
 ROPN.m/hr                9.00:  ROP Min 
 ROPX.m/hr               19.00:  ROP Max 
 RPMA.rpm               120.00:  RPM Surface Avg 
 RPMN.rpm               100.00:  RPM Surface Min 
 RPMX.rpm               120.00:  RPM Surface Max 
 RRUN.                    1300:  Rig Run Number 
 RTIM.hr                  5.00:  Time Reaming 
 SAZI.deg               304.73:  Azm, Start 
 SDEP.m                4412.01:  Start Depth 
 SIDD.                      No:  Serv Intrp, DD 
 SINC.deg                66.82:  Inc, Start 
 SPPA.psig             2800.00:  SPP Avg 
 SPPN.psig             2610.00:  SPP Min 
 SPPX.psig             3100.00:  SPP Max 
 STIM.      03.30.00 04-May-21:  Start Time 
 SVCS.                 DD, MWD:  Services 
 SVER.                    9.20:  Sperry Version 
 TDAT.m                 228.00:  Tot Depth Attmp 
 TDDF.                      No:  Trip for DD 
 TDLG.m                 228.00:  Tot Depth Loggd 
 TFF .                      No:  Trip for Fail 
 TQAA.f-kp               15.00:  Torque Abs Avg 
 TQAN.f-kp               12.00:  Torque Abs Min 
 TQAX.f-kp               22.00:  Torque Abs Max 
 TRRT.°/30m               0.00:  Turn Rotating 
 MRT .                    HCIM:  Maximum Recorded Temperature 
 TTMX.degC               90.20:  Max Tool Temp 
 VS01.                90627813:  Virtual Str1 SN 
 VS02.                90634712:  Virtual Str2 SN 
 VS03.                90643410:  Virtual Str3 SN 
 VS04.                90634712:  Virtual Str4 SN 
 WBMN.klb                 9.00:  WOB Min 
 WITN.        Elmaddin Rahimov:  Customer Rep 
 WITN.         Haytham Mostafa:  Customer Rep 2 
 WOBA.klb                15.00:  WOB Avg 
 WOBX.klb                23.00:  WOB Max 
 YP  .lhf2               29.00:  Yield Point 
~Curve Information Block
#MNEM.UNIT                 API CODE     Curve Description
#---------               -----------    ---------------------------
 TIME.HHMMSS            00 000 000 000:  GT Time & Date
 GTDEPTH.m              00 000 000 000:  GT Depth
 GTPQH.psia             00 000 000 000:  GT HR Quartz Pressure
 GTTQ.degC              00 000 000 000:  GT Quartz Temperature
 GTTN.NONE              00 000 000 000:  GT Test Number
 GTET.sec               00 000 000 000:  GT Elapsed Test Time
 GTTVD.m                00 000 000 000:  GT True Vertical Depth
#Other Information
#
#WARRANTY: Halliburton will use its best efforts to furnish customers with 
#accurate information and interpretations that are part of, and incident to, the services 
#provided.  However, Halliburton cannot and does not warrant the accuracy 
#or correctness of such information and interpretations.  Under no circumstances should any 
#such information or interpretation be relied upon as the sole basis for any drilling, 
#completion, production, or financial decision or any procedure involving any risk to the 
#safety of any drilling venture, drilling rig or its crew or any other third party.  The 
#Customer has full responsibility for all drilling, completion and production operation.  
#Halliburton makes no representations or warranties, either expressed or 
#implied, including, but not limited to, the implied warranties of merchantability or fitness 
#for a particular purpose, with respect to the services rendered.  In no event will 
#Halliburton be liable for failure to obtain any particular results or for 
#any damages, including, but not limited to, indirect, special or consequential damages, 
#resulting from the use of any information or interpretation provided by Halliburton.
#
~A           TIME           GTDEPTH  GTPQH  GTTQ  GTTN  GTET   GTTVD  
# ...
   22:23:16.000.08-May-2021 4569.01  719.36 68.48 4.00 161.00 2999.38
   22:23:16.200.08-May-2021 4569.01  719.36 68.48 4.00 161.20 2999.38
   22:23:16.400.08-May-2021 4569.01  720.14 68.48 4.00 161.40 2999.38
   22:23:16.600.08-May-2021 4569.01  720.40 68.48 4.00 161.60 2999.38
   22:23:16.800.08-May-2021 4569.01  720.27 68.48 4.00 161.80 2999.38
   22:23:17.000.08-May-2021 4569.01  720.04 68.48 4.00 162.00 2999.38
   22:23:17.200.08-May-2021 4569.01  720.04 68.48 4.00 162.20 2999.38
   22:23:17.400.08-May-2021 4569.01  720.64 68.48 4.00 162.40 2999.38
   22:23:17.600.08-May-2021 4569.01  720.78 68.48 4.00 162.60 2999.38
   22:23:17.800.08-May-2021 4569.01  720.55 68.48 4.00 162.80 2999.38
   22:23:18.000.08-May-2021 4569.01  721.10 68.48 4.00 163.00 2999.38
   22:23:18.200.08-May-2021 4569.01  721.10 68.48 4.00 163.20 2999.38
   22:23:18.400.08-May-2021 4569.01  720.99 68.48 4.00 163.40 2999.38
   22:23:18.600.08-May-2021 4569.01  720.98 68.48 4.00 163.60 2999.38
   22:23:18.800.08-May-2021 4569.01  721.14 68.48 4.00 163.80 2999.38
   22:23:19.000.08-May-2021 4569.01  720.87 68.48 4.00 164.00 2999.38
   22:23:19.200.08-May-2021 4569.01  720.87 68.48 4.00 164.20 2999.38
   22:23:19.400.08-May-2021 4569.01  721.55 68.48 4.00 164.40 2999.38
   22:23:19.600.08-May-2021 4569.01  721.66 68.48 4.00 164.60 2999.38
   22:23:19.800.08-May-2021 4569.01  721.69 68.48 4.00 164.80 2999.38
   22:23:20.000.08-May-2021 4569.01  721.76 68.48 4.00 165.00 2999.38
   22:23:20.200.08-May-2021 4569.01  721.76 68.48 4.00 165.20 2999.38
   22:23:20.400.08-May-2021 4569.01  722.00 68.48 4.00 165.40 2999.38
   22:23:20.600.08-May-2021 4569.01  722.08 68.48 4.00 165.60 2999.38
   22:23:20.800.08-May-2021 4569.01  722.15 68.48 4.00 165.80 2999.38
   22:23:21.000.08-May-2021 4569.01  722.28 68.48 4.00 166.00 2999.38
   22:23:21.200.08-May-2021 4569.01  722.28 68.48 4.00 166.20 2999.38
   22:23:21.400.08-May-2021 4569.01  722.41 68.48 4.00 166.40 2999.38
   22:23:21.600.08-May-2021 4569.01  722.15 68.48 4.00 166.60 2999.38
   22:23:21.800.08-May-2021 4569.01  722.96 68.48 4.00 166.80 2999.38
   22:23:22.000.08-May-2021 4569.01  722.73 68.48 4.00 167.00 2999.38
   22:23:22.200.08-May-2021 4569.01  722.73 68.48 4.00 167.20 2999.38
   22:23:22.400.08-May-2021 4569.01  722.93 68.48 4.00 167.40 2999.38
   22:23:22.600.08-May-2021 4569.01  723.01 68.48 4.00 167.60 2999.38
   22:23:22.800.08-May-2021 4569.01  723.09 68.48 4.00 167.80 2999.38
   22:23:23.000.08-May-2021 4569.01  723.16 68.48 4.00 168.00 2999.38
   22:23:23.200.08-May-2021 4569.01  723.16 68.48 4.00 168.20 2999.38
   22:23:23.400.08-May-2021 4569.01  723.22 68.48 4.00 168.40 2999.38
   22:23:23.600.08-May-2021 4569.01  723.42 68.48 4.00 168.60 2999.38
   22:23:23.800.08-May-2021 4569.01  723.53 68.48 4.00 168.80 2999.38
   22:23:24.000.08-May-2021 4569.01  723.62 68.48 4.00 169.00 2999.38
   22:23:24.200.08-May-2021 4569.01  723.62 68.48 4.00 169.20 2999.38
   22:23:24.400.08-May-2021 4569.01  724.02 68.48 4.00 169.40 2999.38
   22:23:24.600.08-May-2021 4569.01  723.82 68.48 4.00 169.60 2999.38
   22:23:24.800.08-May-2021 4569.01  724.04 68.48 4.00 169.80 2999.38
   22:23:25.000.08-May-2021 4569.01  724.13 68.48 4.00 170.00 2999.38
   22:23:25.200.08-May-2021 4569.01  724.13 68.48 4.00 170.20 2999.38
   22:23:25.400.08-May-2021 4569.01  724.60 68.48 4.00 170.40 2999.38
   22:23:25.600.08-May-2021 4569.01  724.26 68.48 4.00 170.60 2999.38
   22:23:25.800.08-May-2021 4569.01  724.53 68.48 4.00 170.80 2999.38
   22:23:26.000.08-May-2021 4569.01  724.45 68.48 4.00 171.00 2999.38
   22:23:26.200.08-May-2021 4569.01  724.45 68.48 4.00 171.20 2999.38
   22:23:26.400.08-May-2021 4569.01  724.82 68.48 4.00 171.40 2999.38
   22:23:26.600.08-May-2021 4569.01  724.59 68.48 4.00 171.60 2999.38
   22:23:26.800.08-May-2021 4569.01  724.51 68.48 4.00 171.80 2999.38
   22:23:27.000.08-May-2021 4569.01  724.98 68.48 4.00 172.00 2999.38
   22:23:27.200.08-May-2021 4569.01  724.98 68.48 4.00 172.20 2999.38
   22:23:27.400.08-May-2021 4569.01  725.16 68.48 4.00 172.40 2999.38
   22:23:27.600.08-May-2021 4569.01  725.06 68.48 4.00 172.60 2999.38
   22:23:27.800.08-May-2021 4569.01  725.17 68.48 4.00 172.80 2999.38
   22:23:28.000.08-May-2021 4569.01  725.23 68.48 4.00 173.00 2999.38
   22:23:28.200.08-May-2021 4569.01  725.23 68.48 4.00 173.20 2999.38
   22:23:28.400.08-May-2021 4569.01  725.38 68.48 4.00 173.40 2999.38
   22:23:28.600.08-May-2021 4569.01  725.45 68.48 4.00 173.60 2999.38
   22:23:28.800.08-May-2021 4569.01  725.51 68.48 4.00 173.80 2999.38
   22:23:29.000.08-May-2021 4569.01  725.57 68.48 4.00 174.00 2999.38
   22:23:29.200.08-May-2021 4569.01  725.57 68.48 4.00 174.20 2999.38
   22:23:29.400.08-May-2021 4569.01  725.31 68.48 4.00 174.40 2999.38
   22:23:29.600.08-May-2021 4569.01  726.26 68.48 4.00 174.60 2999.38
   22:23:29.800.08-May-2021 4569.01  725.99 68.48 4.00 174.80 2999.38
   22:23:30.000.08-May-2021 4569.01  726.13 68.48 4.00 175.00 2999.38
   22:23:30.200.08-May-2021 4569.01  726.13 68.48 4.00 175.20 2999.38
   22:23:30.400.08-May-2021 4569.01  726.19 68.48 4.00 175.40 2999.38
   22:23:30.600.08-May-2021 4569.01  726.26 68.48 4.00 175.60 2999.38
   22:23:30.800.08-May-2021 4569.01  726.30 68.48 4.00 175.80 2999.38
   22:23:31.000.08-May-2021 4569.01  726.38 68.48 4.00 176.00 2999.38
   22:23:31.200.08-May-2021 4569.01  726.38 68.48 4.00 176.20 2999.38
   22:23:31.400.08-May-2021 4569.01  726.43 68.48 4.00 176.40 2999.38
   22:23:31.600.08-May-2021 4569.01  726.53 68.48 4.00 176.60 2999.38
   22:23:31.800.08-May-2021 4569.01  726.61 68.48 4.00 176.80 2999.38
   22:23:32.000.08-May-2021 4569.01  726.33 68.48 4.00 177.00 2999.38
   22:23:32.200.08-May-2021 4569.01  726.33 68.48 4.00 177.20 2999.38
   22:23:32.400.08-May-2021 4569.01  726.84 68.48 4.00 177.40 2999.38
   22:23:32.600.08-May-2021 4569.01  726.92 68.48 4.00 177.60 2999.38
   22:23:32.800.08-May-2021 4569.01  726.92 68.49 4.00 177.80 2999.38
   22:23:33.000.08-May-2021 4569.01  726.80 68.48 4.00 178.00 2999.38
   22:23:33.200.08-May-2021 4569.01  726.80 68.48 4.00 178.20 2999.38
   22:23:33.400.08-May-2021 4569.01  727.25 68.48 4.00 178.40 2999.38
   22:23:33.600.08-May-2021 4569.01  727.25 68.49 4.00 178.60 2999.38
   22:23:33.800.08-May-2021 4569.01  727.39 68.48 4.00 178.80 2999.38
   22:23:34.000.08-May-2021 4569.01  726.90 68.49 4.00 179.00 2999.38
   22:23:34.200.08-May-2021 4569.01  726.90 68.49 4.00 179.20 2999.38
   22:23:34.400.08-May-2021 4569.01  727.50 68.49 4.00 179.40 2999.38
   22:23:34.600.08-May-2021 4569.01  727.71 68.49 4.00 179.60 2999.38
   22:23:34.800.08-May-2021 4569.01  727.34 68.49 4.00 179.80 2999.38
   22:23:35.000.08-May-2021 4569.01  727.86 68.48 4.00 180.00 2999.38
   22:23:35.200.08-May-2021 4569.01  727.86 68.48 4.00 180.20 2999.38
   22:23:35.400.08-May-2021 4569.01  727.94 68.49 4.00 180.40 2999.38
   22:23:35.600.08-May-2021 4569.01  727.94 68.49 4.00 180.60 2999.38
   22:23:35.800.08-May-2021 4569.01  728.01 68.49 4.00 180.80 2999.38
   22:23:36.000.08-May-2021 4569.01  728.06 68.49 4.00 181.00 2999.38
   22:23:36.200.08-May-2021 4569.01  728.06 68.49 4.00 181.20 2999.38
   22:23:36.400.08-May-2021 4569.01  728.21 68.49 4.00 181.40 2999.38
   22:23:36.600.08-May-2021 4569.01  728.25 68.49 4.00 181.60 2999.38
   22:23:36.800.08-May-2021 4569.01  728.34 68.49 4.00 181.80 2999.38
   22:23:37.000.08-May-2021 4569.01  728.40 68.49 4.00 182.00 2999.38
   22:23:37.200.08-May-2021 4569.01  728.40 68.49 4.00 182.20 2999.38
   22:23:37.400.08-May-2021 4569.01  728.19 68.49 4.00 182.40 2999.38
   22:23:37.600.08-May-2021 4569.01  729.02 68.49 4.00 182.60 2999.38
   22:23:37.800.08-May-2021 4569.01  728.71 68.49 4.00 182.80 2999.38
   22:23:38.000.08-May-2021 4569.01  729.00 68.49 4.00 183.00 2999.38
   22:23:38.200.08-May-2021 4569.01  729.00 68.49 4.00 183.20 2999.38
   22:23:38.400.08-May-2021 4569.01  728.98 68.49 4.00 183.40 2999.38
   22:23:38.600.08-May-2021 4569.01  729.02 68.49 4.00 183.60 2999.38
   22:23:38.800.08-May-2021 4569.01  729.09 68.49 4.00 183.80 2999.38
