~Version Information
 VERS.                  2.0:   CWLS log ASCII Standard -VERSION 2.0
 WRAP.                   NO:   One line per depth step
~Well Information Block
#MNEM.UNIT     VALUE/NAME     DESCRIPTION
#---------     -----------    ---------------------------
 STRT.S             01:12:50 09-May-21: START TIME 01:12:50 09-May-21
 STOP.S             01:19:27 09-May-21: STOP TIME  01:19:27 09-May-21
 STEP.S                   0.00: STEP TIME
 NULL.                 -999.25: NULL VALUE
 PROV.                    Baku:  PROVINCE
 STAT.                    Baku:  STATE NAME
 SON .        AZ-XX-0906571588:  JOB NUMBER
 WTYP.                Deviated:  WELL TYPE
 COMP.     BP Exploration (Caspian Sea) ltd:  COMPANY
 BASE.              Azerbaijan:  LOGGING EQUIPMENT BASE LOCATION
 REGN.                   EESSA:  REGION
 CTRY.              Azerbaijan:  COUNTRY NAME
 FLD .                     ACG:  FIELD NAME
 WELL.                     J28:  WELL NAME
 RIG .             West Chirag:  RIG NAME
 DMF .             Drill Floor:  DRILL MEAS FROM
 PDAT.       Caspian Sea Level:  PERMANENT DATUM
 HPTY.       Minimum Curvature:  HOLE POS TYPE
 MDS .        Operator Entered:  MAG DATA SOURCE
 NREF.                    Grid:  NORTH REFERENCE
 SRVC.          TURAN DRILLING:  CONTRACTOR
 JOBN.        AZ-XX-0906571588:  JOB TICKET NUMB
 DCON.     Halliburton Sperry Drilling:  DIRECTNL CONTR
 STIM.      00.44.00 11-Feb-21:  START TIME
 DATE.      00.00.00 05-May-21:  END TIME
 SPUD.               13-Feb-21:  SPUD DATE
 MWDS.                    Baku:  MWD SHOP
 DOE .                     N/A:  DOE NUMBER
 UNIT.                     N/A:  LOGGING EQUIPMENT ID
 UWI .                     N/A:  UNIQUE WELL IDENTIFIER
 API .                     N/A:  API NUMBER
 CNTY.                        :  COUNTY
 LOC .                        :  LOCATION
 LMF .             Drill Floor:  LOG MEASURED FROM
 TVDS.m                  43.00:  TVDSS CORRECTN
 SDEP.m                 341.00:  START DEPTH
 EGL .m                   0.00:  GROUND ELEVATION
 WDMS.m                 169.80:  WD ELEV
 AGAP.m                  43.00:  AIR GAP
 EPD .m                   0.00:  ELEVATION
 APD .m                  43.00:  DEPTH ABOVE PD
 LATI.deg                40.13:  LATITUDE
 LONG.deg                51.22:  LONGITUDE
 UTMY.m             4443793.85:  UTM Y
 UTMX.m              519005.06:  UTM X
 WHEW.m                 -11.57:  WELL HEAD E/W
 WHNS.m                   8.57:  WELL HEAD N/S
 VSEW.m                 -11.57:  VERT SEC E/W
 VSNS.m                   8.57:  VERT SEC N/S
 DFWL.m                   0.00:  DISTANCE FWL
 DFSL.m                   0.00:  DISTANCE FSL
 VSDR.deg               299.34:  VERT SEC DIRECT
 GVFD.g                   1.00:  GRAVITY FIELD
 AZTC.deg                 6.36:  AZM TOTAL CORR
 MFLD.nT              50391.00:  MAGNETIC FIELD
 MDIP.deg                59.65:  MAGNETIC DIP
 MDEC.deg                 6.48:  MAGNETIC DECL
 GRDC.deg                 0.12:  GRID CORRECTION
 DEP .m                 334.96:  DEPTH
 TDD .m                1407.26:  TOTAL DEPTH (DRILLER)
 EKB .m                  43.00:  KB ELEVATION
 EDF .m                  43.00:  DF ELEVATION
 TDL .m                 228.00:  TOTAL DEPTH (LOGGER)
 VSC .                       0:  VS TO CLOSURE
 MAGU.                 1854484:  MAGUTM CHECKSUM
~Parameter Information Block
#MNEM.UNIT       Value        Description
#---------     -----------    ---------------------------
 AV  .mps                 4.00:  Ann Velocity 
 AVMX.mps                 4.73:  Max Ann Veloc 
 AZIF.deg               304.48:  Azm, Final 
 BHAT.        Rotary Steerable:  BHA Type 
 BREV.rev            257300.00:  Rev Bit Total 
 BROT.°/30m               0.00:  Build Rotating 
 BS  .in                  8.50:  Bit Size 
 BSZ .in                  8.50:  Bit Size 
 BTPL.psig              589.00:  Bit Press Loss 
 CABU.                      No:  Customer Abuse 
 CGEO.          Mubariz ghayev:  Customer Geo 
 COMM.                     ÌğZ:  Run Comments 1 
 TCS .hr                 64.25:  Time Ciculation Ended 
 CV  .mps                 3.50:  Crit Velocity 
 CVMX.mps                 4.52:  Max Crit Veloc 
 DD1 .             Aziz Aliyev:  Direct Drillr 1 
 DD2 .         Intigam Rahimov:  Direct Drillr 2 
 DD3 .          Rashad Habibov:  Direct Drillr 3 
 DDSV.               Geo-Pilot:  DD Service 
 DEFF.%                  98.00:  % Det Eff 
 DLRX.°/30m               0.00:  Dogleg Rot Max 
 DLSO.°/30m               0.00:  Dogleg Oriented 
 DLSX.°/30m               0.00:  Dogleg Str Max 
 DRET.      10.45.04 08-May-21:  Drill End Time 
 DRST.      03.30.04 04-May-21:  Drill Start Tim 
 DTIM.hr                 14.97:  Time Drilling 
 EDEP.m                4640.01:  End Depth 
 ENG1.         Dail Mahammadov:  Engineer 1 
 ENG2.           Eldar Hajiyev:  Engineer 2 
 ENG3.       Bakhtiar Jabbarli:  Engineer 3 
 ENG4.       Natik Hasanagayev:  Engineer 4 
 ETIM.      09.30.04 14-May-21:  End Time 
 FLOI.gpm               460.00:  Flow In 
 FLON.gpm               200.00:  Flow In Min 
 FLOS.cptm                0.00:  Fluid Loss 
 FLOX.gpm               505.00:  Flow In Max 
 HFLO.                      No:  High Flow 
 HPRE.                      No:  High Pressure 
 HTEM.                      No:  High Temp 
 HYDO.m                   1.80:  Hydro Offset 
 IFIN.deg                66.71:  Inc, Final 
 IMAX.deg                67.03:  Inc Max 
 IMIN.deg                66.63:  Inc Min 
 IMND.m                4550.58:  Inc Min Depth 
 IMXD.m                4439.01:  Inc Max Depth 
 JARR.                      No:  Jarring 
 LETM.      10.45.04 08-May-21:  Log End Time 
 LOST.hr                     0:  Lost Rig Time 
 LSTM.      03.30.04 04-May-21:  Log Start Time 
 MDCL.ppm             37000.00:  Mud Chlorides 
 MDES.     Inversion Oil/Synthetic:  Mud Desc 
 DFD .sg                  1.38:  Mud Density 
 MDMN.sg                  1.35:  Dens Mud Min 
 MDMX.sg                  1.40:  Dens Mud Max 
 MOIL.                   57.40:  Run Mud Oil % 
 MOWR.                   70:30:  Run Mud OWR 
 MSND.                    0.00:  Run Mud Sand % 
 MSOL.                   18.00:  Run Mud Solids% 
 DFV .spqt               71.00:  Mud Viscosity 
 MWOD.in                  6.75:  MWD Tool OD 
 MWSI.                      No:  Serv Intrp, MWD 
 OTIM.hr                242.76:  Time Operating 
 PCON.           Look Like New:  Pad Condition 
 PMAX.psia            12183.92:  Press Op, Max 
 PV  .cP                 27.00:  Mud PV 
 RUN .                    1300:  Run Number 
 ROPA.m/hr               15.00:  ROP Avg 
 ROPN.m/hr                9.00:  ROP Min 
 ROPX.m/hr               19.00:  ROP Max 
 RPMA.rpm               120.00:  RPM Surface Avg 
 RPMN.rpm               100.00:  RPM Surface Min 
 RPMX.rpm               120.00:  RPM Surface Max 
 RRUN.                    1300:  Rig Run Number 
 RTIM.hr                  5.00:  Time Reaming 
 SAZI.deg               304.73:  Azm, Start 
 SDEP.m                4412.01:  Start Depth 
 SIDD.                      No:  Serv Intrp, DD 
 SINC.deg                66.82:  Inc, Start 
 SPPA.psig             2800.00:  SPP Avg 
 SPPN.psig             2610.00:  SPP Min 
 SPPX.psig             3100.00:  SPP Max 
 STIM.      03.30.00 04-May-21:  Start Time 
 SVCS.                 DD, MWD:  Services 
 SVER.                    9.20:  Sperry Version 
 TDAT.m                 228.00:  Tot Depth Attmp 
 TDDF.                      No:  Trip for DD 
 TDLG.m                 228.00:  Tot Depth Loggd 
 TFF .                      No:  Trip for Fail 
 TQAA.f-kp               15.00:  Torque Abs Avg 
 TQAN.f-kp               12.00:  Torque Abs Min 
 TQAX.f-kp               22.00:  Torque Abs Max 
 TRRT.°/30m               0.00:  Turn Rotating 
 MRT .                    HCIM:  Maximum Recorded Temperature 
 TTMX.degC               90.20:  Max Tool Temp 
 VS01.                90627813:  Virtual Str1 SN 
 VS02.                90634712:  Virtual Str2 SN 
 VS03.                90643410:  Virtual Str3 SN 
 VS04.                90634712:  Virtual Str4 SN 
 WBMN.klb                 9.00:  WOB Min 
 WITN.        Elmaddin Rahimov:  Customer Rep 
 WITN.         Haytham Mostafa:  Customer Rep 2 
 WOBA.klb                15.00:  WOB Avg 
 WOBX.klb                23.00:  WOB Max 
 YP  .lhf2               29.00:  Yield Point 
~Curve Information Block
#MNEM.UNIT                 API CODE     Curve Description
#---------               -----------    ---------------------------
 TIME.HHMMSS            00 000 000 000:  GT Time & Date
 GTDEPTH.m              00 000 000 000:  GT Depth
 GTPQH.psia             00 000 000 000:  GT HR Quartz Pressure
 GTTQ.degC              00 000 000 000:  GT Quartz Temperature
 GTTN.NONE              00 000 000 000:  GT Test Number
 GTET.sec               00 000 000 000:  GT Elapsed Test Time
 GTTVD.m                00 000 000 000:  GT True Vertical Depth
#Other Information
#
#WARRANTY: Halliburton will use its best efforts to furnish customers with 
#accurate information and interpretations that are part of, and incident to, the services 
#provided.  However, Halliburton cannot and does not warrant the accuracy 
#or correctness of such information and interpretations.  Under no circumstances should any 
#such information or interpretation be relied upon as the sole basis for any drilling, 
#completion, production, or financial decision or any procedure involving any risk to the 
#safety of any drilling venture, drilling rig or its crew or any other third party.  The 
#Customer has full responsibility for all drilling, completion and production operation.  
#Halliburton makes no representations or warranties, either expressed or 
#implied, including, but not limited to, the implied warranties of merchantability or fitness 
#for a particular purpose, with respect to the services rendered.  In no event will 
#Halliburton be liable for failure to obtain any particular results or for 
#any damages, including, but not limited to, indirect, special or consequential damages, 
#resulting from the use of any information or interpretation provided by Halliburton.
#
~A           TIME           GTDEPTH  GTPQH  GTTQ  GTTN  GTET   GTTVD  
# ...
   01:13:36.798.09-May-2021 4503.51  593.60 67.51 9.00  46.02 2973.49
   01:13:36.998.09-May-2021 4503.51  593.60 67.51 9.00  46.22 2973.49
   01:13:37.198.09-May-2021 4503.51  592.10 67.50 9.00  46.42 2973.49
   01:13:37.398.09-May-2021 4503.51  591.51 67.50 9.00  46.62 2973.49
   01:13:37.598.09-May-2021 4503.51  590.32 67.50 9.00  46.82 2973.49
   01:13:37.798.09-May-2021 4503.51  589.20 67.49 9.00  47.02 2973.49
   01:13:37.998.09-May-2021 4503.51  589.20 67.49 9.00  47.22 2973.49
   01:13:38.198.09-May-2021 4503.51  588.60 67.49 9.00  47.42 2973.49
   01:13:38.398.09-May-2021 4503.51  588.48 67.49 9.00  47.62 2973.49
   01:13:38.598.09-May-2021 4503.51  588.58 67.48 9.00  47.82 2973.49
   01:13:38.798.09-May-2021 4503.51  587.50 67.48 9.00  48.02 2973.49
   01:13:38.998.09-May-2021 4503.51  587.50 67.48 9.00  48.22 2973.49
   01:13:39.198.09-May-2021 4503.51  585.06 67.48 9.00  48.42 2973.49
   01:13:39.399.09-May-2021 4503.51  583.91 67.47 9.00  48.62 2973.49
   01:13:39.599.09-May-2021 4503.51  581.46 67.47 9.00  48.82 2973.49
   01:13:39.799.09-May-2021 4503.51  579.42 67.47 9.00  49.02 2973.49
   01:13:39.999.09-May-2021 4503.51  579.42 67.47 9.00  49.22 2973.49
   01:13:40.199.09-May-2021 4503.51  580.91 67.46 9.00  49.42 2973.49
   01:13:40.399.09-May-2021 4503.51  588.60 67.46 9.00  49.62 2973.49
   01:13:40.599.09-May-2021 4503.51  590.70 67.46 9.00  49.82 2973.49
   01:13:40.799.09-May-2021 4503.51  592.88 67.46 9.00  50.02 2973.49
   01:13:40.999.09-May-2021 4503.51  592.88 67.46 9.00  50.22 2973.49
   01:13:41.199.09-May-2021 4503.51  596.61 67.46 9.00  50.42 2973.49
   01:13:41.399.09-May-2021 4503.51  598.22 67.45 9.00  50.62 2973.49
   01:13:41.599.09-May-2021 4503.51  599.98 67.45 9.00  50.82 2973.49
   01:13:41.799.09-May-2021 4503.51  601.71 67.45 9.00  51.02 2973.49
   01:13:42.000.09-May-2021 4503.51  601.71 67.45 9.00  51.22 2973.49
   01:13:42.200.09-May-2021 4503.51  605.37 67.45 9.00  51.42 2973.49
   01:13:42.400.09-May-2021 4503.51  607.29 67.45 9.00  51.62 2973.49
   01:13:42.600.09-May-2021 4503.51  609.11 67.45 9.00  51.82 2973.49
   01:13:42.800.09-May-2021 4503.51  610.87 67.45 9.00  52.02 2973.49
   01:13:43.000.09-May-2021 4503.51  610.87 67.45 9.00  52.22 2973.49
   01:13:43.200.09-May-2021 4503.51  614.35 67.44 9.00  52.42 2973.49
   01:13:43.400.09-May-2021 4503.51  616.09 67.44 9.00  52.62 2973.49
   01:13:43.600.09-May-2021 4503.51  617.79 67.44 9.00  52.82 2973.49
   01:13:43.800.09-May-2021 4503.51  619.43 67.44 9.00  53.02 2973.49
   01:13:44.000.09-May-2021 4503.51  619.43 67.44 9.00  53.22 2973.49
   01:13:44.200.09-May-2021 4503.51  622.11 67.44 9.00  53.42 2973.49
   01:13:44.400.09-May-2021 4503.51  623.32 67.44 9.00  53.62 2973.49
   01:13:44.600.09-May-2021 4503.51  625.11 67.44 9.00  53.82 2973.49
   01:13:44.801.09-May-2021 4503.51  626.50 67.44 9.00  54.02 2973.49
   01:13:45.001.09-May-2021 4503.51  626.50 67.44 9.00  54.22 2973.49
   01:13:45.201.09-May-2021 4503.51  629.51 67.44 9.00  54.42 2973.49
   01:13:45.401.09-May-2021 4503.51  630.97 67.44 9.00  54.62 2973.49
   01:13:45.601.09-May-2021 4503.51  632.39 67.44 9.00  54.82 2973.49
   01:13:45.801.09-May-2021 4503.51  633.77 67.44 9.00  55.02 2973.49
   01:13:46.001.09-May-2021 4503.51  633.77 67.44 9.00  55.22 2973.49
   01:13:46.201.09-May-2021 4503.51  636.48 67.44 9.00  55.42 2973.49
   01:13:46.401.09-May-2021 4503.51  637.82 67.44 9.00  55.62 2973.49
   01:13:46.601.09-May-2021 4503.51  638.46 67.43 9.00  55.82 2973.49
   01:13:46.801.09-May-2021 4503.51  639.82 67.43 9.00  56.02 2973.49
   01:13:47.001.09-May-2021 4503.51  639.82 67.43 9.00  56.22 2973.49
   01:13:47.201.09-May-2021 4503.51  641.65 67.43 9.00  56.42 2973.49
   01:13:47.401.09-May-2021 4503.51  648.08 67.43 9.00  56.62 2973.49
   01:13:47.602.09-May-2021 4503.51  648.97 67.43 9.00  56.82 2973.49
   01:13:47.802.09-May-2021 4503.51  650.09 67.43 9.00  57.02 2973.49
   01:13:48.002.09-May-2021 4503.51  650.09 67.43 9.00  57.22 2973.49
   01:13:48.202.09-May-2021 4503.51  652.39 67.43 9.00  57.42 2973.49
   01:13:48.402.09-May-2021 4503.51  653.06 67.43 9.00  57.62 2973.49
   01:13:48.602.09-May-2021 4503.51  654.52 67.43 9.00  57.82 2973.49
   01:13:48.802.09-May-2021 4503.51  655.58 67.43 9.00  58.02 2973.49
   01:13:49.002.09-May-2021 4503.51  655.58 67.43 9.00  58.22 2973.49
   01:13:49.202.09-May-2021 4503.51  657.23 67.43 9.00  58.42 2973.49
   01:13:49.402.09-May-2021 4503.51  658.72 67.43 9.00  58.62 2973.49
   01:13:49.602.09-May-2021 4503.51  659.70 67.43 9.00  58.82 2973.49
   01:13:49.802.09-May-2021 4503.51  660.61 67.43 9.00  59.02 2973.49
   01:13:50.002.09-May-2021 4503.51  660.61 67.43 9.00  59.22 2973.49
   01:13:50.202.09-May-2021 4503.51  662.81 67.43 9.00  59.42 2973.49
   01:13:50.403.09-May-2021 4503.51  663.86 67.43 9.00  59.62 2973.49
   01:13:50.603.09-May-2021 4503.51  664.89 67.43 9.00  59.82 2973.49
   01:13:50.803.09-May-2021 4503.51  665.91 67.43 9.00  60.02 2973.49
   01:13:51.003.09-May-2021 4503.51  665.91 67.43 9.00  60.22 2973.49
   01:13:51.203.09-May-2021 4503.51  667.90 67.43 9.00  60.42 2973.49
   01:13:51.403.09-May-2021 4503.51  668.86 67.44 9.00  60.62 2973.49
   01:13:51.603.09-May-2021 4503.51  669.45 67.44 9.00  60.82 2973.49
   01:13:51.803.09-May-2021 4503.51  671.30 67.44 9.00  61.02 2973.49
   01:13:52.003.09-May-2021 4503.51  671.30 67.44 9.00  61.22 2973.49
   01:13:52.203.09-May-2021 4503.51  676.91 67.44 9.00  61.42 2973.49
   01:13:52.403.09-May-2021 4503.51  679.23 67.44 9.00  61.62 2973.49
   01:13:52.603.09-May-2021 4503.51  681.03 67.44 9.00  61.82 2973.49
   01:13:52.803.09-May-2021 4503.51  681.96 67.44 9.00  62.02 2973.49
   01:13:53.003.09-May-2021 4503.51  681.96 67.44 9.00  62.22 2973.49
   01:13:53.204.09-May-2021 4503.51  682.81 67.44 9.00  62.42 2973.49
   01:13:53.404.09-May-2021 4503.51  684.55 67.44 9.00  62.62 2973.49
   01:13:53.604.09-May-2021 4503.51  685.39 67.44 9.00  62.82 2973.49
   01:13:53.804.09-May-2021 4503.51  686.23 67.44 9.00  63.02 2973.49
   01:13:54.004.09-May-2021 4503.51  686.23 67.44 9.00  63.22 2973.49
   01:13:54.204.09-May-2021 4503.51  687.27 67.44 9.00  63.42 2973.49
   01:13:54.404.09-May-2021 4503.51  689.21 67.44 9.00  63.62 2973.49
   01:13:54.604.09-May-2021 4503.51  689.66 67.44 9.00  63.82 2973.49
   01:13:54.804.09-May-2021 4503.51  690.51 67.44 9.00  64.02 2973.49
   01:13:55.004.09-May-2021 4503.51  690.51 67.44 9.00  64.22 2973.49
   01:13:55.204.09-May-2021 4503.51  691.84 67.44 9.00  64.42 2973.49
   01:13:55.404.09-May-2021 4503.51  697.01 67.44 9.00  64.62 2973.49
   01:13:55.604.09-May-2021 4503.51  701.18 67.44 9.00  64.82 2973.49
   01:13:55.805.09-May-2021 4503.51  701.70 67.44 9.00  65.02 2973.49
   01:13:56.005.09-May-2021 4503.51  701.70 67.44 9.00  65.22 2973.49
   01:13:56.205.09-May-2021 4503.51  702.64 67.44 9.00  65.42 2973.49
   01:13:56.405.09-May-2021 4503.51  703.74 67.44 9.00  65.62 2973.49
   01:13:56.605.09-May-2021 4503.51  704.88 67.44 9.00  65.82 2973.49
   01:13:56.805.09-May-2021 4503.51  705.39 67.44 9.00  66.02 2973.49
   01:13:57.005.09-May-2021 4503.51  705.39 67.44 9.00  66.22 2973.49
   01:13:57.205.09-May-2021 4503.51  707.29 67.44 9.00  66.42 2973.49
   01:13:57.405.09-May-2021 4503.51  708.04 67.44 9.00  66.62 2973.49
   01:13:57.605.09-May-2021 4503.51  708.72 67.44 9.00  66.82 2973.49
   01:13:57.805.09-May-2021 4503.51  709.36 67.44 9.00  67.02 2973.49
   01:13:58.005.09-May-2021 4503.51  709.36 67.44 9.00  67.22 2973.49
   01:13:58.205.09-May-2021 4503.51  710.72 67.44 9.00  67.42 2973.49
   01:13:58.405.09-May-2021 4503.51  711.37 67.44 9.00  67.62 2973.49
   01:13:58.606.09-May-2021 4503.51  712.04 67.44 9.00  67.82 2973.49
   01:13:58.806.09-May-2021 4503.51  712.66 67.44 9.00  68.02 2973.49
   01:13:59.006.09-May-2021 4503.51  712.66 67.44 9.00  68.22 2973.49
   01:13:59.206.09-May-2021 4503.51  713.96 67.44 9.00  68.42 2973.49
   01:13:59.406.09-May-2021 4503.51  714.03 67.45 9.00  68.62 2973.49
   01:13:59.606.09-May-2021 4503.51  715.00 67.45 9.00  68.82 2973.49
