~Version Information
 VERS.                  2.0:   CWLS log ASCII Standard -VERSION 2.0
 WRAP.                   NO:   One line per depth step
~Well Information Block
#MNEM.UNIT     VALUE/NAME     DESCRIPTION
#---------     -----------    ---------------------------
 STRT.S             07:52:13 09-May-21: START TIME 07:52:13 09-May-21
 STOP.S             07:59:09 09-May-21: STOP TIME  07:59:09 09-May-21
 STEP.S                   0.00: STEP TIME
 NULL.                 -999.25: NULL VALUE
 PROV.                    Baku:  PROVINCE
 STAT.                    Baku:  STATE NAME
 SON .        AZ-XX-0906571588:  JOB NUMBER
 WTYP.                Deviated:  WELL TYPE
 COMP.     BP Exploration (Caspian Sea) ltd:  COMPANY
 BASE.              Azerbaijan:  LOGGING EQUIPMENT BASE LOCATION
 REGN.                   EESSA:  REGION
 CTRY.              Azerbaijan:  COUNTRY NAME
 FLD .                     ACG:  FIELD NAME
 WELL.                     J28:  WELL NAME
 RIG .             West Chirag:  RIG NAME
 DMF .             Drill Floor:  DRILL MEAS FROM
 PDAT.       Caspian Sea Level:  PERMANENT DATUM
 HPTY.       Minimum Curvature:  HOLE POS TYPE
 MDS .        Operator Entered:  MAG DATA SOURCE
 NREF.                    Grid:  NORTH REFERENCE
 SRVC.          TURAN DRILLING:  CONTRACTOR
 JOBN.        AZ-XX-0906571588:  JOB TICKET NUMB
 DCON.     Halliburton Sperry Drilling:  DIRECTNL CONTR
 STIM.      00.44.00 11-Feb-21:  START TIME
 DATE.      00.00.00 05-May-21:  END TIME
 SPUD.               13-Feb-21:  SPUD DATE
 MWDS.                    Baku:  MWD SHOP
 DOE .                     N/A:  DOE NUMBER
 UNIT.                     N/A:  LOGGING EQUIPMENT ID
 UWI .                     N/A:  UNIQUE WELL IDENTIFIER
 API .                     N/A:  API NUMBER
 CNTY.                        :  COUNTY
 LOC .                        :  LOCATION
 LMF .             Drill Floor:  LOG MEASURED FROM
 TVDS.m                  43.00:  TVDSS CORRECTN
 SDEP.m                 341.00:  START DEPTH
 EGL .m                   0.00:  GROUND ELEVATION
 WDMS.m                 169.80:  WD ELEV
 AGAP.m                  43.00:  AIR GAP
 EPD .m                   0.00:  ELEVATION
 APD .m                  43.00:  DEPTH ABOVE PD
 LATI.deg                40.13:  LATITUDE
 LONG.deg                51.22:  LONGITUDE
 UTMY.m             4443793.85:  UTM Y
 UTMX.m              519005.06:  UTM X
 WHEW.m                 -11.57:  WELL HEAD E/W
 WHNS.m                   8.57:  WELL HEAD N/S
 VSEW.m                 -11.57:  VERT SEC E/W
 VSNS.m                   8.57:  VERT SEC N/S
 DFWL.m                   0.00:  DISTANCE FWL
 DFSL.m                   0.00:  DISTANCE FSL
 VSDR.deg               299.34:  VERT SEC DIRECT
 GVFD.g                   1.00:  GRAVITY FIELD
 AZTC.deg                 6.36:  AZM TOTAL CORR
 MFLD.nT              50391.00:  MAGNETIC FIELD
 MDIP.deg                59.65:  MAGNETIC DIP
 MDEC.deg                 6.48:  MAGNETIC DECL
 GRDC.deg                 0.12:  GRID CORRECTION
 DEP .m                 334.96:  DEPTH
 TDD .m                1407.26:  TOTAL DEPTH (DRILLER)
 EKB .m                  43.00:  KB ELEVATION
 EDF .m                  43.00:  DF ELEVATION
 TDL .m                 228.00:  TOTAL DEPTH (LOGGER)
 VSC .                       0:  VS TO CLOSURE
 MAGU.                 1854484:  MAGUTM CHECKSUM
~Parameter Information Block
#MNEM.UNIT       Value        Description
#---------     -----------    ---------------------------
 AV  .mps                 4.00:  Ann Velocity 
 AVMX.mps                 4.73:  Max Ann Veloc 
 AZIF.deg               304.48:  Azm, Final 
 BHAT.        Rotary Steerable:  BHA Type 
 BREV.rev            257300.00:  Rev Bit Total 
 BROT.°/30m               0.00:  Build Rotating 
 BS  .in                  8.50:  Bit Size 
 BSZ .in                  8.50:  Bit Size 
 BTPL.psig              589.00:  Bit Press Loss 
 CABU.                      No:  Customer Abuse 
 CGEO.          Mubariz ghayev:  Customer Geo 
 TCS .hr                 64.25:  Time Ciculation Ended 
 CV  .mps                 3.50:  Crit Velocity 
 CVMX.mps                 4.52:  Max Crit Veloc 
 DD1 .             Aziz Aliyev:  Direct Drillr 1 
 DD2 .         Intigam Rahimov:  Direct Drillr 2 
 DD3 .          Rashad Habibov:  Direct Drillr 3 
 DDSV.               Geo-Pilot:  DD Service 
 DEFF.%                  98.00:  % Det Eff 
 DLRX.°/30m               0.00:  Dogleg Rot Max 
 DLSO.°/30m               0.00:  Dogleg Oriented 
 DLSX.°/30m               0.00:  Dogleg Str Max 
 DRET.      10.45.04 08-May-21:  Drill End Time 
 DRST.      03.30.04 04-May-21:  Drill Start Tim 
 DTIM.hr                 14.97:  Time Drilling 
 EDEP.m                4640.01:  End Depth 
 ENG1.         Dail Mahammadov:  Engineer 1 
 ENG2.           Eldar Hajiyev:  Engineer 2 
 ENG3.       Bakhtiar Jabbarli:  Engineer 3 
 ENG4.       Natik Hasanagayev:  Engineer 4 
 ETIM.      09.30.04 14-May-21:  End Time 
 FLOI.gpm               460.00:  Flow In 
 FLON.gpm               200.00:  Flow In Min 
 FLOS.cptm                0.00:  Fluid Loss 
 FLOX.gpm               505.00:  Flow In Max 
 HFLO.                      No:  High Flow 
 HPRE.                      No:  High Pressure 
 HTEM.                      No:  High Temp 
 HYDO.m                   1.80:  Hydro Offset 
 IFIN.deg                66.71:  Inc, Final 
 IMAX.deg                67.03:  Inc Max 
 IMIN.deg                66.63:  Inc Min 
 IMND.m                4550.58:  Inc Min Depth 
 IMXD.m                4439.01:  Inc Max Depth 
 JARR.                      No:  Jarring 
 LETM.      10.45.04 08-May-21:  Log End Time 
 LOST.hr                     0:  Lost Rig Time 
 LSTM.      03.30.04 04-May-21:  Log Start Time 
 MDCL.ppm             37000.00:  Mud Chlorides 
 MDES.     Inversion Oil/Synthetic:  Mud Desc 
 DFD .sg                  1.38:  Mud Density 
 MDMN.sg                  1.35:  Dens Mud Min 
 MDMX.sg                  1.40:  Dens Mud Max 
 MOIL.                   57.40:  Run Mud Oil % 
 MOWR.                   70:30:  Run Mud OWR 
 MSND.                    0.00:  Run Mud Sand % 
 MSOL.                   18.00:  Run Mud Solids% 
 DFV .spqt               71.00:  Mud Viscosity 
 MWOD.in                  6.75:  MWD Tool OD 
 MWSI.                      No:  Serv Intrp, MWD 
 OTIM.hr                242.76:  Time Operating 
 PCON.           Look Like New:  Pad Condition 
 PMAX.psia            12183.92:  Press Op, Max 
 PV  .cP                 27.00:  Mud PV 
 RUN .                    1300:  Run Number 
 ROPA.m/hr               15.00:  ROP Avg 
 ROPN.m/hr                9.00:  ROP Min 
 ROPX.m/hr               19.00:  ROP Max 
 RPMA.rpm               120.00:  RPM Surface Avg 
 RPMN.rpm               100.00:  RPM Surface Min 
 RPMX.rpm               120.00:  RPM Surface Max 
 RRUN.                    1300:  Rig Run Number 
 RTIM.hr                  5.00:  Time Reaming 
 SAZI.deg               304.73:  Azm, Start 
 SDEP.m                4412.01:  Start Depth 
 SIDD.                      No:  Serv Intrp, DD 
 SINC.deg                66.82:  Inc, Start 
 SPPA.psig             2800.00:  SPP Avg 
 SPPN.psig             2610.00:  SPP Min 
 SPPX.psig             3100.00:  SPP Max 
 STIM.      03.30.00 04-May-21:  Start Time 
 SVCS.                 DD, MWD:  Services 
 SVER.                    9.20:  Sperry Version 
 TDAT.m                 228.00:  Tot Depth Attmp 
 TDDF.                      No:  Trip for DD 
 TDLG.m                 228.00:  Tot Depth Loggd 
 TFF .                      No:  Trip for Fail 
 TQAA.f-kp               15.00:  Torque Abs Avg 
 TQAN.f-kp               12.00:  Torque Abs Min 
 TQAX.f-kp               22.00:  Torque Abs Max 
 TRRT.°/30m               0.00:  Turn Rotating 
 MRT .                    HCIM:  Maximum Recorded Temperature 
 TTMX.degC               90.20:  Max Tool Temp 
 VS01.                90627813:  Virtual Str1 SN 
 VS02.                90634712:  Virtual Str2 SN 
 VS03.                90643410:  Virtual Str3 SN 
 VS04.                90634712:  Virtual Str4 SN 
 WBMN.klb                 9.00:  WOB Min 
 WITN.        Elmaddin Rahimov:  Customer Rep 
 WITN.         Haytham Mostafa:  Customer Rep 2 
 WOBA.klb                15.00:  WOB Avg 
 WOBX.klb                23.00:  WOB Max 
 YP  .lhf2               29.00:  Yield Point 
~Curve Information Block
#MNEM.UNIT                 API CODE     Curve Description
#---------               -----------    ---------------------------
 TIME.HHMMSS            00 000 000 000:  GT Time & Date
 GTDEPTH.m              00 000 000 000:  GT Depth
 GTPQH.psia             00 000 000 000:  GT HR Quartz Pressure
 GTTQ.degC              00 000 000 000:  GT Quartz Temperature
 GTTN.NONE              00 000 000 000:  GT Test Number
 GTET.sec               00 000 000 000:  GT Elapsed Test Time
 GTTVD.m                00 000 000 000:  GT True Vertical Depth
#Other Information
#
#WARRANTY: Halliburton will use its best efforts to furnish customers with 
#accurate information and interpretations that are part of, and incident to, the services 
#provided.  However, Halliburton cannot and does not warrant the accuracy 
#or correctness of such information and interpretations.  Under no circumstances should any 
#such information or interpretation be relied upon as the sole basis for any drilling, 
#completion, production, or financial decision or any procedure involving any risk to the 
#safety of any drilling venture, drilling rig or its crew or any other third party.  The 
#Customer has full responsibility for all drilling, completion and production operation.  
#Halliburton makes no representations or warranties, either expressed or 
#implied, including, but not limited to, the implied warranties of merchantability or fitness 
#for a particular purpose, with respect to the services rendered.  In no event will 
#Halliburton be liable for failure to obtain any particular results or for 
#any damages, including, but not limited to, indirect, special or consequential damages, 
#resulting from the use of any information or interpretation provided by Halliburton.
#
~A           TIME           GTDEPTH  GTPQH  GTTQ  GTTN   GTET   GTTVD  
# ...
   07:58:37.449.09-May-2021 4413.51 6492.74 65.51 16.00 384.25 2938.18
   07:58:37.649.09-May-2021 4413.51 6487.31 65.51 16.00 384.45 2938.18
   07:58:37.849.09-May-2021 4413.51 6494.01 65.51 16.00 384.65 2938.18
   07:58:38.049.09-May-2021 4413.51 6488.54 65.51 16.00 384.85 2938.18
   07:58:38.249.09-May-2021 4413.51 6487.77 65.51 16.00 385.05 2938.18
   07:58:38.449.09-May-2021 4413.51 6487.77 65.51 16.00 385.25 2938.18
   07:58:38.649.09-May-2021 4413.51 6489.16 65.51 16.00 385.45 2938.18
   07:58:38.849.09-May-2021 4413.51 6494.59 65.50 16.00 385.65 2938.18
   07:58:39.049.09-May-2021 4413.51 6487.38 65.50 16.00 385.85 2938.18
   07:58:39.249.09-May-2021 4413.51 6492.72 65.50 16.00 386.05 2938.18
   07:58:39.449.09-May-2021 4413.51 6492.72 65.50 16.00 386.25 2938.18
   07:58:39.649.09-May-2021 4413.51 6488.36 65.50 16.00 386.45 2938.18
   07:58:39.849.09-May-2021 4413.51 6486.38 65.50 16.00 386.65 2938.18
   07:58:40.049.09-May-2021 4413.51 6486.27 65.50 16.00 386.85 2938.18
   07:58:40.249.09-May-2021 4413.51 6486.14 65.50 16.00 387.05 2938.18
   07:58:40.449.09-May-2021 4413.51 6486.14 65.50 16.00 387.25 2938.18
   07:58:40.649.09-May-2021 4413.51 6485.79 65.50 16.00 387.45 2938.18
   07:58:40.849.09-May-2021 4413.51 6485.58 65.50 16.00 387.65 2938.18
   07:58:41.049.09-May-2021 4413.51 6485.99 65.50 16.00 387.85 2938.18
   07:58:41.249.09-May-2021 4413.51 6487.40 65.50 16.00 388.05 2938.18
   07:58:41.449.09-May-2021 4413.51 6487.40 65.50 16.00 388.25 2938.18
   07:58:41.649.09-May-2021 4413.51 6486.92 65.50 16.00 388.45 2938.18
   07:58:41.849.09-May-2021 4413.51 6490.95 65.50 16.00 388.65 2938.18
   07:58:42.049.09-May-2021 4413.51 6486.81 65.50 16.00 388.85 2938.18
   07:58:42.249.09-May-2021 4413.51 6487.60 65.50 16.00 389.05 2938.18
   07:58:42.449.09-May-2021 4413.51 6487.60 65.50 16.00 389.25 2938.18
   07:58:42.649.09-May-2021 4413.51 6485.94 65.50 16.00 389.45 2938.18
   07:58:42.849.09-May-2021 4413.51 6486.06 65.50 16.00 389.65 2938.18
   07:58:43.049.09-May-2021 4413.51 6485.48 65.50 16.00 389.85 2938.18
   07:58:43.250.09-May-2021 4413.51 6485.54 65.50 16.00 390.05 2938.18
   07:58:43.450.09-May-2021 4413.51 6485.54 65.50 16.00 390.25 2938.18
   07:58:43.650.09-May-2021 4413.51 6485.36 65.50 16.00 390.45 2938.18
   07:58:43.850.09-May-2021 4413.51 6485.53 65.50 16.00 390.65 2938.18
   07:58:44.050.09-May-2021 4413.51 6493.25 65.50 16.00 390.85 2938.18
   07:58:44.250.09-May-2021 4413.51 6485.66 65.50 16.00 391.05 2938.18
   07:58:44.450.09-May-2021 4413.51 6485.66 65.50 16.00 391.25 2938.18
   07:58:44.650.09-May-2021 4413.51 6495.87 65.50 16.00 391.45 2938.18
   07:58:44.850.09-May-2021 4413.51 6487.77 65.50 16.00 391.65 2938.18
   07:58:45.050.09-May-2021 4413.51 6488.95 65.50 16.00 391.85 2938.18
   07:58:45.250.09-May-2021 4413.51 6491.37 65.50 16.00 392.05 2938.18
   07:58:45.450.09-May-2021 4413.51 6491.37 65.50 16.00 392.25 2938.18
   07:58:45.650.09-May-2021 4413.51 6488.31 65.50 16.00 392.45 2938.18
   07:58:45.850.09-May-2021 4413.51 6491.95 65.50 16.00 392.65 2938.18
   07:58:46.050.09-May-2021 4413.51 6488.50 65.50 16.00 392.85 2938.18
   07:58:46.250.09-May-2021 4413.51 6486.78 65.50 16.00 393.05 2938.18
   07:58:46.450.09-May-2021 4413.51 6486.78 65.50 16.00 393.25 2938.18
   07:58:46.650.09-May-2021 4413.51 6488.03 65.50 16.00 393.45 2938.18
   07:58:46.850.09-May-2021 4413.51 6493.73 65.50 16.00 393.65 2938.18
   07:58:47.050.09-May-2021 4413.51 6487.56 65.50 16.00 393.85 2938.18
   07:58:47.250.09-May-2021 4413.51 6487.08 65.50 16.00 394.05 2938.18
   07:58:47.450.09-May-2021 4413.51 6487.08 65.50 16.00 394.25 2938.18
   07:58:47.650.09-May-2021 4413.51 6486.95 65.50 16.00 394.45 2938.18
   07:58:47.850.09-May-2021 4413.51 6487.70 65.50 16.00 394.65 2938.18
   07:58:48.050.09-May-2021 4413.51 6485.66 65.50 16.00 394.85 2938.18
   07:58:48.250.09-May-2021 4413.51 6486.02 65.50 16.00 395.05 2938.18
   07:58:48.450.09-May-2021 4413.51 6486.02 65.50 16.00 395.25 2938.18
   07:58:48.650.09-May-2021 4413.51 6485.17 65.50 16.00 395.45 2938.18
   07:58:48.850.09-May-2021 4413.51 6485.52 65.50 16.00 395.65 2938.18
   07:58:49.050.09-May-2021 4413.51 6485.44 65.50 16.00 395.85 2938.18
   07:58:49.250.09-May-2021 4413.51 6486.32 65.50 16.00 396.05 2938.18
   07:58:49.450.09-May-2021 4413.51 6486.32 65.50 16.00 396.25 2938.18
   07:58:49.650.09-May-2021 4413.51 6487.66 65.49 16.00 396.46 2938.18
   07:58:49.850.09-May-2021 4413.51 6485.79 65.49 16.00 396.66 2938.18
   07:58:50.050.09-May-2021 4413.51 6490.98 65.49 16.00 396.86 2938.18
   07:58:50.250.09-May-2021 4413.51 6486.45 65.49 16.00 397.06 2938.18
   07:58:50.450.09-May-2021 4413.51 6486.45 65.49 16.00 397.26 2938.18
   07:58:50.651.09-May-2021 4413.51 6485.57 65.49 16.00 397.46 2938.18
   07:58:50.851.09-May-2021 4413.51 6486.49 65.49 16.00 397.66 2938.18
   07:58:51.051.09-May-2021 4413.51 6485.79 65.49 16.00 397.86 2938.18
   07:58:51.251.09-May-2021 4413.51 6485.45 65.49 16.00 398.06 2938.18
   07:58:51.451.09-May-2021 4413.51 6485.45 65.49 16.00 398.26 2938.18
   07:58:51.651.09-May-2021 4413.51 6485.29 65.49 16.00 398.46 2938.18
   07:58:51.851.09-May-2021 4413.51 6486.06 65.49 16.00 398.66 2938.18
   07:58:52.051.09-May-2021 4413.51 6485.78 65.49 16.00 398.86 2938.18
   07:58:52.251.09-May-2021 4413.51 6494.28 65.49 16.00 399.06 2938.18
   07:58:52.451.09-May-2021 4413.51 6494.28 65.49 16.00 399.26 2938.18
   07:58:52.651.09-May-2021 4413.51 6490.13 65.49 16.00 399.46 2938.18
   07:58:52.851.09-May-2021 4413.51 6495.76 65.49 16.00 399.66 2938.18
   07:58:53.051.09-May-2021 4413.51 6485.98 65.49 16.00 399.86 2938.18
   07:58:53.251.09-May-2021 4413.51 6489.34 65.49 16.00 400.06 2938.18
   07:58:53.451.09-May-2021 4413.51 6489.34 65.49 16.00 400.26 2938.18
   07:58:53.651.09-May-2021 4413.51 6487.19 65.49 16.00 400.46 2938.18
   07:58:53.851.09-May-2021 4413.51 6488.55 65.49 16.00 400.66 2938.18
   07:58:54.051.09-May-2021 4413.51 6494.72 65.49 16.00 400.86 2938.18
   07:58:54.251.09-May-2021 4413.51 6485.87 65.49 16.00 401.06 2938.18
   07:58:54.451.09-May-2021 4413.51 6485.87 65.49 16.00 401.26 2938.18
   07:58:54.651.09-May-2021 4413.51 6489.25 65.49 16.00 401.46 2938.18
   07:58:54.851.09-May-2021 4413.51 6487.42 65.49 16.00 401.66 2938.18
   07:58:55.051.09-May-2021 4413.51 6493.47 65.49 16.00 401.86 2938.18
   07:58:55.251.09-May-2021 4413.51 6487.38 65.49 16.00 402.06 2938.18
   07:58:55.451.09-May-2021 4413.51 6487.38 65.49 16.00 402.26 2938.18
   07:58:55.651.09-May-2021 4413.51 6487.05 65.49 16.00 402.46 2938.18
   07:58:55.851.09-May-2021 4413.51 6488.12 65.49 16.00 402.66 2938.18
   07:58:56.051.09-May-2021 4413.51 6486.37 65.49 16.00 402.86 2938.18
   07:58:56.251.09-May-2021 4413.51 6486.09 65.49 16.00 403.06 2938.18
   07:58:56.451.09-May-2021 4413.51 6486.09 65.49 16.00 403.26 2938.18
   07:58:56.651.09-May-2021 4413.51 6485.59 65.49 16.00 403.46 2938.18
   07:58:56.851.09-May-2021 4413.51 6485.92 65.49 16.00 403.66 2938.18
   07:58:57.051.09-May-2021 4413.51 6485.59 65.49 16.00 403.86 2938.18
   07:58:57.251.09-May-2021 4413.51 6486.30 65.49 16.00 404.06 2938.18
   07:58:57.451.09-May-2021 4413.51 6486.30 65.49 16.00 404.26 2938.18
   07:58:57.651.09-May-2021 4413.51 6492.06 65.49 16.00 404.46 2938.18
   07:58:57.852.09-May-2021 4413.51 6487.21 65.49 16.00 404.66 2938.18
   07:58:58.052.09-May-2021 4413.51 6491.17 65.49 16.00 404.86 2938.18
   07:58:58.252.09-May-2021 4413.51 6486.91 65.49 16.00 405.06 2938.18
   07:58:58.452.09-May-2021 4413.51 6486.91 65.49 16.00 405.26 2938.18
   07:58:58.652.09-May-2021 4413.51 6486.52 65.49 16.00 405.46 2938.18
   07:58:58.852.09-May-2021 4413.51 6486.26 65.49 16.00 405.66 2938.18
   07:58:59.052.09-May-2021 4413.51 6486.56 65.49 16.00 405.86 2938.18
   07:58:59.252.09-May-2021 4413.51 6485.76 65.49 16.00 406.06 2938.18
   07:58:59.452.09-May-2021 4413.51 6485.76 65.49 16.00 406.26 2938.18
   07:58:59.652.09-May-2021 4413.51 6485.51 65.49 16.00 406.46 2938.18
   07:58:59.852.09-May-2021 4413.51 6486.11 65.49 16.00 406.66 2938.18
