~Version Information
 VERS.                  2.0:   CWLS log ASCII Standard -VERSION 2.0
 WRAP.                   NO:   One line per depth step
~Well Information Block
#MNEM.UNIT     VALUE/NAME     DESCRIPTION
#---------     -----------    ---------------------------
 STRT.S             03:18:48 09-May-21: START TIME 03:18:48 09-May-21
 STOP.S             03:25:48 09-May-21: STOP TIME  03:25:48 09-May-21
 STEP.S                   0.00: STEP TIME
 NULL.                 -999.25: NULL VALUE
 PROV.                    Baku:  PROVINCE
 STAT.                    Baku:  STATE NAME
 SON .        AZ-XX-0906571588:  JOB NUMBER
 WTYP.                Deviated:  WELL TYPE
 COMP.     BP Exploration (Caspian Sea) ltd:  COMPANY
 BASE.              Azerbaijan:  LOGGING EQUIPMENT BASE LOCATION
 REGN.                   EESSA:  REGION
 CTRY.              Azerbaijan:  COUNTRY NAME
 FLD .                     ACG:  FIELD NAME
 WELL.                     J28:  WELL NAME
 RIG .             West Chirag:  RIG NAME
 DMF .             Drill Floor:  DRILL MEAS FROM
 PDAT.       Caspian Sea Level:  PERMANENT DATUM
 HPTY.       Minimum Curvature:  HOLE POS TYPE
 MDS .        Operator Entered:  MAG DATA SOURCE
 NREF.                    Grid:  NORTH REFERENCE
 SRVC.          TURAN DRILLING:  CONTRACTOR
 JOBN.        AZ-XX-0906571588:  JOB TICKET NUMB
 DCON.     Halliburton Sperry Drilling:  DIRECTNL CONTR
 STIM.      00.44.00 11-Feb-21:  START TIME
 DATE.      00.00.00 05-May-21:  END TIME
 SPUD.               13-Feb-21:  SPUD DATE
 MWDS.                    Baku:  MWD SHOP
 DOE .                     N/A:  DOE NUMBER
 UNIT.                     N/A:  LOGGING EQUIPMENT ID
 UWI .                     N/A:  UNIQUE WELL IDENTIFIER
 API .                     N/A:  API NUMBER
 CNTY.                        :  COUNTY
 LOC .                        :  LOCATION
 LMF .             Drill Floor:  LOG MEASURED FROM
 TVDS.m                  43.00:  TVDSS CORRECTN
 SDEP.m                 341.00:  START DEPTH
 EGL .m                   0.00:  GROUND ELEVATION
 WDMS.m                 169.80:  WD ELEV
 AGAP.m                  43.00:  AIR GAP
 EPD .m                   0.00:  ELEVATION
 APD .m                  43.00:  DEPTH ABOVE PD
 LATI.deg                40.13:  LATITUDE
 LONG.deg                51.22:  LONGITUDE
 UTMY.m             4443793.85:  UTM Y
 UTMX.m              519005.06:  UTM X
 WHEW.m                 -11.57:  WELL HEAD E/W
 WHNS.m                   8.57:  WELL HEAD N/S
 VSEW.m                 -11.57:  VERT SEC E/W
 VSNS.m                   8.57:  VERT SEC N/S
 DFWL.m                   0.00:  DISTANCE FWL
 DFSL.m                   0.00:  DISTANCE FSL
 VSDR.deg               299.34:  VERT SEC DIRECT
 GVFD.g                   1.00:  GRAVITY FIELD
 AZTC.deg                 6.36:  AZM TOTAL CORR
 MFLD.nT              50391.00:  MAGNETIC FIELD
 MDIP.deg                59.65:  MAGNETIC DIP
 MDEC.deg                 6.48:  MAGNETIC DECL
 GRDC.deg                 0.12:  GRID CORRECTION
 DEP .m                 334.96:  DEPTH
 TDD .m                1407.26:  TOTAL DEPTH (DRILLER)
 EKB .m                  43.00:  KB ELEVATION
 EDF .m                  43.00:  DF ELEVATION
 TDL .m                 228.00:  TOTAL DEPTH (LOGGER)
 VSC .                       0:  VS TO CLOSURE
 MAGU.                 1854484:  MAGUTM CHECKSUM
~Parameter Information Block
#MNEM.UNIT       Value        Description
#---------     -----------    ---------------------------
 AV  .mps                 4.00:  Ann Velocity 
 AVMX.mps                 4.73:  Max Ann Veloc 
 AZIF.deg               304.48:  Azm, Final 
 BHAT.        Rotary Steerable:  BHA Type 
 BREV.rev            257300.00:  Rev Bit Total 
 BROT.°/30m               0.00:  Build Rotating 
 BS  .in                  8.50:  Bit Size 
 BSZ .in                  8.50:  Bit Size 
 BTPL.psig              589.00:  Bit Press Loss 
 CABU.                      No:  Customer Abuse 
 CGEO.          Mubariz ghayev:  Customer Geo 
 COMM.                     ü>:  Run Comments 1 
 TCS .hr                 64.25:  Time Ciculation Ended 
 CV  .mps                 3.50:  Crit Velocity 
 CVMX.mps                 4.52:  Max Crit Veloc 
 DD1 .             Aziz Aliyev:  Direct Drillr 1 
 DD2 .         Intigam Rahimov:  Direct Drillr 2 
 DD3 .          Rashad Habibov:  Direct Drillr 3 
 DDSV.               Geo-Pilot:  DD Service 
 DEFF.%                  98.00:  % Det Eff 
 DLRX.°/30m               0.00:  Dogleg Rot Max 
 DLSO.°/30m               0.00:  Dogleg Oriented 
 DLSX.°/30m               0.00:  Dogleg Str Max 
 DRET.      10.45.04 08-May-21:  Drill End Time 
 DRST.      03.30.04 04-May-21:  Drill Start Tim 
 DTIM.hr                 14.97:  Time Drilling 
 EDEP.m                4640.01:  End Depth 
 ENG1.         Dail Mahammadov:  Engineer 1 
 ENG2.           Eldar Hajiyev:  Engineer 2 
 ENG3.       Bakhtiar Jabbarli:  Engineer 3 
 ENG4.       Natik Hasanagayev:  Engineer 4 
 ETIM.      09.30.04 14-May-21:  End Time 
 FLOI.gpm               460.00:  Flow In 
 FLON.gpm               200.00:  Flow In Min 
 FLOS.cptm                0.00:  Fluid Loss 
 FLOX.gpm               505.00:  Flow In Max 
 HFLO.                      No:  High Flow 
 HPRE.                      No:  High Pressure 
 HTEM.                      No:  High Temp 
 HYDO.m                   1.80:  Hydro Offset 
 IFIN.deg                66.71:  Inc, Final 
 IMAX.deg                67.03:  Inc Max 
 IMIN.deg                66.63:  Inc Min 
 IMND.m                4550.58:  Inc Min Depth 
 IMXD.m                4439.01:  Inc Max Depth 
 JARR.                      No:  Jarring 
 LETM.      10.45.04 08-May-21:  Log End Time 
 LOST.hr                     0:  Lost Rig Time 
 LSTM.      03.30.04 04-May-21:  Log Start Time 
 MDCL.ppm             37000.00:  Mud Chlorides 
 MDES.     Inversion Oil/Synthetic:  Mud Desc 
 DFD .sg                  1.38:  Mud Density 
 MDMN.sg                  1.35:  Dens Mud Min 
 MDMX.sg                  1.40:  Dens Mud Max 
 MOIL.                   57.40:  Run Mud Oil % 
 MOWR.                   70:30:  Run Mud OWR 
 MSND.                    0.00:  Run Mud Sand % 
 MSOL.                   18.00:  Run Mud Solids% 
 DFV .spqt               71.00:  Mud Viscosity 
 MWOD.in                  6.75:  MWD Tool OD 
 MWSI.                      No:  Serv Intrp, MWD 
 OTIM.hr                242.76:  Time Operating 
 PCON.           Look Like New:  Pad Condition 
 PMAX.psia            12183.92:  Press Op, Max 
 PV  .cP                 27.00:  Mud PV 
 RUN .                    1300:  Run Number 
 ROPA.m/hr               15.00:  ROP Avg 
 ROPN.m/hr                9.00:  ROP Min 
 ROPX.m/hr               19.00:  ROP Max 
 RPMA.rpm               120.00:  RPM Surface Avg 
 RPMN.rpm               100.00:  RPM Surface Min 
 RPMX.rpm               120.00:  RPM Surface Max 
 RRUN.                    1300:  Rig Run Number 
 RTIM.hr                  5.00:  Time Reaming 
 SAZI.deg               304.73:  Azm, Start 
 SDEP.m                4412.01:  Start Depth 
 SIDD.                      No:  Serv Intrp, DD 
 SINC.deg                66.82:  Inc, Start 
 SPPA.psig             2800.00:  SPP Avg 
 SPPN.psig             2610.00:  SPP Min 
 SPPX.psig             3100.00:  SPP Max 
 STIM.      03.30.00 04-May-21:  Start Time 
 SVCS.                 DD, MWD:  Services 
 SVER.                    9.20:  Sperry Version 
 TDAT.m                 228.00:  Tot Depth Attmp 
 TDDF.                      No:  Trip for DD 
 TDLG.m                 228.00:  Tot Depth Loggd 
 TFF .                      No:  Trip for Fail 
 TQAA.f-kp               15.00:  Torque Abs Avg 
 TQAN.f-kp               12.00:  Torque Abs Min 
 TQAX.f-kp               22.00:  Torque Abs Max 
 TRRT.°/30m               0.00:  Turn Rotating 
 MRT .                    HCIM:  Maximum Recorded Temperature 
 TTMX.degC               90.20:  Max Tool Temp 
 VS01.                90627813:  Virtual Str1 SN 
 VS02.                90634712:  Virtual Str2 SN 
 VS03.                90643410:  Virtual Str3 SN 
 VS04.                90634712:  Virtual Str4 SN 
 WBMN.klb                 9.00:  WOB Min 
 WITN.        Elmaddin Rahimov:  Customer Rep 
 WITN.         Haytham Mostafa:  Customer Rep 2 
 WOBA.klb                15.00:  WOB Avg 
 WOBX.klb                23.00:  WOB Max 
 YP  .lhf2               29.00:  Yield Point 
~Curve Information Block
#MNEM.UNIT                 API CODE     Curve Description
#---------               -----------    ---------------------------
 TIME.HHMMSS            00 000 000 000:  GT Time & Date
 GTDEPTH.m              00 000 000 000:  GT Depth
 GTPQH.psia             00 000 000 000:  GT HR Quartz Pressure
 GTTQ.degC              00 000 000 000:  GT Quartz Temperature
 GTTN.NONE              00 000 000 000:  GT Test Number
 GTET.sec               00 000 000 000:  GT Elapsed Test Time
 GTTVD.m                00 000 000 000:  GT True Vertical Depth
#Other Information
#
#WARRANTY: Halliburton will use its best efforts to furnish customers with 
#accurate information and interpretations that are part of, and incident to, the services 
#provided.  However, Halliburton cannot and does not warrant the accuracy 
#or correctness of such information and interpretations.  Under no circumstances should any 
#such information or interpretation be relied upon as the sole basis for any drilling, 
#completion, production, or financial decision or any procedure involving any risk to the 
#safety of any drilling venture, drilling rig or its crew or any other third party.  The 
#Customer has full responsibility for all drilling, completion and production operation.  
#Halliburton makes no representations or warranties, either expressed or 
#implied, including, but not limited to, the implied warranties of merchantability or fitness 
#for a particular purpose, with respect to the services rendered.  In no event will 
#Halliburton be liable for failure to obtain any particular results or for 
#any damages, including, but not limited to, indirect, special or consequential damages, 
#resulting from the use of any information or interpretation provided by Halliburton.
#
~A           TIME           GTDEPTH  GTPQH  GTTQ  GTTN   GTET   GTTVD  
# ...
   03:21:26.928.09-May-2021 4480.01 3408.64 67.52 12.00 158.23 2964.27
   03:21:27.128.09-May-2021 4480.01 3389.39 67.52 12.00 158.43 2964.27
   03:21:27.328.09-May-2021 4480.01 3384.81 67.52 12.00 158.63 2964.27
   03:21:27.528.09-May-2021 4480.01 3383.39 67.52 12.00 158.83 2964.27
   03:21:27.728.09-May-2021 4480.01 3414.70 67.52 12.00 159.03 2964.27
   03:21:27.928.09-May-2021 4480.01 3414.70 67.52 12.00 159.23 2964.27
   03:21:28.128.09-May-2021 4480.01 3956.29 67.52 12.00 159.43 2964.27
   03:21:28.328.09-May-2021 4480.01 4057.24 67.52 12.00 159.63 2964.27
   03:21:28.528.09-May-2021 4480.01 4093.89 67.52 12.00 159.83 2964.27
   03:21:28.728.09-May-2021 4480.01 4105.67 67.52 12.00 160.03 2964.27
   03:21:28.928.09-May-2021 4480.01 4105.67 67.52 12.00 160.23 2964.27
   03:21:29.128.09-May-2021 4480.01 4110.60 67.52 12.00 160.43 2964.27
   03:21:29.328.09-May-2021 4480.01 4111.31 67.52 12.00 160.63 2964.27
   03:21:29.528.09-May-2021 4480.01 4111.37 67.52 12.00 160.83 2964.27
   03:21:29.728.09-May-2021 4480.01 4111.72 67.52 12.00 161.03 2964.27
   03:21:29.928.09-May-2021 4480.01 4111.72 67.52 12.00 161.23 2964.27
   03:21:30.128.09-May-2021 4480.01 4112.02 67.52 12.00 161.43 2964.27
   03:21:30.328.09-May-2021 4480.01 4112.16 67.52 12.00 161.63 2964.27
   03:21:30.528.09-May-2021 4480.01 4112.26 67.52 12.00 161.83 2964.27
   03:21:30.728.09-May-2021 4480.01 4112.36 67.53 12.00 162.03 2964.27
   03:21:30.928.09-May-2021 4480.01 4112.36 67.53 12.00 162.23 2964.27
   03:21:31.128.09-May-2021 4480.01 4112.50 67.53 12.00 162.43 2964.27
   03:21:31.328.09-May-2021 4480.01 4112.58 67.53 12.00 162.63 2964.27
   03:21:31.528.09-May-2021 4480.01 4112.50 67.53 12.00 162.83 2964.27
   03:21:31.728.09-May-2021 4480.01 4112.64 67.53 12.00 163.03 2964.27
   03:21:31.928.09-May-2021 4480.01 4112.64 67.53 12.00 163.23 2964.27
   03:21:32.128.09-May-2021 4480.01 4112.66 67.53 12.00 163.43 2964.27
   03:21:32.328.09-May-2021 4480.01 4112.92 67.53 12.00 163.63 2964.27
   03:21:32.528.09-May-2021 4480.01 4112.96 67.53 12.00 163.83 2964.27
   03:21:32.729.09-May-2021 4480.01 4112.82 67.53 12.00 164.03 2964.27
   03:21:32.929.09-May-2021 4480.01 4112.82 67.53 12.00 164.23 2964.27
   03:21:33.129.09-May-2021 4480.01 4112.88 67.53 12.00 164.43 2964.27
   03:21:33.329.09-May-2021 4480.01 4112.99 67.53 12.00 164.63 2964.27
   03:21:33.529.09-May-2021 4480.01 4113.00 67.53 12.00 164.83 2964.27
   03:21:33.729.09-May-2021 4480.01 4112.97 67.53 12.00 165.03 2964.27
   03:21:33.929.09-May-2021 4480.01 4112.97 67.53 12.00 165.23 2964.27
   03:21:34.129.09-May-2021 4480.01 4112.90 67.53 12.00 165.43 2964.27
   03:21:34.329.09-May-2021 4480.01 4113.11 67.53 12.00 165.63 2964.27
   03:21:34.529.09-May-2021 4480.01 4112.94 67.53 12.00 165.83 2964.27
   03:21:34.729.09-May-2021 4480.01 4113.06 67.53 12.00 166.03 2964.27
   03:21:34.929.09-May-2021 4480.01 4113.06 67.53 12.00 166.23 2964.27
   03:21:35.129.09-May-2021 4480.01 4113.06 67.53 12.00 166.43 2964.27
   03:21:35.329.09-May-2021 4480.01 4113.07 67.53 12.00 166.63 2964.27
   03:21:35.529.09-May-2021 4480.01 4113.07 67.53 12.00 166.83 2964.27
   03:21:35.729.09-May-2021 4480.01 4113.07 67.53 12.00 167.03 2964.27
   03:21:35.929.09-May-2021 4480.01 4113.07 67.53 12.00 167.23 2964.27
   03:21:36.129.09-May-2021 4480.01 4113.07 67.53 12.00 167.43 2964.27
   03:21:36.329.09-May-2021 4480.01 4112.98 67.53 12.00 167.63 2964.27
   03:21:36.529.09-May-2021 4480.01 4113.23 67.53 12.00 167.83 2964.27
   03:21:36.729.09-May-2021 4480.01 4113.07 67.53 12.00 168.03 2964.27
   03:21:36.929.09-May-2021 4480.01 4113.07 67.53 12.00 168.23 2964.27
   03:21:37.129.09-May-2021 4480.01 4113.07 67.54 12.00 168.43 2964.27
   03:21:37.329.09-May-2021 4480.01 4113.10 67.54 12.00 168.63 2964.27
   03:21:37.529.09-May-2021 4480.01 4113.11 67.54 12.00 168.83 2964.27
   03:21:37.729.09-May-2021 4480.01 4113.10 67.54 12.00 169.03 2964.27
   03:21:37.929.09-May-2021 4480.01 4113.10 67.54 12.00 169.23 2964.27
   03:21:38.129.09-May-2021 4480.01 4113.10 67.54 12.00 169.43 2964.27
   03:21:38.329.09-May-2021 4480.01 4113.11 67.54 12.00 169.63 2964.27
   03:21:38.529.09-May-2021 4480.01 4113.11 67.54 12.00 169.83 2964.27
   03:21:38.730.09-May-2021 4480.01 4113.11 67.54 12.00 170.03 2964.27
   03:21:38.930.09-May-2021 4480.01 4113.11 67.54 12.00 170.23 2964.27
   03:21:39.130.09-May-2021 4480.01 4113.21 67.54 12.00 170.43 2964.27
   03:21:39.330.09-May-2021 4480.01 4113.02 67.54 12.00 170.63 2964.27
   03:21:39.530.09-May-2021 4480.01 4113.19 67.54 12.00 170.83 2964.27
   03:21:39.730.09-May-2021 4480.01 4112.92 67.54 12.00 171.03 2964.27
   03:21:39.930.09-May-2021 4480.01 4112.92 67.54 12.00 171.23 2964.27
   03:21:40.130.09-May-2021 4480.01 4113.08 67.54 12.00 171.43 2964.27
   03:21:40.330.09-May-2021 4480.01 4113.13 67.54 12.00 171.63 2964.27
   03:21:40.530.09-May-2021 4480.01 4113.07 67.54 12.00 171.83 2964.27
   03:21:40.730.09-May-2021 4480.01 4113.15 67.54 12.00 172.03 2964.27
   03:21:40.930.09-May-2021 4480.01 4113.15 67.54 12.00 172.23 2964.27
   03:21:41.130.09-May-2021 4480.01 4113.09 67.54 12.00 172.43 2964.27
   03:21:41.330.09-May-2021 4480.01 4113.17 67.54 12.00 172.63 2964.27
   03:21:41.530.09-May-2021 4480.01 4113.06 67.54 12.00 172.83 2964.27
   03:21:41.730.09-May-2021 4480.01 4113.14 67.54 12.00 173.03 2964.27
   03:21:41.930.09-May-2021 4480.01 4113.14 67.54 12.00 173.23 2964.27
   03:21:42.130.09-May-2021 4480.01 4113.11 67.54 12.00 173.43 2964.27
   03:21:42.330.09-May-2021 4480.01 4113.12 67.54 12.00 173.63 2964.27
   03:21:42.530.09-May-2021 4480.01 4113.13 67.54 12.00 173.83 2964.27
   03:21:42.730.09-May-2021 4480.01 4113.14 67.54 12.00 174.03 2964.27
   03:21:42.930.09-May-2021 4480.01 4113.14 67.54 12.00 174.23 2964.27
   03:21:43.130.09-May-2021 4480.01 4113.13 67.54 12.00 174.43 2964.27
   03:21:43.330.09-May-2021 4480.01 4113.14 67.54 12.00 174.63 2964.27
   03:21:43.530.09-May-2021 4480.01 4113.13 67.54 12.00 174.83 2964.27
   03:21:43.730.09-May-2021 4480.01 4113.23 67.54 12.00 175.03 2964.27
   03:21:43.930.09-May-2021 4480.01 4113.23 67.54 12.00 175.23 2964.27
   03:21:44.130.09-May-2021 4480.01 4113.22 67.54 12.00 175.43 2964.27
   03:21:44.330.09-May-2021 4480.01 4113.04 67.54 12.00 175.63 2964.27
   03:21:44.530.09-May-2021 4480.01 4113.15 67.54 12.00 175.83 2964.27
   03:21:44.731.09-May-2021 4480.01 4113.13 67.54 12.00 176.03 2964.27
   03:21:44.931.09-May-2021 4480.01 4113.13 67.54 12.00 176.23 2964.27
   03:21:45.131.09-May-2021 4480.01 4113.13 67.54 12.00 176.43 2964.27
   03:21:45.331.09-May-2021 4480.01 4113.13 67.54 12.00 176.63 2964.27
   03:21:45.531.09-May-2021 4480.01 4113.13 67.54 12.00 176.83 2964.27
   03:21:45.731.09-May-2021 4480.01 4113.14 67.54 12.00 177.03 2964.27
   03:21:45.931.09-May-2021 4480.01 4113.14 67.54 12.00 177.23 2964.27
   03:21:46.131.09-May-2021 4480.01 4113.13 67.54 12.00 177.43 2964.27
   03:21:46.331.09-May-2021 4480.01 4113.16 67.54 12.00 177.63 2964.27
   03:21:46.531.09-May-2021 4480.01 4113.17 67.54 12.00 177.83 2964.27
   03:21:46.731.09-May-2021 4480.01 4113.10 67.54 12.00 178.03 2964.27
   03:21:46.931.09-May-2021 4480.01 4113.10 67.54 12.00 178.23 2964.27
   03:21:47.131.09-May-2021 4480.01 4113.17 67.54 12.00 178.43 2964.27
   03:21:47.331.09-May-2021 4480.01 4113.08 67.54 12.00 178.63 2964.27
   03:21:47.531.09-May-2021 4480.01 4113.13 67.54 12.00 178.83 2964.27
   03:21:47.731.09-May-2021 4480.01 4113.18 67.54 12.00 179.03 2964.27
   03:21:47.931.09-May-2021 4480.01 4113.18 67.54 12.00 179.23 2964.27
   03:21:48.131.09-May-2021 4480.01 4113.10 67.54 12.00 179.43 2964.27
   03:21:48.331.09-May-2021 4480.01 4113.05 67.54 12.00 179.63 2964.27
   03:21:48.531.09-May-2021 4480.01 4113.28 67.54 12.00 179.83 2964.27
   03:21:48.731.09-May-2021 4480.01 4113.09 67.54 12.00 180.03 2964.27
   03:21:48.931.09-May-2021 4480.01 4113.09 67.54 12.00 180.23 2964.27
   03:21:49.131.09-May-2021 4480.01 4113.12 67.54 12.00 180.43 2964.27
   03:21:49.331.09-May-2021 4480.01 4113.11 67.54 12.00 180.63 2964.27
