~Version Information
 VERS.                  2.0:   CWLS log ASCII Standard -VERSION 2.0
 WRAP.                   NO:   One line per depth step
~Well Information Block
#MNEM.UNIT     VALUE/NAME     DESCRIPTION
#---------     -----------    ---------------------------
 STRT.S             22:20:35 08-May-21: START TIME 22:20:35 08-May-21
 STOP.S             22:27:08 08-May-21: STOP TIME  22:27:08 08-May-21
 STEP.S                   0.00: STEP TIME
 NULL.                 -999.25: NULL VALUE
 PROV.                    Baku:  PROVINCE
 STAT.                    Baku:  STATE NAME
 SON .        AZ-XX-0906571588:  JOB NUMBER
 WTYP.                Deviated:  WELL TYPE
 COMP.     BP Exploration (Caspian Sea) ltd:  COMPANY
 BASE.              Azerbaijan:  LOGGING EQUIPMENT BASE LOCATION
 REGN.                   EESSA:  REGION
 CTRY.              Azerbaijan:  COUNTRY NAME
 FLD .                     ACG:  FIELD NAME
 WELL.                     J28:  WELL NAME
 RIG .             West Chirag:  RIG NAME
 DMF .             Drill Floor:  DRILL MEAS FROM
 PDAT.       Caspian Sea Level:  PERMANENT DATUM
 HPTY.       Minimum Curvature:  HOLE POS TYPE
 MDS .        Operator Entered:  MAG DATA SOURCE
 NREF.                    Grid:  NORTH REFERENCE
 SRVC.          TURAN DRILLING:  CONTRACTOR
 JOBN.        AZ-XX-0906571588:  JOB TICKET NUMB
 DCON.     Halliburton Sperry Drilling:  DIRECTNL CONTR
 STIM.      00.44.00 11-Feb-21:  START TIME
 DATE.      00.00.00 05-May-21:  END TIME
 SPUD.               13-Feb-21:  SPUD DATE
 MWDS.                    Baku:  MWD SHOP
 DOE .                     N/A:  DOE NUMBER
 UNIT.                     N/A:  LOGGING EQUIPMENT ID
 UWI .                     N/A:  UNIQUE WELL IDENTIFIER
 API .                     N/A:  API NUMBER
 CNTY.                        :  COUNTY
 LOC .                        :  LOCATION
 LMF .             Drill Floor:  LOG MEASURED FROM
 TVDS.m                  43.00:  TVDSS CORRECTN
 SDEP.m                 341.00:  START DEPTH
 EGL .m                   0.00:  GROUND ELEVATION
 WDMS.m                 169.80:  WD ELEV
 AGAP.m                  43.00:  AIR GAP
 EPD .m                   0.00:  ELEVATION
 APD .m                  43.00:  DEPTH ABOVE PD
 LATI.deg                40.13:  LATITUDE
 LONG.deg                51.22:  LONGITUDE
 UTMY.m             4443793.85:  UTM Y
 UTMX.m              519005.06:  UTM X
 WHEW.m                 -11.57:  WELL HEAD E/W
 WHNS.m                   8.57:  WELL HEAD N/S
 VSEW.m                 -11.57:  VERT SEC E/W
 VSNS.m                   8.57:  VERT SEC N/S
 DFWL.m                   0.00:  DISTANCE FWL
 DFSL.m                   0.00:  DISTANCE FSL
 VSDR.deg               299.34:  VERT SEC DIRECT
 GVFD.g                   1.00:  GRAVITY FIELD
 AZTC.deg                 6.36:  AZM TOTAL CORR
 MFLD.nT              50391.00:  MAGNETIC FIELD
 MDIP.deg                59.65:  MAGNETIC DIP
 MDEC.deg                 6.48:  MAGNETIC DECL
 GRDC.deg                 0.12:  GRID CORRECTION
 DEP .m                 334.96:  DEPTH
 TDD .m                1407.26:  TOTAL DEPTH (DRILLER)
 EKB .m                  43.00:  KB ELEVATION
 EDF .m                  43.00:  DF ELEVATION
 TDL .m                 228.00:  TOTAL DEPTH (LOGGER)
 VSC .                       0:  VS TO CLOSURE
 MAGU.                 1854484:  MAGUTM CHECKSUM
~Parameter Information Block
#MNEM.UNIT       Value        Description
#---------     -----------    ---------------------------
 AV  .mps                 4.00:  Ann Velocity 
 AVMX.mps                 4.73:  Max Ann Veloc 
 AZIF.deg               304.48:  Azm, Final 
 BHAT.        Rotary Steerable:  BHA Type 
 BREV.rev            257300.00:  Rev Bit Total 
 BROT.°/30m               0.00:  Build Rotating 
 BS  .in                  8.50:  Bit Size 
 BSZ .in                  8.50:  Bit Size 
 BTPL.psig              589.00:  Bit Press Loss 
 CABU.                      No:  Customer Abuse 
 CGEO.          Mubariz ghayev:  Customer Geo 
 COMM.                     lÿM:  Run Comments 1 
 TCS .hr                 64.25:  Time Ciculation Ended 
 CV  .mps                 3.50:  Crit Velocity 
 CVMX.mps                 4.52:  Max Crit Veloc 
 DD1 .             Aziz Aliyev:  Direct Drillr 1 
 DD2 .         Intigam Rahimov:  Direct Drillr 2 
 DD3 .          Rashad Habibov:  Direct Drillr 3 
 DDSV.               Geo-Pilot:  DD Service 
 DEFF.%                  98.00:  % Det Eff 
 DLRX.°/30m               0.00:  Dogleg Rot Max 
 DLSO.°/30m               0.00:  Dogleg Oriented 
 DLSX.°/30m               0.00:  Dogleg Str Max 
 DRET.      10.45.04 08-May-21:  Drill End Time 
 DRST.      03.30.04 04-May-21:  Drill Start Tim 
 DTIM.hr                 14.97:  Time Drilling 
 EDEP.m                4640.01:  End Depth 
 ENG1.         Dail Mahammadov:  Engineer 1 
 ENG2.           Eldar Hajiyev:  Engineer 2 
 ENG3.       Bakhtiar Jabbarli:  Engineer 3 
 ENG4.       Natik Hasanagayev:  Engineer 4 
 ETIM.      09.30.04 14-May-21:  End Time 
 FLOI.gpm               460.00:  Flow In 
 FLON.gpm               200.00:  Flow In Min 
 FLOS.cptm                0.00:  Fluid Loss 
 FLOX.gpm               505.00:  Flow In Max 
 HFLO.                      No:  High Flow 
 HPRE.                      No:  High Pressure 
 HTEM.                      No:  High Temp 
 HYDO.m                   1.80:  Hydro Offset 
 IFIN.deg                66.71:  Inc, Final 
 IMAX.deg                67.03:  Inc Max 
 IMIN.deg                66.63:  Inc Min 
 IMND.m                4550.58:  Inc Min Depth 
 IMXD.m                4439.01:  Inc Max Depth 
 JARR.                      No:  Jarring 
 LETM.      10.45.04 08-May-21:  Log End Time 
 LOST.hr                     0:  Lost Rig Time 
 LSTM.      03.30.04 04-May-21:  Log Start Time 
 MDCL.ppm             37000.00:  Mud Chlorides 
 MDES.     Inversion Oil/Synthetic:  Mud Desc 
 DFD .sg                  1.38:  Mud Density 
 MDMN.sg                  1.35:  Dens Mud Min 
 MDMX.sg                  1.40:  Dens Mud Max 
 MOIL.                   57.40:  Run Mud Oil % 
 MOWR.                   70:30:  Run Mud OWR 
 MSND.                    0.00:  Run Mud Sand % 
 MSOL.                   18.00:  Run Mud Solids% 
 DFV .spqt               71.00:  Mud Viscosity 
 MWOD.in                  6.75:  MWD Tool OD 
 MWSI.                      No:  Serv Intrp, MWD 
 OTIM.hr                242.76:  Time Operating 
 PCON.           Look Like New:  Pad Condition 
 PMAX.psia            12183.92:  Press Op, Max 
 PV  .cP                 27.00:  Mud PV 
 RUN .                    1300:  Run Number 
 ROPA.m/hr               15.00:  ROP Avg 
 ROPN.m/hr                9.00:  ROP Min 
 ROPX.m/hr               19.00:  ROP Max 
 RPMA.rpm               120.00:  RPM Surface Avg 
 RPMN.rpm               100.00:  RPM Surface Min 
 RPMX.rpm               120.00:  RPM Surface Max 
 RRUN.                    1300:  Rig Run Number 
 RTIM.hr                  5.00:  Time Reaming 
 SAZI.deg               304.73:  Azm, Start 
 SDEP.m                4412.01:  Start Depth 
 SIDD.                      No:  Serv Intrp, DD 
 SINC.deg                66.82:  Inc, Start 
 SPPA.psig             2800.00:  SPP Avg 
 SPPN.psig             2610.00:  SPP Min 
 SPPX.psig             3100.00:  SPP Max 
 STIM.      03.30.00 04-May-21:  Start Time 
 SVCS.                 DD, MWD:  Services 
 SVER.                    9.20:  Sperry Version 
 TDAT.m                 228.00:  Tot Depth Attmp 
 TDDF.                      No:  Trip for DD 
 TDLG.m                 228.00:  Tot Depth Loggd 
 TFF .                      No:  Trip for Fail 
 TQAA.f-kp               15.00:  Torque Abs Avg 
 TQAN.f-kp               12.00:  Torque Abs Min 
 TQAX.f-kp               22.00:  Torque Abs Max 
 TRRT.°/30m               0.00:  Turn Rotating 
 MRT .                    HCIM:  Maximum Recorded Temperature 
 TTMX.degC               90.20:  Max Tool Temp 
 VS01.                90627813:  Virtual Str1 SN 
 VS02.                90634712:  Virtual Str2 SN 
 VS03.                90643410:  Virtual Str3 SN 
 VS04.                90634712:  Virtual Str4 SN 
 WBMN.klb                 9.00:  WOB Min 
 WITN.        Elmaddin Rahimov:  Customer Rep 
 WITN.         Haytham Mostafa:  Customer Rep 2 
 WOBA.klb                15.00:  WOB Avg 
 WOBX.klb                23.00:  WOB Max 
 YP  .lhf2               29.00:  Yield Point 
~Curve Information Block
#MNEM.UNIT                 API CODE     Curve Description
#---------               -----------    ---------------------------
 TIME.HHMMSS            00 000 000 000:  GT Time & Date
 GTDEPTH.m              00 000 000 000:  GT Depth
 GTPQH.psia             00 000 000 000:  GT HR Quartz Pressure
 GTTQ.degC              00 000 000 000:  GT Quartz Temperature
 GTTN.NONE              00 000 000 000:  GT Test Number
 GTET.sec               00 000 000 000:  GT Elapsed Test Time
 GTTVD.m                00 000 000 000:  GT True Vertical Depth
#Other Information
#
#WARRANTY: Halliburton will use its best efforts to furnish customers with 
#accurate information and interpretations that are part of, and incident to, the services 
#provided.  However, Halliburton cannot and does not warrant the accuracy 
#or correctness of such information and interpretations.  Under no circumstances should any 
#such information or interpretation be relied upon as the sole basis for any drilling, 
#completion, production, or financial decision or any procedure involving any risk to the 
#safety of any drilling venture, drilling rig or its crew or any other third party.  The 
#Customer has full responsibility for all drilling, completion and production operation.  
#Halliburton makes no representations or warranties, either expressed or 
#implied, including, but not limited to, the implied warranties of merchantability or fitness 
#for a particular purpose, with respect to the services rendered.  In no event will 
#Halliburton be liable for failure to obtain any particular results or for 
#any damages, including, but not limited to, indirect, special or consequential damages, 
#resulting from the use of any information or interpretation provided by Halliburton.
#
~A           TIME           GTDEPTH  GTPQH  GTTQ  GTTN  GTET   GTTVD  
# ...
   22:22:30.000.08-May-2021 4569.01  823.55 68.48 4.00 115.00 2999.38
   22:22:30.200.08-May-2021 4569.01  823.55 68.48 4.00 115.20 2999.38
   22:22:30.400.08-May-2021 4569.01  823.78 68.48 4.00 115.40 2999.38
   22:22:30.600.08-May-2021 4569.01  823.80 68.48 4.00 115.60 2999.38
   22:22:30.800.08-May-2021 4569.01  823.83 68.48 4.00 115.80 2999.38
   22:22:31.000.08-May-2021 4569.01  824.67 68.48 4.00 116.00 2999.38
   22:22:31.200.08-May-2021 4569.01  824.67 68.48 4.00 116.20 2999.38
   22:22:31.400.08-May-2021 4569.01  824.43 68.48 4.00 116.40 2999.38
   22:22:31.600.08-May-2021 4569.01  824.93 68.48 4.00 116.60 2999.38
   22:22:31.800.08-May-2021 4569.01  825.18 68.48 4.00 116.80 2999.38
   22:22:32.000.08-May-2021 4569.01  825.13 68.48 4.00 117.00 2999.38
   22:22:32.200.08-May-2021 4569.01  825.13 68.48 4.00 117.20 2999.38
   22:22:32.400.08-May-2021 4569.01  825.75 68.48 4.00 117.40 2999.38
   22:22:32.600.08-May-2021 4569.01  825.56 68.48 4.00 117.60 2999.38
   22:22:32.800.08-May-2021 4569.01  825.70 68.48 4.00 117.80 2999.38
   22:22:33.000.08-May-2021 4569.01  825.66 68.48 4.00 118.00 2999.38
   22:22:33.200.08-May-2021 4569.01  825.66 68.48 4.00 118.20 2999.38
   22:22:33.400.08-May-2021 4569.01  826.51 68.48 4.00 118.40 2999.38
   22:22:33.600.08-May-2021 4569.01  826.36 68.48 4.00 118.60 2999.38
   22:22:33.800.08-May-2021 4569.01  826.60 68.48 4.00 118.80 2999.38
   22:22:34.000.08-May-2021 4569.01  826.52 68.48 4.00 119.00 2999.38
   22:22:34.200.08-May-2021 4569.01  826.52 68.48 4.00 119.20 2999.38
   22:22:34.400.08-May-2021 4569.01  826.82 68.48 4.00 119.40 2999.38
   22:22:34.600.08-May-2021 4569.01  826.96 68.48 4.00 119.60 2999.38
   22:22:34.800.08-May-2021 4569.01  827.05 68.48 4.00 119.80 2999.38
   22:22:35.000.08-May-2021 4569.01  827.17 68.48 4.00 120.00 2999.38
   22:22:35.200.08-May-2021 4569.01  827.17 68.48 4.00 120.20 2999.38
   22:22:35.400.08-May-2021 4569.01  827.32 68.48 4.00 120.40 2999.38
   22:22:35.600.08-May-2021 4569.01  827.56 68.48 4.00 120.60 2999.38
   22:22:35.800.08-May-2021 4569.01  827.33 68.48 4.00 120.80 2999.38
   22:22:36.000.08-May-2021 4569.01  828.24 68.48 4.00 121.00 2999.38
   22:22:36.200.08-May-2021 4569.01  828.24 68.48 4.00 121.20 2999.38
   22:22:36.400.08-May-2021 4569.01  828.13 68.48 4.00 121.40 2999.38
   22:22:36.600.08-May-2021 4569.01  828.27 68.48 4.00 121.60 2999.38
   22:22:36.800.08-May-2021 4569.01  828.31 68.48 4.00 121.80 2999.38
   22:22:37.000.08-May-2021 4569.01  828.42 68.48 4.00 122.00 2999.38
   22:22:37.200.08-May-2021 4569.01  828.42 68.48 4.00 122.20 2999.38
   22:22:37.400.08-May-2021 4569.01  828.64 68.48 4.00 122.40 2999.38
   22:22:37.600.08-May-2021 4569.01  828.73 68.48 4.00 122.60 2999.38
   22:22:37.800.08-May-2021 4569.01  828.82 68.48 4.00 122.80 2999.38
   22:22:38.000.08-May-2021 4569.01  828.91 68.48 4.00 123.00 2999.38
   22:22:38.200.08-May-2021 4569.01  828.91 68.48 4.00 123.20 2999.38
   22:22:38.400.08-May-2021 4569.01  828.85 68.48 4.00 123.40 2999.38
   22:22:38.600.08-May-2021 4569.01  829.69 68.48 4.00 123.60 2999.38
   22:22:38.800.08-May-2021 4569.01  829.45 68.48 4.00 123.80 2999.38
   22:22:39.000.08-May-2021 4569.01  829.39 68.48 4.00 124.00 2999.38
   22:22:39.200.08-May-2021 4569.01  829.39 68.48 4.00 124.20 2999.38
   22:22:39.400.08-May-2021 4569.01  829.50 68.48 4.00 124.40 2999.38
   22:22:39.600.08-May-2021 4569.01  830.13 68.48 4.00 124.60 2999.38
   22:22:39.800.08-May-2021 4569.01  830.16 68.48 4.00 124.80 2999.38
   22:22:40.000.08-May-2021 4569.01  829.97 68.48 4.00 125.00 2999.38
   22:22:40.200.08-May-2021 4569.01  829.97 68.48 4.00 125.20 2999.38
   22:22:40.400.08-May-2021 4569.01  830.45 68.48 4.00 125.40 2999.38
   22:22:40.600.08-May-2021 4569.01  830.55 68.48 4.00 125.60 2999.38
   22:22:40.800.08-May-2021 4569.01  830.60 68.48 4.00 125.80 2999.38
   22:22:41.000.08-May-2021 4569.01  830.47 68.48 4.00 126.00 2999.38
   22:22:41.200.08-May-2021 4569.01  830.47 68.48 4.00 126.20 2999.38
   22:22:41.400.08-May-2021 4569.01  831.09 68.48 4.00 126.40 2999.38
   22:22:41.600.08-May-2021 4569.01  831.16 68.48 4.00 126.60 2999.38
   22:22:41.800.08-May-2021 4569.01  831.32 68.48 4.00 126.80 2999.38
   22:22:42.000.08-May-2021 4569.01  831.37 68.48 4.00 127.00 2999.38
   22:22:42.200.08-May-2021 4569.01  831.37 68.48 4.00 127.20 2999.38
   22:22:42.400.08-May-2021 4569.01  831.59 68.48 4.00 127.40 2999.38
   22:22:42.600.08-May-2021 4569.01  831.72 68.48 4.00 127.60 2999.38
   22:22:42.800.08-May-2021 4569.01  831.82 68.48 4.00 127.80 2999.38
   22:22:43.000.08-May-2021 4569.01  831.91 68.48 4.00 128.00 2999.38
   22:22:43.200.08-May-2021 4569.01  831.91 68.48 4.00 128.20 2999.38
   22:22:43.400.08-May-2021 4569.01  832.02 68.48 4.00 128.40 2999.38
   22:22:43.600.08-May-2021 4569.01  832.47 68.48 4.00 128.60 2999.38
   22:22:43.800.08-May-2021 4569.01  832.67 68.48 4.00 128.80 2999.38
   22:22:44.000.08-May-2021 4569.01  832.60 68.48 4.00 129.00 2999.38
   22:22:44.200.08-May-2021 4569.01  832.60 68.48 4.00 129.20 2999.38
   22:22:44.400.08-May-2021 4569.01  832.75 68.48 4.00 129.40 2999.38
   22:22:44.600.08-May-2021 4569.01  832.83 68.48 4.00 129.60 2999.38
   22:22:44.800.08-May-2021 4569.01  832.89 68.48 4.00 129.80 2999.38
   22:22:45.000.08-May-2021 4569.01  833.00 68.48 4.00 130.00 2999.38
   22:22:45.200.08-May-2021 4569.01  833.00 68.48 4.00 130.20 2999.38
   22:22:45.400.08-May-2021 4569.01  833.19 68.48 4.00 130.40 2999.38
   22:22:45.600.08-May-2021 4569.01  833.26 68.48 4.00 130.60 2999.38
   22:22:45.800.08-May-2021 4569.01  833.36 68.48 4.00 130.80 2999.38
   22:22:46.000.08-May-2021 4569.01  833.03 68.48 4.00 131.00 2999.38
   22:22:46.200.08-May-2021 4569.01  833.03 68.48 4.00 131.20 2999.38
   22:22:46.400.08-May-2021 4569.01  833.73 68.48 4.00 131.40 2999.38
   22:22:46.600.08-May-2021 4569.01  833.90 68.48 4.00 131.60 2999.38
   22:22:46.800.08-May-2021 4569.01  833.47 68.48 4.00 131.80 2999.38
   22:22:47.000.08-May-2021 4569.01  834.24 68.48 4.00 132.00 2999.38
   22:22:47.200.08-May-2021 4569.01  834.24 68.48 4.00 132.20 2999.38
   22:22:47.400.08-May-2021 4569.01  834.44 68.48 4.00 132.40 2999.38
   22:22:47.600.08-May-2021 4569.01  834.15 68.48 4.00 132.60 2999.38
   22:22:47.800.08-May-2021 4569.01  834.20 68.48 4.00 132.80 2999.38
   22:22:48.000.08-May-2021 4569.01  834.96 68.48 4.00 133.00 2999.38
   22:22:48.200.08-May-2021 4569.01  834.96 68.48 4.00 133.20 2999.38
   22:22:48.400.08-May-2021 4569.01  834.57 68.48 4.00 133.40 2999.38
   22:22:48.600.08-May-2021 4569.01  834.57 68.48 4.00 133.60 2999.38
   22:22:48.800.08-May-2021 4569.01  835.27 68.48 4.00 133.80 2999.38
   22:22:49.000.08-May-2021 4569.01  835.03 68.48 4.00 134.00 2999.38
   22:22:49.200.08-May-2021 4569.01  835.03 68.48 4.00 134.20 2999.38
   22:22:49.400.08-May-2021 4569.01  835.23 68.48 4.00 134.40 2999.38
   22:22:49.600.08-May-2021 4569.01  835.27 68.48 4.00 134.60 2999.38
   22:22:49.800.08-May-2021 4569.01  835.33 68.48 4.00 134.80 2999.38
   22:22:50.000.08-May-2021 4569.01  835.43 68.48 4.00 135.00 2999.38
   22:22:50.200.08-May-2021 4569.01  835.43 68.48 4.00 135.20 2999.38
   22:22:50.400.08-May-2021 4569.01  835.69 68.48 4.00 135.40 2999.38
   22:22:50.600.08-May-2021 4569.01  835.77 68.48 4.00 135.60 2999.38
   22:22:50.800.08-May-2021 4569.01  835.86 68.48 4.00 135.80 2999.38
   22:22:51.000.08-May-2021 4569.01  835.60 68.48 4.00 136.00 2999.38
   22:22:51.200.08-May-2021 4569.01  835.60 68.48 4.00 136.20 2999.38
   22:22:51.400.08-May-2021 4569.01  836.53 68.48 4.00 136.40 2999.38
   22:22:51.600.08-May-2021 4569.01  836.46 68.48 4.00 136.60 2999.38
   22:22:51.800.08-May-2021 4569.01  836.43 68.48 4.00 136.80 2999.38
   22:22:52.000.08-May-2021 4569.01  836.53 68.48 4.00 137.00 2999.38
   22:22:52.200.08-May-2021 4569.01  836.53 68.48 4.00 137.20 2999.38
   22:22:52.400.08-May-2021 4569.01  836.70 68.48 4.00 137.40 2999.38
   22:22:52.600.08-May-2021 4569.01  836.76 68.48 4.00 137.60 2999.38
   22:22:52.800.08-May-2021 4569.01  836.83 68.48 4.00 137.80 2999.38
