~Version Information
 VERS.                  2.0:   CWLS log ASCII Standard -VERSION 2.0
 WRAP.                   NO:   One line per depth step
~Well Information Block
#MNEM.UNIT     VALUE/NAME     DESCRIPTION
#---------     -----------    ---------------------------
 STRT.S             01:38:21 09-May-21: START TIME 01:38:21 09-May-21
 STOP.S             01:44:59 09-May-21: STOP TIME  01:44:59 09-May-21
 STEP.S                   0.00: STEP TIME
 NULL.                 -999.25: NULL VALUE
 PROV.                    Baku:  PROVINCE
 STAT.                    Baku:  STATE NAME
 SON .        AZ-XX-0906571588:  JOB NUMBER
 WTYP.                Deviated:  WELL TYPE
 COMP.     BP Exploration (Caspian Sea) ltd:  COMPANY
 BASE.              Azerbaijan:  LOGGING EQUIPMENT BASE LOCATION
 REGN.                   EESSA:  REGION
 CTRY.              Azerbaijan:  COUNTRY NAME
 FLD .                     ACG:  FIELD NAME
 WELL.                     J28:  WELL NAME
 RIG .             West Chirag:  RIG NAME
 DMF .             Drill Floor:  DRILL MEAS FROM
 PDAT.       Caspian Sea Level:  PERMANENT DATUM
 HPTY.       Minimum Curvature:  HOLE POS TYPE
 MDS .        Operator Entered:  MAG DATA SOURCE
 NREF.                    Grid:  NORTH REFERENCE
 SRVC.          TURAN DRILLING:  CONTRACTOR
 JOBN.        AZ-XX-0906571588:  JOB TICKET NUMB
 DCON.     Halliburton Sperry Drilling:  DIRECTNL CONTR
 STIM.      00.44.00 11-Feb-21:  START TIME
 DATE.      00.00.00 05-May-21:  END TIME
 SPUD.               13-Feb-21:  SPUD DATE
 MWDS.                    Baku:  MWD SHOP
 DOE .                     N/A:  DOE NUMBER
 UNIT.                     N/A:  LOGGING EQUIPMENT ID
 UWI .                     N/A:  UNIQUE WELL IDENTIFIER
 API .                     N/A:  API NUMBER
 CNTY.                        :  COUNTY
 LOC .                        :  LOCATION
 LMF .             Drill Floor:  LOG MEASURED FROM
 TVDS.m                  43.00:  TVDSS CORRECTN
 SDEP.m                 341.00:  START DEPTH
 EGL .m                   0.00:  GROUND ELEVATION
 WDMS.m                 169.80:  WD ELEV
 AGAP.m                  43.00:  AIR GAP
 EPD .m                   0.00:  ELEVATION
 APD .m                  43.00:  DEPTH ABOVE PD
 LATI.deg                40.13:  LATITUDE
 LONG.deg                51.22:  LONGITUDE
 UTMY.m             4443793.85:  UTM Y
 UTMX.m              519005.06:  UTM X
 WHEW.m                 -11.57:  WELL HEAD E/W
 WHNS.m                   8.57:  WELL HEAD N/S
 VSEW.m                 -11.57:  VERT SEC E/W
 VSNS.m                   8.57:  VERT SEC N/S
 DFWL.m                   0.00:  DISTANCE FWL
 DFSL.m                   0.00:  DISTANCE FSL
 VSDR.deg               299.34:  VERT SEC DIRECT
 GVFD.g                   1.00:  GRAVITY FIELD
 AZTC.deg                 6.36:  AZM TOTAL CORR
 MFLD.nT              50391.00:  MAGNETIC FIELD
 MDIP.deg                59.65:  MAGNETIC DIP
 MDEC.deg                 6.48:  MAGNETIC DECL
 GRDC.deg                 0.12:  GRID CORRECTION
 DEP .m                 334.96:  DEPTH
 TDD .m                1407.26:  TOTAL DEPTH (DRILLER)
 EKB .m                  43.00:  KB ELEVATION
 EDF .m                  43.00:  DF ELEVATION
 TDL .m                 228.00:  TOTAL DEPTH (LOGGER)
 VSC .                       0:  VS TO CLOSURE
 MAGU.                 1854484:  MAGUTM CHECKSUM
~Parameter Information Block
#MNEM.UNIT       Value        Description
#---------     -----------    ---------------------------
 AV  .mps                 4.00:  Ann Velocity 
 AVMX.mps                 4.73:  Max Ann Veloc 
 AZIF.deg               304.48:  Azm, Final 
 BHAT.        Rotary Steerable:  BHA Type 
 BREV.rev            257300.00:  Rev Bit Total 
 BROT.°/30m               0.00:  Build Rotating 
 BS  .in                  8.50:  Bit Size 
 BSZ .in                  8.50:  Bit Size 
 BTPL.psig              589.00:  Bit Press Loss 
 CABU.                      No:  Customer Abuse 
 CGEO.          Mubariz ghayev:  Customer Geo 
 TCS .hr                 64.25:  Time Ciculation Ended 
 CV  .mps                 3.50:  Crit Velocity 
 CVMX.mps                 4.52:  Max Crit Veloc 
 DD1 .             Aziz Aliyev:  Direct Drillr 1 
 DD2 .         Intigam Rahimov:  Direct Drillr 2 
 DD3 .          Rashad Habibov:  Direct Drillr 3 
 DDSV.               Geo-Pilot:  DD Service 
 DEFF.%                  98.00:  % Det Eff 
 DLRX.°/30m               0.00:  Dogleg Rot Max 
 DLSO.°/30m               0.00:  Dogleg Oriented 
 DLSX.°/30m               0.00:  Dogleg Str Max 
 DRET.      10.45.04 08-May-21:  Drill End Time 
 DRST.      03.30.04 04-May-21:  Drill Start Tim 
 DTIM.hr                 14.97:  Time Drilling 
 EDEP.m                4640.01:  End Depth 
 ENG1.         Dail Mahammadov:  Engineer 1 
 ENG2.           Eldar Hajiyev:  Engineer 2 
 ENG3.       Bakhtiar Jabbarli:  Engineer 3 
 ENG4.       Natik Hasanagayev:  Engineer 4 
 ETIM.      09.30.04 14-May-21:  End Time 
 FLOI.gpm               460.00:  Flow In 
 FLON.gpm               200.00:  Flow In Min 
 FLOS.cptm                0.00:  Fluid Loss 
 FLOX.gpm               505.00:  Flow In Max 
 HFLO.                      No:  High Flow 
 HPRE.                      No:  High Pressure 
 HTEM.                      No:  High Temp 
 HYDO.m                   1.80:  Hydro Offset 
 IFIN.deg                66.71:  Inc, Final 
 IMAX.deg                67.03:  Inc Max 
 IMIN.deg                66.63:  Inc Min 
 IMND.m                4550.58:  Inc Min Depth 
 IMXD.m                4439.01:  Inc Max Depth 
 JARR.                      No:  Jarring 
 LETM.      10.45.04 08-May-21:  Log End Time 
 LOST.hr                     0:  Lost Rig Time 
 LSTM.      03.30.04 04-May-21:  Log Start Time 
 MDCL.ppm             37000.00:  Mud Chlorides 
 MDES.     Inversion Oil/Synthetic:  Mud Desc 
 DFD .sg                  1.38:  Mud Density 
 MDMN.sg                  1.35:  Dens Mud Min 
 MDMX.sg                  1.40:  Dens Mud Max 
 MOIL.                   57.40:  Run Mud Oil % 
 MOWR.                   70:30:  Run Mud OWR 
 MSND.                    0.00:  Run Mud Sand % 
 MSOL.                   18.00:  Run Mud Solids% 
 DFV .spqt               71.00:  Mud Viscosity 
 MWOD.in                  6.75:  MWD Tool OD 
 MWSI.                      No:  Serv Intrp, MWD 
 OTIM.hr                242.76:  Time Operating 
 PCON.           Look Like New:  Pad Condition 
 PMAX.psia            12183.92:  Press Op, Max 
 PV  .cP                 27.00:  Mud PV 
 RUN .                    1300:  Run Number 
 ROPA.m/hr               15.00:  ROP Avg 
 ROPN.m/hr                9.00:  ROP Min 
 ROPX.m/hr               19.00:  ROP Max 
 RPMA.rpm               120.00:  RPM Surface Avg 
 RPMN.rpm               100.00:  RPM Surface Min 
 RPMX.rpm               120.00:  RPM Surface Max 
 RRUN.                    1300:  Rig Run Number 
 RTIM.hr                  5.00:  Time Reaming 
 SAZI.deg               304.73:  Azm, Start 
 SDEP.m                4412.01:  Start Depth 
 SIDD.                      No:  Serv Intrp, DD 
 SINC.deg                66.82:  Inc, Start 
 SPPA.psig             2800.00:  SPP Avg 
 SPPN.psig             2610.00:  SPP Min 
 SPPX.psig             3100.00:  SPP Max 
 STIM.      03.30.00 04-May-21:  Start Time 
 SVCS.                 DD, MWD:  Services 
 SVER.                    9.20:  Sperry Version 
 TDAT.m                 228.00:  Tot Depth Attmp 
 TDDF.                      No:  Trip for DD 
 TDLG.m                 228.00:  Tot Depth Loggd 
 TFF .                      No:  Trip for Fail 
 TQAA.f-kp               15.00:  Torque Abs Avg 
 TQAN.f-kp               12.00:  Torque Abs Min 
 TQAX.f-kp               22.00:  Torque Abs Max 
 TRRT.°/30m               0.00:  Turn Rotating 
 MRT .                    HCIM:  Maximum Recorded Temperature 
 TTMX.degC               90.20:  Max Tool Temp 
 VS01.                90627813:  Virtual Str1 SN 
 VS02.                90634712:  Virtual Str2 SN 
 VS03.                90643410:  Virtual Str3 SN 
 VS04.                90634712:  Virtual Str4 SN 
 WBMN.klb                 9.00:  WOB Min 
 WITN.        Elmaddin Rahimov:  Customer Rep 
 WITN.         Haytham Mostafa:  Customer Rep 2 
 WOBA.klb                15.00:  WOB Avg 
 WOBX.klb                23.00:  WOB Max 
 YP  .lhf2               29.00:  Yield Point 
~Curve Information Block
#MNEM.UNIT                 API CODE     Curve Description
#---------               -----------    ---------------------------
 TIME.HHMMSS            00 000 000 000:  GT Time & Date
 GTDEPTH.m              00 000 000 000:  GT Depth
 GTPQH.psia             00 000 000 000:  GT HR Quartz Pressure
 GTTQ.degC              00 000 000 000:  GT Quartz Temperature
 GTTN.NONE              00 000 000 000:  GT Test Number
 GTET.sec               00 000 000 000:  GT Elapsed Test Time
 GTTVD.m                00 000 000 000:  GT True Vertical Depth
#Other Information
#
#WARRANTY: Halliburton will use its best efforts to furnish customers with 
#accurate information and interpretations that are part of, and incident to, the services 
#provided.  However, Halliburton cannot and does not warrant the accuracy 
#or correctness of such information and interpretations.  Under no circumstances should any 
#such information or interpretation be relied upon as the sole basis for any drilling, 
#completion, production, or financial decision or any procedure involving any risk to the 
#safety of any drilling venture, drilling rig or its crew or any other third party.  The 
#Customer has full responsibility for all drilling, completion and production operation.  
#Halliburton makes no representations or warranties, either expressed or 
#implied, including, but not limited to, the implied warranties of merchantability or fitness 
#for a particular purpose, with respect to the services rendered.  In no event will 
#Halliburton be liable for failure to obtain any particular results or for 
#any damages, including, but not limited to, indirect, special or consequential damages, 
#resulting from the use of any information or interpretation provided by Halliburton.
#
~A           TIME           GTDEPTH  GTPQH  GTTQ  GTTN   GTET   GTTVD  
# ...
   01:44:45.675.09-May-2021 4502.51 6777.83 67.66 10.00 384.34 2973.10
   01:44:45.875.09-May-2021 4502.51 6777.74 67.66 10.00 384.54 2973.10
   01:44:46.075.09-May-2021 4502.51 6778.68 67.66 10.00 384.74 2973.10
   01:44:46.275.09-May-2021 4502.51 6778.28 67.66 10.00 384.94 2973.10
   01:44:46.475.09-May-2021 4502.51 6787.82 67.66 10.00 385.14 2973.10
   01:44:46.675.09-May-2021 4502.51 6787.82 67.66 10.00 385.34 2973.10
   01:44:46.875.09-May-2021 4502.51 6783.69 67.66 10.00 385.54 2973.10
   01:44:47.075.09-May-2021 4502.51 6783.02 67.66 10.00 385.74 2973.10
   01:44:47.275.09-May-2021 4502.51 6787.47 67.66 10.00 385.94 2973.10
   01:44:47.475.09-May-2021 4502.51 6783.68 67.66 10.00 386.14 2973.10
   01:44:47.675.09-May-2021 4502.51 6783.68 67.66 10.00 386.34 2973.10
   01:44:47.876.09-May-2021 4502.51 6783.26 67.66 10.00 386.54 2973.10
   01:44:48.076.09-May-2021 4502.51 6780.62 67.66 10.00 386.74 2973.10
   01:44:48.276.09-May-2021 4502.51 6778.92 67.65 10.00 386.94 2973.10
   01:44:48.476.09-May-2021 4502.51 6784.15 67.65 10.00 387.14 2973.10
   01:44:48.676.09-May-2021 4502.51 6784.15 67.65 10.00 387.34 2973.10
   01:44:48.876.09-May-2021 4502.51 6782.66 67.65 10.00 387.54 2973.10
   01:44:49.076.09-May-2021 4502.51 6784.08 67.65 10.00 387.74 2973.10
   01:44:49.276.09-May-2021 4502.51 6780.32 67.65 10.00 387.94 2973.10
   01:44:49.476.09-May-2021 4502.51 6778.30 67.65 10.00 388.14 2973.10
   01:44:49.676.09-May-2021 4502.51 6778.30 67.65 10.00 388.34 2973.10
   01:44:49.876.09-May-2021 4502.51 6780.19 67.65 10.00 388.54 2973.10
   01:44:50.076.09-May-2021 4502.51 6784.16 67.65 10.00 388.74 2973.10
   01:44:50.276.09-May-2021 4502.51 6781.85 67.65 10.00 388.94 2973.10
   01:44:50.476.09-May-2021 4502.51 6781.19 67.65 10.00 389.14 2973.10
   01:44:50.677.09-May-2021 4502.51 6781.19 67.65 10.00 389.34 2973.10
   01:44:50.877.09-May-2021 4502.51 6778.53 67.65 10.00 389.54 2973.10
   01:44:51.077.09-May-2021 4502.51 6779.14 67.65 10.00 389.74 2973.10
   01:44:51.277.09-May-2021 4502.51 6778.68 67.65 10.00 389.94 2973.10
   01:44:51.477.09-May-2021 4502.51 6779.53 67.65 10.00 390.14 2973.10
   01:44:51.677.09-May-2021 4502.51 6779.53 67.65 10.00 390.34 2973.10
   01:44:51.877.09-May-2021 4502.51 6779.56 67.65 10.00 390.54 2973.10
   01:44:52.077.09-May-2021 4502.51 6778.74 67.65 10.00 390.74 2973.10
   01:44:52.277.09-May-2021 4502.51 6784.94 67.65 10.00 390.94 2973.10
   01:44:52.477.09-May-2021 4502.51 6783.24 67.65 10.00 391.14 2973.10
   01:44:52.677.09-May-2021 4502.51 6783.24 67.65 10.00 391.34 2973.10
   01:44:52.877.09-May-2021 4502.51 6784.30 67.65 10.00 391.54 2973.10
   01:44:53.077.09-May-2021 4502.51 6781.09 67.65 10.00 391.74 2973.10
   01:44:53.277.09-May-2021 4502.51 6778.87 67.65 10.00 391.94 2973.10
   01:44:53.478.09-May-2021 4502.51 6778.39 67.65 10.00 392.14 2973.10
   01:44:53.678.09-May-2021 4502.51 6778.39 67.65 10.00 392.34 2973.10
   01:44:53.878.09-May-2021 4502.51 6777.52 67.65 10.00 392.54 2973.10
   01:44:54.078.09-May-2021 4502.51 6777.73 67.65 10.00 392.74 2973.10
   01:44:54.278.09-May-2021 4502.51 6777.69 67.65 10.00 392.94 2973.10
   01:44:54.478.09-May-2021 4502.51 6779.37 67.65 10.00 393.14 2973.10
   01:44:54.678.09-May-2021 4502.51 6779.37 67.65 10.00 393.34 2973.10
   01:44:54.878.09-May-2021 4502.51 6777.48 67.64 10.00 393.54 2973.10
   01:44:55.078.09-May-2021 4502.51 6787.37 67.64 10.00 393.74 2973.10
   01:44:55.278.09-May-2021 4502.51 6785.18 67.64 10.00 393.94 2973.10
   01:44:55.478.09-May-2021 4502.51 6786.88 67.64 10.00 394.14 2973.10
   01:44:55.678.09-May-2021 4502.51 6786.88 67.64 10.00 394.34 2973.10
   01:44:55.878.09-May-2021 4502.51 6789.08 67.64 10.00 394.54 2973.10
   01:44:56.079.09-May-2021 4502.51 6781.27 67.64 10.00 394.74 2973.10
   01:44:56.279.09-May-2021 4502.51 6784.30 67.64 10.00 394.94 2973.10
   01:44:56.479.09-May-2021 4502.51 6782.66 67.64 10.00 395.14 2973.10
   01:44:56.679.09-May-2021 4502.51 6782.66 67.64 10.00 395.34 2973.10
   01:44:56.879.09-May-2021 4502.51 6777.97 67.64 10.00 395.54 2973.10
   01:44:57.079.09-May-2021 4502.51 6785.90 67.64 10.00 395.74 2973.10
   01:44:57.279.09-May-2021 4502.51 6783.10 67.64 10.00 395.94 2973.10
   01:44:57.479.09-May-2021 4502.51 6786.09 67.64 10.00 396.14 2973.10
   01:44:57.679.09-May-2021 4502.51 6786.09 67.64 10.00 396.34 2973.10
   01:44:57.879.09-May-2021 4502.51 6778.96 67.64 10.00 396.54 2973.10
   01:44:58.079.09-May-2021 4502.51 6780.10 67.64 10.00 396.74 2973.10
   01:44:58.279.09-May-2021 4502.51 6785.57 67.64 10.00 396.94 2973.10
   01:44:58.479.09-May-2021 4502.51 6785.49 67.64 10.00 397.14 2973.10
   01:44:58.679.09-May-2021 4502.51 6785.49 67.64 10.00 397.34 2973.10
   01:44:58.880.09-May-2021 4502.51 6779.06 67.64 10.00 397.54 2973.10
   01:44:59.080.09-May-2021 4502.51 6779.58 67.64 10.00 397.74 2973.10
   01:44:59.280.09-May-2021 4502.51 6779.15 67.64 10.00 397.94 2973.10
