~Version Information
 VERS.                  2.0:   CWLS log ASCII Standard -VERSION 2.0
 WRAP.                   NO:   One line per depth step
~Well Information Block
#MNEM.UNIT     VALUE/NAME     DESCRIPTION
#---------     -----------    ---------------------------
 STRT.S             07:52:13 09-May-21: START TIME 07:52:13 09-May-21
 STOP.S             07:59:09 09-May-21: STOP TIME  07:59:09 09-May-21
 STEP.S                   0.00: STEP TIME
 NULL.                 -999.25: NULL VALUE
 PROV.                    Baku:  PROVINCE
 STAT.                    Baku:  STATE NAME
 SON .        AZ-XX-0906571588:  JOB NUMBER
 WTYP.                Deviated:  WELL TYPE
 COMP.     BP Exploration (Caspian Sea) ltd:  COMPANY
 BASE.              Azerbaijan:  LOGGING EQUIPMENT BASE LOCATION
 REGN.                   EESSA:  REGION
 CTRY.              Azerbaijan:  COUNTRY NAME
 FLD .                     ACG:  FIELD NAME
 WELL.                     J28:  WELL NAME
 RIG .             West Chirag:  RIG NAME
 DMF .             Drill Floor:  DRILL MEAS FROM
 PDAT.       Caspian Sea Level:  PERMANENT DATUM
 HPTY.       Minimum Curvature:  HOLE POS TYPE
 MDS .        Operator Entered:  MAG DATA SOURCE
 NREF.                    Grid:  NORTH REFERENCE
 SRVC.          TURAN DRILLING:  CONTRACTOR
 JOBN.        AZ-XX-0906571588:  JOB TICKET NUMB
 DCON.     Halliburton Sperry Drilling:  DIRECTNL CONTR
 STIM.      00.44.00 11-Feb-21:  START TIME
 DATE.      00.00.00 05-May-21:  END TIME
 SPUD.               13-Feb-21:  SPUD DATE
 MWDS.                    Baku:  MWD SHOP
 DOE .                     N/A:  DOE NUMBER
 UNIT.                     N/A:  LOGGING EQUIPMENT ID
 UWI .                     N/A:  UNIQUE WELL IDENTIFIER
 API .                     N/A:  API NUMBER
 CNTY.                        :  COUNTY
 LOC .                        :  LOCATION
 LMF .             Drill Floor:  LOG MEASURED FROM
 TVDS.m                  43.00:  TVDSS CORRECTN
 SDEP.m                 341.00:  START DEPTH
 EGL .m                   0.00:  GROUND ELEVATION
 WDMS.m                 169.80:  WD ELEV
 AGAP.m                  43.00:  AIR GAP
 EPD .m                   0.00:  ELEVATION
 APD .m                  43.00:  DEPTH ABOVE PD
 LATI.deg                40.13:  LATITUDE
 LONG.deg                51.22:  LONGITUDE
 UTMY.m             4443793.85:  UTM Y
 UTMX.m              519005.06:  UTM X
 WHEW.m                 -11.57:  WELL HEAD E/W
 WHNS.m                   8.57:  WELL HEAD N/S
 VSEW.m                 -11.57:  VERT SEC E/W
 VSNS.m                   8.57:  VERT SEC N/S
 DFWL.m                   0.00:  DISTANCE FWL
 DFSL.m                   0.00:  DISTANCE FSL
 VSDR.deg               299.34:  VERT SEC DIRECT
 GVFD.g                   1.00:  GRAVITY FIELD
 AZTC.deg                 6.36:  AZM TOTAL CORR
 MFLD.nT              50391.00:  MAGNETIC FIELD
 MDIP.deg                59.65:  MAGNETIC DIP
 MDEC.deg                 6.48:  MAGNETIC DECL
 GRDC.deg                 0.12:  GRID CORRECTION
 DEP .m                 334.96:  DEPTH
 TDD .m                1407.26:  TOTAL DEPTH (DRILLER)
 EKB .m                  43.00:  KB ELEVATION
 EDF .m                  43.00:  DF ELEVATION
 TDL .m                 228.00:  TOTAL DEPTH (LOGGER)
 VSC .                       0:  VS TO CLOSURE
 MAGU.                 1854484:  MAGUTM CHECKSUM
~Parameter Information Block
#MNEM.UNIT       Value        Description
#---------     -----------    ---------------------------
 AV  .mps                 4.00:  Ann Velocity 
 AVMX.mps                 4.73:  Max Ann Veloc 
 AZIF.deg               304.48:  Azm, Final 
 BHAT.        Rotary Steerable:  BHA Type 
 BREV.rev            257300.00:  Rev Bit Total 
 BROT.°/30m               0.00:  Build Rotating 
 BS  .in                  8.50:  Bit Size 
 BSZ .in                  8.50:  Bit Size 
 BTPL.psig              589.00:  Bit Press Loss 
 CABU.                      No:  Customer Abuse 
 CGEO.          Mubariz ghayev:  Customer Geo 
 TCS .hr                 64.25:  Time Ciculation Ended 
 CV  .mps                 3.50:  Crit Velocity 
 CVMX.mps                 4.52:  Max Crit Veloc 
 DD1 .             Aziz Aliyev:  Direct Drillr 1 
 DD2 .         Intigam Rahimov:  Direct Drillr 2 
 DD3 .          Rashad Habibov:  Direct Drillr 3 
 DDSV.               Geo-Pilot:  DD Service 
 DEFF.%                  98.00:  % Det Eff 
 DLRX.°/30m               0.00:  Dogleg Rot Max 
 DLSO.°/30m               0.00:  Dogleg Oriented 
 DLSX.°/30m               0.00:  Dogleg Str Max 
 DRET.      10.45.04 08-May-21:  Drill End Time 
 DRST.      03.30.04 04-May-21:  Drill Start Tim 
 DTIM.hr                 14.97:  Time Drilling 
 EDEP.m                4640.01:  End Depth 
 ENG1.         Dail Mahammadov:  Engineer 1 
 ENG2.           Eldar Hajiyev:  Engineer 2 
 ENG3.       Bakhtiar Jabbarli:  Engineer 3 
 ENG4.       Natik Hasanagayev:  Engineer 4 
 ETIM.      09.30.04 14-May-21:  End Time 
 FLOI.gpm               460.00:  Flow In 
 FLON.gpm               200.00:  Flow In Min 
 FLOS.cptm                0.00:  Fluid Loss 
 FLOX.gpm               505.00:  Flow In Max 
 HFLO.                      No:  High Flow 
 HPRE.                      No:  High Pressure 
 HTEM.                      No:  High Temp 
 HYDO.m                   1.80:  Hydro Offset 
 IFIN.deg                66.71:  Inc, Final 
 IMAX.deg                67.03:  Inc Max 
 IMIN.deg                66.63:  Inc Min 
 IMND.m                4550.58:  Inc Min Depth 
 IMXD.m                4439.01:  Inc Max Depth 
 JARR.                      No:  Jarring 
 LETM.      10.45.04 08-May-21:  Log End Time 
 LOST.hr                     0:  Lost Rig Time 
 LSTM.      03.30.04 04-May-21:  Log Start Time 
 MDCL.ppm             37000.00:  Mud Chlorides 
 MDES.     Inversion Oil/Synthetic:  Mud Desc 
 DFD .sg                  1.38:  Mud Density 
 MDMN.sg                  1.35:  Dens Mud Min 
 MDMX.sg                  1.40:  Dens Mud Max 
 MOIL.                   57.40:  Run Mud Oil % 
 MOWR.                   70:30:  Run Mud OWR 
 MSND.                    0.00:  Run Mud Sand % 
 MSOL.                   18.00:  Run Mud Solids% 
 DFV .spqt               71.00:  Mud Viscosity 
 MWOD.in                  6.75:  MWD Tool OD 
 MWSI.                      No:  Serv Intrp, MWD 
 OTIM.hr                242.76:  Time Operating 
 PCON.           Look Like New:  Pad Condition 
 PMAX.psia            12183.92:  Press Op, Max 
 PV  .cP                 27.00:  Mud PV 
 RUN .                    1300:  Run Number 
 ROPA.m/hr               15.00:  ROP Avg 
 ROPN.m/hr                9.00:  ROP Min 
 ROPX.m/hr               19.00:  ROP Max 
 RPMA.rpm               120.00:  RPM Surface Avg 
 RPMN.rpm               100.00:  RPM Surface Min 
 RPMX.rpm               120.00:  RPM Surface Max 
 RRUN.                    1300:  Rig Run Number 
 RTIM.hr                  5.00:  Time Reaming 
 SAZI.deg               304.73:  Azm, Start 
 SDEP.m                4412.01:  Start Depth 
 SIDD.                      No:  Serv Intrp, DD 
 SINC.deg                66.82:  Inc, Start 
 SPPA.psig             2800.00:  SPP Avg 
 SPPN.psig             2610.00:  SPP Min 
 SPPX.psig             3100.00:  SPP Max 
 STIM.      03.30.00 04-May-21:  Start Time 
 SVCS.                 DD, MWD:  Services 
 SVER.                    9.20:  Sperry Version 
 TDAT.m                 228.00:  Tot Depth Attmp 
 TDDF.                      No:  Trip for DD 
 TDLG.m                 228.00:  Tot Depth Loggd 
 TFF .                      No:  Trip for Fail 
 TQAA.f-kp               15.00:  Torque Abs Avg 
 TQAN.f-kp               12.00:  Torque Abs Min 
 TQAX.f-kp               22.00:  Torque Abs Max 
 TRRT.°/30m               0.00:  Turn Rotating 
 MRT .                    HCIM:  Maximum Recorded Temperature 
 TTMX.degC               90.20:  Max Tool Temp 
 VS01.                90627813:  Virtual Str1 SN 
 VS02.                90634712:  Virtual Str2 SN 
 VS03.                90643410:  Virtual Str3 SN 
 VS04.                90634712:  Virtual Str4 SN 
 WBMN.klb                 9.00:  WOB Min 
 WITN.        Elmaddin Rahimov:  Customer Rep 
 WITN.         Haytham Mostafa:  Customer Rep 2 
 WOBA.klb                15.00:  WOB Avg 
 WOBX.klb                23.00:  WOB Max 
 YP  .lhf2               29.00:  Yield Point 
~Curve Information Block
#MNEM.UNIT                 API CODE     Curve Description
#---------               -----------    ---------------------------
 TIME.HHMMSS            00 000 000 000:  GT Time & Date
 GTDEPTH.m              00 000 000 000:  GT Depth
 GTPQH.psia             00 000 000 000:  GT HR Quartz Pressure
 GTTQ.degC              00 000 000 000:  GT Quartz Temperature
 GTTN.NONE              00 000 000 000:  GT Test Number
 GTET.sec               00 000 000 000:  GT Elapsed Test Time
 GTTVD.m                00 000 000 000:  GT True Vertical Depth
#Other Information
#
#WARRANTY: Halliburton will use its best efforts to furnish customers with 
#accurate information and interpretations that are part of, and incident to, the services 
#provided.  However, Halliburton cannot and does not warrant the accuracy 
#or correctness of such information and interpretations.  Under no circumstances should any 
#such information or interpretation be relied upon as the sole basis for any drilling, 
#completion, production, or financial decision or any procedure involving any risk to the 
#safety of any drilling venture, drilling rig or its crew or any other third party.  The 
#Customer has full responsibility for all drilling, completion and production operation.  
#Halliburton makes no representations or warranties, either expressed or 
#implied, including, but not limited to, the implied warranties of merchantability or fitness 
#for a particular purpose, with respect to the services rendered.  In no event will 
#Halliburton be liable for failure to obtain any particular results or for 
#any damages, including, but not limited to, indirect, special or consequential damages, 
#resulting from the use of any information or interpretation provided by Halliburton.
#
~A           TIME           GTDEPTH  GTPQH  GTTQ  GTTN   GTET   GTTVD  
# ...
   07:57:52.242.09-May-2021 4413.51 4428.66 65.47 16.00 339.05 2938.18
   07:57:52.442.09-May-2021 4413.51 4428.66 65.47 16.00 339.25 2938.18
   07:57:52.642.09-May-2021 4413.51 4428.68 65.47 16.00 339.45 2938.18
   07:57:52.843.09-May-2021 4413.51 4428.58 65.47 16.00 339.65 2938.18
   07:57:53.043.09-May-2021 4413.51 4428.84 65.47 16.00 339.85 2938.18
   07:57:53.243.09-May-2021 4413.51 4428.63 65.47 16.00 340.05 2938.18
   07:57:53.443.09-May-2021 4413.51 4428.63 65.47 16.00 340.25 2938.18
   07:57:53.643.09-May-2021 4413.51 4428.58 65.47 16.00 340.45 2938.18
   07:57:53.843.09-May-2021 4413.51 4428.68 65.47 16.00 340.65 2938.18
   07:57:54.043.09-May-2021 4413.51 4428.65 65.47 16.00 340.85 2938.18
   07:57:54.243.09-May-2021 4413.51 4428.66 65.47 16.00 341.05 2938.18
   07:57:54.443.09-May-2021 4413.51 4428.66 65.47 16.00 341.25 2938.18
   07:57:54.643.09-May-2021 4413.51 4428.67 65.47 16.00 341.45 2938.18
   07:57:54.843.09-May-2021 4413.51 4428.67 65.47 16.00 341.65 2938.18
   07:57:55.043.09-May-2021 4413.51 4428.67 65.47 16.00 341.85 2938.18
   07:57:55.243.09-May-2021 4413.51 4428.68 65.47 16.00 342.05 2938.18
   07:57:55.443.09-May-2021 4413.51 4428.68 65.47 16.00 342.25 2938.18
   07:57:55.643.09-May-2021 4413.51 4428.81 65.47 16.00 342.45 2938.18
   07:57:55.843.09-May-2021 4413.51 4428.65 65.47 16.00 342.65 2938.18
   07:57:56.043.09-May-2021 4413.51 4428.62 65.47 16.00 342.85 2938.18
   07:57:56.243.09-May-2021 4413.51 4428.64 65.47 16.00 343.05 2938.18
   07:57:56.443.09-May-2021 4413.51 4428.64 65.47 16.00 343.25 2938.18
   07:57:56.643.09-May-2021 4413.51 4428.65 65.47 16.00 343.45 2938.18
   07:57:56.843.09-May-2021 4413.51 4428.79 65.47 16.00 343.65 2938.18
   07:57:57.043.09-May-2021 4413.51 4428.59 65.47 16.00 343.85 2938.18
   07:57:57.243.09-May-2021 4413.51 4428.59 65.47 16.00 344.05 2938.18
   07:57:57.443.09-May-2021 4413.51 4428.59 65.47 16.00 344.25 2938.18
   07:57:57.643.09-May-2021 4413.51 4428.59 65.47 16.00 344.45 2938.18
   07:57:57.843.09-May-2021 4413.51 4428.80 65.47 16.00 344.65 2938.18
   07:57:58.043.09-May-2021 4413.51 4428.57 65.47 16.00 344.85 2938.18
   07:57:58.243.09-May-2021 4413.51 4428.69 65.47 16.00 345.05 2938.18
   07:57:58.443.09-May-2021 4413.51 4428.69 65.47 16.00 345.25 2938.18
   07:57:58.643.09-May-2021 4413.51 4428.74 65.47 16.00 345.45 2938.18
   07:57:58.843.09-May-2021 4413.51 4428.56 65.47 16.00 345.65 2938.18
   07:57:59.043.09-May-2021 4413.51 4428.75 65.47 16.00 345.85 2938.18
   07:57:59.243.09-May-2021 4413.51 4428.61 65.47 16.00 346.05 2938.18
   07:57:59.443.09-May-2021 4413.51 4428.61 65.47 16.00 346.25 2938.18
   07:57:59.643.09-May-2021 4413.51 4428.62 65.47 16.00 346.45 2938.18
   07:57:59.843.09-May-2021 4413.51 4428.67 65.47 16.00 346.65 2938.18
   07:58:00.044.09-May-2021 4413.51 4428.66 65.47 16.00 346.85 2938.18
   07:58:00.244.09-May-2021 4413.51 4428.67 65.47 16.00 347.05 2938.18
   07:58:00.444.09-May-2021 4413.51 4428.67 65.47 16.00 347.25 2938.18
   07:58:00.644.09-May-2021 4413.51 4428.68 65.47 16.00 347.45 2938.18
   07:58:00.844.09-May-2021 4413.51 4428.67 65.47 16.00 347.65 2938.18
   07:58:01.044.09-May-2021 4413.51 4428.97 65.47 16.00 347.85 2938.18
   07:58:01.244.09-May-2021 4413.51 4428.48 65.47 16.00 348.05 2938.18
   07:58:01.444.09-May-2021 4413.51 4428.48 65.47 16.00 348.25 2938.18
   07:58:01.644.09-May-2021 4413.51 4428.63 65.47 16.00 348.45 2938.18
   07:58:01.844.09-May-2021 4413.51 4428.62 65.47 16.00 348.65 2938.18
   07:58:02.044.09-May-2021 4413.51 4428.67 65.47 16.00 348.85 2938.18
   07:58:02.244.09-May-2021 4413.51 4428.64 65.47 16.00 349.05 2938.18
   07:58:02.444.09-May-2021 4413.51 4428.64 65.47 16.00 349.25 2938.18
   07:58:02.644.09-May-2021 4413.51 4428.65 65.47 16.00 349.45 2938.18
   07:58:02.844.09-May-2021 4413.51 4428.67 65.47 16.00 349.65 2938.18
   07:58:03.044.09-May-2021 4413.51 4428.65 65.47 16.00 349.85 2938.18
   07:58:03.244.09-May-2021 4413.51 4428.67 65.47 16.00 350.05 2938.18
   07:58:03.444.09-May-2021 4413.51 4428.67 65.47 16.00 350.25 2938.18
   07:58:03.644.09-May-2021 4413.51 4428.57 65.47 16.00 350.45 2938.18
   07:58:03.844.09-May-2021 4413.51 4428.83 65.47 16.00 350.65 2938.18
   07:58:04.044.09-May-2021 4413.51 4428.64 65.47 16.00 350.85 2938.18
   07:58:04.244.09-May-2021 4413.51 4428.83 65.47 16.00 351.05 2938.18
   07:58:04.444.09-May-2021 4413.51 4428.83 65.47 16.00 351.25 2938.18
   07:58:04.644.09-May-2021 4413.51 4428.46 65.47 16.00 351.45 2938.18
   07:58:04.844.09-May-2021 4413.51 4428.70 65.47 16.00 351.65 2938.18
   07:58:05.044.09-May-2021 4413.51 4428.62 65.47 16.00 351.85 2938.18
   07:58:05.244.09-May-2021 4413.51 4428.62 65.47 16.00 352.05 2938.18
   07:58:05.444.09-May-2021 4413.51 4428.62 65.47 16.00 352.25 2938.18
   07:58:05.644.09-May-2021 4413.51 4428.42 65.47 16.00 352.45 2938.18
   07:58:05.844.09-May-2021 4413.51 4428.73 65.47 16.00 352.65 2938.18
   07:58:06.044.09-May-2021 4413.51 4428.60 65.47 16.00 352.85 2938.18
   07:58:06.244.09-May-2021 4413.51 4428.63 65.47 16.00 353.05 2938.18
   07:58:06.444.09-May-2021 4413.51 4428.63 65.47 16.00 353.25 2938.18
   07:58:06.644.09-May-2021 4413.51 4428.79 65.47 16.00 353.45 2938.18
   07:58:06.844.09-May-2021 4413.51 4428.54 65.47 16.00 353.65 2938.18
   07:58:07.044.09-May-2021 4413.51 4428.83 65.47 16.00 353.85 2938.18
   07:58:07.245.09-May-2021 4413.51 4428.53 65.47 16.00 354.05 2938.18
   07:58:07.445.09-May-2021 4413.51 4428.53 65.47 16.00 354.25 2938.18
   07:58:07.645.09-May-2021 4413.51 4428.65 65.47 16.00 354.45 2938.18
   07:58:07.845.09-May-2021 4413.51 4428.65 65.47 16.00 354.65 2938.18
   07:58:08.045.09-May-2021 4413.51 4428.65 65.47 16.00 354.85 2938.18
   07:58:08.245.09-May-2021 4413.51 4428.67 65.47 16.00 355.05 2938.18
   07:58:08.445.09-May-2021 4413.51 4428.67 65.47 16.00 355.25 2938.18
   07:58:08.645.09-May-2021 4413.51 4428.67 65.47 16.00 355.45 2938.18
   07:58:08.845.09-May-2021 4413.51 4428.67 65.47 16.00 355.65 2938.18
   07:58:09.045.09-May-2021 4413.51 4428.69 65.47 16.00 355.85 2938.18
   07:58:09.245.09-May-2021 4413.51 4428.76 65.47 16.00 356.05 2938.18
   07:58:09.445.09-May-2021 4413.51 4428.76 65.47 16.00 356.25 2938.18
   07:58:09.645.09-May-2021 4413.51 4428.77 65.47 16.00 356.45 2938.18
   07:58:09.845.09-May-2021 4413.51 4428.61 65.47 16.00 356.65 2938.18
   07:58:10.045.09-May-2021 4413.51 4428.70 65.47 16.00 356.85 2938.18
   07:58:10.245.09-May-2021 4413.51 4428.62 65.47 16.00 357.05 2938.18
   07:58:10.445.09-May-2021 4413.51 4428.62 65.47 16.00 357.25 2938.18
   07:58:10.645.09-May-2021 4413.51 4428.65 65.47 16.00 357.45 2938.18
   07:58:10.845.09-May-2021 4413.51 4428.67 65.47 16.00 357.65 2938.18
   07:58:11.045.09-May-2021 4413.51 4428.65 65.47 16.00 357.85 2938.18
   07:58:11.245.09-May-2021 4413.51 4428.67 65.47 16.00 358.05 2938.18
   07:58:11.445.09-May-2021 4413.51 4428.67 65.47 16.00 358.25 2938.18
   07:58:11.645.09-May-2021 4413.51 4428.67 65.47 16.00 358.45 2938.18
   07:58:11.845.09-May-2021 4413.51 4428.96 65.47 16.00 358.65 2938.18
   07:58:12.045.09-May-2021 4413.51 4428.48 65.47 16.00 358.85 2938.18
   07:58:12.245.09-May-2021 4413.51 4428.73 65.47 16.00 359.05 2938.18
   07:58:12.445.09-May-2021 4413.51 4428.73 65.47 16.00 359.25 2938.18
   07:58:12.645.09-May-2021 4413.51 4428.68 65.47 16.00 359.45 2938.18
   07:58:12.845.09-May-2021 4413.51 4428.58 65.47 16.00 359.65 2938.18
   07:58:13.045.09-May-2021 4413.51 4428.74 65.47 16.00 359.85 2938.18
   07:58:13.245.09-May-2021 4413.51 4428.63 65.47 16.00 360.05 2938.18
   07:58:13.445.09-May-2021 4413.51 4428.63 65.47 16.00 360.25 2938.18
   07:58:13.645.09-May-2021 4413.51 4428.67 65.47 16.00 360.45 2938.18
   07:58:13.845.09-May-2021 4413.51 4428.58 65.47 16.00 360.65 2938.18
   07:58:14.045.09-May-2021 4413.51 4428.73 65.47 16.00 360.85 2938.18
   07:58:14.245.09-May-2021 4413.51 4428.63 65.47 16.00 361.05 2938.18
   07:58:14.446.09-May-2021 4413.51 4428.63 65.47 16.00 361.25 2938.18
   07:58:14.646.09-May-2021 4413.51 4428.75 65.47 16.00 361.45 2938.18
