~Version Information
 VERS.                  2.0:   CWLS log ASCII Standard -VERSION 2.0
 WRAP.                   NO:   One line per depth step
~Well Information Block
#MNEM.UNIT     VALUE/NAME     DESCRIPTION
#---------     -----------    ---------------------------
 STRT.S             20:58:23 08-May-21: START TIME 20:58:23 08-May-21
 STOP.S             21:05:15 08-May-21: STOP TIME  21:05:15 08-May-21
 STEP.S                   0.00: STEP TIME
 NULL.                 -999.25: NULL VALUE
 PROV.                    Baku:  PROVINCE
 STAT.                    Baku:  STATE NAME
 SON .        AZ-XX-0906571588:  JOB NUMBER
 WTYP.                Deviated:  WELL TYPE
 COMP.     BP Exploration (Caspian Sea) ltd:  COMPANY
 BASE.              Azerbaijan:  LOGGING EQUIPMENT BASE LOCATION
 REGN.                   EESSA:  REGION
 CTRY.              Azerbaijan:  COUNTRY NAME
 FLD .                     ACG:  FIELD NAME
 WELL.                     J28:  WELL NAME
 RIG .             West Chirag:  RIG NAME
 DMF .             Drill Floor:  DRILL MEAS FROM
 PDAT.       Caspian Sea Level:  PERMANENT DATUM
 HPTY.       Minimum Curvature:  HOLE POS TYPE
 MDS .        Operator Entered:  MAG DATA SOURCE
 NREF.                    Grid:  NORTH REFERENCE
 SRVC.          TURAN DRILLING:  CONTRACTOR
 JOBN.        AZ-XX-0906571588:  JOB TICKET NUMB
 DCON.     Halliburton Sperry Drilling:  DIRECTNL CONTR
 STIM.      00.44.00 11-Feb-21:  START TIME
 DATE.      00.00.00 05-May-21:  END TIME
 SPUD.               13-Feb-21:  SPUD DATE
 MWDS.                    Baku:  MWD SHOP
 DOE .                     N/A:  DOE NUMBER
 UNIT.                     N/A:  LOGGING EQUIPMENT ID
 UWI .                     N/A:  UNIQUE WELL IDENTIFIER
 API .                     N/A:  API NUMBER
 CNTY.                        :  COUNTY
 LOC .                        :  LOCATION
 LMF .             Drill Floor:  LOG MEASURED FROM
 TVDS.m                  43.00:  TVDSS CORRECTN
 SDEP.m                 341.00:  START DEPTH
 EGL .m                   0.00:  GROUND ELEVATION
 WDMS.m                 169.80:  WD ELEV
 AGAP.m                  43.00:  AIR GAP
 EPD .m                   0.00:  ELEVATION
 APD .m                  43.00:  DEPTH ABOVE PD
 LATI.deg                40.13:  LATITUDE
 LONG.deg                51.22:  LONGITUDE
 UTMY.m             4443793.85:  UTM Y
 UTMX.m              519005.06:  UTM X
 WHEW.m                 -11.57:  WELL HEAD E/W
 WHNS.m                   8.57:  WELL HEAD N/S
 VSEW.m                 -11.57:  VERT SEC E/W
 VSNS.m                   8.57:  VERT SEC N/S
 DFWL.m                   0.00:  DISTANCE FWL
 DFSL.m                   0.00:  DISTANCE FSL
 VSDR.deg               299.34:  VERT SEC DIRECT
 GVFD.g                   1.00:  GRAVITY FIELD
 AZTC.deg                 6.36:  AZM TOTAL CORR
 MFLD.nT              50391.00:  MAGNETIC FIELD
 MDIP.deg                59.65:  MAGNETIC DIP
 MDEC.deg                 6.48:  MAGNETIC DECL
 GRDC.deg                 0.12:  GRID CORRECTION
 DEP .m                 334.96:  DEPTH
 TDD .m                1407.26:  TOTAL DEPTH (DRILLER)
 EKB .m                  43.00:  KB ELEVATION
 EDF .m                  43.00:  DF ELEVATION
 TDL .m                 228.00:  TOTAL DEPTH (LOGGER)
 VSC .                       0:  VS TO CLOSURE
 MAGU.                 1854484:  MAGUTM CHECKSUM
~Parameter Information Block
#MNEM.UNIT       Value        Description
#---------     -----------    ---------------------------
 AV  .mps                 4.00:  Ann Velocity 
 AVMX.mps                 4.73:  Max Ann Veloc 
 AZIF.deg               304.48:  Azm, Final 
 BHAT.        Rotary Steerable:  BHA Type 
 BREV.rev            257300.00:  Rev Bit Total 
 BROT.°/30m               0.00:  Build Rotating 
 BS  .in                  8.50:  Bit Size 
 BSZ .in                  8.50:  Bit Size 
 BTPL.psig              589.00:  Bit Press Loss 
 CABU.                      No:  Customer Abuse 
 CGEO.          Mubariz ghayev:  Customer Geo 
 COMM.                     ”<v:  Run Comments 1 
 TCS .hr                 64.25:  Time Ciculation Ended 
 CV  .mps                 3.50:  Crit Velocity 
 CVMX.mps                 4.52:  Max Crit Veloc 
 DD1 .             Aziz Aliyev:  Direct Drillr 1 
 DD2 .         Intigam Rahimov:  Direct Drillr 2 
 DD3 .          Rashad Habibov:  Direct Drillr 3 
 DDSV.               Geo-Pilot:  DD Service 
 DEFF.%                  98.00:  % Det Eff 
 DLRX.°/30m               0.00:  Dogleg Rot Max 
 DLSO.°/30m               0.00:  Dogleg Oriented 
 DLSX.°/30m               0.00:  Dogleg Str Max 
 DRET.      10.45.04 08-May-21:  Drill End Time 
 DRST.      03.30.04 04-May-21:  Drill Start Tim 
 DTIM.hr                 14.97:  Time Drilling 
 EDEP.m                4640.01:  End Depth 
 ENG1.         Dail Mahammadov:  Engineer 1 
 ENG2.           Eldar Hajiyev:  Engineer 2 
 ENG3.       Bakhtiar Jabbarli:  Engineer 3 
 ENG4.       Natik Hasanagayev:  Engineer 4 
 ETIM.      09.30.04 14-May-21:  End Time 
 FLOI.gpm               460.00:  Flow In 
 FLON.gpm               200.00:  Flow In Min 
 FLOS.cptm                0.00:  Fluid Loss 
 FLOX.gpm               505.00:  Flow In Max 
 HFLO.                      No:  High Flow 
 HPRE.                      No:  High Pressure 
 HTEM.                      No:  High Temp 
 HYDO.m                   1.80:  Hydro Offset 
 IFIN.deg                66.71:  Inc, Final 
 IMAX.deg                67.03:  Inc Max 
 IMIN.deg                66.63:  Inc Min 
 IMND.m                4550.58:  Inc Min Depth 
 IMXD.m                4439.01:  Inc Max Depth 
 JARR.                      No:  Jarring 
 LETM.      10.45.04 08-May-21:  Log End Time 
 LOST.hr                     0:  Lost Rig Time 
 LSTM.      03.30.04 04-May-21:  Log Start Time 
 MDCL.ppm             37000.00:  Mud Chlorides 
 MDES.     Inversion Oil/Synthetic:  Mud Desc 
 DFD .sg                  1.38:  Mud Density 
 MDMN.sg                  1.35:  Dens Mud Min 
 MDMX.sg                  1.40:  Dens Mud Max 
 MOIL.                   57.40:  Run Mud Oil % 
 MOWR.                   70:30:  Run Mud OWR 
 MSND.                    0.00:  Run Mud Sand % 
 MSOL.                   18.00:  Run Mud Solids% 
 DFV .spqt               71.00:  Mud Viscosity 
 MWOD.in                  6.75:  MWD Tool OD 
 MWSI.                      No:  Serv Intrp, MWD 
 OTIM.hr                242.76:  Time Operating 
 PCON.           Look Like New:  Pad Condition 
 PMAX.psia            12183.92:  Press Op, Max 
 PV  .cP                 27.00:  Mud PV 
 RUN .                    1300:  Run Number 
 ROPA.m/hr               15.00:  ROP Avg 
 ROPN.m/hr                9.00:  ROP Min 
 ROPX.m/hr               19.00:  ROP Max 
 RPMA.rpm               120.00:  RPM Surface Avg 
 RPMN.rpm               100.00:  RPM Surface Min 
 RPMX.rpm               120.00:  RPM Surface Max 
 RRUN.                    1300:  Rig Run Number 
 RTIM.hr                  5.00:  Time Reaming 
 SAZI.deg               304.73:  Azm, Start 
 SDEP.m                4412.01:  Start Depth 
 SIDD.                      No:  Serv Intrp, DD 
 SINC.deg                66.82:  Inc, Start 
 SPPA.psig             2800.00:  SPP Avg 
 SPPN.psig             2610.00:  SPP Min 
 SPPX.psig             3100.00:  SPP Max 
 STIM.      03.30.00 04-May-21:  Start Time 
 SVCS.                 DD, MWD:  Services 
 SVER.                    9.20:  Sperry Version 
 TDAT.m                 228.00:  Tot Depth Attmp 
 TDDF.                      No:  Trip for DD 
 TDLG.m                 228.00:  Tot Depth Loggd 
 TFF .                      No:  Trip for Fail 
 TQAA.f-kp               15.00:  Torque Abs Avg 
 TQAN.f-kp               12.00:  Torque Abs Min 
 TQAX.f-kp               22.00:  Torque Abs Max 
 TRRT.°/30m               0.00:  Turn Rotating 
 MRT .                    HCIM:  Maximum Recorded Temperature 
 TTMX.degC               90.20:  Max Tool Temp 
 VS01.                90627813:  Virtual Str1 SN 
 VS02.                90634712:  Virtual Str2 SN 
 VS03.                90643410:  Virtual Str3 SN 
 VS04.                90634712:  Virtual Str4 SN 
 WBMN.klb                 9.00:  WOB Min 
 WITN.        Elmaddin Rahimov:  Customer Rep 
 WITN.         Haytham Mostafa:  Customer Rep 2 
 WOBA.klb                15.00:  WOB Avg 
 WOBX.klb                23.00:  WOB Max 
 YP  .lhf2               29.00:  Yield Point 
~Curve Information Block
#MNEM.UNIT                 API CODE     Curve Description
#---------               -----------    ---------------------------
 TIME.HHMMSS            00 000 000 000:  GT Time & Date
 GTDEPTH.m              00 000 000 000:  GT Depth
 GTPQH.psia             00 000 000 000:  GT HR Quartz Pressure
 GTTQ.degC              00 000 000 000:  GT Quartz Temperature
 GTTN.NONE              00 000 000 000:  GT Test Number
 GTET.sec               00 000 000 000:  GT Elapsed Test Time
 GTTVD.m                00 000 000 000:  GT True Vertical Depth
#Other Information
#
#WARRANTY: Halliburton will use its best efforts to furnish customers with 
#accurate information and interpretations that are part of, and incident to, the services 
#provided.  However, Halliburton cannot and does not warrant the accuracy 
#or correctness of such information and interpretations.  Under no circumstances should any 
#such information or interpretation be relied upon as the sole basis for any drilling, 
#completion, production, or financial decision or any procedure involving any risk to the 
#safety of any drilling venture, drilling rig or its crew or any other third party.  The 
#Customer has full responsibility for all drilling, completion and production operation.  
#Halliburton makes no representations or warranties, either expressed or 
#implied, including, but not limited to, the implied warranties of merchantability or fitness 
#for a particular purpose, with respect to the services rendered.  In no event will 
#Halliburton be liable for failure to obtain any particular results or for 
#any damages, including, but not limited to, indirect, special or consequential damages, 
#resulting from the use of any information or interpretation provided by Halliburton.
#
~A           TIME           GTDEPTH  GTPQH  GTTQ  GTTN  GTET   GTTVD  
# ...
   21:01:50.801.08-May-2021 4593.01 3777.66 69.01 2.00 207.02 3008.90
   21:01:51.001.08-May-2021 4593.01 3777.66 69.01 2.00 207.22 3008.90
   21:01:51.201.08-May-2021 4593.01 3777.42 69.01 2.00 207.42 3008.90
   21:01:51.401.08-May-2021 4593.01 3777.81 69.01 2.00 207.62 3008.90
   21:01:51.601.08-May-2021 4593.01 3777.41 69.01 2.00 207.82 3008.90
   21:01:51.801.08-May-2021 4593.01 3777.62 69.01 2.00 208.02 3008.90
   21:01:52.001.08-May-2021 4593.01 3777.62 69.01 2.00 208.22 3008.90
   21:01:52.201.08-May-2021 4593.01 3777.52 69.01 2.00 208.42 3008.90
   21:01:52.401.08-May-2021 4593.01 3777.80 69.01 2.00 208.62 3008.90
   21:01:52.601.08-May-2021 4593.01 3777.38 69.01 2.00 208.82 3008.90
   21:01:52.801.08-May-2021 4593.01 3777.70 69.01 2.00 209.02 3008.90
   21:01:53.001.08-May-2021 4593.01 3777.70 69.01 2.00 209.22 3008.90
   21:01:53.201.08-May-2021 4593.01 3777.52 69.01 2.00 209.42 3008.90
   21:01:53.401.08-May-2021 4593.01 3777.68 69.01 2.00 209.62 3008.90
   21:01:53.601.08-May-2021 4593.01 3777.49 69.01 2.00 209.82 3008.90
   21:01:53.801.08-May-2021 4593.01 3777.53 69.01 2.00 210.02 3008.90
   21:01:54.001.08-May-2021 4593.01 3777.53 69.01 2.00 210.22 3008.90
   21:01:54.201.08-May-2021 4593.01 3777.52 69.01 2.00 210.42 3008.90
   21:01:54.401.08-May-2021 4593.01 3777.57 69.01 2.00 210.62 3008.90
   21:01:54.601.08-May-2021 4593.01 3777.66 69.01 2.00 210.82 3008.90
   21:01:54.801.08-May-2021 4593.01 3777.43 69.01 2.00 211.02 3008.90
   21:01:55.002.08-May-2021 4593.01 3777.43 69.01 2.00 211.22 3008.90
   21:01:55.202.08-May-2021 4593.01 3777.53 69.01 2.00 211.42 3008.90
   21:01:55.402.08-May-2021 4593.01 3777.57 69.01 2.00 211.62 3008.90
   21:01:55.602.08-May-2021 4593.01 3777.49 69.01 2.00 211.82 3008.90
   21:01:55.802.08-May-2021 4593.01 3777.68 69.01 2.00 212.02 3008.90
   21:01:56.002.08-May-2021 4593.01 3777.68 69.01 2.00 212.22 3008.90
   21:01:56.202.08-May-2021 4593.01 3777.52 69.01 2.00 212.42 3008.90
   21:01:56.402.08-May-2021 4593.01 3777.60 69.01 2.00 212.62 3008.90
   21:01:56.602.08-May-2021 4593.01 3777.52 69.01 2.00 212.82 3008.90
   21:01:56.802.08-May-2021 4593.01 3777.51 69.01 2.00 213.02 3008.90
   21:01:57.002.08-May-2021 4593.01 3777.51 69.01 2.00 213.22 3008.90
   21:01:57.202.08-May-2021 4593.01 3777.57 69.01 2.00 213.42 3008.90
   21:01:57.402.08-May-2021 4593.01 3777.41 69.01 2.00 213.62 3008.90
   21:01:57.602.08-May-2021 4593.01 3777.85 69.01 2.00 213.82 3008.90
   21:01:57.802.08-May-2021 4593.01 3777.42 69.01 2.00 214.02 3008.90
   21:01:58.002.08-May-2021 4593.01 3777.42 69.01 2.00 214.22 3008.90
   21:01:58.202.08-May-2021 4593.01 3777.66 69.01 2.00 214.42 3008.90
   21:01:58.402.08-May-2021 4593.01 3777.49 69.01 2.00 214.62 3008.90
   21:01:58.602.08-May-2021 4593.01 3777.72 69.01 2.00 214.82 3008.90
   21:01:58.802.08-May-2021 4593.01 3777.44 69.01 2.00 215.02 3008.90
   21:01:59.002.08-May-2021 4593.01 3777.44 69.01 2.00 215.22 3008.90
   21:01:59.202.08-May-2021 4593.01 3777.42 69.01 2.00 215.42 3008.90
   21:01:59.402.08-May-2021 4593.01 3777.76 69.01 2.00 215.62 3008.90
   21:01:59.602.08-May-2021 4593.01 3777.58 69.01 2.00 215.82 3008.90
   21:01:59.802.08-May-2021 4593.01 3777.35 69.01 2.00 216.02 3008.90
   21:02:00.002.08-May-2021 4593.01 3777.35 69.01 2.00 216.22 3008.90
   21:02:00.202.08-May-2021 4593.01 3777.50 69.01 2.00 216.42 3008.90
   21:02:00.402.08-May-2021 4593.01 3777.52 69.01 2.00 216.62 3008.90
   21:02:00.602.08-May-2021 4593.01 3777.76 69.01 2.00 216.82 3008.90
   21:02:00.802.08-May-2021 4593.01 3777.38 69.01 2.00 217.02 3008.90
   21:02:01.002.08-May-2021 4593.01 3777.38 69.01 2.00 217.22 3008.90
   21:02:01.202.08-May-2021 4593.01 3777.64 69.01 2.00 217.42 3008.90
   21:02:01.402.08-May-2021 4593.01 3777.54 69.01 2.00 217.62 3008.90
   21:02:01.602.08-May-2021 4593.01 3777.51 69.01 2.00 217.82 3008.90
   21:02:01.802.08-May-2021 4593.01 3777.58 69.01 2.00 218.02 3008.90
   21:02:02.002.08-May-2021 4593.01 3777.58 69.01 2.00 218.22 3008.90
   21:02:02.202.08-May-2021 4593.01 3777.51 69.01 2.00 218.42 3008.90
   21:02:02.402.08-May-2021 4593.01 3777.60 69.01 2.00 218.62 3008.90
   21:02:02.602.08-May-2021 4593.01 3777.57 69.01 2.00 218.82 3008.90
   21:02:02.802.08-May-2021 4593.01 3777.50 69.01 2.00 219.02 3008.90
   21:02:03.002.08-May-2021 4593.01 3777.50 69.01 2.00 219.22 3008.90
   21:02:03.202.08-May-2021 4593.01 3777.87 69.01 2.00 219.42 3008.90
   21:02:03.402.08-May-2021 4593.01 3777.25 69.01 2.00 219.62 3008.90
   21:02:03.602.08-May-2021 4593.01 3777.65 69.01 2.00 219.82 3008.90
   21:02:03.802.08-May-2021 4593.01 3777.58 69.01 2.00 220.02 3008.90
   21:02:04.002.08-May-2021 4593.01 3777.58 69.01 2.00 220.22 3008.90
   21:02:04.202.08-May-2021 4593.01 3777.55 69.01 2.00 220.42 3008.90
   21:02:04.402.08-May-2021 4593.01 3777.59 69.01 2.00 220.62 3008.90
   21:02:04.602.08-May-2021 4593.01 3777.47 69.01 2.00 220.82 3008.90
   21:02:04.803.08-May-2021 4593.01 3777.61 69.01 2.00 221.02 3008.90
   21:02:05.003.08-May-2021 4593.01 3777.61 69.01 2.00 221.22 3008.90
   21:02:05.203.08-May-2021 4593.01 3777.58 69.01 2.00 221.42 3008.90
   21:02:05.403.08-May-2021 4593.01 3777.67 69.01 2.00 221.62 3008.90
   21:02:05.603.08-May-2021 4593.01 3777.51 69.01 2.00 221.82 3008.90
   21:02:05.803.08-May-2021 4593.01 3777.72 69.01 2.00 222.02 3008.90
   21:02:06.003.08-May-2021 4593.01 3777.72 69.01 2.00 222.22 3008.90
   21:02:06.203.08-May-2021 4593.01 3777.69 69.01 2.00 222.42 3008.90
   21:02:06.403.08-May-2021 4593.01 3777.45 69.01 2.00 222.62 3008.90
   21:02:06.603.08-May-2021 4593.01 3777.73 69.01 2.00 222.82 3008.90
   21:02:06.803.08-May-2021 4593.01 3777.53 69.01 2.00 223.02 3008.90
   21:02:07.003.08-May-2021 4593.01 3777.53 69.01 2.00 223.22 3008.90
   21:02:07.203.08-May-2021 4593.01 3777.51 69.01 2.00 223.42 3008.90
   21:02:07.403.08-May-2021 4593.01 3777.53 69.01 2.00 223.62 3008.90
   21:02:07.603.08-May-2021 4593.01 3777.67 69.01 2.00 223.82 3008.90
   21:02:07.803.08-May-2021 4593.01 3777.43 69.01 2.00 224.02 3008.90
   21:02:08.003.08-May-2021 4593.01 3777.43 69.01 2.00 224.22 3008.90
   21:02:08.203.08-May-2021 4593.01 3777.45 69.01 2.00 224.42 3008.90
   21:02:08.403.08-May-2021 4593.01 3777.52 69.01 2.00 224.62 3008.90
   21:02:08.603.08-May-2021 4593.01 3777.83 69.01 2.00 224.82 3008.90
   21:02:08.803.08-May-2021 4593.01 3777.35 69.01 2.00 225.02 3008.90
   21:02:09.003.08-May-2021 4593.01 3777.35 69.01 2.00 225.22 3008.90
   21:02:09.203.08-May-2021 4593.01 3777.63 69.01 2.00 225.42 3008.90
   21:02:09.403.08-May-2021 4593.01 3777.49 69.01 2.00 225.62 3008.90
   21:02:09.603.08-May-2021 4593.01 3777.55 69.01 2.00 225.82 3008.90
   21:02:09.803.08-May-2021 4593.01 3777.63 69.01 2.00 226.02 3008.90
   21:02:10.003.08-May-2021 4593.01 3777.63 69.01 2.00 226.22 3008.90
   21:02:10.203.08-May-2021 4593.01 3777.50 69.01 2.00 226.42 3008.90
   21:02:10.403.08-May-2021 4593.01 3777.61 69.01 2.00 226.62 3008.90
   21:02:10.603.08-May-2021 4593.01 3777.54 69.01 2.00 226.82 3008.90
   21:02:10.803.08-May-2021 4593.01 3777.49 69.01 2.00 227.02 3008.90
   21:02:11.003.08-May-2021 4593.01 3777.49 69.01 2.00 227.22 3008.90
   21:02:11.203.08-May-2021 4593.01 3777.67 69.01 2.00 227.42 3008.90
   21:02:11.403.08-May-2021 4593.01 3777.44 69.01 2.00 227.62 3008.90
   21:02:11.603.08-May-2021 4593.01 3777.54 69.01 2.00 227.82 3008.90
   21:02:11.803.08-May-2021 4593.01 3777.56 69.01 2.00 228.02 3008.90
   21:02:12.003.08-May-2021 4593.01 3777.56 69.01 2.00 228.22 3008.90
   21:02:12.203.08-May-2021 4593.01 3777.61 69.01 2.00 228.42 3008.90
   21:02:12.403.08-May-2021 4593.01 3777.58 69.01 2.00 228.62 3008.90
   21:02:12.603.08-May-2021 4593.01 3777.48 69.01 2.00 228.82 3008.90
   21:02:12.803.08-May-2021 4593.01 3777.59 69.01 2.00 229.02 3008.90
   21:02:13.003.08-May-2021 4593.01 3777.59 69.01 2.00 229.22 3008.90
   21:02:13.203.08-May-2021 4593.01 3777.50 69.01 2.00 229.42 3008.90
   21:02:13.403.08-May-2021 4593.01 3777.64 69.01 2.00 229.62 3008.90
   21:02:13.603.08-May-2021 4593.01 3777.56 69.01 2.00 229.82 3008.90
