~Version Information
 VERS.                  2.0:   CWLS log ASCII Standard -VERSION 2.0
 WRAP.                   NO:   One line per depth step
~Well Information Block
#MNEM.UNIT     VALUE/NAME     DESCRIPTION
#---------     -----------    ---------------------------
 STRT.S             21:53:52 08-May-21: START TIME 21:53:52 08-May-21
 STOP.S             22:00:27 08-May-21: STOP TIME  22:00:27 08-May-21
 STEP.S                   0.00: STEP TIME
 NULL.                 -999.25: NULL VALUE
 PROV.                    Baku:  PROVINCE
 STAT.                    Baku:  STATE NAME
 SON .        AZ-XX-0906571588:  JOB NUMBER
 WTYP.                Deviated:  WELL TYPE
 COMP.     BP Exploration (Caspian Sea) ltd:  COMPANY
 BASE.              Azerbaijan:  LOGGING EQUIPMENT BASE LOCATION
 REGN.                   EESSA:  REGION
 CTRY.              Azerbaijan:  COUNTRY NAME
 FLD .                     ACG:  FIELD NAME
 WELL.                     J28:  WELL NAME
 RIG .             West Chirag:  RIG NAME
 DMF .             Drill Floor:  DRILL MEAS FROM
 PDAT.       Caspian Sea Level:  PERMANENT DATUM
 HPTY.       Minimum Curvature:  HOLE POS TYPE
 MDS .        Operator Entered:  MAG DATA SOURCE
 NREF.                    Grid:  NORTH REFERENCE
 SRVC.          TURAN DRILLING:  CONTRACTOR
 JOBN.        AZ-XX-0906571588:  JOB TICKET NUMB
 DCON.     Halliburton Sperry Drilling:  DIRECTNL CONTR
 STIM.      00.44.00 11-Feb-21:  START TIME
 DATE.      00.00.00 05-May-21:  END TIME
 SPUD.               13-Feb-21:  SPUD DATE
 MWDS.                    Baku:  MWD SHOP
 DOE .                     N/A:  DOE NUMBER
 UNIT.                     N/A:  LOGGING EQUIPMENT ID
 UWI .                     N/A:  UNIQUE WELL IDENTIFIER
 API .                     N/A:  API NUMBER
 CNTY.                        :  COUNTY
 LOC .                        :  LOCATION
 LMF .             Drill Floor:  LOG MEASURED FROM
 TVDS.m                  43.00:  TVDSS CORRECTN
 SDEP.m                 341.00:  START DEPTH
 EGL .m                   0.00:  GROUND ELEVATION
 WDMS.m                 169.80:  WD ELEV
 AGAP.m                  43.00:  AIR GAP
 EPD .m                   0.00:  ELEVATION
 APD .m                  43.00:  DEPTH ABOVE PD
 LATI.deg                40.13:  LATITUDE
 LONG.deg                51.22:  LONGITUDE
 UTMY.m             4443793.85:  UTM Y
 UTMX.m              519005.06:  UTM X
 WHEW.m                 -11.57:  WELL HEAD E/W
 WHNS.m                   8.57:  WELL HEAD N/S
 VSEW.m                 -11.57:  VERT SEC E/W
 VSNS.m                   8.57:  VERT SEC N/S
 DFWL.m                   0.00:  DISTANCE FWL
 DFSL.m                   0.00:  DISTANCE FSL
 VSDR.deg               299.34:  VERT SEC DIRECT
 GVFD.g                   1.00:  GRAVITY FIELD
 AZTC.deg                 6.36:  AZM TOTAL CORR
 MFLD.nT              50391.00:  MAGNETIC FIELD
 MDIP.deg                59.65:  MAGNETIC DIP
 MDEC.deg                 6.48:  MAGNETIC DECL
 GRDC.deg                 0.12:  GRID CORRECTION
 DEP .m                 334.96:  DEPTH
 TDD .m                1407.26:  TOTAL DEPTH (DRILLER)
 EKB .m                  43.00:  KB ELEVATION
 EDF .m                  43.00:  DF ELEVATION
 TDL .m                 228.00:  TOTAL DEPTH (LOGGER)
 VSC .                       0:  VS TO CLOSURE
 MAGU.                 1854484:  MAGUTM CHECKSUM
~Parameter Information Block
#MNEM.UNIT       Value        Description
#---------     -----------    ---------------------------
 AV  .mps                 4.00:  Ann Velocity 
 AVMX.mps                 4.73:  Max Ann Veloc 
 AZIF.deg               304.48:  Azm, Final 
 BHAT.        Rotary Steerable:  BHA Type 
 BREV.rev            257300.00:  Rev Bit Total 
 BROT.°/30m               0.00:  Build Rotating 
 BS  .in                  8.50:  Bit Size 
 BSZ .in                  8.50:  Bit Size 
 BTPL.psig              589.00:  Bit Press Loss 
 CABU.                      No:  Customer Abuse 
 CGEO.          Mubariz ghayev:  Customer Geo 
 COMM.                     ¤=s:  Run Comments 1 
 TCS .hr                 64.25:  Time Ciculation Ended 
 CV  .mps                 3.50:  Crit Velocity 
 CVMX.mps                 4.52:  Max Crit Veloc 
 DD1 .             Aziz Aliyev:  Direct Drillr 1 
 DD2 .         Intigam Rahimov:  Direct Drillr 2 
 DD3 .          Rashad Habibov:  Direct Drillr 3 
 DDSV.               Geo-Pilot:  DD Service 
 DEFF.%                  98.00:  % Det Eff 
 DLRX.°/30m               0.00:  Dogleg Rot Max 
 DLSO.°/30m               0.00:  Dogleg Oriented 
 DLSX.°/30m               0.00:  Dogleg Str Max 
 DRET.      10.45.04 08-May-21:  Drill End Time 
 DRST.      03.30.04 04-May-21:  Drill Start Tim 
 DTIM.hr                 14.97:  Time Drilling 
 EDEP.m                4640.01:  End Depth 
 ENG1.         Dail Mahammadov:  Engineer 1 
 ENG2.           Eldar Hajiyev:  Engineer 2 
 ENG3.       Bakhtiar Jabbarli:  Engineer 3 
 ENG4.       Natik Hasanagayev:  Engineer 4 
 ETIM.      09.30.04 14-May-21:  End Time 
 FLOI.gpm               460.00:  Flow In 
 FLON.gpm               200.00:  Flow In Min 
 FLOS.cptm                0.00:  Fluid Loss 
 FLOX.gpm               505.00:  Flow In Max 
 HFLO.                      No:  High Flow 
 HPRE.                      No:  High Pressure 
 HTEM.                      No:  High Temp 
 HYDO.m                   1.80:  Hydro Offset 
 IFIN.deg                66.71:  Inc, Final 
 IMAX.deg                67.03:  Inc Max 
 IMIN.deg                66.63:  Inc Min 
 IMND.m                4550.58:  Inc Min Depth 
 IMXD.m                4439.01:  Inc Max Depth 
 JARR.                      No:  Jarring 
 LETM.      10.45.04 08-May-21:  Log End Time 
 LOST.hr                     0:  Lost Rig Time 
 LSTM.      03.30.04 04-May-21:  Log Start Time 
 MDCL.ppm             37000.00:  Mud Chlorides 
 MDES.     Inversion Oil/Synthetic:  Mud Desc 
 DFD .sg                  1.38:  Mud Density 
 MDMN.sg                  1.35:  Dens Mud Min 
 MDMX.sg                  1.40:  Dens Mud Max 
 MOIL.                   57.40:  Run Mud Oil % 
 MOWR.                   70:30:  Run Mud OWR 
 MSND.                    0.00:  Run Mud Sand % 
 MSOL.                   18.00:  Run Mud Solids% 
 DFV .spqt               71.00:  Mud Viscosity 
 MWOD.in                  6.75:  MWD Tool OD 
 MWSI.                      No:  Serv Intrp, MWD 
 OTIM.hr                242.76:  Time Operating 
 PCON.           Look Like New:  Pad Condition 
 PMAX.psia            12183.92:  Press Op, Max 
 PV  .cP                 27.00:  Mud PV 
 RUN .                    1300:  Run Number 
 ROPA.m/hr               15.00:  ROP Avg 
 ROPN.m/hr                9.00:  ROP Min 
 ROPX.m/hr               19.00:  ROP Max 
 RPMA.rpm               120.00:  RPM Surface Avg 
 RPMN.rpm               100.00:  RPM Surface Min 
 RPMX.rpm               120.00:  RPM Surface Max 
 RRUN.                    1300:  Rig Run Number 
 RTIM.hr                  5.00:  Time Reaming 
 SAZI.deg               304.73:  Azm, Start 
 SDEP.m                4412.01:  Start Depth 
 SIDD.                      No:  Serv Intrp, DD 
 SINC.deg                66.82:  Inc, Start 
 SPPA.psig             2800.00:  SPP Avg 
 SPPN.psig             2610.00:  SPP Min 
 SPPX.psig             3100.00:  SPP Max 
 STIM.      03.30.00 04-May-21:  Start Time 
 SVCS.                 DD, MWD:  Services 
 SVER.                    9.20:  Sperry Version 
 TDAT.m                 228.00:  Tot Depth Attmp 
 TDDF.                      No:  Trip for DD 
 TDLG.m                 228.00:  Tot Depth Loggd 
 TFF .                      No:  Trip for Fail 
 TQAA.f-kp               15.00:  Torque Abs Avg 
 TQAN.f-kp               12.00:  Torque Abs Min 
 TQAX.f-kp               22.00:  Torque Abs Max 
 TRRT.°/30m               0.00:  Turn Rotating 
 MRT .                    HCIM:  Maximum Recorded Temperature 
 TTMX.degC               90.20:  Max Tool Temp 
 VS01.                90627813:  Virtual Str1 SN 
 VS02.                90634712:  Virtual Str2 SN 
 VS03.                90643410:  Virtual Str3 SN 
 VS04.                90634712:  Virtual Str4 SN 
 WBMN.klb                 9.00:  WOB Min 
 WITN.        Elmaddin Rahimov:  Customer Rep 
 WITN.         Haytham Mostafa:  Customer Rep 2 
 WOBA.klb                15.00:  WOB Avg 
 WOBX.klb                23.00:  WOB Max 
 YP  .lhf2               29.00:  Yield Point 
~Curve Information Block
#MNEM.UNIT                 API CODE     Curve Description
#---------               -----------    ---------------------------
 TIME.HHMMSS            00 000 000 000:  GT Time & Date
 GTDEPTH.m              00 000 000 000:  GT Depth
 GTPQH.psia             00 000 000 000:  GT HR Quartz Pressure
 GTTQ.degC              00 000 000 000:  GT Quartz Temperature
 GTTN.NONE              00 000 000 000:  GT Test Number
 GTET.sec               00 000 000 000:  GT Elapsed Test Time
 GTTVD.m                00 000 000 000:  GT True Vertical Depth
#Other Information
#
#WARRANTY: Halliburton will use its best efforts to furnish customers with 
#accurate information and interpretations that are part of, and incident to, the services 
#provided.  However, Halliburton cannot and does not warrant the accuracy 
#or correctness of such information and interpretations.  Under no circumstances should any 
#such information or interpretation be relied upon as the sole basis for any drilling, 
#completion, production, or financial decision or any procedure involving any risk to the 
#safety of any drilling venture, drilling rig or its crew or any other third party.  The 
#Customer has full responsibility for all drilling, completion and production operation.  
#Halliburton makes no representations or warranties, either expressed or 
#implied, including, but not limited to, the implied warranties of merchantability or fitness 
#for a particular purpose, with respect to the services rendered.  In no event will 
#Halliburton be liable for failure to obtain any particular results or for 
#any damages, including, but not limited to, indirect, special or consequential damages, 
#resulting from the use of any information or interpretation provided by Halliburton.
#
~A           TIME           GTDEPTH  GTPQH  GTTQ  GTTN  GTET   GTTVD  
# ...
   21:55:47.000.08-May-2021 4568.51  863.11 68.97 3.00 115.00 2999.18
   21:55:47.200.08-May-2021 4568.51  863.11 68.97 3.00 115.20 2999.18
   21:55:47.400.08-May-2021 4568.51  862.98 68.97 3.00 115.40 2999.18
   21:55:47.600.08-May-2021 4568.51  863.91 68.97 3.00 115.60 2999.18
   21:55:47.800.08-May-2021 4568.51  863.58 68.97 3.00 115.80 2999.18
   21:55:48.000.08-May-2021 4568.51  863.69 68.97 3.00 116.00 2999.18
   21:55:48.200.08-May-2021 4568.51  863.69 68.97 3.00 116.20 2999.18
   21:55:48.400.08-May-2021 4568.51  863.42 68.97 3.00 116.40 2999.18
   21:55:48.600.08-May-2021 4568.51  864.53 68.97 3.00 116.60 2999.18
   21:55:48.800.08-May-2021 4568.51  864.08 68.97 3.00 116.80 2999.18
   21:55:49.000.08-May-2021 4568.51  863.98 68.97 3.00 117.00 2999.18
   21:55:49.200.08-May-2021 4568.51  863.98 68.97 3.00 117.20 2999.18
   21:55:49.400.08-May-2021 4568.51  864.64 68.97 3.00 117.40 2999.18
   21:55:49.600.08-May-2021 4568.51  864.87 68.97 3.00 117.60 2999.18
   21:55:49.800.08-May-2021 4568.51  864.78 68.97 3.00 117.80 2999.18
   21:55:50.000.08-May-2021 4568.51  864.88 68.97 3.00 118.00 2999.18
   21:55:50.200.08-May-2021 4568.51  864.88 68.97 3.00 118.20 2999.18
   21:55:50.400.08-May-2021 4568.51  865.13 68.97 3.00 118.40 2999.18
   21:55:50.600.08-May-2021 4568.51  865.23 68.97 3.00 118.60 2999.18
   21:55:50.800.08-May-2021 4568.51  865.38 68.97 3.00 118.80 2999.18
   21:55:51.000.08-May-2021 4568.51  865.49 68.97 3.00 119.00 2999.18
   21:55:51.200.08-May-2021 4568.51  865.49 68.97 3.00 119.20 2999.18
   21:55:51.400.08-May-2021 4568.51  865.75 68.97 3.00 119.40 2999.18
   21:55:51.600.08-May-2021 4568.51  865.31 68.97 3.00 119.60 2999.18
   21:55:51.800.08-May-2021 4568.51  866.47 68.97 3.00 119.80 2999.18
   21:55:52.000.08-May-2021 4568.51  866.12 68.97 3.00 120.00 2999.18
   21:55:52.200.08-May-2021 4568.51  866.12 68.97 3.00 120.20 2999.18
   21:55:52.400.08-May-2021 4568.51  866.32 68.97 3.00 120.40 2999.18
   21:55:52.600.08-May-2021 4568.51  866.42 68.97 3.00 120.60 2999.18
   21:55:52.800.08-May-2021 4568.51  866.56 68.97 3.00 120.80 2999.18
   21:55:53.000.08-May-2021 4568.51  866.66 68.97 3.00 121.00 2999.18
   21:55:53.200.08-May-2021 4568.51  866.66 68.97 3.00 121.20 2999.18
   21:55:53.400.08-May-2021 4568.51  866.77 68.97 3.00 121.40 2999.18
   21:55:53.600.08-May-2021 4568.51  866.97 68.97 3.00 121.60 2999.18
   21:55:53.800.08-May-2021 4568.51  867.08 68.97 3.00 121.80 2999.18
   21:55:54.000.08-May-2021 4568.51  867.16 68.97 3.00 122.00 2999.18
   21:55:54.200.08-May-2021 4568.51  867.16 68.97 3.00 122.20 2999.18
   21:55:54.400.08-May-2021 4568.51  867.77 68.97 3.00 122.40 2999.18
   21:55:54.600.08-May-2021 4568.51  867.60 68.97 3.00 122.60 2999.18
   21:55:54.800.08-May-2021 4568.51  867.38 68.97 3.00 122.80 2999.18
   21:55:55.000.08-May-2021 4568.51  868.02 68.97 3.00 123.00 2999.18
   21:55:55.200.08-May-2021 4568.51  868.02 68.97 3.00 123.20 2999.18
   21:55:55.400.08-May-2021 4568.51  868.26 68.97 3.00 123.40 2999.18
   21:55:55.600.08-May-2021 4568.51  868.10 68.97 3.00 123.60 2999.18
   21:55:55.800.08-May-2021 4568.51  868.21 68.97 3.00 123.80 2999.18
   21:55:56.000.08-May-2021 4568.51  867.91 68.97 3.00 124.00 2999.18
   21:55:56.200.08-May-2021 4568.51  867.91 68.97 3.00 124.20 2999.18
   21:55:56.400.08-May-2021 4568.51  868.53 68.97 3.00 124.40 2999.18
   21:55:56.600.08-May-2021 4568.51  868.77 68.97 3.00 124.60 2999.18
   21:55:56.800.08-May-2021 4568.51  868.70 68.97 3.00 124.80 2999.18
   21:55:57.000.08-May-2021 4568.51  868.44 68.97 3.00 125.00 2999.18
   21:55:57.200.08-May-2021 4568.51  868.44 68.97 3.00 125.20 2999.18
   21:55:57.400.08-May-2021 4568.51  869.32 68.97 3.00 125.40 2999.18
   21:55:57.600.08-May-2021 4568.51  869.12 68.97 3.00 125.60 2999.18
   21:55:57.800.08-May-2021 4568.51  869.30 68.97 3.00 125.80 2999.18
   21:55:58.000.08-May-2021 4568.51  869.35 68.97 3.00 126.00 2999.18
   21:55:58.200.08-May-2021 4568.51  869.35 68.97 3.00 126.20 2999.18
   21:55:58.400.08-May-2021 4568.51  869.56 68.97 3.00 126.40 2999.18
   21:55:58.600.08-May-2021 4568.51  869.65 68.97 3.00 126.60 2999.18
   21:55:58.800.08-May-2021 4568.51  869.76 68.97 3.00 126.80 2999.18
   21:55:59.000.08-May-2021 4568.51  869.85 68.97 3.00 127.00 2999.18
   21:55:59.200.08-May-2021 4568.51  869.85 68.97 3.00 127.20 2999.18
   21:55:59.400.08-May-2021 4568.51  869.78 68.97 3.00 127.40 2999.18
   21:55:59.600.08-May-2021 4568.51  870.32 68.97 3.00 127.60 2999.18
   21:55:59.800.08-May-2021 4568.51  870.59 68.97 3.00 127.80 2999.18
   21:56:00.000.08-May-2021 4568.51  870.47 68.97 3.00 128.00 2999.18
   21:56:00.200.08-May-2021 4568.51  870.47 68.97 3.00 128.20 2999.18
   21:56:00.400.08-May-2021 4568.51  870.69 68.97 3.00 128.40 2999.18
   21:56:00.600.08-May-2021 4568.51  870.77 68.97 3.00 128.60 2999.18
   21:56:00.800.08-May-2021 4568.51  870.83 68.97 3.00 128.80 2999.18
   21:56:01.000.08-May-2021 4568.51  870.93 68.97 3.00 129.00 2999.18
   21:56:01.200.08-May-2021 4568.51  870.93 68.97 3.00 129.20 2999.18
   21:56:01.400.08-May-2021 4568.51  871.01 68.97 3.00 129.40 2999.18
   21:56:01.600.08-May-2021 4568.51  871.20 68.97 3.00 129.60 2999.18
   21:56:01.800.08-May-2021 4568.51  871.31 68.97 3.00 129.80 2999.18
   21:56:02.000.08-May-2021 4568.51  871.03 68.97 3.00 130.00 2999.18
   21:56:02.200.08-May-2021 4568.51  871.03 68.97 3.00 130.20 2999.18
   21:56:02.400.08-May-2021 4568.51  871.57 68.97 3.00 130.40 2999.18
   21:56:02.600.08-May-2021 4568.51  871.85 68.97 3.00 130.60 2999.18
   21:56:02.800.08-May-2021 4568.51  871.45 68.97 3.00 130.80 2999.18
   21:56:03.000.08-May-2021 4568.51  872.15 68.97 3.00 131.00 2999.18
   21:56:03.200.08-May-2021 4568.51  872.15 68.97 3.00 131.20 2999.18
   21:56:03.400.08-May-2021 4568.51  872.20 68.97 3.00 131.40 2999.18
   21:56:03.600.08-May-2021 4568.51  872.18 68.97 3.00 131.60 2999.18
   21:56:03.800.08-May-2021 4568.51  871.91 68.97 3.00 131.80 2999.18
   21:56:04.000.08-May-2021 4568.51  872.69 68.97 3.00 132.00 2999.18
   21:56:04.200.08-May-2021 4568.51  872.69 68.97 3.00 132.20 2999.18
   21:56:04.400.08-May-2021 4568.51  872.51 68.97 3.00 132.40 2999.18
   21:56:04.600.08-May-2021 4568.51  872.22 68.97 3.00 132.60 2999.18
   21:56:04.800.08-May-2021 4568.51  873.14 68.97 3.00 132.80 2999.18
   21:56:05.000.08-May-2021 4568.51  872.91 68.97 3.00 133.00 2999.18
   21:56:05.200.08-May-2021 4568.51  872.91 68.97 3.00 133.20 2999.18
   21:56:05.400.08-May-2021 4568.51  873.02 68.97 3.00 133.40 2999.18
   21:56:05.600.08-May-2021 4568.51  873.10 68.97 3.00 133.60 2999.18
   21:56:05.800.08-May-2021 4568.51  873.18 68.97 3.00 133.80 2999.18
   21:56:06.000.08-May-2021 4568.51  873.27 68.97 3.00 134.00 2999.18
   21:56:06.200.08-May-2021 4568.51  873.27 68.97 3.00 134.20 2999.18
   21:56:06.400.08-May-2021 4568.51  873.46 68.97 3.00 134.40 2999.18
   21:56:06.600.08-May-2021 4568.51  873.56 68.97 3.00 134.60 2999.18
   21:56:06.800.08-May-2021 4568.51  873.64 68.97 3.00 134.80 2999.18
   21:56:07.000.08-May-2021 4568.51  873.40 68.97 3.00 135.00 2999.18
   21:56:07.200.08-May-2021 4568.51  873.40 68.97 3.00 135.20 2999.18
   21:56:07.400.08-May-2021 4568.51  874.24 68.97 3.00 135.40 2999.18
   21:56:07.600.08-May-2021 4568.51  874.19 68.97 3.00 135.60 2999.18
   21:56:07.800.08-May-2021 4568.51  874.12 68.97 3.00 135.80 2999.18
   21:56:08.000.08-May-2021 4568.51  874.22 68.97 3.00 136.00 2999.18
   21:56:08.200.08-May-2021 4568.51  874.22 68.97 3.00 136.20 2999.18
   21:56:08.400.08-May-2021 4568.51  874.41 68.97 3.00 136.40 2999.18
   21:56:08.600.08-May-2021 4568.51  874.51 68.97 3.00 136.60 2999.18
   21:56:08.800.08-May-2021 4568.51  874.56 68.97 3.00 136.80 2999.18
   21:56:09.000.08-May-2021 4568.51  874.64 68.97 3.00 137.00 2999.18
   21:56:09.200.08-May-2021 4568.51  874.64 68.97 3.00 137.20 2999.18
   21:56:09.400.08-May-2021 4568.51  874.73 68.97 3.00 137.40 2999.18
   21:56:09.600.08-May-2021 4568.51  874.50 68.97 3.00 137.60 2999.18
   21:56:09.800.08-May-2021 4568.51  875.23 68.97 3.00 137.80 2999.18
