~Version Information
 VERS.                  2.0:   CWLS log ASCII Standard -VERSION 2.0
 WRAP.                   NO:   One line per depth step
~Well Information Block
#MNEM.UNIT     VALUE/NAME     DESCRIPTION
#---------     -----------    ---------------------------
 STRT.S             02:35:25 09-May-21: START TIME 02:35:25 09-May-21
 STOP.S             02:42:01 09-May-21: STOP TIME  02:42:01 09-May-21
 STEP.S                   0.00: STEP TIME
 NULL.                 -999.25: NULL VALUE
 PROV.                    Baku:  PROVINCE
 STAT.                    Baku:  STATE NAME
 SON .        AZ-XX-0906571588:  JOB NUMBER
 WTYP.                Deviated:  WELL TYPE
 COMP.     BP Exploration (Caspian Sea) ltd:  COMPANY
 BASE.              Azerbaijan:  LOGGING EQUIPMENT BASE LOCATION
 REGN.                   EESSA:  REGION
 CTRY.              Azerbaijan:  COUNTRY NAME
 FLD .                     ACG:  FIELD NAME
 WELL.                     J28:  WELL NAME
 RIG .             West Chirag:  RIG NAME
 DMF .             Drill Floor:  DRILL MEAS FROM
 PDAT.       Caspian Sea Level:  PERMANENT DATUM
 HPTY.       Minimum Curvature:  HOLE POS TYPE
 MDS .        Operator Entered:  MAG DATA SOURCE
 NREF.                    Grid:  NORTH REFERENCE
 SRVC.          TURAN DRILLING:  CONTRACTOR
 JOBN.        AZ-XX-0906571588:  JOB TICKET NUMB
 DCON.     Halliburton Sperry Drilling:  DIRECTNL CONTR
 STIM.      00.44.00 11-Feb-21:  START TIME
 DATE.      00.00.00 05-May-21:  END TIME
 SPUD.               13-Feb-21:  SPUD DATE
 MWDS.                    Baku:  MWD SHOP
 DOE .                     N/A:  DOE NUMBER
 UNIT.                     N/A:  LOGGING EQUIPMENT ID
 UWI .                     N/A:  UNIQUE WELL IDENTIFIER
 API .                     N/A:  API NUMBER
 CNTY.                        :  COUNTY
 LOC .                        :  LOCATION
 LMF .             Drill Floor:  LOG MEASURED FROM
 TVDS.m                  43.00:  TVDSS CORRECTN
 SDEP.m                 341.00:  START DEPTH
 EGL .m                   0.00:  GROUND ELEVATION
 WDMS.m                 169.80:  WD ELEV
 AGAP.m                  43.00:  AIR GAP
 EPD .m                   0.00:  ELEVATION
 APD .m                  43.00:  DEPTH ABOVE PD
 LATI.deg                40.13:  LATITUDE
 LONG.deg                51.22:  LONGITUDE
 UTMY.m             4443793.85:  UTM Y
 UTMX.m              519005.06:  UTM X
 WHEW.m                 -11.57:  WELL HEAD E/W
 WHNS.m                   8.57:  WELL HEAD N/S
 VSEW.m                 -11.57:  VERT SEC E/W
 VSNS.m                   8.57:  VERT SEC N/S
 DFWL.m                   0.00:  DISTANCE FWL
 DFSL.m                   0.00:  DISTANCE FSL
 VSDR.deg               299.34:  VERT SEC DIRECT
 GVFD.g                   1.00:  GRAVITY FIELD
 AZTC.deg                 6.36:  AZM TOTAL CORR
 MFLD.nT              50391.00:  MAGNETIC FIELD
 MDIP.deg                59.65:  MAGNETIC DIP
 MDEC.deg                 6.48:  MAGNETIC DECL
 GRDC.deg                 0.12:  GRID CORRECTION
 DEP .m                 334.96:  DEPTH
 TDD .m                1407.26:  TOTAL DEPTH (DRILLER)
 EKB .m                  43.00:  KB ELEVATION
 EDF .m                  43.00:  DF ELEVATION
 TDL .m                 228.00:  TOTAL DEPTH (LOGGER)
 VSC .                       0:  VS TO CLOSURE
 MAGU.                 1854484:  MAGUTM CHECKSUM
~Parameter Information Block
#MNEM.UNIT       Value        Description
#---------     -----------    ---------------------------
 AV  .mps                 4.00:  Ann Velocity 
 AVMX.mps                 4.73:  Max Ann Veloc 
 AZIF.deg               304.48:  Azm, Final 
 BHAT.        Rotary Steerable:  BHA Type 
 BREV.rev            257300.00:  Rev Bit Total 
 BROT.°/30m               0.00:  Build Rotating 
 BS  .in                  8.50:  Bit Size 
 BSZ .in                  8.50:  Bit Size 
 BTPL.psig              589.00:  Bit Press Loss 
 CABU.                      No:  Customer Abuse 
 CGEO.          Mubariz ghayev:  Customer Geo 
 COMM.                     LÑz:  Run Comments 1 
 TCS .hr                 64.25:  Time Ciculation Ended 
 CV  .mps                 3.50:  Crit Velocity 
 CVMX.mps                 4.52:  Max Crit Veloc 
 DD1 .             Aziz Aliyev:  Direct Drillr 1 
 DD2 .         Intigam Rahimov:  Direct Drillr 2 
 DD3 .          Rashad Habibov:  Direct Drillr 3 
 DDSV.               Geo-Pilot:  DD Service 
 DEFF.%                  98.00:  % Det Eff 
 DLRX.°/30m               0.00:  Dogleg Rot Max 
 DLSO.°/30m               0.00:  Dogleg Oriented 
 DLSX.°/30m               0.00:  Dogleg Str Max 
 DRET.      10.45.04 08-May-21:  Drill End Time 
 DRST.      03.30.04 04-May-21:  Drill Start Tim 
 DTIM.hr                 14.97:  Time Drilling 
 EDEP.m                4640.01:  End Depth 
 ENG1.         Dail Mahammadov:  Engineer 1 
 ENG2.           Eldar Hajiyev:  Engineer 2 
 ENG3.       Bakhtiar Jabbarli:  Engineer 3 
 ENG4.       Natik Hasanagayev:  Engineer 4 
 ETIM.      09.30.04 14-May-21:  End Time 
 FLOI.gpm               460.00:  Flow In 
 FLON.gpm               200.00:  Flow In Min 
 FLOS.cptm                0.00:  Fluid Loss 
 FLOX.gpm               505.00:  Flow In Max 
 HFLO.                      No:  High Flow 
 HPRE.                      No:  High Pressure 
 HTEM.                      No:  High Temp 
 HYDO.m                   1.80:  Hydro Offset 
 IFIN.deg                66.71:  Inc, Final 
 IMAX.deg                67.03:  Inc Max 
 IMIN.deg                66.63:  Inc Min 
 IMND.m                4550.58:  Inc Min Depth 
 IMXD.m                4439.01:  Inc Max Depth 
 JARR.                      No:  Jarring 
 LETM.      10.45.04 08-May-21:  Log End Time 
 LOST.hr                     0:  Lost Rig Time 
 LSTM.      03.30.04 04-May-21:  Log Start Time 
 MDCL.ppm             37000.00:  Mud Chlorides 
 MDES.     Inversion Oil/Synthetic:  Mud Desc 
 DFD .sg                  1.38:  Mud Density 
 MDMN.sg                  1.35:  Dens Mud Min 
 MDMX.sg                  1.40:  Dens Mud Max 
 MOIL.                   57.40:  Run Mud Oil % 
 MOWR.                   70:30:  Run Mud OWR 
 MSND.                    0.00:  Run Mud Sand % 
 MSOL.                   18.00:  Run Mud Solids% 
 DFV .spqt               71.00:  Mud Viscosity 
 MWOD.in                  6.75:  MWD Tool OD 
 MWSI.                      No:  Serv Intrp, MWD 
 OTIM.hr                242.76:  Time Operating 
 PCON.           Look Like New:  Pad Condition 
 PMAX.psia            12183.92:  Press Op, Max 
 PV  .cP                 27.00:  Mud PV 
 RUN .                    1300:  Run Number 
 ROPA.m/hr               15.00:  ROP Avg 
 ROPN.m/hr                9.00:  ROP Min 
 ROPX.m/hr               19.00:  ROP Max 
 RPMA.rpm               120.00:  RPM Surface Avg 
 RPMN.rpm               100.00:  RPM Surface Min 
 RPMX.rpm               120.00:  RPM Surface Max 
 RRUN.                    1300:  Rig Run Number 
 RTIM.hr                  5.00:  Time Reaming 
 SAZI.deg               304.73:  Azm, Start 
 SDEP.m                4412.01:  Start Depth 
 SIDD.                      No:  Serv Intrp, DD 
 SINC.deg                66.82:  Inc, Start 
 SPPA.psig             2800.00:  SPP Avg 
 SPPN.psig             2610.00:  SPP Min 
 SPPX.psig             3100.00:  SPP Max 
 STIM.      03.30.00 04-May-21:  Start Time 
 SVCS.                 DD, MWD:  Services 
 SVER.                    9.20:  Sperry Version 
 TDAT.m                 228.00:  Tot Depth Attmp 
 TDDF.                      No:  Trip for DD 
 TDLG.m                 228.00:  Tot Depth Loggd 
 TFF .                      No:  Trip for Fail 
 TQAA.f-kp               15.00:  Torque Abs Avg 
 TQAN.f-kp               12.00:  Torque Abs Min 
 TQAX.f-kp               22.00:  Torque Abs Max 
 TRRT.°/30m               0.00:  Turn Rotating 
 MRT .                    HCIM:  Maximum Recorded Temperature 
 TTMX.degC               90.20:  Max Tool Temp 
 VS01.                90627813:  Virtual Str1 SN 
 VS02.                90634712:  Virtual Str2 SN 
 VS03.                90643410:  Virtual Str3 SN 
 VS04.                90634712:  Virtual Str4 SN 
 WBMN.klb                 9.00:  WOB Min 
 WITN.        Elmaddin Rahimov:  Customer Rep 
 WITN.         Haytham Mostafa:  Customer Rep 2 
 WOBA.klb                15.00:  WOB Avg 
 WOBX.klb                23.00:  WOB Max 
 YP  .lhf2               29.00:  Yield Point 
~Curve Information Block
#MNEM.UNIT                 API CODE     Curve Description
#---------               -----------    ---------------------------
 TIME.HHMMSS            00 000 000 000:  GT Time & Date
 GTDEPTH.m              00 000 000 000:  GT Depth
 GTPQH.psia             00 000 000 000:  GT HR Quartz Pressure
 GTTQ.degC              00 000 000 000:  GT Quartz Temperature
 GTTN.NONE              00 000 000 000:  GT Test Number
 GTET.sec               00 000 000 000:  GT Elapsed Test Time
 GTTVD.m                00 000 000 000:  GT True Vertical Depth
#Other Information
#
#WARRANTY: Halliburton will use its best efforts to furnish customers with 
#accurate information and interpretations that are part of, and incident to, the services 
#provided.  However, Halliburton cannot and does not warrant the accuracy 
#or correctness of such information and interpretations.  Under no circumstances should any 
#such information or interpretation be relied upon as the sole basis for any drilling, 
#completion, production, or financial decision or any procedure involving any risk to the 
#safety of any drilling venture, drilling rig or its crew or any other third party.  The 
#Customer has full responsibility for all drilling, completion and production operation.  
#Halliburton makes no representations or warranties, either expressed or 
#implied, including, but not limited to, the implied warranties of merchantability or fitness 
#for a particular purpose, with respect to the services rendered.  In no event will 
#Halliburton be liable for failure to obtain any particular results or for 
#any damages, including, but not limited to, indirect, special or consequential damages, 
#resulting from the use of any information or interpretation provided by Halliburton.
#
~A           TIME           GTDEPTH  GTPQH  GTTQ  GTTN   GTET   GTTVD  
# ...
   02:41:26.926.09-May-2021 4482.51 6795.81 67.66 11.00 361.66 2965.25
   02:41:27.126.09-May-2021 4482.51 6792.27 67.66 11.00 361.86 2965.25
   02:41:27.326.09-May-2021 4482.51 6792.00 67.66 11.00 362.06 2965.25
   02:41:27.526.09-May-2021 4482.51 6792.00 67.66 11.00 362.26 2965.25
   02:41:27.726.09-May-2021 4482.51 6790.46 67.67 11.00 362.46 2965.25
   02:41:27.926.09-May-2021 4482.51 6790.39 67.68 11.00 362.66 2965.25
   02:41:28.126.09-May-2021 4482.51 6790.57 67.68 11.00 362.86 2965.25
   02:41:28.326.09-May-2021 4482.51 6790.55 67.68 11.00 363.06 2965.25
   02:41:28.526.09-May-2021 4482.51 6790.55 67.68 11.00 363.26 2965.25
   02:41:28.726.09-May-2021 4482.51 6790.70 67.69 11.00 363.46 2965.25
   02:41:28.926.09-May-2021 4482.51 6790.26 67.70 11.00 363.66 2965.25
   02:41:29.126.09-May-2021 4482.51 6802.20 67.70 11.00 363.86 2965.25
   02:41:29.327.09-May-2021 4482.51 6791.23 67.70 11.00 364.06 2965.25
   02:41:29.527.09-May-2021 4482.51 6791.23 67.70 11.00 364.26 2965.25
   02:41:29.727.09-May-2021 4482.51 6795.35 67.71 11.00 364.46 2965.25
   02:41:29.927.09-May-2021 4482.51 6800.25 67.72 11.00 364.66 2965.25
   02:41:30.127.09-May-2021 4482.51 6799.53 67.72 11.00 364.86 2965.25
   02:41:30.327.09-May-2021 4482.51 6797.57 67.72 11.00 365.06 2965.25
   02:41:30.527.09-May-2021 4482.51 6797.57 67.72 11.00 365.26 2965.25
   02:41:30.727.09-May-2021 4482.51 6804.03 67.73 11.00 365.46 2965.25
   02:41:30.927.09-May-2021 4482.51 6796.71 67.73 11.00 365.66 2965.25
   02:41:31.127.09-May-2021 4482.51 6799.08 67.73 11.00 365.86 2965.25
   02:41:31.327.09-May-2021 4482.51 6798.07 67.74 11.00 366.06 2965.25
   02:41:31.527.09-May-2021 4482.51 6798.07 67.74 11.00 366.26 2965.25
   02:41:31.727.09-May-2021 4482.51 6793.76 67.74 11.00 366.46 2965.25
   02:41:31.927.09-May-2021 4482.51 6803.68 67.74 11.00 366.66 2965.25
   02:41:32.127.09-May-2021 4482.51 6795.80 67.75 11.00 366.86 2965.25
   02:41:32.327.09-May-2021 4482.51 6802.61 67.75 11.00 367.06 2965.25
   02:41:32.527.09-May-2021 4482.51 6802.61 67.75 11.00 367.26 2965.25
   02:41:32.727.09-May-2021 4482.51 6796.26 67.75 11.00 367.46 2965.25
   02:41:32.927.09-May-2021 4482.51 6794.27 67.75 11.00 367.66 2965.25
   02:41:33.127.09-May-2021 4482.51 6794.47 67.76 11.00 367.86 2965.25
   02:41:33.327.09-May-2021 4482.51 6793.52 67.76 11.00 368.06 2965.25
   02:41:33.527.09-May-2021 4482.51 6793.52 67.76 11.00 368.26 2965.25
   02:41:33.727.09-May-2021 4482.51 6793.89 67.76 11.00 368.46 2965.25
   02:41:33.927.09-May-2021 4482.51 6793.42 67.76 11.00 368.66 2965.25
   02:41:34.127.09-May-2021 4482.51 6794.12 67.76 11.00 368.86 2965.25
   02:41:34.327.09-May-2021 4482.51 6793.88 67.76 11.00 369.06 2965.25
   02:41:34.527.09-May-2021 4482.51 6793.88 67.76 11.00 369.26 2965.25
   02:41:34.727.09-May-2021 4482.51 6793.73 67.77 11.00 369.46 2965.25
   02:41:34.927.09-May-2021 4482.51 6801.31 67.77 11.00 369.66 2965.25
   02:41:35.128.09-May-2021 4482.51 6796.68 67.77 11.00 369.86 2965.25
   02:41:35.328.09-May-2021 4482.51 6796.00 67.77 11.00 370.06 2965.25
   02:41:35.528.09-May-2021 4482.51 6796.00 67.77 11.00 370.26 2965.25
   02:41:35.728.09-May-2021 4482.51 6793.64 67.77 11.00 370.46 2965.25
   02:41:35.928.09-May-2021 4482.51 6792.83 67.77 11.00 370.66 2965.25
   02:41:36.128.09-May-2021 4482.51 6792.95 67.77 11.00 370.86 2965.25
   02:41:36.328.09-May-2021 4482.51 6791.97 67.77 11.00 371.06 2965.25
   02:41:36.528.09-May-2021 4482.51 6791.97 67.77 11.00 371.26 2965.25
   02:41:36.728.09-May-2021 4482.51 6792.28 67.77 11.00 371.46 2965.25
   02:41:36.928.09-May-2021 4482.51 6792.01 67.77 11.00 371.66 2965.25
   02:41:37.128.09-May-2021 4482.51 6798.57 67.78 11.00 371.86 2965.25
   02:41:37.328.09-May-2021 4482.51 6797.70 67.78 11.00 372.06 2965.25
   02:41:37.528.09-May-2021 4482.51 6797.70 67.78 11.00 372.26 2965.25
   02:41:37.728.09-May-2021 4482.51 6798.73 67.78 11.00 372.46 2965.25
   02:41:37.928.09-May-2021 4482.51 6793.83 67.78 11.00 372.66 2965.25
   02:41:38.128.09-May-2021 4482.51 6795.25 67.78 11.00 372.86 2965.25
   02:41:38.328.09-May-2021 4482.51 6802.95 67.78 11.00 373.06 2965.25
   02:41:38.528.09-May-2021 4482.51 6802.95 67.78 11.00 373.26 2965.25
   02:41:38.728.09-May-2021 4482.51 6801.05 67.78 11.00 373.46 2965.25
   02:41:38.928.09-May-2021 4482.51 6801.13 67.78 11.00 373.66 2965.25
   02:41:39.128.09-May-2021 4482.51 6797.31 67.78 11.00 373.86 2965.25
   02:41:39.328.09-May-2021 4482.51 6801.88 67.78 11.00 374.06 2965.25
   02:41:39.528.09-May-2021 4482.51 6801.88 67.78 11.00 374.26 2965.25
   02:41:39.728.09-May-2021 4482.51 6806.30 67.78 11.00 374.46 2965.25
   02:41:39.928.09-May-2021 4482.51 6797.94 67.78 11.00 374.66 2965.25
   02:41:40.128.09-May-2021 4482.51 6802.37 67.78 11.00 374.86 2965.25
   02:41:40.328.09-May-2021 4482.51 6792.70 67.78 11.00 375.06 2965.25
   02:41:40.528.09-May-2021 4482.51 6792.70 67.78 11.00 375.26 2965.25
   02:41:40.728.09-May-2021 4482.51 6794.66 67.78 11.00 375.46 2965.25
   02:41:40.928.09-May-2021 4482.51 6794.04 67.78 11.00 375.66 2965.25
   02:41:41.129.09-May-2021 4482.51 6794.57 67.78 11.00 375.86 2965.25
   02:41:41.329.09-May-2021 4482.51 6793.65 67.78 11.00 376.06 2965.25
   02:41:41.529.09-May-2021 4482.51 6793.65 67.78 11.00 376.26 2965.25
   02:41:41.729.09-May-2021 4482.51 6794.52 67.78 11.00 376.46 2965.25
   02:41:41.929.09-May-2021 4482.51 6794.09 67.78 11.00 376.66 2965.25
   02:41:42.129.09-May-2021 4482.51 6794.85 67.78 11.00 376.86 2965.25
   02:41:42.329.09-May-2021 4482.51 6804.61 67.78 11.00 377.06 2965.25
   02:41:42.529.09-May-2021 4482.51 6804.61 67.78 11.00 377.26 2965.25
   02:41:42.729.09-May-2021 4482.51 6803.94 67.78 11.00 377.46 2965.25
   02:41:42.929.09-May-2021 4482.51 6794.78 67.78 11.00 377.66 2965.25
   02:41:43.129.09-May-2021 4482.51 6796.79 67.78 11.00 377.86 2965.25
   02:41:43.329.09-May-2021 4482.51 6795.00 67.78 11.00 378.06 2965.25
   02:41:43.529.09-May-2021 4482.51 6795.00 67.78 11.00 378.26 2965.25
   02:41:43.729.09-May-2021 4482.51 6793.88 67.77 11.00 378.46 2965.25
   02:41:43.929.09-May-2021 4482.51 6793.41 67.77 11.00 378.66 2965.25
   02:41:44.129.09-May-2021 4482.51 6793.46 67.77 11.00 378.86 2965.25
   02:41:44.329.09-May-2021 4482.51 6792.63 67.77 11.00 379.06 2965.25
   02:41:44.529.09-May-2021 4482.51 6792.63 67.77 11.00 379.26 2965.25
   02:41:44.729.09-May-2021 4482.51 6792.56 67.77 11.00 379.46 2965.25
   02:41:44.929.09-May-2021 4482.51 6802.26 67.77 11.00 379.66 2965.25
   02:41:45.129.09-May-2021 4482.51 6795.93 67.77 11.00 379.86 2965.25
   02:41:45.329.09-May-2021 4482.51 6797.77 67.77 11.00 380.06 2965.25
   02:41:45.529.09-May-2021 4482.51 6797.77 67.77 11.00 380.26 2965.25
   02:41:45.729.09-May-2021 4482.51 6794.52 67.77 11.00 380.46 2965.25
   02:41:45.929.09-May-2021 4482.51 6802.96 67.77 11.00 380.66 2965.25
   02:41:46.129.09-May-2021 4482.51 6796.30 67.77 11.00 380.86 2965.25
   02:41:46.329.09-May-2021 4482.51 6797.84 67.77 11.00 381.06 2965.25
   02:41:46.529.09-May-2021 4482.51 6797.84 67.77 11.00 381.26 2965.25
   02:41:46.729.09-May-2021 4482.51 6804.63 67.77 11.00 381.46 2965.25
   02:41:46.929.09-May-2021 4482.51 6797.11 67.77 11.00 381.66 2965.25
   02:41:47.130.09-May-2021 4482.51 6800.76 67.77 11.00 381.86 2965.25
   02:41:47.330.09-May-2021 4482.51 6792.05 67.77 11.00 382.06 2965.25
   02:41:47.530.09-May-2021 4482.51 6792.05 67.77 11.00 382.26 2965.25
   02:41:47.730.09-May-2021 4482.51 6796.28 67.77 11.00 382.46 2965.25
   02:41:47.930.09-May-2021 4482.51 6802.75 67.77 11.00 382.66 2965.25
   02:41:48.130.09-May-2021 4482.51 6793.00 67.77 11.00 382.86 2965.25
   02:41:48.330.09-May-2021 4482.51 6795.21 67.77 11.00 383.06 2965.25
   02:41:48.530.09-May-2021 4482.51 6795.21 67.77 11.00 383.26 2965.25
   02:41:48.730.09-May-2021 4482.51 6793.72 67.77 11.00 383.46 2965.25
   02:41:48.930.09-May-2021 4482.51 6794.04 67.77 11.00 383.66 2965.25
   02:41:49.130.09-May-2021 4482.51 6793.85 67.77 11.00 383.86 2965.25
   02:41:49.330.09-May-2021 4482.51 6793.63 67.77 11.00 384.06 2965.25
