~Version Information
 VERS.                  2.0:   CWLS log ASCII Standard -VERSION 2.0
 WRAP.                   NO:   One line per depth step
~Well Information Block
#MNEM.UNIT     VALUE/NAME     DESCRIPTION
#---------     -----------    ---------------------------
 STRT.S             20:19:26 08-May-21: START TIME 20:19:26 08-May-21
 STOP.S             20:26:06 08-May-21: STOP TIME  20:26:06 08-May-21
 STEP.S                   0.00: STEP TIME
 NULL.                 -999.25: NULL VALUE
 PROV.                    Baku:  PROVINCE
 STAT.                    Baku:  STATE NAME
 SON .        AZ-XX-0906571588:  JOB NUMBER
 WTYP.                Deviated:  WELL TYPE
 COMP.     BP Exploration (Caspian Sea) ltd:  COMPANY
 BASE.              Azerbaijan:  LOGGING EQUIPMENT BASE LOCATION
 REGN.                   EESSA:  REGION
 CTRY.              Azerbaijan:  COUNTRY NAME
 FLD .                     ACG:  FIELD NAME
 WELL.                     J28:  WELL NAME
 RIG .             West Chirag:  RIG NAME
 DMF .             Drill Floor:  DRILL MEAS FROM
 PDAT.       Caspian Sea Level:  PERMANENT DATUM
 HPTY.       Minimum Curvature:  HOLE POS TYPE
 MDS .        Operator Entered:  MAG DATA SOURCE
 NREF.                    Grid:  NORTH REFERENCE
 SRVC.          TURAN DRILLING:  CONTRACTOR
 JOBN.        AZ-XX-0906571588:  JOB TICKET NUMB
 DCON.     Halliburton Sperry Drilling:  DIRECTNL CONTR
 STIM.      00.44.00 11-Feb-21:  START TIME
 DATE.      00.00.00 05-May-21:  END TIME
 SPUD.               13-Feb-21:  SPUD DATE
 MWDS.                    Baku:  MWD SHOP
 DOE .                     N/A:  DOE NUMBER
 UNIT.                     N/A:  LOGGING EQUIPMENT ID
 UWI .                     N/A:  UNIQUE WELL IDENTIFIER
 API .                     N/A:  API NUMBER
 CNTY.                        :  COUNTY
 LOC .                        :  LOCATION
 LMF .             Drill Floor:  LOG MEASURED FROM
 TVDS.m                  43.00:  TVDSS CORRECTN
 SDEP.m                 341.00:  START DEPTH
 EGL .m                   0.00:  GROUND ELEVATION
 WDMS.m                 169.80:  WD ELEV
 AGAP.m                  43.00:  AIR GAP
 EPD .m                   0.00:  ELEVATION
 APD .m                  43.00:  DEPTH ABOVE PD
 LATI.deg                40.13:  LATITUDE
 LONG.deg                51.22:  LONGITUDE
 UTMY.m             4443793.85:  UTM Y
 UTMX.m              519005.06:  UTM X
 WHEW.m                 -11.57:  WELL HEAD E/W
 WHNS.m                   8.57:  WELL HEAD N/S
 VSEW.m                 -11.57:  VERT SEC E/W
 VSNS.m                   8.57:  VERT SEC N/S
 DFWL.m                   0.00:  DISTANCE FWL
 DFSL.m                   0.00:  DISTANCE FSL
 VSDR.deg               299.34:  VERT SEC DIRECT
 GVFD.g                   1.00:  GRAVITY FIELD
 AZTC.deg                 6.36:  AZM TOTAL CORR
 MFLD.nT              50391.00:  MAGNETIC FIELD
 MDIP.deg                59.65:  MAGNETIC DIP
 MDEC.deg                 6.48:  MAGNETIC DECL
 GRDC.deg                 0.12:  GRID CORRECTION
 DEP .m                 334.96:  DEPTH
 TDD .m                1407.26:  TOTAL DEPTH (DRILLER)
 EKB .m                  43.00:  KB ELEVATION
 EDF .m                  43.00:  DF ELEVATION
 TDL .m                 228.00:  TOTAL DEPTH (LOGGER)
 VSC .                       0:  VS TO CLOSURE
 MAGU.                 1854484:  MAGUTM CHECKSUM
~Parameter Information Block
#MNEM.UNIT       Value        Description
#---------     -----------    ---------------------------
 AV  .mps                 4.00:  Ann Velocity 
 AVMX.mps                 4.73:  Max Ann Veloc 
 AZIF.deg               304.48:  Azm, Final 
 BHAT.        Rotary Steerable:  BHA Type 
 BREV.rev            257300.00:  Rev Bit Total 
 BROT.°/30m               0.00:  Build Rotating 
 BS  .in                  8.50:  Bit Size 
 BSZ .in                  8.50:  Bit Size 
 BTPL.psig              589.00:  Bit Press Loss 
 CABU.                      No:  Customer Abuse 
 CGEO.          Mubariz ghayev:  Customer Geo 
 COMM.                     $w`:  Run Comments 1 
 TCS .hr                 64.25:  Time Ciculation Ended 
 CV  .mps                 3.50:  Crit Velocity 
 CVMX.mps                 4.52:  Max Crit Veloc 
 DD1 .             Aziz Aliyev:  Direct Drillr 1 
 DD2 .         Intigam Rahimov:  Direct Drillr 2 
 DD3 .          Rashad Habibov:  Direct Drillr 3 
 DDSV.               Geo-Pilot:  DD Service 
 DEFF.%                  98.00:  % Det Eff 
 DLRX.°/30m               0.00:  Dogleg Rot Max 
 DLSO.°/30m               0.00:  Dogleg Oriented 
 DLSX.°/30m               0.00:  Dogleg Str Max 
 DRET.      10.45.04 08-May-21:  Drill End Time 
 DRST.      03.30.04 04-May-21:  Drill Start Tim 
 DTIM.hr                 14.97:  Time Drilling 
 EDEP.m                4640.01:  End Depth 
 ENG1.         Dail Mahammadov:  Engineer 1 
 ENG2.           Eldar Hajiyev:  Engineer 2 
 ENG3.       Bakhtiar Jabbarli:  Engineer 3 
 ENG4.       Natik Hasanagayev:  Engineer 4 
 ETIM.      09.30.04 14-May-21:  End Time 
 FLOI.gpm               460.00:  Flow In 
 FLON.gpm               200.00:  Flow In Min 
 FLOS.cptm                0.00:  Fluid Loss 
 FLOX.gpm               505.00:  Flow In Max 
 HFLO.                      No:  High Flow 
 HPRE.                      No:  High Pressure 
 HTEM.                      No:  High Temp 
 HYDO.m                   1.80:  Hydro Offset 
 IFIN.deg                66.71:  Inc, Final 
 IMAX.deg                67.03:  Inc Max 
 IMIN.deg                66.63:  Inc Min 
 IMND.m                4550.58:  Inc Min Depth 
 IMXD.m                4439.01:  Inc Max Depth 
 JARR.                      No:  Jarring 
 LETM.      10.45.04 08-May-21:  Log End Time 
 LOST.hr                     0:  Lost Rig Time 
 LSTM.      03.30.04 04-May-21:  Log Start Time 
 MDCL.ppm             37000.00:  Mud Chlorides 
 MDES.     Inversion Oil/Synthetic:  Mud Desc 
 DFD .sg                  1.38:  Mud Density 
 MDMN.sg                  1.35:  Dens Mud Min 
 MDMX.sg                  1.40:  Dens Mud Max 
 MOIL.                   57.40:  Run Mud Oil % 
 MOWR.                   70:30:  Run Mud OWR 
 MSND.                    0.00:  Run Mud Sand % 
 MSOL.                   18.00:  Run Mud Solids% 
 DFV .spqt               71.00:  Mud Viscosity 
 MWOD.in                  6.75:  MWD Tool OD 
 MWSI.                      No:  Serv Intrp, MWD 
 OTIM.hr                242.76:  Time Operating 
 PCON.           Look Like New:  Pad Condition 
 PMAX.psia            12183.92:  Press Op, Max 
 PV  .cP                 27.00:  Mud PV 
 RUN .                    1300:  Run Number 
 ROPA.m/hr               15.00:  ROP Avg 
 ROPN.m/hr                9.00:  ROP Min 
 ROPX.m/hr               19.00:  ROP Max 
 RPMA.rpm               120.00:  RPM Surface Avg 
 RPMN.rpm               100.00:  RPM Surface Min 
 RPMX.rpm               120.00:  RPM Surface Max 
 RRUN.                    1300:  Rig Run Number 
 RTIM.hr                  5.00:  Time Reaming 
 SAZI.deg               304.73:  Azm, Start 
 SDEP.m                4412.01:  Start Depth 
 SIDD.                      No:  Serv Intrp, DD 
 SINC.deg                66.82:  Inc, Start 
 SPPA.psig             2800.00:  SPP Avg 
 SPPN.psig             2610.00:  SPP Min 
 SPPX.psig             3100.00:  SPP Max 
 STIM.      03.30.00 04-May-21:  Start Time 
 SVCS.                 DD, MWD:  Services 
 SVER.                    9.20:  Sperry Version 
 TDAT.m                 228.00:  Tot Depth Attmp 
 TDDF.                      No:  Trip for DD 
 TDLG.m                 228.00:  Tot Depth Loggd 
 TFF .                      No:  Trip for Fail 
 TQAA.f-kp               15.00:  Torque Abs Avg 
 TQAN.f-kp               12.00:  Torque Abs Min 
 TQAX.f-kp               22.00:  Torque Abs Max 
 TRRT.°/30m               0.00:  Turn Rotating 
 MRT .                    HCIM:  Maximum Recorded Temperature 
 TTMX.degC               90.20:  Max Tool Temp 
 VS01.                90627813:  Virtual Str1 SN 
 VS02.                90634712:  Virtual Str2 SN 
 VS03.                90643410:  Virtual Str3 SN 
 VS04.                90634712:  Virtual Str4 SN 
 WBMN.klb                 9.00:  WOB Min 
 WITN.        Elmaddin Rahimov:  Customer Rep 
 WITN.         Haytham Mostafa:  Customer Rep 2 
 WOBA.klb                15.00:  WOB Avg 
 WOBX.klb                23.00:  WOB Max 
 YP  .lhf2               29.00:  Yield Point 
~Curve Information Block
#MNEM.UNIT                 API CODE     Curve Description
#---------               -----------    ---------------------------
 TIME.HHMMSS            00 000 000 000:  GT Time & Date
 GTDEPTH.m              00 000 000 000:  GT Depth
 GTPQH.psia             00 000 000 000:  GT HR Quartz Pressure
 GTTQ.degC              00 000 000 000:  GT Quartz Temperature
 GTTN.NONE              00 000 000 000:  GT Test Number
 GTET.sec               00 000 000 000:  GT Elapsed Test Time
 GTTVD.m                00 000 000 000:  GT True Vertical Depth
#Other Information
#
#WARRANTY: Halliburton will use its best efforts to furnish customers with 
#accurate information and interpretations that are part of, and incident to, the services 
#provided.  However, Halliburton cannot and does not warrant the accuracy 
#or correctness of such information and interpretations.  Under no circumstances should any 
#such information or interpretation be relied upon as the sole basis for any drilling, 
#completion, production, or financial decision or any procedure involving any risk to the 
#safety of any drilling venture, drilling rig or its crew or any other third party.  The 
#Customer has full responsibility for all drilling, completion and production operation.  
#Halliburton makes no representations or warranties, either expressed or 
#implied, including, but not limited to, the implied warranties of merchantability or fitness 
#for a particular purpose, with respect to the services rendered.  In no event will 
#Halliburton be liable for failure to obtain any particular results or for 
#any damages, including, but not limited to, indirect, special or consequential damages, 
#resulting from the use of any information or interpretation provided by Halliburton.
#
~A           TIME           GTDEPTH  GTPQH  GTTQ  GTTN  GTET   GTTVD  
# ...
   20:22:07.555.08-May-2021 4592.01  961.87 69.07 1.00 161.02 3008.50
   20:22:07.755.08-May-2021 4592.01  961.87 69.07 1.00 161.22 3008.50
   20:22:07.955.08-May-2021 4592.01  969.67 69.07 1.00 161.42 3008.50
   20:22:08.155.08-May-2021 4592.01  973.87 69.08 1.00 161.62 3008.50
   20:22:08.355.08-May-2021 4592.01  977.22 69.08 1.00 161.82 3008.50
   20:22:08.555.08-May-2021 4592.01  980.80 69.08 1.00 162.02 3008.50
   20:22:08.755.08-May-2021 4592.01  980.80 69.08 1.00 162.22 3008.50
   20:22:08.955.08-May-2021 4592.01  988.67 69.08 1.00 162.42 3008.50
   20:22:09.155.08-May-2021 4592.01  992.42 69.08 1.00 162.62 3008.50
   20:22:09.355.08-May-2021 4592.01  995.96 69.08 1.00 162.82 3008.50
   20:22:09.555.08-May-2021 4592.01 1000.51 69.08 1.00 163.02 3008.50
   20:22:09.755.08-May-2021 4592.01 1000.51 69.08 1.00 163.22 3008.50
   20:22:09.955.08-May-2021 4592.01 1007.45 69.08 1.00 163.42 3008.50
   20:22:10.155.08-May-2021 4592.01 1010.93 69.08 1.00 163.62 3008.50
   20:22:10.355.08-May-2021 4592.01 1014.25 69.08 1.00 163.82 3008.50
   20:22:10.555.08-May-2021 4592.01 1017.66 69.08 1.00 164.02 3008.50
   20:22:10.755.08-May-2021 4592.01 1017.66 69.08 1.00 164.22 3008.50
   20:22:10.955.08-May-2021 4592.01 1024.19 69.08 1.00 164.42 3008.50
   20:22:11.155.08-May-2021 4592.01 1027.48 69.08 1.00 164.62 3008.50
   20:22:11.355.08-May-2021 4592.01 1030.63 69.08 1.00 164.82 3008.50
   20:22:11.555.08-May-2021 4592.01 1033.88 69.08 1.00 165.02 3008.50
   20:22:11.755.08-May-2021 4592.01 1033.88 69.08 1.00 165.22 3008.50
   20:22:11.955.08-May-2021 4592.01 1040.24 69.08 1.00 165.42 3008.50
   20:22:12.155.08-May-2021 4592.01 1043.64 69.08 1.00 165.62 3008.50
   20:22:12.355.08-May-2021 4592.01 1049.51 69.08 1.00 165.82 3008.50
   20:22:12.555.08-May-2021 4592.01 1054.76 69.08 1.00 166.02 3008.50
   20:22:12.755.08-May-2021 4592.01 1054.76 69.08 1.00 166.22 3008.50
   20:22:12.955.08-May-2021 4592.01 1061.41 69.08 1.00 166.42 3008.50
   20:22:13.155.08-May-2021 4592.01 1064.53 69.08 1.00 166.62 3008.50
   20:22:13.355.08-May-2021 4592.01 1067.58 69.08 1.00 166.82 3008.50
   20:22:13.555.08-May-2021 4592.01 1070.69 69.08 1.00 167.02 3008.50
   20:22:13.755.08-May-2021 4592.01 1070.69 69.08 1.00 167.22 3008.50
   20:22:13.955.08-May-2021 4592.01 1076.92 69.08 1.00 167.42 3008.50
   20:22:14.155.08-May-2021 4592.01 1080.04 69.08 1.00 167.62 3008.50
   20:22:14.355.08-May-2021 4592.01 1082.71 69.08 1.00 167.82 3008.50
   20:22:14.555.08-May-2021 4592.01 1086.28 69.08 1.00 168.02 3008.50
   20:22:14.755.08-May-2021 4592.01 1086.28 69.08 1.00 168.22 3008.50
   20:22:14.955.08-May-2021 4592.01 1092.40 69.08 1.00 168.42 3008.50
   20:22:15.155.08-May-2021 4592.01 1095.30 69.08 1.00 168.62 3008.50
   20:22:15.355.08-May-2021 4592.01 1097.88 69.08 1.00 168.82 3008.50
   20:22:15.555.08-May-2021 4592.01 1122.16 69.08 1.00 169.02 3008.50
   20:22:15.756.08-May-2021 4592.01 1122.16 69.08 1.00 169.22 3008.50
   20:22:15.956.08-May-2021 4592.01 1219.28 69.08 1.00 169.42 3008.50
   20:22:16.156.08-May-2021 4592.01 1242.32 69.08 1.00 169.62 3008.50
   20:22:16.356.08-May-2021 4592.01 1252.29 69.08 1.00 169.82 3008.50
   20:22:16.556.08-May-2021 4592.01 1256.74 69.08 1.00 170.02 3008.50
   20:22:16.756.08-May-2021 4592.01 1256.74 69.08 1.00 170.22 3008.50
   20:22:16.956.08-May-2021 4592.01 1263.69 69.08 1.00 170.42 3008.50
   20:22:17.156.08-May-2021 4592.01 1266.29 69.08 1.00 170.62 3008.50
   20:22:17.356.08-May-2021 4592.01 1269.63 69.08 1.00 170.82 3008.50
   20:22:17.556.08-May-2021 4592.01 1272.38 69.08 1.00 171.02 3008.50
   20:22:17.756.08-May-2021 4592.01 1272.38 69.08 1.00 171.22 3008.50
   20:22:17.956.08-May-2021 4592.01 1278.12 69.08 1.00 171.42 3008.50
   20:22:18.156.08-May-2021 4592.01 1280.98 69.08 1.00 171.62 3008.50
   20:22:18.356.08-May-2021 4592.01 1283.64 69.08 1.00 171.82 3008.50
   20:22:18.556.08-May-2021 4592.01 1286.46 69.08 1.00 172.02 3008.50
   20:22:18.756.08-May-2021 4592.01 1286.46 69.08 1.00 172.22 3008.50
   20:22:18.956.08-May-2021 4592.01 1291.76 69.08 1.00 172.42 3008.50
   20:22:19.156.08-May-2021 4592.01 1294.41 69.08 1.00 172.62 3008.50
   20:22:19.356.08-May-2021 4592.01 1296.95 69.08 1.00 172.82 3008.50
   20:22:19.556.08-May-2021 4592.01 1299.55 69.08 1.00 173.02 3008.50
   20:22:19.756.08-May-2021 4592.01 1299.55 69.08 1.00 173.22 3008.50
   20:22:19.956.08-May-2021 4592.01 1305.15 69.08 1.00 173.42 3008.50
   20:22:20.156.08-May-2021 4592.01 1307.12 69.09 1.00 173.62 3008.50
   20:22:20.356.08-May-2021 4592.01 1310.04 69.09 1.00 173.82 3008.50
   20:22:20.556.08-May-2021 4592.01 1312.40 69.09 1.00 174.02 3008.50
   20:22:20.756.08-May-2021 4592.01 1312.40 69.09 1.00 174.22 3008.50
   20:22:20.956.08-May-2021 4592.01 1317.36 69.09 1.00 174.42 3008.50
   20:22:21.156.08-May-2021 4592.01 1319.74 69.09 1.00 174.62 3008.50
   20:22:21.356.08-May-2021 4592.01 1322.13 69.09 1.00 174.82 3008.50
   20:22:21.556.08-May-2021 4592.01 1324.46 69.09 1.00 175.02 3008.50
   20:22:21.756.08-May-2021 4592.01 1324.46 69.09 1.00 175.22 3008.50
   20:22:21.956.08-May-2021 4592.01 1329.09 69.09 1.00 175.42 3008.50
   20:22:22.156.08-May-2021 4592.01 1331.40 69.09 1.00 175.62 3008.50
   20:22:22.356.08-May-2021 4592.01 1333.06 69.09 1.00 175.82 3008.50
   20:22:22.556.08-May-2021 4592.01 1336.46 69.09 1.00 176.02 3008.50
   20:22:22.756.08-May-2021 4592.01 1336.46 69.09 1.00 176.22 3008.50
   20:22:22.956.08-May-2021 4592.01 1340.75 69.09 1.00 176.42 3008.50
   20:22:23.156.08-May-2021 4592.01 1342.57 69.09 1.00 176.62 3008.50
   20:22:23.356.08-May-2021 4592.01 1345.75 69.09 1.00 176.82 3008.50
   20:22:23.556.08-May-2021 4592.01 1347.82 69.09 1.00 177.02 3008.50
   20:22:23.756.08-May-2021 4592.01 1347.82 69.09 1.00 177.22 3008.50
   20:22:23.956.08-May-2021 4592.01 1352.17 69.09 1.00 177.42 3008.50
   20:22:24.156.08-May-2021 4592.01 1355.21 69.09 1.00 177.62 3008.50
   20:22:24.356.08-May-2021 4592.01 1357.21 69.09 1.00 177.82 3008.50
   20:22:24.556.08-May-2021 4592.01 1359.63 69.09 1.00 178.02 3008.50
   20:22:24.756.08-May-2021 4592.01 1359.63 69.09 1.00 178.22 3008.50
   20:22:24.956.08-May-2021 4592.01 1364.13 69.09 1.00 178.42 3008.50
   20:22:25.156.08-May-2021 4592.01 1366.54 69.09 1.00 178.62 3008.50
   20:22:25.357.08-May-2021 4592.01 1368.90 69.09 1.00 178.82 3008.50
   20:22:25.557.08-May-2021 4592.01 1371.00 69.09 1.00 179.02 3008.50
   20:22:25.757.08-May-2021 4592.01 1371.00 69.09 1.00 179.22 3008.50
   20:22:25.957.08-May-2021 4592.01 1375.37 69.09 1.00 179.42 3008.50
   20:22:26.157.08-May-2021 4592.01 1377.60 69.09 1.00 179.62 3008.50
   20:22:26.357.08-May-2021 4592.01 1379.80 69.09 1.00 179.82 3008.50
   20:22:26.557.08-May-2021 4592.01 1381.93 69.09 1.00 180.02 3008.50
   20:22:26.757.08-May-2021 4592.01 1381.93 69.09 1.00 180.22 3008.50
   20:22:26.957.08-May-2021 4592.01 1386.15 69.09 1.00 180.42 3008.50
   20:22:27.157.08-May-2021 4592.01 1388.30 69.09 1.00 180.62 3008.50
   20:22:27.357.08-May-2021 4592.01 1389.73 69.09 1.00 180.82 3008.50
   20:22:27.557.08-May-2021 4592.01 1393.03 69.09 1.00 181.02 3008.50
   20:22:27.757.08-May-2021 4592.01 1393.03 69.09 1.00 181.22 3008.50
   20:22:27.957.08-May-2021 4592.01 1396.96 69.09 1.00 181.42 3008.50
   20:22:28.157.08-May-2021 4592.01 1398.79 69.09 1.00 181.62 3008.50
   20:22:28.357.08-May-2021 4592.01 1400.93 69.09 1.00 181.82 3008.50
   20:22:28.557.08-May-2021 4592.01 1403.07 69.09 1.00 182.02 3008.50
   20:22:28.757.08-May-2021 4592.01 1403.07 69.09 1.00 182.22 3008.50
   20:22:28.957.08-May-2021 4592.01 1407.44 69.09 1.00 182.42 3008.50
   20:22:29.157.08-May-2021 4592.01 1409.21 69.09 1.00 182.62 3008.50
   20:22:29.357.08-May-2021 4592.01 1411.19 69.09 1.00 182.82 3008.50
   20:22:29.557.08-May-2021 4592.01 1413.18 69.09 1.00 183.02 3008.50
   20:22:29.757.08-May-2021 4592.01 1413.18 69.09 1.00 183.22 3008.50
   20:22:29.957.08-May-2021 4592.01 1416.71 69.09 1.00 183.42 3008.50
   20:22:30.157.08-May-2021 4592.01 1419.27 69.09 1.00 183.62 3008.50
   20:22:30.357.08-May-2021 4592.01 1420.92 69.09 1.00 183.82 3008.50
