~Version Information
 VERS.                  2.0:   CWLS log ASCII Standard -VERSION 2.0
 WRAP.                   NO:   One line per depth step
~Well Information Block
#MNEM.UNIT     VALUE/NAME     DESCRIPTION
#---------     -----------    ---------------------------
 STRT.S             02:35:25 09-May-21: START TIME 02:35:25 09-May-21
 STOP.S             02:42:01 09-May-21: STOP TIME  02:42:01 09-May-21
 STEP.S                   0.00: STEP TIME
 NULL.                 -999.25: NULL VALUE
 PROV.                    Baku:  PROVINCE
 STAT.                    Baku:  STATE NAME
 SON .        AZ-XX-0906571588:  JOB NUMBER
 WTYP.                Deviated:  WELL TYPE
 COMP.     BP Exploration (Caspian Sea) ltd:  COMPANY
 BASE.              Azerbaijan:  LOGGING EQUIPMENT BASE LOCATION
 REGN.                   EESSA:  REGION
 CTRY.              Azerbaijan:  COUNTRY NAME
 FLD .                     ACG:  FIELD NAME
 WELL.                     J28:  WELL NAME
 RIG .             West Chirag:  RIG NAME
 DMF .             Drill Floor:  DRILL MEAS FROM
 PDAT.       Caspian Sea Level:  PERMANENT DATUM
 HPTY.       Minimum Curvature:  HOLE POS TYPE
 MDS .        Operator Entered:  MAG DATA SOURCE
 NREF.                    Grid:  NORTH REFERENCE
 SRVC.          TURAN DRILLING:  CONTRACTOR
 JOBN.        AZ-XX-0906571588:  JOB TICKET NUMB
 DCON.     Halliburton Sperry Drilling:  DIRECTNL CONTR
 STIM.      00.44.00 11-Feb-21:  START TIME
 DATE.      00.00.00 05-May-21:  END TIME
 SPUD.               13-Feb-21:  SPUD DATE
 MWDS.                    Baku:  MWD SHOP
 DOE .                     N/A:  DOE NUMBER
 UNIT.                     N/A:  LOGGING EQUIPMENT ID
 UWI .                     N/A:  UNIQUE WELL IDENTIFIER
 API .                     N/A:  API NUMBER
 CNTY.                        :  COUNTY
 LOC .                        :  LOCATION
 LMF .             Drill Floor:  LOG MEASURED FROM
 TVDS.m                  43.00:  TVDSS CORRECTN
 SDEP.m                 341.00:  START DEPTH
 EGL .m                   0.00:  GROUND ELEVATION
 WDMS.m                 169.80:  WD ELEV
 AGAP.m                  43.00:  AIR GAP
 EPD .m                   0.00:  ELEVATION
 APD .m                  43.00:  DEPTH ABOVE PD
 LATI.deg                40.13:  LATITUDE
 LONG.deg                51.22:  LONGITUDE
 UTMY.m             4443793.85:  UTM Y
 UTMX.m              519005.06:  UTM X
 WHEW.m                 -11.57:  WELL HEAD E/W
 WHNS.m                   8.57:  WELL HEAD N/S
 VSEW.m                 -11.57:  VERT SEC E/W
 VSNS.m                   8.57:  VERT SEC N/S
 DFWL.m                   0.00:  DISTANCE FWL
 DFSL.m                   0.00:  DISTANCE FSL
 VSDR.deg               299.34:  VERT SEC DIRECT
 GVFD.g                   1.00:  GRAVITY FIELD
 AZTC.deg                 6.36:  AZM TOTAL CORR
 MFLD.nT              50391.00:  MAGNETIC FIELD
 MDIP.deg                59.65:  MAGNETIC DIP
 MDEC.deg                 6.48:  MAGNETIC DECL
 GRDC.deg                 0.12:  GRID CORRECTION
 DEP .m                 334.96:  DEPTH
 TDD .m                1407.26:  TOTAL DEPTH (DRILLER)
 EKB .m                  43.00:  KB ELEVATION
 EDF .m                  43.00:  DF ELEVATION
 TDL .m                 228.00:  TOTAL DEPTH (LOGGER)
 VSC .                       0:  VS TO CLOSURE
 MAGU.                 1854484:  MAGUTM CHECKSUM
~Parameter Information Block
#MNEM.UNIT       Value        Description
#---------     -----------    ---------------------------
 AV  .mps                 4.00:  Ann Velocity 
 AVMX.mps                 4.73:  Max Ann Veloc 
 AZIF.deg               304.48:  Azm, Final 
 BHAT.        Rotary Steerable:  BHA Type 
 BREV.rev            257300.00:  Rev Bit Total 
 BROT.°/30m               0.00:  Build Rotating 
 BS  .in                  8.50:  Bit Size 
 BSZ .in                  8.50:  Bit Size 
 BTPL.psig              589.00:  Bit Press Loss 
 CABU.                      No:  Customer Abuse 
 CGEO.          Mubariz ghayev:  Customer Geo 
 COMM.                     LÑz:  Run Comments 1 
 TCS .hr                 64.25:  Time Ciculation Ended 
 CV  .mps                 3.50:  Crit Velocity 
 CVMX.mps                 4.52:  Max Crit Veloc 
 DD1 .             Aziz Aliyev:  Direct Drillr 1 
 DD2 .         Intigam Rahimov:  Direct Drillr 2 
 DD3 .          Rashad Habibov:  Direct Drillr 3 
 DDSV.               Geo-Pilot:  DD Service 
 DEFF.%                  98.00:  % Det Eff 
 DLRX.°/30m               0.00:  Dogleg Rot Max 
 DLSO.°/30m               0.00:  Dogleg Oriented 
 DLSX.°/30m               0.00:  Dogleg Str Max 
 DRET.      10.45.04 08-May-21:  Drill End Time 
 DRST.      03.30.04 04-May-21:  Drill Start Tim 
 DTIM.hr                 14.97:  Time Drilling 
 EDEP.m                4640.01:  End Depth 
 ENG1.         Dail Mahammadov:  Engineer 1 
 ENG2.           Eldar Hajiyev:  Engineer 2 
 ENG3.       Bakhtiar Jabbarli:  Engineer 3 
 ENG4.       Natik Hasanagayev:  Engineer 4 
 ETIM.      09.30.04 14-May-21:  End Time 
 FLOI.gpm               460.00:  Flow In 
 FLON.gpm               200.00:  Flow In Min 
 FLOS.cptm                0.00:  Fluid Loss 
 FLOX.gpm               505.00:  Flow In Max 
 HFLO.                      No:  High Flow 
 HPRE.                      No:  High Pressure 
 HTEM.                      No:  High Temp 
 HYDO.m                   1.80:  Hydro Offset 
 IFIN.deg                66.71:  Inc, Final 
 IMAX.deg                67.03:  Inc Max 
 IMIN.deg                66.63:  Inc Min 
 IMND.m                4550.58:  Inc Min Depth 
 IMXD.m                4439.01:  Inc Max Depth 
 JARR.                      No:  Jarring 
 LETM.      10.45.04 08-May-21:  Log End Time 
 LOST.hr                     0:  Lost Rig Time 
 LSTM.      03.30.04 04-May-21:  Log Start Time 
 MDCL.ppm             37000.00:  Mud Chlorides 
 MDES.     Inversion Oil/Synthetic:  Mud Desc 
 DFD .sg                  1.38:  Mud Density 
 MDMN.sg                  1.35:  Dens Mud Min 
 MDMX.sg                  1.40:  Dens Mud Max 
 MOIL.                   57.40:  Run Mud Oil % 
 MOWR.                   70:30:  Run Mud OWR 
 MSND.                    0.00:  Run Mud Sand % 
 MSOL.                   18.00:  Run Mud Solids% 
 DFV .spqt               71.00:  Mud Viscosity 
 MWOD.in                  6.75:  MWD Tool OD 
 MWSI.                      No:  Serv Intrp, MWD 
 OTIM.hr                242.76:  Time Operating 
 PCON.           Look Like New:  Pad Condition 
 PMAX.psia            12183.92:  Press Op, Max 
 PV  .cP                 27.00:  Mud PV 
 RUN .                    1300:  Run Number 
 ROPA.m/hr               15.00:  ROP Avg 
 ROPN.m/hr                9.00:  ROP Min 
 ROPX.m/hr               19.00:  ROP Max 
 RPMA.rpm               120.00:  RPM Surface Avg 
 RPMN.rpm               100.00:  RPM Surface Min 
 RPMX.rpm               120.00:  RPM Surface Max 
 RRUN.                    1300:  Rig Run Number 
 RTIM.hr                  5.00:  Time Reaming 
 SAZI.deg               304.73:  Azm, Start 
 SDEP.m                4412.01:  Start Depth 
 SIDD.                      No:  Serv Intrp, DD 
 SINC.deg                66.82:  Inc, Start 
 SPPA.psig             2800.00:  SPP Avg 
 SPPN.psig             2610.00:  SPP Min 
 SPPX.psig             3100.00:  SPP Max 
 STIM.      03.30.00 04-May-21:  Start Time 
 SVCS.                 DD, MWD:  Services 
 SVER.                    9.20:  Sperry Version 
 TDAT.m                 228.00:  Tot Depth Attmp 
 TDDF.                      No:  Trip for DD 
 TDLG.m                 228.00:  Tot Depth Loggd 
 TFF .                      No:  Trip for Fail 
 TQAA.f-kp               15.00:  Torque Abs Avg 
 TQAN.f-kp               12.00:  Torque Abs Min 
 TQAX.f-kp               22.00:  Torque Abs Max 
 TRRT.°/30m               0.00:  Turn Rotating 
 MRT .                    HCIM:  Maximum Recorded Temperature 
 TTMX.degC               90.20:  Max Tool Temp 
 VS01.                90627813:  Virtual Str1 SN 
 VS02.                90634712:  Virtual Str2 SN 
 VS03.                90643410:  Virtual Str3 SN 
 VS04.                90634712:  Virtual Str4 SN 
 WBMN.klb                 9.00:  WOB Min 
 WITN.        Elmaddin Rahimov:  Customer Rep 
 WITN.         Haytham Mostafa:  Customer Rep 2 
 WOBA.klb                15.00:  WOB Avg 
 WOBX.klb                23.00:  WOB Max 
 YP  .lhf2               29.00:  Yield Point 
~Curve Information Block
#MNEM.UNIT                 API CODE     Curve Description
#---------               -----------    ---------------------------
 TIME.HHMMSS            00 000 000 000:  GT Time & Date
 GTDEPTH.m              00 000 000 000:  GT Depth
 GTPQH.psia             00 000 000 000:  GT HR Quartz Pressure
 GTTQ.degC              00 000 000 000:  GT Quartz Temperature
 GTTN.NONE              00 000 000 000:  GT Test Number
 GTET.sec               00 000 000 000:  GT Elapsed Test Time
 GTTVD.m                00 000 000 000:  GT True Vertical Depth
#Other Information
#
#WARRANTY: Halliburton will use its best efforts to furnish customers with 
#accurate information and interpretations that are part of, and incident to, the services 
#provided.  However, Halliburton cannot and does not warrant the accuracy 
#or correctness of such information and interpretations.  Under no circumstances should any 
#such information or interpretation be relied upon as the sole basis for any drilling, 
#completion, production, or financial decision or any procedure involving any risk to the 
#safety of any drilling venture, drilling rig or its crew or any other third party.  The 
#Customer has full responsibility for all drilling, completion and production operation.  
#Halliburton makes no representations or warranties, either expressed or 
#implied, including, but not limited to, the implied warranties of merchantability or fitness 
#for a particular purpose, with respect to the services rendered.  In no event will 
#Halliburton be liable for failure to obtain any particular results or for 
#any damages, including, but not limited to, indirect, special or consequential damages, 
#resulting from the use of any information or interpretation provided by Halliburton.
#
~A           TIME           GTDEPTH  GTPQH  GTTQ  GTTN   GTET   GTTVD  
# ...
   02:39:11.303.09-May-2021 4482.51 1285.08 67.67 11.00 226.04 2965.25
   02:39:11.503.09-May-2021 4482.51 1285.08 67.67 11.00 226.24 2965.25
   02:39:11.704.09-May-2021 4482.51 1287.32 67.67 11.00 226.44 2965.25
   02:39:11.904.09-May-2021 4482.51 1288.46 67.67 11.00 226.64 2965.25
   02:39:12.104.09-May-2021 4482.51 1289.01 67.67 11.00 226.84 2965.25
   02:39:12.304.09-May-2021 4482.51 1290.93 67.67 11.00 227.04 2965.25
   02:39:12.504.09-May-2021 4482.51 1290.93 67.67 11.00 227.24 2965.25
   02:39:12.704.09-May-2021 4482.51 1293.26 67.67 11.00 227.44 2965.25
   02:39:12.904.09-May-2021 4482.51 1294.23 67.67 11.00 227.64 2965.25
   02:39:13.104.09-May-2021 4482.51 1295.38 67.67 11.00 227.84 2965.25
   02:39:13.304.09-May-2021 4482.51 1296.54 67.67 11.00 228.04 2965.25
   02:39:13.504.09-May-2021 4482.51 1296.54 67.67 11.00 228.24 2965.25
   02:39:13.704.09-May-2021 4482.51 1298.84 67.67 11.00 228.44 2965.25
   02:39:13.904.09-May-2021 4482.51 1300.01 67.67 11.00 228.64 2965.25
   02:39:14.104.09-May-2021 4482.51 1301.17 67.67 11.00 228.84 2965.25
   02:39:14.304.09-May-2021 4482.51 1302.50 67.67 11.00 229.04 2965.25
   02:39:14.504.09-May-2021 4482.51 1302.50 67.67 11.00 229.24 2965.25
   02:39:14.704.09-May-2021 4482.51 1304.50 67.67 11.00 229.44 2965.25
   02:39:14.904.09-May-2021 4482.51 1306.35 67.67 11.00 229.64 2965.25
   02:39:15.104.09-May-2021 4482.51 1307.44 67.67 11.00 229.84 2965.25
   02:39:15.304.09-May-2021 4482.51 1308.42 67.67 11.00 230.04 2965.25
   02:39:15.504.09-May-2021 4482.51 1308.42 67.67 11.00 230.24 2965.25
   02:39:15.704.09-May-2021 4482.51 1310.67 67.67 11.00 230.44 2965.25
   02:39:15.904.09-May-2021 4482.51 1311.84 67.67 11.00 230.64 2965.25
   02:39:16.104.09-May-2021 4482.51 1312.92 67.67 11.00 230.84 2965.25
   02:39:16.304.09-May-2021 4482.51 1314.03 67.67 11.00 231.04 2965.25
   02:39:16.504.09-May-2021 4482.51 1314.03 67.67 11.00 231.24 2965.25
   02:39:16.704.09-May-2021 4482.51 1316.25 67.67 11.00 231.44 2965.25
   02:39:16.904.09-May-2021 4482.51 1317.49 67.67 11.00 231.64 2965.25
   02:39:17.104.09-May-2021 4482.51 1318.59 67.67 11.00 231.84 2965.25
   02:39:17.304.09-May-2021 4482.51 1319.15 67.67 11.00 232.04 2965.25
   02:39:17.504.09-May-2021 4482.51 1319.15 67.67 11.00 232.24 2965.25
   02:39:17.705.09-May-2021 4482.51 1320.83 67.67 11.00 232.44 2965.25
   02:39:17.905.09-May-2021 4482.51 1321.17 67.67 11.00 232.64 2965.25
   02:39:18.105.09-May-2021 4482.51 1322.12 67.67 11.00 232.84 2965.25
   02:39:18.305.09-May-2021 4482.51 1323.16 67.67 11.00 233.04 2965.25
   02:39:18.505.09-May-2021 4482.51 1323.16 67.67 11.00 233.24 2965.25
   02:39:18.705.09-May-2021 4482.51 1325.65 67.67 11.00 233.44 2965.25
   02:39:18.905.09-May-2021 4482.51 1326.80 67.67 11.00 233.64 2965.25
   02:39:19.105.09-May-2021 4482.51 1327.75 67.67 11.00 233.84 2965.25
   02:39:19.305.09-May-2021 4482.51 1329.01 67.67 11.00 234.04 2965.25
   02:39:19.505.09-May-2021 4482.51 1329.01 67.67 11.00 234.24 2965.25
   02:39:19.705.09-May-2021 4482.51 1332.13 67.67 11.00 234.44 2965.25
   02:39:19.905.09-May-2021 4482.51 1333.55 67.67 11.00 234.64 2965.25
   02:39:20.105.09-May-2021 4482.51 1334.38 67.67 11.00 234.84 2965.25
   02:39:20.305.09-May-2021 4482.51 1335.41 67.67 11.00 235.04 2965.25
   02:39:20.505.09-May-2021 4482.51 1335.41 67.67 11.00 235.24 2965.25
   02:39:20.705.09-May-2021 4482.51 1338.18 67.67 11.00 235.44 2965.25
   02:39:20.905.09-May-2021 4482.51 1339.09 67.67 11.00 235.64 2965.25
   02:39:21.105.09-May-2021 4482.51 1340.34 67.67 11.00 235.84 2965.25
   02:39:21.305.09-May-2021 4482.51 1341.44 67.67 11.00 236.04 2965.25
   02:39:21.505.09-May-2021 4482.51 1341.44 67.67 11.00 236.24 2965.25
   02:39:21.705.09-May-2021 4482.51 1343.74 67.67 11.00 236.44 2965.25
   02:39:21.905.09-May-2021 4482.51 1344.91 67.67 11.00 236.64 2965.25
   02:39:22.105.09-May-2021 4482.51 1346.03 67.67 11.00 236.84 2965.25
   02:39:22.305.09-May-2021 4482.51 1347.22 67.67 11.00 237.04 2965.25
   02:39:22.505.09-May-2021 4482.51 1347.22 67.67 11.00 237.24 2965.25
   02:39:22.705.09-May-2021 4482.51 1348.89 67.67 11.00 237.44 2965.25
   02:39:22.905.09-May-2021 4482.51 1350.78 67.67 11.00 237.64 2965.25
   02:39:23.105.09-May-2021 4482.51 1351.62 67.67 11.00 237.84 2965.25
   02:39:23.305.09-May-2021 4482.51 1353.04 67.67 11.00 238.04 2965.25
   02:39:23.505.09-May-2021 4482.51 1353.04 67.67 11.00 238.24 2965.25
   02:39:23.706.09-May-2021 4482.51 1354.98 67.67 11.00 238.44 2965.25
   02:39:23.906.09-May-2021 4482.51 1356.08 67.67 11.00 238.64 2965.25
   02:39:24.106.09-May-2021 4482.51 1357.15 67.67 11.00 238.84 2965.25
   02:39:24.306.09-May-2021 4482.51 1358.28 67.67 11.00 239.04 2965.25
   02:39:24.506.09-May-2021 4482.51 1358.28 67.67 11.00 239.24 2965.25
   02:39:24.706.09-May-2021 4482.51 1360.49 67.67 11.00 239.44 2965.25
   02:39:24.906.09-May-2021 4482.51 1361.62 67.67 11.00 239.64 2965.25
   02:39:25.106.09-May-2021 4482.51 1362.72 67.67 11.00 239.84 2965.25
   02:39:25.306.09-May-2021 4482.51 1363.37 67.67 11.00 240.04 2965.25
   02:39:25.506.09-May-2021 4482.51 1363.37 67.67 11.00 240.24 2965.25
   02:39:25.706.09-May-2021 4482.51 1366.01 67.67 11.00 240.44 2965.25
   02:39:25.906.09-May-2021 4482.51 1367.31 67.67 11.00 240.64 2965.25
   02:39:26.106.09-May-2021 4482.51 1367.66 67.67 11.00 240.84 2965.25
   02:39:26.306.09-May-2021 4482.51 1369.68 67.67 11.00 241.04 2965.25
   02:39:26.506.09-May-2021 4482.51 1369.68 67.67 11.00 241.24 2965.25
   02:39:26.706.09-May-2021 4482.51 1371.60 67.67 11.00 241.44 2965.25
   02:39:26.906.09-May-2021 4482.51 1372.11 67.67 11.00 241.64 2965.25
   02:39:27.106.09-May-2021 4482.51 1373.94 67.67 11.00 241.84 2965.25
   02:39:27.306.09-May-2021 4482.51 1374.77 67.67 11.00 242.04 2965.25
   02:39:27.506.09-May-2021 4482.51 1374.77 67.67 11.00 242.24 2965.25
   02:39:27.706.09-May-2021 4482.51 1377.18 67.67 11.00 242.44 2965.25
   02:39:27.906.09-May-2021 4482.51 1378.01 67.67 11.00 242.64 2965.25
   02:39:28.106.09-May-2021 4482.51 1379.39 67.67 11.00 242.84 2965.25
   02:39:28.306.09-May-2021 4482.51 1380.15 67.67 11.00 243.04 2965.25
   02:39:28.506.09-May-2021 4482.51 1380.15 67.67 11.00 243.24 2965.25
   02:39:28.706.09-May-2021 4482.51 1382.34 67.67 11.00 243.44 2965.25
   02:39:28.906.09-May-2021 4482.51 1383.42 67.67 11.00 243.64 2965.25
   02:39:29.106.09-May-2021 4482.51 1384.52 67.67 11.00 243.84 2965.25
   02:39:29.306.09-May-2021 4482.51 1385.59 67.67 11.00 244.04 2965.25
   02:39:29.506.09-May-2021 4482.51 1385.59 67.67 11.00 244.24 2965.25
   02:39:29.707.09-May-2021 4482.51 1387.74 67.67 11.00 244.44 2965.25
   02:39:29.907.09-May-2021 4482.51 1388.80 67.67 11.00 244.64 2965.25
   02:39:30.107.09-May-2021 4482.51 1389.44 67.67 11.00 244.84 2965.25
   02:39:30.307.09-May-2021 4482.51 1391.17 67.67 11.00 245.04 2965.25
   02:39:30.507.09-May-2021 4482.51 1391.17 67.67 11.00 245.24 2965.25
   02:39:30.707.09-May-2021 4482.51 1393.06 67.67 11.00 245.44 2965.25
   02:39:30.907.09-May-2021 4482.51 1394.10 67.67 11.00 245.64 2965.25
   02:39:31.107.09-May-2021 4482.51 1395.09 67.67 11.00 245.84 2965.25
   02:39:31.307.09-May-2021 4482.51 1396.12 67.67 11.00 246.04 2965.25
   02:39:31.507.09-May-2021 4482.51 1396.12 67.67 11.00 246.24 2965.25
   02:39:31.707.09-May-2021 4482.51 1398.15 67.67 11.00 246.44 2965.25
   02:39:31.907.09-May-2021 4482.51 1399.15 67.67 11.00 246.64 2965.25
   02:39:32.107.09-May-2021 4482.51 1400.17 67.67 11.00 246.84 2965.25
   02:39:32.307.09-May-2021 4482.51 1401.17 67.67 11.00 247.04 2965.25
   02:39:32.507.09-May-2021 4482.51 1401.17 67.67 11.00 247.24 2965.25
   02:39:32.707.09-May-2021 4482.51 1402.65 67.67 11.00 247.44 2965.25
   02:39:32.907.09-May-2021 4482.51 1404.51 67.67 11.00 247.64 2965.25
   02:39:33.107.09-May-2021 4482.51 1405.34 67.67 11.00 247.84 2965.25
   02:39:33.307.09-May-2021 4482.51 1405.86 67.67 11.00 248.04 2965.25
   02:39:33.507.09-May-2021 4482.51 1405.86 67.67 11.00 248.24 2965.25
   02:39:33.707.09-May-2021 4482.51 1406.87 67.67 11.00 248.44 2965.25
