~Version Information
 VERS.                  2.0:   CWLS log ASCII Standard -VERSION 2.0
 WRAP.                   NO:   One line per depth step
~Well Information Block
#MNEM.UNIT     VALUE/NAME     DESCRIPTION
#---------     -----------    ---------------------------
 STRT.S             00:12:22 09-May-21: START TIME 00:12:22 09-May-21
 STOP.S             00:19:08 09-May-21: STOP TIME  00:19:08 09-May-21
 STEP.S                   0.00: STEP TIME
 NULL.                 -999.25: NULL VALUE
 PROV.                    Baku:  PROVINCE
 STAT.                    Baku:  STATE NAME
 SON .        AZ-XX-0906571588:  JOB NUMBER
 WTYP.                Deviated:  WELL TYPE
 COMP.     BP Exploration (Caspian Sea) ltd:  COMPANY
 BASE.              Azerbaijan:  LOGGING EQUIPMENT BASE LOCATION
 REGN.                   EESSA:  REGION
 CTRY.              Azerbaijan:  COUNTRY NAME
 FLD .                     ACG:  FIELD NAME
 WELL.                     J28:  WELL NAME
 RIG .             West Chirag:  RIG NAME
 DMF .             Drill Floor:  DRILL MEAS FROM
 PDAT.       Caspian Sea Level:  PERMANENT DATUM
 HPTY.       Minimum Curvature:  HOLE POS TYPE
 MDS .        Operator Entered:  MAG DATA SOURCE
 NREF.                    Grid:  NORTH REFERENCE
 SRVC.          TURAN DRILLING:  CONTRACTOR
 JOBN.        AZ-XX-0906571588:  JOB TICKET NUMB
 DCON.     Halliburton Sperry Drilling:  DIRECTNL CONTR
 STIM.      00.44.00 11-Feb-21:  START TIME
 DATE.      00.00.00 05-May-21:  END TIME
 SPUD.               13-Feb-21:  SPUD DATE
 MWDS.                    Baku:  MWD SHOP
 DOE .                     N/A:  DOE NUMBER
 UNIT.                     N/A:  LOGGING EQUIPMENT ID
 UWI .                     N/A:  UNIQUE WELL IDENTIFIER
 API .                     N/A:  API NUMBER
 CNTY.                        :  COUNTY
 LOC .                        :  LOCATION
 LMF .             Drill Floor:  LOG MEASURED FROM
 TVDS.m                  43.00:  TVDSS CORRECTN
 SDEP.m                 341.00:  START DEPTH
 EGL .m                   0.00:  GROUND ELEVATION
 WDMS.m                 169.80:  WD ELEV
 AGAP.m                  43.00:  AIR GAP
 EPD .m                   0.00:  ELEVATION
 APD .m                  43.00:  DEPTH ABOVE PD
 LATI.deg                40.13:  LATITUDE
 LONG.deg                51.22:  LONGITUDE
 UTMY.m             4443793.85:  UTM Y
 UTMX.m              519005.06:  UTM X
 WHEW.m                 -11.57:  WELL HEAD E/W
 WHNS.m                   8.57:  WELL HEAD N/S
 VSEW.m                 -11.57:  VERT SEC E/W
 VSNS.m                   8.57:  VERT SEC N/S
 DFWL.m                   0.00:  DISTANCE FWL
 DFSL.m                   0.00:  DISTANCE FSL
 VSDR.deg               299.34:  VERT SEC DIRECT
 GVFD.g                   1.00:  GRAVITY FIELD
 AZTC.deg                 6.36:  AZM TOTAL CORR
 MFLD.nT              50391.00:  MAGNETIC FIELD
 MDIP.deg                59.65:  MAGNETIC DIP
 MDEC.deg                 6.48:  MAGNETIC DECL
 GRDC.deg                 0.12:  GRID CORRECTION
 DEP .m                 334.96:  DEPTH
 TDD .m                1407.26:  TOTAL DEPTH (DRILLER)
 EKB .m                  43.00:  KB ELEVATION
 EDF .m                  43.00:  DF ELEVATION
 TDL .m                 228.00:  TOTAL DEPTH (LOGGER)
 VSC .                       0:  VS TO CLOSURE
 MAGU.                 1854484:  MAGUTM CHECKSUM
~Parameter Information Block
#MNEM.UNIT       Value        Description
#---------     -----------    ---------------------------
 AV  .mps                 4.00:  Ann Velocity 
 AVMX.mps                 4.73:  Max Ann Veloc 
 AZIF.deg               304.48:  Azm, Final 
 BHAT.        Rotary Steerable:  BHA Type 
 BREV.rev            257300.00:  Rev Bit Total 
 BROT.°/30m               0.00:  Build Rotating 
 BS  .in                  8.50:  Bit Size 
 BSZ .in                  8.50:  Bit Size 
 BTPL.psig              589.00:  Bit Press Loss 
 CABU.                      No:  Customer Abuse 
 CGEO.          Mubariz ghayev:  Customer Geo 
 COMM.                     <Š|:  Run Comments 1 
 TCS .hr                 64.25:  Time Ciculation Ended 
 CV  .mps                 3.50:  Crit Velocity 
 CVMX.mps                 4.52:  Max Crit Veloc 
 DD1 .             Aziz Aliyev:  Direct Drillr 1 
 DD2 .         Intigam Rahimov:  Direct Drillr 2 
 DD3 .          Rashad Habibov:  Direct Drillr 3 
 DDSV.               Geo-Pilot:  DD Service 
 DEFF.%                  98.00:  % Det Eff 
 DLRX.°/30m               0.00:  Dogleg Rot Max 
 DLSO.°/30m               0.00:  Dogleg Oriented 
 DLSX.°/30m               0.00:  Dogleg Str Max 
 DRET.      10.45.04 08-May-21:  Drill End Time 
 DRST.      03.30.04 04-May-21:  Drill Start Tim 
 DTIM.hr                 14.97:  Time Drilling 
 EDEP.m                4640.01:  End Depth 
 ENG1.         Dail Mahammadov:  Engineer 1 
 ENG2.           Eldar Hajiyev:  Engineer 2 
 ENG3.       Bakhtiar Jabbarli:  Engineer 3 
 ENG4.       Natik Hasanagayev:  Engineer 4 
 ETIM.      09.30.04 14-May-21:  End Time 
 FLOI.gpm               460.00:  Flow In 
 FLON.gpm               200.00:  Flow In Min 
 FLOS.cptm                0.00:  Fluid Loss 
 FLOX.gpm               505.00:  Flow In Max 
 HFLO.                      No:  High Flow 
 HPRE.                      No:  High Pressure 
 HTEM.                      No:  High Temp 
 HYDO.m                   1.80:  Hydro Offset 
 IFIN.deg                66.71:  Inc, Final 
 IMAX.deg                67.03:  Inc Max 
 IMIN.deg                66.63:  Inc Min 
 IMND.m                4550.58:  Inc Min Depth 
 IMXD.m                4439.01:  Inc Max Depth 
 JARR.                      No:  Jarring 
 LETM.      10.45.04 08-May-21:  Log End Time 
 LOST.hr                     0:  Lost Rig Time 
 LSTM.      03.30.04 04-May-21:  Log Start Time 
 MDCL.ppm             37000.00:  Mud Chlorides 
 MDES.     Inversion Oil/Synthetic:  Mud Desc 
 DFD .sg                  1.38:  Mud Density 
 MDMN.sg                  1.35:  Dens Mud Min 
 MDMX.sg                  1.40:  Dens Mud Max 
 MOIL.                   57.40:  Run Mud Oil % 
 MOWR.                   70:30:  Run Mud OWR 
 MSND.                    0.00:  Run Mud Sand % 
 MSOL.                   18.00:  Run Mud Solids% 
 DFV .spqt               71.00:  Mud Viscosity 
 MWOD.in                  6.75:  MWD Tool OD 
 MWSI.                      No:  Serv Intrp, MWD 
 OTIM.hr                242.76:  Time Operating 
 PCON.           Look Like New:  Pad Condition 
 PMAX.psia            12183.92:  Press Op, Max 
 PV  .cP                 27.00:  Mud PV 
 RUN .                    1300:  Run Number 
 ROPA.m/hr               15.00:  ROP Avg 
 ROPN.m/hr                9.00:  ROP Min 
 ROPX.m/hr               19.00:  ROP Max 
 RPMA.rpm               120.00:  RPM Surface Avg 
 RPMN.rpm               100.00:  RPM Surface Min 
 RPMX.rpm               120.00:  RPM Surface Max 
 RRUN.                    1300:  Rig Run Number 
 RTIM.hr                  5.00:  Time Reaming 
 SAZI.deg               304.73:  Azm, Start 
 SDEP.m                4412.01:  Start Depth 
 SIDD.                      No:  Serv Intrp, DD 
 SINC.deg                66.82:  Inc, Start 
 SPPA.psig             2800.00:  SPP Avg 
 SPPN.psig             2610.00:  SPP Min 
 SPPX.psig             3100.00:  SPP Max 
 STIM.      03.30.00 04-May-21:  Start Time 
 SVCS.                 DD, MWD:  Services 
 SVER.                    9.20:  Sperry Version 
 TDAT.m                 228.00:  Tot Depth Attmp 
 TDDF.                      No:  Trip for DD 
 TDLG.m                 228.00:  Tot Depth Loggd 
 TFF .                      No:  Trip for Fail 
 TQAA.f-kp               15.00:  Torque Abs Avg 
 TQAN.f-kp               12.00:  Torque Abs Min 
 TQAX.f-kp               22.00:  Torque Abs Max 
 TRRT.°/30m               0.00:  Turn Rotating 
 MRT .                    HCIM:  Maximum Recorded Temperature 
 TTMX.degC               90.20:  Max Tool Temp 
 VS01.                90627813:  Virtual Str1 SN 
 VS02.                90634712:  Virtual Str2 SN 
 VS03.                90643410:  Virtual Str3 SN 
 VS04.                90634712:  Virtual Str4 SN 
 WBMN.klb                 9.00:  WOB Min 
 WITN.        Elmaddin Rahimov:  Customer Rep 
 WITN.         Haytham Mostafa:  Customer Rep 2 
 WOBA.klb                15.00:  WOB Avg 
 WOBX.klb                23.00:  WOB Max 
 YP  .lhf2               29.00:  Yield Point 
~Curve Information Block
#MNEM.UNIT                 API CODE     Curve Description
#---------               -----------    ---------------------------
 TIME.HHMMSS            00 000 000 000:  GT Time & Date
 GTDEPTH.m              00 000 000 000:  GT Depth
 GTPQH.psia             00 000 000 000:  GT HR Quartz Pressure
 GTTQ.degC              00 000 000 000:  GT Quartz Temperature
 GTTN.NONE              00 000 000 000:  GT Test Number
 GTET.sec               00 000 000 000:  GT Elapsed Test Time
 GTTVD.m                00 000 000 000:  GT True Vertical Depth
#Other Information
#
#WARRANTY: Halliburton will use its best efforts to furnish customers with 
#accurate information and interpretations that are part of, and incident to, the services 
#provided.  However, Halliburton cannot and does not warrant the accuracy 
#or correctness of such information and interpretations.  Under no circumstances should any 
#such information or interpretation be relied upon as the sole basis for any drilling, 
#completion, production, or financial decision or any procedure involving any risk to the 
#safety of any drilling venture, drilling rig or its crew or any other third party.  The 
#Customer has full responsibility for all drilling, completion and production operation.  
#Halliburton makes no representations or warranties, either expressed or 
#implied, including, but not limited to, the implied warranties of merchantability or fitness 
#for a particular purpose, with respect to the services rendered.  In no event will 
#Halliburton be liable for failure to obtain any particular results or for 
#any damages, including, but not limited to, indirect, special or consequential damages, 
#resulting from the use of any information or interpretation provided by Halliburton.
#
~A           TIME           GTDEPTH  GTPQH  GTTQ  GTTN  GTET   GTTVD  
# ...
   00:18:53.608.09-May-2021 4527.01 6825.45 68.21 6.00 391.14 2982.74
   00:18:53.808.09-May-2021 4527.01 6825.45 68.21 6.00 391.34 2982.74
   00:18:54.008.09-May-2021 4527.01 6831.76 68.21 6.00 391.54 2982.74
   00:18:54.208.09-May-2021 4527.01 6835.44 68.20 6.00 391.74 2982.74
   00:18:54.408.09-May-2021 4527.01 6831.03 68.20 6.00 391.94 2982.74
   00:18:54.608.09-May-2021 4527.01 6827.19 68.20 6.00 392.14 2982.74
   00:18:54.808.09-May-2021 4527.01 6827.19 68.20 6.00 392.34 2982.74
   00:18:55.009.09-May-2021 4527.01 6825.32 68.20 6.00 392.54 2982.74
   00:18:55.209.09-May-2021 4527.01 6824.39 68.20 6.00 392.74 2982.74
   00:18:55.409.09-May-2021 4527.01 6823.85 68.20 6.00 392.94 2982.74
   00:18:55.609.09-May-2021 4527.01 6823.65 68.20 6.00 393.14 2982.74
   00:18:55.809.09-May-2021 4527.01 6823.65 68.20 6.00 393.34 2982.74
   00:18:56.009.09-May-2021 4527.01 6822.58 68.20 6.00 393.54 2982.74
   00:18:56.209.09-May-2021 4527.01 6822.22 68.20 6.00 393.74 2982.74
   00:18:56.409.09-May-2021 4527.01 6822.50 68.20 6.00 393.94 2982.74
   00:18:56.609.09-May-2021 4527.01 6833.27 68.20 6.00 394.14 2982.74
   00:18:56.809.09-May-2021 4527.01 6833.27 68.20 6.00 394.34 2982.74
   00:18:57.009.09-May-2021 4527.01 6828.85 68.20 6.00 394.54 2982.74
   00:18:57.209.09-May-2021 4527.01 6823.28 68.20 6.00 394.74 2982.74
   00:18:57.409.09-May-2021 4527.01 6824.69 68.20 6.00 394.94 2982.74
   00:18:57.610.09-May-2021 4527.01 6824.53 68.20 6.00 395.14 2982.74
   00:18:57.810.09-May-2021 4527.01 6824.53 68.20 6.00 395.34 2982.74
   00:18:58.010.09-May-2021 4527.01 6832.92 68.20 6.00 395.54 2982.74
   00:18:58.210.09-May-2021 4527.01 6827.49 68.20 6.00 395.74 2982.74
   00:18:58.410.09-May-2021 4527.01 6833.33 68.20 6.00 395.94 2982.74
   00:18:58.610.09-May-2021 4527.01 6829.65 68.20 6.00 396.14 2982.74
   00:18:58.810.09-May-2021 4527.01 6829.65 68.20 6.00 396.34 2982.74
   00:18:59.010.09-May-2021 4527.01 6825.46 68.20 6.00 396.54 2982.74
   00:18:59.210.09-May-2021 4527.01 6836.47 68.20 6.00 396.74 2982.74
   00:18:59.410.09-May-2021 4527.01 6829.01 68.20 6.00 396.94 2982.74
   00:18:59.610.09-May-2021 4527.01 6828.79 68.20 6.00 397.14 2982.74
   00:18:59.810.09-May-2021 4527.01 6828.79 68.20 6.00 397.34 2982.74
   00:19:00.010.09-May-2021 4527.01 6825.79 68.20 6.00 397.54 2982.74
   00:19:00.210.09-May-2021 4527.01 6824.42 68.20 6.00 397.74 2982.74
   00:19:00.411.09-May-2021 4527.01 6823.79 68.20 6.00 397.94 2982.74
   00:19:00.611.09-May-2021 4527.01 6823.95 68.20 6.00 398.14 2982.74
   00:19:00.811.09-May-2021 4527.01 6823.95 68.20 6.00 398.34 2982.74
   00:19:01.011.09-May-2021 4527.01 6824.39 68.20 6.00 398.54 2982.74
   00:19:01.211.09-May-2021 4527.01 6824.50 68.20 6.00 398.74 2982.74
   00:19:01.411.09-May-2021 4527.01 6824.99 68.20 6.00 398.94 2982.74
   00:19:01.611.09-May-2021 4527.01 6825.85 68.20 6.00 399.14 2982.74
   00:19:01.811.09-May-2021 4527.01 6825.85 68.20 6.00 399.34 2982.74
   00:19:02.011.09-May-2021 4527.01 6829.17 68.20 6.00 399.54 2982.74
   00:19:02.211.09-May-2021 4527.01 6831.50 68.20 6.00 399.74 2982.74
   00:19:02.411.09-May-2021 4527.01 6829.25 68.20 6.00 399.94 2982.74
   00:19:02.611.09-May-2021 4527.01 6828.75 68.20 6.00 400.14 2982.74
   00:19:02.811.09-May-2021 4527.01 6828.75 68.20 6.00 400.35 2982.74
   00:19:03.011.09-May-2021 4527.01 6825.53 68.20 6.00 400.55 2982.74
   00:19:03.212.09-May-2021 4527.01 6824.36 68.19 6.00 400.75 2982.74
   00:19:03.412.09-May-2021 4527.01 6823.83 68.19 6.00 400.95 2982.74
   00:19:03.612.09-May-2021 4527.01 6823.16 68.19 6.00 401.15 2982.74
   00:19:03.812.09-May-2021 4527.01 6823.16 68.19 6.00 401.35 2982.74
   00:19:04.012.09-May-2021 4527.01 6822.71 68.19 6.00 401.55 2982.74
   00:19:04.212.09-May-2021 4527.01 6822.48 68.19 6.00 401.75 2982.74
   00:19:04.412.09-May-2021 4527.01 6823.34 68.19 6.00 401.95 2982.74
   00:19:04.612.09-May-2021 4527.01 6831.65 68.19 6.00 402.15 2982.74
   00:19:04.812.09-May-2021 4527.01 6831.65 68.19 6.00 402.35 2982.74
   00:19:05.012.09-May-2021 4527.01 6828.60 68.19 6.00 402.55 2982.74
   00:19:05.212.09-May-2021 4527.01 6822.94 68.19 6.00 402.75 2982.74
   00:19:05.412.09-May-2021 4527.01 6823.73 68.19 6.00 402.95 2982.74
   00:19:05.612.09-May-2021 4527.01 6823.69 68.19 6.00 403.15 2982.74
   00:19:05.812.09-May-2021 4527.01 6823.69 68.19 6.00 403.35 2982.74
   00:19:06.013.09-May-2021 4527.01 6831.88 68.19 6.00 403.55 2982.74
   00:19:06.213.09-May-2021 4527.01 6828.21 68.19 6.00 403.75 2982.74
   00:19:06.413.09-May-2021 4527.01 6831.06 68.19 6.00 403.95 2982.74
   00:19:06.613.09-May-2021 4527.01 6825.87 68.19 6.00 404.15 2982.74
   00:19:06.813.09-May-2021 4527.01 6825.87 68.19 6.00 404.35 2982.74
   00:19:07.013.09-May-2021 4527.01 6830.77 68.19 6.00 404.55 2982.74
   00:19:07.213.09-May-2021 4527.01 6832.13 68.19 6.00 404.75 2982.74
   00:19:07.413.09-May-2021 4527.01 6833.58 68.19 6.00 404.95 2982.74
   00:19:07.613.09-May-2021 4527.01 6828.67 68.19 6.00 405.15 2982.74
   00:19:07.813.09-May-2021 4527.01 6828.67 68.19 6.00 405.35 2982.74
   00:19:08.013.09-May-2021 4527.01 6824.53 68.19 6.00 405.55 2982.74
   00:19:08.213.09-May-2021 4527.01 6824.23 68.19 6.00 405.75 2982.74
   00:19:08.413.09-May-2021 4527.01 6824.42 68.19 6.00 405.95 2982.74
