~Version Information
 VERS.                  2.0:   CWLS log ASCII Standard -VERSION 2.0
 WRAP.                   NO:   One line per depth step
~Well Information Block
#MNEM.UNIT     VALUE/NAME     DESCRIPTION
#---------     -----------    ---------------------------
 STRT.S             00:24:13 10-May-21: START TIME 00:24:13 10-May-21
 STOP.S             00:32:26 10-May-21: STOP TIME  00:32:26 10-May-21
 STEP.S                   0.00: STEP TIME
 NULL.                 -999.25: NULL VALUE
 PROV.                    Baku:  PROVINCE
 STAT.                    Baku:  STATE NAME
 SON .        AZ-XX-0906571588:  JOB NUMBER
 WTYP.                Deviated:  WELL TYPE
 COMP.     BP Exploration (Caspian Sea) ltd:  COMPANY
 BASE.              Azerbaijan:  LOGGING EQUIPMENT BASE LOCATION
 REGN.                   EESSA:  REGION
 CTRY.              Azerbaijan:  COUNTRY NAME
 FLD .                     ACG:  FIELD NAME
 WELL.                     J28:  WELL NAME
 RIG .             West Chirag:  RIG NAME
 DMF .             Drill Floor:  DRILL MEAS FROM
 PDAT.       Caspian Sea Level:  PERMANENT DATUM
 HPTY.       Minimum Curvature:  HOLE POS TYPE
 MDS .        Operator Entered:  MAG DATA SOURCE
 NREF.                    Grid:  NORTH REFERENCE
 SRVC.          TURAN DRILLING:  CONTRACTOR
 JOBN.        AZ-XX-0906571588:  JOB TICKET NUMB
 DCON.     Halliburton Sperry Drilling:  DIRECTNL CONTR
 STIM.      00.44.00 11-Feb-21:  START TIME
 DATE.      00.00.00 05-May-21:  END TIME
 SPUD.               13-Feb-21:  SPUD DATE
 MWDS.                    Baku:  MWD SHOP
 DOE .                     N/A:  DOE NUMBER
 UNIT.                     N/A:  LOGGING EQUIPMENT ID
 UWI .                     N/A:  UNIQUE WELL IDENTIFIER
 API .                     N/A:  API NUMBER
 CNTY.                        :  COUNTY
 LOC .                        :  LOCATION
 LMF .             Drill Floor:  LOG MEASURED FROM
 TVDS.m                  43.00:  TVDSS CORRECTN
 SDEP.m                 341.00:  START DEPTH
 EGL .m                   0.00:  GROUND ELEVATION
 WDMS.m                 169.80:  WD ELEV
 AGAP.m                  43.00:  AIR GAP
 EPD .m                   0.00:  ELEVATION
 APD .m                  43.00:  DEPTH ABOVE PD
 LATI.deg                40.13:  LATITUDE
 LONG.deg                51.22:  LONGITUDE
 UTMY.m             4443793.85:  UTM Y
 UTMX.m              519005.06:  UTM X
 WHEW.m                 -11.57:  WELL HEAD E/W
 WHNS.m                   8.57:  WELL HEAD N/S
 VSEW.m                 -11.57:  VERT SEC E/W
 VSNS.m                   8.57:  VERT SEC N/S
 DFWL.m                   0.00:  DISTANCE FWL
 DFSL.m                   0.00:  DISTANCE FSL
 VSDR.deg               299.34:  VERT SEC DIRECT
 GVFD.g                   1.00:  GRAVITY FIELD
 AZTC.deg                 6.36:  AZM TOTAL CORR
 MFLD.nT              50391.00:  MAGNETIC FIELD
 MDIP.deg                59.65:  MAGNETIC DIP
 MDEC.deg                 6.48:  MAGNETIC DECL
 GRDC.deg                 0.12:  GRID CORRECTION
 DEP .m                 334.96:  DEPTH
 TDD .m                1407.26:  TOTAL DEPTH (DRILLER)
 EKB .m                  43.00:  KB ELEVATION
 EDF .m                  43.00:  DF ELEVATION
 TDL .m                 228.00:  TOTAL DEPTH (LOGGER)
 VSC .                       0:  VS TO CLOSURE
 MAGU.                 1854484:  MAGUTM CHECKSUM
~Parameter Information Block
#MNEM.UNIT       Value        Description
#---------     -----------    ---------------------------
 AV  .mps                 4.00:  Ann Velocity 
 AVMX.mps                 4.73:  Max Ann Veloc 
 AZIF.deg               304.48:  Azm, Final 
 BHAT.        Rotary Steerable:  BHA Type 
 BREV.rev            257300.00:  Rev Bit Total 
 BROT.°/30m               0.00:  Build Rotating 
 BS  .in                  8.50:  Bit Size 
 BSZ .in                  8.50:  Bit Size 
 BTPL.psig              589.00:  Bit Press Loss 
 CABU.                      No:  Customer Abuse 
 CGEO.          Mubariz ghayev:  Customer Geo 
 TCS .hr                 64.25:  Time Ciculation Ended 
 CV  .mps                 3.50:  Crit Velocity 
 CVMX.mps                 4.52:  Max Crit Veloc 
 DD1 .             Aziz Aliyev:  Direct Drillr 1 
 DD2 .         Intigam Rahimov:  Direct Drillr 2 
 DD3 .          Rashad Habibov:  Direct Drillr 3 
 DDSV.               Geo-Pilot:  DD Service 
 DEFF.%                  98.00:  % Det Eff 
 DLRX.°/30m               0.00:  Dogleg Rot Max 
 DLSO.°/30m               0.00:  Dogleg Oriented 
 DLSX.°/30m               0.00:  Dogleg Str Max 
 DRET.      10.45.04 08-May-21:  Drill End Time 
 DRST.      03.30.04 04-May-21:  Drill Start Tim 
 DTIM.hr                 14.97:  Time Drilling 
 EDEP.m                4640.01:  End Depth 
 ENG1.         Dail Mahammadov:  Engineer 1 
 ENG2.           Eldar Hajiyev:  Engineer 2 
 ENG3.       Bakhtiar Jabbarli:  Engineer 3 
 ENG4.       Natik Hasanagayev:  Engineer 4 
 ETIM.      09.30.04 14-May-21:  End Time 
 FLOI.gpm               460.00:  Flow In 
 FLON.gpm               200.00:  Flow In Min 
 FLOS.cptm                0.00:  Fluid Loss 
 FLOX.gpm               505.00:  Flow In Max 
 HFLO.                      No:  High Flow 
 HPRE.                      No:  High Pressure 
 HTEM.                      No:  High Temp 
 HYDO.m                   1.80:  Hydro Offset 
 IFIN.deg                66.71:  Inc, Final 
 IMAX.deg                67.03:  Inc Max 
 IMIN.deg                66.63:  Inc Min 
 IMND.m                4550.58:  Inc Min Depth 
 IMXD.m                4439.01:  Inc Max Depth 
 JARR.                      No:  Jarring 
 LETM.      10.45.04 08-May-21:  Log End Time 
 LOST.hr                     0:  Lost Rig Time 
 LSTM.      03.30.04 04-May-21:  Log Start Time 
 MDCL.ppm             37000.00:  Mud Chlorides 
 MDES.     Inversion Oil/Synthetic:  Mud Desc 
 DFD .sg                  1.38:  Mud Density 
 MDMN.sg                  1.35:  Dens Mud Min 
 MDMX.sg                  1.40:  Dens Mud Max 
 MOIL.                   57.40:  Run Mud Oil % 
 MOWR.                   70:30:  Run Mud OWR 
 MSND.                    0.00:  Run Mud Sand % 
 MSOL.                   18.00:  Run Mud Solids% 
 DFV .spqt               71.00:  Mud Viscosity 
 MWOD.in                  6.75:  MWD Tool OD 
 MWSI.                      No:  Serv Intrp, MWD 
 OTIM.hr                242.76:  Time Operating 
 PCON.           Look Like New:  Pad Condition 
 PMAX.psia            12183.92:  Press Op, Max 
 PV  .cP                 27.00:  Mud PV 
 RUN .                    1300:  Run Number 
 ROPA.m/hr               15.00:  ROP Avg 
 ROPN.m/hr                9.00:  ROP Min 
 ROPX.m/hr               19.00:  ROP Max 
 RPMA.rpm               120.00:  RPM Surface Avg 
 RPMN.rpm               100.00:  RPM Surface Min 
 RPMX.rpm               120.00:  RPM Surface Max 
 RRUN.                    1300:  Rig Run Number 
 RTIM.hr                  5.00:  Time Reaming 
 SAZI.deg               304.73:  Azm, Start 
 SDEP.m                4412.01:  Start Depth 
 SIDD.                      No:  Serv Intrp, DD 
 SINC.deg                66.82:  Inc, Start 
 SPPA.psig             2800.00:  SPP Avg 
 SPPN.psig             2610.00:  SPP Min 
 SPPX.psig             3100.00:  SPP Max 
 STIM.      03.30.00 04-May-21:  Start Time 
 SVCS.                 DD, MWD:  Services 
 SVER.                    9.20:  Sperry Version 
 TDAT.m                 228.00:  Tot Depth Attmp 
 TDDF.                      No:  Trip for DD 
 TDLG.m                 228.00:  Tot Depth Loggd 
 TFF .                      No:  Trip for Fail 
 TQAA.f-kp               15.00:  Torque Abs Avg 
 TQAN.f-kp               12.00:  Torque Abs Min 
 TQAX.f-kp               22.00:  Torque Abs Max 
 TRRT.°/30m               0.00:  Turn Rotating 
 MRT .                    HCIM:  Maximum Recorded Temperature 
 TTMX.degC               90.20:  Max Tool Temp 
 VS01.                90627813:  Virtual Str1 SN 
 VS02.                90634712:  Virtual Str2 SN 
 VS03.                90643410:  Virtual Str3 SN 
 VS04.                90634712:  Virtual Str4 SN 
 WBMN.klb                 9.00:  WOB Min 
 WITN.        Elmaddin Rahimov:  Customer Rep 
 WITN.         Haytham Mostafa:  Customer Rep 2 
 WOBA.klb                15.00:  WOB Avg 
 WOBX.klb                23.00:  WOB Max 
 YP  .lhf2               29.00:  Yield Point 
~Curve Information Block
#MNEM.UNIT                 API CODE     Curve Description
#---------               -----------    ---------------------------
 TIME.HHMMSS            00 000 000 000:  GT Time & Date
 GTDEPTH.m              00 000 000 000:  GT Depth
 GTPQH.psia             00 000 000 000:  GT HR Quartz Pressure
 GTTQ.degC              00 000 000 000:  GT Quartz Temperature
 GTTN.NONE              00 000 000 000:  GT Test Number
 GTET.sec               00 000 000 000:  GT Elapsed Test Time
 GTTVD.m                00 000 000 000:  GT True Vertical Depth
#Other Information
#
#WARRANTY: Halliburton will use its best efforts to furnish customers with 
#accurate information and interpretations that are part of, and incident to, the services 
#provided.  However, Halliburton cannot and does not warrant the accuracy 
#or correctness of such information and interpretations.  Under no circumstances should any 
#such information or interpretation be relied upon as the sole basis for any drilling, 
#completion, production, or financial decision or any procedure involving any risk to the 
#safety of any drilling venture, drilling rig or its crew or any other third party.  The 
#Customer has full responsibility for all drilling, completion and production operation.  
#Halliburton makes no representations or warranties, either expressed or 
#implied, including, but not limited to, the implied warranties of merchantability or fitness 
#for a particular purpose, with respect to the services rendered.  In no event will 
#Halliburton be liable for failure to obtain any particular results or for 
#any damages, including, but not limited to, indirect, special or consequential damages, 
#resulting from the use of any information or interpretation provided by Halliburton.
#
~A           TIME           GTDEPTH  GTPQH  GTTQ  GTTN   GTET   GTTVD  
# ...
   00:25:21.437.10-May-2021 4497.51  558.33 60.45 18.00  67.83 2971.13
   00:25:21.637.10-May-2021 4497.51  559.10 60.45 18.00  68.03 2971.13
   00:25:21.837.10-May-2021 4497.51  559.10 60.45 18.00  68.23 2971.13
   00:25:22.037.10-May-2021 4497.51  560.73 60.45 18.00  68.43 2971.13
   00:25:22.237.10-May-2021 4497.51  561.13 60.45 18.00  68.63 2971.13
   00:25:22.437.10-May-2021 4497.51  562.02 60.45 18.00  68.83 2971.13
   00:25:22.637.10-May-2021 4497.51  562.59 60.45 18.00  69.03 2971.13
   00:25:22.837.10-May-2021 4497.51  562.59 60.45 18.00  69.23 2971.13
   00:25:23.037.10-May-2021 4497.51  563.54 60.45 18.00  69.43 2971.13
   00:25:23.237.10-May-2021 4497.51  564.78 60.45 18.00  69.63 2971.13
   00:25:23.438.10-May-2021 4497.51  565.33 60.45 18.00  69.83 2971.13
   00:25:23.638.10-May-2021 4497.51  565.92 60.45 18.00  70.03 2971.13
   00:25:23.838.10-May-2021 4497.51  565.92 60.45 18.00  70.23 2971.13
   00:25:24.038.10-May-2021 4497.51  567.32 60.45 18.00  70.43 2971.13
   00:25:24.238.10-May-2021 4497.51  567.50 60.45 18.00  70.63 2971.13
   00:25:24.438.10-May-2021 4497.51  568.71 60.45 18.00  70.83 2971.13
   00:25:24.638.10-May-2021 4497.51  569.24 60.45 18.00  71.03 2971.13
   00:25:24.838.10-May-2021 4497.51  569.24 60.45 18.00  71.23 2971.13
   00:25:25.038.10-May-2021 4497.51  570.25 60.45 18.00  71.43 2971.13
   00:25:25.238.10-May-2021 4497.51  570.75 60.45 18.00  71.63 2971.13
   00:25:25.438.10-May-2021 4497.51  571.71 60.46 18.00  71.83 2971.13
   00:25:25.638.10-May-2021 4497.51  572.33 60.46 18.00  72.03 2971.13
   00:25:25.839.10-May-2021 4497.51  572.33 60.46 18.00  72.23 2971.13
   00:25:26.039.10-May-2021 4497.51  573.44 60.46 18.00  72.43 2971.13
   00:25:26.239.10-May-2021 4497.51  573.99 60.46 18.00  72.63 2971.13
   00:25:26.439.10-May-2021 4497.51  574.57 60.46 18.00  72.83 2971.13
   00:25:26.639.10-May-2021 4497.51  575.15 60.46 18.00  73.03 2971.13
   00:25:26.839.10-May-2021 4497.51  575.15 60.46 18.00  73.23 2971.13
   00:25:27.039.10-May-2021 4497.51  576.28 60.46 18.00  73.43 2971.13
   00:25:27.239.10-May-2021 4497.51  576.86 60.46 18.00  73.63 2971.13
   00:25:27.439.10-May-2021 4497.51  577.35 60.46 18.00  73.83 2971.13
   00:25:27.639.10-May-2021 4497.51  577.49 60.46 18.00  74.03 2971.13
   00:25:27.839.10-May-2021 4497.51  577.49 60.46 18.00  74.23 2971.13
   00:25:28.040.10-May-2021 4497.51  578.88 60.46 18.00  74.43 2971.13
   00:25:28.240.10-May-2021 4497.51  579.58 60.46 18.00  74.63 2971.13
   00:25:28.440.10-May-2021 4497.51  579.94 60.46 18.00  74.83 2971.13
   00:25:28.640.10-May-2021 4497.51  580.47 60.46 18.00  75.03 2971.13
   00:25:28.840.10-May-2021 4497.51  580.47 60.46 18.00  75.23 2971.13
   00:25:29.040.10-May-2021 4497.51  580.47 60.46 18.00  75.43 2971.13
   00:25:29.240.10-May-2021 4497.51  581.97 60.46 18.00  75.63 2971.13
   00:25:29.440.10-May-2021 4497.51  582.47 60.46 18.00  75.83 2971.13
   00:25:29.640.10-May-2021 4497.51  582.97 60.46 18.00  76.03 2971.13
   00:25:29.840.10-May-2021 4497.51  582.97 60.46 18.00  76.23 2971.13
   00:25:30.040.10-May-2021 4497.51  583.89 60.46 18.00  76.43 2971.13
   00:25:30.240.10-May-2021 4497.51  583.88 60.46 18.00  76.63 2971.13
   00:25:30.441.10-May-2021 4497.51  584.97 60.46 18.00  76.83 2971.13
   00:25:30.641.10-May-2021 4497.51  585.25 60.46 18.00  77.03 2971.13
   00:25:30.841.10-May-2021 4497.51  585.25 60.46 18.00  77.23 2971.13
   00:25:31.041.10-May-2021 4497.51  585.85 60.46 18.00  77.43 2971.13
   00:25:31.241.10-May-2021 4497.51  586.62 60.46 18.00  77.63 2971.13
   00:25:31.441.10-May-2021 4497.51  587.03 60.46 18.00  77.83 2971.13
   00:25:31.641.10-May-2021 4497.51  587.43 60.46 18.00  78.03 2971.13
   00:25:31.841.10-May-2021 4497.51  587.43 60.46 18.00  78.23 2971.13
   00:25:32.041.10-May-2021 4497.51  588.55 60.46 18.00  78.43 2971.13
   00:25:32.241.10-May-2021 4497.51  588.99 60.46 18.00  78.63 2971.13
   00:25:32.441.10-May-2021 4497.51  589.24 60.46 18.00  78.83 2971.13
   00:25:32.641.10-May-2021 4497.51  589.23 60.46 18.00  79.03 2971.13
   00:25:32.842.10-May-2021 4497.51  589.23 60.46 18.00  79.23 2971.13
   00:25:33.042.10-May-2021 4497.51  590.53 60.46 18.00  79.43 2971.13
   00:25:33.242.10-May-2021 4497.51  590.93 60.46 18.00  79.63 2971.13
   00:25:33.442.10-May-2021 4497.51  591.37 60.46 18.00  79.83 2971.13
   00:25:33.642.10-May-2021 4497.51  591.73 60.46 18.00  80.03 2971.13
   00:25:33.842.10-May-2021 4497.51  591.73 60.46 18.00  80.23 2971.13
   00:25:34.042.10-May-2021 4497.51  592.59 60.46 18.00  80.43 2971.13
   00:25:34.242.10-May-2021 4497.51  593.03 60.46 18.00  80.63 2971.13
   00:25:34.442.10-May-2021 4497.51  593.42 60.46 18.00  80.83 2971.13
   00:25:34.642.10-May-2021 4497.51  593.84 60.46 18.00  81.03 2971.13
   00:25:34.842.10-May-2021 4497.51  593.84 60.46 18.00  81.23 2971.13
   00:25:35.043.10-May-2021 4497.51  594.62 60.47 18.00  81.43 2971.13
   00:25:35.243.10-May-2021 4497.51  594.54 60.47 18.00  81.63 2971.13
   00:25:35.443.10-May-2021 4497.51  595.55 60.47 18.00  81.84 2971.13
   00:25:35.643.10-May-2021 4497.51  595.82 60.47 18.00  82.04 2971.13
   00:25:35.843.10-May-2021 4497.51  595.82 60.47 18.00  82.24 2971.13
   00:25:36.043.10-May-2021 4497.51  596.56 60.47 18.00  82.44 2971.13
   00:25:36.243.10-May-2021 4497.51  596.90 60.47 18.00  82.64 2971.13
   00:25:36.443.10-May-2021 4497.51  597.30 60.47 18.00  82.84 2971.13
   00:25:36.643.10-May-2021 4497.51  597.69 60.47 18.00  83.04 2971.13
   00:25:36.843.10-May-2021 4497.51  597.69 60.47 18.00  83.24 2971.13
   00:25:37.043.10-May-2021 4497.51  598.43 60.47 18.00  83.44 2971.13
   00:25:37.243.10-May-2021 4497.51  598.78 60.47 18.00  83.64 2971.13
   00:25:37.444.10-May-2021 4497.51  599.15 60.47 18.00  83.84 2971.13
   00:25:37.644.10-May-2021 4497.51  599.09 60.47 18.00  84.04 2971.13
   00:25:37.844.10-May-2021 4497.51  599.09 60.47 18.00  84.24 2971.13
   00:25:38.044.10-May-2021 4497.51  600.17 60.47 18.00  84.44 2971.13
   00:25:38.244.10-May-2021 4497.51  600.30 60.47 18.00  84.64 2971.13
   00:25:38.444.10-May-2021 4497.51  600.84 60.47 18.00  84.84 2971.13
   00:25:38.644.10-May-2021 4497.51  601.16 60.47 18.00  85.04 2971.13
   00:25:38.844.10-May-2021 4497.51  601.16 60.47 18.00  85.24 2971.13
   00:25:39.044.10-May-2021 4497.51  601.90 60.47 18.00  85.44 2971.13
   00:25:39.244.10-May-2021 4497.51  601.69 60.47 18.00  85.64 2971.13
   00:25:39.444.10-May-2021 4497.51  602.83 60.47 18.00  85.84 2971.13
   00:25:39.644.10-May-2021 4497.51  602.83 60.47 18.00  86.04 2971.13
   00:25:39.845.10-May-2021 4497.51  602.83 60.47 18.00  86.24 2971.13
   00:25:40.045.10-May-2021 4497.51  603.53 60.47 18.00  86.44 2971.13
   00:25:40.245.10-May-2021 4497.51  603.47 60.47 18.00  86.64 2971.13
   00:25:40.445.10-May-2021 4497.51  604.25 60.47 18.00  86.84 2971.13
   00:25:40.645.10-May-2021 4497.51  604.49 60.47 18.00  87.04 2971.13
   00:25:40.845.10-May-2021 4497.51  604.49 60.47 18.00  87.24 2971.13
   00:25:41.045.10-May-2021 4497.51  605.09 60.47 18.00  87.44 2971.13
   00:25:41.245.10-May-2021 4497.51  605.44 60.47 18.00  87.64 2971.13
   00:25:41.445.10-May-2021 4497.51  605.73 60.47 18.00  87.84 2971.13
   00:25:41.645.10-May-2021 4497.51  606.03 60.47 18.00  88.04 2971.13
   00:25:41.845.10-May-2021 4497.51  606.03 60.47 18.00  88.24 2971.13
   00:25:42.046.10-May-2021 4497.51  606.64 60.47 18.00  88.44 2971.13
   00:25:42.246.10-May-2021 4497.51  606.91 60.47 18.00  88.64 2971.13
   00:25:42.446.10-May-2021 4497.51  607.21 60.47 18.00  88.84 2971.13
   00:25:42.646.10-May-2021 4497.51  607.48 60.47 18.00  89.04 2971.13
   00:25:42.846.10-May-2021 4497.51  607.48 60.47 18.00  89.24 2971.13
   00:25:43.046.10-May-2021 4497.51  608.27 60.47 18.00  89.44 2971.13
   00:25:43.246.10-May-2021 4497.51  608.22 60.47 18.00  89.64 2971.13
   00:25:43.446.10-May-2021 4497.51  608.65 60.47 18.00  89.84 2971.13
   00:25:43.646.10-May-2021 4497.51  608.81 60.47 18.00  90.04 2971.13
   00:25:43.846.10-May-2021 4497.51  608.81 60.47 18.00  90.24 2971.13
