~Version Information
 VERS.                  2.0:   CWLS log ASCII Standard -VERSION 2.0
 WRAP.                   NO:   One line per depth step
~Well Information Block
#MNEM.UNIT     VALUE/NAME     DESCRIPTION
#---------     -----------    ---------------------------
 STRT.S             00:24:13 10-May-21: START TIME 00:24:13 10-May-21
 STOP.S             00:32:26 10-May-21: STOP TIME  00:32:26 10-May-21
 STEP.S                   0.00: STEP TIME
 NULL.                 -999.25: NULL VALUE
 PROV.                    Baku:  PROVINCE
 STAT.                    Baku:  STATE NAME
 SON .        AZ-XX-0906571588:  JOB NUMBER
 WTYP.                Deviated:  WELL TYPE
 COMP.     BP Exploration (Caspian Sea) ltd:  COMPANY
 BASE.              Azerbaijan:  LOGGING EQUIPMENT BASE LOCATION
 REGN.                   EESSA:  REGION
 CTRY.              Azerbaijan:  COUNTRY NAME
 FLD .                     ACG:  FIELD NAME
 WELL.                     J28:  WELL NAME
 RIG .             West Chirag:  RIG NAME
 DMF .             Drill Floor:  DRILL MEAS FROM
 PDAT.       Caspian Sea Level:  PERMANENT DATUM
 HPTY.       Minimum Curvature:  HOLE POS TYPE
 MDS .        Operator Entered:  MAG DATA SOURCE
 NREF.                    Grid:  NORTH REFERENCE
 SRVC.          TURAN DRILLING:  CONTRACTOR
 JOBN.        AZ-XX-0906571588:  JOB TICKET NUMB
 DCON.     Halliburton Sperry Drilling:  DIRECTNL CONTR
 STIM.      00.44.00 11-Feb-21:  START TIME
 DATE.      00.00.00 05-May-21:  END TIME
 SPUD.               13-Feb-21:  SPUD DATE
 MWDS.                    Baku:  MWD SHOP
 DOE .                     N/A:  DOE NUMBER
 UNIT.                     N/A:  LOGGING EQUIPMENT ID
 UWI .                     N/A:  UNIQUE WELL IDENTIFIER
 API .                     N/A:  API NUMBER
 CNTY.                        :  COUNTY
 LOC .                        :  LOCATION
 LMF .             Drill Floor:  LOG MEASURED FROM
 TVDS.m                  43.00:  TVDSS CORRECTN
 SDEP.m                 341.00:  START DEPTH
 EGL .m                   0.00:  GROUND ELEVATION
 WDMS.m                 169.80:  WD ELEV
 AGAP.m                  43.00:  AIR GAP
 EPD .m                   0.00:  ELEVATION
 APD .m                  43.00:  DEPTH ABOVE PD
 LATI.deg                40.13:  LATITUDE
 LONG.deg                51.22:  LONGITUDE
 UTMY.m             4443793.85:  UTM Y
 UTMX.m              519005.06:  UTM X
 WHEW.m                 -11.57:  WELL HEAD E/W
 WHNS.m                   8.57:  WELL HEAD N/S
 VSEW.m                 -11.57:  VERT SEC E/W
 VSNS.m                   8.57:  VERT SEC N/S
 DFWL.m                   0.00:  DISTANCE FWL
 DFSL.m                   0.00:  DISTANCE FSL
 VSDR.deg               299.34:  VERT SEC DIRECT
 GVFD.g                   1.00:  GRAVITY FIELD
 AZTC.deg                 6.36:  AZM TOTAL CORR
 MFLD.nT              50391.00:  MAGNETIC FIELD
 MDIP.deg                59.65:  MAGNETIC DIP
 MDEC.deg                 6.48:  MAGNETIC DECL
 GRDC.deg                 0.12:  GRID CORRECTION
 DEP .m                 334.96:  DEPTH
 TDD .m                1407.26:  TOTAL DEPTH (DRILLER)
 EKB .m                  43.00:  KB ELEVATION
 EDF .m                  43.00:  DF ELEVATION
 TDL .m                 228.00:  TOTAL DEPTH (LOGGER)
 VSC .                       0:  VS TO CLOSURE
 MAGU.                 1854484:  MAGUTM CHECKSUM
~Parameter Information Block
#MNEM.UNIT       Value        Description
#---------     -----------    ---------------------------
 AV  .mps                 4.00:  Ann Velocity 
 AVMX.mps                 4.73:  Max Ann Veloc 
 AZIF.deg               304.48:  Azm, Final 
 BHAT.        Rotary Steerable:  BHA Type 
 BREV.rev            257300.00:  Rev Bit Total 
 BROT.°/30m               0.00:  Build Rotating 
 BS  .in                  8.50:  Bit Size 
 BSZ .in                  8.50:  Bit Size 
 BTPL.psig              589.00:  Bit Press Loss 
 CABU.                      No:  Customer Abuse 
 CGEO.          Mubariz ghayev:  Customer Geo 
 TCS .hr                 64.25:  Time Ciculation Ended 
 CV  .mps                 3.50:  Crit Velocity 
 CVMX.mps                 4.52:  Max Crit Veloc 
 DD1 .             Aziz Aliyev:  Direct Drillr 1 
 DD2 .         Intigam Rahimov:  Direct Drillr 2 
 DD3 .          Rashad Habibov:  Direct Drillr 3 
 DDSV.               Geo-Pilot:  DD Service 
 DEFF.%                  98.00:  % Det Eff 
 DLRX.°/30m               0.00:  Dogleg Rot Max 
 DLSO.°/30m               0.00:  Dogleg Oriented 
 DLSX.°/30m               0.00:  Dogleg Str Max 
 DRET.      10.45.04 08-May-21:  Drill End Time 
 DRST.      03.30.04 04-May-21:  Drill Start Tim 
 DTIM.hr                 14.97:  Time Drilling 
 EDEP.m                4640.01:  End Depth 
 ENG1.         Dail Mahammadov:  Engineer 1 
 ENG2.           Eldar Hajiyev:  Engineer 2 
 ENG3.       Bakhtiar Jabbarli:  Engineer 3 
 ENG4.       Natik Hasanagayev:  Engineer 4 
 ETIM.      09.30.04 14-May-21:  End Time 
 FLOI.gpm               460.00:  Flow In 
 FLON.gpm               200.00:  Flow In Min 
 FLOS.cptm                0.00:  Fluid Loss 
 FLOX.gpm               505.00:  Flow In Max 
 HFLO.                      No:  High Flow 
 HPRE.                      No:  High Pressure 
 HTEM.                      No:  High Temp 
 HYDO.m                   1.80:  Hydro Offset 
 IFIN.deg                66.71:  Inc, Final 
 IMAX.deg                67.03:  Inc Max 
 IMIN.deg                66.63:  Inc Min 
 IMND.m                4550.58:  Inc Min Depth 
 IMXD.m                4439.01:  Inc Max Depth 
 JARR.                      No:  Jarring 
 LETM.      10.45.04 08-May-21:  Log End Time 
 LOST.hr                     0:  Lost Rig Time 
 LSTM.      03.30.04 04-May-21:  Log Start Time 
 MDCL.ppm             37000.00:  Mud Chlorides 
 MDES.     Inversion Oil/Synthetic:  Mud Desc 
 DFD .sg                  1.38:  Mud Density 
 MDMN.sg                  1.35:  Dens Mud Min 
 MDMX.sg                  1.40:  Dens Mud Max 
 MOIL.                   57.40:  Run Mud Oil % 
 MOWR.                   70:30:  Run Mud OWR 
 MSND.                    0.00:  Run Mud Sand % 
 MSOL.                   18.00:  Run Mud Solids% 
 DFV .spqt               71.00:  Mud Viscosity 
 MWOD.in                  6.75:  MWD Tool OD 
 MWSI.                      No:  Serv Intrp, MWD 
 OTIM.hr                242.76:  Time Operating 
 PCON.           Look Like New:  Pad Condition 
 PMAX.psia            12183.92:  Press Op, Max 
 PV  .cP                 27.00:  Mud PV 
 RUN .                    1300:  Run Number 
 ROPA.m/hr               15.00:  ROP Avg 
 ROPN.m/hr                9.00:  ROP Min 
 ROPX.m/hr               19.00:  ROP Max 
 RPMA.rpm               120.00:  RPM Surface Avg 
 RPMN.rpm               100.00:  RPM Surface Min 
 RPMX.rpm               120.00:  RPM Surface Max 
 RRUN.                    1300:  Rig Run Number 
 RTIM.hr                  5.00:  Time Reaming 
 SAZI.deg               304.73:  Azm, Start 
 SDEP.m                4412.01:  Start Depth 
 SIDD.                      No:  Serv Intrp, DD 
 SINC.deg                66.82:  Inc, Start 
 SPPA.psig             2800.00:  SPP Avg 
 SPPN.psig             2610.00:  SPP Min 
 SPPX.psig             3100.00:  SPP Max 
 STIM.      03.30.00 04-May-21:  Start Time 
 SVCS.                 DD, MWD:  Services 
 SVER.                    9.20:  Sperry Version 
 TDAT.m                 228.00:  Tot Depth Attmp 
 TDDF.                      No:  Trip for DD 
 TDLG.m                 228.00:  Tot Depth Loggd 
 TFF .                      No:  Trip for Fail 
 TQAA.f-kp               15.00:  Torque Abs Avg 
 TQAN.f-kp               12.00:  Torque Abs Min 
 TQAX.f-kp               22.00:  Torque Abs Max 
 TRRT.°/30m               0.00:  Turn Rotating 
 MRT .                    HCIM:  Maximum Recorded Temperature 
 TTMX.degC               90.20:  Max Tool Temp 
 VS01.                90627813:  Virtual Str1 SN 
 VS02.                90634712:  Virtual Str2 SN 
 VS03.                90643410:  Virtual Str3 SN 
 VS04.                90634712:  Virtual Str4 SN 
 WBMN.klb                 9.00:  WOB Min 
 WITN.        Elmaddin Rahimov:  Customer Rep 
 WITN.         Haytham Mostafa:  Customer Rep 2 
 WOBA.klb                15.00:  WOB Avg 
 WOBX.klb                23.00:  WOB Max 
 YP  .lhf2               29.00:  Yield Point 
~Curve Information Block
#MNEM.UNIT                 API CODE     Curve Description
#---------               -----------    ---------------------------
 TIME.HHMMSS            00 000 000 000:  GT Time & Date
 GTDEPTH.m              00 000 000 000:  GT Depth
 GTPQH.psia             00 000 000 000:  GT HR Quartz Pressure
 GTTQ.degC              00 000 000 000:  GT Quartz Temperature
 GTTN.NONE              00 000 000 000:  GT Test Number
 GTET.sec               00 000 000 000:  GT Elapsed Test Time
 GTTVD.m                00 000 000 000:  GT True Vertical Depth
#Other Information
#
#WARRANTY: Halliburton will use its best efforts to furnish customers with 
#accurate information and interpretations that are part of, and incident to, the services 
#provided.  However, Halliburton cannot and does not warrant the accuracy 
#or correctness of such information and interpretations.  Under no circumstances should any 
#such information or interpretation be relied upon as the sole basis for any drilling, 
#completion, production, or financial decision or any procedure involving any risk to the 
#safety of any drilling venture, drilling rig or its crew or any other third party.  The 
#Customer has full responsibility for all drilling, completion and production operation.  
#Halliburton makes no representations or warranties, either expressed or 
#implied, including, but not limited to, the implied warranties of merchantability or fitness 
#for a particular purpose, with respect to the services rendered.  In no event will 
#Halliburton be liable for failure to obtain any particular results or for 
#any damages, including, but not limited to, indirect, special or consequential damages, 
#resulting from the use of any information or interpretation provided by Halliburton.
#
~A           TIME           GTDEPTH  GTPQH  GTTQ  GTTN   GTET   GTTVD  
# ...
   00:27:14.485.10-May-2021 4497.51  526.61 60.48 18.00 180.88 2971.13
   00:27:14.685.10-May-2021 4497.51  482.88 60.48 18.00 181.08 2971.13
   00:27:14.885.10-May-2021 4497.51  482.88 60.48 18.00 181.28 2971.13
   00:27:15.085.10-May-2021 4497.51  457.13 60.48 18.00 181.48 2971.13
   00:27:15.285.10-May-2021 4497.51  453.33 60.48 18.00 181.68 2971.13
   00:27:15.485.10-May-2021 4497.51  451.19 60.48 18.00 181.88 2971.13
   00:27:15.686.10-May-2021 4497.51  453.18 60.48 18.00 182.08 2971.13
   00:27:15.886.10-May-2021 4497.51  453.18 60.48 18.00 182.28 2971.13
   00:27:16.086.10-May-2021 4497.51  455.37 60.48 18.00 182.48 2971.13
   00:27:16.286.10-May-2021 4497.51  455.95 60.48 18.00 182.68 2971.13
   00:27:16.486.10-May-2021 4497.51  456.24 60.48 18.00 182.88 2971.13
   00:27:16.686.10-May-2021 4497.51  455.46 60.48 18.00 183.08 2971.13
   00:27:16.886.10-May-2021 4497.51  455.46 60.48 18.00 183.28 2971.13
   00:27:17.086.10-May-2021 4497.51  452.01 60.48 18.00 183.48 2971.13
   00:27:17.286.10-May-2021 4497.51  448.44 60.48 18.00 183.68 2971.13
   00:27:17.486.10-May-2021 4497.51  447.31 60.48 18.00 183.88 2971.13
   00:27:17.686.10-May-2021 4497.51  445.25 60.48 18.00 184.08 2971.13
   00:27:17.887.10-May-2021 4497.51  445.25 60.48 18.00 184.28 2971.13
   00:27:18.087.10-May-2021 4497.51  442.61 60.48 18.00 184.48 2971.13
   00:27:18.287.10-May-2021 4497.51  440.45 60.48 18.00 184.68 2971.13
   00:27:18.487.10-May-2021 4497.51  439.63 60.48 18.00 184.88 2971.13
   00:27:18.687.10-May-2021 4497.51  436.16 60.48 18.00 185.08 2971.13
   00:27:18.887.10-May-2021 4497.51  436.16 60.48 18.00 185.28 2971.13
   00:27:19.087.10-May-2021 4497.51  433.88 60.48 18.00 185.48 2971.13
   00:27:19.287.10-May-2021 4497.51  433.05 60.48 18.00 185.68 2971.13
   00:27:19.487.10-May-2021 4497.51  432.67 60.48 18.00 185.88 2971.13
   00:27:19.687.10-May-2021 4497.51  433.58 60.48 18.00 186.08 2971.13
   00:27:19.887.10-May-2021 4497.51  433.58 60.48 18.00 186.28 2971.13
   00:27:20.087.10-May-2021 4497.51  433.81 60.48 18.00 186.48 2971.13
   00:27:20.288.10-May-2021 4497.51  434.26 60.48 18.00 186.68 2971.13
   00:27:20.488.10-May-2021 4497.51  434.05 60.48 18.00 186.88 2971.13
   00:27:20.688.10-May-2021 4497.51  433.59 60.48 18.00 187.08 2971.13
   00:27:20.888.10-May-2021 4497.51  433.59 60.48 18.00 187.28 2971.13
   00:27:21.088.10-May-2021 4497.51  433.98 60.48 18.00 187.48 2971.13
   00:27:21.288.10-May-2021 4497.51  433.59 60.48 18.00 187.68 2971.13
   00:27:21.488.10-May-2021 4497.51  433.47 60.48 18.00 187.88 2971.13
   00:27:21.688.10-May-2021 4497.51  431.19 60.48 18.00 188.08 2971.13
   00:27:21.888.10-May-2021 4497.51  431.19 60.48 18.00 188.28 2971.13
   00:27:22.088.10-May-2021 4497.51  428.48 60.48 18.00 188.48 2971.13
   00:27:22.288.10-May-2021 4497.51  427.35 60.48 18.00 188.68 2971.13
   00:27:22.488.10-May-2021 4497.51  426.45 60.48 18.00 188.88 2971.13
   00:27:22.689.10-May-2021 4497.51  424.29 60.48 18.00 189.08 2971.13
   00:27:22.889.10-May-2021 4497.51  424.29 60.48 18.00 189.28 2971.13
   00:27:23.089.10-May-2021 4497.51  423.09 60.48 18.00 189.48 2971.13
   00:27:23.289.10-May-2021 4497.51  422.80 60.48 18.00 189.68 2971.13
   00:27:23.489.10-May-2021 4497.51  422.04 60.48 18.00 189.88 2971.13
   00:27:23.689.10-May-2021 4497.51  420.95 60.48 18.00 190.08 2971.13
   00:27:23.889.10-May-2021 4497.51  420.95 60.48 18.00 190.28 2971.13
   00:27:24.089.10-May-2021 4497.51  418.18 60.48 18.00 190.48 2971.13
   00:27:24.289.10-May-2021 4497.51  418.20 60.48 18.00 190.68 2971.13
   00:27:24.489.10-May-2021 4497.51  419.62 60.48 18.00 190.88 2971.13
   00:27:24.689.10-May-2021 4497.51  425.18 60.48 18.00 191.08 2971.13
   00:27:24.890.10-May-2021 4497.51  425.18 60.48 18.00 191.28 2971.13
   00:27:25.090.10-May-2021 4497.51  426.09 60.48 18.00 191.48 2971.13
   00:27:25.290.10-May-2021 4497.51  426.52 60.48 18.00 191.68 2971.13
   00:27:25.490.10-May-2021 4497.51  426.95 60.48 18.00 191.88 2971.13
   00:27:25.690.10-May-2021 4497.51  426.90 60.48 18.00 192.08 2971.13
   00:27:25.890.10-May-2021 4497.51  426.90 60.48 18.00 192.28 2971.13
   00:27:26.090.10-May-2021 4497.51  428.51 60.48 18.00 192.48 2971.13
   00:27:26.290.10-May-2021 4497.51  429.16 60.48 18.00 192.68 2971.13
   00:27:26.490.10-May-2021 4497.51  429.47 60.48 18.00 192.88 2971.13
   00:27:26.690.10-May-2021 4497.51  429.43 60.48 18.00 193.08 2971.13
   00:27:26.890.10-May-2021 4497.51  429.43 60.48 18.00 193.28 2971.13
   00:27:27.090.10-May-2021 4497.51  430.85 60.48 18.00 193.48 2971.13
   00:27:27.291.10-May-2021 4497.51  431.10 60.48 18.00 193.68 2971.13
   00:27:27.491.10-May-2021 4497.51  431.61 60.48 18.00 193.88 2971.13
   00:27:27.691.10-May-2021 4497.51  431.45 60.48 18.00 194.08 2971.13
   00:27:27.891.10-May-2021 4497.51  431.45 60.48 18.00 194.28 2971.13
   00:27:28.091.10-May-2021 4497.51  432.66 60.48 18.00 194.48 2971.13
   00:27:28.291.10-May-2021 4497.51  433.11 60.48 18.00 194.68 2971.13
   00:27:28.491.10-May-2021 4497.51  433.12 60.48 18.00 194.88 2971.13
   00:27:28.691.10-May-2021 4497.51  434.11 60.48 18.00 195.08 2971.13
   00:27:28.891.10-May-2021 4497.51  434.11 60.48 18.00 195.28 2971.13
   00:27:29.091.10-May-2021 4497.51  434.11 60.48 18.00 195.48 2971.13
   00:27:29.291.10-May-2021 4497.51  435.07 60.48 18.00 195.68 2971.13
   00:27:29.491.10-May-2021 4497.51  435.40 60.48 18.00 195.88 2971.13
   00:27:29.692.10-May-2021 4497.51  435.76 60.48 18.00 196.08 2971.13
   00:27:29.892.10-May-2021 4497.51  435.76 60.48 18.00 196.28 2971.13
   00:27:30.092.10-May-2021 4497.51  436.44 60.48 18.00 196.48 2971.13
   00:27:30.292.10-May-2021 4497.51  436.79 60.48 18.00 196.68 2971.13
   00:27:30.492.10-May-2021 4497.51  437.11 60.48 18.00 196.88 2971.13
   00:27:30.692.10-May-2021 4497.51  437.45 60.48 18.00 197.08 2971.13
   00:27:30.892.10-May-2021 4497.51  437.45 60.48 18.00 197.28 2971.13
   00:27:31.092.10-May-2021 4497.51  438.11 60.47 18.00 197.48 2971.13
   00:27:31.292.10-May-2021 4497.51  438.29 60.47 18.00 197.68 2971.13
   00:27:31.492.10-May-2021 4497.51  438.81 60.47 18.00 197.88 2971.13
   00:27:31.692.10-May-2021 4497.51  438.94 60.47 18.00 198.08 2971.13
   00:27:31.893.10-May-2021 4497.51  438.94 60.47 18.00 198.28 2971.13
   00:27:32.093.10-May-2021 4497.51  439.60 60.47 18.00 198.48 2971.13
   00:27:32.293.10-May-2021 4497.51  439.90 60.47 18.00 198.68 2971.13
   00:27:32.493.10-May-2021 4497.51  440.19 60.47 18.00 198.89 2971.13
   00:27:32.693.10-May-2021 4497.51  440.50 60.47 18.00 199.09 2971.13
   00:27:32.893.10-May-2021 4497.51  440.50 60.47 18.00 199.29 2971.13
   00:27:33.093.10-May-2021 4497.51  441.08 60.47 18.00 199.49 2971.13
   00:27:33.293.10-May-2021 4497.51  441.38 60.47 18.00 199.69 2971.13
   00:27:33.493.10-May-2021 4497.51  441.12 60.47 18.00 199.89 2971.13
   00:27:33.693.10-May-2021 4497.51  442.18 60.47 18.00 200.09 2971.13
   00:27:33.893.10-May-2021 4497.51  442.18 60.47 18.00 200.29 2971.13
   00:27:34.093.10-May-2021 4497.51  442.58 60.47 18.00 200.49 2971.13
   00:27:34.294.10-May-2021 4497.51  442.76 60.47 18.00 200.69 2971.13
   00:27:34.494.10-May-2021 4497.51  443.07 60.47 18.00 200.89 2971.13
   00:27:34.694.10-May-2021 4497.51  442.85 60.47 18.00 201.09 2971.13
   00:27:34.894.10-May-2021 4497.51  442.85 60.47 18.00 201.29 2971.13
   00:27:35.094.10-May-2021 4497.51  443.89 60.47 18.00 201.49 2971.13
   00:27:35.294.10-May-2021 4497.51  443.53 60.47 18.00 201.69 2971.13
   00:27:35.494.10-May-2021 4497.51  444.75 60.47 18.00 201.89 2971.13
   00:27:35.694.10-May-2021 4497.51  444.65 60.47 18.00 202.09 2971.13
   00:27:35.894.10-May-2021 4497.51  444.65 60.47 18.00 202.29 2971.13
   00:27:36.094.10-May-2021 4497.51  445.00 60.47 18.00 202.49 2971.13
   00:27:36.294.10-May-2021 4497.51  445.62 60.47 18.00 202.69 2971.13
   00:27:36.494.10-May-2021 4497.51  445.88 60.47 18.00 202.89 2971.13
   00:27:36.695.10-May-2021 4497.51  445.99 60.47 18.00 203.09 2971.13
   00:27:36.895.10-May-2021 4497.51  445.99 60.47 18.00 203.29 2971.13
