~Version Information
 VERS.                  2.0:   CWLS log ASCII Standard -VERSION 2.0
 WRAP.                   NO:   One line per depth step
~Well Information Block
#MNEM.UNIT     VALUE/NAME     DESCRIPTION
#---------     -----------    ---------------------------
 STRT.S             08:47:11 15-Aug-21: START TIME 08:47:11 15-Aug-21
 STOP.S             08:54:08 15-Aug-21: STOP TIME  08:54:08 15-Aug-21
 STEP.S                   0.00: STEP TIME
 NULL.                 -999.25: NULL VALUE
 DFWT.                        :  DIST FWL TEXT
 DFST.                        :  DIST FSL TEXT
 DMF .             Drill Floor:  DRILL MEAS FROM
 STIM.      17.18.56 20-Jun-21:  START TIME
 DATE.      17.18.56 20-Aug-21:  END TIME
 SPUD.               20-Jun-21:  SPUD DATE
 NREF.                    Grid:  NORTH REFERENCE
 HPTY.       Minimum Curvature:  HOLE POS TYPE
 DMOD.             Drill Model:  DRILL MOD DESC
 SVYD.                  Survey:  SURVEY DESC
 ILTD.               Lithology:  INTERP LTH DESC
 FTOP.          Formation Tops:  FORM TOPS DESC
 SON .        AZ-XX-0907056190:  JOB NUMBER
 PDAT.       Caspian Sea Level:  PERMANENT DATUM
 WTYP.                Deviated:  WELL TYPE
 MDS .        Operator Entered:  MAG DATA SOURCE
 COMP.     BP Exploration (Caspian Sea) Ltd.:  COMPANY
 UWI .            /AZE20000092:  UNIQUE WELL IDENTIFIER
 API .            /AZE20000092:  API NUMBER
 BASE.              Azerbaijan:  LOGGING EQUIPMENT BASE LOCATION
 REGN.                   EESSA:  REGION
 PROV.                    baku:  PROVINCE
 STAT.                    baku:  STATE NAME
 CTRY.              Azerbaijan:  COUNTRY NAME
 FLD .                     ACG:  FIELD NAME
 SRVC.          Turan Drilling:  CONTRACTOR
 MWDS.                    Baku:  MWD SHOP
 WELL.                     J26:  WELL NAME
 JOBN.        AZ-XX-0907056190:  JOB TICKET NUMB
 RIG .             West Chirag:  RIG NAME
 DOE .                     N/A:  DOE NUMBER
 DCON.         Sperry Drilling:  DIRECTNL CONTR
 UNIT.                     N/A:  LOGGING EQUIPMENT ID
 CNTY.                        :  COUNTY
 LOC .                        :  LOCATION
 LMF .             Drill Floor:  LOG MEASURED FROM
 TVDS.m                  43.00:  TVDSS CORRECTN
 LATI.deg                40.13:  LATITUDE
 LONG.deg                51.22:  LONGITUDE
 WHNS.m                  -7.12:  WELL HEAD N/S
 WHEW.m                  -9.46:  WELL HEAD E/W
 UTMX.m              519004.02:  UTM X
 UTMY.m             4443784.96:  UTM Y
 DFWL.m                   0.00:  DISTANCE FWL
 DFSL.m                   0.00:  DISTANCE FSL
 SDEP.m                 464.00:  START DEPTH
 TDD .m                3500.00:  TOTAL DEPTH (DRILLER)
 VSDR.deg               114.35:  VERT SEC DIRECT
 GVFD.g                   1.00:  GRAVITY FIELD
 MFLD.nT              50386.00:  MAGNETIC FIELD
 MDIP.deg                59.63:  MAGNETIC DIP
 MDEC.deg                 6.43:  MAGNETIC DECL
 GRDC.deg                 0.15:  GRID CORRECTION
 AZTC.deg                 6.29:  AZM TOTAL CORR
 EPD .m                   0.00:  ELEVATION
 EGL .m                   0.00:  GROUND ELEVATION
 WDMS.m                 169.80:  WD ELEV
 APD .m                  43.00:  DEPTH ABOVE PD
 VSEW.m                  -9.46:  VERT SEC E/W
 VSNS.m                  -7.12:  VERT SEC N/S
 AGAP.m                  43.00:  AIR GAP
 DEP .m                 356.16:  DEPTH
 EKB .m                  43.00:  KB ELEVATION
 EDF .m                  43.00:  DF ELEVATION
 TDL .m                 699.00:  TOTAL DEPTH (LOGGER)
 VSC .                       0:  VS TO CLOSURE
 MAGU.                 1853727:  MAGUTM CHECKSUM
~Parameter Information Block
#MNEM.UNIT       Value        Description
#---------     -----------    ---------------------------
 AV  .mps                 1.30:  Ann Velocity 
 AVMX.mps                 1.67:  Max Ann Veloc 
 AZIF.deg               280.40:  Azm, Final 
 BHAT.        Rotary Steerable:  BHA Type 
 BREV.rev            528970.00:  Rev Bit Total 
 BROT.°/30m               1.00:  Build Rotating 
 BS  .in                 12.25:  Bit Size 
 BSZ .in                 12.25:  Bit Size 
 BTPL.psig              738.00:  Bit Press Loss 
 CABU.                     Yes:  Customer Abuse 
 CGEO.        Elvin Suleymanov:  Customer Geo 
 COMM.                     äji:  Run Comments 1 
 TCS .hr                 66.05:  Time Ciculation Ended 
 CV  .mps                 2.20:  Crit Velocity 
 CVMX.mps                 2.56:  Max Crit Veloc 
 DD1 .          Rashad Habibov:  Direct Drillr 1 
 DD2 .            Azer ravanov:  Direct Drillr 2 
 DD3 .           Teymur Agayev:  Direct Drillr 3 
 DDSV.               Geo-Pilot:  DD Service 
 DEFF.%                  90.00:  % Det Eff 
 DLRX.°/30m               2.95:  Dogleg Rot Max 
 DLSO.°/30m               1.00:  Dogleg Oriented 
 DLSX.°/30m               2.95:  Dogleg Str Max 
 DRET.      11.42.20 11-Aug-21:  Drill End Time 
 DRST.      23.03.20 08-Aug-21:  Drill Start Tim 
 DTIM.hr                 45.50:  Time Drilling 
 EDEP.m                3488.00:  End Depth 
 ENG1.         Marcelo Marcari:  Engineer 1 
 ENG2.         Dair Mahammadov:  Engineer 2 
 ENG3.       Davud Huseyn-zada:  Engineer 3 
 ENG4.         Yevgeniy Ulikov:  Engineer 4 
 ETIM.      17.45.20 17-Aug-21:  End Time 
 FLOI.gpm              1197.70:  Flow In 
 FLON.gpm              1100.00:  Flow In Min 
 FLOS.cptm                0.00:  Fluid Loss 
 FLOX.gpm              1200.00:  Flow In Max 
 DFT .        Mineral Oil Base:  Mud Type 
 FTRO.       Formation Presure:  FTWD Run Obj 
 HFLO.                      No:  High Flow 
 HPRE.                      No:  High Pressure 
 HTEM.                      No:  High Temp 
 HYDO.m                   1.80:  Hydro Offset 
 IFIN.deg                 9.87:  Inc, Final 
 IMAX.deg                19.96:  Inc Max 
 IMIN.deg                 3.82:  Inc Min 
 IMND.m                3257.42:  Inc Min Depth 
 IMXD.m                2945.53:  Inc Max Depth 
 JARR.                      No:  Jarring 
 LETM.      11.42.20 11-Aug-21:  Log End Time 
 LOST.hr                     0:  Lost Rig Time 
 LSTM.      23.03.20 08-Aug-21:  Log Start Time 
 MDCL.ppm             42500.00:  Mud Chlorides 
 MDES.     Inversion Oil/Synthetic:  Mud Desc 
 DFD .sg                  1.45:  Mud Density 
 MDMN.sg                  1.39:  Dens Mud Min 
 MDMX.sg                  1.57:  Dens Mud Max 
 MOIL.                   53.20:  Run Mud Oil % 
 MOWR.                   70:30:  Run Mud OWR 
 MSND.                       0:  Run Mud Sand % 
 MSOL.                   24.30:  Run Mud Solids% 
 DFV .spqt               79.00:  Mud Viscosity 
 MWOD.in                  8.00:  MWD Tool OD 
 MWSI.                      No:  Serv Intrp, MWD 
 OTIM.hr                253.06:  Time Operating 
 PCON.           Look Like New:  Pad Condition 
 PMAX.psia            11068.93:  Press Op, Max 
 PV  .cP                 36.00:  Mud PV 
 RUN .                    1000:  Run Number 
 ROPA.m/hr               15.34:  ROP Avg 
 ROPN.m/hr                4.00:  ROP Min 
 ROPX.m/hr               31.00:  ROP Max 
 RPMA.rpm               151.40:  RPM Surface Avg 
 RPMN.rpm               120.00:  RPM Surface Min 
 RPMX.rpm               160.00:  RPM Surface Max 
 RRUN.                    L505:  Rig Run Number 
 RTIM.hr                 10.00:  Time Reaming 
 SAZI.deg                88.92:  Azm, Start 
 SDEP.m                2789.00:  Start Depth 
 SIDD.                      No:  Serv Intrp, DD 
 SINC.deg                19.84:  Inc, Start 
 SPPA.psig             4421.39:  SPP Avg 
 SPPN.psig             4130.00:  SPP Min 
 SPPX.psig             4800.00:  SPP Max 
 STIM.      01.25.20 07-Aug-21:  Start Time 
 SVCS.                 DD, MWD:  Services 
 SVER.                    9.20:  Sperry Version 
 TDAT.m                 699.00:  Tot Depth Attmp 
 TDDF.                      No:  Trip for DD 
 TDLG.m                 699.00:  Tot Depth Loggd 
 TFF .                      No:  Trip for Fail 
 TQAA.f-kp               20.55:  Torque Abs Avg 
 TQAN.f-kp               15.00:  Torque Abs Min 
 TQAX.f-kp               24.00:  Torque Abs Max 
 TRRT.°/30m               0.50:  Turn Rotating 
 MRT .                    HCIM:  Maximum Recorded Temperature 
 TTMX.degC               82.35:  Max Tool Temp 
 VS01.                90654677:  Virtual Str1 SN 
 VS02.                90636294:  Virtual Str2 SN 
 VS03.                90653866:  Virtual Str3 SN 
 VS04.                90654674:  Virtual Str4 SN 
 WBMN.klb                10.00:  WOB Min 
 WITN.         Haytham Mostafa:  Customer Rep 
 WITN.           Rufat Babayev:  Customer Rep 2 
 WOBA.klb                22.43:  WOB Avg 
 WOBX.klb                35.00:  WOB Max 
 YP  .lhf2               32.00:  Yield Point 
~Curve Information Block
#MNEM.UNIT                 API CODE     Curve Description
#---------               -----------    ---------------------------
 TIME.HHMMSS            00 000 000 000:  GT Time & Date
 GTDEPTH.m              00 000 000 000:  GT Depth
 GTPQH.psia             00 000 000 000:  GT HR Quartz Pressure
 GTTQ.degC              00 000 000 000:  GT Quartz Temperature
 GTTN.NONE              00 000 000 000:  GT Test Number
 GTET.sec               00 000 000 000:  GT Elapsed Test Time
 GTTVD.m                00 000 000 000:  GT True Vertical Depth
#Other Information
#
#WARRANTY: Halliburton will use its best efforts to furnish customers with 
#accurate information and interpretations that are part of, and incident to, the services 
#provided.  However, Halliburton cannot and does not warrant the accuracy 
#or correctness of such information and interpretations.  Under no circumstances should any 
#such information or interpretation be relied upon as the sole basis for any drilling, 
#completion, production, or financial decision or any procedure involving any risk to the 
#safety of any drilling venture, drilling rig or its crew or any other third party.  The 
#Customer has full responsibility for all drilling, completion and production operation.  
#Halliburton makes no representations or warranties, either expressed or 
#implied, including, but not limited to, the implied warranties of merchantability or fitness 
#for a particular purpose, with respect to the services rendered.  In no event will 
#Halliburton be liable for failure to obtain any particular results or for 
#any damages, including, but not limited to, indirect, special or consequential damages, 
#resulting from the use of any information or interpretation provided by Halliburton.
#
~A           TIME           GTDEPTH  GTPQH  GTTQ  GTTN  GTET   GTTVD  
# ...
   08:53:19.479.15-Aug-2021 3421.80 7438.64 56.11 2.00 368.06 3274.11
   08:53:19.679.15-Aug-2021 3421.80 7438.64 56.11 2.00 368.26 3274.11
   08:53:19.879.15-Aug-2021 3421.80 7438.91 56.11 2.00 368.46 3274.11
   08:53:20.079.15-Aug-2021 3421.80 7438.93 56.11 2.00 368.66 3274.11
   08:53:20.279.15-Aug-2021 3421.80 7438.98 56.11 2.00 368.86 3274.11
   08:53:20.479.15-Aug-2021 3421.80 7438.96 56.11 2.00 369.06 3274.11
   08:53:20.679.15-Aug-2021 3421.80 7438.96 56.11 2.00 369.26 3274.11
   08:53:20.879.15-Aug-2021 3421.80 7438.90 56.11 2.00 369.46 3274.11
   08:53:21.079.15-Aug-2021 3421.80 7439.03 56.11 2.00 369.66 3274.11
   08:53:21.279.15-Aug-2021 3421.80 7438.98 56.11 2.00 369.86 3274.11
   08:53:21.479.15-Aug-2021 3421.80 7438.97 56.10 2.00 370.06 3274.11
   08:53:21.679.15-Aug-2021 3421.80 7438.97 56.10 2.00 370.26 3274.11
   08:53:21.879.15-Aug-2021 3421.80 7439.40 56.10 2.00 370.46 3274.11
   08:53:22.079.15-Aug-2021 3421.80 7439.42 56.10 2.00 370.66 3274.11
   08:53:22.279.15-Aug-2021 3421.80 7439.47 56.10 2.00 370.86 3274.11
   08:53:22.479.15-Aug-2021 3421.80 7439.48 56.10 2.00 371.06 3274.11
   08:53:22.679.15-Aug-2021 3421.80 7439.48 56.10 2.00 371.26 3274.11
   08:53:22.879.15-Aug-2021 3421.80 7439.52 56.10 2.00 371.46 3274.11
   08:53:23.079.15-Aug-2021 3421.80 7439.92 56.10 2.00 371.66 3274.11
   08:53:23.279.15-Aug-2021 3421.80 7440.14 56.10 2.00 371.86 3274.11
   08:53:23.479.15-Aug-2021 3421.80 7440.27 56.10 2.00 372.06 3274.11
   08:53:23.679.15-Aug-2021 3421.80 7440.27 56.10 2.00 372.26 3274.11
   08:53:23.880.15-Aug-2021 3421.80 7440.18 56.10 2.00 372.46 3274.11
   08:53:24.080.15-Aug-2021 3421.80 7440.11 56.10 2.00 372.66 3274.11
   08:53:24.280.15-Aug-2021 3421.80 7440.07 56.10 2.00 372.86 3274.11
   08:53:24.480.15-Aug-2021 3421.80 7440.00 56.10 2.00 373.06 3274.11
   08:53:24.680.15-Aug-2021 3421.80 7440.00 56.10 2.00 373.26 3274.11
   08:53:24.880.15-Aug-2021 3421.80 7440.10 56.10 2.00 373.46 3274.11
   08:53:25.080.15-Aug-2021 3421.80 7440.20 56.10 2.00 373.66 3274.11
   08:53:25.280.15-Aug-2021 3421.80 7440.28 56.10 2.00 373.86 3274.11
   08:53:25.480.15-Aug-2021 3421.80 7440.31 56.10 2.00 374.06 3274.11
   08:53:25.680.15-Aug-2021 3421.80 7440.31 56.10 2.00 374.26 3274.11
   08:53:25.880.15-Aug-2021 3421.80 7440.12 56.10 2.00 374.46 3274.11
   08:53:26.080.15-Aug-2021 3421.80 7440.58 56.10 2.00 374.66 3274.11
   08:53:26.280.15-Aug-2021 3421.80 7440.68 56.10 2.00 374.86 3274.11
   08:53:26.480.15-Aug-2021 3421.80 7440.67 56.10 2.00 375.06 3274.11
   08:53:26.680.15-Aug-2021 3421.80 7440.67 56.10 2.00 375.26 3274.11
   08:53:26.880.15-Aug-2021 3421.80 7440.62 56.10 2.00 375.46 3274.11
   08:53:27.080.15-Aug-2021 3421.80 7440.78 56.10 2.00 375.66 3274.11
   08:53:27.280.15-Aug-2021 3421.80 7440.78 56.10 2.00 375.86 3274.11
   08:53:27.480.15-Aug-2021 3421.80 7440.74 56.10 2.00 376.06 3274.11
   08:53:27.680.15-Aug-2021 3421.80 7440.74 56.10 2.00 376.26 3274.11
   08:53:27.880.15-Aug-2021 3421.80 7440.64 56.10 2.00 376.46 3274.11
   08:53:28.080.15-Aug-2021 3421.80 7440.84 56.10 2.00 376.66 3274.11
   08:53:28.280.15-Aug-2021 3421.80 7440.94 56.10 2.00 376.86 3274.11
   08:53:28.480.15-Aug-2021 3421.80 7440.98 56.10 2.00 377.06 3274.11
   08:53:28.680.15-Aug-2021 3421.80 7440.98 56.10 2.00 377.26 3274.11
   08:53:28.880.15-Aug-2021 3421.80 7440.88 56.10 2.00 377.46 3274.11
   08:53:29.080.15-Aug-2021 3421.80 7440.96 56.10 2.00 377.66 3274.11
   08:53:29.280.15-Aug-2021 3421.80 7441.16 56.10 2.00 377.86 3274.11
   08:53:29.480.15-Aug-2021 3421.80 7441.11 56.10 2.00 378.06 3274.11
   08:53:29.680.15-Aug-2021 3421.80 7441.11 56.10 2.00 378.26 3274.11
   08:53:29.880.15-Aug-2021 3421.80 7441.05 56.10 2.00 378.46 3274.11
   08:53:30.081.15-Aug-2021 3421.80 7441.34 56.10 2.00 378.66 3274.11
   08:53:30.281.15-Aug-2021 3421.80 7441.43 56.09 2.00 378.86 3274.11
   08:53:30.481.15-Aug-2021 3421.80 7441.59 56.09 2.00 379.06 3274.11
   08:53:30.681.15-Aug-2021 3421.80 7441.59 56.09 2.00 379.26 3274.11
   08:53:30.881.15-Aug-2021 3421.80 7441.52 56.09 2.00 379.46 3274.11
   08:53:31.081.15-Aug-2021 3421.80 7441.68 56.09 2.00 379.66 3274.11
   08:53:31.281.15-Aug-2021 3421.80 7441.97 56.09 2.00 379.86 3274.11
   08:53:31.481.15-Aug-2021 3421.80 7441.96 56.09 2.00 380.06 3274.11
   08:53:31.681.15-Aug-2021 3421.80 7441.96 56.09 2.00 380.26 3274.11
   08:53:31.881.15-Aug-2021 3421.80 7441.87 56.09 2.00 380.46 3274.11
   08:53:32.081.15-Aug-2021 3421.80 7441.84 56.09 2.00 380.66 3274.11
   08:53:32.281.15-Aug-2021 3421.80 7441.79 56.09 2.00 380.86 3274.11
   08:53:32.481.15-Aug-2021 3421.80 7441.74 56.09 2.00 381.06 3274.11
   08:53:32.681.15-Aug-2021 3421.80 7441.74 56.09 2.00 381.26 3274.11
   08:53:32.881.15-Aug-2021 3421.80 7441.66 56.09 2.00 381.46 3274.11
   08:53:33.081.15-Aug-2021 3421.80 7441.85 56.09 2.00 381.66 3274.11
   08:53:33.281.15-Aug-2021 3421.80 7441.98 56.09 2.00 381.86 3274.11
   08:53:33.481.15-Aug-2021 3421.80 7442.04 56.09 2.00 382.06 3274.11
   08:53:33.681.15-Aug-2021 3421.80 7442.04 56.09 2.00 382.26 3274.11
   08:53:33.881.15-Aug-2021 3421.80 7442.42 56.09 2.00 382.46 3274.11
   08:53:34.081.15-Aug-2021 3421.80 7442.54 56.09 2.00 382.66 3274.11
   08:53:34.281.15-Aug-2021 3421.80 7442.74 56.09 2.00 382.86 3274.11
   08:53:34.481.15-Aug-2021 3421.80 7442.82 56.09 2.00 383.06 3274.11
   08:53:34.681.15-Aug-2021 3421.80 7442.82 56.09 2.00 383.26 3274.11
   08:53:34.881.15-Aug-2021 3421.80 7442.96 56.09 2.00 383.46 3274.11
   08:53:35.081.15-Aug-2021 3421.80 7442.96 56.09 2.00 383.66 3274.11
   08:53:35.281.15-Aug-2021 3421.80 7331.43 56.09 2.00 383.86 3274.11
   08:53:35.481.15-Aug-2021 3421.80 5264.64 56.09 2.00 384.06 3274.11
   08:53:35.681.15-Aug-2021 3421.80 5264.64 56.09 2.00 384.26 3274.11
   08:53:35.881.15-Aug-2021 3421.80 5414.04 56.09 2.00 384.46 3274.11
   08:53:36.082.15-Aug-2021 3421.80 6914.88 56.09 2.00 384.66 3274.11
   08:53:36.282.15-Aug-2021 3421.80 7469.67 56.09 2.00 384.86 3274.11
   08:53:36.482.15-Aug-2021 3421.80 7479.37 56.09 2.00 385.06 3274.11
   08:53:36.682.15-Aug-2021 3421.80 7479.37 56.09 2.00 385.26 3274.11
   08:53:36.882.15-Aug-2021 3421.80 7481.94 56.09 2.00 385.46 3274.11
   08:53:37.082.15-Aug-2021 3421.80 7484.13 56.08 2.00 385.66 3274.11
   08:53:37.282.15-Aug-2021 3421.80 7483.82 56.08 2.00 385.86 3274.11
   08:53:37.482.15-Aug-2021 3421.80 7484.52 56.08 2.00 386.06 3274.11
   08:53:37.682.15-Aug-2021 3421.80 7484.52 56.08 2.00 386.26 3274.11
   08:53:37.882.15-Aug-2021 3421.80 7482.58 56.08 2.00 386.46 3274.11
   08:53:38.082.15-Aug-2021 3421.80 7482.27 56.08 2.00 386.66 3274.11
   08:53:38.282.15-Aug-2021 3421.80 7484.00 56.08 2.00 386.86 3274.11
   08:53:38.482.15-Aug-2021 3421.80 7484.17 56.08 2.00 387.06 3274.11
   08:53:38.682.15-Aug-2021 3421.80 7484.17 56.08 2.00 387.26 3274.11
   08:53:38.882.15-Aug-2021 3421.80 7484.30 56.08 2.00 387.46 3274.11
   08:53:39.082.15-Aug-2021 3421.80 7487.53 56.08 2.00 387.66 3274.11
   08:53:39.282.15-Aug-2021 3421.80 7483.59 56.08 2.00 387.86 3274.11
   08:53:39.482.15-Aug-2021 3421.80 7484.11 56.08 2.00 388.06 3274.11
   08:53:39.682.15-Aug-2021 3421.80 7484.11 56.08 2.00 388.26 3274.11
   08:53:39.882.15-Aug-2021 3421.80 7483.33 56.08 2.00 388.46 3274.11
   08:53:40.082.15-Aug-2021 3421.80 7484.02 56.08 2.00 388.66 3274.11
   08:53:40.282.15-Aug-2021 3421.80 7485.10 56.08 2.00 388.86 3274.11
   08:53:40.482.15-Aug-2021 3421.80 7484.41 56.08 2.00 389.06 3274.11
   08:53:40.682.15-Aug-2021 3421.80 7484.41 56.08 2.00 389.26 3274.11
   08:53:40.882.15-Aug-2021 3421.80 7485.30 56.08 2.00 389.46 3274.11
   08:53:41.082.15-Aug-2021 3421.80 7485.31 56.08 2.00 389.66 3274.11
   08:53:41.282.15-Aug-2021 3421.80 7484.96 56.08 2.00 389.86 3274.11
   08:53:41.482.15-Aug-2021 3421.80 7483.13 56.08 2.00 390.06 3274.11
   08:53:41.682.15-Aug-2021 3421.80 7483.13 56.08 2.00 390.26 3274.11
   08:53:41.882.15-Aug-2021 3421.80 7483.47 56.08 2.00 390.46 3274.11
   08:53:42.082.15-Aug-2021 3421.80 7487.04 56.08 2.00 390.66 3274.11
   08:53:42.283.15-Aug-2021 3421.80 7485.77 56.08 2.00 390.86 3274.11
