~Version Information
 VERS.                  2.0:   CWLS log ASCII Standard -VERSION 2.0
 WRAP.                   NO:   One line per depth step
~Well Information Block
#MNEM.UNIT     VALUE/NAME     DESCRIPTION
#---------     -----------    ---------------------------
 STRT.S             08:47:11 15-Aug-21: START TIME 08:47:11 15-Aug-21
 STOP.S             08:54:08 15-Aug-21: STOP TIME  08:54:08 15-Aug-21
 STEP.S                   0.00: STEP TIME
 NULL.                 -999.25: NULL VALUE
 DFWT.                        :  DIST FWL TEXT
 DFST.                        :  DIST FSL TEXT
 DMF .             Drill Floor:  DRILL MEAS FROM
 STIM.      17.18.56 20-Jun-21:  START TIME
 DATE.      17.18.56 20-Aug-21:  END TIME
 SPUD.               20-Jun-21:  SPUD DATE
 NREF.                    Grid:  NORTH REFERENCE
 HPTY.       Minimum Curvature:  HOLE POS TYPE
 DMOD.             Drill Model:  DRILL MOD DESC
 SVYD.                  Survey:  SURVEY DESC
 ILTD.               Lithology:  INTERP LTH DESC
 FTOP.          Formation Tops:  FORM TOPS DESC
 SON .        AZ-XX-0907056190:  JOB NUMBER
 PDAT.       Caspian Sea Level:  PERMANENT DATUM
 WTYP.                Deviated:  WELL TYPE
 MDS .        Operator Entered:  MAG DATA SOURCE
 COMP.     BP Exploration (Caspian Sea) Ltd.:  COMPANY
 UWI .            /AZE20000092:  UNIQUE WELL IDENTIFIER
 API .            /AZE20000092:  API NUMBER
 BASE.              Azerbaijan:  LOGGING EQUIPMENT BASE LOCATION
 REGN.                   EESSA:  REGION
 PROV.                    baku:  PROVINCE
 STAT.                    baku:  STATE NAME
 CTRY.              Azerbaijan:  COUNTRY NAME
 FLD .                     ACG:  FIELD NAME
 SRVC.          Turan Drilling:  CONTRACTOR
 MWDS.                    Baku:  MWD SHOP
 WELL.                     J26:  WELL NAME
 JOBN.        AZ-XX-0907056190:  JOB TICKET NUMB
 RIG .             West Chirag:  RIG NAME
 DOE .                     N/A:  DOE NUMBER
 DCON.         Sperry Drilling:  DIRECTNL CONTR
 UNIT.                     N/A:  LOGGING EQUIPMENT ID
 CNTY.                        :  COUNTY
 LOC .                        :  LOCATION
 LMF .             Drill Floor:  LOG MEASURED FROM
 TVDS.m                  43.00:  TVDSS CORRECTN
 LATI.deg                40.13:  LATITUDE
 LONG.deg                51.22:  LONGITUDE
 WHNS.m                  -7.12:  WELL HEAD N/S
 WHEW.m                  -9.46:  WELL HEAD E/W
 UTMX.m              519004.02:  UTM X
 UTMY.m             4443784.96:  UTM Y
 DFWL.m                   0.00:  DISTANCE FWL
 DFSL.m                   0.00:  DISTANCE FSL
 SDEP.m                 464.00:  START DEPTH
 TDD .m                3500.00:  TOTAL DEPTH (DRILLER)
 VSDR.deg               114.35:  VERT SEC DIRECT
 GVFD.g                   1.00:  GRAVITY FIELD
 MFLD.nT              50386.00:  MAGNETIC FIELD
 MDIP.deg                59.63:  MAGNETIC DIP
 MDEC.deg                 6.43:  MAGNETIC DECL
 GRDC.deg                 0.15:  GRID CORRECTION
 AZTC.deg                 6.29:  AZM TOTAL CORR
 EPD .m                   0.00:  ELEVATION
 EGL .m                   0.00:  GROUND ELEVATION
 WDMS.m                 169.80:  WD ELEV
 APD .m                  43.00:  DEPTH ABOVE PD
 VSEW.m                  -9.46:  VERT SEC E/W
 VSNS.m                  -7.12:  VERT SEC N/S
 AGAP.m                  43.00:  AIR GAP
 DEP .m                 356.16:  DEPTH
 EKB .m                  43.00:  KB ELEVATION
 EDF .m                  43.00:  DF ELEVATION
 TDL .m                 699.00:  TOTAL DEPTH (LOGGER)
 VSC .                       0:  VS TO CLOSURE
 MAGU.                 1853727:  MAGUTM CHECKSUM
~Parameter Information Block
#MNEM.UNIT       Value        Description
#---------     -----------    ---------------------------
 AV  .mps                 1.30:  Ann Velocity 
 AVMX.mps                 1.67:  Max Ann Veloc 
 AZIF.deg               280.40:  Azm, Final 
 BHAT.        Rotary Steerable:  BHA Type 
 BREV.rev            528970.00:  Rev Bit Total 
 BROT.°/30m               1.00:  Build Rotating 
 BS  .in                 12.25:  Bit Size 
 BSZ .in                 12.25:  Bit Size 
 BTPL.psig              738.00:  Bit Press Loss 
 CABU.                     Yes:  Customer Abuse 
 CGEO.        Elvin Suleymanov:  Customer Geo 
 COMM.                     äji:  Run Comments 1 
 TCS .hr                 66.05:  Time Ciculation Ended 
 CV  .mps                 2.20:  Crit Velocity 
 CVMX.mps                 2.56:  Max Crit Veloc 
 DD1 .          Rashad Habibov:  Direct Drillr 1 
 DD2 .            Azer ravanov:  Direct Drillr 2 
 DD3 .           Teymur Agayev:  Direct Drillr 3 
 DDSV.               Geo-Pilot:  DD Service 
 DEFF.%                  90.00:  % Det Eff 
 DLRX.°/30m               2.95:  Dogleg Rot Max 
 DLSO.°/30m               1.00:  Dogleg Oriented 
 DLSX.°/30m               2.95:  Dogleg Str Max 
 DRET.      11.42.20 11-Aug-21:  Drill End Time 
 DRST.      23.03.20 08-Aug-21:  Drill Start Tim 
 DTIM.hr                 45.50:  Time Drilling 
 EDEP.m                3488.00:  End Depth 
 ENG1.         Marcelo Marcari:  Engineer 1 
 ENG2.         Dair Mahammadov:  Engineer 2 
 ENG3.       Davud Huseyn-zada:  Engineer 3 
 ENG4.         Yevgeniy Ulikov:  Engineer 4 
 ETIM.      17.45.20 17-Aug-21:  End Time 
 FLOI.gpm              1197.70:  Flow In 
 FLON.gpm              1100.00:  Flow In Min 
 FLOS.cptm                0.00:  Fluid Loss 
 FLOX.gpm              1200.00:  Flow In Max 
 DFT .        Mineral Oil Base:  Mud Type 
 FTRO.       Formation Presure:  FTWD Run Obj 
 HFLO.                      No:  High Flow 
 HPRE.                      No:  High Pressure 
 HTEM.                      No:  High Temp 
 HYDO.m                   1.80:  Hydro Offset 
 IFIN.deg                 9.87:  Inc, Final 
 IMAX.deg                19.96:  Inc Max 
 IMIN.deg                 3.82:  Inc Min 
 IMND.m                3257.42:  Inc Min Depth 
 IMXD.m                2945.53:  Inc Max Depth 
 JARR.                      No:  Jarring 
 LETM.      11.42.20 11-Aug-21:  Log End Time 
 LOST.hr                     0:  Lost Rig Time 
 LSTM.      23.03.20 08-Aug-21:  Log Start Time 
 MDCL.ppm             42500.00:  Mud Chlorides 
 MDES.     Inversion Oil/Synthetic:  Mud Desc 
 DFD .sg                  1.45:  Mud Density 
 MDMN.sg                  1.39:  Dens Mud Min 
 MDMX.sg                  1.57:  Dens Mud Max 
 MOIL.                   53.20:  Run Mud Oil % 
 MOWR.                   70:30:  Run Mud OWR 
 MSND.                       0:  Run Mud Sand % 
 MSOL.                   24.30:  Run Mud Solids% 
 DFV .spqt               79.00:  Mud Viscosity 
 MWOD.in                  8.00:  MWD Tool OD 
 MWSI.                      No:  Serv Intrp, MWD 
 OTIM.hr                253.06:  Time Operating 
 PCON.           Look Like New:  Pad Condition 
 PMAX.psia            11068.93:  Press Op, Max 
 PV  .cP                 36.00:  Mud PV 
 RUN .                    1000:  Run Number 
 ROPA.m/hr               15.34:  ROP Avg 
 ROPN.m/hr                4.00:  ROP Min 
 ROPX.m/hr               31.00:  ROP Max 
 RPMA.rpm               151.40:  RPM Surface Avg 
 RPMN.rpm               120.00:  RPM Surface Min 
 RPMX.rpm               160.00:  RPM Surface Max 
 RRUN.                    L505:  Rig Run Number 
 RTIM.hr                 10.00:  Time Reaming 
 SAZI.deg                88.92:  Azm, Start 
 SDEP.m                2789.00:  Start Depth 
 SIDD.                      No:  Serv Intrp, DD 
 SINC.deg                19.84:  Inc, Start 
 SPPA.psig             4421.39:  SPP Avg 
 SPPN.psig             4130.00:  SPP Min 
 SPPX.psig             4800.00:  SPP Max 
 STIM.      01.25.20 07-Aug-21:  Start Time 
 SVCS.                 DD, MWD:  Services 
 SVER.                    9.20:  Sperry Version 
 TDAT.m                 699.00:  Tot Depth Attmp 
 TDDF.                      No:  Trip for DD 
 TDLG.m                 699.00:  Tot Depth Loggd 
 TFF .                      No:  Trip for Fail 
 TQAA.f-kp               20.55:  Torque Abs Avg 
 TQAN.f-kp               15.00:  Torque Abs Min 
 TQAX.f-kp               24.00:  Torque Abs Max 
 TRRT.°/30m               0.50:  Turn Rotating 
 MRT .                    HCIM:  Maximum Recorded Temperature 
 TTMX.degC               82.35:  Max Tool Temp 
 VS01.                90654677:  Virtual Str1 SN 
 VS02.                90636294:  Virtual Str2 SN 
 VS03.                90653866:  Virtual Str3 SN 
 VS04.                90654674:  Virtual Str4 SN 
 WBMN.klb                10.00:  WOB Min 
 WITN.         Haytham Mostafa:  Customer Rep 
 WITN.           Rufat Babayev:  Customer Rep 2 
 WOBA.klb                22.43:  WOB Avg 
 WOBX.klb                35.00:  WOB Max 
 YP  .lhf2               32.00:  Yield Point 
~Curve Information Block
#MNEM.UNIT                 API CODE     Curve Description
#---------               -----------    ---------------------------
 TIME.HHMMSS            00 000 000 000:  GT Time & Date
 GTDEPTH.m              00 000 000 000:  GT Depth
 GTPQH.psia             00 000 000 000:  GT HR Quartz Pressure
 GTTQ.degC              00 000 000 000:  GT Quartz Temperature
 GTTN.NONE              00 000 000 000:  GT Test Number
 GTET.sec               00 000 000 000:  GT Elapsed Test Time
 GTTVD.m                00 000 000 000:  GT True Vertical Depth
#Other Information
#
#WARRANTY: Halliburton will use its best efforts to furnish customers with 
#accurate information and interpretations that are part of, and incident to, the services 
#provided.  However, Halliburton cannot and does not warrant the accuracy 
#or correctness of such information and interpretations.  Under no circumstances should any 
#such information or interpretation be relied upon as the sole basis for any drilling, 
#completion, production, or financial decision or any procedure involving any risk to the 
#safety of any drilling venture, drilling rig or its crew or any other third party.  The 
#Customer has full responsibility for all drilling, completion and production operation.  
#Halliburton makes no representations or warranties, either expressed or 
#implied, including, but not limited to, the implied warranties of merchantability or fitness 
#for a particular purpose, with respect to the services rendered.  In no event will 
#Halliburton be liable for failure to obtain any particular results or for 
#any damages, including, but not limited to, indirect, special or consequential damages, 
#resulting from the use of any information or interpretation provided by Halliburton.
#
~A           TIME           GTDEPTH  GTPQH  GTTQ  GTTN  GTET   GTTVD  
# ...
   08:51:47.464.15-Aug-2021 3421.80 5186.11 56.16 2.00 276.05 3274.11
   08:51:47.664.15-Aug-2021 3421.80 5186.11 56.16 2.00 276.25 3274.11
   08:51:47.864.15-Aug-2021 3421.80 5186.59 56.16 2.00 276.45 3274.11
   08:51:48.064.15-Aug-2021 3421.80 5186.50 56.16 2.00 276.65 3274.11
   08:51:48.264.15-Aug-2021 3421.80 5186.75 56.16 2.00 276.85 3274.11
   08:51:48.464.15-Aug-2021 3421.80 5187.12 56.16 2.00 277.05 3274.11
   08:51:48.664.15-Aug-2021 3421.80 5187.12 56.16 2.00 277.25 3274.11
   08:51:48.864.15-Aug-2021 3421.80 5187.56 56.16 2.00 277.45 3274.11
   08:51:49.064.15-Aug-2021 3421.80 5187.62 56.16 2.00 277.65 3274.11
   08:51:49.264.15-Aug-2021 3421.80 5187.73 56.16 2.00 277.85 3274.11
   08:51:49.464.15-Aug-2021 3421.80 5187.84 56.16 2.00 278.05 3274.11
   08:51:49.664.15-Aug-2021 3421.80 5187.84 56.16 2.00 278.25 3274.11
   08:51:49.864.15-Aug-2021 3421.80 5188.57 56.16 2.00 278.45 3274.11
   08:51:50.064.15-Aug-2021 3421.80 5188.74 56.16 2.00 278.65 3274.11
   08:51:50.264.15-Aug-2021 3421.80 5188.71 56.16 2.00 278.85 3274.11
   08:51:50.464.15-Aug-2021 3421.80 4356.23 56.16 2.00 279.05 3274.11
   08:51:50.664.15-Aug-2021 3421.80 4356.23 56.16 2.00 279.25 3274.11
   08:51:50.864.15-Aug-2021 3421.80 3058.90 56.16 2.00 279.45 3274.11
   08:51:51.064.15-Aug-2021 3421.80 2938.51 56.16 2.00 279.65 3274.11
   08:51:51.264.15-Aug-2021 3421.80 2826.18 56.15 2.00 279.85 3274.11
   08:51:51.464.15-Aug-2021 3421.80 2712.74 56.15 2.00 280.05 3274.11
   08:51:51.664.15-Aug-2021 3421.80 2712.74 56.15 2.00 280.25 3274.11
   08:51:51.864.15-Aug-2021 3421.80 2494.86 56.15 2.00 280.45 3274.11
   08:51:52.064.15-Aug-2021 3421.80 2385.78 56.15 2.00 280.65 3274.11
   08:51:52.265.15-Aug-2021 3421.80 2273.32 56.15 2.00 280.85 3274.11
   08:51:52.465.15-Aug-2021 3421.80 2171.28 56.15 2.00 281.05 3274.11
   08:51:52.665.15-Aug-2021 3421.80 2171.28 56.15 2.00 281.25 3274.11
   08:51:52.865.15-Aug-2021 3421.80 1966.40 56.14 2.00 281.45 3274.11
   08:51:53.065.15-Aug-2021 3421.80 1871.43 56.14 2.00 281.65 3274.11
   08:51:53.265.15-Aug-2021 3421.80 1790.44 56.14 2.00 281.85 3274.11
   08:51:53.465.15-Aug-2021 3421.80 1728.22 56.14 2.00 282.05 3274.11
   08:51:53.665.15-Aug-2021 3421.80 1728.22 56.14 2.00 282.25 3274.11
   08:51:53.865.15-Aug-2021 3421.80 1728.22 56.14 2.00 282.45 3274.11
   08:51:54.065.15-Aug-2021 3421.80 1709.06 56.13 2.00 282.65 3274.11
   08:51:54.265.15-Aug-2021 3421.80 1706.03 56.13 2.00 282.85 3274.11
   08:51:54.465.15-Aug-2021 3421.80 1704.01 56.12 2.00 283.05 3274.11
   08:51:54.665.15-Aug-2021 3421.80 1704.01 56.12 2.00 283.25 3274.11
   08:51:54.865.15-Aug-2021 3421.80 1702.68 56.12 2.00 283.45 3274.11
   08:51:55.065.15-Aug-2021 3421.80 1703.98 56.11 2.00 283.65 3274.11
   08:51:55.265.15-Aug-2021 3421.80 1702.10 56.11 2.00 283.85 3274.11
   08:51:55.465.15-Aug-2021 3421.80 1700.82 56.11 2.00 284.05 3274.11
   08:51:55.665.15-Aug-2021 3421.80 1700.82 56.11 2.00 284.25 3274.11
   08:51:55.865.15-Aug-2021 3421.80 1694.99 56.10 2.00 284.45 3274.11
   08:51:56.065.15-Aug-2021 3421.80 1692.32 56.10 2.00 284.65 3274.11
   08:51:56.265.15-Aug-2021 3421.80 1691.09 56.10 2.00 284.85 3274.11
   08:51:56.465.15-Aug-2021 3421.80 1697.29 56.10 2.00 285.05 3274.11
   08:51:56.665.15-Aug-2021 3421.80 1697.29 56.10 2.00 285.25 3274.11
   08:51:56.865.15-Aug-2021 3421.80 1691.95 56.09 2.00 285.45 3274.11
   08:51:57.065.15-Aug-2021 3421.80 1691.98 56.09 2.00 285.65 3274.11
   08:51:57.265.15-Aug-2021 3421.80 1700.37 56.09 2.00 285.85 3274.11
   08:51:57.465.15-Aug-2021 3421.80 1698.42 56.09 2.00 286.05 3274.11
   08:51:57.665.15-Aug-2021 3421.80 1698.42 56.09 2.00 286.25 3274.11
   08:51:57.865.15-Aug-2021 3421.80 1692.51 56.08 2.00 286.45 3274.11
   08:51:58.065.15-Aug-2021 3421.80 1696.11 56.08 2.00 286.65 3274.11
   08:51:58.265.15-Aug-2021 3421.80 1695.85 56.08 2.00 286.85 3274.11
   08:51:58.466.15-Aug-2021 3421.80 1691.61 56.08 2.00 287.05 3274.11
   08:51:58.666.15-Aug-2021 3421.80 1691.61 56.08 2.00 287.25 3274.11
   08:51:58.866.15-Aug-2021 3421.80 1707.66 56.07 2.00 287.45 3274.11
   08:51:59.066.15-Aug-2021 3421.80 2526.99 56.07 2.00 287.65 3274.11
   08:51:59.266.15-Aug-2021 3421.80 3662.51 56.07 2.00 287.85 3274.11
   08:51:59.466.15-Aug-2021 3421.80 4542.77 56.07 2.00 288.05 3274.11
   08:51:59.666.15-Aug-2021 3421.80 4542.77 56.07 2.00 288.25 3274.11
   08:51:59.866.15-Aug-2021 3421.80 5669.71 56.07 2.00 288.45 3274.11
   08:52:00.066.15-Aug-2021 3421.80 6004.66 56.07 2.00 288.65 3274.11
   08:52:00.266.15-Aug-2021 3421.80 6244.60 56.07 2.00 288.85 3274.11
   08:52:00.466.15-Aug-2021 3421.80 6422.39 56.07 2.00 289.05 3274.11
   08:52:00.666.15-Aug-2021 3421.80 6422.39 56.07 2.00 289.25 3274.11
   08:52:00.866.15-Aug-2021 3421.80 6656.63 56.07 2.00 289.45 3274.11
   08:52:01.066.15-Aug-2021 3421.80 6729.70 56.07 2.00 289.65 3274.11
   08:52:01.266.15-Aug-2021 3421.80 6787.79 56.07 2.00 289.85 3274.11
   08:52:01.466.15-Aug-2021 3421.80 6834.46 56.07 2.00 290.05 3274.11
   08:52:01.666.15-Aug-2021 3421.80 6834.46 56.07 2.00 290.25 3274.11
   08:52:01.866.15-Aug-2021 3421.80 6900.63 56.08 2.00 290.45 3274.11
   08:52:02.066.15-Aug-2021 3421.80 6925.66 56.08 2.00 290.65 3274.11
   08:52:02.266.15-Aug-2021 3421.80 6946.96 56.08 2.00 290.85 3274.11
   08:52:02.466.15-Aug-2021 3421.80 6966.00 56.09 2.00 291.05 3274.11
   08:52:02.666.15-Aug-2021 3421.80 6966.00 56.09 2.00 291.25 3274.11
   08:52:02.866.15-Aug-2021 3421.80 6999.94 56.09 2.00 291.45 3274.11
   08:52:03.066.15-Aug-2021 3421.80 7013.74 56.10 2.00 291.65 3274.11
   08:52:03.266.15-Aug-2021 3421.80 7026.54 56.10 2.00 291.85 3274.11
   08:52:03.466.15-Aug-2021 3421.80 7039.88 56.10 2.00 292.05 3274.11
   08:52:03.666.15-Aug-2021 3421.80 7039.88 56.10 2.00 292.25 3274.11
   08:52:03.866.15-Aug-2021 3421.80 7061.49 56.11 2.00 292.45 3274.11
   08:52:04.066.15-Aug-2021 3421.80 7072.51 56.12 2.00 292.65 3274.11
   08:52:04.266.15-Aug-2021 3421.80 7083.25 56.12 2.00 292.85 3274.11
   08:52:04.467.15-Aug-2021 3421.80 7093.47 56.12 2.00 293.05 3274.11
   08:52:04.667.15-Aug-2021 3421.80 7093.47 56.12 2.00 293.25 3274.11
   08:52:04.867.15-Aug-2021 3421.80 7115.35 56.13 2.00 293.45 3274.11
   08:52:05.067.15-Aug-2021 3421.80 7122.55 56.13 2.00 293.65 3274.11
   08:52:05.267.15-Aug-2021 3421.80 7131.01 56.13 2.00 293.85 3274.11
   08:52:05.467.15-Aug-2021 3421.80 7139.78 56.14 2.00 294.05 3274.11
   08:52:05.667.15-Aug-2021 3421.80 7139.78 56.14 2.00 294.25 3274.11
   08:52:05.867.15-Aug-2021 3421.80 7155.23 56.14 2.00 294.45 3274.11
   08:52:06.067.15-Aug-2021 3421.80 7164.73 56.15 2.00 294.65 3274.11
   08:52:06.267.15-Aug-2021 3421.80 7171.58 56.15 2.00 294.85 3274.11
   08:52:06.467.15-Aug-2021 3421.80 7178.09 56.15 2.00 295.05 3274.11
   08:52:06.667.15-Aug-2021 3421.80 7178.09 56.15 2.00 295.25 3274.11
   08:52:06.867.15-Aug-2021 3421.80 7192.29 56.16 2.00 295.45 3274.11
   08:52:07.067.15-Aug-2021 3421.80 7198.79 56.16 2.00 295.65 3274.11
   08:52:07.267.15-Aug-2021 3421.80 7204.09 56.16 2.00 295.85 3274.11
   08:52:07.467.15-Aug-2021 3421.80 7209.76 56.16 2.00 296.05 3274.11
   08:52:07.667.15-Aug-2021 3421.80 7209.76 56.16 2.00 296.25 3274.11
   08:52:07.867.15-Aug-2021 3421.80 7222.30 56.17 2.00 296.45 3274.11
   08:52:08.067.15-Aug-2021 3421.80 7226.61 56.17 2.00 296.65 3274.11
   08:52:08.267.15-Aug-2021 3421.80 7231.72 56.17 2.00 296.85 3274.11
   08:52:08.467.15-Aug-2021 3421.80 7236.21 56.17 2.00 297.05 3274.11
   08:52:08.667.15-Aug-2021 3421.80 7236.21 56.17 2.00 297.25 3274.11
   08:52:08.867.15-Aug-2021 3421.80 7243.63 56.18 2.00 297.45 3274.11
   08:52:09.067.15-Aug-2021 3421.80 7247.79 56.18 2.00 297.65 3274.11
   08:52:09.267.15-Aug-2021 3421.80 7255.12 56.18 2.00 297.85 3274.11
   08:52:09.467.15-Aug-2021 3421.80 7258.35 56.18 2.00 298.05 3274.11
   08:52:09.667.15-Aug-2021 3421.80 7258.35 56.18 2.00 298.25 3274.11
   08:52:09.867.15-Aug-2021 3421.80 7264.81 56.18 2.00 298.45 3274.11
   08:52:10.067.15-Aug-2021 3421.80 7268.21 56.18 2.00 298.65 3274.11
   08:52:10.267.15-Aug-2021 3421.80 7270.94 56.18 2.00 298.85 3274.11
