~Version Information
 VERS.                  2.0:   CWLS log ASCII Standard -VERSION 2.0
 WRAP.                   NO:   One line per depth step
~Well Information Block
#MNEM.UNIT     VALUE/NAME     DESCRIPTION
#---------     -----------    ---------------------------
 STRT.S             06:52:24 15-Aug-21: START TIME 06:52:24 15-Aug-21
 STOP.S             06:59:28 15-Aug-21: STOP TIME  06:59:28 15-Aug-21
 STEP.S                   0.00: STEP TIME
 NULL.                 -999.25: NULL VALUE
 DFWT.                        :  DIST FWL TEXT
 DFST.                        :  DIST FSL TEXT
 DMF .             Drill Floor:  DRILL MEAS FROM
 STIM.      17.18.56 20-Jun-21:  START TIME
 DATE.      17.18.56 20-Aug-21:  END TIME
 SPUD.               20-Jun-21:  SPUD DATE
 NREF.                    Grid:  NORTH REFERENCE
 HPTY.       Minimum Curvature:  HOLE POS TYPE
 DMOD.             Drill Model:  DRILL MOD DESC
 SVYD.                  Survey:  SURVEY DESC
 ILTD.               Lithology:  INTERP LTH DESC
 FTOP.          Formation Tops:  FORM TOPS DESC
 SON .        AZ-XX-0907056190:  JOB NUMBER
 PDAT.       Caspian Sea Level:  PERMANENT DATUM
 WTYP.                Deviated:  WELL TYPE
 MDS .        Operator Entered:  MAG DATA SOURCE
 COMP.     BP Exploration (Caspian Sea) Ltd.:  COMPANY
 UWI .            /AZE20000092:  UNIQUE WELL IDENTIFIER
 API .            /AZE20000092:  API NUMBER
 BASE.              Azerbaijan:  LOGGING EQUIPMENT BASE LOCATION
 REGN.                   EESSA:  REGION
 PROV.                    baku:  PROVINCE
 STAT.                    baku:  STATE NAME
 CTRY.              Azerbaijan:  COUNTRY NAME
 FLD .                     ACG:  FIELD NAME
 SRVC.          Turan Drilling:  CONTRACTOR
 MWDS.                    Baku:  MWD SHOP
 WELL.                     J26:  WELL NAME
 JOBN.        AZ-XX-0907056190:  JOB TICKET NUMB
 RIG .             West Chirag:  RIG NAME
 DOE .                     N/A:  DOE NUMBER
 DCON.         Sperry Drilling:  DIRECTNL CONTR
 UNIT.                     N/A:  LOGGING EQUIPMENT ID
 CNTY.                        :  COUNTY
 LOC .                        :  LOCATION
 LMF .             Drill Floor:  LOG MEASURED FROM
 TVDS.m                  43.00:  TVDSS CORRECTN
 LATI.deg                40.13:  LATITUDE
 LONG.deg                51.22:  LONGITUDE
 WHNS.m                  -7.12:  WELL HEAD N/S
 WHEW.m                  -9.46:  WELL HEAD E/W
 UTMX.m              519004.02:  UTM X
 UTMY.m             4443784.96:  UTM Y
 DFWL.m                   0.00:  DISTANCE FWL
 DFSL.m                   0.00:  DISTANCE FSL
 SDEP.m                 464.00:  START DEPTH
 TDD .m                3500.00:  TOTAL DEPTH (DRILLER)
 VSDR.deg               114.35:  VERT SEC DIRECT
 GVFD.g                   1.00:  GRAVITY FIELD
 MFLD.nT              50386.00:  MAGNETIC FIELD
 MDIP.deg                59.63:  MAGNETIC DIP
 MDEC.deg                 6.43:  MAGNETIC DECL
 GRDC.deg                 0.15:  GRID CORRECTION
 AZTC.deg                 6.29:  AZM TOTAL CORR
 EPD .m                   0.00:  ELEVATION
 EGL .m                   0.00:  GROUND ELEVATION
 WDMS.m                 169.80:  WD ELEV
 APD .m                  43.00:  DEPTH ABOVE PD
 VSEW.m                  -9.46:  VERT SEC E/W
 VSNS.m                  -7.12:  VERT SEC N/S
 AGAP.m                  43.00:  AIR GAP
 DEP .m                 356.16:  DEPTH
 EKB .m                  43.00:  KB ELEVATION
 EDF .m                  43.00:  DF ELEVATION
 TDL .m                 699.00:  TOTAL DEPTH (LOGGER)
 VSC .                       0:  VS TO CLOSURE
 MAGU.                 1853727:  MAGUTM CHECKSUM
~Parameter Information Block
#MNEM.UNIT       Value        Description
#---------     -----------    ---------------------------
 AV  .mps                 1.30:  Ann Velocity 
 AVMX.mps                 1.67:  Max Ann Veloc 
 AZIF.deg               280.40:  Azm, Final 
 BHAT.        Rotary Steerable:  BHA Type 
 BREV.rev            528970.00:  Rev Bit Total 
 BROT.°/30m               1.00:  Build Rotating 
 BS  .in                 12.25:  Bit Size 
 BSZ .in                 12.25:  Bit Size 
 BTPL.psig              738.00:  Bit Press Loss 
 CABU.                     Yes:  Customer Abuse 
 CGEO.        Elvin Suleymanov:  Customer Geo 
 COMM.                     ¬kS:  Run Comments 1 
 TCS .hr                 66.05:  Time Ciculation Ended 
 CV  .mps                 2.20:  Crit Velocity 
 CVMX.mps                 2.56:  Max Crit Veloc 
 DD1 .          Rashad Habibov:  Direct Drillr 1 
 DD2 .            Azer ravanov:  Direct Drillr 2 
 DD3 .           Teymur Agayev:  Direct Drillr 3 
 DDSV.               Geo-Pilot:  DD Service 
 DEFF.%                  90.00:  % Det Eff 
 DLRX.°/30m               2.95:  Dogleg Rot Max 
 DLSO.°/30m               1.00:  Dogleg Oriented 
 DLSX.°/30m               2.95:  Dogleg Str Max 
 DRET.      11.42.20 11-Aug-21:  Drill End Time 
 DRST.      23.03.20 08-Aug-21:  Drill Start Tim 
 DTIM.hr                 45.50:  Time Drilling 
 EDEP.m                3488.00:  End Depth 
 ENG1.         Marcelo Marcari:  Engineer 1 
 ENG2.         Dair Mahammadov:  Engineer 2 
 ENG3.       Davud Huseyn-zada:  Engineer 3 
 ENG4.         Yevgeniy Ulikov:  Engineer 4 
 ETIM.      17.45.20 17-Aug-21:  End Time 
 FLOI.gpm              1197.70:  Flow In 
 FLON.gpm              1100.00:  Flow In Min 
 FLOS.cptm                0.00:  Fluid Loss 
 FLOX.gpm              1200.00:  Flow In Max 
 DFT .        Mineral Oil Base:  Mud Type 
 FTRO.       Formation Presure:  FTWD Run Obj 
 HFLO.                      No:  High Flow 
 HPRE.                      No:  High Pressure 
 HTEM.                      No:  High Temp 
 HYDO.m                   1.80:  Hydro Offset 
 IFIN.deg                 9.87:  Inc, Final 
 IMAX.deg                19.96:  Inc Max 
 IMIN.deg                 3.82:  Inc Min 
 IMND.m                3257.42:  Inc Min Depth 
 IMXD.m                2945.53:  Inc Max Depth 
 JARR.                      No:  Jarring 
 LETM.      11.42.20 11-Aug-21:  Log End Time 
 LOST.hr                     0:  Lost Rig Time 
 LSTM.      23.03.20 08-Aug-21:  Log Start Time 
 MDCL.ppm             42500.00:  Mud Chlorides 
 MDES.     Inversion Oil/Synthetic:  Mud Desc 
 DFD .sg                  1.45:  Mud Density 
 MDMN.sg                  1.39:  Dens Mud Min 
 MDMX.sg                  1.57:  Dens Mud Max 
 MOIL.                   53.20:  Run Mud Oil % 
 MOWR.                   70:30:  Run Mud OWR 
 MSND.                       0:  Run Mud Sand % 
 MSOL.                   24.30:  Run Mud Solids% 
 DFV .spqt               79.00:  Mud Viscosity 
 MWOD.in                  8.00:  MWD Tool OD 
 MWSI.                      No:  Serv Intrp, MWD 
 OTIM.hr                253.06:  Time Operating 
 PCON.           Look Like New:  Pad Condition 
 PMAX.psia            11068.93:  Press Op, Max 
 PV  .cP                 36.00:  Mud PV 
 RUN .                    1000:  Run Number 
 ROPA.m/hr               15.34:  ROP Avg 
 ROPN.m/hr                4.00:  ROP Min 
 ROPX.m/hr               31.00:  ROP Max 
 RPMA.rpm               151.40:  RPM Surface Avg 
 RPMN.rpm               120.00:  RPM Surface Min 
 RPMX.rpm               160.00:  RPM Surface Max 
 RRUN.                    L505:  Rig Run Number 
 RTIM.hr                 10.00:  Time Reaming 
 SAZI.deg                88.92:  Azm, Start 
 SDEP.m                2789.00:  Start Depth 
 SIDD.                      No:  Serv Intrp, DD 
 SINC.deg                19.84:  Inc, Start 
 SPPA.psig             4421.39:  SPP Avg 
 SPPN.psig             4130.00:  SPP Min 
 SPPX.psig             4800.00:  SPP Max 
 STIM.      01.25.20 07-Aug-21:  Start Time 
 SVCS.                 DD, MWD:  Services 
 SVER.                    9.20:  Sperry Version 
 TDAT.m                 699.00:  Tot Depth Attmp 
 TDDF.                      No:  Trip for DD 
 TDLG.m                 699.00:  Tot Depth Loggd 
 TFF .                      No:  Trip for Fail 
 TQAA.f-kp               20.55:  Torque Abs Avg 
 TQAN.f-kp               15.00:  Torque Abs Min 
 TQAX.f-kp               24.00:  Torque Abs Max 
 TRRT.°/30m               0.50:  Turn Rotating 
 MRT .                    HCIM:  Maximum Recorded Temperature 
 TTMX.degC               82.35:  Max Tool Temp 
 VS01.                90654677:  Virtual Str1 SN 
 VS02.                90636294:  Virtual Str2 SN 
 VS03.                90653866:  Virtual Str3 SN 
 VS04.                90654674:  Virtual Str4 SN 
 WBMN.klb                10.00:  WOB Min 
 WITN.         Haytham Mostafa:  Customer Rep 
 WITN.           Rufat Babayev:  Customer Rep 2 
 WOBA.klb                22.43:  WOB Avg 
 WOBX.klb                35.00:  WOB Max 
 YP  .lhf2               32.00:  Yield Point 
~Curve Information Block
#MNEM.UNIT                 API CODE     Curve Description
#---------               -----------    ---------------------------
 TIME.HHMMSS            00 000 000 000:  GT Time & Date
 GTDEPTH.m              00 000 000 000:  GT Depth
 GTPQH.psia             00 000 000 000:  GT HR Quartz Pressure
 GTTQ.degC              00 000 000 000:  GT Quartz Temperature
 GTTN.NONE              00 000 000 000:  GT Test Number
 GTET.sec               00 000 000 000:  GT Elapsed Test Time
 GTTVD.m                00 000 000 000:  GT True Vertical Depth
#Other Information
#
#WARRANTY: Halliburton will use its best efforts to furnish customers with 
#accurate information and interpretations that are part of, and incident to, the services 
#provided.  However, Halliburton cannot and does not warrant the accuracy 
#or correctness of such information and interpretations.  Under no circumstances should any 
#such information or interpretation be relied upon as the sole basis for any drilling, 
#completion, production, or financial decision or any procedure involving any risk to the 
#safety of any drilling venture, drilling rig or its crew or any other third party.  The 
#Customer has full responsibility for all drilling, completion and production operation.  
#Halliburton makes no representations or warranties, either expressed or 
#implied, including, but not limited to, the implied warranties of merchantability or fitness 
#for a particular purpose, with respect to the services rendered.  In no event will 
#Halliburton be liable for failure to obtain any particular results or for 
#any damages, including, but not limited to, indirect, special or consequential damages, 
#resulting from the use of any information or interpretation provided by Halliburton.
#
~A           TIME           GTDEPTH  GTPQH  GTTQ  GTTN  GTET   GTTVD  
# ...
   06:53:33.698.15-Aug-2021 3437.50 5134.55 58.02 1.00  69.00 3289.56
   06:53:33.898.15-Aug-2021 3437.50 5134.55 58.02 1.00  69.20 3289.56
   06:53:34.098.15-Aug-2021 3437.50 4837.07 58.01 1.00  69.40 3289.56
   06:53:34.298.15-Aug-2021 3437.50 4786.83 58.01 1.00  69.60 3289.56
   06:53:34.498.15-Aug-2021 3437.50 4761.64 58.01 1.00  69.80 3289.56
   06:53:34.698.15-Aug-2021 3437.50 4733.50 58.01 1.00  70.00 3289.56
   06:53:34.898.15-Aug-2021 3437.50 4733.50 58.01 1.00  70.20 3289.56
   06:53:35.099.15-Aug-2021 3437.50 4705.73 58.01 1.00  70.40 3289.56
   06:53:35.299.15-Aug-2021 3437.50 4690.68 58.00 1.00  70.60 3289.56
   06:53:35.499.15-Aug-2021 3437.50 4682.20 58.00 1.00  70.81 3289.56
   06:53:35.699.15-Aug-2021 3437.50 4676.50 58.00 1.00  71.01 3289.56
   06:53:35.899.15-Aug-2021 3437.50 4676.50 58.00 1.00  71.21 3289.56
   06:53:36.099.15-Aug-2021 3437.50 4665.80 58.00 1.00  71.41 3289.56
   06:53:36.299.15-Aug-2021 3437.50 4666.60 57.99 1.00  71.61 3289.56
   06:53:36.499.15-Aug-2021 3437.50 4666.82 57.99 1.00  71.81 3289.56
   06:53:36.699.15-Aug-2021 3437.50 4666.57 57.99 1.00  72.01 3289.56
   06:53:36.899.15-Aug-2021 3437.50 4666.57 57.99 1.00  72.21 3289.56
   06:53:37.099.15-Aug-2021 3437.50 4654.41 57.98 1.00  72.41 3289.56
   06:53:37.299.15-Aug-2021 3437.50 4640.16 57.98 1.00  72.61 3289.56
   06:53:37.499.15-Aug-2021 3437.50 4629.17 57.98 1.00  72.81 3289.56
   06:53:37.699.15-Aug-2021 3437.50 4627.10 57.98 1.00  73.01 3289.56
   06:53:37.899.15-Aug-2021 3437.50 4627.10 57.98 1.00  73.21 3289.56
   06:53:38.099.15-Aug-2021 3437.50 4625.28 57.97 1.00  73.41 3289.56
   06:53:38.299.15-Aug-2021 3437.50 4616.70 57.97 1.00  73.61 3289.56
   06:53:38.499.15-Aug-2021 3437.50 4611.87 57.97 1.00  73.81 3289.56
   06:53:38.699.15-Aug-2021 3437.50 4611.93 57.97 1.00  74.01 3289.56
   06:53:38.899.15-Aug-2021 3437.50 4611.93 57.97 1.00  74.21 3289.56
   06:53:39.099.15-Aug-2021 3437.50 4612.46 57.96 1.00  74.41 3289.56
   06:53:39.299.15-Aug-2021 3437.50 4611.55 57.96 1.00  74.61 3289.56
   06:53:39.499.15-Aug-2021 3437.50 4610.86 57.96 1.00  74.81 3289.56
   06:53:39.699.15-Aug-2021 3437.50 4611.65 57.96 1.00  75.01 3289.56
   06:53:39.899.15-Aug-2021 3437.50 4611.65 57.96 1.00  75.21 3289.56
   06:53:40.099.15-Aug-2021 3437.50 4609.34 57.95 1.00  75.41 3289.56
   06:53:40.299.15-Aug-2021 3437.50 4606.16 57.95 1.00  75.61 3289.56
   06:53:40.499.15-Aug-2021 3437.50 4602.53 57.95 1.00  75.81 3289.56
   06:53:40.699.15-Aug-2021 3437.50 4601.80 57.95 1.00  76.01 3289.56
   06:53:40.899.15-Aug-2021 3437.50 4601.80 57.95 1.00  76.21 3289.56
   06:53:41.099.15-Aug-2021 3437.50 4597.38 57.95 1.00  76.41 3289.56
   06:53:41.299.15-Aug-2021 3437.50 4594.24 57.94 1.00  76.61 3289.56
   06:53:41.499.15-Aug-2021 3437.50 4721.56 57.94 1.00  76.81 3289.56
   06:53:41.699.15-Aug-2021 3437.50 4965.44 57.94 1.00  77.01 3289.56
   06:53:41.899.15-Aug-2021 3437.50 4965.44 57.94 1.00  77.21 3289.56
   06:53:42.099.15-Aug-2021 3437.50 4965.44 57.94 1.00  77.41 3289.56
   06:53:42.299.15-Aug-2021 3437.50 5167.95 57.94 1.00  77.61 3289.56
   06:53:42.499.15-Aug-2021 3437.50 5184.82 57.94 1.00  77.81 3289.56
   06:53:42.699.15-Aug-2021 3437.50 5194.64 57.94 1.00  78.01 3289.56
   06:53:42.899.15-Aug-2021 3437.50 5194.64 57.94 1.00  78.21 3289.56
   06:53:43.099.15-Aug-2021 3437.50 5203.30 57.94 1.00  78.41 3289.56
   06:53:43.299.15-Aug-2021 3437.50 5206.29 57.94 1.00  78.61 3289.56
   06:53:43.499.15-Aug-2021 3437.50 5207.49 57.94 1.00  78.81 3289.56
   06:53:43.699.15-Aug-2021 3437.50 5209.27 57.94 1.00  79.01 3289.56
   06:53:43.899.15-Aug-2021 3437.50 5209.27 57.94 1.00  79.21 3289.56
   06:53:44.099.15-Aug-2021 3437.50 5211.00 57.94 1.00  79.41 3289.56
   06:53:44.299.15-Aug-2021 3437.50 5211.67 57.93 1.00  79.61 3289.56
   06:53:44.499.15-Aug-2021 3437.50 5212.06 57.93 1.00  79.81 3289.56
   06:53:44.699.15-Aug-2021 3437.50 5212.64 57.93 1.00  80.01 3289.56
   06:53:44.899.15-Aug-2021 3437.50 5212.64 57.93 1.00  80.21 3289.56
   06:53:45.099.15-Aug-2021 3437.50 5213.43 57.93 1.00  80.41 3289.56
   06:53:45.299.15-Aug-2021 3437.50 5213.75 57.93 1.00  80.61 3289.56
   06:53:45.499.15-Aug-2021 3437.50 5214.12 57.93 1.00  80.81 3289.56
   06:53:45.699.15-Aug-2021 3437.50 5214.72 57.94 1.00  81.01 3289.56
   06:53:45.899.15-Aug-2021 3437.50 5214.72 57.94 1.00  81.21 3289.56
   06:53:46.099.15-Aug-2021 3437.50 5215.39 57.94 1.00  81.41 3289.56
   06:53:46.299.15-Aug-2021 3437.50 5215.66 57.94 1.00  81.61 3289.56
   06:53:46.499.15-Aug-2021 3437.50 5216.04 57.94 1.00  81.81 3289.56
   06:53:46.699.15-Aug-2021 3437.50 5216.35 57.94 1.00  82.01 3289.56
   06:53:46.899.15-Aug-2021 3437.50 5216.35 57.94 1.00  82.21 3289.56
   06:53:47.099.15-Aug-2021 3437.50 5217.07 57.94 1.00  82.41 3289.56
   06:53:47.299.15-Aug-2021 3437.50 5217.27 57.94 1.00  82.61 3289.56
   06:53:47.499.15-Aug-2021 3437.50 5217.60 57.94 1.00  82.81 3289.56
   06:53:47.699.15-Aug-2021 3437.50 5217.74 57.94 1.00  83.01 3289.56
   06:53:47.899.15-Aug-2021 3437.50 5217.74 57.94 1.00  83.21 3289.56
   06:53:48.099.15-Aug-2021 3437.50 5218.42 57.94 1.00  83.41 3289.56
   06:53:48.299.15-Aug-2021 3437.50 5218.62 57.94 1.00  83.61 3289.56
   06:53:48.499.15-Aug-2021 3437.50 5218.94 57.94 1.00  83.81 3289.56
   06:53:48.699.15-Aug-2021 3437.50 5219.02 57.94 1.00  84.01 3289.56
   06:53:48.899.15-Aug-2021 3437.50 5219.02 57.94 1.00  84.21 3289.56
   06:53:49.100.15-Aug-2021 3437.50 5219.33 57.94 1.00  84.41 3289.56
   06:53:49.300.15-Aug-2021 3437.50 5219.86 57.94 1.00  84.61 3289.56
   06:53:49.500.15-Aug-2021 3437.50 5219.91 57.94 1.00  84.81 3289.56
   06:53:49.700.15-Aug-2021 3437.50 5220.25 57.94 1.00  85.01 3289.56
   06:53:49.900.15-Aug-2021 3437.50 5220.25 57.94 1.00  85.21 3289.56
   06:53:50.100.15-Aug-2021 3437.50 5220.62 57.94 1.00  85.41 3289.56
   06:53:50.300.15-Aug-2021 3437.50 5221.26 57.94 1.00  85.61 3289.56
   06:53:50.500.15-Aug-2021 3437.50 5221.13 57.94 1.00  85.81 3289.56
   06:53:50.700.15-Aug-2021 3437.50 5222.10 57.94 1.00  86.01 3289.56
   06:53:50.900.15-Aug-2021 3437.50 5222.10 57.94 1.00  86.21 3289.56
   06:53:51.100.15-Aug-2021 3437.50 5222.57 57.94 1.00  86.41 3289.56
   06:53:51.300.15-Aug-2021 3437.50 5222.63 57.94 1.00  86.61 3289.56
   06:53:51.500.15-Aug-2021 3437.50 5222.97 57.94 1.00  86.81 3289.56
   06:53:51.700.15-Aug-2021 3437.50 5223.15 57.94 1.00  87.01 3289.56
   06:53:51.900.15-Aug-2021 3437.50 5223.15 57.94 1.00  87.21 3289.56
   06:53:52.100.15-Aug-2021 3437.50 5223.74 57.94 1.00  87.41 3289.56
   06:53:52.300.15-Aug-2021 3437.50 5223.32 57.94 1.00  87.61 3289.56
   06:53:52.500.15-Aug-2021 3437.50 5223.74 57.94 1.00  87.81 3289.56
   06:53:52.700.15-Aug-2021 3437.50 5223.48 57.94 1.00  88.01 3289.56
   06:53:52.900.15-Aug-2021 3437.50 5223.48 57.94 1.00  88.21 3289.56
   06:53:53.100.15-Aug-2021 3437.50 5223.60 57.94 1.00  88.41 3289.56
   06:53:53.300.15-Aug-2021 3437.50 5223.56 57.94 1.00  88.61 3289.56
   06:53:53.500.15-Aug-2021 3437.50 5223.53 57.95 1.00  88.81 3289.56
   06:53:53.700.15-Aug-2021 3437.50 5223.49 57.95 1.00  89.01 3289.56
   06:53:53.900.15-Aug-2021 3437.50 5223.49 57.95 1.00  89.21 3289.56
   06:53:54.100.15-Aug-2021 3437.50 5223.62 57.95 1.00  89.41 3289.56
   06:53:54.300.15-Aug-2021 3437.50 5223.98 57.95 1.00  89.61 3289.56
   06:53:54.500.15-Aug-2021 3437.50 5223.74 57.95 1.00  89.81 3289.56
   06:53:54.700.15-Aug-2021 3437.50 5223.80 57.95 1.00  90.01 3289.56
   06:53:54.900.15-Aug-2021 3437.50 5223.80 57.95 1.00  90.21 3289.56
   06:53:55.100.15-Aug-2021 3437.50 5223.99 57.95 1.00  90.41 3289.56
   06:53:55.300.15-Aug-2021 3437.50 5224.75 57.95 1.00  90.61 3289.56
   06:53:55.500.15-Aug-2021 3437.50 5224.37 57.95 1.00  90.81 3289.56
   06:53:55.700.15-Aug-2021 3437.50 5224.16 57.95 1.00  91.01 3289.56
   06:53:55.900.15-Aug-2021 3437.50 5224.16 57.95 1.00  91.21 3289.56
   06:53:56.100.15-Aug-2021 3437.50 5224.58 57.95 1.00  91.41 3289.56
   06:53:56.300.15-Aug-2021 3437.50 5224.30 57.95 1.00  91.61 3289.56
   06:53:56.500.15-Aug-2021 3437.50 5224.75 57.95 1.00  91.81 3289.56
