~Version Information
 VERS.                  2.0:   CWLS log ASCII Standard -VERSION 2.0
 WRAP.                   NO:   One line per depth step
~Well Information Block
#MNEM.UNIT     VALUE/NAME     DESCRIPTION
#---------     -----------    ---------------------------
 STRT.S             09:29:08 15-Aug-21: START TIME 09:29:08 15-Aug-21
 STOP.S             09:37:37 15-Aug-21: STOP TIME  09:37:37 15-Aug-21
 STEP.S                   0.00: STEP TIME
 NULL.                 -999.25: NULL VALUE
 DFWT.                        :  DIST FWL TEXT
 DFST.                        :  DIST FSL TEXT
 DMF .             Drill Floor:  DRILL MEAS FROM
 STIM.      17.18.56 20-Jun-21:  START TIME
 DATE.      17.18.56 20-Aug-21:  END TIME
 SPUD.               20-Jun-21:  SPUD DATE
 NREF.                    Grid:  NORTH REFERENCE
 HPTY.       Minimum Curvature:  HOLE POS TYPE
 DMOD.             Drill Model:  DRILL MOD DESC
 SVYD.                  Survey:  SURVEY DESC
 ILTD.               Lithology:  INTERP LTH DESC
 FTOP.          Formation Tops:  FORM TOPS DESC
 SON .        AZ-XX-0907056190:  JOB NUMBER
 PDAT.       Caspian Sea Level:  PERMANENT DATUM
 WTYP.                Deviated:  WELL TYPE
 MDS .        Operator Entered:  MAG DATA SOURCE
 COMP.     BP Exploration (Caspian Sea) Ltd.:  COMPANY
 UWI .            /AZE20000092:  UNIQUE WELL IDENTIFIER
 API .            /AZE20000092:  API NUMBER
 BASE.              Azerbaijan:  LOGGING EQUIPMENT BASE LOCATION
 REGN.                   EESSA:  REGION
 PROV.                    baku:  PROVINCE
 STAT.                    baku:  STATE NAME
 CTRY.              Azerbaijan:  COUNTRY NAME
 FLD .                     ACG:  FIELD NAME
 SRVC.          Turan Drilling:  CONTRACTOR
 MWDS.                    Baku:  MWD SHOP
 WELL.                     J26:  WELL NAME
 JOBN.        AZ-XX-0907056190:  JOB TICKET NUMB
 RIG .             West Chirag:  RIG NAME
 DOE .                     N/A:  DOE NUMBER
 DCON.         Sperry Drilling:  DIRECTNL CONTR
 UNIT.                     N/A:  LOGGING EQUIPMENT ID
 CNTY.                        :  COUNTY
 LOC .                        :  LOCATION
 LMF .             Drill Floor:  LOG MEASURED FROM
 TVDS.m                  43.00:  TVDSS CORRECTN
 LATI.deg                40.13:  LATITUDE
 LONG.deg                51.22:  LONGITUDE
 WHNS.m                  -7.12:  WELL HEAD N/S
 WHEW.m                  -9.46:  WELL HEAD E/W
 UTMX.m              519004.02:  UTM X
 UTMY.m             4443784.96:  UTM Y
 DFWL.m                   0.00:  DISTANCE FWL
 DFSL.m                   0.00:  DISTANCE FSL
 SDEP.m                 464.00:  START DEPTH
 TDD .m                3500.00:  TOTAL DEPTH (DRILLER)
 VSDR.deg               114.35:  VERT SEC DIRECT
 GVFD.g                   1.00:  GRAVITY FIELD
 MFLD.nT              50386.00:  MAGNETIC FIELD
 MDIP.deg                59.63:  MAGNETIC DIP
 MDEC.deg                 6.43:  MAGNETIC DECL
 GRDC.deg                 0.15:  GRID CORRECTION
 AZTC.deg                 6.29:  AZM TOTAL CORR
 EPD .m                   0.00:  ELEVATION
 EGL .m                   0.00:  GROUND ELEVATION
 WDMS.m                 169.80:  WD ELEV
 APD .m                  43.00:  DEPTH ABOVE PD
 VSEW.m                  -9.46:  VERT SEC E/W
 VSNS.m                  -7.12:  VERT SEC N/S
 AGAP.m                  43.00:  AIR GAP
 DEP .m                 356.16:  DEPTH
 EKB .m                  43.00:  KB ELEVATION
 EDF .m                  43.00:  DF ELEVATION
 TDL .m                 699.00:  TOTAL DEPTH (LOGGER)
 VSC .                       0:  VS TO CLOSURE
 MAGU.                 1853727:  MAGUTM CHECKSUM
~Parameter Information Block
#MNEM.UNIT       Value        Description
#---------     -----------    ---------------------------
 AV  .mps                 1.30:  Ann Velocity 
 AVMX.mps                 1.67:  Max Ann Veloc 
 AZIF.deg               280.40:  Azm, Final 
 BHAT.        Rotary Steerable:  BHA Type 
 BREV.rev            528970.00:  Rev Bit Total 
 BROT.°/30m               1.00:  Build Rotating 
 BS  .in                 12.25:  Bit Size 
 BSZ .in                 12.25:  Bit Size 
 BTPL.psig              738.00:  Bit Press Loss 
 CABU.                     Yes:  Customer Abuse 
 CGEO.        Elvin Suleymanov:  Customer Geo 
 COMM.                     œR:  Run Comments 1 
 TCS .hr                 66.05:  Time Ciculation Ended 
 CV  .mps                 2.20:  Crit Velocity 
 CVMX.mps                 2.56:  Max Crit Veloc 
 DD1 .          Rashad Habibov:  Direct Drillr 1 
 DD2 .            Azer ravanov:  Direct Drillr 2 
 DD3 .           Teymur Agayev:  Direct Drillr 3 
 DDSV.               Geo-Pilot:  DD Service 
 DEFF.%                  90.00:  % Det Eff 
 DLRX.°/30m               2.95:  Dogleg Rot Max 
 DLSO.°/30m               1.00:  Dogleg Oriented 
 DLSX.°/30m               2.95:  Dogleg Str Max 
 DRET.      11.42.20 11-Aug-21:  Drill End Time 
 DRST.      23.03.20 08-Aug-21:  Drill Start Tim 
 DTIM.hr                 45.50:  Time Drilling 
 EDEP.m                3488.00:  End Depth 
 ENG1.         Marcelo Marcari:  Engineer 1 
 ENG2.         Dair Mahammadov:  Engineer 2 
 ENG3.       Davud Huseyn-zada:  Engineer 3 
 ENG4.         Yevgeniy Ulikov:  Engineer 4 
 ETIM.      17.45.20 17-Aug-21:  End Time 
 FLOI.gpm              1197.70:  Flow In 
 FLON.gpm              1100.00:  Flow In Min 
 FLOS.cptm                0.00:  Fluid Loss 
 FLOX.gpm              1200.00:  Flow In Max 
 DFT .        Mineral Oil Base:  Mud Type 
 FTRO.       Formation Presure:  FTWD Run Obj 
 HFLO.                      No:  High Flow 
 HPRE.                      No:  High Pressure 
 HTEM.                      No:  High Temp 
 HYDO.m                   1.80:  Hydro Offset 
 IFIN.deg                 9.87:  Inc, Final 
 IMAX.deg                19.96:  Inc Max 
 IMIN.deg                 3.82:  Inc Min 
 IMND.m                3257.42:  Inc Min Depth 
 IMXD.m                2945.53:  Inc Max Depth 
 JARR.                      No:  Jarring 
 LETM.      11.42.20 11-Aug-21:  Log End Time 
 LOST.hr                     0:  Lost Rig Time 
 LSTM.      23.03.20 08-Aug-21:  Log Start Time 
 MDCL.ppm             42500.00:  Mud Chlorides 
 MDES.     Inversion Oil/Synthetic:  Mud Desc 
 DFD .sg                  1.45:  Mud Density 
 MDMN.sg                  1.39:  Dens Mud Min 
 MDMX.sg                  1.57:  Dens Mud Max 
 MOIL.                   53.20:  Run Mud Oil % 
 MOWR.                   70:30:  Run Mud OWR 
 MSND.                       0:  Run Mud Sand % 
 MSOL.                   24.30:  Run Mud Solids% 
 DFV .spqt               79.00:  Mud Viscosity 
 MWOD.in                  8.00:  MWD Tool OD 
 MWSI.                      No:  Serv Intrp, MWD 
 OTIM.hr                253.06:  Time Operating 
 PCON.           Look Like New:  Pad Condition 
 PMAX.psia            11068.93:  Press Op, Max 
 PV  .cP                 36.00:  Mud PV 
 RUN .                    1000:  Run Number 
 ROPA.m/hr               15.34:  ROP Avg 
 ROPN.m/hr                4.00:  ROP Min 
 ROPX.m/hr               31.00:  ROP Max 
 RPMA.rpm               151.40:  RPM Surface Avg 
 RPMN.rpm               120.00:  RPM Surface Min 
 RPMX.rpm               160.00:  RPM Surface Max 
 RRUN.                    L505:  Rig Run Number 
 RTIM.hr                 10.00:  Time Reaming 
 SAZI.deg                88.92:  Azm, Start 
 SDEP.m                2789.00:  Start Depth 
 SIDD.                      No:  Serv Intrp, DD 
 SINC.deg                19.84:  Inc, Start 
 SPPA.psig             4421.39:  SPP Avg 
 SPPN.psig             4130.00:  SPP Min 
 SPPX.psig             4800.00:  SPP Max 
 STIM.      01.25.20 07-Aug-21:  Start Time 
 SVCS.                 DD, MWD:  Services 
 SVER.                    9.20:  Sperry Version 
 TDAT.m                 699.00:  Tot Depth Attmp 
 TDDF.                      No:  Trip for DD 
 TDLG.m                 699.00:  Tot Depth Loggd 
 TFF .                      No:  Trip for Fail 
 TQAA.f-kp               20.55:  Torque Abs Avg 
 TQAN.f-kp               15.00:  Torque Abs Min 
 TQAX.f-kp               24.00:  Torque Abs Max 
 TRRT.°/30m               0.50:  Turn Rotating 
 MRT .                    HCIM:  Maximum Recorded Temperature 
 TTMX.degC               82.35:  Max Tool Temp 
 VS01.                90654677:  Virtual Str1 SN 
 VS02.                90636294:  Virtual Str2 SN 
 VS03.                90653866:  Virtual Str3 SN 
 VS04.                90654674:  Virtual Str4 SN 
 WBMN.klb                10.00:  WOB Min 
 WITN.         Haytham Mostafa:  Customer Rep 
 WITN.           Rufat Babayev:  Customer Rep 2 
 WOBA.klb                22.43:  WOB Avg 
 WOBX.klb                35.00:  WOB Max 
 YP  .lhf2               32.00:  Yield Point 
~Curve Information Block
#MNEM.UNIT                 API CODE     Curve Description
#---------               -----------    ---------------------------
 TIME.HHMMSS            00 000 000 000:  GT Time & Date
 GTDEPTH.m              00 000 000 000:  GT Depth
 GTPQH.psia             00 000 000 000:  GT HR Quartz Pressure
 GTTQ.degC              00 000 000 000:  GT Quartz Temperature
 GTTN.NONE              00 000 000 000:  GT Test Number
 GTET.sec               00 000 000 000:  GT Elapsed Test Time
 GTTVD.m                00 000 000 000:  GT True Vertical Depth
#Other Information
#
#WARRANTY: Halliburton will use its best efforts to furnish customers with 
#accurate information and interpretations that are part of, and incident to, the services 
#provided.  However, Halliburton cannot and does not warrant the accuracy 
#or correctness of such information and interpretations.  Under no circumstances should any 
#such information or interpretation be relied upon as the sole basis for any drilling, 
#completion, production, or financial decision or any procedure involving any risk to the 
#safety of any drilling venture, drilling rig or its crew or any other third party.  The 
#Customer has full responsibility for all drilling, completion and production operation.  
#Halliburton makes no representations or warranties, either expressed or 
#implied, including, but not limited to, the implied warranties of merchantability or fitness 
#for a particular purpose, with respect to the services rendered.  In no event will 
#Halliburton be liable for failure to obtain any particular results or for 
#any damages, including, but not limited to, indirect, special or consequential damages, 
#resulting from the use of any information or interpretation provided by Halliburton.
#
~A           TIME           GTDEPTH  GTPQH  GTTQ  GTTN  GTET   GTTVD  
# ...
   09:29:31.834.15-Aug-2021 3421.80 7490.21 55.19 3.00  23.00 3274.11
   09:29:32.034.15-Aug-2021 3421.80 7490.21 55.19 3.00  23.20 3274.11
   09:29:32.235.15-Aug-2021 3421.80 7491.32 55.19 3.00  23.40 3274.11
   09:29:32.435.15-Aug-2021 3421.80 7489.61 55.19 3.00  23.60 3274.11
   09:29:32.635.15-Aug-2021 3421.80 7490.57 55.19 3.00  23.80 3274.11
   09:29:32.835.15-Aug-2021 3421.80 7490.53 55.19 3.00  24.00 3274.11
   09:29:33.035.15-Aug-2021 3421.80 7490.53 55.19 3.00  24.20 3274.11
   09:29:33.235.15-Aug-2021 3421.80 7489.49 55.19 3.00  24.40 3274.11
   09:29:33.435.15-Aug-2021 3421.80 7489.95 55.19 3.00  24.60 3274.11
   09:29:33.635.15-Aug-2021 3421.80 7490.53 55.19 3.00  24.80 3274.11
   09:29:33.835.15-Aug-2021 3421.80 7490.84 55.19 3.00  25.00 3274.11
   09:29:34.035.15-Aug-2021 3421.80 7490.84 55.19 3.00  25.20 3274.11
   09:29:34.235.15-Aug-2021 3421.80 7490.84 55.19 3.00  25.40 3274.11
   09:29:34.435.15-Aug-2021 3421.80 7488.79 55.19 3.00  25.60 3274.11
   09:29:34.635.15-Aug-2021 3421.80 7488.80 55.19 3.00  25.80 3274.11
   09:29:34.835.15-Aug-2021 3421.80 7489.03 55.19 3.00  26.00 3274.11
   09:29:35.035.15-Aug-2021 3421.80 7489.03 55.19 3.00  26.20 3274.11
   09:29:35.235.15-Aug-2021 3421.80 7491.08 55.19 3.00  26.40 3274.11
   09:29:35.435.15-Aug-2021 3421.80 7491.10 55.19 3.00  26.60 3274.11
   09:29:35.635.15-Aug-2021 3421.80 7490.24 55.19 3.00  26.80 3274.11
   09:29:35.835.15-Aug-2021 3421.80 7488.91 55.19 3.00  27.00 3274.11
   09:29:36.035.15-Aug-2021 3421.80 7488.91 55.19 3.00  27.20 3274.11
   09:29:36.235.15-Aug-2021 3421.80 7492.52 55.19 3.00  27.40 3274.11
   09:29:36.435.15-Aug-2021 3421.80 7490.40 55.19 3.00  27.60 3274.11
   09:29:36.635.15-Aug-2021 3421.80 7488.94 55.19 3.00  27.80 3274.11
   09:29:36.835.15-Aug-2021 3421.80 7489.65 55.19 3.00  28.00 3274.11
   09:29:37.035.15-Aug-2021 3421.80 7489.65 55.19 3.00  28.20 3274.11
   09:29:37.235.15-Aug-2021 3421.80 7491.82 55.19 3.00  28.40 3274.11
   09:29:37.435.15-Aug-2021 3421.80 7491.23 55.19 3.00  28.60 3274.11
   09:29:37.635.15-Aug-2021 3421.80 7491.20 55.19 3.00  28.80 3274.11
   09:29:37.835.15-Aug-2021 3421.80 7491.35 55.19 3.00  29.00 3274.11
   09:29:38.035.15-Aug-2021 3421.80 7491.35 55.19 3.00  29.20 3274.11
   09:29:38.235.15-Aug-2021 3421.80 7490.04 55.19 3.00  29.40 3274.11
   09:29:38.436.15-Aug-2021 3421.80 7489.15 55.19 3.00  29.60 3274.11
   09:29:38.636.15-Aug-2021 3421.80 7490.47 55.19 3.00  29.80 3274.11
   09:29:38.836.15-Aug-2021 3421.80 7491.19 55.19 3.00  30.00 3274.11
   09:29:39.036.15-Aug-2021 3421.80 7491.19 55.19 3.00  30.20 3274.11
   09:29:39.236.15-Aug-2021 3421.80 7491.03 55.19 3.00  30.40 3274.11
   09:29:39.436.15-Aug-2021 3421.80 7489.59 55.19 3.00  30.61 3274.11
   09:29:39.636.15-Aug-2021 3421.80 7491.86 55.19 3.00  30.81 3274.11
   09:29:39.836.15-Aug-2021 3421.80 7491.09 55.19 3.00  31.01 3274.11
   09:29:40.036.15-Aug-2021 3421.80 7491.09 55.19 3.00  31.21 3274.11
   09:29:40.236.15-Aug-2021 3421.80 7489.83 55.19 3.00  31.41 3274.11
   09:29:40.436.15-Aug-2021 3421.80 7491.63 55.19 3.00  31.61 3274.11
   09:29:40.636.15-Aug-2021 3421.80 7491.95 55.19 3.00  31.81 3274.11
   09:29:40.836.15-Aug-2021 3421.80 7491.72 55.19 3.00  32.01 3274.11
   09:29:41.036.15-Aug-2021 3421.80 7491.72 55.19 3.00  32.21 3274.11
   09:29:41.236.15-Aug-2021 3421.80 7490.27 55.19 3.00  32.41 3274.11
   09:29:41.436.15-Aug-2021 3421.80 7489.59 55.19 3.00  32.61 3274.11
   09:29:41.636.15-Aug-2021 3421.80 7492.30 55.19 3.00  32.81 3274.11
   09:29:41.836.15-Aug-2021 3421.80 7492.00 55.19 3.00  33.01 3274.11
   09:29:42.036.15-Aug-2021 3421.80 7492.00 55.19 3.00  33.21 3274.11
   09:29:42.236.15-Aug-2021 3421.80 7490.09 55.19 3.00  33.41 3274.11
   09:29:42.436.15-Aug-2021 3421.80 7489.77 55.19 3.00  33.61 3274.11
   09:29:42.636.15-Aug-2021 3421.80 7491.24 55.19 3.00  33.81 3274.11
   09:29:42.836.15-Aug-2021 3421.80 7491.42 55.19 3.00  34.01 3274.11
   09:29:43.036.15-Aug-2021 3421.80 7491.42 55.19 3.00  34.21 3274.11
   09:29:43.236.15-Aug-2021 3421.80 7491.48 55.19 3.00  34.41 3274.11
   09:29:43.436.15-Aug-2021 3421.80 7491.75 55.19 3.00  34.61 3274.11
   09:29:43.636.15-Aug-2021 3421.80 7491.78 55.19 3.00  34.81 3274.11
   09:29:43.836.15-Aug-2021 3421.80 7491.02 55.19 3.00  35.01 3274.11
   09:29:44.036.15-Aug-2021 3421.80 7491.02 55.19 3.00  35.21 3274.11
   09:29:44.236.15-Aug-2021 3421.80 7491.07 55.19 3.00  35.41 3274.11
   09:29:44.437.15-Aug-2021 3421.80 7489.96 55.19 3.00  35.61 3274.11
   09:29:44.637.15-Aug-2021 3421.80 7491.71 55.19 3.00  35.81 3274.11
   09:29:44.837.15-Aug-2021 3421.80 7492.04 55.19 3.00  36.01 3274.11
   09:29:45.037.15-Aug-2021 3421.80 7492.04 55.19 3.00  36.21 3274.11
   09:29:45.237.15-Aug-2021 3421.80 7491.09 55.19 3.00  36.41 3274.11
   09:29:45.437.15-Aug-2021 3421.80 7491.09 55.19 3.00  36.61 3274.11
   09:29:45.637.15-Aug-2021 3421.80 7491.72 55.19 3.00  36.81 3274.11
   09:29:45.837.15-Aug-2021 3421.80 7488.96 55.18 3.00  37.01 3274.11
   09:29:46.037.15-Aug-2021 3421.80 7488.96 55.18 3.00  37.21 3274.11
   09:29:46.237.15-Aug-2021 3421.80 7490.49 55.18 3.00  37.41 3274.11
   09:29:46.437.15-Aug-2021 3421.80 7491.48 55.18 3.00  37.61 3274.11
   09:29:46.637.15-Aug-2021 3421.80 7491.84 55.18 3.00  37.81 3274.11
   09:29:46.837.15-Aug-2021 3421.80 7491.41 55.18 3.00  38.01 3274.11
   09:29:47.037.15-Aug-2021 3421.80 7491.41 55.18 3.00  38.21 3274.11
   09:29:47.237.15-Aug-2021 3421.80 7493.37 55.18 3.00  38.41 3274.11
   09:29:47.437.15-Aug-2021 3421.80 7490.08 55.18 3.00  38.61 3274.11
   09:29:47.637.15-Aug-2021 3421.80 7491.24 55.18 3.00  38.81 3274.11
   09:29:47.837.15-Aug-2021 3421.80 7489.96 55.18 3.00  39.01 3274.11
   09:29:48.037.15-Aug-2021 3421.80 7489.96 55.18 3.00  39.21 3274.11
   09:29:48.237.15-Aug-2021 3421.80 7489.79 55.18 3.00  39.41 3274.11
   09:29:48.437.15-Aug-2021 3421.80 7491.35 55.18 3.00  39.61 3274.11
   09:29:48.637.15-Aug-2021 3421.80 7494.87 55.18 3.00  39.81 3274.11
   09:29:48.837.15-Aug-2021 3421.80 7489.36 55.18 3.00  40.01 3274.11
   09:29:49.037.15-Aug-2021 3421.80 7489.36 55.18 3.00  40.21 3274.11
   09:29:49.237.15-Aug-2021 3421.80 7489.34 55.18 3.00  40.41 3274.11
   09:29:49.437.15-Aug-2021 3421.80 7494.43 55.18 3.00  40.61 3274.11
   09:29:49.637.15-Aug-2021 3421.80 7490.63 55.18 3.00  40.81 3274.11
   09:29:49.837.15-Aug-2021 3421.80 7490.77 55.18 3.00  41.01 3274.11
   09:29:50.037.15-Aug-2021 3421.80 7490.77 55.18 3.00  41.21 3274.11
   09:29:50.237.15-Aug-2021 3421.80 7491.57 55.18 3.00  41.41 3274.11
   09:29:50.437.15-Aug-2021 3421.80 7490.92 55.18 3.00  41.61 3274.11
   09:29:50.638.15-Aug-2021 3421.80 7490.83 55.18 3.00  41.81 3274.11
   09:29:50.838.15-Aug-2021 3421.80 7489.71 55.18 3.00  42.01 3274.11
   09:29:51.038.15-Aug-2021 3421.80 7489.71 55.18 3.00  42.21 3274.11
   09:29:51.238.15-Aug-2021 3421.80 7489.93 55.18 3.00  42.41 3274.11
   09:29:51.438.15-Aug-2021 3421.80 7491.26 55.18 3.00  42.61 3274.11
   09:29:51.638.15-Aug-2021 3421.80 7492.07 55.18 3.00  42.81 3274.11
   09:29:51.838.15-Aug-2021 3421.80 7490.31 55.18 3.00  43.01 3274.11
   09:29:52.038.15-Aug-2021 3421.80 7490.31 55.18 3.00  43.21 3274.11
   09:29:52.238.15-Aug-2021 3421.80 7488.86 55.18 3.00  43.41 3274.11
   09:29:52.438.15-Aug-2021 3421.80 7491.45 55.18 3.00  43.61 3274.11
   09:29:52.638.15-Aug-2021 3421.80 7491.48 55.18 3.00  43.81 3274.11
   09:29:52.838.15-Aug-2021 3421.80 7491.27 55.18 3.00  44.01 3274.11
   09:29:53.038.15-Aug-2021 3421.80 7490.92 55.18 3.00  44.21 3274.11
   09:29:53.238.15-Aug-2021 3421.80 7490.79 55.18 3.00  44.41 3274.11
   09:29:53.438.15-Aug-2021 3421.80 7491.25 55.18 3.00  44.61 3274.11
   09:29:53.638.15-Aug-2021 3421.80 7490.26 55.18 3.00  44.81 3274.11
   09:29:53.838.15-Aug-2021 3421.80 7492.36 55.18 3.00  45.01 3274.11
   09:29:54.038.15-Aug-2021 3421.80 7492.36 55.18 3.00  45.21 3274.11
   09:29:54.238.15-Aug-2021 3421.80 7492.36 55.18 3.00  45.41 3274.11
   09:29:54.438.15-Aug-2021 3421.80 7490.01 55.18 3.00  45.61 3274.11
   09:29:54.638.15-Aug-2021 3421.80 7490.96 55.18 3.00  45.81 3274.11
