~Version Information
 VERS.                  2.0:   CWLS log ASCII Standard -VERSION 2.0
 WRAP.                   NO:   One line per depth step
~Well Information Block
#MNEM.UNIT     VALUE/NAME     DESCRIPTION
#---------     -----------    ---------------------------
 STRT.S             12:25:56 15-Aug-21: START TIME 12:25:56 15-Aug-21
 STOP.S             12:39:05 15-Aug-21: STOP TIME  12:39:05 15-Aug-21
 STEP.S                   0.00: STEP TIME
 NULL.                 -999.25: NULL VALUE
 DFWT.                        :  DIST FWL TEXT
 DFST.                        :  DIST FSL TEXT
 DMF .             Drill Floor:  DRILL MEAS FROM
 STIM.      17.18.56 20-Jun-21:  START TIME
 DATE.      17.18.56 20-Aug-21:  END TIME
 SPUD.               20-Jun-21:  SPUD DATE
 NREF.                    Grid:  NORTH REFERENCE
 HPTY.       Minimum Curvature:  HOLE POS TYPE
 DMOD.             Drill Model:  DRILL MOD DESC
 SVYD.                  Survey:  SURVEY DESC
 ILTD.               Lithology:  INTERP LTH DESC
 FTOP.          Formation Tops:  FORM TOPS DESC
 SON .        AZ-XX-0907056190:  JOB NUMBER
 PDAT.       Caspian Sea Level:  PERMANENT DATUM
 WTYP.                Deviated:  WELL TYPE
 MDS .        Operator Entered:  MAG DATA SOURCE
 COMP.     BP Exploration (Caspian Sea) Ltd.:  COMPANY
 UWI .            /AZE20000092:  UNIQUE WELL IDENTIFIER
 API .            /AZE20000092:  API NUMBER
 BASE.              Azerbaijan:  LOGGING EQUIPMENT BASE LOCATION
 REGN.                   EESSA:  REGION
 PROV.                    baku:  PROVINCE
 STAT.                    baku:  STATE NAME
 CTRY.              Azerbaijan:  COUNTRY NAME
 FLD .                     ACG:  FIELD NAME
 SRVC.          Turan Drilling:  CONTRACTOR
 MWDS.                    Baku:  MWD SHOP
 WELL.                     J26:  WELL NAME
 JOBN.        AZ-XX-0907056190:  JOB TICKET NUMB
 RIG .             West Chirag:  RIG NAME
 DOE .                     N/A:  DOE NUMBER
 DCON.         Sperry Drilling:  DIRECTNL CONTR
 UNIT.                     N/A:  LOGGING EQUIPMENT ID
 CNTY.                        :  COUNTY
 LOC .                        :  LOCATION
 LMF .             Drill Floor:  LOG MEASURED FROM
 TVDS.m                  43.00:  TVDSS CORRECTN
 LATI.deg                40.13:  LATITUDE
 LONG.deg                51.22:  LONGITUDE
 WHNS.m                  -7.12:  WELL HEAD N/S
 WHEW.m                  -9.46:  WELL HEAD E/W
 UTMX.m              519004.02:  UTM X
 UTMY.m             4443784.96:  UTM Y
 DFWL.m                   0.00:  DISTANCE FWL
 DFSL.m                   0.00:  DISTANCE FSL
 SDEP.m                 464.00:  START DEPTH
 TDD .m                3500.00:  TOTAL DEPTH (DRILLER)
 VSDR.deg               114.35:  VERT SEC DIRECT
 GVFD.g                   1.00:  GRAVITY FIELD
 MFLD.nT              50386.00:  MAGNETIC FIELD
 MDIP.deg                59.63:  MAGNETIC DIP
 MDEC.deg                 6.43:  MAGNETIC DECL
 GRDC.deg                 0.15:  GRID CORRECTION
 AZTC.deg                 6.29:  AZM TOTAL CORR
 EPD .m                   0.00:  ELEVATION
 EGL .m                   0.00:  GROUND ELEVATION
 WDMS.m                 169.80:  WD ELEV
 APD .m                  43.00:  DEPTH ABOVE PD
 VSEW.m                  -9.46:  VERT SEC E/W
 VSNS.m                  -7.12:  VERT SEC N/S
 AGAP.m                  43.00:  AIR GAP
 DEP .m                 356.16:  DEPTH
 EKB .m                  43.00:  KB ELEVATION
 EDF .m                  43.00:  DF ELEVATION
 TDL .m                 699.00:  TOTAL DEPTH (LOGGER)
 VSC .                       0:  VS TO CLOSURE
 MAGU.                 1853727:  MAGUTM CHECKSUM
~Parameter Information Block
#MNEM.UNIT       Value        Description
#---------     -----------    ---------------------------
 AV  .mps                 1.30:  Ann Velocity 
 AVMX.mps                 1.67:  Max Ann Veloc 
 AZIF.deg               280.40:  Azm, Final 
 BHAT.        Rotary Steerable:  BHA Type 
 BREV.rev            528970.00:  Rev Bit Total 
 BROT.°/30m               1.00:  Build Rotating 
 BS  .in                 12.25:  Bit Size 
 BSZ .in                 12.25:  Bit Size 
 BTPL.psig              738.00:  Bit Press Loss 
 CABU.                     Yes:  Customer Abuse 
 CGEO.        Elvin Suleymanov:  Customer Geo 
 COMM.                     ´3x:  Run Comments 1 
 TCS .hr                 66.05:  Time Ciculation Ended 
 CV  .mps                 2.20:  Crit Velocity 
 CVMX.mps                 2.56:  Max Crit Veloc 
 DD1 .          Rashad Habibov:  Direct Drillr 1 
 DD2 .            Azer ravanov:  Direct Drillr 2 
 DD3 .           Teymur Agayev:  Direct Drillr 3 
 DDSV.               Geo-Pilot:  DD Service 
 DEFF.%                  90.00:  % Det Eff 
 DLRX.°/30m               2.95:  Dogleg Rot Max 
 DLSO.°/30m               1.00:  Dogleg Oriented 
 DLSX.°/30m               2.95:  Dogleg Str Max 
 DRET.      11.42.20 11-Aug-21:  Drill End Time 
 DRST.      23.03.20 08-Aug-21:  Drill Start Tim 
 DTIM.hr                 45.50:  Time Drilling 
 EDEP.m                3488.00:  End Depth 
 ENG1.         Marcelo Marcari:  Engineer 1 
 ENG2.         Dair Mahammadov:  Engineer 2 
 ENG3.       Davud Huseyn-zada:  Engineer 3 
 ENG4.         Yevgeniy Ulikov:  Engineer 4 
 ETIM.      17.45.20 17-Aug-21:  End Time 
 FLOI.gpm              1197.70:  Flow In 
 FLON.gpm              1100.00:  Flow In Min 
 FLOS.cptm                0.00:  Fluid Loss 
 FLOX.gpm              1200.00:  Flow In Max 
 DFT .        Mineral Oil Base:  Mud Type 
 FTRO.       Formation Presure:  FTWD Run Obj 
 HFLO.                      No:  High Flow 
 HPRE.                      No:  High Pressure 
 HTEM.                      No:  High Temp 
 HYDO.m                   1.80:  Hydro Offset 
 IFIN.deg                 9.87:  Inc, Final 
 IMAX.deg                19.96:  Inc Max 
 IMIN.deg                 3.82:  Inc Min 
 IMND.m                3257.42:  Inc Min Depth 
 IMXD.m                2945.53:  Inc Max Depth 
 JARR.                      No:  Jarring 
 LETM.      11.42.20 11-Aug-21:  Log End Time 
 LOST.hr                     0:  Lost Rig Time 
 LSTM.      23.03.20 08-Aug-21:  Log Start Time 
 MDCL.ppm             42500.00:  Mud Chlorides 
 MDES.     Inversion Oil/Synthetic:  Mud Desc 
 DFD .sg                  1.45:  Mud Density 
 MDMN.sg                  1.39:  Dens Mud Min 
 MDMX.sg                  1.57:  Dens Mud Max 
 MOIL.                   53.20:  Run Mud Oil % 
 MOWR.                   70:30:  Run Mud OWR 
 MSND.                       0:  Run Mud Sand % 
 MSOL.                   24.30:  Run Mud Solids% 
 DFV .spqt               79.00:  Mud Viscosity 
 MWOD.in                  8.00:  MWD Tool OD 
 MWSI.                      No:  Serv Intrp, MWD 
 OTIM.hr                253.06:  Time Operating 
 PCON.           Look Like New:  Pad Condition 
 PMAX.psia            11068.93:  Press Op, Max 
 PV  .cP                 36.00:  Mud PV 
 RUN .                    1000:  Run Number 
 ROPA.m/hr               15.34:  ROP Avg 
 ROPN.m/hr                4.00:  ROP Min 
 ROPX.m/hr               31.00:  ROP Max 
 RPMA.rpm               151.40:  RPM Surface Avg 
 RPMN.rpm               120.00:  RPM Surface Min 
 RPMX.rpm               160.00:  RPM Surface Max 
 RRUN.                    L505:  Rig Run Number 
 RTIM.hr                 10.00:  Time Reaming 
 SAZI.deg                88.92:  Azm, Start 
 SDEP.m                2789.00:  Start Depth 
 SIDD.                      No:  Serv Intrp, DD 
 SINC.deg                19.84:  Inc, Start 
 SPPA.psig             4421.39:  SPP Avg 
 SPPN.psig             4130.00:  SPP Min 
 SPPX.psig             4800.00:  SPP Max 
 STIM.      01.25.20 07-Aug-21:  Start Time 
 SVCS.                 DD, MWD:  Services 
 SVER.                    9.20:  Sperry Version 
 TDAT.m                 699.00:  Tot Depth Attmp 
 TDDF.                      No:  Trip for DD 
 TDLG.m                 699.00:  Tot Depth Loggd 
 TFF .                      No:  Trip for Fail 
 TQAA.f-kp               20.55:  Torque Abs Avg 
 TQAN.f-kp               15.00:  Torque Abs Min 
 TQAX.f-kp               24.00:  Torque Abs Max 
 TRRT.°/30m               0.50:  Turn Rotating 
 MRT .                    HCIM:  Maximum Recorded Temperature 
 TTMX.degC               82.35:  Max Tool Temp 
 VS01.                90654677:  Virtual Str1 SN 
 VS02.                90636294:  Virtual Str2 SN 
 VS03.                90653866:  Virtual Str3 SN 
 VS04.                90654674:  Virtual Str4 SN 
 WBMN.klb                10.00:  WOB Min 
 WITN.         Haytham Mostafa:  Customer Rep 
 WITN.           Rufat Babayev:  Customer Rep 2 
 WOBA.klb                22.43:  WOB Avg 
 WOBX.klb                35.00:  WOB Max 
 YP  .lhf2               32.00:  Yield Point 
~Curve Information Block
#MNEM.UNIT                 API CODE     Curve Description
#---------               -----------    ---------------------------
 TIME.HHMMSS            00 000 000 000:  GT Time & Date
 GTDEPTH.m              00 000 000 000:  GT Depth
 GTPQH.psia             00 000 000 000:  GT HR Quartz Pressure
 GTTQ.degC              00 000 000 000:  GT Quartz Temperature
 GTTN.NONE              00 000 000 000:  GT Test Number
 GTET.sec               00 000 000 000:  GT Elapsed Test Time
 GTTVD.m                00 000 000 000:  GT True Vertical Depth
#Other Information
#
#WARRANTY: Halliburton will use its best efforts to furnish customers with 
#accurate information and interpretations that are part of, and incident to, the services 
#provided.  However, Halliburton cannot and does not warrant the accuracy 
#or correctness of such information and interpretations.  Under no circumstances should any 
#such information or interpretation be relied upon as the sole basis for any drilling, 
#completion, production, or financial decision or any procedure involving any risk to the 
#safety of any drilling venture, drilling rig or its crew or any other third party.  The 
#Customer has full responsibility for all drilling, completion and production operation.  
#Halliburton makes no representations or warranties, either expressed or 
#implied, including, but not limited to, the implied warranties of merchantability or fitness 
#for a particular purpose, with respect to the services rendered.  In no event will 
#Halliburton be liable for failure to obtain any particular results or for 
#any damages, including, but not limited to, indirect, special or consequential damages, 
#resulting from the use of any information or interpretation provided by Halliburton.
#
~A           TIME           GTDEPTH  GTPQH  GTTQ  GTTN  GTET   GTTVD  
# ...
   12:29:23.788.15-Aug-2021 3405.50 5603.72 52.44 6.00 206.88 3258.07
   12:29:23.988.15-Aug-2021 3405.50 5603.72 52.44 6.00 207.08 3258.07
   12:29:24.188.15-Aug-2021 3405.50 5606.02 52.44 6.00 207.28 3258.07
   12:29:24.388.15-Aug-2021 3405.50 5607.23 52.44 6.00 207.48 3258.07
   12:29:24.587.15-Aug-2021 3405.50 5608.92 52.44 6.00 207.68 3258.07
   12:29:24.787.15-Aug-2021 3405.50 5609.94 52.44 6.00 207.87 3258.07
   12:29:24.987.15-Aug-2021 3405.50 5609.94 52.44 6.00 208.07 3258.07
   12:29:25.187.15-Aug-2021 3405.50 5612.31 52.44 6.00 208.27 3258.07
   12:29:25.387.15-Aug-2021 3405.50 5613.50 52.44 6.00 208.47 3258.07
   12:29:25.587.15-Aug-2021 3405.50 5614.70 52.44 6.00 208.67 3258.07
   12:29:25.787.15-Aug-2021 3405.50 5616.06 52.44 6.00 208.87 3258.07
   12:29:25.987.15-Aug-2021 3405.50 5616.06 52.44 6.00 209.07 3258.07
   12:29:26.187.15-Aug-2021 3405.50 5618.66 52.44 6.00 209.27 3258.07
   12:29:26.386.15-Aug-2021 3405.50 5620.13 52.44 6.00 209.47 3258.07
   12:29:26.586.15-Aug-2021 3405.50 5621.31 52.44 6.00 209.67 3258.07
   12:29:26.786.15-Aug-2021 3405.50 5622.54 52.44 6.00 209.87 3258.07
   12:29:26.986.15-Aug-2021 3405.50 5622.54 52.44 6.00 210.07 3258.07
   12:29:27.186.15-Aug-2021 3405.50 5624.94 52.44 6.00 210.27 3258.07
   12:29:27.386.15-Aug-2021 3405.50 5626.06 52.44 6.00 210.47 3258.07
   12:29:27.586.15-Aug-2021 3405.50 5627.64 52.44 6.00 210.67 3258.07
   12:29:27.786.15-Aug-2021 3405.50 5628.89 52.44 6.00 210.87 3258.07
   12:29:27.985.15-Aug-2021 3405.50 5628.89 52.44 6.00 211.07 3258.07
   12:29:28.185.15-Aug-2021 3405.50 5631.23 52.44 6.00 211.27 3258.07
   12:29:28.385.15-Aug-2021 3405.50 5632.31 52.44 6.00 211.47 3258.07
   12:29:28.585.15-Aug-2021 3405.50 5633.52 52.44 6.00 211.67 3258.07
   12:29:28.785.15-Aug-2021 3405.50 5634.81 52.44 6.00 211.87 3258.07
   12:29:28.985.15-Aug-2021 3405.50 5634.81 52.44 6.00 212.07 3258.07
   12:29:29.185.15-Aug-2021 3405.50 5637.00 52.44 6.00 212.27 3258.07
   12:29:29.385.15-Aug-2021 3405.50 5637.73 52.44 6.00 212.47 3258.07
   12:29:29.584.15-Aug-2021 3405.50 5638.96 52.44 6.00 212.67 3258.07
   12:29:29.784.15-Aug-2021 3405.50 5640.00 52.44 6.00 212.87 3258.07
   12:29:29.984.15-Aug-2021 3405.50 5640.00 52.44 6.00 213.07 3258.07
   12:29:30.184.15-Aug-2021 3405.50 5642.36 52.44 6.00 213.27 3258.07
   12:29:30.384.15-Aug-2021 3405.50 5643.51 52.44 6.00 213.47 3258.07
   12:29:30.584.15-Aug-2021 3405.50 5644.72 52.44 6.00 213.67 3258.07
   12:29:30.784.15-Aug-2021 3405.50 5646.16 52.44 6.00 213.87 3258.07
   12:29:30.984.15-Aug-2021 3405.50 5646.16 52.44 6.00 214.07 3258.07
   12:29:31.184.15-Aug-2021 3405.50 5648.62 52.44 6.00 214.27 3258.07
   12:29:31.383.15-Aug-2021 3405.50 5649.69 52.44 6.00 214.47 3258.07
   12:29:31.583.15-Aug-2021 3405.50 5650.88 52.44 6.00 214.67 3258.07
   12:29:31.783.15-Aug-2021 3405.50 5652.19 52.44 6.00 214.87 3258.07
   12:29:31.983.15-Aug-2021 3405.50 5652.19 52.44 6.00 215.07 3258.07
   12:29:32.183.15-Aug-2021 3405.50 5654.61 52.44 6.00 215.27 3258.07
   12:29:32.383.15-Aug-2021 3405.50 5655.64 52.44 6.00 215.47 3258.07
   12:29:32.583.15-Aug-2021 3405.50 5656.83 52.44 6.00 215.67 3258.07
   12:29:32.783.15-Aug-2021 3405.50 5658.38 52.44 6.00 215.87 3258.07
   12:29:32.982.15-Aug-2021 3405.50 5658.38 52.44 6.00 216.07 3258.07
   12:29:33.182.15-Aug-2021 3405.50 5660.43 52.44 6.00 216.27 3258.07
   12:29:33.382.15-Aug-2021 3405.50 5661.60 52.44 6.00 216.47 3258.07
   12:29:33.582.15-Aug-2021 3405.50 5662.81 52.44 6.00 216.67 3258.07
   12:29:33.782.15-Aug-2021 3405.50 5663.99 52.44 6.00 216.87 3258.07
   12:29:33.982.15-Aug-2021 3405.50 5663.99 52.44 6.00 217.07 3258.07
   12:29:34.182.15-Aug-2021 3405.50 5666.19 52.44 6.00 217.27 3258.07
   12:29:34.382.15-Aug-2021 3405.50 5667.01 52.44 6.00 217.47 3258.07
   12:29:34.581.15-Aug-2021 3405.50 5667.99 52.44 6.00 217.67 3258.07
   12:29:34.781.15-Aug-2021 3405.50 5669.25 52.44 6.00 217.87 3258.07
   12:29:34.981.15-Aug-2021 3405.50 5669.25 52.44 6.00 218.07 3258.07
   12:29:35.181.15-Aug-2021 3405.50 5671.59 52.44 6.00 218.27 3258.07
   12:29:35.381.15-Aug-2021 3405.50 5672.69 52.44 6.00 218.47 3258.07
   12:29:35.581.15-Aug-2021 3405.50 5673.73 52.44 6.00 218.67 3258.07
   12:29:35.781.15-Aug-2021 3405.50 5674.96 52.44 6.00 218.87 3258.07
   12:29:35.981.15-Aug-2021 3405.50 5674.96 52.44 6.00 219.07 3258.07
   12:29:36.180.15-Aug-2021 3405.50 5677.60 52.44 6.00 219.27 3258.07
   12:29:36.380.15-Aug-2021 3405.50 5678.52 52.44 6.00 219.47 3258.07
   12:29:36.580.15-Aug-2021 3405.50 5679.64 52.44 6.00 219.67 3258.07
   12:29:36.780.15-Aug-2021 3405.50 5680.73 52.44 6.00 219.87 3258.07
   12:29:36.980.15-Aug-2021 3405.50 5680.73 52.44 6.00 220.07 3258.07
   12:29:37.180.15-Aug-2021 3405.50 5683.15 52.44 6.00 220.27 3258.07
   12:29:37.380.15-Aug-2021 3405.50 5684.64 52.44 6.00 220.47 3258.07
   12:29:37.580.15-Aug-2021 3405.50 5685.44 52.44 6.00 220.67 3258.07
   12:29:37.780.15-Aug-2021 3405.50 5686.54 52.44 6.00 220.87 3258.07
   12:29:37.979.15-Aug-2021 3405.50 5686.54 52.44 6.00 221.07 3258.07
   12:29:38.179.15-Aug-2021 3405.50 5688.81 52.44 6.00 221.27 3258.07
   12:29:38.379.15-Aug-2021 3405.50 5689.81 52.44 6.00 221.47 3258.07
   12:29:38.579.15-Aug-2021 3405.50 5691.20 52.44 6.00 221.67 3258.07
   12:29:38.779.15-Aug-2021 3405.50 5692.46 52.44 6.00 221.87 3258.07
   12:29:38.979.15-Aug-2021 3405.50 5692.46 52.44 6.00 222.07 3258.07
   12:29:39.179.15-Aug-2021 3405.50 5694.56 52.44 6.00 222.27 3258.07
   12:29:39.379.15-Aug-2021 3405.50 5695.49 52.44 6.00 222.47 3258.07
   12:29:39.578.15-Aug-2021 3405.50 5696.75 52.44 6.00 222.67 3258.07
   12:29:39.778.15-Aug-2021 3405.50 5697.21 52.44 6.00 222.87 3258.07
   12:29:39.978.15-Aug-2021 3405.50 5697.21 52.44 6.00 223.07 3258.07
   12:29:40.178.15-Aug-2021 3405.50 5699.26 52.44 6.00 223.27 3258.07
   12:29:40.378.15-Aug-2021 3405.50 5700.76 52.44 6.00 223.47 3258.07
   12:29:40.578.15-Aug-2021 3405.50 5701.60 52.44 6.00 223.67 3258.07
   12:29:40.778.15-Aug-2021 3405.50 5702.68 52.44 6.00 223.87 3258.07
   12:29:40.978.15-Aug-2021 3405.50 5702.68 52.44 6.00 224.07 3258.07
   12:29:41.177.15-Aug-2021 3405.50 5704.88 52.44 6.00 224.27 3258.07
   12:29:41.377.15-Aug-2021 3405.50 5706.22 52.44 6.00 224.46 3258.07
   12:29:41.577.15-Aug-2021 3405.50 5707.15 52.44 6.00 224.66 3258.07
   12:29:41.777.15-Aug-2021 3405.50 5708.25 52.44 6.00 224.86 3258.07
   12:29:41.977.15-Aug-2021 3405.50 5708.25 52.44 6.00 225.06 3258.07
   12:29:42.177.15-Aug-2021 3405.50 5710.59 52.44 6.00 225.26 3258.07
   12:29:42.377.15-Aug-2021 3405.50 5711.64 52.44 6.00 225.46 3258.07
   12:29:42.577.15-Aug-2021 3405.50 5712.67 52.44 6.00 225.66 3258.07
   12:29:42.777.15-Aug-2021 3405.50 5713.73 52.44 6.00 225.86 3258.07
   12:29:42.976.15-Aug-2021 3405.50 5713.73 52.44 6.00 226.06 3258.07
   12:29:43.176.15-Aug-2021 3405.50 5716.32 52.44 6.00 226.26 3258.07
   12:29:43.376.15-Aug-2021 3405.50 5717.37 52.44 6.00 226.46 3258.07
   12:29:43.576.15-Aug-2021 3405.50 5718.40 52.44 6.00 226.66 3258.07
   12:29:43.776.15-Aug-2021 3405.50 5719.52 52.44 6.00 226.86 3258.07
   12:29:43.976.15-Aug-2021 3405.50 5719.52 52.44 6.00 227.06 3258.07
   12:29:44.176.15-Aug-2021 3405.50 5721.56 52.44 6.00 227.26 3258.07
   12:29:44.376.15-Aug-2021 3405.50 5722.59 52.44 6.00 227.46 3258.07
   12:29:44.575.15-Aug-2021 3405.50 5723.75 52.44 6.00 227.66 3258.07
   12:29:44.775.15-Aug-2021 3405.50 5724.89 52.44 6.00 227.86 3258.07
   12:29:44.975.15-Aug-2021 3405.50 5724.89 52.44 6.00 228.06 3258.07
   12:29:45.175.15-Aug-2021 3405.50 5726.84 52.44 6.00 228.26 3258.07
   12:29:45.375.15-Aug-2021 3405.50 5727.99 52.44 6.00 228.46 3258.07
   12:29:45.575.15-Aug-2021 3405.50 5728.87 52.44 6.00 228.66 3258.07
   12:29:45.775.15-Aug-2021 3405.50 5729.69 52.44 6.00 228.86 3258.07
   12:29:45.975.15-Aug-2021 3405.50 5729.69 52.44 6.00 229.06 3258.07
   12:29:46.174.15-Aug-2021 3405.50 5731.34 52.44 6.00 229.26 3258.07
   12:29:46.374.15-Aug-2021 3405.50 5732.22 52.44 6.00 229.46 3258.07
   12:29:46.574.15-Aug-2021 3405.50 5733.53 52.44 6.00 229.66 3258.07
