~Version Information
 VERS.                  2.0:   CWLS log ASCII Standard -VERSION 2.0
 WRAP.                   NO:   One line per depth step
~Well Information Block
#MNEM.UNIT     VALUE/NAME     DESCRIPTION
#---------     -----------    ---------------------------
 STRT.S             09:29:08 15-Aug-21: START TIME 09:29:08 15-Aug-21
 STOP.S             09:37:37 15-Aug-21: STOP TIME  09:37:37 15-Aug-21
 STEP.S                   0.00: STEP TIME
 NULL.                 -999.25: NULL VALUE
 DFWT.                        :  DIST FWL TEXT
 DFST.                        :  DIST FSL TEXT
 DMF .             Drill Floor:  DRILL MEAS FROM
 STIM.      17.18.56 20-Jun-21:  START TIME
 DATE.      17.18.56 20-Aug-21:  END TIME
 SPUD.               20-Jun-21:  SPUD DATE
 NREF.                    Grid:  NORTH REFERENCE
 HPTY.       Minimum Curvature:  HOLE POS TYPE
 DMOD.             Drill Model:  DRILL MOD DESC
 SVYD.                  Survey:  SURVEY DESC
 ILTD.               Lithology:  INTERP LTH DESC
 FTOP.          Formation Tops:  FORM TOPS DESC
 SON .        AZ-XX-0907056190:  JOB NUMBER
 PDAT.       Caspian Sea Level:  PERMANENT DATUM
 WTYP.                Deviated:  WELL TYPE
 MDS .        Operator Entered:  MAG DATA SOURCE
 COMP.     BP Exploration (Caspian Sea) Ltd.:  COMPANY
 UWI .            /AZE20000092:  UNIQUE WELL IDENTIFIER
 API .            /AZE20000092:  API NUMBER
 BASE.              Azerbaijan:  LOGGING EQUIPMENT BASE LOCATION
 REGN.                   EESSA:  REGION
 PROV.                    baku:  PROVINCE
 STAT.                    baku:  STATE NAME
 CTRY.              Azerbaijan:  COUNTRY NAME
 FLD .                     ACG:  FIELD NAME
 SRVC.          Turan Drilling:  CONTRACTOR
 MWDS.                    Baku:  MWD SHOP
 WELL.                     J26:  WELL NAME
 JOBN.        AZ-XX-0907056190:  JOB TICKET NUMB
 RIG .             West Chirag:  RIG NAME
 DOE .                     N/A:  DOE NUMBER
 DCON.         Sperry Drilling:  DIRECTNL CONTR
 UNIT.                     N/A:  LOGGING EQUIPMENT ID
 CNTY.                        :  COUNTY
 LOC .                        :  LOCATION
 LMF .             Drill Floor:  LOG MEASURED FROM
 TVDS.m                  43.00:  TVDSS CORRECTN
 LATI.deg                40.13:  LATITUDE
 LONG.deg                51.22:  LONGITUDE
 WHNS.m                  -7.12:  WELL HEAD N/S
 WHEW.m                  -9.46:  WELL HEAD E/W
 UTMX.m              519004.02:  UTM X
 UTMY.m             4443784.96:  UTM Y
 DFWL.m                   0.00:  DISTANCE FWL
 DFSL.m                   0.00:  DISTANCE FSL
 SDEP.m                 464.00:  START DEPTH
 TDD .m                3500.00:  TOTAL DEPTH (DRILLER)
 VSDR.deg               114.35:  VERT SEC DIRECT
 GVFD.g                   1.00:  GRAVITY FIELD
 MFLD.nT              50386.00:  MAGNETIC FIELD
 MDIP.deg                59.63:  MAGNETIC DIP
 MDEC.deg                 6.43:  MAGNETIC DECL
 GRDC.deg                 0.15:  GRID CORRECTION
 AZTC.deg                 6.29:  AZM TOTAL CORR
 EPD .m                   0.00:  ELEVATION
 EGL .m                   0.00:  GROUND ELEVATION
 WDMS.m                 169.80:  WD ELEV
 APD .m                  43.00:  DEPTH ABOVE PD
 VSEW.m                  -9.46:  VERT SEC E/W
 VSNS.m                  -7.12:  VERT SEC N/S
 AGAP.m                  43.00:  AIR GAP
 DEP .m                 356.16:  DEPTH
 EKB .m                  43.00:  KB ELEVATION
 EDF .m                  43.00:  DF ELEVATION
 TDL .m                 699.00:  TOTAL DEPTH (LOGGER)
 VSC .                       0:  VS TO CLOSURE
 MAGU.                 1853727:  MAGUTM CHECKSUM
~Parameter Information Block
#MNEM.UNIT       Value        Description
#---------     -----------    ---------------------------
 AV  .mps                 1.30:  Ann Velocity 
 AVMX.mps                 1.67:  Max Ann Veloc 
 AZIF.deg               280.40:  Azm, Final 
 BHAT.        Rotary Steerable:  BHA Type 
 BREV.rev            528970.00:  Rev Bit Total 
 BROT.°/30m               1.00:  Build Rotating 
 BS  .in                 12.25:  Bit Size 
 BSZ .in                 12.25:  Bit Size 
 BTPL.psig              738.00:  Bit Press Loss 
 CABU.                     Yes:  Customer Abuse 
 CGEO.        Elvin Suleymanov:  Customer Geo 
 COMM.                     œR:  Run Comments 1 
 TCS .hr                 66.05:  Time Ciculation Ended 
 CV  .mps                 2.20:  Crit Velocity 
 CVMX.mps                 2.56:  Max Crit Veloc 
 DD1 .          Rashad Habibov:  Direct Drillr 1 
 DD2 .            Azer ravanov:  Direct Drillr 2 
 DD3 .           Teymur Agayev:  Direct Drillr 3 
 DDSV.               Geo-Pilot:  DD Service 
 DEFF.%                  90.00:  % Det Eff 
 DLRX.°/30m               2.95:  Dogleg Rot Max 
 DLSO.°/30m               1.00:  Dogleg Oriented 
 DLSX.°/30m               2.95:  Dogleg Str Max 
 DRET.      11.42.20 11-Aug-21:  Drill End Time 
 DRST.      23.03.20 08-Aug-21:  Drill Start Tim 
 DTIM.hr                 45.50:  Time Drilling 
 EDEP.m                3488.00:  End Depth 
 ENG1.         Marcelo Marcari:  Engineer 1 
 ENG2.         Dair Mahammadov:  Engineer 2 
 ENG3.       Davud Huseyn-zada:  Engineer 3 
 ENG4.         Yevgeniy Ulikov:  Engineer 4 
 ETIM.      17.45.20 17-Aug-21:  End Time 
 FLOI.gpm              1197.70:  Flow In 
 FLON.gpm              1100.00:  Flow In Min 
 FLOS.cptm                0.00:  Fluid Loss 
 FLOX.gpm              1200.00:  Flow In Max 
 DFT .        Mineral Oil Base:  Mud Type 
 FTRO.       Formation Presure:  FTWD Run Obj 
 HFLO.                      No:  High Flow 
 HPRE.                      No:  High Pressure 
 HTEM.                      No:  High Temp 
 HYDO.m                   1.80:  Hydro Offset 
 IFIN.deg                 9.87:  Inc, Final 
 IMAX.deg                19.96:  Inc Max 
 IMIN.deg                 3.82:  Inc Min 
 IMND.m                3257.42:  Inc Min Depth 
 IMXD.m                2945.53:  Inc Max Depth 
 JARR.                      No:  Jarring 
 LETM.      11.42.20 11-Aug-21:  Log End Time 
 LOST.hr                     0:  Lost Rig Time 
 LSTM.      23.03.20 08-Aug-21:  Log Start Time 
 MDCL.ppm             42500.00:  Mud Chlorides 
 MDES.     Inversion Oil/Synthetic:  Mud Desc 
 DFD .sg                  1.45:  Mud Density 
 MDMN.sg                  1.39:  Dens Mud Min 
 MDMX.sg                  1.57:  Dens Mud Max 
 MOIL.                   53.20:  Run Mud Oil % 
 MOWR.                   70:30:  Run Mud OWR 
 MSND.                       0:  Run Mud Sand % 
 MSOL.                   24.30:  Run Mud Solids% 
 DFV .spqt               79.00:  Mud Viscosity 
 MWOD.in                  8.00:  MWD Tool OD 
 MWSI.                      No:  Serv Intrp, MWD 
 OTIM.hr                253.06:  Time Operating 
 PCON.           Look Like New:  Pad Condition 
 PMAX.psia            11068.93:  Press Op, Max 
 PV  .cP                 36.00:  Mud PV 
 RUN .                    1000:  Run Number 
 ROPA.m/hr               15.34:  ROP Avg 
 ROPN.m/hr                4.00:  ROP Min 
 ROPX.m/hr               31.00:  ROP Max 
 RPMA.rpm               151.40:  RPM Surface Avg 
 RPMN.rpm               120.00:  RPM Surface Min 
 RPMX.rpm               160.00:  RPM Surface Max 
 RRUN.                    L505:  Rig Run Number 
 RTIM.hr                 10.00:  Time Reaming 
 SAZI.deg                88.92:  Azm, Start 
 SDEP.m                2789.00:  Start Depth 
 SIDD.                      No:  Serv Intrp, DD 
 SINC.deg                19.84:  Inc, Start 
 SPPA.psig             4421.39:  SPP Avg 
 SPPN.psig             4130.00:  SPP Min 
 SPPX.psig             4800.00:  SPP Max 
 STIM.      01.25.20 07-Aug-21:  Start Time 
 SVCS.                 DD, MWD:  Services 
 SVER.                    9.20:  Sperry Version 
 TDAT.m                 699.00:  Tot Depth Attmp 
 TDDF.                      No:  Trip for DD 
 TDLG.m                 699.00:  Tot Depth Loggd 
 TFF .                      No:  Trip for Fail 
 TQAA.f-kp               20.55:  Torque Abs Avg 
 TQAN.f-kp               15.00:  Torque Abs Min 
 TQAX.f-kp               24.00:  Torque Abs Max 
 TRRT.°/30m               0.50:  Turn Rotating 
 MRT .                    HCIM:  Maximum Recorded Temperature 
 TTMX.degC               82.35:  Max Tool Temp 
 VS01.                90654677:  Virtual Str1 SN 
 VS02.                90636294:  Virtual Str2 SN 
 VS03.                90653866:  Virtual Str3 SN 
 VS04.                90654674:  Virtual Str4 SN 
 WBMN.klb                10.00:  WOB Min 
 WITN.         Haytham Mostafa:  Customer Rep 
 WITN.           Rufat Babayev:  Customer Rep 2 
 WOBA.klb                22.43:  WOB Avg 
 WOBX.klb                35.00:  WOB Max 
 YP  .lhf2               32.00:  Yield Point 
~Curve Information Block
#MNEM.UNIT                 API CODE     Curve Description
#---------               -----------    ---------------------------
 TIME.HHMMSS            00 000 000 000:  GT Time & Date
 GTDEPTH.m              00 000 000 000:  GT Depth
 GTPQH.psia             00 000 000 000:  GT HR Quartz Pressure
 GTTQ.degC              00 000 000 000:  GT Quartz Temperature
 GTTN.NONE              00 000 000 000:  GT Test Number
 GTET.sec               00 000 000 000:  GT Elapsed Test Time
 GTTVD.m                00 000 000 000:  GT True Vertical Depth
#Other Information
#
#WARRANTY: Halliburton will use its best efforts to furnish customers with 
#accurate information and interpretations that are part of, and incident to, the services 
#provided.  However, Halliburton cannot and does not warrant the accuracy 
#or correctness of such information and interpretations.  Under no circumstances should any 
#such information or interpretation be relied upon as the sole basis for any drilling, 
#completion, production, or financial decision or any procedure involving any risk to the 
#safety of any drilling venture, drilling rig or its crew or any other third party.  The 
#Customer has full responsibility for all drilling, completion and production operation.  
#Halliburton makes no representations or warranties, either expressed or 
#implied, including, but not limited to, the implied warranties of merchantability or fitness 
#for a particular purpose, with respect to the services rendered.  In no event will 
#Halliburton be liable for failure to obtain any particular results or for 
#any damages, including, but not limited to, indirect, special or consequential damages, 
#resulting from the use of any information or interpretation provided by Halliburton.
#
~A           TIME           GTDEPTH  GTPQH  GTTQ  GTTN  GTET   GTTVD  
# ...
   09:36:48.906.15-Aug-2021 3421.80 5248.62 54.98 3.00 460.08 3274.11
   09:36:49.106.15-Aug-2021 3421.80 5248.62 54.98 3.00 460.28 3274.11
   09:36:49.306.15-Aug-2021 3421.80 5248.85 54.98 3.00 460.48 3274.11
   09:36:49.506.15-Aug-2021 3421.80 5249.15 54.98 3.00 460.68 3274.11
   09:36:49.706.15-Aug-2021 3421.80 5249.24 54.98 3.00 460.88 3274.11
   09:36:49.906.15-Aug-2021 3421.80 5249.35 54.98 3.00 461.08 3274.11
   09:36:50.106.15-Aug-2021 3421.80 5249.35 54.98 3.00 461.28 3274.11
   09:36:50.306.15-Aug-2021 3421.80 5249.78 54.98 3.00 461.48 3274.11
   09:36:50.506.15-Aug-2021 3421.80 5249.93 54.98 3.00 461.68 3274.11
   09:36:50.706.15-Aug-2021 3421.80 5250.06 54.98 3.00 461.88 3274.11
   09:36:50.906.15-Aug-2021 3421.80 5250.36 54.98 3.00 462.08 3274.11
   09:36:51.106.15-Aug-2021 3421.80 5250.36 54.98 3.00 462.28 3274.11
   09:36:51.306.15-Aug-2021 3421.80 5250.52 54.98 3.00 462.48 3274.11
   09:36:51.506.15-Aug-2021 3421.80 5250.71 54.98 3.00 462.68 3274.11
   09:36:51.706.15-Aug-2021 3421.80 5250.83 54.98 3.00 462.88 3274.11
   09:36:51.906.15-Aug-2021 3421.80 5251.00 54.98 3.00 463.08 3274.11
   09:36:52.107.15-Aug-2021 3421.80 5251.00 54.98 3.00 463.28 3274.11
   09:36:52.307.15-Aug-2021 3421.80 5251.35 54.98 3.00 463.48 3274.11
   09:36:52.507.15-Aug-2021 3421.80 5251.60 54.98 3.00 463.68 3274.11
   09:36:52.707.15-Aug-2021 3421.80 5251.75 54.98 3.00 463.88 3274.11
   09:36:52.907.15-Aug-2021 3421.80 5251.86 54.98 3.00 464.08 3274.11
   09:36:53.107.15-Aug-2021 3421.80 5251.86 54.98 3.00 464.28 3274.11
   09:36:53.307.15-Aug-2021 3421.80 5251.96 54.98 3.00 464.48 3274.11
   09:36:53.507.15-Aug-2021 3421.80 5252.00 54.98 3.00 464.68 3274.11
   09:36:53.707.15-Aug-2021 3421.80 5252.29 54.98 3.00 464.88 3274.11
   09:36:53.907.15-Aug-2021 3421.80 5252.53 54.98 3.00 465.08 3274.11
   09:36:54.107.15-Aug-2021 3421.80 5252.53 54.98 3.00 465.28 3274.11
   09:36:54.307.15-Aug-2021 3421.80 5252.84 54.98 3.00 465.48 3274.11
   09:36:54.507.15-Aug-2021 3421.80 5252.86 54.98 3.00 465.68 3274.11
   09:36:54.707.15-Aug-2021 3421.80 5252.95 54.98 3.00 465.88 3274.11
   09:36:54.907.15-Aug-2021 3421.80 5252.99 54.98 3.00 466.08 3274.11
   09:36:55.107.15-Aug-2021 3421.80 5252.99 54.98 3.00 466.28 3274.11
   09:36:55.307.15-Aug-2021 3421.80 5253.13 54.98 3.00 466.48 3274.11
   09:36:55.507.15-Aug-2021 3421.80 5253.57 54.98 3.00 466.68 3274.11
   09:36:55.707.15-Aug-2021 3421.80 5253.87 54.98 3.00 466.88 3274.11
   09:36:55.907.15-Aug-2021 3421.80 5253.97 54.98 3.00 467.08 3274.11
   09:36:56.107.15-Aug-2021 3421.80 5253.97 54.98 3.00 467.28 3274.11
   09:36:56.307.15-Aug-2021 3421.80 5254.11 54.98 3.00 467.48 3274.11
   09:36:56.507.15-Aug-2021 3421.80 5254.16 54.98 3.00 467.68 3274.11
   09:36:56.707.15-Aug-2021 3421.80 5254.29 54.98 3.00 467.88 3274.11
   09:36:56.907.15-Aug-2021 3421.80 5254.70 54.98 3.00 468.08 3274.11
   09:36:57.107.15-Aug-2021 3421.80 5254.70 54.98 3.00 468.28 3274.11
   09:36:57.307.15-Aug-2021 3421.80 5254.82 54.98 3.00 468.48 3274.11
   09:36:57.507.15-Aug-2021 3421.80 5255.00 54.98 3.00 468.68 3274.11
   09:36:57.707.15-Aug-2021 3421.80 5255.15 54.98 3.00 468.88 3274.11
   09:36:57.907.15-Aug-2021 3421.80 5255.27 54.98 3.00 469.08 3274.11
   09:36:58.108.15-Aug-2021 3421.80 5255.27 54.98 3.00 469.28 3274.11
   09:36:58.308.15-Aug-2021 3421.80 5255.30 54.98 3.00 469.48 3274.11
   09:36:58.508.15-Aug-2021 3421.80 5255.63 54.98 3.00 469.68 3274.11
   09:36:58.708.15-Aug-2021 3421.80 5255.87 54.98 3.00 469.88 3274.11
   09:36:58.908.15-Aug-2021 3421.80 5255.99 54.98 3.00 470.08 3274.11
   09:36:59.108.15-Aug-2021 3421.80 5255.99 54.98 3.00 470.28 3274.11
   09:36:59.308.15-Aug-2021 3421.80 5256.20 54.98 3.00 470.48 3274.11
   09:36:59.508.15-Aug-2021 3421.80 5256.35 54.98 3.00 470.68 3274.11
   09:36:59.708.15-Aug-2021 3421.80 5256.46 54.98 3.00 470.88 3274.11
   09:36:59.908.15-Aug-2021 3421.80 5256.63 54.98 3.00 471.08 3274.11
   09:37:00.108.15-Aug-2021 3421.80 5256.63 54.98 3.00 471.28 3274.11
   09:37:00.308.15-Aug-2021 3421.80 5256.94 54.98 3.00 471.48 3274.11
   09:37:00.508.15-Aug-2021 3421.80 5256.84 54.98 3.00 471.68 3274.11
   09:37:00.708.15-Aug-2021 3421.80 5256.89 54.98 3.00 471.88 3274.11
   09:37:00.908.15-Aug-2021 3421.80 5257.20 54.98 3.00 472.08 3274.11
   09:37:01.108.15-Aug-2021 3421.80 5257.20 54.98 3.00 472.28 3274.11
   09:37:01.308.15-Aug-2021 3421.80 5257.44 54.98 3.00 472.48 3274.11
   09:37:01.508.15-Aug-2021 3421.80 5257.44 54.97 3.00 472.68 3274.11
   09:37:01.708.15-Aug-2021 3421.80 5257.68 54.97 3.00 472.88 3274.11
   09:37:01.908.15-Aug-2021 3421.80 5257.81 54.97 3.00 473.08 3274.11
   09:37:02.108.15-Aug-2021 3421.80 5257.81 54.97 3.00 473.28 3274.11
   09:37:02.308.15-Aug-2021 3421.80 5257.82 54.97 3.00 473.48 3274.11
   09:37:02.508.15-Aug-2021 3421.80 5257.85 54.97 3.00 473.68 3274.11
   09:37:02.708.15-Aug-2021 3421.80 5258.23 54.97 3.00 473.88 3274.11
   09:37:02.908.15-Aug-2021 3421.80 5258.41 54.97 3.00 474.08 3274.11
   09:37:03.108.15-Aug-2021 3421.80 5258.41 54.97 3.00 474.28 3274.11
   09:37:03.308.15-Aug-2021 3421.80 5258.64 54.97 3.00 474.48 3274.11
   09:37:03.508.15-Aug-2021 3421.80 5258.57 54.97 3.00 474.68 3274.11
   09:37:03.708.15-Aug-2021 3421.80 5258.64 54.97 3.00 474.88 3274.11
   09:37:03.908.15-Aug-2021 3421.80 5258.71 54.97 3.00 475.08 3274.11
   09:37:04.108.15-Aug-2021 3421.80 5258.71 54.97 3.00 475.28 3274.11
   09:37:04.309.15-Aug-2021 3421.80 5258.87 54.97 3.00 475.48 3274.11
   09:37:04.509.15-Aug-2021 3421.80 5259.20 54.97 3.00 475.68 3274.11
   09:37:04.709.15-Aug-2021 3421.80 5259.40 54.97 3.00 475.88 3274.11
   09:37:04.909.15-Aug-2021 3421.80 4367.67 54.97 3.00 476.08 3274.11
   09:37:05.109.15-Aug-2021 3421.80 4367.67 54.97 3.00 476.28 3274.11
   09:37:05.309.15-Aug-2021 3421.80 4971.58 54.97 3.00 476.48 3274.11
   09:37:05.509.15-Aug-2021 3421.80 5503.21 54.97 3.00 476.68 3274.11
   09:37:05.709.15-Aug-2021 3421.80 6021.28 54.97 3.00 476.88 3274.11
   09:37:05.909.15-Aug-2021 3421.80 6878.21 54.97 3.00 477.08 3274.11
   09:37:06.109.15-Aug-2021 3421.80 6878.21 54.97 3.00 477.28 3274.11
   09:37:06.309.15-Aug-2021 3421.80 7482.12 54.97 3.00 477.48 3274.11
   09:37:06.509.15-Aug-2021 3421.80 7485.23 54.97 3.00 477.68 3274.11
   09:37:06.709.15-Aug-2021 3421.80 7484.06 54.97 3.00 477.88 3274.11
   09:37:06.909.15-Aug-2021 3421.80 7484.10 54.97 3.00 478.08 3274.11
   09:37:07.109.15-Aug-2021 3421.80 7484.10 54.97 3.00 478.28 3274.11
   09:37:07.309.15-Aug-2021 3421.80 7484.66 54.97 3.00 478.48 3274.11
   09:37:07.509.15-Aug-2021 3421.80 7485.04 54.98 3.00 478.68 3274.11
   09:37:07.709.15-Aug-2021 3421.80 7486.51 54.98 3.00 478.88 3274.11
   09:37:07.909.15-Aug-2021 3421.80 7485.64 54.98 3.00 479.08 3274.11
   09:37:08.109.15-Aug-2021 3421.80 7485.64 54.98 3.00 479.28 3274.11
   09:37:08.309.15-Aug-2021 3421.80 7485.19 54.98 3.00 479.48 3274.11
   09:37:08.509.15-Aug-2021 3421.80 7487.48 54.98 3.00 479.68 3274.11
   09:37:08.709.15-Aug-2021 3421.80 7488.04 54.98 3.00 479.88 3274.11
   09:37:08.909.15-Aug-2021 3421.80 7486.94 54.99 3.00 480.08 3274.11
   09:37:09.109.15-Aug-2021 3421.80 7486.94 54.99 3.00 480.28 3274.11
   09:37:09.309.15-Aug-2021 3421.80 7488.03 54.99 3.00 480.48 3274.11
   09:37:09.509.15-Aug-2021 3421.80 7486.38 54.99 3.00 480.68 3274.11
   09:37:09.709.15-Aug-2021 3421.80 7486.48 54.99 3.00 480.88 3274.11
   09:37:09.909.15-Aug-2021 3421.80 7488.28 54.99 3.00 481.08 3274.11
   09:37:10.109.15-Aug-2021 3421.80 7488.28 54.99 3.00 481.28 3274.11
   09:37:10.310.15-Aug-2021 3421.80 7487.83 55.00 3.00 481.48 3274.11
   09:37:10.510.15-Aug-2021 3421.80 7487.46 55.00 3.00 481.68 3274.11
   09:37:10.710.15-Aug-2021 3421.80 7488.29 55.00 3.00 481.88 3274.11
   09:37:10.910.15-Aug-2021 3421.80 7488.75 55.00 3.00 482.08 3274.11
   09:37:11.110.15-Aug-2021 3421.80 7488.75 55.00 3.00 482.28 3274.11
   09:37:11.310.15-Aug-2021 3421.80 7486.70 55.00 3.00 482.48 3274.11
   09:37:11.510.15-Aug-2021 3421.80 7486.82 55.00 3.00 482.68 3274.11
   09:37:11.710.15-Aug-2021 3421.80 7487.47 55.01 3.00 482.88 3274.11
