~Version Information
 VERS.                  2.0:   CWLS log ASCII Standard -VERSION 2.0
 WRAP.                   NO:   One line per depth step
~Well Information Block
#MNEM.UNIT     VALUE/NAME     DESCRIPTION
#---------     -----------    ---------------------------
 STRT.S             11:47:36 15-Aug-21: START TIME 11:47:36 15-Aug-21
 STOP.S             11:55:59 15-Aug-21: STOP TIME  11:55:59 15-Aug-21
 STEP.S                   0.00: STEP TIME
 NULL.                 -999.25: NULL VALUE
 DFWT.                        :  DIST FWL TEXT
 DFST.                        :  DIST FSL TEXT
 DMF .             Drill Floor:  DRILL MEAS FROM
 STIM.      17.18.56 20-Jun-21:  START TIME
 DATE.      17.18.56 20-Aug-21:  END TIME
 SPUD.               20-Jun-21:  SPUD DATE
 NREF.                    Grid:  NORTH REFERENCE
 HPTY.       Minimum Curvature:  HOLE POS TYPE
 DMOD.             Drill Model:  DRILL MOD DESC
 SVYD.                  Survey:  SURVEY DESC
 ILTD.               Lithology:  INTERP LTH DESC
 FTOP.          Formation Tops:  FORM TOPS DESC
 SON .        AZ-XX-0907056190:  JOB NUMBER
 PDAT.       Caspian Sea Level:  PERMANENT DATUM
 WTYP.                Deviated:  WELL TYPE
 MDS .        Operator Entered:  MAG DATA SOURCE
 COMP.     BP Exploration (Caspian Sea) Ltd.:  COMPANY
 UWI .            /AZE20000092:  UNIQUE WELL IDENTIFIER
 API .            /AZE20000092:  API NUMBER
 BASE.              Azerbaijan:  LOGGING EQUIPMENT BASE LOCATION
 REGN.                   EESSA:  REGION
 PROV.                    baku:  PROVINCE
 STAT.                    baku:  STATE NAME
 CTRY.              Azerbaijan:  COUNTRY NAME
 FLD .                     ACG:  FIELD NAME
 SRVC.          Turan Drilling:  CONTRACTOR
 MWDS.                    Baku:  MWD SHOP
 WELL.                     J26:  WELL NAME
 JOBN.        AZ-XX-0907056190:  JOB TICKET NUMB
 RIG .             West Chirag:  RIG NAME
 DOE .                     N/A:  DOE NUMBER
 DCON.         Sperry Drilling:  DIRECTNL CONTR
 UNIT.                     N/A:  LOGGING EQUIPMENT ID
 CNTY.                        :  COUNTY
 LOC .                        :  LOCATION
 LMF .             Drill Floor:  LOG MEASURED FROM
 TVDS.m                  43.00:  TVDSS CORRECTN
 LATI.deg                40.13:  LATITUDE
 LONG.deg                51.22:  LONGITUDE
 WHNS.m                  -7.12:  WELL HEAD N/S
 WHEW.m                  -9.46:  WELL HEAD E/W
 UTMX.m              519004.02:  UTM X
 UTMY.m             4443784.96:  UTM Y
 DFWL.m                   0.00:  DISTANCE FWL
 DFSL.m                   0.00:  DISTANCE FSL
 SDEP.m                 464.00:  START DEPTH
 TDD .m                3500.00:  TOTAL DEPTH (DRILLER)
 VSDR.deg               114.35:  VERT SEC DIRECT
 GVFD.g                   1.00:  GRAVITY FIELD
 MFLD.nT              50386.00:  MAGNETIC FIELD
 MDIP.deg                59.63:  MAGNETIC DIP
 MDEC.deg                 6.43:  MAGNETIC DECL
 GRDC.deg                 0.15:  GRID CORRECTION
 AZTC.deg                 6.29:  AZM TOTAL CORR
 EPD .m                   0.00:  ELEVATION
 EGL .m                   0.00:  GROUND ELEVATION
 WDMS.m                 169.80:  WD ELEV
 APD .m                  43.00:  DEPTH ABOVE PD
 VSEW.m                  -9.46:  VERT SEC E/W
 VSNS.m                  -7.12:  VERT SEC N/S
 AGAP.m                  43.00:  AIR GAP
 DEP .m                 356.16:  DEPTH
 EKB .m                  43.00:  KB ELEVATION
 EDF .m                  43.00:  DF ELEVATION
 TDL .m                 699.00:  TOTAL DEPTH (LOGGER)
 VSC .                       0:  VS TO CLOSURE
 MAGU.                 1853727:  MAGUTM CHECKSUM
~Parameter Information Block
#MNEM.UNIT       Value        Description
#---------     -----------    ---------------------------
 AV  .mps                 1.30:  Ann Velocity 
 AVMX.mps                 1.67:  Max Ann Veloc 
 AZIF.deg               280.40:  Azm, Final 
 BHAT.        Rotary Steerable:  BHA Type 
 BREV.rev            528970.00:  Rev Bit Total 
 BROT.°/30m               1.00:  Build Rotating 
 BS  .in                 12.25:  Bit Size 
 BSZ .in                 12.25:  Bit Size 
 BTPL.psig              738.00:  Bit Press Loss 
 CABU.                     Yes:  Customer Abuse 
 CGEO.        Elvin Suleymanov:  Customer Geo 
 COMM.                     lþe:  Run Comments 1 
 TCS .hr                 66.05:  Time Ciculation Ended 
 CV  .mps                 2.20:  Crit Velocity 
 CVMX.mps                 2.56:  Max Crit Veloc 
 DD1 .          Rashad Habibov:  Direct Drillr 1 
 DD2 .            Azer ravanov:  Direct Drillr 2 
 DD3 .           Teymur Agayev:  Direct Drillr 3 
 DDSV.               Geo-Pilot:  DD Service 
 DEFF.%                  90.00:  % Det Eff 
 DLRX.°/30m               2.95:  Dogleg Rot Max 
 DLSO.°/30m               1.00:  Dogleg Oriented 
 DLSX.°/30m               2.95:  Dogleg Str Max 
 DRET.      11.42.20 11-Aug-21:  Drill End Time 
 DRST.      23.03.20 08-Aug-21:  Drill Start Tim 
 DTIM.hr                 45.50:  Time Drilling 
 EDEP.m                3488.00:  End Depth 
 ENG1.         Marcelo Marcari:  Engineer 1 
 ENG2.         Dair Mahammadov:  Engineer 2 
 ENG3.       Davud Huseyn-zada:  Engineer 3 
 ENG4.         Yevgeniy Ulikov:  Engineer 4 
 ETIM.      17.45.20 17-Aug-21:  End Time 
 FLOI.gpm              1197.70:  Flow In 
 FLON.gpm              1100.00:  Flow In Min 
 FLOS.cptm                0.00:  Fluid Loss 
 FLOX.gpm              1200.00:  Flow In Max 
 DFT .        Mineral Oil Base:  Mud Type 
 FTRO.       Formation Presure:  FTWD Run Obj 
 HFLO.                      No:  High Flow 
 HPRE.                      No:  High Pressure 
 HTEM.                      No:  High Temp 
 HYDO.m                   1.80:  Hydro Offset 
 IFIN.deg                 9.87:  Inc, Final 
 IMAX.deg                19.96:  Inc Max 
 IMIN.deg                 3.82:  Inc Min 
 IMND.m                3257.42:  Inc Min Depth 
 IMXD.m                2945.53:  Inc Max Depth 
 JARR.                      No:  Jarring 
 LETM.      11.42.20 11-Aug-21:  Log End Time 
 LOST.hr                     0:  Lost Rig Time 
 LSTM.      23.03.20 08-Aug-21:  Log Start Time 
 MDCL.ppm             42500.00:  Mud Chlorides 
 MDES.     Inversion Oil/Synthetic:  Mud Desc 
 DFD .sg                  1.45:  Mud Density 
 MDMN.sg                  1.39:  Dens Mud Min 
 MDMX.sg                  1.57:  Dens Mud Max 
 MOIL.                   53.20:  Run Mud Oil % 
 MOWR.                   70:30:  Run Mud OWR 
 MSND.                       0:  Run Mud Sand % 
 MSOL.                   24.30:  Run Mud Solids% 
 DFV .spqt               79.00:  Mud Viscosity 
 MWOD.in                  8.00:  MWD Tool OD 
 MWSI.                      No:  Serv Intrp, MWD 
 OTIM.hr                253.06:  Time Operating 
 PCON.           Look Like New:  Pad Condition 
 PMAX.psia            11068.93:  Press Op, Max 
 PV  .cP                 36.00:  Mud PV 
 RUN .                    1000:  Run Number 
 ROPA.m/hr               15.34:  ROP Avg 
 ROPN.m/hr                4.00:  ROP Min 
 ROPX.m/hr               31.00:  ROP Max 
 RPMA.rpm               151.40:  RPM Surface Avg 
 RPMN.rpm               120.00:  RPM Surface Min 
 RPMX.rpm               160.00:  RPM Surface Max 
 RRUN.                    L505:  Rig Run Number 
 RTIM.hr                 10.00:  Time Reaming 
 SAZI.deg                88.92:  Azm, Start 
 SDEP.m                2789.00:  Start Depth 
 SIDD.                      No:  Serv Intrp, DD 
 SINC.deg                19.84:  Inc, Start 
 SPPA.psig             4421.39:  SPP Avg 
 SPPN.psig             4130.00:  SPP Min 
 SPPX.psig             4800.00:  SPP Max 
 STIM.      01.25.20 07-Aug-21:  Start Time 
 SVCS.                 DD, MWD:  Services 
 SVER.                    9.20:  Sperry Version 
 TDAT.m                 699.00:  Tot Depth Attmp 
 TDDF.                      No:  Trip for DD 
 TDLG.m                 699.00:  Tot Depth Loggd 
 TFF .                      No:  Trip for Fail 
 TQAA.f-kp               20.55:  Torque Abs Avg 
 TQAN.f-kp               15.00:  Torque Abs Min 
 TQAX.f-kp               24.00:  Torque Abs Max 
 TRRT.°/30m               0.50:  Turn Rotating 
 MRT .                    HCIM:  Maximum Recorded Temperature 
 TTMX.degC               82.35:  Max Tool Temp 
 VS01.                90654677:  Virtual Str1 SN 
 VS02.                90636294:  Virtual Str2 SN 
 VS03.                90653866:  Virtual Str3 SN 
 VS04.                90654674:  Virtual Str4 SN 
 WBMN.klb                10.00:  WOB Min 
 WITN.         Haytham Mostafa:  Customer Rep 
 WITN.           Rufat Babayev:  Customer Rep 2 
 WOBA.klb                22.43:  WOB Avg 
 WOBX.klb                35.00:  WOB Max 
 YP  .lhf2               32.00:  Yield Point 
~Curve Information Block
#MNEM.UNIT                 API CODE     Curve Description
#---------               -----------    ---------------------------
 TIME.HHMMSS            00 000 000 000:  GT Time & Date
 GTDEPTH.m              00 000 000 000:  GT Depth
 GTPQH.psia             00 000 000 000:  GT HR Quartz Pressure
 GTTQ.degC              00 000 000 000:  GT Quartz Temperature
 GTTN.NONE              00 000 000 000:  GT Test Number
 GTET.sec               00 000 000 000:  GT Elapsed Test Time
 GTTVD.m                00 000 000 000:  GT True Vertical Depth
#Other Information
#
#WARRANTY: Halliburton will use its best efforts to furnish customers with 
#accurate information and interpretations that are part of, and incident to, the services 
#provided.  However, Halliburton cannot and does not warrant the accuracy 
#or correctness of such information and interpretations.  Under no circumstances should any 
#such information or interpretation be relied upon as the sole basis for any drilling, 
#completion, production, or financial decision or any procedure involving any risk to the 
#safety of any drilling venture, drilling rig or its crew or any other third party.  The 
#Customer has full responsibility for all drilling, completion and production operation.  
#Halliburton makes no representations or warranties, either expressed or 
#implied, including, but not limited to, the implied warranties of merchantability or fitness 
#for a particular purpose, with respect to the services rendered.  In no event will 
#Halliburton be liable for failure to obtain any particular results or for 
#any damages, including, but not limited to, indirect, special or consequential damages, 
#resulting from the use of any information or interpretation provided by Halliburton.
#
~A           TIME           GTDEPTH  GTPQH  GTTQ  GTTN  GTET   GTTVD  
# ...
   11:53:21.089.15-Aug-2021 3405.50 1629.39 53.80 5.00 344.79 3258.07
   11:53:21.289.15-Aug-2021 3405.50 1629.39 53.80 5.00 344.99 3258.07
   11:53:21.489.15-Aug-2021 3405.50 1632.67 53.80 5.00 345.19 3258.07
   11:53:21.689.15-Aug-2021 3405.50 1634.27 53.80 5.00 345.39 3258.07
   11:53:21.889.15-Aug-2021 3405.50 1635.84 53.80 5.00 345.59 3258.07
   11:53:22.089.15-Aug-2021 3405.50 1637.21 53.80 5.00 345.79 3258.07
   11:53:22.288.15-Aug-2021 3405.50 1637.21 53.80 5.00 345.99 3258.07
   11:53:22.488.15-Aug-2021 3405.50 1641.16 53.80 5.00 346.19 3258.07
   11:53:22.688.15-Aug-2021 3405.50 1642.90 53.80 5.00 346.39 3258.07
   11:53:22.888.15-Aug-2021 3405.50 1644.52 53.80 5.00 346.59 3258.07
   11:53:23.088.15-Aug-2021 3405.50 1646.73 53.80 5.00 346.79 3258.07
   11:53:23.288.15-Aug-2021 3405.50 1646.73 53.80 5.00 346.99 3258.07
   11:53:23.488.15-Aug-2021 3405.50 1650.30 53.80 5.00 347.19 3258.07
   11:53:23.688.15-Aug-2021 3405.50 1651.80 53.79 5.00 347.39 3258.07
   11:53:23.887.15-Aug-2021 3405.50 1653.88 53.79 5.00 347.59 3258.07
   11:53:24.087.15-Aug-2021 3405.50 1655.33 53.79 5.00 347.79 3258.07
   11:53:24.287.15-Aug-2021 3405.50 1655.33 53.79 5.00 347.99 3258.07
   11:53:24.487.15-Aug-2021 3405.50 1658.79 53.79 5.00 348.19 3258.07
   11:53:24.687.15-Aug-2021 3405.50 1660.06 53.79 5.00 348.39 3258.07
   11:53:24.887.15-Aug-2021 3405.50 1661.47 53.79 5.00 348.59 3258.07
   11:53:25.087.15-Aug-2021 3405.50 1662.99 53.79 5.00 348.79 3258.07
   11:53:25.287.15-Aug-2021 3405.50 1662.99 53.79 5.00 348.99 3258.07
   11:53:25.486.15-Aug-2021 3405.50 1666.33 53.79 5.00 349.19 3258.07
   11:53:25.686.15-Aug-2021 3405.50 1667.72 53.79 5.00 349.39 3258.07
   11:53:25.886.15-Aug-2021 3405.50 1669.02 53.79 5.00 349.59 3258.07
   11:53:26.086.15-Aug-2021 3405.50 1670.65 53.79 5.00 349.79 3258.07
   11:53:26.286.15-Aug-2021 3405.50 1670.65 53.79 5.00 349.99 3258.07
   11:53:26.486.15-Aug-2021 3405.50 1673.83 53.79 5.00 350.19 3258.07
   11:53:26.686.15-Aug-2021 3405.50 1675.24 53.79 5.00 350.39 3258.07
   11:53:26.886.15-Aug-2021 3405.50 1676.80 53.79 5.00 350.59 3258.07
   11:53:27.086.15-Aug-2021 3405.50 1678.33 53.79 5.00 350.79 3258.07
   11:53:27.285.15-Aug-2021 3405.50 1678.33 53.79 5.00 350.99 3258.07
   11:53:27.485.15-Aug-2021 3405.50 1680.77 53.79 5.00 351.19 3258.07
   11:53:27.685.15-Aug-2021 3405.50 1681.88 53.79 5.00 351.39 3258.07
   11:53:27.885.15-Aug-2021 3405.50 1682.86 53.79 5.00 351.59 3258.07
   11:53:28.085.15-Aug-2021 3405.50 1683.92 53.79 5.00 351.79 3258.07
   11:53:28.285.15-Aug-2021 3405.50 1683.92 53.79 5.00 351.99 3258.07
   11:53:28.485.15-Aug-2021 3405.50 1686.09 53.79 5.00 352.19 3258.07
   11:53:28.685.15-Aug-2021 3405.50 1687.69 53.79 5.00 352.39 3258.07
   11:53:28.884.15-Aug-2021 3405.50 1688.56 53.79 5.00 352.59 3258.07
   11:53:29.084.15-Aug-2021 3405.50 1689.54 53.79 5.00 352.79 3258.07
   11:53:29.284.15-Aug-2021 3405.50 1689.54 53.79 5.00 352.99 3258.07
   11:53:29.484.15-Aug-2021 3405.50 1691.54 53.79 5.00 353.19 3258.07
   11:53:29.684.15-Aug-2021 3405.50 1692.46 53.79 5.00 353.39 3258.07
   11:53:29.884.15-Aug-2021 3405.50 1693.34 53.79 5.00 353.59 3258.07
   11:53:30.084.15-Aug-2021 3405.50 1694.15 53.79 5.00 353.79 3258.07
   11:53:30.284.15-Aug-2021 3405.50 1694.15 53.79 5.00 353.99 3258.07
   11:53:30.483.15-Aug-2021 3405.50 1696.83 53.79 5.00 354.19 3258.07
   11:53:30.683.15-Aug-2021 3405.50 1697.75 53.79 5.00 354.39 3258.07
   11:53:30.883.15-Aug-2021 3405.50 1698.70 53.79 5.00 354.59 3258.07
   11:53:31.083.15-Aug-2021 3405.50 1699.69 53.79 5.00 354.79 3258.07
   11:53:31.283.15-Aug-2021 3405.50 1699.69 53.79 5.00 354.99 3258.07
   11:53:31.483.15-Aug-2021 3405.50 1701.98 53.79 5.00 355.19 3258.07
   11:53:31.683.15-Aug-2021 3405.50 1703.35 53.79 5.00 355.39 3258.07
   11:53:31.883.15-Aug-2021 3405.50 1704.16 53.79 5.00 355.59 3258.07
   11:53:32.083.15-Aug-2021 3405.50 1705.05 53.79 5.00 355.79 3258.07
   11:53:32.282.15-Aug-2021 3405.50 1705.05 53.79 5.00 355.99 3258.07
   11:53:32.482.15-Aug-2021 3405.50 1706.84 53.79 5.00 356.19 3258.07
   11:53:32.682.15-Aug-2021 3405.50 1707.87 53.79 5.00 356.39 3258.07
   11:53:32.882.15-Aug-2021 3405.50 1708.66 53.79 5.00 356.59 3258.07
   11:53:33.082.15-Aug-2021 3405.50 1709.93 53.79 5.00 356.79 3258.07
   11:53:33.282.15-Aug-2021 3405.50 1709.93 53.79 5.00 356.99 3258.07
   11:53:33.482.15-Aug-2021 3405.50 1711.59 53.79 5.00 357.19 3258.07
   11:53:33.682.15-Aug-2021 3405.50 1712.32 53.79 5.00 357.38 3258.07
   11:53:33.881.15-Aug-2021 3405.50 1713.05 53.79 5.00 357.58 3258.07
   11:53:34.081.15-Aug-2021 3405.50 1714.29 53.79 5.00 357.78 3258.07
   11:53:34.281.15-Aug-2021 3405.50 1714.29 53.79 5.00 357.98 3258.07
   11:53:34.481.15-Aug-2021 3405.50 1716.54 53.79 5.00 358.18 3258.07
   11:53:34.681.15-Aug-2021 3405.50 1717.44 53.79 5.00 358.38 3258.07
   11:53:34.881.15-Aug-2021 3405.50 1718.62 53.79 5.00 358.58 3258.07
   11:53:35.081.15-Aug-2021 3405.50 1719.37 53.79 5.00 358.78 3258.07
   11:53:35.281.15-Aug-2021 3405.50 1719.37 53.79 5.00 358.98 3258.07
   11:53:35.480.15-Aug-2021 3405.50 1721.41 53.79 5.00 359.18 3258.07
   11:53:35.680.15-Aug-2021 3405.50 1722.59 53.79 5.00 359.38 3258.07
   11:53:35.880.15-Aug-2021 3405.50 1723.61 53.79 5.00 359.58 3258.07
   11:53:36.080.15-Aug-2021 3405.50 1724.57 53.79 5.00 359.78 3258.07
   11:53:36.280.15-Aug-2021 3405.50 1724.57 53.79 5.00 359.98 3258.07
   11:53:36.480.15-Aug-2021 3405.50 1726.22 53.79 5.00 360.18 3258.07
   11:53:36.680.15-Aug-2021 3405.50 1726.89 53.79 5.00 360.38 3258.07
   11:53:36.880.15-Aug-2021 3405.50 1727.80 53.79 5.00 360.58 3258.07
   11:53:37.080.15-Aug-2021 3405.50 1728.74 53.79 5.00 360.78 3258.07
   11:53:37.279.15-Aug-2021 3405.50 1728.74 53.79 5.00 360.98 3258.07
   11:53:37.479.15-Aug-2021 3405.50 1730.32 53.79 5.00 361.18 3258.07
   11:53:37.679.15-Aug-2021 3405.50 1731.07 53.79 5.00 361.38 3258.07
   11:53:37.879.15-Aug-2021 3405.50 1731.68 53.79 5.00 361.58 3258.07
   11:53:38.079.15-Aug-2021 3405.50 1732.30 53.79 5.00 361.78 3258.07
   11:53:38.279.15-Aug-2021 3405.50 1732.30 53.79 5.00 361.98 3258.07
   11:53:38.479.15-Aug-2021 3405.50 1733.54 53.79 5.00 362.18 3258.07
   11:53:38.679.15-Aug-2021 3405.50 1734.65 53.79 5.00 362.38 3258.07
   11:53:38.878.15-Aug-2021 3405.50 1735.58 53.79 5.00 362.58 3258.07
   11:53:39.078.15-Aug-2021 3405.50 1736.41 53.79 5.00 362.78 3258.07
   11:53:39.278.15-Aug-2021 3405.50 1736.41 53.79 5.00 362.98 3258.07
   11:53:39.478.15-Aug-2021 3405.50 1737.77 53.79 5.00 363.18 3258.07
   11:53:39.678.15-Aug-2021 3405.50 1738.34 53.79 5.00 363.38 3258.07
   11:53:39.878.15-Aug-2021 3405.50 1739.11 53.79 5.00 363.58 3258.07
   11:53:40.078.15-Aug-2021 3405.50 1740.15 53.79 5.00 363.78 3258.07
   11:53:40.278.15-Aug-2021 3405.50 1740.15 53.79 5.00 363.98 3258.07
   11:53:40.477.15-Aug-2021 3405.50 1741.79 53.79 5.00 364.18 3258.07
   11:53:40.677.15-Aug-2021 3405.50 1742.45 53.79 5.00 364.38 3258.07
   11:53:40.877.15-Aug-2021 3405.50 1742.99 53.79 5.00 364.58 3258.07
   11:53:41.077.15-Aug-2021 3405.50 1743.61 53.79 5.00 364.78 3258.07
   11:53:41.277.15-Aug-2021 3405.50 1743.61 53.79 5.00 364.98 3258.07
   11:53:41.477.15-Aug-2021 3405.50 1745.44 53.79 5.00 365.18 3258.07
   11:53:41.677.15-Aug-2021 3405.50 1746.09 53.79 5.00 365.38 3258.07
   11:53:41.877.15-Aug-2021 3405.50 1746.89 53.79 5.00 365.58 3258.07
   11:53:42.077.15-Aug-2021 3405.50 1747.52 53.79 5.00 365.78 3258.07
   11:53:42.276.15-Aug-2021 3405.50 1747.52 53.79 5.00 365.98 3258.07
   11:53:42.476.15-Aug-2021 3405.50 1748.91 53.79 5.00 366.18 3258.07
   11:53:42.676.15-Aug-2021 3405.50 1749.36 53.79 5.00 366.38 3258.07
   11:53:42.876.15-Aug-2021 3405.50 1750.58 53.79 5.00 366.58 3258.07
   11:53:43.076.15-Aug-2021 3405.50 1751.24 53.79 5.00 366.78 3258.07
   11:53:43.276.15-Aug-2021 3405.50 1751.24 53.79 5.00 366.98 3258.07
   11:53:43.476.15-Aug-2021 3405.50 1752.63 53.79 5.00 367.18 3258.07
   11:53:43.676.15-Aug-2021 3405.50 1753.61 53.79 5.00 367.38 3258.07
   11:53:43.875.15-Aug-2021 3405.50 1754.33 53.79 5.00 367.58 3258.07
