~Version Information
 VERS.                  2.0:   CWLS log ASCII Standard -VERSION 2.0
 WRAP.                   NO:   One line per depth step
~Well Information Block
#MNEM.UNIT     VALUE/NAME     DESCRIPTION
#---------     -----------    ---------------------------
 STRT.S             11:47:36 15-Aug-21: START TIME 11:47:36 15-Aug-21
 STOP.S             11:55:59 15-Aug-21: STOP TIME  11:55:59 15-Aug-21
 STEP.S                   0.00: STEP TIME
 NULL.                 -999.25: NULL VALUE
 DFWT.                        :  DIST FWL TEXT
 DFST.                        :  DIST FSL TEXT
 DMF .             Drill Floor:  DRILL MEAS FROM
 STIM.      17.18.56 20-Jun-21:  START TIME
 DATE.      17.18.56 20-Aug-21:  END TIME
 SPUD.               20-Jun-21:  SPUD DATE
 NREF.                    Grid:  NORTH REFERENCE
 HPTY.       Minimum Curvature:  HOLE POS TYPE
 DMOD.             Drill Model:  DRILL MOD DESC
 SVYD.                  Survey:  SURVEY DESC
 ILTD.               Lithology:  INTERP LTH DESC
 FTOP.          Formation Tops:  FORM TOPS DESC
 SON .        AZ-XX-0907056190:  JOB NUMBER
 PDAT.       Caspian Sea Level:  PERMANENT DATUM
 WTYP.                Deviated:  WELL TYPE
 MDS .        Operator Entered:  MAG DATA SOURCE
 COMP.     BP Exploration (Caspian Sea) Ltd.:  COMPANY
 UWI .            /AZE20000092:  UNIQUE WELL IDENTIFIER
 API .            /AZE20000092:  API NUMBER
 BASE.              Azerbaijan:  LOGGING EQUIPMENT BASE LOCATION
 REGN.                   EESSA:  REGION
 PROV.                    baku:  PROVINCE
 STAT.                    baku:  STATE NAME
 CTRY.              Azerbaijan:  COUNTRY NAME
 FLD .                     ACG:  FIELD NAME
 SRVC.          Turan Drilling:  CONTRACTOR
 MWDS.                    Baku:  MWD SHOP
 WELL.                     J26:  WELL NAME
 JOBN.        AZ-XX-0907056190:  JOB TICKET NUMB
 RIG .             West Chirag:  RIG NAME
 DOE .                     N/A:  DOE NUMBER
 DCON.         Sperry Drilling:  DIRECTNL CONTR
 UNIT.                     N/A:  LOGGING EQUIPMENT ID
 CNTY.                        :  COUNTY
 LOC .                        :  LOCATION
 LMF .             Drill Floor:  LOG MEASURED FROM
 TVDS.m                  43.00:  TVDSS CORRECTN
 LATI.deg                40.13:  LATITUDE
 LONG.deg                51.22:  LONGITUDE
 WHNS.m                  -7.12:  WELL HEAD N/S
 WHEW.m                  -9.46:  WELL HEAD E/W
 UTMX.m              519004.02:  UTM X
 UTMY.m             4443784.96:  UTM Y
 DFWL.m                   0.00:  DISTANCE FWL
 DFSL.m                   0.00:  DISTANCE FSL
 SDEP.m                 464.00:  START DEPTH
 TDD .m                3500.00:  TOTAL DEPTH (DRILLER)
 VSDR.deg               114.35:  VERT SEC DIRECT
 GVFD.g                   1.00:  GRAVITY FIELD
 MFLD.nT              50386.00:  MAGNETIC FIELD
 MDIP.deg                59.63:  MAGNETIC DIP
 MDEC.deg                 6.43:  MAGNETIC DECL
 GRDC.deg                 0.15:  GRID CORRECTION
 AZTC.deg                 6.29:  AZM TOTAL CORR
 EPD .m                   0.00:  ELEVATION
 EGL .m                   0.00:  GROUND ELEVATION
 WDMS.m                 169.80:  WD ELEV
 APD .m                  43.00:  DEPTH ABOVE PD
 VSEW.m                  -9.46:  VERT SEC E/W
 VSNS.m                  -7.12:  VERT SEC N/S
 AGAP.m                  43.00:  AIR GAP
 DEP .m                 356.16:  DEPTH
 EKB .m                  43.00:  KB ELEVATION
 EDF .m                  43.00:  DF ELEVATION
 TDL .m                 699.00:  TOTAL DEPTH (LOGGER)
 VSC .                       0:  VS TO CLOSURE
 MAGU.                 1853727:  MAGUTM CHECKSUM
~Parameter Information Block
#MNEM.UNIT       Value        Description
#---------     -----------    ---------------------------
 AV  .mps                 1.30:  Ann Velocity 
 AVMX.mps                 1.67:  Max Ann Veloc 
 AZIF.deg               280.40:  Azm, Final 
 BHAT.        Rotary Steerable:  BHA Type 
 BREV.rev            528970.00:  Rev Bit Total 
 BROT.°/30m               1.00:  Build Rotating 
 BS  .in                 12.25:  Bit Size 
 BSZ .in                 12.25:  Bit Size 
 BTPL.psig              738.00:  Bit Press Loss 
 CABU.                     Yes:  Customer Abuse 
 CGEO.        Elvin Suleymanov:  Customer Geo 
 COMM.                     lþe:  Run Comments 1 
 TCS .hr                 66.05:  Time Ciculation Ended 
 CV  .mps                 2.20:  Crit Velocity 
 CVMX.mps                 2.56:  Max Crit Veloc 
 DD1 .          Rashad Habibov:  Direct Drillr 1 
 DD2 .            Azer ravanov:  Direct Drillr 2 
 DD3 .           Teymur Agayev:  Direct Drillr 3 
 DDSV.               Geo-Pilot:  DD Service 
 DEFF.%                  90.00:  % Det Eff 
 DLRX.°/30m               2.95:  Dogleg Rot Max 
 DLSO.°/30m               1.00:  Dogleg Oriented 
 DLSX.°/30m               2.95:  Dogleg Str Max 
 DRET.      11.42.20 11-Aug-21:  Drill End Time 
 DRST.      23.03.20 08-Aug-21:  Drill Start Tim 
 DTIM.hr                 45.50:  Time Drilling 
 EDEP.m                3488.00:  End Depth 
 ENG1.         Marcelo Marcari:  Engineer 1 
 ENG2.         Dair Mahammadov:  Engineer 2 
 ENG3.       Davud Huseyn-zada:  Engineer 3 
 ENG4.         Yevgeniy Ulikov:  Engineer 4 
 ETIM.      17.45.20 17-Aug-21:  End Time 
 FLOI.gpm              1197.70:  Flow In 
 FLON.gpm              1100.00:  Flow In Min 
 FLOS.cptm                0.00:  Fluid Loss 
 FLOX.gpm              1200.00:  Flow In Max 
 DFT .        Mineral Oil Base:  Mud Type 
 FTRO.       Formation Presure:  FTWD Run Obj 
 HFLO.                      No:  High Flow 
 HPRE.                      No:  High Pressure 
 HTEM.                      No:  High Temp 
 HYDO.m                   1.80:  Hydro Offset 
 IFIN.deg                 9.87:  Inc, Final 
 IMAX.deg                19.96:  Inc Max 
 IMIN.deg                 3.82:  Inc Min 
 IMND.m                3257.42:  Inc Min Depth 
 IMXD.m                2945.53:  Inc Max Depth 
 JARR.                      No:  Jarring 
 LETM.      11.42.20 11-Aug-21:  Log End Time 
 LOST.hr                     0:  Lost Rig Time 
 LSTM.      23.03.20 08-Aug-21:  Log Start Time 
 MDCL.ppm             42500.00:  Mud Chlorides 
 MDES.     Inversion Oil/Synthetic:  Mud Desc 
 DFD .sg                  1.45:  Mud Density 
 MDMN.sg                  1.39:  Dens Mud Min 
 MDMX.sg                  1.57:  Dens Mud Max 
 MOIL.                   53.20:  Run Mud Oil % 
 MOWR.                   70:30:  Run Mud OWR 
 MSND.                       0:  Run Mud Sand % 
 MSOL.                   24.30:  Run Mud Solids% 
 DFV .spqt               79.00:  Mud Viscosity 
 MWOD.in                  8.00:  MWD Tool OD 
 MWSI.                      No:  Serv Intrp, MWD 
 OTIM.hr                253.06:  Time Operating 
 PCON.           Look Like New:  Pad Condition 
 PMAX.psia            11068.93:  Press Op, Max 
 PV  .cP                 36.00:  Mud PV 
 RUN .                    1000:  Run Number 
 ROPA.m/hr               15.34:  ROP Avg 
 ROPN.m/hr                4.00:  ROP Min 
 ROPX.m/hr               31.00:  ROP Max 
 RPMA.rpm               151.40:  RPM Surface Avg 
 RPMN.rpm               120.00:  RPM Surface Min 
 RPMX.rpm               160.00:  RPM Surface Max 
 RRUN.                    L505:  Rig Run Number 
 RTIM.hr                 10.00:  Time Reaming 
 SAZI.deg                88.92:  Azm, Start 
 SDEP.m                2789.00:  Start Depth 
 SIDD.                      No:  Serv Intrp, DD 
 SINC.deg                19.84:  Inc, Start 
 SPPA.psig             4421.39:  SPP Avg 
 SPPN.psig             4130.00:  SPP Min 
 SPPX.psig             4800.00:  SPP Max 
 STIM.      01.25.20 07-Aug-21:  Start Time 
 SVCS.                 DD, MWD:  Services 
 SVER.                    9.20:  Sperry Version 
 TDAT.m                 699.00:  Tot Depth Attmp 
 TDDF.                      No:  Trip for DD 
 TDLG.m                 699.00:  Tot Depth Loggd 
 TFF .                      No:  Trip for Fail 
 TQAA.f-kp               20.55:  Torque Abs Avg 
 TQAN.f-kp               15.00:  Torque Abs Min 
 TQAX.f-kp               24.00:  Torque Abs Max 
 TRRT.°/30m               0.50:  Turn Rotating 
 MRT .                    HCIM:  Maximum Recorded Temperature 
 TTMX.degC               82.35:  Max Tool Temp 
 VS01.                90654677:  Virtual Str1 SN 
 VS02.                90636294:  Virtual Str2 SN 
 VS03.                90653866:  Virtual Str3 SN 
 VS04.                90654674:  Virtual Str4 SN 
 WBMN.klb                10.00:  WOB Min 
 WITN.         Haytham Mostafa:  Customer Rep 
 WITN.           Rufat Babayev:  Customer Rep 2 
 WOBA.klb                22.43:  WOB Avg 
 WOBX.klb                35.00:  WOB Max 
 YP  .lhf2               32.00:  Yield Point 
~Curve Information Block
#MNEM.UNIT                 API CODE     Curve Description
#---------               -----------    ---------------------------
 TIME.HHMMSS            00 000 000 000:  GT Time & Date
 GTDEPTH.m              00 000 000 000:  GT Depth
 GTPQH.psia             00 000 000 000:  GT HR Quartz Pressure
 GTTQ.degC              00 000 000 000:  GT Quartz Temperature
 GTTN.NONE              00 000 000 000:  GT Test Number
 GTET.sec               00 000 000 000:  GT Elapsed Test Time
 GTTVD.m                00 000 000 000:  GT True Vertical Depth
#Other Information
#
#WARRANTY: Halliburton will use its best efforts to furnish customers with 
#accurate information and interpretations that are part of, and incident to, the services 
#provided.  However, Halliburton cannot and does not warrant the accuracy 
#or correctness of such information and interpretations.  Under no circumstances should any 
#such information or interpretation be relied upon as the sole basis for any drilling, 
#completion, production, or financial decision or any procedure involving any risk to the 
#safety of any drilling venture, drilling rig or its crew or any other third party.  The 
#Customer has full responsibility for all drilling, completion and production operation.  
#Halliburton makes no representations or warranties, either expressed or 
#implied, including, but not limited to, the implied warranties of merchantability or fitness 
#for a particular purpose, with respect to the services rendered.  In no event will 
#Halliburton be liable for failure to obtain any particular results or for 
#any damages, including, but not limited to, indirect, special or consequential damages, 
#resulting from the use of any information or interpretation provided by Halliburton.
#
~A           TIME           GTDEPTH  GTPQH  GTTQ  GTTN  GTET   GTTVD  
# ...
   11:49:54.214.15-Aug-2021 3405.50 5283.91 54.02 5.00 137.92 3258.07
   11:49:54.413.15-Aug-2021 3405.50 5283.91 54.02 5.00 138.12 3258.07
   11:49:54.613.15-Aug-2021 3405.50 5287.94 54.02 5.00 138.32 3258.07
   11:49:54.813.15-Aug-2021 3405.50 5289.23 54.02 5.00 138.52 3258.07
   11:49:55.013.15-Aug-2021 3405.50 5290.34 54.02 5.00 138.72 3258.07
   11:49:55.213.15-Aug-2021 3405.50 5292.09 54.02 5.00 138.92 3258.07
   11:49:55.413.15-Aug-2021 3405.50 5292.09 54.02 5.00 139.12 3258.07
   11:49:55.613.15-Aug-2021 3405.50 5296.17 54.02 5.00 139.32 3258.07
   11:49:55.813.15-Aug-2021 3405.50 5297.57 54.02 5.00 139.52 3258.07
   11:49:56.013.15-Aug-2021 3405.50 5299.72 54.02 5.00 139.72 3258.07
   11:49:56.212.15-Aug-2021 3405.50 5301.92 54.02 5.00 139.92 3258.07
   11:49:56.412.15-Aug-2021 3405.50 5301.92 54.02 5.00 140.12 3258.07
   11:49:56.612.15-Aug-2021 3405.50 5304.83 54.02 5.00 140.32 3258.07
   11:49:56.812.15-Aug-2021 3405.50 5306.02 54.02 5.00 140.52 3258.07
   11:49:57.012.15-Aug-2021 3405.50 5307.29 54.02 5.00 140.72 3258.07
   11:49:57.212.15-Aug-2021 3405.50 5308.80 54.02 5.00 140.92 3258.07
   11:49:57.412.15-Aug-2021 3405.50 5308.80 54.02 5.00 141.12 3258.07
   11:49:57.612.15-Aug-2021 3405.50 5312.21 54.02 5.00 141.31 3258.07
   11:49:57.811.15-Aug-2021 3405.50 5313.62 54.02 5.00 141.51 3258.07
   11:49:58.011.15-Aug-2021 3405.50 5314.79 54.02 5.00 141.71 3258.07
   11:49:58.211.15-Aug-2021 3405.50 5315.88 54.02 5.00 141.91 3258.07
   11:49:58.411.15-Aug-2021 3405.50 5315.88 54.02 5.00 142.11 3258.07
   11:49:58.611.15-Aug-2021 3405.50 5317.95 54.02 5.00 142.31 3258.07
   11:49:58.811.15-Aug-2021 3405.50 5318.93 54.02 5.00 142.51 3258.07
   11:49:59.011.15-Aug-2021 3405.50 5320.94 54.02 5.00 142.71 3258.07
   11:49:59.211.15-Aug-2021 3405.50 5323.36 54.01 5.00 142.91 3258.07
   11:49:59.410.15-Aug-2021 3405.50 5323.36 54.01 5.00 143.11 3258.07
   11:49:59.610.15-Aug-2021 3405.50 5325.61 54.01 5.00 143.31 3258.07
   11:49:59.810.15-Aug-2021 3405.50 5326.49 54.01 5.00 143.51 3258.07
   11:50:00.010.15-Aug-2021 3405.50 5327.86 54.01 5.00 143.71 3258.07
   11:50:00.210.15-Aug-2021 3405.50 5330.17 54.01 5.00 143.91 3258.07
   11:50:00.410.15-Aug-2021 3405.50 5330.17 54.01 5.00 144.11 3258.07
   11:50:00.610.15-Aug-2021 3405.50 5332.91 54.01 5.00 144.31 3258.07
   11:50:00.810.15-Aug-2021 3405.50 5333.98 54.01 5.00 144.51 3258.07
   11:50:01.010.15-Aug-2021 3405.50 5335.48 54.01 5.00 144.71 3258.07
   11:50:01.209.15-Aug-2021 3405.50 5337.35 54.01 5.00 144.91 3258.07
   11:50:01.409.15-Aug-2021 3405.50 5337.35 54.01 5.00 145.11 3258.07
   11:50:01.609.15-Aug-2021 3405.50 5340.29 54.01 5.00 145.31 3258.07
   11:50:01.809.15-Aug-2021 3405.50 5341.54 54.01 5.00 145.51 3258.07
   11:50:02.009.15-Aug-2021 3405.50 5342.56 54.01 5.00 145.71 3258.07
   11:50:02.209.15-Aug-2021 3405.50 5344.89 54.01 5.00 145.91 3258.07
   11:50:02.409.15-Aug-2021 3405.50 5344.89 54.01 5.00 146.11 3258.07
   11:50:02.609.15-Aug-2021 3405.50 5347.06 54.01 5.00 146.31 3258.07
   11:50:02.808.15-Aug-2021 3405.50 5348.00 54.01 5.00 146.51 3258.07
   11:50:03.008.15-Aug-2021 3405.50 5349.51 54.01 5.00 146.71 3258.07
   11:50:03.208.15-Aug-2021 3405.50 5351.74 54.01 5.00 146.91 3258.07
   11:50:03.408.15-Aug-2021 3405.50 5351.74 54.01 5.00 147.11 3258.07
   11:50:03.608.15-Aug-2021 3405.50 5354.07 54.01 5.00 147.31 3258.07
   11:50:03.808.15-Aug-2021 3405.50 5355.70 54.01 5.00 147.51 3258.07
   11:50:04.008.15-Aug-2021 3405.50 5357.28 54.01 5.00 147.71 3258.07
   11:50:04.208.15-Aug-2021 3405.50 5358.33 54.01 5.00 147.91 3258.07
   11:50:04.407.15-Aug-2021 3405.50 5358.33 54.01 5.00 148.11 3258.07
   11:50:04.607.15-Aug-2021 3405.50 5360.27 54.01 5.00 148.31 3258.07
   11:50:04.807.15-Aug-2021 3405.50 5361.11 54.01 5.00 148.51 3258.07
   11:50:05.007.15-Aug-2021 3405.50 5362.02 54.01 5.00 148.71 3258.07
   11:50:05.207.15-Aug-2021 3405.50 5363.58 54.01 5.00 148.91 3258.07
   11:50:05.407.15-Aug-2021 3405.50 5363.58 54.01 5.00 149.11 3258.07
   11:50:05.607.15-Aug-2021 3405.50 5366.35 54.01 5.00 149.31 3258.07
   11:50:05.807.15-Aug-2021 3405.50 5367.37 54.01 5.00 149.51 3258.07
   11:50:06.007.15-Aug-2021 3405.50 5368.34 54.01 5.00 149.71 3258.07
   11:50:06.206.15-Aug-2021 3405.50 5369.28 54.01 5.00 149.91 3258.07
   11:50:06.406.15-Aug-2021 3405.50 5369.28 54.01 5.00 150.11 3258.07
   11:50:06.606.15-Aug-2021 3405.50 5371.16 54.01 5.00 150.31 3258.07
   11:50:06.806.15-Aug-2021 3405.50 5371.90 54.01 5.00 150.51 3258.07
   11:50:07.006.15-Aug-2021 3405.50 5373.55 54.01 5.00 150.71 3258.07
   11:50:07.206.15-Aug-2021 3405.50 5375.28 54.01 5.00 150.91 3258.07
   11:50:07.406.15-Aug-2021 3405.50 5375.28 54.01 5.00 151.11 3258.07
   11:50:07.606.15-Aug-2021 3405.50 5377.80 54.01 5.00 151.31 3258.07
   11:50:07.805.15-Aug-2021 3405.50 5379.21 54.01 5.00 151.51 3258.07
   11:50:08.005.15-Aug-2021 3405.50 5380.62 54.01 5.00 151.71 3258.07
   11:50:08.205.15-Aug-2021 3405.50 5382.12 54.01 5.00 151.91 3258.07
   11:50:08.405.15-Aug-2021 3405.50 5382.12 54.01 5.00 152.11 3258.07
   11:50:08.605.15-Aug-2021 3405.50 5384.92 54.01 5.00 152.31 3258.07
   11:50:08.805.15-Aug-2021 3405.50 5385.69 54.01 5.00 152.51 3258.07
   11:50:09.005.15-Aug-2021 3405.50 5387.55 54.01 5.00 152.71 3258.07
   11:50:09.205.15-Aug-2021 3405.50 5388.68 54.01 5.00 152.91 3258.07
   11:50:09.404.15-Aug-2021 3405.50 5388.68 54.01 5.00 153.11 3258.07
   11:50:09.604.15-Aug-2021 3405.50 5390.95 54.01 5.00 153.31 3258.07
   11:50:09.804.15-Aug-2021 3405.50 5392.02 54.01 5.00 153.51 3258.07
   11:50:10.004.15-Aug-2021 3405.50 5393.10 54.01 5.00 153.71 3258.07
   11:50:10.204.15-Aug-2021 3405.50 5394.17 54.01 5.00 153.91 3258.07
   11:50:10.404.15-Aug-2021 3405.50 5394.17 54.01 5.00 154.11 3258.07
   11:50:10.604.15-Aug-2021 3405.50 5396.19 54.01 5.00 154.31 3258.07
   11:50:10.804.15-Aug-2021 3405.50 5396.87 54.01 5.00 154.51 3258.07
   11:50:11.004.15-Aug-2021 3405.50 5398.42 54.01 5.00 154.71 3258.07
   11:50:11.203.15-Aug-2021 3405.50 5399.30 54.01 5.00 154.91 3258.07
   11:50:11.403.15-Aug-2021 3405.50 5399.30 54.01 5.00 155.11 3258.07
   11:50:11.603.15-Aug-2021 3405.50 5401.79 54.01 5.00 155.31 3258.07
   11:50:11.803.15-Aug-2021 3405.50 5403.25 54.01 5.00 155.51 3258.07
   11:50:12.003.15-Aug-2021 3405.50 5404.23 54.01 5.00 155.71 3258.07
   11:50:12.203.15-Aug-2021 3405.50 5405.09 54.01 5.00 155.91 3258.07
   11:50:12.403.15-Aug-2021 3405.50 5405.09 54.01 5.00 156.11 3258.07
   11:50:12.603.15-Aug-2021 3405.50 5407.77 54.01 5.00 156.31 3258.07
   11:50:12.802.15-Aug-2021 3405.50 5408.67 54.01 5.00 156.51 3258.07
   11:50:13.002.15-Aug-2021 3405.50 5410.35 54.01 5.00 156.71 3258.07
   11:50:13.202.15-Aug-2021 3405.50 5411.30 54.01 5.00 156.91 3258.07
   11:50:13.402.15-Aug-2021 3405.50 5411.30 54.01 5.00 157.11 3258.07
   11:50:13.602.15-Aug-2021 3405.50 5412.93 54.01 5.00 157.31 3258.07
   11:50:13.802.15-Aug-2021 3405.50 5413.62 54.01 5.00 157.51 3258.07
   11:50:14.002.15-Aug-2021 3405.50 5414.48 54.01 5.00 157.71 3258.07
   11:50:14.202.15-Aug-2021 3405.50 5415.47 54.01 5.00 157.90 3258.07
   11:50:14.401.15-Aug-2021 3405.50 5415.47 54.01 5.00 158.10 3258.07
   11:50:14.601.15-Aug-2021 3405.50 5417.56 54.01 5.00 158.30 3258.07
   11:50:14.801.15-Aug-2021 3405.50 5419.44 54.00 5.00 158.50 3258.07
   11:50:15.001.15-Aug-2021 3405.50 5420.44 54.00 5.00 158.70 3258.07
   11:50:15.201.15-Aug-2021 3405.50 5421.37 54.00 5.00 158.90 3258.07
   11:50:15.401.15-Aug-2021 3405.50 5421.37 54.00 5.00 159.10 3258.07
   11:50:15.601.15-Aug-2021 3405.50 5422.89 54.00 5.00 159.30 3258.07
   11:50:15.801.15-Aug-2021 3405.50 5424.05 54.00 5.00 159.50 3258.07
   11:50:16.001.15-Aug-2021 3405.50 5425.49 54.00 5.00 159.70 3258.07
   11:50:16.200.15-Aug-2021 3405.50 5427.07 54.00 5.00 159.90 3258.07
   11:50:16.400.15-Aug-2021 3405.50 5427.07 54.00 5.00 160.10 3258.07
   11:50:16.600.15-Aug-2021 3405.50 5428.10 54.00 5.00 160.30 3258.07
   11:50:16.800.15-Aug-2021 3405.50 5428.96 54.00 5.00 160.50 3258.07
   11:50:17.000.15-Aug-2021 3405.50 5429.76 54.00 5.00 160.70 3258.07
