~Version Information
 VERS.                  2.0:   CWLS log ASCII Standard -VERSION 2.0
 WRAP.                   NO:   One line per depth step
~Well Information Block
#MNEM.UNIT     VALUE/NAME     DESCRIPTION
#---------     -----------    ---------------------------
 STRT.S             11:47:36 15-Aug-21: START TIME 11:47:36 15-Aug-21
 STOP.S             11:55:59 15-Aug-21: STOP TIME  11:55:59 15-Aug-21
 STEP.S                   0.00: STEP TIME
 NULL.                 -999.25: NULL VALUE
 DFWT.                        :  DIST FWL TEXT
 DFST.                        :  DIST FSL TEXT
 DMF .             Drill Floor:  DRILL MEAS FROM
 STIM.      17.18.56 20-Jun-21:  START TIME
 DATE.      17.18.56 20-Aug-21:  END TIME
 SPUD.               20-Jun-21:  SPUD DATE
 NREF.                    Grid:  NORTH REFERENCE
 HPTY.       Minimum Curvature:  HOLE POS TYPE
 DMOD.             Drill Model:  DRILL MOD DESC
 SVYD.                  Survey:  SURVEY DESC
 ILTD.               Lithology:  INTERP LTH DESC
 FTOP.          Formation Tops:  FORM TOPS DESC
 SON .        AZ-XX-0907056190:  JOB NUMBER
 PDAT.       Caspian Sea Level:  PERMANENT DATUM
 WTYP.                Deviated:  WELL TYPE
 MDS .        Operator Entered:  MAG DATA SOURCE
 COMP.     BP Exploration (Caspian Sea) Ltd.:  COMPANY
 UWI .            /AZE20000092:  UNIQUE WELL IDENTIFIER
 API .            /AZE20000092:  API NUMBER
 BASE.              Azerbaijan:  LOGGING EQUIPMENT BASE LOCATION
 REGN.                   EESSA:  REGION
 PROV.                    baku:  PROVINCE
 STAT.                    baku:  STATE NAME
 CTRY.              Azerbaijan:  COUNTRY NAME
 FLD .                     ACG:  FIELD NAME
 SRVC.          Turan Drilling:  CONTRACTOR
 MWDS.                    Baku:  MWD SHOP
 WELL.                     J26:  WELL NAME
 JOBN.        AZ-XX-0907056190:  JOB TICKET NUMB
 RIG .             West Chirag:  RIG NAME
 DOE .                     N/A:  DOE NUMBER
 DCON.         Sperry Drilling:  DIRECTNL CONTR
 UNIT.                     N/A:  LOGGING EQUIPMENT ID
 CNTY.                        :  COUNTY
 LOC .                        :  LOCATION
 LMF .             Drill Floor:  LOG MEASURED FROM
 TVDS.m                  43.00:  TVDSS CORRECTN
 LATI.deg                40.13:  LATITUDE
 LONG.deg                51.22:  LONGITUDE
 WHNS.m                  -7.12:  WELL HEAD N/S
 WHEW.m                  -9.46:  WELL HEAD E/W
 UTMX.m              519004.02:  UTM X
 UTMY.m             4443784.96:  UTM Y
 DFWL.m                   0.00:  DISTANCE FWL
 DFSL.m                   0.00:  DISTANCE FSL
 SDEP.m                 464.00:  START DEPTH
 TDD .m                3500.00:  TOTAL DEPTH (DRILLER)
 VSDR.deg               114.35:  VERT SEC DIRECT
 GVFD.g                   1.00:  GRAVITY FIELD
 MFLD.nT              50386.00:  MAGNETIC FIELD
 MDIP.deg                59.63:  MAGNETIC DIP
 MDEC.deg                 6.43:  MAGNETIC DECL
 GRDC.deg                 0.15:  GRID CORRECTION
 AZTC.deg                 6.29:  AZM TOTAL CORR
 EPD .m                   0.00:  ELEVATION
 EGL .m                   0.00:  GROUND ELEVATION
 WDMS.m                 169.80:  WD ELEV
 APD .m                  43.00:  DEPTH ABOVE PD
 VSEW.m                  -9.46:  VERT SEC E/W
 VSNS.m                  -7.12:  VERT SEC N/S
 AGAP.m                  43.00:  AIR GAP
 DEP .m                 356.16:  DEPTH
 EKB .m                  43.00:  KB ELEVATION
 EDF .m                  43.00:  DF ELEVATION
 TDL .m                 699.00:  TOTAL DEPTH (LOGGER)
 VSC .                       0:  VS TO CLOSURE
 MAGU.                 1853727:  MAGUTM CHECKSUM
~Parameter Information Block
#MNEM.UNIT       Value        Description
#---------     -----------    ---------------------------
 AV  .mps                 1.30:  Ann Velocity 
 AVMX.mps                 1.67:  Max Ann Veloc 
 AZIF.deg               280.40:  Azm, Final 
 BHAT.        Rotary Steerable:  BHA Type 
 BREV.rev            528970.00:  Rev Bit Total 
 BROT.°/30m               1.00:  Build Rotating 
 BS  .in                 12.25:  Bit Size 
 BSZ .in                 12.25:  Bit Size 
 BTPL.psig              738.00:  Bit Press Loss 
 CABU.                     Yes:  Customer Abuse 
 CGEO.        Elvin Suleymanov:  Customer Geo 
 COMM.                     lþe:  Run Comments 1 
 TCS .hr                 66.05:  Time Ciculation Ended 
 CV  .mps                 2.20:  Crit Velocity 
 CVMX.mps                 2.56:  Max Crit Veloc 
 DD1 .          Rashad Habibov:  Direct Drillr 1 
 DD2 .            Azer ravanov:  Direct Drillr 2 
 DD3 .           Teymur Agayev:  Direct Drillr 3 
 DDSV.               Geo-Pilot:  DD Service 
 DEFF.%                  90.00:  % Det Eff 
 DLRX.°/30m               2.95:  Dogleg Rot Max 
 DLSO.°/30m               1.00:  Dogleg Oriented 
 DLSX.°/30m               2.95:  Dogleg Str Max 
 DRET.      11.42.20 11-Aug-21:  Drill End Time 
 DRST.      23.03.20 08-Aug-21:  Drill Start Tim 
 DTIM.hr                 45.50:  Time Drilling 
 EDEP.m                3488.00:  End Depth 
 ENG1.         Marcelo Marcari:  Engineer 1 
 ENG2.         Dair Mahammadov:  Engineer 2 
 ENG3.       Davud Huseyn-zada:  Engineer 3 
 ENG4.         Yevgeniy Ulikov:  Engineer 4 
 ETIM.      17.45.20 17-Aug-21:  End Time 
 FLOI.gpm              1197.70:  Flow In 
 FLON.gpm              1100.00:  Flow In Min 
 FLOS.cptm                0.00:  Fluid Loss 
 FLOX.gpm              1200.00:  Flow In Max 
 DFT .        Mineral Oil Base:  Mud Type 
 FTRO.       Formation Presure:  FTWD Run Obj 
 HFLO.                      No:  High Flow 
 HPRE.                      No:  High Pressure 
 HTEM.                      No:  High Temp 
 HYDO.m                   1.80:  Hydro Offset 
 IFIN.deg                 9.87:  Inc, Final 
 IMAX.deg                19.96:  Inc Max 
 IMIN.deg                 3.82:  Inc Min 
 IMND.m                3257.42:  Inc Min Depth 
 IMXD.m                2945.53:  Inc Max Depth 
 JARR.                      No:  Jarring 
 LETM.      11.42.20 11-Aug-21:  Log End Time 
 LOST.hr                     0:  Lost Rig Time 
 LSTM.      23.03.20 08-Aug-21:  Log Start Time 
 MDCL.ppm             42500.00:  Mud Chlorides 
 MDES.     Inversion Oil/Synthetic:  Mud Desc 
 DFD .sg                  1.45:  Mud Density 
 MDMN.sg                  1.39:  Dens Mud Min 
 MDMX.sg                  1.57:  Dens Mud Max 
 MOIL.                   53.20:  Run Mud Oil % 
 MOWR.                   70:30:  Run Mud OWR 
 MSND.                       0:  Run Mud Sand % 
 MSOL.                   24.30:  Run Mud Solids% 
 DFV .spqt               79.00:  Mud Viscosity 
 MWOD.in                  8.00:  MWD Tool OD 
 MWSI.                      No:  Serv Intrp, MWD 
 OTIM.hr                253.06:  Time Operating 
 PCON.           Look Like New:  Pad Condition 
 PMAX.psia            11068.93:  Press Op, Max 
 PV  .cP                 36.00:  Mud PV 
 RUN .                    1000:  Run Number 
 ROPA.m/hr               15.34:  ROP Avg 
 ROPN.m/hr                4.00:  ROP Min 
 ROPX.m/hr               31.00:  ROP Max 
 RPMA.rpm               151.40:  RPM Surface Avg 
 RPMN.rpm               120.00:  RPM Surface Min 
 RPMX.rpm               160.00:  RPM Surface Max 
 RRUN.                    L505:  Rig Run Number 
 RTIM.hr                 10.00:  Time Reaming 
 SAZI.deg                88.92:  Azm, Start 
 SDEP.m                2789.00:  Start Depth 
 SIDD.                      No:  Serv Intrp, DD 
 SINC.deg                19.84:  Inc, Start 
 SPPA.psig             4421.39:  SPP Avg 
 SPPN.psig             4130.00:  SPP Min 
 SPPX.psig             4800.00:  SPP Max 
 STIM.      01.25.20 07-Aug-21:  Start Time 
 SVCS.                 DD, MWD:  Services 
 SVER.                    9.20:  Sperry Version 
 TDAT.m                 699.00:  Tot Depth Attmp 
 TDDF.                      No:  Trip for DD 
 TDLG.m                 699.00:  Tot Depth Loggd 
 TFF .                      No:  Trip for Fail 
 TQAA.f-kp               20.55:  Torque Abs Avg 
 TQAN.f-kp               15.00:  Torque Abs Min 
 TQAX.f-kp               24.00:  Torque Abs Max 
 TRRT.°/30m               0.50:  Turn Rotating 
 MRT .                    HCIM:  Maximum Recorded Temperature 
 TTMX.degC               82.35:  Max Tool Temp 
 VS01.                90654677:  Virtual Str1 SN 
 VS02.                90636294:  Virtual Str2 SN 
 VS03.                90653866:  Virtual Str3 SN 
 VS04.                90654674:  Virtual Str4 SN 
 WBMN.klb                10.00:  WOB Min 
 WITN.         Haytham Mostafa:  Customer Rep 
 WITN.           Rufat Babayev:  Customer Rep 2 
 WOBA.klb                22.43:  WOB Avg 
 WOBX.klb                35.00:  WOB Max 
 YP  .lhf2               32.00:  Yield Point 
~Curve Information Block
#MNEM.UNIT                 API CODE     Curve Description
#---------               -----------    ---------------------------
 TIME.HHMMSS            00 000 000 000:  GT Time & Date
 GTDEPTH.m              00 000 000 000:  GT Depth
 GTPQH.psia             00 000 000 000:  GT HR Quartz Pressure
 GTTQ.degC              00 000 000 000:  GT Quartz Temperature
 GTTN.NONE              00 000 000 000:  GT Test Number
 GTET.sec               00 000 000 000:  GT Elapsed Test Time
 GTTVD.m                00 000 000 000:  GT True Vertical Depth
#Other Information
#
#WARRANTY: Halliburton will use its best efforts to furnish customers with 
#accurate information and interpretations that are part of, and incident to, the services 
#provided.  However, Halliburton cannot and does not warrant the accuracy 
#or correctness of such information and interpretations.  Under no circumstances should any 
#such information or interpretation be relied upon as the sole basis for any drilling, 
#completion, production, or financial decision or any procedure involving any risk to the 
#safety of any drilling venture, drilling rig or its crew or any other third party.  The 
#Customer has full responsibility for all drilling, completion and production operation.  
#Halliburton makes no representations or warranties, either expressed or 
#implied, including, but not limited to, the implied warranties of merchantability or fitness 
#for a particular purpose, with respect to the services rendered.  In no event will 
#Halliburton be liable for failure to obtain any particular results or for 
#any damages, including, but not limited to, indirect, special or consequential damages, 
#resulting from the use of any information or interpretation provided by Halliburton.
#
~A           TIME           GTDEPTH  GTPQH  GTTQ  GTTN  GTET   GTTVD  
# ...
   11:55:39.006.15-Aug-2021 3405.50 7459.39 53.84 5.00 482.71 3258.07
   11:55:39.206.15-Aug-2021 3405.50 7459.39 53.84 5.00 482.91 3258.07
   11:55:39.406.15-Aug-2021 3405.50 7459.98 53.84 5.00 483.11 3258.07
   11:55:39.606.15-Aug-2021 3405.50 7457.44 53.84 5.00 483.31 3258.07
   11:55:39.806.15-Aug-2021 3405.50 7457.11 53.84 5.00 483.51 3258.07
   11:55:40.006.15-Aug-2021 3405.50 7458.74 53.84 5.00 483.71 3258.07
   11:55:40.205.15-Aug-2021 3405.50 7458.74 53.84 5.00 483.91 3258.07
   11:55:40.405.15-Aug-2021 3405.50 7459.37 53.84 5.00 484.11 3258.07
   11:55:40.605.15-Aug-2021 3405.50 7458.33 53.84 5.00 484.31 3258.07
   11:55:40.805.15-Aug-2021 3405.50 7459.29 53.84 5.00 484.51 3258.07
   11:55:41.005.15-Aug-2021 3405.50 7459.60 53.84 5.00 484.71 3258.07
   11:55:41.205.15-Aug-2021 3405.50 7459.60 53.84 5.00 484.91 3258.07
   11:55:41.405.15-Aug-2021 3405.50 7457.80 53.84 5.00 485.11 3258.07
   11:55:41.605.15-Aug-2021 3405.50 7458.93 53.84 5.00 485.31 3258.07
   11:55:41.804.15-Aug-2021 3405.50 7459.07 53.84 5.00 485.51 3258.07
   11:55:42.004.15-Aug-2021 3405.50 7460.02 53.84 5.00 485.71 3258.07
   11:55:42.204.15-Aug-2021 3405.50 7460.02 53.84 5.00 485.91 3258.07
   11:55:42.404.15-Aug-2021 3405.50 7457.80 53.84 5.00 486.11 3258.07
   11:55:42.604.15-Aug-2021 3405.50 7458.66 53.84 5.00 486.31 3258.07
   11:55:42.804.15-Aug-2021 3405.50 7459.71 53.84 5.00 486.51 3258.07
   11:55:43.004.15-Aug-2021 3405.50 7458.83 53.84 5.00 486.71 3258.07
   11:55:43.204.15-Aug-2021 3405.50 7458.83 53.84 5.00 486.91 3258.07
   11:55:43.404.15-Aug-2021 3405.50 7458.49 53.84 5.00 487.11 3258.07
   11:55:43.603.15-Aug-2021 3405.50 7460.80 53.84 5.00 487.31 3258.07
   11:55:43.803.15-Aug-2021 3405.50 7460.07 53.84 5.00 487.51 3258.07
   11:55:44.003.15-Aug-2021 3405.50 7457.62 53.84 5.00 487.71 3258.07
   11:55:44.203.15-Aug-2021 3405.50 7457.62 53.84 5.00 487.91 3258.07
   11:55:44.403.15-Aug-2021 3405.50 7458.67 53.84 5.00 488.11 3258.07
   11:55:44.603.15-Aug-2021 3405.50 7459.00 53.84 5.00 488.31 3258.07
   11:55:44.803.15-Aug-2021 3405.50 7458.31 53.84 5.00 488.51 3258.07
   11:55:45.003.15-Aug-2021 3405.50 7457.85 53.84 5.00 488.71 3258.07
   11:55:45.202.15-Aug-2021 3405.50 7457.85 53.84 5.00 488.91 3258.07
   11:55:45.402.15-Aug-2021 3405.50 7461.28 53.84 5.00 489.11 3258.07
   11:55:45.602.15-Aug-2021 3405.50 7459.85 53.84 5.00 489.31 3258.07
   11:55:45.802.15-Aug-2021 3405.50 7458.72 53.84 5.00 489.51 3258.07
   11:55:46.002.15-Aug-2021 3405.50 7457.14 53.84 5.00 489.71 3258.07
   11:55:46.202.15-Aug-2021 3405.50 7457.14 53.84 5.00 489.91 3258.07
   11:55:46.402.15-Aug-2021 3405.50 7458.12 53.83 5.00 490.11 3258.07
   11:55:46.602.15-Aug-2021 3405.50 7459.50 53.83 5.00 490.31 3258.07
   11:55:46.801.15-Aug-2021 3405.50 7461.66 53.83 5.00 490.50 3258.07
   11:55:47.001.15-Aug-2021 3405.50 7457.89 53.83 5.00 490.70 3258.07
   11:55:47.201.15-Aug-2021 3405.50 7457.89 53.83 5.00 490.90 3258.07
   11:55:47.401.15-Aug-2021 3405.50 7458.00 53.83 5.00 491.10 3258.07
   11:55:47.601.15-Aug-2021 3405.50 7459.35 53.83 5.00 491.30 3258.07
   11:55:47.801.15-Aug-2021 3405.50 7459.35 53.83 5.00 491.50 3258.07
   11:55:48.001.15-Aug-2021 3405.50 7460.30 53.83 5.00 491.70 3258.07
   11:55:48.201.15-Aug-2021 3405.50 7460.30 53.83 5.00 491.90 3258.07
   11:55:48.401.15-Aug-2021 3405.50 7457.73 53.83 5.00 492.10 3258.07
   11:55:48.600.15-Aug-2021 3405.50 7458.97 53.83 5.00 492.30 3258.07
   11:55:48.800.15-Aug-2021 3405.50 7458.96 53.83 5.00 492.50 3258.07
   11:55:49.000.15-Aug-2021 3405.50 7459.57 53.83 5.00 492.70 3258.07
   11:55:49.200.15-Aug-2021 3405.50 7459.57 53.83 5.00 492.90 3258.07
   11:55:49.400.15-Aug-2021 3405.50 7458.85 53.83 5.00 493.10 3258.07
   11:55:49.600.15-Aug-2021 3405.50 7459.23 53.83 5.00 493.30 3258.07
   11:55:49.800.15-Aug-2021 3405.50 7459.53 53.82 5.00 493.50 3258.07
   11:55:50.000.15-Aug-2021 3405.50 7458.93 53.82 5.00 493.70 3258.07
   11:55:50.199.15-Aug-2021 3405.50 7458.93 53.82 5.00 493.90 3258.07
   11:55:50.399.15-Aug-2021 3405.50 7458.26 53.82 5.00 494.10 3258.07
   11:55:50.599.15-Aug-2021 3405.50 7456.75 53.82 5.00 494.30 3258.07
   11:55:50.799.15-Aug-2021 3405.50 7458.29 53.82 5.00 494.50 3258.07
   11:55:50.999.15-Aug-2021 3405.50 7460.44 53.82 5.00 494.70 3258.07
   11:55:51.199.15-Aug-2021 3405.50 7460.44 53.82 5.00 494.90 3258.07
   11:55:51.399.15-Aug-2021 3405.50 7459.05 53.82 5.00 495.10 3258.07
   11:55:51.599.15-Aug-2021 3405.50 7459.45 53.82 5.00 495.30 3258.07
   11:55:51.798.15-Aug-2021 3405.50 7459.50 53.82 5.00 495.50 3258.07
   11:55:51.998.15-Aug-2021 3405.50 7458.29 53.82 5.00 495.70 3258.07
   11:55:52.198.15-Aug-2021 3405.50 7458.29 53.82 5.00 495.90 3258.07
   11:55:52.398.15-Aug-2021 3405.50 7458.13 53.82 5.00 496.10 3258.07
   11:55:52.598.15-Aug-2021 3405.50 7458.35 53.82 5.00 496.30 3258.07
   11:55:52.798.15-Aug-2021 3405.50 7458.88 53.82 5.00 496.50 3258.07
   11:55:52.998.15-Aug-2021 3405.50 7459.72 53.82 5.00 496.70 3258.07
   11:55:53.198.15-Aug-2021 3405.50 7459.72 53.82 5.00 496.90 3258.07
   11:55:53.398.15-Aug-2021 3405.50 7458.56 53.81 5.00 497.10 3258.07
   11:55:53.597.15-Aug-2021 3405.50 7457.51 53.81 5.00 497.30 3258.07
   11:55:53.797.15-Aug-2021 3405.50 7457.53 53.81 5.00 497.50 3258.07
   11:55:53.997.15-Aug-2021 3405.50 7459.43 53.81 5.00 497.70 3258.07
   11:55:54.197.15-Aug-2021 3405.50 7459.43 53.81 5.00 497.90 3258.07
   11:55:54.397.15-Aug-2021 3405.50 7462.22 53.81 5.00 498.10 3258.07
   11:55:54.597.15-Aug-2021 3405.50 7460.35 53.81 5.00 498.30 3258.07
   11:55:54.797.15-Aug-2021 3405.50 7459.17 53.81 5.00 498.50 3258.07
   11:55:54.997.15-Aug-2021 3405.50 7458.33 53.81 5.00 498.70 3258.07
   11:55:55.196.15-Aug-2021 3405.50 7458.33 53.81 5.00 498.90 3258.07
   11:55:55.396.15-Aug-2021 3405.50 7462.12 53.81 5.00 499.10 3258.07
   11:55:55.596.15-Aug-2021 3405.50 7460.95 53.81 5.00 499.30 3258.07
   11:55:55.796.15-Aug-2021 3405.50 7459.80 53.81 5.00 499.50 3258.07
   11:55:55.996.15-Aug-2021 3405.50 7458.97 53.81 5.00 499.70 3258.07
   11:55:56.196.15-Aug-2021 3405.50 7458.97 53.81 5.00 499.90 3258.07
   11:55:56.396.15-Aug-2021 3405.50 7461.96 53.81 5.00 500.10 3258.07
   11:55:56.596.15-Aug-2021 3405.50 7460.61 53.81 5.00 500.30 3258.07
   11:55:56.795.15-Aug-2021 3405.50 7458.37 53.80 5.00 500.50 3258.07
   11:55:56.995.15-Aug-2021 3405.50 7457.32 53.80 5.00 500.70 3258.07
   11:55:57.195.15-Aug-2021 3405.50 7457.32 53.80 5.00 500.90 3258.07
   11:55:57.395.15-Aug-2021 3405.50 7459.91 53.80 5.00 501.10 3258.07
   11:55:57.595.15-Aug-2021 3405.50 7459.86 53.80 5.00 501.30 3258.07
   11:55:57.795.15-Aug-2021 3405.50 7458.25 53.80 5.00 501.50 3258.07
   11:55:57.995.15-Aug-2021 3405.50 7457.91 53.80 5.00 501.70 3258.07
   11:55:58.195.15-Aug-2021 3405.50 7457.91 53.80 5.00 501.90 3258.07
   11:55:58.395.15-Aug-2021 3405.50 7459.35 53.80 5.00 502.10 3258.07
   11:55:58.594.15-Aug-2021 3405.50 7459.57 53.80 5.00 502.30 3258.07
   11:55:58.794.15-Aug-2021 3405.50 7459.46 53.80 5.00 502.50 3258.07
   11:55:58.994.15-Aug-2021 3405.50 7457.59 53.80 5.00 502.70 3258.07
   11:55:59.194.15-Aug-2021 3405.50 7457.59 53.80 5.00 502.90 3258.07
   11:55:59.394.15-Aug-2021 3405.50 7458.06 53.80 5.00 503.10 3258.07
   11:55:59.594.15-Aug-2021 3405.50 7458.63 53.80 5.00 503.30 3258.07
   11:55:59.794.15-Aug-2021 3405.50 7458.90 53.80 5.00 503.50 3258.07
