~Version Information
 VERS.                  2.0:   CWLS log ASCII Standard -VERSION 2.0
 WRAP.                   NO:   One line per depth step
~Well Information Block
#MNEM.UNIT     VALUE/NAME     DESCRIPTION
#---------     -----------    ---------------------------
 STRT.S             08:47:11 15-Aug-21: START TIME 08:47:11 15-Aug-21
 STOP.S             08:54:08 15-Aug-21: STOP TIME  08:54:08 15-Aug-21
 STEP.S                   0.00: STEP TIME
 NULL.                 -999.25: NULL VALUE
 DFWT.                        :  DIST FWL TEXT
 DFST.                        :  DIST FSL TEXT
 DMF .             Drill Floor:  DRILL MEAS FROM
 STIM.      17.18.56 20-Jun-21:  START TIME
 DATE.      17.18.56 20-Aug-21:  END TIME
 SPUD.               20-Jun-21:  SPUD DATE
 NREF.                    Grid:  NORTH REFERENCE
 HPTY.       Minimum Curvature:  HOLE POS TYPE
 DMOD.             Drill Model:  DRILL MOD DESC
 SVYD.                  Survey:  SURVEY DESC
 ILTD.               Lithology:  INTERP LTH DESC
 FTOP.          Formation Tops:  FORM TOPS DESC
 SON .        AZ-XX-0907056190:  JOB NUMBER
 PDAT.       Caspian Sea Level:  PERMANENT DATUM
 WTYP.                Deviated:  WELL TYPE
 MDS .        Operator Entered:  MAG DATA SOURCE
 COMP.     BP Exploration (Caspian Sea) Ltd.:  COMPANY
 UWI .            /AZE20000092:  UNIQUE WELL IDENTIFIER
 API .            /AZE20000092:  API NUMBER
 BASE.              Azerbaijan:  LOGGING EQUIPMENT BASE LOCATION
 REGN.                   EESSA:  REGION
 PROV.                    baku:  PROVINCE
 STAT.                    baku:  STATE NAME
 CTRY.              Azerbaijan:  COUNTRY NAME
 FLD .                     ACG:  FIELD NAME
 SRVC.          Turan Drilling:  CONTRACTOR
 MWDS.                    Baku:  MWD SHOP
 WELL.                     J26:  WELL NAME
 JOBN.        AZ-XX-0907056190:  JOB TICKET NUMB
 RIG .             West Chirag:  RIG NAME
 DOE .                     N/A:  DOE NUMBER
 DCON.         Sperry Drilling:  DIRECTNL CONTR
 UNIT.                     N/A:  LOGGING EQUIPMENT ID
 CNTY.                        :  COUNTY
 LOC .                        :  LOCATION
 LMF .             Drill Floor:  LOG MEASURED FROM
 TVDS.m                  43.00:  TVDSS CORRECTN
 LATI.deg                40.13:  LATITUDE
 LONG.deg                51.22:  LONGITUDE
 WHNS.m                  -7.12:  WELL HEAD N/S
 WHEW.m                  -9.46:  WELL HEAD E/W
 UTMX.m              519004.02:  UTM X
 UTMY.m             4443784.96:  UTM Y
 DFWL.m                   0.00:  DISTANCE FWL
 DFSL.m                   0.00:  DISTANCE FSL
 SDEP.m                 464.00:  START DEPTH
 TDD .m                3500.00:  TOTAL DEPTH (DRILLER)
 VSDR.deg               114.35:  VERT SEC DIRECT
 GVFD.g                   1.00:  GRAVITY FIELD
 MFLD.nT              50386.00:  MAGNETIC FIELD
 MDIP.deg                59.63:  MAGNETIC DIP
 MDEC.deg                 6.43:  MAGNETIC DECL
 GRDC.deg                 0.15:  GRID CORRECTION
 AZTC.deg                 6.29:  AZM TOTAL CORR
 EPD .m                   0.00:  ELEVATION
 EGL .m                   0.00:  GROUND ELEVATION
 WDMS.m                 169.80:  WD ELEV
 APD .m                  43.00:  DEPTH ABOVE PD
 VSEW.m                  -9.46:  VERT SEC E/W
 VSNS.m                  -7.12:  VERT SEC N/S
 AGAP.m                  43.00:  AIR GAP
 DEP .m                 356.16:  DEPTH
 EKB .m                  43.00:  KB ELEVATION
 EDF .m                  43.00:  DF ELEVATION
 TDL .m                 699.00:  TOTAL DEPTH (LOGGER)
 VSC .                       0:  VS TO CLOSURE
 MAGU.                 1853727:  MAGUTM CHECKSUM
~Parameter Information Block
#MNEM.UNIT       Value        Description
#---------     -----------    ---------------------------
 AV  .mps                 1.30:  Ann Velocity 
 AVMX.mps                 1.67:  Max Ann Veloc 
 AZIF.deg               280.40:  Azm, Final 
 BHAT.        Rotary Steerable:  BHA Type 
 BREV.rev            528970.00:  Rev Bit Total 
 BROT.°/30m               1.00:  Build Rotating 
 BS  .in                 12.25:  Bit Size 
 BSZ .in                 12.25:  Bit Size 
 BTPL.psig              738.00:  Bit Press Loss 
 CABU.                     Yes:  Customer Abuse 
 CGEO.        Elvin Suleymanov:  Customer Geo 
 COMM.                     äji:  Run Comments 1 
 TCS .hr                 66.05:  Time Ciculation Ended 
 CV  .mps                 2.20:  Crit Velocity 
 CVMX.mps                 2.56:  Max Crit Veloc 
 DD1 .          Rashad Habibov:  Direct Drillr 1 
 DD2 .            Azer ravanov:  Direct Drillr 2 
 DD3 .           Teymur Agayev:  Direct Drillr 3 
 DDSV.               Geo-Pilot:  DD Service 
 DEFF.%                  90.00:  % Det Eff 
 DLRX.°/30m               2.95:  Dogleg Rot Max 
 DLSO.°/30m               1.00:  Dogleg Oriented 
 DLSX.°/30m               2.95:  Dogleg Str Max 
 DRET.      11.42.20 11-Aug-21:  Drill End Time 
 DRST.      23.03.20 08-Aug-21:  Drill Start Tim 
 DTIM.hr                 45.50:  Time Drilling 
 EDEP.m                3488.00:  End Depth 
 ENG1.         Marcelo Marcari:  Engineer 1 
 ENG2.         Dair Mahammadov:  Engineer 2 
 ENG3.       Davud Huseyn-zada:  Engineer 3 
 ENG4.         Yevgeniy Ulikov:  Engineer 4 
 ETIM.      17.45.20 17-Aug-21:  End Time 
 FLOI.gpm              1197.70:  Flow In 
 FLON.gpm              1100.00:  Flow In Min 
 FLOS.cptm                0.00:  Fluid Loss 
 FLOX.gpm              1200.00:  Flow In Max 
 DFT .        Mineral Oil Base:  Mud Type 
 FTRO.       Formation Presure:  FTWD Run Obj 
 HFLO.                      No:  High Flow 
 HPRE.                      No:  High Pressure 
 HTEM.                      No:  High Temp 
 HYDO.m                   1.80:  Hydro Offset 
 IFIN.deg                 9.87:  Inc, Final 
 IMAX.deg                19.96:  Inc Max 
 IMIN.deg                 3.82:  Inc Min 
 IMND.m                3257.42:  Inc Min Depth 
 IMXD.m                2945.53:  Inc Max Depth 
 JARR.                      No:  Jarring 
 LETM.      11.42.20 11-Aug-21:  Log End Time 
 LOST.hr                     0:  Lost Rig Time 
 LSTM.      23.03.20 08-Aug-21:  Log Start Time 
 MDCL.ppm             42500.00:  Mud Chlorides 
 MDES.     Inversion Oil/Synthetic:  Mud Desc 
 DFD .sg                  1.45:  Mud Density 
 MDMN.sg                  1.39:  Dens Mud Min 
 MDMX.sg                  1.57:  Dens Mud Max 
 MOIL.                   53.20:  Run Mud Oil % 
 MOWR.                   70:30:  Run Mud OWR 
 MSND.                       0:  Run Mud Sand % 
 MSOL.                   24.30:  Run Mud Solids% 
 DFV .spqt               79.00:  Mud Viscosity 
 MWOD.in                  8.00:  MWD Tool OD 
 MWSI.                      No:  Serv Intrp, MWD 
 OTIM.hr                253.06:  Time Operating 
 PCON.           Look Like New:  Pad Condition 
 PMAX.psia            11068.93:  Press Op, Max 
 PV  .cP                 36.00:  Mud PV 
 RUN .                    1000:  Run Number 
 ROPA.m/hr               15.34:  ROP Avg 
 ROPN.m/hr                4.00:  ROP Min 
 ROPX.m/hr               31.00:  ROP Max 
 RPMA.rpm               151.40:  RPM Surface Avg 
 RPMN.rpm               120.00:  RPM Surface Min 
 RPMX.rpm               160.00:  RPM Surface Max 
 RRUN.                    L505:  Rig Run Number 
 RTIM.hr                 10.00:  Time Reaming 
 SAZI.deg                88.92:  Azm, Start 
 SDEP.m                2789.00:  Start Depth 
 SIDD.                      No:  Serv Intrp, DD 
 SINC.deg                19.84:  Inc, Start 
 SPPA.psig             4421.39:  SPP Avg 
 SPPN.psig             4130.00:  SPP Min 
 SPPX.psig             4800.00:  SPP Max 
 STIM.      01.25.20 07-Aug-21:  Start Time 
 SVCS.                 DD, MWD:  Services 
 SVER.                    9.20:  Sperry Version 
 TDAT.m                 699.00:  Tot Depth Attmp 
 TDDF.                      No:  Trip for DD 
 TDLG.m                 699.00:  Tot Depth Loggd 
 TFF .                      No:  Trip for Fail 
 TQAA.f-kp               20.55:  Torque Abs Avg 
 TQAN.f-kp               15.00:  Torque Abs Min 
 TQAX.f-kp               24.00:  Torque Abs Max 
 TRRT.°/30m               0.50:  Turn Rotating 
 MRT .                    HCIM:  Maximum Recorded Temperature 
 TTMX.degC               82.35:  Max Tool Temp 
 VS01.                90654677:  Virtual Str1 SN 
 VS02.                90636294:  Virtual Str2 SN 
 VS03.                90653866:  Virtual Str3 SN 
 VS04.                90654674:  Virtual Str4 SN 
 WBMN.klb                10.00:  WOB Min 
 WITN.         Haytham Mostafa:  Customer Rep 
 WITN.           Rufat Babayev:  Customer Rep 2 
 WOBA.klb                22.43:  WOB Avg 
 WOBX.klb                35.00:  WOB Max 
 YP  .lhf2               32.00:  Yield Point 
~Curve Information Block
#MNEM.UNIT                 API CODE     Curve Description
#---------               -----------    ---------------------------
 TIME.HHMMSS            00 000 000 000:  GT Time & Date
 GTDEPTH.m              00 000 000 000:  GT Depth
 GTPQH.psia             00 000 000 000:  GT HR Quartz Pressure
 GTTQ.degC              00 000 000 000:  GT Quartz Temperature
 GTTN.NONE              00 000 000 000:  GT Test Number
 GTET.sec               00 000 000 000:  GT Elapsed Test Time
 GTTVD.m                00 000 000 000:  GT True Vertical Depth
#Other Information
#
#WARRANTY: Halliburton will use its best efforts to furnish customers with 
#accurate information and interpretations that are part of, and incident to, the services 
#provided.  However, Halliburton cannot and does not warrant the accuracy 
#or correctness of such information and interpretations.  Under no circumstances should any 
#such information or interpretation be relied upon as the sole basis for any drilling, 
#completion, production, or financial decision or any procedure involving any risk to the 
#safety of any drilling venture, drilling rig or its crew or any other third party.  The 
#Customer has full responsibility for all drilling, completion and production operation.  
#Halliburton makes no representations or warranties, either expressed or 
#implied, including, but not limited to, the implied warranties of merchantability or fitness 
#for a particular purpose, with respect to the services rendered.  In no event will 
#Halliburton be liable for failure to obtain any particular results or for 
#any damages, including, but not limited to, indirect, special or consequential damages, 
#resulting from the use of any information or interpretation provided by Halliburton.
#
~A           TIME           GTDEPTH  GTPQH  GTTQ  GTTN  GTET   GTTVD  
# ...
   08:52:56.475.15-Aug-2021 3421.80 7431.44 56.14 2.00 345.06 3274.11
   08:52:56.675.15-Aug-2021 3421.80 7431.44 56.14 2.00 345.26 3274.11
   08:52:56.875.15-Aug-2021 3421.80 7431.33 56.14 2.00 345.46 3274.11
   08:52:57.075.15-Aug-2021 3421.80 7431.29 56.14 2.00 345.66 3274.11
   08:52:57.275.15-Aug-2021 3421.80 7431.46 56.14 2.00 345.86 3274.11
   08:52:57.475.15-Aug-2021 3421.80 7431.46 56.13 2.00 346.06 3274.11
   08:52:57.675.15-Aug-2021 3421.80 7431.46 56.13 2.00 346.26 3274.11
   08:52:57.875.15-Aug-2021 3421.80 7431.45 56.13 2.00 346.46 3274.11
   08:52:58.075.15-Aug-2021 3421.80 7431.71 56.13 2.00 346.66 3274.11
   08:52:58.275.15-Aug-2021 3421.80 7431.84 56.13 2.00 346.86 3274.11
   08:52:58.475.15-Aug-2021 3421.80 7431.93 56.13 2.00 347.06 3274.11
   08:52:58.675.15-Aug-2021 3421.80 7431.93 56.13 2.00 347.26 3274.11
   08:52:58.875.15-Aug-2021 3421.80 7431.95 56.13 2.00 347.46 3274.11
   08:52:59.075.15-Aug-2021 3421.80 7431.88 56.13 2.00 347.66 3274.11
   08:52:59.275.15-Aug-2021 3421.80 7431.98 56.13 2.00 347.86 3274.11
   08:52:59.476.15-Aug-2021 3421.80 7432.24 56.13 2.00 348.06 3274.11
   08:52:59.676.15-Aug-2021 3421.80 7432.24 56.13 2.00 348.26 3274.11
   08:52:59.876.15-Aug-2021 3421.80 7432.19 56.13 2.00 348.46 3274.11
   08:53:00.076.15-Aug-2021 3421.80 7432.13 56.13 2.00 348.66 3274.11
   08:53:00.276.15-Aug-2021 3421.80 7432.06 56.13 2.00 348.86 3274.11
   08:53:00.476.15-Aug-2021 3421.80 7432.01 56.13 2.00 349.06 3274.11
   08:53:00.676.15-Aug-2021 3421.80 7432.01 56.13 2.00 349.26 3274.11
   08:53:00.876.15-Aug-2021 3421.80 7431.86 56.13 2.00 349.46 3274.11
   08:53:01.076.15-Aug-2021 3421.80 7431.85 56.13 2.00 349.66 3274.11
   08:53:01.276.15-Aug-2021 3421.80 7432.10 56.13 2.00 349.86 3274.11
   08:53:01.476.15-Aug-2021 3421.80 7432.22 56.13 2.00 350.06 3274.11
   08:53:01.676.15-Aug-2021 3421.80 7432.22 56.13 2.00 350.26 3274.11
   08:53:01.876.15-Aug-2021 3421.80 7432.21 56.13 2.00 350.46 3274.11
   08:53:02.076.15-Aug-2021 3421.80 7432.14 56.13 2.00 350.66 3274.11
   08:53:02.276.15-Aug-2021 3421.80 7432.21 56.13 2.00 350.86 3274.11
   08:53:02.476.15-Aug-2021 3421.80 7432.65 56.13 2.00 351.06 3274.11
   08:53:02.676.15-Aug-2021 3421.80 7432.65 56.13 2.00 351.26 3274.11
   08:53:02.876.15-Aug-2021 3421.80 7432.77 56.13 2.00 351.46 3274.11
   08:53:03.076.15-Aug-2021 3421.80 7432.74 56.13 2.00 351.66 3274.11
   08:53:03.276.15-Aug-2021 3421.80 7433.25 56.13 2.00 351.86 3274.11
   08:53:03.476.15-Aug-2021 3421.80 7433.61 56.13 2.00 352.06 3274.11
   08:53:03.676.15-Aug-2021 3421.80 7433.61 56.13 2.00 352.26 3274.11
   08:53:03.876.15-Aug-2021 3421.80 7433.92 56.13 2.00 352.46 3274.11
   08:53:04.076.15-Aug-2021 3421.80 7433.81 56.13 2.00 352.66 3274.11
   08:53:04.276.15-Aug-2021 3421.80 7434.23 56.13 2.00 352.86 3274.11
   08:53:04.476.15-Aug-2021 3421.80 7434.38 56.13 2.00 353.06 3274.11
   08:53:04.676.15-Aug-2021 3421.80 7434.38 56.13 2.00 353.26 3274.11
   08:53:04.876.15-Aug-2021 3421.80 7434.45 56.13 2.00 353.46 3274.11
   08:53:05.076.15-Aug-2021 3421.80 7434.37 56.13 2.00 353.66 3274.11
   08:53:05.276.15-Aug-2021 3421.80 7434.37 56.12 2.00 353.86 3274.11
   08:53:05.476.15-Aug-2021 3421.80 7434.60 56.12 2.00 354.06 3274.11
   08:53:05.677.15-Aug-2021 3421.80 7434.60 56.12 2.00 354.26 3274.11
   08:53:05.877.15-Aug-2021 3421.80 7434.46 56.09 2.00 354.46 3274.11
   08:53:06.077.15-Aug-2021 3421.80 7434.56 56.12 2.00 354.66 3274.11
   08:53:06.277.15-Aug-2021 3421.80 7434.75 56.12 2.00 354.86 3274.11
   08:53:06.477.15-Aug-2021 3421.80 7434.85 56.12 2.00 355.06 3274.11
   08:53:06.677.15-Aug-2021 3421.80 7434.85 56.12 2.00 355.26 3274.11
   08:53:06.877.15-Aug-2021 3421.80 7435.00 56.12 2.00 355.46 3274.11
   08:53:07.077.15-Aug-2021 3421.80 7434.94 56.12 2.00 355.66 3274.11
   08:53:07.277.15-Aug-2021 3421.80 7434.84 56.12 2.00 355.86 3274.11
   08:53:07.477.15-Aug-2021 3421.80 7435.18 56.12 2.00 356.06 3274.11
   08:53:07.677.15-Aug-2021 3421.80 7435.18 56.12 2.00 356.26 3274.11
   08:53:07.877.15-Aug-2021 3421.80 7435.56 56.12 2.00 356.46 3274.11
   08:53:08.077.15-Aug-2021 3421.80 7435.57 56.12 2.00 356.66 3274.11
   08:53:08.277.15-Aug-2021 3421.80 7435.51 56.12 2.00 356.86 3274.11
   08:53:08.477.15-Aug-2021 3421.80 7435.46 56.12 2.00 357.06 3274.11
   08:53:08.677.15-Aug-2021 3421.80 7435.46 56.12 2.00 357.26 3274.11
   08:53:08.877.15-Aug-2021 3421.80 7435.36 56.12 2.00 357.46 3274.11
   08:53:09.077.15-Aug-2021 3421.80 7435.28 56.12 2.00 357.66 3274.11
   08:53:09.277.15-Aug-2021 3421.80 7435.31 56.12 2.00 357.86 3274.11
   08:53:09.477.15-Aug-2021 3421.80 7435.55 56.12 2.00 358.06 3274.11
   08:53:09.677.15-Aug-2021 3421.80 7435.55 56.12 2.00 358.26 3274.11
   08:53:09.877.15-Aug-2021 3421.80 7435.64 56.12 2.00 358.46 3274.11
   08:53:10.077.15-Aug-2021 3421.80 7435.77 56.12 2.00 358.66 3274.11
   08:53:10.277.15-Aug-2021 3421.80 7436.09 56.12 2.00 358.86 3274.11
   08:53:10.477.15-Aug-2021 3421.80 7436.19 56.12 2.00 359.06 3274.11
   08:53:10.677.15-Aug-2021 3421.80 7436.19 56.12 2.00 359.26 3274.11
   08:53:10.877.15-Aug-2021 3421.80 7436.28 56.12 2.00 359.46 3274.11
   08:53:11.077.15-Aug-2021 3421.80 7436.53 56.12 2.00 359.66 3274.11
   08:53:11.277.15-Aug-2021 3421.80 7436.66 56.12 2.00 359.86 3274.11
   08:53:11.477.15-Aug-2021 3421.80 7436.70 56.12 2.00 360.06 3274.11
   08:53:11.678.15-Aug-2021 3421.80 7436.70 56.12 2.00 360.26 3274.11
   08:53:11.878.15-Aug-2021 3421.80 7436.69 56.12 2.00 360.46 3274.11
   08:53:12.078.15-Aug-2021 3421.80 7437.07 56.12 2.00 360.66 3274.11
   08:53:12.278.15-Aug-2021 3421.80 7437.16 56.12 2.00 360.86 3274.11
   08:53:12.478.15-Aug-2021 3421.80 7437.24 56.12 2.00 361.06 3274.11
   08:53:12.678.15-Aug-2021 3421.80 7437.24 56.12 2.00 361.26 3274.11
   08:53:12.878.15-Aug-2021 3421.80 7437.20 56.12 2.00 361.46 3274.11
   08:53:13.078.15-Aug-2021 3421.80 7437.14 56.11 2.00 361.66 3274.11
   08:53:13.278.15-Aug-2021 3421.80 7437.31 56.11 2.00 361.86 3274.11
   08:53:13.478.15-Aug-2021 3421.80 7437.30 56.11 2.00 362.06 3274.11
   08:53:13.678.15-Aug-2021 3421.80 7437.30 56.11 2.00 362.26 3274.11
   08:53:13.878.15-Aug-2021 3421.80 7437.30 56.11 2.00 362.46 3274.11
   08:53:14.078.15-Aug-2021 3421.80 7437.64 56.11 2.00 362.66 3274.11
   08:53:14.278.15-Aug-2021 3421.80 7437.69 56.11 2.00 362.86 3274.11
   08:53:14.478.15-Aug-2021 3421.80 7437.74 56.11 2.00 363.06 3274.11
   08:53:14.678.15-Aug-2021 3421.80 7437.74 56.11 2.00 363.26 3274.11
   08:53:14.878.15-Aug-2021 3421.80 7437.69 56.11 2.00 363.46 3274.11
   08:53:15.078.15-Aug-2021 3421.80 7437.75 56.11 2.00 363.66 3274.11
   08:53:15.278.15-Aug-2021 3421.80 7438.05 56.11 2.00 363.86 3274.11
   08:53:15.478.15-Aug-2021 3421.80 7438.09 56.11 2.00 364.06 3274.11
   08:53:15.678.15-Aug-2021 3421.80 7438.09 56.11 2.00 364.26 3274.11
   08:53:15.878.15-Aug-2021 3421.80 7438.07 56.11 2.00 364.46 3274.11
   08:53:16.078.15-Aug-2021 3421.80 7437.97 56.11 2.00 364.66 3274.11
   08:53:16.278.15-Aug-2021 3421.80 7437.89 56.11 2.00 364.86 3274.11
   08:53:16.478.15-Aug-2021 3421.80 7437.84 56.11 2.00 365.06 3274.11
   08:53:16.678.15-Aug-2021 3421.80 7437.84 56.11 2.00 365.26 3274.11
   08:53:16.878.15-Aug-2021 3421.80 7437.68 56.11 2.00 365.46 3274.11
   08:53:17.078.15-Aug-2021 3421.80 7437.94 56.11 2.00 365.66 3274.11
   08:53:17.278.15-Aug-2021 3421.80 7438.02 56.11 2.00 365.86 3274.11
   08:53:17.478.15-Aug-2021 3421.80 7438.05 56.11 2.00 366.06 3274.11
   08:53:17.678.15-Aug-2021 3421.80 7438.05 56.11 2.00 366.26 3274.11
   08:53:17.879.15-Aug-2021 3421.80 7438.37 56.11 2.00 366.46 3274.11
   08:53:18.079.15-Aug-2021 3421.80 7438.44 56.11 2.00 366.66 3274.11
   08:53:18.279.15-Aug-2021 3421.80 7438.58 56.11 2.00 366.86 3274.11
   08:53:18.479.15-Aug-2021 3421.80 7438.68 56.11 2.00 367.06 3274.11
   08:53:18.679.15-Aug-2021 3421.80 7438.68 56.11 2.00 367.26 3274.11
   08:53:18.879.15-Aug-2021 3421.80 7438.76 56.11 2.00 367.46 3274.11
   08:53:19.079.15-Aug-2021 3421.80 7438.73 56.11 2.00 367.66 3274.11
   08:53:19.279.15-Aug-2021 3421.80 7438.67 56.11 2.00 367.86 3274.11
