~Version Information
 VERS.                  2.0:   CWLS log ASCII Standard -VERSION 2.0
 WRAP.                   NO:   One line per depth step
~Well Information Block
#MNEM.UNIT     VALUE/NAME     DESCRIPTION
#---------     -----------    ---------------------------
 STRT.S             12:25:56 15-Aug-21: START TIME 12:25:56 15-Aug-21
 STOP.S             12:39:05 15-Aug-21: STOP TIME  12:39:05 15-Aug-21
 STEP.S                   0.00: STEP TIME
 NULL.                 -999.25: NULL VALUE
 DFWT.                        :  DIST FWL TEXT
 DFST.                        :  DIST FSL TEXT
 DMF .             Drill Floor:  DRILL MEAS FROM
 STIM.      17.18.56 20-Jun-21:  START TIME
 DATE.      17.18.56 20-Aug-21:  END TIME
 SPUD.               20-Jun-21:  SPUD DATE
 NREF.                    Grid:  NORTH REFERENCE
 HPTY.       Minimum Curvature:  HOLE POS TYPE
 DMOD.             Drill Model:  DRILL MOD DESC
 SVYD.                  Survey:  SURVEY DESC
 ILTD.               Lithology:  INTERP LTH DESC
 FTOP.          Formation Tops:  FORM TOPS DESC
 SON .        AZ-XX-0907056190:  JOB NUMBER
 PDAT.       Caspian Sea Level:  PERMANENT DATUM
 WTYP.                Deviated:  WELL TYPE
 MDS .        Operator Entered:  MAG DATA SOURCE
 COMP.     BP Exploration (Caspian Sea) Ltd.:  COMPANY
 UWI .            /AZE20000092:  UNIQUE WELL IDENTIFIER
 API .            /AZE20000092:  API NUMBER
 BASE.              Azerbaijan:  LOGGING EQUIPMENT BASE LOCATION
 REGN.                   EESSA:  REGION
 PROV.                    baku:  PROVINCE
 STAT.                    baku:  STATE NAME
 CTRY.              Azerbaijan:  COUNTRY NAME
 FLD .                     ACG:  FIELD NAME
 SRVC.          Turan Drilling:  CONTRACTOR
 MWDS.                    Baku:  MWD SHOP
 WELL.                     J26:  WELL NAME
 JOBN.        AZ-XX-0907056190:  JOB TICKET NUMB
 RIG .             West Chirag:  RIG NAME
 DOE .                     N/A:  DOE NUMBER
 DCON.         Sperry Drilling:  DIRECTNL CONTR
 UNIT.                     N/A:  LOGGING EQUIPMENT ID
 CNTY.                        :  COUNTY
 LOC .                        :  LOCATION
 LMF .             Drill Floor:  LOG MEASURED FROM
 TVDS.m                  43.00:  TVDSS CORRECTN
 LATI.deg                40.13:  LATITUDE
 LONG.deg                51.22:  LONGITUDE
 WHNS.m                  -7.12:  WELL HEAD N/S
 WHEW.m                  -9.46:  WELL HEAD E/W
 UTMX.m              519004.02:  UTM X
 UTMY.m             4443784.96:  UTM Y
 DFWL.m                   0.00:  DISTANCE FWL
 DFSL.m                   0.00:  DISTANCE FSL
 SDEP.m                 464.00:  START DEPTH
 TDD .m                3500.00:  TOTAL DEPTH (DRILLER)
 VSDR.deg               114.35:  VERT SEC DIRECT
 GVFD.g                   1.00:  GRAVITY FIELD
 MFLD.nT              50386.00:  MAGNETIC FIELD
 MDIP.deg                59.63:  MAGNETIC DIP
 MDEC.deg                 6.43:  MAGNETIC DECL
 GRDC.deg                 0.15:  GRID CORRECTION
 AZTC.deg                 6.29:  AZM TOTAL CORR
 EPD .m                   0.00:  ELEVATION
 EGL .m                   0.00:  GROUND ELEVATION
 WDMS.m                 169.80:  WD ELEV
 APD .m                  43.00:  DEPTH ABOVE PD
 VSEW.m                  -9.46:  VERT SEC E/W
 VSNS.m                  -7.12:  VERT SEC N/S
 AGAP.m                  43.00:  AIR GAP
 DEP .m                 356.16:  DEPTH
 EKB .m                  43.00:  KB ELEVATION
 EDF .m                  43.00:  DF ELEVATION
 TDL .m                 699.00:  TOTAL DEPTH (LOGGER)
 VSC .                       0:  VS TO CLOSURE
 MAGU.                 1853727:  MAGUTM CHECKSUM
~Parameter Information Block
#MNEM.UNIT       Value        Description
#---------     -----------    ---------------------------
 AV  .mps                 1.30:  Ann Velocity 
 AVMX.mps                 1.67:  Max Ann Veloc 
 AZIF.deg               280.40:  Azm, Final 
 BHAT.        Rotary Steerable:  BHA Type 
 BREV.rev            528970.00:  Rev Bit Total 
 BROT.°/30m               1.00:  Build Rotating 
 BS  .in                 12.25:  Bit Size 
 BSZ .in                 12.25:  Bit Size 
 BTPL.psig              738.00:  Bit Press Loss 
 CABU.                     Yes:  Customer Abuse 
 CGEO.        Elvin Suleymanov:  Customer Geo 
 COMM.                     ´3x:  Run Comments 1 
 TCS .hr                 66.05:  Time Ciculation Ended 
 CV  .mps                 2.20:  Crit Velocity 
 CVMX.mps                 2.56:  Max Crit Veloc 
 DD1 .          Rashad Habibov:  Direct Drillr 1 
 DD2 .            Azer ravanov:  Direct Drillr 2 
 DD3 .           Teymur Agayev:  Direct Drillr 3 
 DDSV.               Geo-Pilot:  DD Service 
 DEFF.%                  90.00:  % Det Eff 
 DLRX.°/30m               2.95:  Dogleg Rot Max 
 DLSO.°/30m               1.00:  Dogleg Oriented 
 DLSX.°/30m               2.95:  Dogleg Str Max 
 DRET.      11.42.20 11-Aug-21:  Drill End Time 
 DRST.      23.03.20 08-Aug-21:  Drill Start Tim 
 DTIM.hr                 45.50:  Time Drilling 
 EDEP.m                3488.00:  End Depth 
 ENG1.         Marcelo Marcari:  Engineer 1 
 ENG2.         Dair Mahammadov:  Engineer 2 
 ENG3.       Davud Huseyn-zada:  Engineer 3 
 ENG4.         Yevgeniy Ulikov:  Engineer 4 
 ETIM.      17.45.20 17-Aug-21:  End Time 
 FLOI.gpm              1197.70:  Flow In 
 FLON.gpm              1100.00:  Flow In Min 
 FLOS.cptm                0.00:  Fluid Loss 
 FLOX.gpm              1200.00:  Flow In Max 
 DFT .        Mineral Oil Base:  Mud Type 
 FTRO.       Formation Presure:  FTWD Run Obj 
 HFLO.                      No:  High Flow 
 HPRE.                      No:  High Pressure 
 HTEM.                      No:  High Temp 
 HYDO.m                   1.80:  Hydro Offset 
 IFIN.deg                 9.87:  Inc, Final 
 IMAX.deg                19.96:  Inc Max 
 IMIN.deg                 3.82:  Inc Min 
 IMND.m                3257.42:  Inc Min Depth 
 IMXD.m                2945.53:  Inc Max Depth 
 JARR.                      No:  Jarring 
 LETM.      11.42.20 11-Aug-21:  Log End Time 
 LOST.hr                     0:  Lost Rig Time 
 LSTM.      23.03.20 08-Aug-21:  Log Start Time 
 MDCL.ppm             42500.00:  Mud Chlorides 
 MDES.     Inversion Oil/Synthetic:  Mud Desc 
 DFD .sg                  1.45:  Mud Density 
 MDMN.sg                  1.39:  Dens Mud Min 
 MDMX.sg                  1.57:  Dens Mud Max 
 MOIL.                   53.20:  Run Mud Oil % 
 MOWR.                   70:30:  Run Mud OWR 
 MSND.                       0:  Run Mud Sand % 
 MSOL.                   24.30:  Run Mud Solids% 
 DFV .spqt               79.00:  Mud Viscosity 
 MWOD.in                  8.00:  MWD Tool OD 
 MWSI.                      No:  Serv Intrp, MWD 
 OTIM.hr                253.06:  Time Operating 
 PCON.           Look Like New:  Pad Condition 
 PMAX.psia            11068.93:  Press Op, Max 
 PV  .cP                 36.00:  Mud PV 
 RUN .                    1000:  Run Number 
 ROPA.m/hr               15.34:  ROP Avg 
 ROPN.m/hr                4.00:  ROP Min 
 ROPX.m/hr               31.00:  ROP Max 
 RPMA.rpm               151.40:  RPM Surface Avg 
 RPMN.rpm               120.00:  RPM Surface Min 
 RPMX.rpm               160.00:  RPM Surface Max 
 RRUN.                    L505:  Rig Run Number 
 RTIM.hr                 10.00:  Time Reaming 
 SAZI.deg                88.92:  Azm, Start 
 SDEP.m                2789.00:  Start Depth 
 SIDD.                      No:  Serv Intrp, DD 
 SINC.deg                19.84:  Inc, Start 
 SPPA.psig             4421.39:  SPP Avg 
 SPPN.psig             4130.00:  SPP Min 
 SPPX.psig             4800.00:  SPP Max 
 STIM.      01.25.20 07-Aug-21:  Start Time 
 SVCS.                 DD, MWD:  Services 
 SVER.                    9.20:  Sperry Version 
 TDAT.m                 699.00:  Tot Depth Attmp 
 TDDF.                      No:  Trip for DD 
 TDLG.m                 699.00:  Tot Depth Loggd 
 TFF .                      No:  Trip for Fail 
 TQAA.f-kp               20.55:  Torque Abs Avg 
 TQAN.f-kp               15.00:  Torque Abs Min 
 TQAX.f-kp               24.00:  Torque Abs Max 
 TRRT.°/30m               0.50:  Turn Rotating 
 MRT .                    HCIM:  Maximum Recorded Temperature 
 TTMX.degC               82.35:  Max Tool Temp 
 VS01.                90654677:  Virtual Str1 SN 
 VS02.                90636294:  Virtual Str2 SN 
 VS03.                90653866:  Virtual Str3 SN 
 VS04.                90654674:  Virtual Str4 SN 
 WBMN.klb                10.00:  WOB Min 
 WITN.         Haytham Mostafa:  Customer Rep 
 WITN.           Rufat Babayev:  Customer Rep 2 
 WOBA.klb                22.43:  WOB Avg 
 WOBX.klb                35.00:  WOB Max 
 YP  .lhf2               32.00:  Yield Point 
~Curve Information Block
#MNEM.UNIT                 API CODE     Curve Description
#---------               -----------    ---------------------------
 TIME.HHMMSS            00 000 000 000:  GT Time & Date
 GTDEPTH.m              00 000 000 000:  GT Depth
 GTPQH.psia             00 000 000 000:  GT HR Quartz Pressure
 GTTQ.degC              00 000 000 000:  GT Quartz Temperature
 GTTN.NONE              00 000 000 000:  GT Test Number
 GTET.sec               00 000 000 000:  GT Elapsed Test Time
 GTTVD.m                00 000 000 000:  GT True Vertical Depth
#Other Information
#
#WARRANTY: Halliburton will use its best efforts to furnish customers with 
#accurate information and interpretations that are part of, and incident to, the services 
#provided.  However, Halliburton cannot and does not warrant the accuracy 
#or correctness of such information and interpretations.  Under no circumstances should any 
#such information or interpretation be relied upon as the sole basis for any drilling, 
#completion, production, or financial decision or any procedure involving any risk to the 
#safety of any drilling venture, drilling rig or its crew or any other third party.  The 
#Customer has full responsibility for all drilling, completion and production operation.  
#Halliburton makes no representations or warranties, either expressed or 
#implied, including, but not limited to, the implied warranties of merchantability or fitness 
#for a particular purpose, with respect to the services rendered.  In no event will 
#Halliburton be liable for failure to obtain any particular results or for 
#any damages, including, but not limited to, indirect, special or consequential damages, 
#resulting from the use of any information or interpretation provided by Halliburton.
#
~A           TIME           GTDEPTH  GTPQH  GTTQ  GTTN  GTET   GTTVD  
# ...
   12:33:36.636.15-Aug-2021 3405.50 3778.39 52.37 6.00 459.72 3258.07
   12:33:36.836.15-Aug-2021 3405.50 3778.39 52.37 6.00 459.92 3258.07
   12:33:37.036.15-Aug-2021 3405.50 3781.06 52.37 6.00 460.12 3258.07
   12:33:37.235.15-Aug-2021 3405.50 3782.41 52.37 6.00 460.32 3258.07
   12:33:37.435.15-Aug-2021 3405.50 3783.81 52.37 6.00 460.52 3258.07
   12:33:37.635.15-Aug-2021 3405.50 3785.30 52.37 6.00 460.72 3258.07
   12:33:37.835.15-Aug-2021 3405.50 3785.30 52.37 6.00 460.92 3258.07
   12:33:38.035.15-Aug-2021 3405.50 3788.42 52.37 6.00 461.12 3258.07
   12:33:38.235.15-Aug-2021 3405.50 3789.58 52.37 6.00 461.32 3258.07
   12:33:38.435.15-Aug-2021 3405.50 3790.94 52.37 6.00 461.52 3258.07
   12:33:38.635.15-Aug-2021 3405.50 3792.35 52.37 6.00 461.72 3258.07
   12:33:38.834.15-Aug-2021 3405.50 3792.35 52.37 6.00 461.92 3258.07
   12:33:39.034.15-Aug-2021 3405.50 3794.24 52.37 6.00 462.12 3258.07
   12:33:39.234.15-Aug-2021 3405.50 3795.45 52.37 6.00 462.32 3258.07
   12:33:39.434.15-Aug-2021 3405.50 3796.62 52.37 6.00 462.52 3258.07
   12:33:39.634.15-Aug-2021 3405.50 3798.39 52.37 6.00 462.72 3258.07
   12:33:39.834.15-Aug-2021 3405.50 3798.39 52.37 6.00 462.92 3258.07
   12:33:40.034.15-Aug-2021 3405.50 3801.09 52.37 6.00 463.12 3258.07
   12:33:40.234.15-Aug-2021 3405.50 3802.33 52.37 6.00 463.32 3258.07
   12:33:40.434.15-Aug-2021 3405.50 3803.65 52.37 6.00 463.52 3258.07
   12:33:40.633.15-Aug-2021 3405.50 3805.05 52.37 6.00 463.72 3258.07
   12:33:40.833.15-Aug-2021 3405.50 3805.05 52.37 6.00 463.92 3258.07
   12:33:41.033.15-Aug-2021 3405.50 3808.19 52.37 6.00 464.12 3258.07
   12:33:41.233.15-Aug-2021 3405.50 3809.57 52.37 6.00 464.32 3258.07
   12:33:41.433.15-Aug-2021 3405.50 3810.81 52.37 6.00 464.52 3258.07
   12:33:41.633.15-Aug-2021 3405.50 3812.23 52.37 6.00 464.72 3258.07
   12:33:41.833.15-Aug-2021 3405.50 3812.23 52.37 6.00 464.92 3258.07
   12:33:42.033.15-Aug-2021 3405.50 3815.08 52.37 6.00 465.12 3258.07
   12:33:42.232.15-Aug-2021 3405.50 3816.38 52.37 6.00 465.32 3258.07
   12:33:42.432.15-Aug-2021 3405.50 3817.72 52.37 6.00 465.52 3258.07
   12:33:42.632.15-Aug-2021 3405.50 3819.16 52.37 6.00 465.72 3258.07
   12:33:42.832.15-Aug-2021 3405.50 3819.16 52.37 6.00 465.92 3258.07
   12:33:43.032.15-Aug-2021 3405.50 3821.83 52.37 6.00 466.12 3258.07
   12:33:43.232.15-Aug-2021 3405.50 3823.28 52.37 6.00 466.32 3258.07
   12:33:43.432.15-Aug-2021 3405.50 3824.63 52.37 6.00 466.52 3258.07
   12:33:43.632.15-Aug-2021 3405.50 3825.90 52.37 6.00 466.72 3258.07
   12:33:43.831.15-Aug-2021 3405.50 3825.90 52.37 6.00 466.92 3258.07
   12:33:44.031.15-Aug-2021 3405.50 3828.97 52.37 6.00 467.12 3258.07
   12:33:44.231.15-Aug-2021 3405.50 3830.44 52.37 6.00 467.32 3258.07
   12:33:44.431.15-Aug-2021 3405.50 3831.51 52.37 6.00 467.52 3258.07
   12:33:44.631.15-Aug-2021 3405.50 3832.81 52.37 6.00 467.72 3258.07
   12:33:44.831.15-Aug-2021 3405.50 3832.81 52.37 6.00 467.92 3258.07
   12:33:45.031.15-Aug-2021 3405.50 3835.49 52.37 6.00 468.12 3258.07
   12:33:45.231.15-Aug-2021 3405.50 3836.86 52.37 6.00 468.32 3258.07
   12:33:45.431.15-Aug-2021 3405.50 3838.16 52.37 6.00 468.52 3258.07
   12:33:45.630.15-Aug-2021 3405.50 3839.40 52.37 6.00 468.72 3258.07
   12:33:45.830.15-Aug-2021 3405.50 3839.40 52.37 6.00 468.92 3258.07
   12:33:46.030.15-Aug-2021 3405.50 3841.61 52.37 6.00 469.12 3258.07
   12:33:46.230.15-Aug-2021 3405.50 3842.64 52.37 6.00 469.32 3258.07
   12:33:46.430.15-Aug-2021 3405.50 3843.80 52.37 6.00 469.52 3258.07
   12:33:46.630.15-Aug-2021 3405.50 3845.50 52.37 6.00 469.72 3258.07
   12:33:46.830.15-Aug-2021 3405.50 3845.50 52.37 6.00 469.92 3258.07
   12:33:47.030.15-Aug-2021 3405.50 3846.77 52.37 6.00 470.12 3258.07
   12:33:47.229.15-Aug-2021 3405.50 3849.44 52.37 6.00 470.32 3258.07
   12:33:47.429.15-Aug-2021 3405.50 3850.72 52.37 6.00 470.52 3258.07
   12:33:47.629.15-Aug-2021 3405.50 3852.29 52.37 6.00 470.72 3258.07
   12:33:47.829.15-Aug-2021 3405.50 3852.29 52.37 6.00 470.92 3258.07
   12:33:48.029.15-Aug-2021 3405.50 3854.84 52.37 6.00 471.12 3258.07
   12:33:48.229.15-Aug-2021 3405.50 3856.21 52.37 6.00 471.32 3258.07
   12:33:48.429.15-Aug-2021 3405.50 3857.54 52.37 6.00 471.52 3258.07
   12:33:48.629.15-Aug-2021 3405.50 3858.79 52.37 6.00 471.72 3258.07
   12:33:48.828.15-Aug-2021 3405.50 3858.79 52.37 6.00 471.92 3258.07
   12:33:49.028.15-Aug-2021 3405.50 3861.83 52.37 6.00 472.12 3258.07
   12:33:49.228.15-Aug-2021 3405.50 3863.31 52.37 6.00 472.32 3258.07
   12:33:49.428.15-Aug-2021 3405.50 3864.41 52.37 6.00 472.52 3258.07
   12:33:49.628.15-Aug-2021 3405.50 3865.67 52.37 6.00 472.72 3258.07
   12:33:49.828.15-Aug-2021 3405.50 3865.67 52.37 6.00 472.92 3258.07
   12:33:50.028.15-Aug-2021 3405.50 3868.56 52.37 6.00 473.12 3258.07
   12:33:50.228.15-Aug-2021 3405.50 3870.00 52.37 6.00 473.32 3258.07
   12:33:50.428.15-Aug-2021 3405.50 3871.18 52.37 6.00 473.52 3258.07
   12:33:50.627.15-Aug-2021 3405.50 3872.42 52.37 6.00 473.71 3258.07
   12:33:50.827.15-Aug-2021 3405.50 3872.42 52.37 6.00 473.91 3258.07
   12:33:51.027.15-Aug-2021 3405.50 3873.84 52.37 6.00 474.11 3258.07
   12:33:51.227.15-Aug-2021 3405.50 3876.46 52.37 6.00 474.31 3258.07
   12:33:51.427.15-Aug-2021 3405.50 3877.83 52.37 6.00 474.51 3258.07
   12:33:51.627.15-Aug-2021 3405.50 3879.34 52.37 6.00 474.71 3258.07
   12:33:51.827.15-Aug-2021 3405.50 3879.34 52.37 6.00 474.91 3258.07
   12:33:52.027.15-Aug-2021 3405.50 3881.86 52.37 6.00 475.11 3258.07
   12:33:52.226.15-Aug-2021 3405.50 3883.19 52.37 6.00 475.31 3258.07
   12:33:52.426.15-Aug-2021 3405.50 3884.32 52.37 6.00 475.51 3258.07
   12:33:52.626.15-Aug-2021 3405.50 3885.53 52.37 6.00 475.71 3258.07
   12:33:52.826.15-Aug-2021 3405.50 3885.53 52.37 6.00 475.91 3258.07
   12:33:53.026.15-Aug-2021 3405.50 3887.94 52.37 6.00 476.11 3258.07
   12:33:53.226.15-Aug-2021 3405.50 3888.79 52.37 6.00 476.31 3258.07
   12:33:53.426.15-Aug-2021 3405.50 3890.05 52.37 6.00 476.51 3258.07
   12:33:53.626.15-Aug-2021 3405.50 3891.40 52.37 6.00 476.71 3258.07
   12:33:53.825.15-Aug-2021 3405.50 3891.40 52.37 6.00 476.91 3258.07
   12:33:54.025.15-Aug-2021 3405.50 3893.90 52.37 6.00 477.11 3258.07
   12:33:54.225.15-Aug-2021 3405.50 3895.12 52.37 6.00 477.31 3258.07
   12:33:54.425.15-Aug-2021 3405.50 3896.32 52.37 6.00 477.51 3258.07
   12:33:54.625.15-Aug-2021 3405.50 3897.93 52.37 6.00 477.71 3258.07
   12:33:54.825.15-Aug-2021 3405.50 3897.93 52.37 6.00 477.91 3258.07
   12:33:55.025.15-Aug-2021 3405.50 3900.57 52.37 6.00 478.11 3258.07
   12:33:55.225.15-Aug-2021 3405.50 3901.90 52.37 6.00 478.31 3258.07
   12:33:55.425.15-Aug-2021 3405.50 3903.48 52.37 6.00 478.51 3258.07
   12:33:55.624.15-Aug-2021 3405.50 3904.53 52.37 6.00 478.71 3258.07
   12:33:55.824.15-Aug-2021 3405.50 3904.53 52.37 6.00 478.91 3258.07
   12:33:56.024.15-Aug-2021 3405.50 3907.01 52.37 6.00 479.11 3258.07
   12:33:56.224.15-Aug-2021 3405.50 3908.37 52.37 6.00 479.31 3258.07
   12:33:56.424.15-Aug-2021 3405.50 3909.68 52.37 6.00 479.51 3258.07
   12:33:56.624.15-Aug-2021 3405.50 3910.93 52.37 6.00 479.71 3258.07
   12:33:56.824.15-Aug-2021 3405.50 3910.93 52.37 6.00 479.91 3258.07
   12:33:57.024.15-Aug-2021 3405.50 3913.78 52.37 6.00 480.11 3258.07
   12:33:57.223.15-Aug-2021 3405.50 3914.99 52.37 6.00 480.31 3258.07
   12:33:57.423.15-Aug-2021 3405.50 3916.21 52.37 6.00 480.51 3258.07
   12:33:57.623.15-Aug-2021 3405.50 3917.44 52.37 6.00 480.71 3258.07
   12:33:57.823.15-Aug-2021 3405.50 3917.44 52.37 6.00 480.91 3258.07
   12:33:58.023.15-Aug-2021 3405.50 3920.46 52.37 6.00 481.11 3258.07
   12:33:58.223.15-Aug-2021 3405.50 3921.53 52.37 6.00 481.31 3258.07
   12:33:58.423.15-Aug-2021 3405.50 3922.74 52.37 6.00 481.51 3258.07
   12:33:58.623.15-Aug-2021 3405.50 3924.18 52.37 6.00 481.71 3258.07
   12:33:58.822.15-Aug-2021 3405.50 3924.18 52.37 6.00 481.91 3258.07
   12:33:59.022.15-Aug-2021 3405.50 3926.72 52.37 6.00 482.11 3258.07
   12:33:59.222.15-Aug-2021 3405.50 3927.97 52.37 6.00 482.31 3258.07
   12:33:59.422.15-Aug-2021 3405.50 3929.19 52.37 6.00 482.51 3258.07
