~Version Information
 VERS.                  2.0:   CWLS log ASCII Standard -VERSION 2.0
 WRAP.                   NO:   One line per depth step
~Well Information Block
#MNEM.UNIT     VALUE/NAME     DESCRIPTION
#---------     -----------    ---------------------------
 STRT.S             08:47:11 15-Aug-21: START TIME 08:47:11 15-Aug-21
 STOP.S             08:54:08 15-Aug-21: STOP TIME  08:54:08 15-Aug-21
 STEP.S                   0.00: STEP TIME
 NULL.                 -999.25: NULL VALUE
 DFWT.                        :  DIST FWL TEXT
 DFST.                        :  DIST FSL TEXT
 DMF .             Drill Floor:  DRILL MEAS FROM
 STIM.      17.18.56 20-Jun-21:  START TIME
 DATE.      17.18.56 20-Aug-21:  END TIME
 SPUD.               20-Jun-21:  SPUD DATE
 NREF.                    Grid:  NORTH REFERENCE
 HPTY.       Minimum Curvature:  HOLE POS TYPE
 DMOD.             Drill Model:  DRILL MOD DESC
 SVYD.                  Survey:  SURVEY DESC
 ILTD.               Lithology:  INTERP LTH DESC
 FTOP.          Formation Tops:  FORM TOPS DESC
 SON .        AZ-XX-0907056190:  JOB NUMBER
 PDAT.       Caspian Sea Level:  PERMANENT DATUM
 WTYP.                Deviated:  WELL TYPE
 MDS .        Operator Entered:  MAG DATA SOURCE
 COMP.     BP Exploration (Caspian Sea) Ltd.:  COMPANY
 UWI .            /AZE20000092:  UNIQUE WELL IDENTIFIER
 API .            /AZE20000092:  API NUMBER
 BASE.              Azerbaijan:  LOGGING EQUIPMENT BASE LOCATION
 REGN.                   EESSA:  REGION
 PROV.                    baku:  PROVINCE
 STAT.                    baku:  STATE NAME
 CTRY.              Azerbaijan:  COUNTRY NAME
 FLD .                     ACG:  FIELD NAME
 SRVC.          Turan Drilling:  CONTRACTOR
 MWDS.                    Baku:  MWD SHOP
 WELL.                     J26:  WELL NAME
 JOBN.        AZ-XX-0907056190:  JOB TICKET NUMB
 RIG .             West Chirag:  RIG NAME
 DOE .                     N/A:  DOE NUMBER
 DCON.         Sperry Drilling:  DIRECTNL CONTR
 UNIT.                     N/A:  LOGGING EQUIPMENT ID
 CNTY.                        :  COUNTY
 LOC .                        :  LOCATION
 LMF .             Drill Floor:  LOG MEASURED FROM
 TVDS.m                  43.00:  TVDSS CORRECTN
 LATI.deg                40.13:  LATITUDE
 LONG.deg                51.22:  LONGITUDE
 WHNS.m                  -7.12:  WELL HEAD N/S
 WHEW.m                  -9.46:  WELL HEAD E/W
 UTMX.m              519004.02:  UTM X
 UTMY.m             4443784.96:  UTM Y
 DFWL.m                   0.00:  DISTANCE FWL
 DFSL.m                   0.00:  DISTANCE FSL
 SDEP.m                 464.00:  START DEPTH
 TDD .m                3500.00:  TOTAL DEPTH (DRILLER)
 VSDR.deg               114.35:  VERT SEC DIRECT
 GVFD.g                   1.00:  GRAVITY FIELD
 MFLD.nT              50386.00:  MAGNETIC FIELD
 MDIP.deg                59.63:  MAGNETIC DIP
 MDEC.deg                 6.43:  MAGNETIC DECL
 GRDC.deg                 0.15:  GRID CORRECTION
 AZTC.deg                 6.29:  AZM TOTAL CORR
 EPD .m                   0.00:  ELEVATION
 EGL .m                   0.00:  GROUND ELEVATION
 WDMS.m                 169.80:  WD ELEV
 APD .m                  43.00:  DEPTH ABOVE PD
 VSEW.m                  -9.46:  VERT SEC E/W
 VSNS.m                  -7.12:  VERT SEC N/S
 AGAP.m                  43.00:  AIR GAP
 DEP .m                 356.16:  DEPTH
 EKB .m                  43.00:  KB ELEVATION
 EDF .m                  43.00:  DF ELEVATION
 TDL .m                 699.00:  TOTAL DEPTH (LOGGER)
 VSC .                       0:  VS TO CLOSURE
 MAGU.                 1853727:  MAGUTM CHECKSUM
~Parameter Information Block
#MNEM.UNIT       Value        Description
#---------     -----------    ---------------------------
 AV  .mps                 1.30:  Ann Velocity 
 AVMX.mps                 1.67:  Max Ann Veloc 
 AZIF.deg               280.40:  Azm, Final 
 BHAT.        Rotary Steerable:  BHA Type 
 BREV.rev            528970.00:  Rev Bit Total 
 BROT.°/30m               1.00:  Build Rotating 
 BS  .in                 12.25:  Bit Size 
 BSZ .in                 12.25:  Bit Size 
 BTPL.psig              738.00:  Bit Press Loss 
 CABU.                     Yes:  Customer Abuse 
 CGEO.        Elvin Suleymanov:  Customer Geo 
 COMM.                     äji:  Run Comments 1 
 TCS .hr                 66.05:  Time Ciculation Ended 
 CV  .mps                 2.20:  Crit Velocity 
 CVMX.mps                 2.56:  Max Crit Veloc 
 DD1 .          Rashad Habibov:  Direct Drillr 1 
 DD2 .            Azer ravanov:  Direct Drillr 2 
 DD3 .           Teymur Agayev:  Direct Drillr 3 
 DDSV.               Geo-Pilot:  DD Service 
 DEFF.%                  90.00:  % Det Eff 
 DLRX.°/30m               2.95:  Dogleg Rot Max 
 DLSO.°/30m               1.00:  Dogleg Oriented 
 DLSX.°/30m               2.95:  Dogleg Str Max 
 DRET.      11.42.20 11-Aug-21:  Drill End Time 
 DRST.      23.03.20 08-Aug-21:  Drill Start Tim 
 DTIM.hr                 45.50:  Time Drilling 
 EDEP.m                3488.00:  End Depth 
 ENG1.         Marcelo Marcari:  Engineer 1 
 ENG2.         Dair Mahammadov:  Engineer 2 
 ENG3.       Davud Huseyn-zada:  Engineer 3 
 ENG4.         Yevgeniy Ulikov:  Engineer 4 
 ETIM.      17.45.20 17-Aug-21:  End Time 
 FLOI.gpm              1197.70:  Flow In 
 FLON.gpm              1100.00:  Flow In Min 
 FLOS.cptm                0.00:  Fluid Loss 
 FLOX.gpm              1200.00:  Flow In Max 
 DFT .        Mineral Oil Base:  Mud Type 
 FTRO.       Formation Presure:  FTWD Run Obj 
 HFLO.                      No:  High Flow 
 HPRE.                      No:  High Pressure 
 HTEM.                      No:  High Temp 
 HYDO.m                   1.80:  Hydro Offset 
 IFIN.deg                 9.87:  Inc, Final 
 IMAX.deg                19.96:  Inc Max 
 IMIN.deg                 3.82:  Inc Min 
 IMND.m                3257.42:  Inc Min Depth 
 IMXD.m                2945.53:  Inc Max Depth 
 JARR.                      No:  Jarring 
 LETM.      11.42.20 11-Aug-21:  Log End Time 
 LOST.hr                     0:  Lost Rig Time 
 LSTM.      23.03.20 08-Aug-21:  Log Start Time 
 MDCL.ppm             42500.00:  Mud Chlorides 
 MDES.     Inversion Oil/Synthetic:  Mud Desc 
 DFD .sg                  1.45:  Mud Density 
 MDMN.sg                  1.39:  Dens Mud Min 
 MDMX.sg                  1.57:  Dens Mud Max 
 MOIL.                   53.20:  Run Mud Oil % 
 MOWR.                   70:30:  Run Mud OWR 
 MSND.                       0:  Run Mud Sand % 
 MSOL.                   24.30:  Run Mud Solids% 
 DFV .spqt               79.00:  Mud Viscosity 
 MWOD.in                  8.00:  MWD Tool OD 
 MWSI.                      No:  Serv Intrp, MWD 
 OTIM.hr                253.06:  Time Operating 
 PCON.           Look Like New:  Pad Condition 
 PMAX.psia            11068.93:  Press Op, Max 
 PV  .cP                 36.00:  Mud PV 
 RUN .                    1000:  Run Number 
 ROPA.m/hr               15.34:  ROP Avg 
 ROPN.m/hr                4.00:  ROP Min 
 ROPX.m/hr               31.00:  ROP Max 
 RPMA.rpm               151.40:  RPM Surface Avg 
 RPMN.rpm               120.00:  RPM Surface Min 
 RPMX.rpm               160.00:  RPM Surface Max 
 RRUN.                    L505:  Rig Run Number 
 RTIM.hr                 10.00:  Time Reaming 
 SAZI.deg                88.92:  Azm, Start 
 SDEP.m                2789.00:  Start Depth 
 SIDD.                      No:  Serv Intrp, DD 
 SINC.deg                19.84:  Inc, Start 
 SPPA.psig             4421.39:  SPP Avg 
 SPPN.psig             4130.00:  SPP Min 
 SPPX.psig             4800.00:  SPP Max 
 STIM.      01.25.20 07-Aug-21:  Start Time 
 SVCS.                 DD, MWD:  Services 
 SVER.                    9.20:  Sperry Version 
 TDAT.m                 699.00:  Tot Depth Attmp 
 TDDF.                      No:  Trip for DD 
 TDLG.m                 699.00:  Tot Depth Loggd 
 TFF .                      No:  Trip for Fail 
 TQAA.f-kp               20.55:  Torque Abs Avg 
 TQAN.f-kp               15.00:  Torque Abs Min 
 TQAX.f-kp               24.00:  Torque Abs Max 
 TRRT.°/30m               0.50:  Turn Rotating 
 MRT .                    HCIM:  Maximum Recorded Temperature 
 TTMX.degC               82.35:  Max Tool Temp 
 VS01.                90654677:  Virtual Str1 SN 
 VS02.                90636294:  Virtual Str2 SN 
 VS03.                90653866:  Virtual Str3 SN 
 VS04.                90654674:  Virtual Str4 SN 
 WBMN.klb                10.00:  WOB Min 
 WITN.         Haytham Mostafa:  Customer Rep 
 WITN.           Rufat Babayev:  Customer Rep 2 
 WOBA.klb                22.43:  WOB Avg 
 WOBX.klb                35.00:  WOB Max 
 YP  .lhf2               32.00:  Yield Point 
~Curve Information Block
#MNEM.UNIT                 API CODE     Curve Description
#---------               -----------    ---------------------------
 TIME.HHMMSS            00 000 000 000:  GT Time & Date
 GTDEPTH.m              00 000 000 000:  GT Depth
 GTPQH.psia             00 000 000 000:  GT HR Quartz Pressure
 GTTQ.degC              00 000 000 000:  GT Quartz Temperature
 GTTN.NONE              00 000 000 000:  GT Test Number
 GTET.sec               00 000 000 000:  GT Elapsed Test Time
 GTTVD.m                00 000 000 000:  GT True Vertical Depth
#Other Information
#
#WARRANTY: Halliburton will use its best efforts to furnish customers with 
#accurate information and interpretations that are part of, and incident to, the services 
#provided.  However, Halliburton cannot and does not warrant the accuracy 
#or correctness of such information and interpretations.  Under no circumstances should any 
#such information or interpretation be relied upon as the sole basis for any drilling, 
#completion, production, or financial decision or any procedure involving any risk to the 
#safety of any drilling venture, drilling rig or its crew or any other third party.  The 
#Customer has full responsibility for all drilling, completion and production operation.  
#Halliburton makes no representations or warranties, either expressed or 
#implied, including, but not limited to, the implied warranties of merchantability or fitness 
#for a particular purpose, with respect to the services rendered.  In no event will 
#Halliburton be liable for failure to obtain any particular results or for 
#any damages, including, but not limited to, indirect, special or consequential damages, 
#resulting from the use of any information or interpretation provided by Halliburton.
#
~A           TIME           GTDEPTH  GTPQH  GTTQ  GTTN  GTET   GTTVD  
# ...
   08:53:42.483.15-Aug-2021 3421.80 7483.75 56.08 2.00 391.06 3274.11
   08:53:42.683.15-Aug-2021 3421.80 7483.75 56.08 2.00 391.26 3274.11
   08:53:42.883.15-Aug-2021 3421.80 7484.13 56.08 2.00 391.46 3274.11
   08:53:43.083.15-Aug-2021 3421.80 7486.34 56.08 2.00 391.66 3274.11
   08:53:43.283.15-Aug-2021 3421.80 7485.77 56.08 2.00 391.86 3274.11
   08:53:43.483.15-Aug-2021 3421.80 7484.83 56.08 2.00 392.06 3274.11
   08:53:43.683.15-Aug-2021 3421.80 7484.83 56.08 2.00 392.26 3274.11
   08:53:43.883.15-Aug-2021 3421.80 7483.96 56.08 2.00 392.46 3274.11
   08:53:44.083.15-Aug-2021 3421.80 7485.95 56.08 2.00 392.66 3274.11
   08:53:44.283.15-Aug-2021 3421.80 7485.07 56.08 2.00 392.86 3274.11
   08:53:44.483.15-Aug-2021 3421.80 7483.57 56.08 2.00 393.06 3274.11
   08:53:44.683.15-Aug-2021 3421.80 7483.57 56.08 2.00 393.26 3274.11
   08:53:44.883.15-Aug-2021 3421.80 7484.74 56.08 2.00 393.46 3274.11
   08:53:45.083.15-Aug-2021 3421.80 7484.34 56.08 2.00 393.66 3274.11
   08:53:45.283.15-Aug-2021 3421.80 7488.16 56.08 2.00 393.86 3274.11
   08:53:45.483.15-Aug-2021 3421.80 7484.16 56.08 2.00 394.06 3274.11
   08:53:45.683.15-Aug-2021 3421.80 7484.16 56.08 2.00 394.26 3274.11
   08:53:45.883.15-Aug-2021 3421.80 7483.52 56.08 2.00 394.46 3274.11
   08:53:46.083.15-Aug-2021 3421.80 7486.39 56.08 2.00 394.66 3274.11
   08:53:46.283.15-Aug-2021 3421.80 7482.29 56.08 2.00 394.86 3274.11
   08:53:46.483.15-Aug-2021 3421.80 7484.15 56.08 2.00 395.06 3274.11
   08:53:46.683.15-Aug-2021 3421.80 7484.15 56.08 2.00 395.26 3274.11
   08:53:46.883.15-Aug-2021 3421.80 7485.57 56.08 2.00 395.46 3274.11
   08:53:47.083.15-Aug-2021 3421.80 7484.32 56.08 2.00 395.66 3274.11
   08:53:47.283.15-Aug-2021 3421.80 7485.06 56.08 2.00 395.86 3274.11
   08:53:47.483.15-Aug-2021 3421.80 7485.32 56.08 2.00 396.06 3274.11
   08:53:47.683.15-Aug-2021 3421.80 7485.32 56.08 2.00 396.26 3274.11
   08:53:47.883.15-Aug-2021 3421.80 7483.70 56.08 2.00 396.46 3274.11
   08:53:48.083.15-Aug-2021 3421.80 7483.05 56.08 2.00 396.66 3274.11
   08:53:48.284.15-Aug-2021 3421.80 7485.06 56.08 2.00 396.86 3274.11
   08:53:48.484.15-Aug-2021 3421.80 7485.41 56.08 2.00 397.07 3274.11
   08:53:48.684.15-Aug-2021 3421.80 7485.41 56.08 2.00 397.27 3274.11
   08:53:48.884.15-Aug-2021 3421.80 7484.50 56.08 2.00 397.47 3274.11
   08:53:49.084.15-Aug-2021 3421.80 7483.64 56.08 2.00 397.67 3274.11
   08:53:49.284.15-Aug-2021 3421.80 7483.85 56.08 2.00 397.87 3274.11
   08:53:49.484.15-Aug-2021 3421.80 7487.74 56.08 2.00 398.07 3274.11
   08:53:49.684.15-Aug-2021 3421.80 7487.74 56.08 2.00 398.27 3274.11
   08:53:49.884.15-Aug-2021 3421.80 7484.56 56.08 2.00 398.47 3274.11
   08:53:50.084.15-Aug-2021 3421.80 7483.01 56.07 2.00 398.67 3274.11
   08:53:50.284.15-Aug-2021 3421.80 7487.36 56.07 2.00 398.87 3274.11
   08:53:50.484.15-Aug-2021 3421.80 7483.44 56.07 2.00 399.07 3274.11
   08:53:50.684.15-Aug-2021 3421.80 7483.44 56.07 2.00 399.27 3274.11
   08:53:50.884.15-Aug-2021 3421.80 7484.87 56.07 2.00 399.47 3274.11
   08:53:51.084.15-Aug-2021 3421.80 7483.84 56.07 2.00 399.67 3274.11
   08:53:51.284.15-Aug-2021 3421.80 7483.53 56.07 2.00 399.87 3274.11
   08:53:51.484.15-Aug-2021 3421.80 7484.33 56.07 2.00 400.07 3274.11
   08:53:51.684.15-Aug-2021 3421.80 7484.33 56.07 2.00 400.27 3274.11
   08:53:51.884.15-Aug-2021 3421.80 7487.41 56.07 2.00 400.47 3274.11
   08:53:52.084.15-Aug-2021 3421.80 7484.18 56.07 2.00 400.67 3274.11
   08:53:52.284.15-Aug-2021 3421.80 7483.00 56.07 2.00 400.87 3274.11
   08:53:52.484.15-Aug-2021 3421.80 7484.11 56.07 2.00 401.07 3274.11
   08:53:52.684.15-Aug-2021 3421.80 7485.05 56.07 2.00 401.27 3274.11
   08:53:52.884.15-Aug-2021 3421.80 7485.78 56.07 2.00 401.47 3274.11
   08:53:53.084.15-Aug-2021 3421.80 7483.77 56.07 2.00 401.67 3274.11
   08:53:53.284.15-Aug-2021 3421.80 7484.37 56.07 2.00 401.87 3274.11
   08:53:53.484.15-Aug-2021 3421.80 7485.27 56.07 2.00 402.07 3274.11
   08:53:53.684.15-Aug-2021 3421.80 7485.27 56.07 2.00 402.27 3274.11
   08:53:53.884.15-Aug-2021 3421.80 7484.88 56.07 2.00 402.47 3274.11
   08:53:54.084.15-Aug-2021 3421.80 7486.11 56.07 2.00 402.67 3274.11
   08:53:54.284.15-Aug-2021 3421.80 7485.54 56.07 2.00 402.87 3274.11
   08:53:54.485.15-Aug-2021 3421.80 7483.07 56.07 2.00 403.07 3274.11
   08:53:54.685.15-Aug-2021 3421.80 7483.07 56.07 2.00 403.27 3274.11
   08:53:54.885.15-Aug-2021 3421.80 7485.65 56.07 2.00 403.47 3274.11
   08:53:55.085.15-Aug-2021 3421.80 7485.39 56.07 2.00 403.67 3274.11
   08:53:55.285.15-Aug-2021 3421.80 7485.13 56.07 2.00 403.87 3274.11
   08:53:55.485.15-Aug-2021 3421.80 7485.74 56.07 2.00 404.07 3274.11
   08:53:55.685.15-Aug-2021 3421.80 7485.74 56.07 2.00 404.27 3274.11
   08:53:55.885.15-Aug-2021 3421.80 7486.43 56.07 2.00 404.47 3274.11
   08:53:56.085.15-Aug-2021 3421.80 7485.23 56.07 2.00 404.67 3274.11
   08:53:56.285.15-Aug-2021 3421.80 7483.93 56.07 2.00 404.87 3274.11
   08:53:56.485.15-Aug-2021 3421.80 7483.58 56.07 2.00 405.07 3274.11
   08:53:56.685.15-Aug-2021 3421.80 7483.58 56.07 2.00 405.27 3274.11
   08:53:56.885.15-Aug-2021 3421.80 7485.44 56.07 2.00 405.47 3274.11
   08:53:57.085.15-Aug-2021 3421.80 7484.27 56.07 2.00 405.67 3274.11
   08:53:57.285.15-Aug-2021 3421.80 7483.88 56.07 2.00 405.87 3274.11
   08:53:57.485.15-Aug-2021 3421.80 7483.81 56.07 2.00 406.07 3274.11
   08:53:57.685.15-Aug-2021 3421.80 7483.81 56.07 2.00 406.27 3274.11
   08:53:57.885.15-Aug-2021 3421.80 7484.07 56.07 2.00 406.47 3274.11
   08:53:58.085.15-Aug-2021 3421.80 7484.73 56.07 2.00 406.67 3274.11
   08:53:58.285.15-Aug-2021 3421.80 7484.89 56.07 2.00 406.87 3274.11
   08:53:58.485.15-Aug-2021 3421.80 7488.58 56.07 2.00 407.07 3274.11
   08:53:58.685.15-Aug-2021 3421.80 7488.58 56.07 2.00 407.27 3274.11
   08:53:58.885.15-Aug-2021 3421.80 7483.06 56.07 2.00 407.47 3274.11
   08:53:59.085.15-Aug-2021 3421.80 7484.00 56.07 2.00 407.67 3274.11
   08:53:59.285.15-Aug-2021 3421.80 7485.98 56.07 2.00 407.87 3274.11
   08:53:59.485.15-Aug-2021 3421.80 7485.42 56.07 2.00 408.07 3274.11
   08:53:59.685.15-Aug-2021 3421.80 7485.42 56.07 2.00 408.27 3274.11
   08:53:59.885.15-Aug-2021 3421.80 7483.92 56.07 2.00 408.47 3274.11
   08:54:00.085.15-Aug-2021 3421.80 7485.84 56.07 2.00 408.67 3274.11
   08:54:00.285.15-Aug-2021 3421.80 7485.45 56.07 2.00 408.87 3274.11
   08:54:00.486.15-Aug-2021 3421.80 7485.47 56.06 2.00 409.07 3274.11
   08:54:00.686.15-Aug-2021 3421.80 7485.47 56.06 2.00 409.27 3274.11
   08:54:00.886.15-Aug-2021 3421.80 7483.49 56.06 2.00 409.47 3274.11
   08:54:01.086.15-Aug-2021 3421.80 7484.77 56.06 2.00 409.67 3274.11
   08:54:01.286.15-Aug-2021 3421.80 7486.07 56.06 2.00 409.87 3274.11
   08:54:01.486.15-Aug-2021 3421.80 7486.21 56.06 2.00 410.07 3274.11
   08:54:01.686.15-Aug-2021 3421.80 7486.21 56.06 2.00 410.27 3274.11
   08:54:01.886.15-Aug-2021 3421.80 7484.75 56.06 2.00 410.47 3274.11
   08:54:02.086.15-Aug-2021 3421.80 7485.17 56.06 2.00 410.67 3274.11
   08:54:02.286.15-Aug-2021 3421.80 7487.45 56.06 2.00 410.87 3274.11
   08:54:02.486.15-Aug-2021 3421.80 7487.04 56.06 2.00 411.07 3274.11
   08:54:02.686.15-Aug-2021 3421.80 7487.04 56.06 2.00 411.27 3274.11
   08:54:02.886.15-Aug-2021 3421.80 7484.52 56.06 2.00 411.47 3274.11
   08:54:03.086.15-Aug-2021 3421.80 7486.17 56.06 2.00 411.67 3274.11
   08:54:03.286.15-Aug-2021 3421.80 7486.05 56.06 2.00 411.87 3274.11
   08:54:03.486.15-Aug-2021 3421.80 7486.15 56.06 2.00 412.07 3274.11
   08:54:03.686.15-Aug-2021 3421.80 7486.15 56.06 2.00 412.27 3274.11
   08:54:03.886.15-Aug-2021 3421.80 7485.88 56.06 2.00 412.47 3274.11
   08:54:04.086.15-Aug-2021 3421.80 7487.76 56.06 2.00 412.67 3274.11
   08:54:04.286.15-Aug-2021 3421.80 7486.84 56.06 2.00 412.87 3274.11
   08:54:04.486.15-Aug-2021 3421.80 7485.73 56.06 2.00 413.07 3274.11
   08:54:04.686.15-Aug-2021 3421.80 7485.73 56.06 2.00 413.27 3274.11
   08:54:04.886.15-Aug-2021 3421.80 7485.61 56.06 2.00 413.47 3274.11
   08:54:05.086.15-Aug-2021 3421.80 7486.42 56.06 2.00 413.67 3274.11
   08:54:05.286.15-Aug-2021 3421.80 7485.55 56.06 2.00 413.87 3274.11
