~Version Information
 VERS.                  2.0:   CWLS log ASCII Standard -VERSION 2.0
 WRAP.                   NO:   One line per depth step
~Well Information Block
#MNEM.UNIT     VALUE/NAME     DESCRIPTION
#---------     -----------    ---------------------------
 STRT.S             08:47:11 15-Aug-21: START TIME 08:47:11 15-Aug-21
 STOP.S             08:54:08 15-Aug-21: STOP TIME  08:54:08 15-Aug-21
 STEP.S                   0.00: STEP TIME
 NULL.                 -999.25: NULL VALUE
 DFWT.                        :  DIST FWL TEXT
 DFST.                        :  DIST FSL TEXT
 DMF .             Drill Floor:  DRILL MEAS FROM
 STIM.      17.18.56 20-Jun-21:  START TIME
 DATE.      17.18.56 20-Aug-21:  END TIME
 SPUD.               20-Jun-21:  SPUD DATE
 NREF.                    Grid:  NORTH REFERENCE
 HPTY.       Minimum Curvature:  HOLE POS TYPE
 DMOD.             Drill Model:  DRILL MOD DESC
 SVYD.                  Survey:  SURVEY DESC
 ILTD.               Lithology:  INTERP LTH DESC
 FTOP.          Formation Tops:  FORM TOPS DESC
 SON .        AZ-XX-0907056190:  JOB NUMBER
 PDAT.       Caspian Sea Level:  PERMANENT DATUM
 WTYP.                Deviated:  WELL TYPE
 MDS .        Operator Entered:  MAG DATA SOURCE
 COMP.     BP Exploration (Caspian Sea) Ltd.:  COMPANY
 UWI .            /AZE20000092:  UNIQUE WELL IDENTIFIER
 API .            /AZE20000092:  API NUMBER
 BASE.              Azerbaijan:  LOGGING EQUIPMENT BASE LOCATION
 REGN.                   EESSA:  REGION
 PROV.                    baku:  PROVINCE
 STAT.                    baku:  STATE NAME
 CTRY.              Azerbaijan:  COUNTRY NAME
 FLD .                     ACG:  FIELD NAME
 SRVC.          Turan Drilling:  CONTRACTOR
 MWDS.                    Baku:  MWD SHOP
 WELL.                     J26:  WELL NAME
 JOBN.        AZ-XX-0907056190:  JOB TICKET NUMB
 RIG .             West Chirag:  RIG NAME
 DOE .                     N/A:  DOE NUMBER
 DCON.         Sperry Drilling:  DIRECTNL CONTR
 UNIT.                     N/A:  LOGGING EQUIPMENT ID
 CNTY.                        :  COUNTY
 LOC .                        :  LOCATION
 LMF .             Drill Floor:  LOG MEASURED FROM
 TVDS.m                  43.00:  TVDSS CORRECTN
 LATI.deg                40.13:  LATITUDE
 LONG.deg                51.22:  LONGITUDE
 WHNS.m                  -7.12:  WELL HEAD N/S
 WHEW.m                  -9.46:  WELL HEAD E/W
 UTMX.m              519004.02:  UTM X
 UTMY.m             4443784.96:  UTM Y
 DFWL.m                   0.00:  DISTANCE FWL
 DFSL.m                   0.00:  DISTANCE FSL
 SDEP.m                 464.00:  START DEPTH
 TDD .m                3500.00:  TOTAL DEPTH (DRILLER)
 VSDR.deg               114.35:  VERT SEC DIRECT
 GVFD.g                   1.00:  GRAVITY FIELD
 MFLD.nT              50386.00:  MAGNETIC FIELD
 MDIP.deg                59.63:  MAGNETIC DIP
 MDEC.deg                 6.43:  MAGNETIC DECL
 GRDC.deg                 0.15:  GRID CORRECTION
 AZTC.deg                 6.29:  AZM TOTAL CORR
 EPD .m                   0.00:  ELEVATION
 EGL .m                   0.00:  GROUND ELEVATION
 WDMS.m                 169.80:  WD ELEV
 APD .m                  43.00:  DEPTH ABOVE PD
 VSEW.m                  -9.46:  VERT SEC E/W
 VSNS.m                  -7.12:  VERT SEC N/S
 AGAP.m                  43.00:  AIR GAP
 DEP .m                 356.16:  DEPTH
 EKB .m                  43.00:  KB ELEVATION
 EDF .m                  43.00:  DF ELEVATION
 TDL .m                 699.00:  TOTAL DEPTH (LOGGER)
 VSC .                       0:  VS TO CLOSURE
 MAGU.                 1853727:  MAGUTM CHECKSUM
~Parameter Information Block
#MNEM.UNIT       Value        Description
#---------     -----------    ---------------------------
 AV  .mps                 1.30:  Ann Velocity 
 AVMX.mps                 1.67:  Max Ann Veloc 
 AZIF.deg               280.40:  Azm, Final 
 BHAT.        Rotary Steerable:  BHA Type 
 BREV.rev            528970.00:  Rev Bit Total 
 BROT.°/30m               1.00:  Build Rotating 
 BS  .in                 12.25:  Bit Size 
 BSZ .in                 12.25:  Bit Size 
 BTPL.psig              738.00:  Bit Press Loss 
 CABU.                     Yes:  Customer Abuse 
 CGEO.        Elvin Suleymanov:  Customer Geo 
 COMM.                     äji:  Run Comments 1 
 TCS .hr                 66.05:  Time Ciculation Ended 
 CV  .mps                 2.20:  Crit Velocity 
 CVMX.mps                 2.56:  Max Crit Veloc 
 DD1 .          Rashad Habibov:  Direct Drillr 1 
 DD2 .            Azer ravanov:  Direct Drillr 2 
 DD3 .           Teymur Agayev:  Direct Drillr 3 
 DDSV.               Geo-Pilot:  DD Service 
 DEFF.%                  90.00:  % Det Eff 
 DLRX.°/30m               2.95:  Dogleg Rot Max 
 DLSO.°/30m               1.00:  Dogleg Oriented 
 DLSX.°/30m               2.95:  Dogleg Str Max 
 DRET.      11.42.20 11-Aug-21:  Drill End Time 
 DRST.      23.03.20 08-Aug-21:  Drill Start Tim 
 DTIM.hr                 45.50:  Time Drilling 
 EDEP.m                3488.00:  End Depth 
 ENG1.         Marcelo Marcari:  Engineer 1 
 ENG2.         Dair Mahammadov:  Engineer 2 
 ENG3.       Davud Huseyn-zada:  Engineer 3 
 ENG4.         Yevgeniy Ulikov:  Engineer 4 
 ETIM.      17.45.20 17-Aug-21:  End Time 
 FLOI.gpm              1197.70:  Flow In 
 FLON.gpm              1100.00:  Flow In Min 
 FLOS.cptm                0.00:  Fluid Loss 
 FLOX.gpm              1200.00:  Flow In Max 
 DFT .        Mineral Oil Base:  Mud Type 
 FTRO.       Formation Presure:  FTWD Run Obj 
 HFLO.                      No:  High Flow 
 HPRE.                      No:  High Pressure 
 HTEM.                      No:  High Temp 
 HYDO.m                   1.80:  Hydro Offset 
 IFIN.deg                 9.87:  Inc, Final 
 IMAX.deg                19.96:  Inc Max 
 IMIN.deg                 3.82:  Inc Min 
 IMND.m                3257.42:  Inc Min Depth 
 IMXD.m                2945.53:  Inc Max Depth 
 JARR.                      No:  Jarring 
 LETM.      11.42.20 11-Aug-21:  Log End Time 
 LOST.hr                     0:  Lost Rig Time 
 LSTM.      23.03.20 08-Aug-21:  Log Start Time 
 MDCL.ppm             42500.00:  Mud Chlorides 
 MDES.     Inversion Oil/Synthetic:  Mud Desc 
 DFD .sg                  1.45:  Mud Density 
 MDMN.sg                  1.39:  Dens Mud Min 
 MDMX.sg                  1.57:  Dens Mud Max 
 MOIL.                   53.20:  Run Mud Oil % 
 MOWR.                   70:30:  Run Mud OWR 
 MSND.                       0:  Run Mud Sand % 
 MSOL.                   24.30:  Run Mud Solids% 
 DFV .spqt               79.00:  Mud Viscosity 
 MWOD.in                  8.00:  MWD Tool OD 
 MWSI.                      No:  Serv Intrp, MWD 
 OTIM.hr                253.06:  Time Operating 
 PCON.           Look Like New:  Pad Condition 
 PMAX.psia            11068.93:  Press Op, Max 
 PV  .cP                 36.00:  Mud PV 
 RUN .                    1000:  Run Number 
 ROPA.m/hr               15.34:  ROP Avg 
 ROPN.m/hr                4.00:  ROP Min 
 ROPX.m/hr               31.00:  ROP Max 
 RPMA.rpm               151.40:  RPM Surface Avg 
 RPMN.rpm               120.00:  RPM Surface Min 
 RPMX.rpm               160.00:  RPM Surface Max 
 RRUN.                    L505:  Rig Run Number 
 RTIM.hr                 10.00:  Time Reaming 
 SAZI.deg                88.92:  Azm, Start 
 SDEP.m                2789.00:  Start Depth 
 SIDD.                      No:  Serv Intrp, DD 
 SINC.deg                19.84:  Inc, Start 
 SPPA.psig             4421.39:  SPP Avg 
 SPPN.psig             4130.00:  SPP Min 
 SPPX.psig             4800.00:  SPP Max 
 STIM.      01.25.20 07-Aug-21:  Start Time 
 SVCS.                 DD, MWD:  Services 
 SVER.                    9.20:  Sperry Version 
 TDAT.m                 699.00:  Tot Depth Attmp 
 TDDF.                      No:  Trip for DD 
 TDLG.m                 699.00:  Tot Depth Loggd 
 TFF .                      No:  Trip for Fail 
 TQAA.f-kp               20.55:  Torque Abs Avg 
 TQAN.f-kp               15.00:  Torque Abs Min 
 TQAX.f-kp               24.00:  Torque Abs Max 
 TRRT.°/30m               0.50:  Turn Rotating 
 MRT .                    HCIM:  Maximum Recorded Temperature 
 TTMX.degC               82.35:  Max Tool Temp 
 VS01.                90654677:  Virtual Str1 SN 
 VS02.                90636294:  Virtual Str2 SN 
 VS03.                90653866:  Virtual Str3 SN 
 VS04.                90654674:  Virtual Str4 SN 
 WBMN.klb                10.00:  WOB Min 
 WITN.         Haytham Mostafa:  Customer Rep 
 WITN.           Rufat Babayev:  Customer Rep 2 
 WOBA.klb                22.43:  WOB Avg 
 WOBX.klb                35.00:  WOB Max 
 YP  .lhf2               32.00:  Yield Point 
~Curve Information Block
#MNEM.UNIT                 API CODE     Curve Description
#---------               -----------    ---------------------------
 TIME.HHMMSS            00 000 000 000:  GT Time & Date
 GTDEPTH.m              00 000 000 000:  GT Depth
 GTPQH.psia             00 000 000 000:  GT HR Quartz Pressure
 GTTQ.degC              00 000 000 000:  GT Quartz Temperature
 GTTN.NONE              00 000 000 000:  GT Test Number
 GTET.sec               00 000 000 000:  GT Elapsed Test Time
 GTTVD.m                00 000 000 000:  GT True Vertical Depth
#Other Information
#
#WARRANTY: Halliburton will use its best efforts to furnish customers with 
#accurate information and interpretations that are part of, and incident to, the services 
#provided.  However, Halliburton cannot and does not warrant the accuracy 
#or correctness of such information and interpretations.  Under no circumstances should any 
#such information or interpretation be relied upon as the sole basis for any drilling, 
#completion, production, or financial decision or any procedure involving any risk to the 
#safety of any drilling venture, drilling rig or its crew or any other third party.  The 
#Customer has full responsibility for all drilling, completion and production operation.  
#Halliburton makes no representations or warranties, either expressed or 
#implied, including, but not limited to, the implied warranties of merchantability or fitness 
#for a particular purpose, with respect to the services rendered.  In no event will 
#Halliburton be liable for failure to obtain any particular results or for 
#any damages, including, but not limited to, indirect, special or consequential damages, 
#resulting from the use of any information or interpretation provided by Halliburton.
#
~A           TIME           GTDEPTH  GTPQH  GTTQ  GTTN  GTET   GTTVD  
# ...
   08:49:06.437.15-Aug-2021 3421.80 5137.16 56.30 2.00 115.02 3274.11
   08:49:06.637.15-Aug-2021 3421.80 5137.16 56.30 2.00 115.22 3274.11
   08:49:06.837.15-Aug-2021 3421.80 5140.17 56.30 2.00 115.42 3274.11
   08:49:07.037.15-Aug-2021 3421.80 5141.29 56.30 2.00 115.62 3274.11
   08:49:07.237.15-Aug-2021 3421.80 5142.37 56.30 2.00 115.82 3274.11
   08:49:07.438.15-Aug-2021 3421.80 5143.33 56.30 2.00 116.02 3274.11
   08:49:07.638.15-Aug-2021 3421.80 5143.33 56.30 2.00 116.22 3274.11
   08:49:07.838.15-Aug-2021 3421.80 5145.34 56.30 2.00 116.42 3274.11
   08:49:08.038.15-Aug-2021 3421.80 5146.50 56.30 2.00 116.62 3274.11
   08:49:08.238.15-Aug-2021 3421.80 5147.67 56.30 2.00 116.82 3274.11
   08:49:08.438.15-Aug-2021 3421.80 5149.36 56.30 2.00 117.02 3274.11
   08:49:08.638.15-Aug-2021 3421.80 5149.36 56.30 2.00 117.22 3274.11
   08:49:08.838.15-Aug-2021 3421.80 5152.04 56.30 2.00 117.42 3274.11
   08:49:09.038.15-Aug-2021 3421.80 5152.99 56.30 2.00 117.62 3274.11
   08:49:09.238.15-Aug-2021 3421.80 5153.69 56.30 2.00 117.82 3274.11
   08:49:09.438.15-Aug-2021 3421.80 5154.87 56.29 2.00 118.02 3274.11
   08:49:09.638.15-Aug-2021 3421.80 5154.87 56.29 2.00 118.22 3274.11
   08:49:09.838.15-Aug-2021 3421.80 5160.50 56.30 2.00 118.42 3274.11
   08:49:10.038.15-Aug-2021 3421.80 5158.23 56.29 2.00 118.62 3274.11
   08:49:10.238.15-Aug-2021 3421.80 5158.92 56.29 2.00 118.82 3274.11
   08:49:10.438.15-Aug-2021 3421.80 5159.52 56.29 2.00 119.02 3274.11
   08:49:10.638.15-Aug-2021 3421.80 5159.52 56.29 2.00 119.22 3274.11
   08:49:10.838.15-Aug-2021 3421.80 5161.89 56.29 2.00 119.42 3274.11
   08:49:11.038.15-Aug-2021 3421.80 5163.16 56.29 2.00 119.62 3274.11
   08:49:11.238.15-Aug-2021 3421.80 5164.29 56.29 2.00 119.82 3274.11
   08:49:11.438.15-Aug-2021 3421.80 5164.95 56.29 2.00 120.02 3274.11
   08:49:11.638.15-Aug-2021 3421.80 5164.95 56.29 2.00 120.22 3274.11
   08:49:11.838.15-Aug-2021 3421.80 5166.06 56.29 2.00 120.42 3274.11
   08:49:12.038.15-Aug-2021 3421.80 5166.90 56.29 2.00 120.62 3274.11
   08:49:12.238.15-Aug-2021 3421.80 5168.15 56.29 2.00 120.82 3274.11
   08:49:12.438.15-Aug-2021 3421.80 5169.20 56.29 2.00 121.02 3274.11
   08:49:12.638.15-Aug-2021 3421.80 5169.20 56.29 2.00 121.22 3274.11
   08:49:12.838.15-Aug-2021 3421.80 5170.92 56.29 2.00 121.42 3274.11
   08:49:13.038.15-Aug-2021 3421.80 5171.55 56.29 2.00 121.62 3274.11
   08:49:13.238.15-Aug-2021 3421.80 5172.65 56.29 2.00 121.82 3274.11
   08:49:13.439.15-Aug-2021 3421.80 5173.60 56.29 2.00 122.02 3274.11
   08:49:13.639.15-Aug-2021 3421.80 5173.60 56.29 2.00 122.22 3274.11
   08:49:13.839.15-Aug-2021 3421.80 5173.60 56.29 2.00 122.42 3274.11
   08:49:14.039.15-Aug-2021 3421.80 5176.41 56.29 2.00 122.62 3274.11
   08:49:14.239.15-Aug-2021 3421.80 5177.18 56.29 2.00 122.82 3274.11
   08:49:14.439.15-Aug-2021 3421.80 5178.09 56.29 2.00 123.02 3274.11
   08:49:14.639.15-Aug-2021 3421.80 5178.09 56.29 2.00 123.22 3274.11
   08:49:14.839.15-Aug-2021 3421.80 5179.51 56.29 2.00 123.42 3274.11
   08:49:15.039.15-Aug-2021 3421.80 5179.92 56.29 2.00 123.62 3274.11
   08:49:15.239.15-Aug-2021 3421.80 5180.36 56.29 2.00 123.82 3274.11
   08:49:15.439.15-Aug-2021 3421.80 5181.30 56.29 2.00 124.02 3274.11
   08:49:15.639.15-Aug-2021 3421.80 5181.30 56.29 2.00 124.22 3274.11
   08:49:15.839.15-Aug-2021 3421.80 5183.49 56.29 2.00 124.42 3274.11
   08:49:16.039.15-Aug-2021 3421.80 5184.09 56.29 2.00 124.62 3274.11
   08:49:16.239.15-Aug-2021 3421.80 5184.47 56.29 2.00 124.82 3274.11
   08:49:16.439.15-Aug-2021 3421.80 5184.86 56.29 2.00 125.02 3274.11
   08:49:16.639.15-Aug-2021 3421.80 5184.86 56.29 2.00 125.22 3274.11
   08:49:16.839.15-Aug-2021 3421.80 5185.92 56.29 2.00 125.42 3274.11
   08:49:17.039.15-Aug-2021 3421.80 5186.44 56.29 2.00 125.62 3274.11
   08:49:17.239.15-Aug-2021 3421.80 5187.46 56.29 2.00 125.82 3274.11
   08:49:17.439.15-Aug-2021 3421.80 5188.66 56.29 2.00 126.02 3274.11
   08:49:17.639.15-Aug-2021 3421.80 5188.66 56.29 2.00 126.22 3274.11
   08:49:17.839.15-Aug-2021 3421.80 5189.94 56.29 2.00 126.42 3274.11
   08:49:18.039.15-Aug-2021 3421.80 5190.38 56.29 2.00 126.62 3274.11
   08:49:18.239.15-Aug-2021 3421.80 5191.17 56.29 2.00 126.82 3274.11
   08:49:18.439.15-Aug-2021 3421.80 5192.10 56.29 2.00 127.02 3274.11
   08:49:18.639.15-Aug-2021 3421.80 5192.10 56.29 2.00 127.22 3274.11
   08:49:18.839.15-Aug-2021 3421.80 5193.25 56.29 2.00 127.42 3274.11
   08:49:19.039.15-Aug-2021 3421.80 5193.58 56.29 2.00 127.62 3274.11
   08:49:19.239.15-Aug-2021 3421.80 5193.89 56.29 2.00 127.82 3274.11
   08:49:19.439.15-Aug-2021 3421.80 5194.46 56.29 2.00 128.02 3274.11
   08:49:19.640.15-Aug-2021 3421.80 5194.46 56.29 2.00 128.22 3274.11
   08:49:19.840.15-Aug-2021 3421.80 5196.22 56.29 2.00 128.42 3274.11
   08:49:20.040.15-Aug-2021 3421.80 5196.84 56.29 2.00 128.62 3274.11
   08:49:20.240.15-Aug-2021 3421.80 5197.39 56.29 2.00 128.82 3274.11
   08:49:20.440.15-Aug-2021 3421.80 5197.81 56.29 2.00 129.02 3274.11
   08:49:20.640.15-Aug-2021 3421.80 5197.81 56.29 2.00 129.22 3274.11
   08:49:20.840.15-Aug-2021 3421.80 5199.35 56.29 2.00 129.42 3274.11
   08:49:21.040.15-Aug-2021 3421.80 5199.79 56.29 2.00 129.62 3274.11
   08:49:21.240.15-Aug-2021 3421.80 5200.11 56.29 2.00 129.82 3274.11
   08:49:21.440.15-Aug-2021 3421.80 5200.51 56.29 2.00 130.02 3274.11
   08:49:21.640.15-Aug-2021 3421.80 5200.51 56.29 2.00 130.22 3274.11
   08:49:21.840.15-Aug-2021 3421.80 5202.25 56.29 2.00 130.42 3274.11
   08:49:22.040.15-Aug-2021 3421.80 5202.63 56.29 2.00 130.62 3274.11
   08:49:22.240.15-Aug-2021 3421.80 5202.86 56.29 2.00 130.82 3274.11
   08:49:22.440.15-Aug-2021 3421.80 5203.65 56.29 2.00 131.02 3274.11
   08:49:22.640.15-Aug-2021 3421.80 5203.65 56.29 2.00 131.22 3274.11
   08:49:22.840.15-Aug-2021 3421.80 5204.88 56.28 2.00 131.42 3274.11
   08:49:23.040.15-Aug-2021 3421.80 5205.44 56.28 2.00 131.62 3274.11
   08:49:23.240.15-Aug-2021 3421.80 5205.52 56.28 2.00 131.82 3274.11
   08:49:23.440.15-Aug-2021 3421.80 5206.20 56.28 2.00 132.02 3274.11
   08:49:23.640.15-Aug-2021 3421.80 5206.20 56.28 2.00 132.22 3274.11
   08:49:23.840.15-Aug-2021 3421.80 5207.10 56.28 2.00 132.42 3274.11
   08:49:24.040.15-Aug-2021 3421.80 5207.36 56.28 2.00 132.62 3274.11
   08:49:24.240.15-Aug-2021 3421.80 5207.64 56.28 2.00 132.82 3274.11
   08:49:24.440.15-Aug-2021 3421.80 5208.04 56.28 2.00 133.02 3274.11
   08:49:24.640.15-Aug-2021 3421.80 5208.04 56.28 2.00 133.22 3274.11
   08:49:24.840.15-Aug-2021 3421.80 5208.76 56.28 2.00 133.42 3274.11
   08:49:25.040.15-Aug-2021 3421.80 5209.34 56.28 2.00 133.62 3274.11
   08:49:25.240.15-Aug-2021 3421.80 5210.00 56.28 2.00 133.82 3274.11
   08:49:25.440.15-Aug-2021 3421.80 5210.66 56.28 2.00 134.02 3274.11
   08:49:25.641.15-Aug-2021 3421.80 5210.66 56.28 2.00 134.22 3274.11
   08:49:25.841.15-Aug-2021 3421.80 5211.30 56.28 2.00 134.42 3274.11
   08:49:26.041.15-Aug-2021 3421.80 5211.54 56.28 2.00 134.62 3274.11
   08:49:26.241.15-Aug-2021 3421.80 5211.84 56.28 2.00 134.82 3274.11
   08:49:26.441.15-Aug-2021 3421.80 5212.35 56.28 2.00 135.02 3274.11
   08:49:26.641.15-Aug-2021 3421.80 5212.35 56.28 2.00 135.22 3274.11
   08:49:26.841.15-Aug-2021 3421.80 5213.50 56.28 2.00 135.42 3274.11
   08:49:27.041.15-Aug-2021 3421.80 5213.75 56.28 2.00 135.62 3274.11
   08:49:27.241.15-Aug-2021 3421.80 5213.92 56.28 2.00 135.82 3274.11
   08:49:27.441.15-Aug-2021 3421.80 5214.07 56.28 2.00 136.02 3274.11
   08:49:27.641.15-Aug-2021 3421.80 5214.07 56.28 2.00 136.22 3274.11
   08:49:27.841.15-Aug-2021 3421.80 5214.97 56.28 2.00 136.42 3274.11
   08:49:28.041.15-Aug-2021 3421.80 5215.37 56.28 2.00 136.62 3274.11
   08:49:28.241.15-Aug-2021 3421.80 5215.85 56.28 2.00 136.82 3274.11
   08:49:28.441.15-Aug-2021 3421.80 5216.29 56.28 2.00 137.02 3274.11
   08:49:28.641.15-Aug-2021 3421.80 5216.29 56.28 2.00 137.22 3274.11
   08:49:28.841.15-Aug-2021 3421.80 5217.04 56.28 2.00 137.42 3274.11
   08:49:29.041.15-Aug-2021 3421.80 5217.60 56.28 2.00 137.62 3274.11
   08:49:29.241.15-Aug-2021 3421.80 5218.12 56.28 2.00 137.82 3274.11
