~Version Information
 VERS.                  2.0:   CWLS log ASCII Standard -VERSION 2.0
 WRAP.                   NO:   One line per depth step
~Well Information Block
#MNEM.UNIT     VALUE/NAME     DESCRIPTION
#---------     -----------    ---------------------------
 STRT.S             09:29:08 15-Aug-21: START TIME 09:29:08 15-Aug-21
 STOP.S             09:37:37 15-Aug-21: STOP TIME  09:37:37 15-Aug-21
 STEP.S                   0.00: STEP TIME
 NULL.                 -999.25: NULL VALUE
 DFWT.                        :  DIST FWL TEXT
 DFST.                        :  DIST FSL TEXT
 DMF .             Drill Floor:  DRILL MEAS FROM
 STIM.      17.18.56 20-Jun-21:  START TIME
 DATE.      17.18.56 20-Aug-21:  END TIME
 SPUD.               20-Jun-21:  SPUD DATE
 NREF.                    Grid:  NORTH REFERENCE
 HPTY.       Minimum Curvature:  HOLE POS TYPE
 DMOD.             Drill Model:  DRILL MOD DESC
 SVYD.                  Survey:  SURVEY DESC
 ILTD.               Lithology:  INTERP LTH DESC
 FTOP.          Formation Tops:  FORM TOPS DESC
 SON .        AZ-XX-0907056190:  JOB NUMBER
 PDAT.       Caspian Sea Level:  PERMANENT DATUM
 WTYP.                Deviated:  WELL TYPE
 MDS .        Operator Entered:  MAG DATA SOURCE
 COMP.     BP Exploration (Caspian Sea) Ltd.:  COMPANY
 UWI .            /AZE20000092:  UNIQUE WELL IDENTIFIER
 API .            /AZE20000092:  API NUMBER
 BASE.              Azerbaijan:  LOGGING EQUIPMENT BASE LOCATION
 REGN.                   EESSA:  REGION
 PROV.                    baku:  PROVINCE
 STAT.                    baku:  STATE NAME
 CTRY.              Azerbaijan:  COUNTRY NAME
 FLD .                     ACG:  FIELD NAME
 SRVC.          Turan Drilling:  CONTRACTOR
 MWDS.                    Baku:  MWD SHOP
 WELL.                     J26:  WELL NAME
 JOBN.        AZ-XX-0907056190:  JOB TICKET NUMB
 RIG .             West Chirag:  RIG NAME
 DOE .                     N/A:  DOE NUMBER
 DCON.         Sperry Drilling:  DIRECTNL CONTR
 UNIT.                     N/A:  LOGGING EQUIPMENT ID
 CNTY.                        :  COUNTY
 LOC .                        :  LOCATION
 LMF .             Drill Floor:  LOG MEASURED FROM
 TVDS.m                  43.00:  TVDSS CORRECTN
 LATI.deg                40.13:  LATITUDE
 LONG.deg                51.22:  LONGITUDE
 WHNS.m                  -7.12:  WELL HEAD N/S
 WHEW.m                  -9.46:  WELL HEAD E/W
 UTMX.m              519004.02:  UTM X
 UTMY.m             4443784.96:  UTM Y
 DFWL.m                   0.00:  DISTANCE FWL
 DFSL.m                   0.00:  DISTANCE FSL
 SDEP.m                 464.00:  START DEPTH
 TDD .m                3500.00:  TOTAL DEPTH (DRILLER)
 VSDR.deg               114.35:  VERT SEC DIRECT
 GVFD.g                   1.00:  GRAVITY FIELD
 MFLD.nT              50386.00:  MAGNETIC FIELD
 MDIP.deg                59.63:  MAGNETIC DIP
 MDEC.deg                 6.43:  MAGNETIC DECL
 GRDC.deg                 0.15:  GRID CORRECTION
 AZTC.deg                 6.29:  AZM TOTAL CORR
 EPD .m                   0.00:  ELEVATION
 EGL .m                   0.00:  GROUND ELEVATION
 WDMS.m                 169.80:  WD ELEV
 APD .m                  43.00:  DEPTH ABOVE PD
 VSEW.m                  -9.46:  VERT SEC E/W
 VSNS.m                  -7.12:  VERT SEC N/S
 AGAP.m                  43.00:  AIR GAP
 DEP .m                 356.16:  DEPTH
 EKB .m                  43.00:  KB ELEVATION
 EDF .m                  43.00:  DF ELEVATION
 TDL .m                 699.00:  TOTAL DEPTH (LOGGER)
 VSC .                       0:  VS TO CLOSURE
 MAGU.                 1853727:  MAGUTM CHECKSUM
~Parameter Information Block
#MNEM.UNIT       Value        Description
#---------     -----------    ---------------------------
 AV  .mps                 1.30:  Ann Velocity 
 AVMX.mps                 1.67:  Max Ann Veloc 
 AZIF.deg               280.40:  Azm, Final 
 BHAT.        Rotary Steerable:  BHA Type 
 BREV.rev            528970.00:  Rev Bit Total 
 BROT.°/30m               1.00:  Build Rotating 
 BS  .in                 12.25:  Bit Size 
 BSZ .in                 12.25:  Bit Size 
 BTPL.psig              738.00:  Bit Press Loss 
 CABU.                     Yes:  Customer Abuse 
 CGEO.        Elvin Suleymanov:  Customer Geo 
 COMM.                     œR:  Run Comments 1 
 TCS .hr                 66.05:  Time Ciculation Ended 
 CV  .mps                 2.20:  Crit Velocity 
 CVMX.mps                 2.56:  Max Crit Veloc 
 DD1 .          Rashad Habibov:  Direct Drillr 1 
 DD2 .            Azer ravanov:  Direct Drillr 2 
 DD3 .           Teymur Agayev:  Direct Drillr 3 
 DDSV.               Geo-Pilot:  DD Service 
 DEFF.%                  90.00:  % Det Eff 
 DLRX.°/30m               2.95:  Dogleg Rot Max 
 DLSO.°/30m               1.00:  Dogleg Oriented 
 DLSX.°/30m               2.95:  Dogleg Str Max 
 DRET.      11.42.20 11-Aug-21:  Drill End Time 
 DRST.      23.03.20 08-Aug-21:  Drill Start Tim 
 DTIM.hr                 45.50:  Time Drilling 
 EDEP.m                3488.00:  End Depth 
 ENG1.         Marcelo Marcari:  Engineer 1 
 ENG2.         Dair Mahammadov:  Engineer 2 
 ENG3.       Davud Huseyn-zada:  Engineer 3 
 ENG4.         Yevgeniy Ulikov:  Engineer 4 
 ETIM.      17.45.20 17-Aug-21:  End Time 
 FLOI.gpm              1197.70:  Flow In 
 FLON.gpm              1100.00:  Flow In Min 
 FLOS.cptm                0.00:  Fluid Loss 
 FLOX.gpm              1200.00:  Flow In Max 
 DFT .        Mineral Oil Base:  Mud Type 
 FTRO.       Formation Presure:  FTWD Run Obj 
 HFLO.                      No:  High Flow 
 HPRE.                      No:  High Pressure 
 HTEM.                      No:  High Temp 
 HYDO.m                   1.80:  Hydro Offset 
 IFIN.deg                 9.87:  Inc, Final 
 IMAX.deg                19.96:  Inc Max 
 IMIN.deg                 3.82:  Inc Min 
 IMND.m                3257.42:  Inc Min Depth 
 IMXD.m                2945.53:  Inc Max Depth 
 JARR.                      No:  Jarring 
 LETM.      11.42.20 11-Aug-21:  Log End Time 
 LOST.hr                     0:  Lost Rig Time 
 LSTM.      23.03.20 08-Aug-21:  Log Start Time 
 MDCL.ppm             42500.00:  Mud Chlorides 
 MDES.     Inversion Oil/Synthetic:  Mud Desc 
 DFD .sg                  1.45:  Mud Density 
 MDMN.sg                  1.39:  Dens Mud Min 
 MDMX.sg                  1.57:  Dens Mud Max 
 MOIL.                   53.20:  Run Mud Oil % 
 MOWR.                   70:30:  Run Mud OWR 
 MSND.                       0:  Run Mud Sand % 
 MSOL.                   24.30:  Run Mud Solids% 
 DFV .spqt               79.00:  Mud Viscosity 
 MWOD.in                  8.00:  MWD Tool OD 
 MWSI.                      No:  Serv Intrp, MWD 
 OTIM.hr                253.06:  Time Operating 
 PCON.           Look Like New:  Pad Condition 
 PMAX.psia            11068.93:  Press Op, Max 
 PV  .cP                 36.00:  Mud PV 
 RUN .                    1000:  Run Number 
 ROPA.m/hr               15.34:  ROP Avg 
 ROPN.m/hr                4.00:  ROP Min 
 ROPX.m/hr               31.00:  ROP Max 
 RPMA.rpm               151.40:  RPM Surface Avg 
 RPMN.rpm               120.00:  RPM Surface Min 
 RPMX.rpm               160.00:  RPM Surface Max 
 RRUN.                    L505:  Rig Run Number 
 RTIM.hr                 10.00:  Time Reaming 
 SAZI.deg                88.92:  Azm, Start 
 SDEP.m                2789.00:  Start Depth 
 SIDD.                      No:  Serv Intrp, DD 
 SINC.deg                19.84:  Inc, Start 
 SPPA.psig             4421.39:  SPP Avg 
 SPPN.psig             4130.00:  SPP Min 
 SPPX.psig             4800.00:  SPP Max 
 STIM.      01.25.20 07-Aug-21:  Start Time 
 SVCS.                 DD, MWD:  Services 
 SVER.                    9.20:  Sperry Version 
 TDAT.m                 699.00:  Tot Depth Attmp 
 TDDF.                      No:  Trip for DD 
 TDLG.m                 699.00:  Tot Depth Loggd 
 TFF .                      No:  Trip for Fail 
 TQAA.f-kp               20.55:  Torque Abs Avg 
 TQAN.f-kp               15.00:  Torque Abs Min 
 TQAX.f-kp               24.00:  Torque Abs Max 
 TRRT.°/30m               0.50:  Turn Rotating 
 MRT .                    HCIM:  Maximum Recorded Temperature 
 TTMX.degC               82.35:  Max Tool Temp 
 VS01.                90654677:  Virtual Str1 SN 
 VS02.                90636294:  Virtual Str2 SN 
 VS03.                90653866:  Virtual Str3 SN 
 VS04.                90654674:  Virtual Str4 SN 
 WBMN.klb                10.00:  WOB Min 
 WITN.         Haytham Mostafa:  Customer Rep 
 WITN.           Rufat Babayev:  Customer Rep 2 
 WOBA.klb                22.43:  WOB Avg 
 WOBX.klb                35.00:  WOB Max 
 YP  .lhf2               32.00:  Yield Point 
~Curve Information Block
#MNEM.UNIT                 API CODE     Curve Description
#---------               -----------    ---------------------------
 TIME.HHMMSS            00 000 000 000:  GT Time & Date
 GTDEPTH.m              00 000 000 000:  GT Depth
 GTPQH.psia             00 000 000 000:  GT HR Quartz Pressure
 GTTQ.degC              00 000 000 000:  GT Quartz Temperature
 GTTN.NONE              00 000 000 000:  GT Test Number
 GTET.sec               00 000 000 000:  GT Elapsed Test Time
 GTTVD.m                00 000 000 000:  GT True Vertical Depth
#Other Information
#
#WARRANTY: Halliburton will use its best efforts to furnish customers with 
#accurate information and interpretations that are part of, and incident to, the services 
#provided.  However, Halliburton cannot and does not warrant the accuracy 
#or correctness of such information and interpretations.  Under no circumstances should any 
#such information or interpretation be relied upon as the sole basis for any drilling, 
#completion, production, or financial decision or any procedure involving any risk to the 
#safety of any drilling venture, drilling rig or its crew or any other third party.  The 
#Customer has full responsibility for all drilling, completion and production operation.  
#Halliburton makes no representations or warranties, either expressed or 
#implied, including, but not limited to, the implied warranties of merchantability or fitness 
#for a particular purpose, with respect to the services rendered.  In no event will 
#Halliburton be liable for failure to obtain any particular results or for 
#any damages, including, but not limited to, indirect, special or consequential damages, 
#resulting from the use of any information or interpretation provided by Halliburton.
#
~A           TIME           GTDEPTH  GTPQH  GTTQ  GTTN  GTET   GTTVD  
# ...
   09:30:17.842.15-Aug-2021 3421.80 4150.04 55.18 3.00  69.01 3274.11
   09:30:18.042.15-Aug-2021 3421.80 4150.04 55.18 3.00  69.21 3274.11
   09:30:18.242.15-Aug-2021 3421.80 3842.81 55.18 3.00  69.41 3274.11
   09:30:18.442.15-Aug-2021 3421.80 3794.52 55.17 3.00  69.61 3274.11
   09:30:18.642.15-Aug-2021 3421.80 3722.65 55.17 3.00  69.81 3274.11
   09:30:18.842.15-Aug-2021 3421.80 3648.70 55.17 3.00  70.01 3274.11
   09:30:19.042.15-Aug-2021 3421.80 3648.70 55.17 3.00  70.21 3274.11
   09:30:19.242.15-Aug-2021 3421.80 3523.25 55.16 3.00  70.41 3274.11
   09:30:19.442.15-Aug-2021 3421.80 3383.20 55.16 3.00  70.61 3274.11
   09:30:19.642.15-Aug-2021 3421.80 3251.06 55.16 3.00  70.81 3274.11
   09:30:19.842.15-Aug-2021 3421.80 3126.85 55.16 3.00  71.01 3274.11
   09:30:20.042.15-Aug-2021 3421.80 3126.85 55.16 3.00  71.21 3274.11
   09:30:20.242.15-Aug-2021 3421.80 2900.18 55.15 3.00  71.41 3274.11
   09:30:20.442.15-Aug-2021 3421.80 2800.79 55.15 3.00  71.61 3274.11
   09:30:20.642.15-Aug-2021 3421.80 2706.77 55.14 3.00  71.81 3274.11
   09:30:20.842.15-Aug-2021 3421.80 2620.45 55.14 3.00  72.01 3274.11
   09:30:21.043.15-Aug-2021 3421.80 2620.45 55.14 3.00  72.21 3274.11
   09:30:21.243.15-Aug-2021 3421.80 2457.58 55.13 3.00  72.41 3274.11
   09:30:21.443.15-Aug-2021 3421.80 2377.40 55.13 3.00  72.61 3274.11
   09:30:21.643.15-Aug-2021 3421.80 2301.42 55.12 3.00  72.81 3274.11
   09:30:21.843.15-Aug-2021 3421.80 2321.60 55.12 3.00  73.01 3274.11
   09:30:22.043.15-Aug-2021 3421.80 2321.60 55.12 3.00  73.21 3274.11
   09:30:22.243.15-Aug-2021 3421.80 2427.52 55.11 3.00  73.41 3274.11
   09:30:22.443.15-Aug-2021 3421.80 2472.30 55.11 3.00  73.61 3274.11
   09:30:22.643.15-Aug-2021 3421.80 2513.83 55.10 3.00  73.81 3274.11
   09:30:22.843.15-Aug-2021 3421.80 2552.26 55.10 3.00  74.01 3274.11
   09:30:23.043.15-Aug-2021 3421.80 2552.26 55.10 3.00  74.21 3274.11
   09:30:23.243.15-Aug-2021 3421.80 2623.20 55.09 3.00  74.41 3274.11
   09:30:23.443.15-Aug-2021 3421.80 2656.51 55.09 3.00  74.61 3274.11
   09:30:23.643.15-Aug-2021 3421.80 2688.79 55.09 3.00  74.81 3274.11
   09:30:23.843.15-Aug-2021 3421.80 2718.94 55.08 3.00  75.01 3274.11
   09:30:24.043.15-Aug-2021 3421.80 2718.94 55.08 3.00  75.21 3274.11
   09:30:24.243.15-Aug-2021 3421.80 2777.09 55.08 3.00  75.41 3274.11
   09:30:24.443.15-Aug-2021 3421.80 2804.96 55.08 3.00  75.61 3274.11
   09:30:24.643.15-Aug-2021 3421.80 2832.55 55.07 3.00  75.81 3274.11
   09:30:24.843.15-Aug-2021 3421.80 2858.46 55.07 3.00  76.01 3274.11
   09:30:25.043.15-Aug-2021 3421.80 2858.46 55.07 3.00  76.21 3274.11
   09:30:25.243.15-Aug-2021 3421.80 2910.31 55.07 3.00  76.41 3274.11
   09:30:25.443.15-Aug-2021 3421.80 2935.58 55.06 3.00  76.61 3274.11
   09:30:25.643.15-Aug-2021 3421.80 2959.55 55.06 3.00  76.81 3274.11
   09:30:25.843.15-Aug-2021 3421.80 2983.65 55.06 3.00  77.01 3274.11
   09:30:26.043.15-Aug-2021 3421.80 2983.65 55.06 3.00  77.21 3274.11
   09:30:26.243.15-Aug-2021 3421.80 3030.66 55.06 3.00  77.41 3274.11
   09:30:26.443.15-Aug-2021 3421.80 3053.32 55.05 3.00  77.61 3274.11
   09:30:26.643.15-Aug-2021 3421.80 3075.53 55.05 3.00  77.81 3274.11
   09:30:26.843.15-Aug-2021 3421.80 3097.54 55.05 3.00  78.01 3274.11
   09:30:27.043.15-Aug-2021 3421.80 3097.54 55.05 3.00  78.21 3274.11
   09:30:27.244.15-Aug-2021 3421.80 3139.79 55.05 3.00  78.41 3274.11
   09:30:27.444.15-Aug-2021 3421.80 3160.75 55.05 3.00  78.61 3274.11
   09:30:27.644.15-Aug-2021 3421.80 3181.44 55.05 3.00  78.81 3274.11
   09:30:27.844.15-Aug-2021 3421.80 3201.92 55.05 3.00  79.01 3274.11
   09:30:28.044.15-Aug-2021 3421.80 3201.92 55.05 3.00  79.21 3274.11
   09:30:28.244.15-Aug-2021 3421.80 3242.46 55.04 3.00  79.41 3274.11
   09:30:28.444.15-Aug-2021 3421.80 3262.07 55.04 3.00  79.61 3274.11
   09:30:28.644.15-Aug-2021 3421.80 3281.36 55.04 3.00  79.81 3274.11
   09:30:28.844.15-Aug-2021 3421.80 3300.53 55.04 3.00  80.01 3274.11
   09:30:29.044.15-Aug-2021 3421.80 3300.53 55.04 3.00  80.21 3274.11
   09:30:29.244.15-Aug-2021 3421.80 3336.31 55.04 3.00  80.41 3274.11
   09:30:29.444.15-Aug-2021 3421.80 3354.82 55.04 3.00  80.61 3274.11
   09:30:29.644.15-Aug-2021 3421.80 3373.37 55.04 3.00  80.81 3274.11
   09:30:29.844.15-Aug-2021 3421.80 3389.99 55.04 3.00  81.01 3274.11
   09:30:30.044.15-Aug-2021 3421.80 3389.99 55.04 3.00  81.21 3274.11
   09:30:30.244.15-Aug-2021 3421.80 3424.90 55.04 3.00  81.41 3274.11
   09:30:30.444.15-Aug-2021 3421.80 3441.94 55.04 3.00  81.61 3274.11
   09:30:30.644.15-Aug-2021 3421.80 3458.57 55.04 3.00  81.81 3274.11
   09:30:30.844.15-Aug-2021 3421.80 3475.47 55.04 3.00  82.01 3274.11
   09:30:31.044.15-Aug-2021 3421.80 3475.47 55.04 3.00  82.21 3274.11
   09:30:31.244.15-Aug-2021 3421.80 3508.42 55.04 3.00  82.41 3274.11
   09:30:31.444.15-Aug-2021 3421.80 3523.10 55.04 3.00  82.61 3274.11
   09:30:31.644.15-Aug-2021 3421.80 3538.91 55.04 3.00  82.81 3274.11
   09:30:31.844.15-Aug-2021 3421.80 3554.51 55.04 3.00  83.01 3274.11
   09:30:32.044.15-Aug-2021 3421.80 3554.51 55.04 3.00  83.21 3274.11
   09:30:32.244.15-Aug-2021 3421.80 3570.18 55.04 3.00  83.41 3274.11
   09:30:32.444.15-Aug-2021 3421.80 3600.72 55.04 3.00  83.61 3274.11
   09:30:32.644.15-Aug-2021 3421.80 3614.33 55.04 3.00  83.81 3274.11
   09:30:32.844.15-Aug-2021 3421.80 3629.20 55.04 3.00  84.01 3274.11
   09:30:33.044.15-Aug-2021 3421.80 3629.20 55.04 3.00  84.21 3274.11
   09:30:33.244.15-Aug-2021 3421.80 3658.10 55.04 3.00  84.41 3274.11
   09:30:33.445.15-Aug-2021 3421.80 3672.04 55.04 3.00  84.61 3274.11
   09:30:33.645.15-Aug-2021 3421.80 3685.46 55.05 3.00  84.81 3274.11
   09:30:33.845.15-Aug-2021 3421.80 3699.26 55.05 3.00  85.01 3274.11
   09:30:34.045.15-Aug-2021 3421.80 3699.26 55.05 3.00  85.21 3274.11
   09:30:34.245.15-Aug-2021 3421.80 3726.33 55.05 3.00  85.41 3274.11
   09:30:34.445.15-Aug-2021 3421.80 3739.30 55.05 3.00  85.61 3274.11
   09:30:34.645.15-Aug-2021 3421.80 3752.82 55.05 3.00  85.81 3274.11
   09:30:34.845.15-Aug-2021 3421.80 3765.81 55.05 3.00  86.01 3274.11
   09:30:35.045.15-Aug-2021 3421.80 3765.81 55.05 3.00  86.21 3274.11
   09:30:35.245.15-Aug-2021 3421.80 3791.75 55.05 3.00  86.41 3274.11
   09:30:35.445.15-Aug-2021 3421.80 3803.37 55.05 3.00  86.61 3274.11
   09:30:35.645.15-Aug-2021 3421.80 3815.86 55.05 3.00  86.81 3274.11
   09:30:35.845.15-Aug-2021 3421.80 3828.01 55.05 3.00  87.01 3274.11
   09:30:36.045.15-Aug-2021 3421.80 3828.01 55.05 3.00  87.21 3274.11
   09:30:36.245.15-Aug-2021 3421.80 3852.63 55.05 3.00  87.41 3274.11
   09:30:36.445.15-Aug-2021 3421.80 3864.55 55.05 3.00  87.61 3274.11
   09:30:36.645.15-Aug-2021 3421.80 3876.21 55.05 3.00  87.81 3274.11
   09:30:36.845.15-Aug-2021 3421.80 3888.07 55.05 3.00  88.01 3274.11
   09:30:37.045.15-Aug-2021 3421.80 3888.07 55.05 3.00  88.21 3274.11
   09:30:37.245.15-Aug-2021 3421.80 3910.30 55.06 3.00  88.41 3274.11
   09:30:37.445.15-Aug-2021 3421.80 3921.41 55.06 3.00  88.61 3274.11
   09:30:37.645.15-Aug-2021 3421.80 3932.99 55.06 3.00  88.81 3274.11
   09:30:37.845.15-Aug-2021 3421.80 3944.59 55.06 3.00  89.01 3274.11
   09:30:38.045.15-Aug-2021 3421.80 3944.59 55.06 3.00  89.21 3274.11
   09:30:38.245.15-Aug-2021 3421.80 3964.82 55.06 3.00  89.41 3274.11
   09:30:38.445.15-Aug-2021 3421.80 3976.00 55.06 3.00  89.61 3274.11
   09:30:38.645.15-Aug-2021 3421.80 3986.72 55.06 3.00  89.81 3274.11
   09:30:38.845.15-Aug-2021 3421.80 3997.53 55.06 3.00  90.01 3274.11
   09:30:39.045.15-Aug-2021 3421.80 3997.53 55.06 3.00  90.21 3274.11
   09:30:39.245.15-Aug-2021 3421.80 4017.39 55.06 3.00  90.41 3274.11
   09:30:39.446.15-Aug-2021 3421.80 4027.79 55.06 3.00  90.61 3274.11
   09:30:39.646.15-Aug-2021 3421.80 4037.79 55.06 3.00  90.81 3274.11
   09:30:39.846.15-Aug-2021 3421.80 4048.18 55.06 3.00  91.01 3274.11
   09:30:40.046.15-Aug-2021 3421.80 4048.18 55.06 3.00  91.21 3274.11
   09:30:40.246.15-Aug-2021 3421.80 4067.22 55.06 3.00  91.41 3274.11
   09:30:40.446.15-Aug-2021 3421.80 4076.96 55.07 3.00  91.61 3274.11
   09:30:40.646.15-Aug-2021 3421.80 4086.69 55.07 3.00  91.82 3274.11
