~Version Information
 VERS.                  2.0:   CWLS log ASCII Standard -VERSION 2.0
 WRAP.                   NO:   One line per depth step
~Well Information Block
#MNEM.UNIT     VALUE/NAME     DESCRIPTION
#---------     -----------    ---------------------------
 STRT.S             11:47:36 15-Aug-21: START TIME 11:47:36 15-Aug-21
 STOP.S             11:55:59 15-Aug-21: STOP TIME  11:55:59 15-Aug-21
 STEP.S                   0.00: STEP TIME
 NULL.                 -999.25: NULL VALUE
 DFWT.                        :  DIST FWL TEXT
 DFST.                        :  DIST FSL TEXT
 DMF .             Drill Floor:  DRILL MEAS FROM
 STIM.      17.18.56 20-Jun-21:  START TIME
 DATE.      17.18.56 20-Aug-21:  END TIME
 SPUD.               20-Jun-21:  SPUD DATE
 NREF.                    Grid:  NORTH REFERENCE
 HPTY.       Minimum Curvature:  HOLE POS TYPE
 DMOD.             Drill Model:  DRILL MOD DESC
 SVYD.                  Survey:  SURVEY DESC
 ILTD.               Lithology:  INTERP LTH DESC
 FTOP.          Formation Tops:  FORM TOPS DESC
 SON .        AZ-XX-0907056190:  JOB NUMBER
 PDAT.       Caspian Sea Level:  PERMANENT DATUM
 WTYP.                Deviated:  WELL TYPE
 MDS .        Operator Entered:  MAG DATA SOURCE
 COMP.     BP Exploration (Caspian Sea) Ltd.:  COMPANY
 UWI .            /AZE20000092:  UNIQUE WELL IDENTIFIER
 API .            /AZE20000092:  API NUMBER
 BASE.              Azerbaijan:  LOGGING EQUIPMENT BASE LOCATION
 REGN.                   EESSA:  REGION
 PROV.                    baku:  PROVINCE
 STAT.                    baku:  STATE NAME
 CTRY.              Azerbaijan:  COUNTRY NAME
 FLD .                     ACG:  FIELD NAME
 SRVC.          Turan Drilling:  CONTRACTOR
 MWDS.                    Baku:  MWD SHOP
 WELL.                     J26:  WELL NAME
 JOBN.        AZ-XX-0907056190:  JOB TICKET NUMB
 RIG .             West Chirag:  RIG NAME
 DOE .                     N/A:  DOE NUMBER
 DCON.         Sperry Drilling:  DIRECTNL CONTR
 UNIT.                     N/A:  LOGGING EQUIPMENT ID
 CNTY.                        :  COUNTY
 LOC .                        :  LOCATION
 LMF .             Drill Floor:  LOG MEASURED FROM
 TVDS.m                  43.00:  TVDSS CORRECTN
 LATI.deg                40.13:  LATITUDE
 LONG.deg                51.22:  LONGITUDE
 WHNS.m                  -7.12:  WELL HEAD N/S
 WHEW.m                  -9.46:  WELL HEAD E/W
 UTMX.m              519004.02:  UTM X
 UTMY.m             4443784.96:  UTM Y
 DFWL.m                   0.00:  DISTANCE FWL
 DFSL.m                   0.00:  DISTANCE FSL
 SDEP.m                 464.00:  START DEPTH
 TDD .m                3500.00:  TOTAL DEPTH (DRILLER)
 VSDR.deg               114.35:  VERT SEC DIRECT
 GVFD.g                   1.00:  GRAVITY FIELD
 MFLD.nT              50386.00:  MAGNETIC FIELD
 MDIP.deg                59.63:  MAGNETIC DIP
 MDEC.deg                 6.43:  MAGNETIC DECL
 GRDC.deg                 0.15:  GRID CORRECTION
 AZTC.deg                 6.29:  AZM TOTAL CORR
 EPD .m                   0.00:  ELEVATION
 EGL .m                   0.00:  GROUND ELEVATION
 WDMS.m                 169.80:  WD ELEV
 APD .m                  43.00:  DEPTH ABOVE PD
 VSEW.m                  -9.46:  VERT SEC E/W
 VSNS.m                  -7.12:  VERT SEC N/S
 AGAP.m                  43.00:  AIR GAP
 DEP .m                 356.16:  DEPTH
 EKB .m                  43.00:  KB ELEVATION
 EDF .m                  43.00:  DF ELEVATION
 TDL .m                 699.00:  TOTAL DEPTH (LOGGER)
 VSC .                       0:  VS TO CLOSURE
 MAGU.                 1853727:  MAGUTM CHECKSUM
~Parameter Information Block
#MNEM.UNIT       Value        Description
#---------     -----------    ---------------------------
 AV  .mps                 1.30:  Ann Velocity 
 AVMX.mps                 1.67:  Max Ann Veloc 
 AZIF.deg               280.40:  Azm, Final 
 BHAT.        Rotary Steerable:  BHA Type 
 BREV.rev            528970.00:  Rev Bit Total 
 BROT.°/30m               1.00:  Build Rotating 
 BS  .in                 12.25:  Bit Size 
 BSZ .in                 12.25:  Bit Size 
 BTPL.psig              738.00:  Bit Press Loss 
 CABU.                     Yes:  Customer Abuse 
 CGEO.        Elvin Suleymanov:  Customer Geo 
 COMM.                     lþe:  Run Comments 1 
 TCS .hr                 66.05:  Time Ciculation Ended 
 CV  .mps                 2.20:  Crit Velocity 
 CVMX.mps                 2.56:  Max Crit Veloc 
 DD1 .          Rashad Habibov:  Direct Drillr 1 
 DD2 .            Azer ravanov:  Direct Drillr 2 
 DD3 .           Teymur Agayev:  Direct Drillr 3 
 DDSV.               Geo-Pilot:  DD Service 
 DEFF.%                  90.00:  % Det Eff 
 DLRX.°/30m               2.95:  Dogleg Rot Max 
 DLSO.°/30m               1.00:  Dogleg Oriented 
 DLSX.°/30m               2.95:  Dogleg Str Max 
 DRET.      11.42.20 11-Aug-21:  Drill End Time 
 DRST.      23.03.20 08-Aug-21:  Drill Start Tim 
 DTIM.hr                 45.50:  Time Drilling 
 EDEP.m                3488.00:  End Depth 
 ENG1.         Marcelo Marcari:  Engineer 1 
 ENG2.         Dair Mahammadov:  Engineer 2 
 ENG3.       Davud Huseyn-zada:  Engineer 3 
 ENG4.         Yevgeniy Ulikov:  Engineer 4 
 ETIM.      17.45.20 17-Aug-21:  End Time 
 FLOI.gpm              1197.70:  Flow In 
 FLON.gpm              1100.00:  Flow In Min 
 FLOS.cptm                0.00:  Fluid Loss 
 FLOX.gpm              1200.00:  Flow In Max 
 DFT .        Mineral Oil Base:  Mud Type 
 FTRO.       Formation Presure:  FTWD Run Obj 
 HFLO.                      No:  High Flow 
 HPRE.                      No:  High Pressure 
 HTEM.                      No:  High Temp 
 HYDO.m                   1.80:  Hydro Offset 
 IFIN.deg                 9.87:  Inc, Final 
 IMAX.deg                19.96:  Inc Max 
 IMIN.deg                 3.82:  Inc Min 
 IMND.m                3257.42:  Inc Min Depth 
 IMXD.m                2945.53:  Inc Max Depth 
 JARR.                      No:  Jarring 
 LETM.      11.42.20 11-Aug-21:  Log End Time 
 LOST.hr                     0:  Lost Rig Time 
 LSTM.      23.03.20 08-Aug-21:  Log Start Time 
 MDCL.ppm             42500.00:  Mud Chlorides 
 MDES.     Inversion Oil/Synthetic:  Mud Desc 
 DFD .sg                  1.45:  Mud Density 
 MDMN.sg                  1.39:  Dens Mud Min 
 MDMX.sg                  1.57:  Dens Mud Max 
 MOIL.                   53.20:  Run Mud Oil % 
 MOWR.                   70:30:  Run Mud OWR 
 MSND.                       0:  Run Mud Sand % 
 MSOL.                   24.30:  Run Mud Solids% 
 DFV .spqt               79.00:  Mud Viscosity 
 MWOD.in                  8.00:  MWD Tool OD 
 MWSI.                      No:  Serv Intrp, MWD 
 OTIM.hr                253.06:  Time Operating 
 PCON.           Look Like New:  Pad Condition 
 PMAX.psia            11068.93:  Press Op, Max 
 PV  .cP                 36.00:  Mud PV 
 RUN .                    1000:  Run Number 
 ROPA.m/hr               15.34:  ROP Avg 
 ROPN.m/hr                4.00:  ROP Min 
 ROPX.m/hr               31.00:  ROP Max 
 RPMA.rpm               151.40:  RPM Surface Avg 
 RPMN.rpm               120.00:  RPM Surface Min 
 RPMX.rpm               160.00:  RPM Surface Max 
 RRUN.                    L505:  Rig Run Number 
 RTIM.hr                 10.00:  Time Reaming 
 SAZI.deg                88.92:  Azm, Start 
 SDEP.m                2789.00:  Start Depth 
 SIDD.                      No:  Serv Intrp, DD 
 SINC.deg                19.84:  Inc, Start 
 SPPA.psig             4421.39:  SPP Avg 
 SPPN.psig             4130.00:  SPP Min 
 SPPX.psig             4800.00:  SPP Max 
 STIM.      01.25.20 07-Aug-21:  Start Time 
 SVCS.                 DD, MWD:  Services 
 SVER.                    9.20:  Sperry Version 
 TDAT.m                 699.00:  Tot Depth Attmp 
 TDDF.                      No:  Trip for DD 
 TDLG.m                 699.00:  Tot Depth Loggd 
 TFF .                      No:  Trip for Fail 
 TQAA.f-kp               20.55:  Torque Abs Avg 
 TQAN.f-kp               15.00:  Torque Abs Min 
 TQAX.f-kp               24.00:  Torque Abs Max 
 TRRT.°/30m               0.50:  Turn Rotating 
 MRT .                    HCIM:  Maximum Recorded Temperature 
 TTMX.degC               82.35:  Max Tool Temp 
 VS01.                90654677:  Virtual Str1 SN 
 VS02.                90636294:  Virtual Str2 SN 
 VS03.                90653866:  Virtual Str3 SN 
 VS04.                90654674:  Virtual Str4 SN 
 WBMN.klb                10.00:  WOB Min 
 WITN.         Haytham Mostafa:  Customer Rep 
 WITN.           Rufat Babayev:  Customer Rep 2 
 WOBA.klb                22.43:  WOB Avg 
 WOBX.klb                35.00:  WOB Max 
 YP  .lhf2               32.00:  Yield Point 
~Curve Information Block
#MNEM.UNIT                 API CODE     Curve Description
#---------               -----------    ---------------------------
 TIME.HHMMSS            00 000 000 000:  GT Time & Date
 GTDEPTH.m              00 000 000 000:  GT Depth
 GTPQH.psia             00 000 000 000:  GT HR Quartz Pressure
 GTTQ.degC              00 000 000 000:  GT Quartz Temperature
 GTTN.NONE              00 000 000 000:  GT Test Number
 GTET.sec               00 000 000 000:  GT Elapsed Test Time
 GTTVD.m                00 000 000 000:  GT True Vertical Depth
#Other Information
#
#WARRANTY: Halliburton will use its best efforts to furnish customers with 
#accurate information and interpretations that are part of, and incident to, the services 
#provided.  However, Halliburton cannot and does not warrant the accuracy 
#or correctness of such information and interpretations.  Under no circumstances should any 
#such information or interpretation be relied upon as the sole basis for any drilling, 
#completion, production, or financial decision or any procedure involving any risk to the 
#safety of any drilling venture, drilling rig or its crew or any other third party.  The 
#Customer has full responsibility for all drilling, completion and production operation.  
#Halliburton makes no representations or warranties, either expressed or 
#implied, including, but not limited to, the implied warranties of merchantability or fitness 
#for a particular purpose, with respect to the services rendered.  In no event will 
#Halliburton be liable for failure to obtain any particular results or for 
#any damages, including, but not limited to, indirect, special or consequential damages, 
#resulting from the use of any information or interpretation provided by Halliburton.
#
~A           TIME           GTDEPTH  GTPQH  GTTQ  GTTN  GTET   GTTVD  
# ...
   11:52:35.117.15-Aug-2021 3405.50 2241.66 53.85 5.00 298.82 3258.07
   11:52:35.317.15-Aug-2021 3405.50 2241.66 53.85 5.00 299.02 3258.07
   11:52:35.517.15-Aug-2021 3405.50 2243.06 53.85 5.00 299.22 3258.07
   11:52:35.716.15-Aug-2021 3405.50 2243.42 53.85 5.00 299.42 3258.07
   11:52:35.916.15-Aug-2021 3405.50 2244.04 53.85 5.00 299.62 3258.07
   11:52:36.116.15-Aug-2021 3405.50 2244.94 53.85 5.00 299.82 3258.07
   11:52:36.316.15-Aug-2021 3405.50 2244.94 53.85 5.00 300.02 3258.07
   11:52:36.516.15-Aug-2021 3405.50 2245.94 53.85 5.00 300.22 3258.07
   11:52:36.716.15-Aug-2021 3405.50 2246.63 53.85 5.00 300.42 3258.07
   11:52:36.916.15-Aug-2021 3405.50 2247.30 53.85 5.00 300.62 3258.07
   11:52:37.116.15-Aug-2021 3405.50 2247.62 53.85 5.00 300.82 3258.07
   11:52:37.315.15-Aug-2021 3405.50 2247.62 53.85 5.00 301.02 3258.07
   11:52:37.515.15-Aug-2021 3405.50 2249.10 53.85 5.00 301.22 3258.07
   11:52:37.715.15-Aug-2021 3405.50 2249.73 53.85 5.00 301.42 3258.07
   11:52:37.915.15-Aug-2021 3405.50 2250.04 53.85 5.00 301.62 3258.07
   11:52:38.115.15-Aug-2021 3405.50 2250.89 53.85 5.00 301.82 3258.07
   11:52:38.315.15-Aug-2021 3405.50 2250.89 53.85 5.00 302.02 3258.07
   11:52:38.515.15-Aug-2021 3405.50 2251.47 53.85 5.00 302.22 3258.07
   11:52:38.715.15-Aug-2021 3405.50 2252.66 53.85 5.00 302.42 3258.07
   11:52:38.915.15-Aug-2021 3405.50 2253.13 53.85 5.00 302.62 3258.07
   11:52:39.114.15-Aug-2021 3405.50 2253.77 53.85 5.00 302.82 3258.07
   11:52:39.314.15-Aug-2021 3405.50 2253.77 53.85 5.00 303.02 3258.07
   11:52:39.514.15-Aug-2021 3405.50 2255.07 53.85 5.00 303.22 3258.07
   11:52:39.714.15-Aug-2021 3405.50 2255.46 53.85 5.00 303.42 3258.07
   11:52:39.914.15-Aug-2021 3405.50 2255.92 53.85 5.00 303.62 3258.07
   11:52:40.114.15-Aug-2021 3405.50 2256.48 53.85 5.00 303.82 3258.07
   11:52:40.314.15-Aug-2021 3405.50 2256.48 53.85 5.00 304.02 3258.07
   11:52:40.514.15-Aug-2021 3405.50 2257.58 53.85 5.00 304.22 3258.07
   11:52:40.713.15-Aug-2021 3405.50 2257.95 53.85 5.00 304.42 3258.07
   11:52:40.913.15-Aug-2021 3405.50 2257.96 53.85 5.00 304.62 3258.07
   11:52:41.113.15-Aug-2021 3405.50 2257.70 53.85 5.00 304.82 3258.07
   11:52:41.313.15-Aug-2021 3405.50 2257.70 53.85 5.00 305.02 3258.07
   11:52:41.513.15-Aug-2021 3405.50 2258.82 53.85 5.00 305.22 3258.07
   11:52:41.713.15-Aug-2021 3405.50 2259.31 53.85 5.00 305.42 3258.07
   11:52:41.913.15-Aug-2021 3405.50 2259.74 53.85 5.00 305.62 3258.07
   11:52:42.113.15-Aug-2021 3405.50 2260.11 53.85 5.00 305.82 3258.07
   11:52:42.312.15-Aug-2021 3405.50 2260.11 53.85 5.00 306.02 3258.07
   11:52:42.512.15-Aug-2021 3405.50 2261.45 53.85 5.00 306.22 3258.07
   11:52:42.712.15-Aug-2021 3405.50 2262.16 53.84 5.00 306.42 3258.07
   11:52:42.912.15-Aug-2021 3405.50 2262.56 53.84 5.00 306.62 3258.07
   11:52:43.112.15-Aug-2021 3405.50 2263.09 53.84 5.00 306.82 3258.07
   11:52:43.312.15-Aug-2021 3405.50 2263.09 53.84 5.00 307.02 3258.07
   11:52:43.512.15-Aug-2021 3405.50 2264.11 53.84 5.00 307.22 3258.07
   11:52:43.712.15-Aug-2021 3405.50 2264.61 53.84 5.00 307.42 3258.07
   11:52:43.912.15-Aug-2021 3405.50 2265.54 53.84 5.00 307.61 3258.07
   11:52:44.111.15-Aug-2021 3405.50 2265.68 53.84 5.00 307.81 3258.07
   11:52:44.311.15-Aug-2021 3405.50 2265.68 53.84 5.00 308.01 3258.07
   11:52:44.511.15-Aug-2021 3405.50 2266.99 53.84 5.00 308.21 3258.07
   11:52:44.711.15-Aug-2021 3405.50 2267.37 53.84 5.00 308.41 3258.07
   11:52:44.911.15-Aug-2021 3405.50 2268.07 53.84 5.00 308.61 3258.07
   11:52:45.111.15-Aug-2021 3405.50 2268.98 53.84 5.00 308.81 3258.07
   11:52:45.311.15-Aug-2021 3405.50 2268.98 53.84 5.00 309.01 3258.07
   11:52:45.511.15-Aug-2021 3405.50 2270.07 53.84 5.00 309.21 3258.07
   11:52:45.710.15-Aug-2021 3405.50 2270.95 53.84 5.00 309.41 3258.07
   11:52:45.910.15-Aug-2021 3405.50 2270.91 53.84 5.00 309.61 3258.07
   11:52:46.110.15-Aug-2021 3405.50 2271.78 53.84 5.00 309.81 3258.07
   11:52:46.310.15-Aug-2021 3405.50 2271.78 53.84 5.00 310.01 3258.07
   11:52:46.510.15-Aug-2021 3405.50 2273.42 53.84 5.00 310.21 3258.07
   11:52:46.710.15-Aug-2021 3405.50 2273.65 53.84 5.00 310.41 3258.07
   11:52:46.910.15-Aug-2021 3405.50 2274.44 53.84 5.00 310.61 3258.07
   11:52:47.110.15-Aug-2021 3405.50 2275.05 53.84 5.00 310.81 3258.07
   11:52:47.309.15-Aug-2021 3405.50 2275.05 53.84 5.00 311.01 3258.07
   11:52:47.509.15-Aug-2021 3405.50 2276.18 53.84 5.00 311.21 3258.07
   11:52:47.709.15-Aug-2021 3405.50 2276.60 53.84 5.00 311.41 3258.07
   11:52:47.909.15-Aug-2021 3405.50 2277.27 53.84 5.00 311.61 3258.07
   11:52:48.109.15-Aug-2021 3405.50 2277.86 53.84 5.00 311.81 3258.07
   11:52:48.309.15-Aug-2021 3405.50 2277.86 53.84 5.00 312.01 3258.07
   11:52:48.509.15-Aug-2021 3405.50 2279.07 53.84 5.00 312.21 3258.07
   11:52:48.709.15-Aug-2021 3405.50 2279.55 53.84 5.00 312.41 3258.07
   11:52:48.909.15-Aug-2021 3405.50 2279.98 53.84 5.00 312.61 3258.07
   11:52:49.108.15-Aug-2021 3405.50 2280.43 53.84 5.00 312.81 3258.07
   11:52:49.308.15-Aug-2021 3405.50 2280.43 53.84 5.00 313.01 3258.07
   11:52:49.508.15-Aug-2021 3405.50 2281.37 53.84 5.00 313.21 3258.07
   11:52:49.708.15-Aug-2021 3405.50 2282.41 53.84 5.00 313.41 3258.07
   11:52:49.908.15-Aug-2021 3405.50 2282.61 53.84 5.00 313.61 3258.07
   11:52:50.108.15-Aug-2021 3405.50 2283.42 53.84 5.00 313.81 3258.07
   11:52:50.308.15-Aug-2021 3405.50 2283.42 53.84 5.00 314.01 3258.07
   11:52:50.508.15-Aug-2021 3405.50 2284.34 53.84 5.00 314.21 3258.07
   11:52:50.707.15-Aug-2021 3405.50 2284.77 53.84 5.00 314.41 3258.07
   11:52:50.907.15-Aug-2021 3405.50 2285.20 53.84 5.00 314.61 3258.07
   11:52:51.107.15-Aug-2021 3405.50 2286.19 53.84 5.00 314.81 3258.07
   11:52:51.307.15-Aug-2021 3405.50 2286.19 53.84 5.00 315.01 3258.07
   11:52:51.507.15-Aug-2021 3405.50 2287.09 53.84 5.00 315.21 3258.07
   11:52:51.707.15-Aug-2021 3405.50 2287.54 53.84 5.00 315.41 3258.07
   11:52:51.907.15-Aug-2021 3405.50 2287.95 53.84 5.00 315.61 3258.07
   11:52:52.107.15-Aug-2021 3405.50 2288.70 53.84 5.00 315.81 3258.07
   11:52:52.306.15-Aug-2021 3405.50 2288.70 53.84 5.00 316.01 3258.07
   11:52:52.506.15-Aug-2021 3405.50 2289.81 53.84 5.00 316.21 3258.07
   11:52:52.706.15-Aug-2021 3405.50 2290.23 53.84 5.00 316.41 3258.07
   11:52:52.906.15-Aug-2021 3405.50 2290.83 53.84 5.00 316.61 3258.07
   11:52:53.106.15-Aug-2021 3405.50 2291.63 53.84 5.00 316.81 3258.07
   11:52:53.306.15-Aug-2021 3405.50 2291.63 53.84 5.00 317.01 3258.07
   11:52:53.506.15-Aug-2021 3405.50 2292.33 53.84 5.00 317.21 3258.07
   11:52:53.706.15-Aug-2021 3405.50 2292.90 53.84 5.00 317.41 3258.07
   11:52:53.906.15-Aug-2021 3405.50 2293.27 53.84 5.00 317.61 3258.07
   11:52:54.105.15-Aug-2021 3405.50 2293.97 53.84 5.00 317.81 3258.07
   11:52:54.305.15-Aug-2021 3405.50 2293.97 53.84 5.00 318.01 3258.07
   11:52:54.505.15-Aug-2021 3405.50 2295.12 53.84 5.00 318.21 3258.07
   11:52:54.705.15-Aug-2021 3405.50 2295.52 53.84 5.00 318.41 3258.07
   11:52:54.905.15-Aug-2021 3405.50 2296.18 53.84 5.00 318.61 3258.07
   11:52:55.105.15-Aug-2021 3405.50 2296.87 53.84 5.00 318.81 3258.07
   11:52:55.305.15-Aug-2021 3405.50 2296.87 53.84 5.00 319.01 3258.07
   11:52:55.505.15-Aug-2021 3405.50 2297.98 53.84 5.00 319.21 3258.07
   11:52:55.704.15-Aug-2021 3405.50 2298.37 53.84 5.00 319.41 3258.07
   11:52:55.904.15-Aug-2021 3405.50 2298.72 53.84 5.00 319.61 3258.07
   11:52:56.104.15-Aug-2021 3405.50 2299.39 53.84 5.00 319.81 3258.07
   11:52:56.304.15-Aug-2021 3405.50 2299.39 53.84 5.00 320.01 3258.07
   11:52:56.504.15-Aug-2021 3405.50 2300.36 53.84 5.00 320.21 3258.07
   11:52:56.704.15-Aug-2021 3405.50 2300.86 53.84 5.00 320.41 3258.07
   11:52:56.904.15-Aug-2021 3405.50 2301.36 53.84 5.00 320.61 3258.07
   11:52:57.104.15-Aug-2021 3405.50 2301.80 53.84 5.00 320.81 3258.07
   11:52:57.303.15-Aug-2021 3405.50 2301.80 53.84 5.00 321.01 3258.07
   11:52:57.503.15-Aug-2021 3405.50 2302.86 53.83 5.00 321.21 3258.07
   11:52:57.703.15-Aug-2021 3405.50 2303.25 53.83 5.00 321.41 3258.07
   11:52:57.903.15-Aug-2021 3405.50 2303.89 53.83 5.00 321.61 3258.07
