~Version Information
 VERS.                  2.0:   CWLS log ASCII Standard -VERSION 2.0
 WRAP.                   NO:   One line per depth step
~Well Information Block
#MNEM.UNIT     VALUE/NAME     DESCRIPTION
#---------     -----------    ---------------------------
 STRT.S             08:47:11 15-Aug-21: START TIME 08:47:11 15-Aug-21
 STOP.S             08:54:08 15-Aug-21: STOP TIME  08:54:08 15-Aug-21
 STEP.S                   0.00: STEP TIME
 NULL.                 -999.25: NULL VALUE
 DFWT.                        :  DIST FWL TEXT
 DFST.                        :  DIST FSL TEXT
 DMF .             Drill Floor:  DRILL MEAS FROM
 STIM.      17.18.56 20-Jun-21:  START TIME
 DATE.      17.18.56 20-Aug-21:  END TIME
 SPUD.               20-Jun-21:  SPUD DATE
 NREF.                    Grid:  NORTH REFERENCE
 HPTY.       Minimum Curvature:  HOLE POS TYPE
 DMOD.             Drill Model:  DRILL MOD DESC
 SVYD.                  Survey:  SURVEY DESC
 ILTD.               Lithology:  INTERP LTH DESC
 FTOP.          Formation Tops:  FORM TOPS DESC
 SON .        AZ-XX-0907056190:  JOB NUMBER
 PDAT.       Caspian Sea Level:  PERMANENT DATUM
 WTYP.                Deviated:  WELL TYPE
 MDS .        Operator Entered:  MAG DATA SOURCE
 COMP.     BP Exploration (Caspian Sea) Ltd.:  COMPANY
 UWI .            /AZE20000092:  UNIQUE WELL IDENTIFIER
 API .            /AZE20000092:  API NUMBER
 BASE.              Azerbaijan:  LOGGING EQUIPMENT BASE LOCATION
 REGN.                   EESSA:  REGION
 PROV.                    baku:  PROVINCE
 STAT.                    baku:  STATE NAME
 CTRY.              Azerbaijan:  COUNTRY NAME
 FLD .                     ACG:  FIELD NAME
 SRVC.          Turan Drilling:  CONTRACTOR
 MWDS.                    Baku:  MWD SHOP
 WELL.                     J26:  WELL NAME
 JOBN.        AZ-XX-0907056190:  JOB TICKET NUMB
 RIG .             West Chirag:  RIG NAME
 DOE .                     N/A:  DOE NUMBER
 DCON.         Sperry Drilling:  DIRECTNL CONTR
 UNIT.                     N/A:  LOGGING EQUIPMENT ID
 CNTY.                        :  COUNTY
 LOC .                        :  LOCATION
 LMF .             Drill Floor:  LOG MEASURED FROM
 TVDS.m                  43.00:  TVDSS CORRECTN
 LATI.deg                40.13:  LATITUDE
 LONG.deg                51.22:  LONGITUDE
 WHNS.m                  -7.12:  WELL HEAD N/S
 WHEW.m                  -9.46:  WELL HEAD E/W
 UTMX.m              519004.02:  UTM X
 UTMY.m             4443784.96:  UTM Y
 DFWL.m                   0.00:  DISTANCE FWL
 DFSL.m                   0.00:  DISTANCE FSL
 SDEP.m                 464.00:  START DEPTH
 TDD .m                3500.00:  TOTAL DEPTH (DRILLER)
 VSDR.deg               114.35:  VERT SEC DIRECT
 GVFD.g                   1.00:  GRAVITY FIELD
 MFLD.nT              50386.00:  MAGNETIC FIELD
 MDIP.deg                59.63:  MAGNETIC DIP
 MDEC.deg                 6.43:  MAGNETIC DECL
 GRDC.deg                 0.15:  GRID CORRECTION
 AZTC.deg                 6.29:  AZM TOTAL CORR
 EPD .m                   0.00:  ELEVATION
 EGL .m                   0.00:  GROUND ELEVATION
 WDMS.m                 169.80:  WD ELEV
 APD .m                  43.00:  DEPTH ABOVE PD
 VSEW.m                  -9.46:  VERT SEC E/W
 VSNS.m                  -7.12:  VERT SEC N/S
 AGAP.m                  43.00:  AIR GAP
 DEP .m                 356.16:  DEPTH
 EKB .m                  43.00:  KB ELEVATION
 EDF .m                  43.00:  DF ELEVATION
 TDL .m                 699.00:  TOTAL DEPTH (LOGGER)
 VSC .                       0:  VS TO CLOSURE
 MAGU.                 1853727:  MAGUTM CHECKSUM
~Parameter Information Block
#MNEM.UNIT       Value        Description
#---------     -----------    ---------------------------
 AV  .mps                 1.30:  Ann Velocity 
 AVMX.mps                 1.67:  Max Ann Veloc 
 AZIF.deg               280.40:  Azm, Final 
 BHAT.        Rotary Steerable:  BHA Type 
 BREV.rev            528970.00:  Rev Bit Total 
 BROT.°/30m               1.00:  Build Rotating 
 BS  .in                 12.25:  Bit Size 
 BSZ .in                 12.25:  Bit Size 
 BTPL.psig              738.00:  Bit Press Loss 
 CABU.                     Yes:  Customer Abuse 
 CGEO.        Elvin Suleymanov:  Customer Geo 
 COMM.                     äji:  Run Comments 1 
 TCS .hr                 66.05:  Time Ciculation Ended 
 CV  .mps                 2.20:  Crit Velocity 
 CVMX.mps                 2.56:  Max Crit Veloc 
 DD1 .          Rashad Habibov:  Direct Drillr 1 
 DD2 .            Azer ravanov:  Direct Drillr 2 
 DD3 .           Teymur Agayev:  Direct Drillr 3 
 DDSV.               Geo-Pilot:  DD Service 
 DEFF.%                  90.00:  % Det Eff 
 DLRX.°/30m               2.95:  Dogleg Rot Max 
 DLSO.°/30m               1.00:  Dogleg Oriented 
 DLSX.°/30m               2.95:  Dogleg Str Max 
 DRET.      11.42.20 11-Aug-21:  Drill End Time 
 DRST.      23.03.20 08-Aug-21:  Drill Start Tim 
 DTIM.hr                 45.50:  Time Drilling 
 EDEP.m                3488.00:  End Depth 
 ENG1.         Marcelo Marcari:  Engineer 1 
 ENG2.         Dair Mahammadov:  Engineer 2 
 ENG3.       Davud Huseyn-zada:  Engineer 3 
 ENG4.         Yevgeniy Ulikov:  Engineer 4 
 ETIM.      17.45.20 17-Aug-21:  End Time 
 FLOI.gpm              1197.70:  Flow In 
 FLON.gpm              1100.00:  Flow In Min 
 FLOS.cptm                0.00:  Fluid Loss 
 FLOX.gpm              1200.00:  Flow In Max 
 DFT .        Mineral Oil Base:  Mud Type 
 FTRO.       Formation Presure:  FTWD Run Obj 
 HFLO.                      No:  High Flow 
 HPRE.                      No:  High Pressure 
 HTEM.                      No:  High Temp 
 HYDO.m                   1.80:  Hydro Offset 
 IFIN.deg                 9.87:  Inc, Final 
 IMAX.deg                19.96:  Inc Max 
 IMIN.deg                 3.82:  Inc Min 
 IMND.m                3257.42:  Inc Min Depth 
 IMXD.m                2945.53:  Inc Max Depth 
 JARR.                      No:  Jarring 
 LETM.      11.42.20 11-Aug-21:  Log End Time 
 LOST.hr                     0:  Lost Rig Time 
 LSTM.      23.03.20 08-Aug-21:  Log Start Time 
 MDCL.ppm             42500.00:  Mud Chlorides 
 MDES.     Inversion Oil/Synthetic:  Mud Desc 
 DFD .sg                  1.45:  Mud Density 
 MDMN.sg                  1.39:  Dens Mud Min 
 MDMX.sg                  1.57:  Dens Mud Max 
 MOIL.                   53.20:  Run Mud Oil % 
 MOWR.                   70:30:  Run Mud OWR 
 MSND.                       0:  Run Mud Sand % 
 MSOL.                   24.30:  Run Mud Solids% 
 DFV .spqt               79.00:  Mud Viscosity 
 MWOD.in                  8.00:  MWD Tool OD 
 MWSI.                      No:  Serv Intrp, MWD 
 OTIM.hr                253.06:  Time Operating 
 PCON.           Look Like New:  Pad Condition 
 PMAX.psia            11068.93:  Press Op, Max 
 PV  .cP                 36.00:  Mud PV 
 RUN .                    1000:  Run Number 
 ROPA.m/hr               15.34:  ROP Avg 
 ROPN.m/hr                4.00:  ROP Min 
 ROPX.m/hr               31.00:  ROP Max 
 RPMA.rpm               151.40:  RPM Surface Avg 
 RPMN.rpm               120.00:  RPM Surface Min 
 RPMX.rpm               160.00:  RPM Surface Max 
 RRUN.                    L505:  Rig Run Number 
 RTIM.hr                 10.00:  Time Reaming 
 SAZI.deg                88.92:  Azm, Start 
 SDEP.m                2789.00:  Start Depth 
 SIDD.                      No:  Serv Intrp, DD 
 SINC.deg                19.84:  Inc, Start 
 SPPA.psig             4421.39:  SPP Avg 
 SPPN.psig             4130.00:  SPP Min 
 SPPX.psig             4800.00:  SPP Max 
 STIM.      01.25.20 07-Aug-21:  Start Time 
 SVCS.                 DD, MWD:  Services 
 SVER.                    9.20:  Sperry Version 
 TDAT.m                 699.00:  Tot Depth Attmp 
 TDDF.                      No:  Trip for DD 
 TDLG.m                 699.00:  Tot Depth Loggd 
 TFF .                      No:  Trip for Fail 
 TQAA.f-kp               20.55:  Torque Abs Avg 
 TQAN.f-kp               15.00:  Torque Abs Min 
 TQAX.f-kp               24.00:  Torque Abs Max 
 TRRT.°/30m               0.50:  Turn Rotating 
 MRT .                    HCIM:  Maximum Recorded Temperature 
 TTMX.degC               82.35:  Max Tool Temp 
 VS01.                90654677:  Virtual Str1 SN 
 VS02.                90636294:  Virtual Str2 SN 
 VS03.                90653866:  Virtual Str3 SN 
 VS04.                90654674:  Virtual Str4 SN 
 WBMN.klb                10.00:  WOB Min 
 WITN.         Haytham Mostafa:  Customer Rep 
 WITN.           Rufat Babayev:  Customer Rep 2 
 WOBA.klb                22.43:  WOB Avg 
 WOBX.klb                35.00:  WOB Max 
 YP  .lhf2               32.00:  Yield Point 
~Curve Information Block
#MNEM.UNIT                 API CODE     Curve Description
#---------               -----------    ---------------------------
 TIME.HHMMSS            00 000 000 000:  GT Time & Date
 GTDEPTH.m              00 000 000 000:  GT Depth
 GTPQH.psia             00 000 000 000:  GT HR Quartz Pressure
 GTTQ.degC              00 000 000 000:  GT Quartz Temperature
 GTTN.NONE              00 000 000 000:  GT Test Number
 GTET.sec               00 000 000 000:  GT Elapsed Test Time
 GTTVD.m                00 000 000 000:  GT True Vertical Depth
#Other Information
#
#WARRANTY: Halliburton will use its best efforts to furnish customers with 
#accurate information and interpretations that are part of, and incident to, the services 
#provided.  However, Halliburton cannot and does not warrant the accuracy 
#or correctness of such information and interpretations.  Under no circumstances should any 
#such information or interpretation be relied upon as the sole basis for any drilling, 
#completion, production, or financial decision or any procedure involving any risk to the 
#safety of any drilling venture, drilling rig or its crew or any other third party.  The 
#Customer has full responsibility for all drilling, completion and production operation.  
#Halliburton makes no representations or warranties, either expressed or 
#implied, including, but not limited to, the implied warranties of merchantability or fitness 
#for a particular purpose, with respect to the services rendered.  In no event will 
#Halliburton be liable for failure to obtain any particular results or for 
#any damages, including, but not limited to, indirect, special or consequential damages, 
#resulting from the use of any information or interpretation provided by Halliburton.
#
~A           TIME           GTDEPTH  GTPQH  GTTQ  GTTN  GTET   GTTVD  
# ...
   08:50:15.449.15-Aug-2021 3421.80 2646.57 56.14 2.00 184.03 3274.11
   08:50:15.649.15-Aug-2021 3421.80 2646.57 56.14 2.00 184.23 3274.11
   08:50:15.849.15-Aug-2021 3421.80 2846.17 56.14 2.00 184.43 3274.11
   08:50:16.049.15-Aug-2021 3421.80 2936.86 56.14 2.00 184.63 3274.11
   08:50:16.249.15-Aug-2021 3421.80 3022.54 56.14 2.00 184.83 3274.11
   08:50:16.449.15-Aug-2021 3421.80 3103.49 56.14 2.00 185.03 3274.11
   08:50:16.649.15-Aug-2021 3421.80 3103.49 56.14 2.00 185.23 3274.11
   08:50:16.849.15-Aug-2021 3421.80 3250.66 56.14 2.00 185.43 3274.11
   08:50:17.049.15-Aug-2021 3421.80 3319.05 56.14 2.00 185.63 3274.11
   08:50:17.249.15-Aug-2021 3421.80 3384.23 56.14 2.00 185.83 3274.11
   08:50:17.449.15-Aug-2021 3421.80 3446.09 56.14 2.00 186.03 3274.11
   08:50:17.649.15-Aug-2021 3421.80 3446.09 56.14 2.00 186.23 3274.11
   08:50:17.849.15-Aug-2021 3421.80 3560.89 56.15 2.00 186.43 3274.11
   08:50:18.049.15-Aug-2021 3421.80 3611.95 56.15 2.00 186.63 3274.11
   08:50:18.249.15-Aug-2021 3421.80 3662.27 56.15 2.00 186.83 3274.11
   08:50:18.449.15-Aug-2021 3421.80 3710.76 56.15 2.00 187.03 3274.11
   08:50:18.649.15-Aug-2021 3421.80 3710.76 56.15 2.00 187.23 3274.11
   08:50:18.849.15-Aug-2021 3421.80 3800.05 56.15 2.00 187.43 3274.11
   08:50:19.049.15-Aug-2021 3421.80 3841.51 56.15 2.00 187.63 3274.11
   08:50:19.249.15-Aug-2021 3421.80 3881.85 56.15 2.00 187.83 3274.11
   08:50:19.449.15-Aug-2021 3421.80 3920.36 56.16 2.00 188.03 3274.11
   08:50:19.649.15-Aug-2021 3421.80 3920.36 56.16 2.00 188.23 3274.11
   08:50:19.849.15-Aug-2021 3421.80 3991.25 56.16 2.00 188.43 3274.11
   08:50:20.049.15-Aug-2021 3421.80 4025.07 56.16 2.00 188.63 3274.11
   08:50:20.249.15-Aug-2021 3421.80 4057.48 56.16 2.00 188.83 3274.11
   08:50:20.449.15-Aug-2021 3421.80 4088.88 56.16 2.00 189.03 3274.11
   08:50:20.650.15-Aug-2021 3421.80 4088.88 56.16 2.00 189.23 3274.11
   08:50:20.850.15-Aug-2021 3421.80 4146.08 56.17 2.00 189.43 3274.11
   08:50:21.050.15-Aug-2021 3421.80 4173.57 56.17 2.00 189.63 3274.11
   08:50:21.250.15-Aug-2021 3421.80 4200.02 56.17 2.00 189.83 3274.11
   08:50:21.450.15-Aug-2021 3421.80 4225.22 56.17 2.00 190.03 3274.11
   08:50:21.650.15-Aug-2021 3421.80 4225.22 56.17 2.00 190.23 3274.11
   08:50:21.850.15-Aug-2021 3421.80 4272.80 56.17 2.00 190.43 3274.11
   08:50:22.050.15-Aug-2021 3421.80 4295.27 56.17 2.00 190.63 3274.11
   08:50:22.250.15-Aug-2021 3421.80 4317.38 56.18 2.00 190.83 3274.11
   08:50:22.450.15-Aug-2021 3421.80 4337.32 56.18 2.00 191.03 3274.11
   08:50:22.650.15-Aug-2021 3421.80 4337.32 56.18 2.00 191.23 3274.11
   08:50:22.850.15-Aug-2021 3421.80 4376.62 56.18 2.00 191.43 3274.11
   08:50:23.050.15-Aug-2021 3421.80 4395.78 56.18 2.00 191.63 3274.11
   08:50:23.250.15-Aug-2021 3421.80 4412.99 56.18 2.00 191.83 3274.11
   08:50:23.450.15-Aug-2021 3421.80 4430.02 56.18 2.00 192.03 3274.11
   08:50:23.650.15-Aug-2021 3421.80 4430.02 56.18 2.00 192.23 3274.11
   08:50:23.850.15-Aug-2021 3421.80 4463.42 56.19 2.00 192.43 3274.11
   08:50:24.050.15-Aug-2021 3421.80 4479.07 56.19 2.00 192.63 3274.11
   08:50:24.250.15-Aug-2021 3421.80 4494.38 56.19 2.00 192.83 3274.11
   08:50:24.450.15-Aug-2021 3421.80 4509.11 56.19 2.00 193.03 3274.11
   08:50:24.650.15-Aug-2021 3421.80 4509.11 56.19 2.00 193.23 3274.11
   08:50:24.850.15-Aug-2021 3421.80 4536.32 56.19 2.00 193.43 3274.11
   08:50:25.050.15-Aug-2021 3421.80 4549.74 56.19 2.00 193.63 3274.11
   08:50:25.250.15-Aug-2021 3421.80 4562.73 56.20 2.00 193.83 3274.11
   08:50:25.450.15-Aug-2021 3421.80 4575.16 56.20 2.00 194.03 3274.11
   08:50:25.650.15-Aug-2021 3421.80 4575.16 56.20 2.00 194.23 3274.11
   08:50:25.850.15-Aug-2021 3421.80 4598.63 56.20 2.00 194.43 3274.11
   08:50:26.050.15-Aug-2021 3421.80 4609.88 56.20 2.00 194.63 3274.11
   08:50:26.250.15-Aug-2021 3421.80 4620.86 56.20 2.00 194.83 3274.11
   08:50:26.450.15-Aug-2021 3421.80 4631.89 56.20 2.00 195.03 3274.11
   08:50:26.650.15-Aug-2021 3421.80 4631.89 56.20 2.00 195.23 3274.11
   08:50:26.851.15-Aug-2021 3421.80 4651.72 56.20 2.00 195.43 3274.11
   08:50:27.051.15-Aug-2021 3421.80 4661.65 56.20 2.00 195.63 3274.11
   08:50:27.251.15-Aug-2021 3421.80 4671.40 56.21 2.00 195.83 3274.11
   08:50:27.451.15-Aug-2021 3421.80 4680.33 56.21 2.00 196.03 3274.11
   08:50:27.651.15-Aug-2021 3421.80 4680.33 56.21 2.00 196.23 3274.11
   08:50:27.851.15-Aug-2021 3421.80 4697.99 56.21 2.00 196.43 3274.11
   08:50:28.051.15-Aug-2021 3421.80 4706.35 56.21 2.00 196.63 3274.11
   08:50:28.251.15-Aug-2021 3421.80 4714.35 56.21 2.00 196.83 3274.11
   08:50:28.451.15-Aug-2021 3421.80 4722.30 56.21 2.00 197.03 3274.11
   08:50:28.651.15-Aug-2021 3421.80 4722.30 56.21 2.00 197.23 3274.11
   08:50:28.851.15-Aug-2021 3421.80 4738.30 56.21 2.00 197.43 3274.11
   08:50:29.051.15-Aug-2021 3421.80 4745.21 56.21 2.00 197.63 3274.11
   08:50:29.251.15-Aug-2021 3421.80 4752.22 56.21 2.00 197.83 3274.11
   08:50:29.451.15-Aug-2021 3421.80 4759.24 56.21 2.00 198.03 3274.11
   08:50:29.651.15-Aug-2021 3421.80 4759.24 56.21 2.00 198.23 3274.11
   08:50:29.851.15-Aug-2021 3421.80 4772.48 56.21 2.00 198.43 3274.11
   08:50:30.051.15-Aug-2021 3421.80 4778.96 56.21 2.00 198.63 3274.11
   08:50:30.251.15-Aug-2021 3421.80 4785.26 56.22 2.00 198.83 3274.11
   08:50:30.451.15-Aug-2021 3421.80 4791.45 56.22 2.00 199.03 3274.11
   08:50:30.651.15-Aug-2021 3421.80 4791.45 56.22 2.00 199.23 3274.11
   08:50:30.851.15-Aug-2021 3421.80 4803.77 56.22 2.00 199.43 3274.11
   08:50:31.051.15-Aug-2021 3421.80 4809.02 56.22 2.00 199.63 3274.11
   08:50:31.251.15-Aug-2021 3421.80 4814.37 56.22 2.00 199.83 3274.11
   08:50:31.451.15-Aug-2021 3421.80 4819.71 56.22 2.00 200.03 3274.11
   08:50:31.651.15-Aug-2021 3421.80 4819.71 56.22 2.00 200.23 3274.11
   08:50:31.851.15-Aug-2021 3421.80 4830.84 56.22 2.00 200.43 3274.11
   08:50:32.051.15-Aug-2021 3421.80 4835.80 56.22 2.00 200.63 3274.11
   08:50:32.251.15-Aug-2021 3421.80 4840.45 56.22 2.00 200.83 3274.11
   08:50:32.451.15-Aug-2021 3421.80 4845.05 56.22 2.00 201.03 3274.11
   08:50:32.651.15-Aug-2021 3421.80 4849.60 56.22 2.00 201.23 3274.11
   08:50:32.852.15-Aug-2021 3421.80 4854.62 56.22 2.00 201.43 3274.11
   08:50:33.052.15-Aug-2021 3421.80 4858.96 56.22 2.00 201.63 3274.11
   08:50:33.252.15-Aug-2021 3421.80 4863.18 56.22 2.00 201.83 3274.11
   08:50:33.452.15-Aug-2021 3421.80 4867.44 56.22 2.00 202.03 3274.11
   08:50:33.652.15-Aug-2021 3421.80 4867.44 56.22 2.00 202.23 3274.11
   08:50:33.852.15-Aug-2021 3421.80 4876.53 56.22 2.00 202.43 3274.11
   08:50:34.052.15-Aug-2021 3421.80 4880.61 56.22 2.00 202.63 3274.11
   08:50:34.252.15-Aug-2021 3421.80 4884.10 56.22 2.00 202.83 3274.11
   08:50:34.452.15-Aug-2021 3421.80 4887.71 56.22 2.00 203.03 3274.11
   08:50:34.652.15-Aug-2021 3421.80 4887.71 56.22 2.00 203.23 3274.11
   08:50:34.852.15-Aug-2021 3421.80 4896.17 56.22 2.00 203.43 3274.11
   08:50:35.052.15-Aug-2021 3421.80 4899.63 56.22 2.00 203.63 3274.11
   08:50:35.252.15-Aug-2021 3421.80 4902.88 56.22 2.00 203.83 3274.11
   08:50:35.452.15-Aug-2021 3421.80 4906.02 56.22 2.00 204.03 3274.11
   08:50:35.652.15-Aug-2021 3421.80 4906.02 56.22 2.00 204.23 3274.11
   08:50:35.852.15-Aug-2021 3421.80 4913.16 56.22 2.00 204.43 3274.11
   08:50:36.052.15-Aug-2021 3421.80 4916.27 56.22 2.00 204.63 3274.11
   08:50:36.252.15-Aug-2021 3421.80 4919.40 56.22 2.00 204.83 3274.11
   08:50:36.452.15-Aug-2021 3421.80 4922.42 56.22 2.00 205.03 3274.11
   08:50:36.652.15-Aug-2021 3421.80 4922.42 56.22 2.00 205.23 3274.11
   08:50:36.852.15-Aug-2021 3421.80 4928.48 56.22 2.00 205.43 3274.11
   08:50:37.052.15-Aug-2021 3421.80 4932.07 56.22 2.00 205.63 3274.11
   08:50:37.252.15-Aug-2021 3421.80 4934.86 56.22 2.00 205.83 3274.11
   08:50:37.452.15-Aug-2021 3421.80 4937.36 56.22 2.00 206.03 3274.11
   08:50:37.652.15-Aug-2021 3421.80 4937.36 56.22 2.00 206.23 3274.11
   08:50:37.852.15-Aug-2021 3421.80 4942.77 56.22 2.00 206.43 3274.11
   08:50:38.052.15-Aug-2021 3421.80 4945.57 56.22 2.00 206.63 3274.11
   08:50:38.252.15-Aug-2021 3421.80 4948.33 56.22 2.00 206.83 3274.11
