~Version Information
 VERS.                  2.0:   CWLS log ASCII Standard -VERSION 2.0
 WRAP.                   NO:   One line per depth step
~Well Information Block
#MNEM.UNIT     VALUE/NAME     DESCRIPTION
#---------     -----------    ---------------------------
 STRT.S             11:47:36 15-Aug-21: START TIME 11:47:36 15-Aug-21
 STOP.S             11:55:59 15-Aug-21: STOP TIME  11:55:59 15-Aug-21
 STEP.S                   0.00: STEP TIME
 NULL.                 -999.25: NULL VALUE
 DFWT.                        :  DIST FWL TEXT
 DFST.                        :  DIST FSL TEXT
 DMF .             Drill Floor:  DRILL MEAS FROM
 STIM.      17.18.56 20-Jun-21:  START TIME
 DATE.      17.18.56 20-Aug-21:  END TIME
 SPUD.               20-Jun-21:  SPUD DATE
 NREF.                    Grid:  NORTH REFERENCE
 HPTY.       Minimum Curvature:  HOLE POS TYPE
 DMOD.             Drill Model:  DRILL MOD DESC
 SVYD.                  Survey:  SURVEY DESC
 ILTD.               Lithology:  INTERP LTH DESC
 FTOP.          Formation Tops:  FORM TOPS DESC
 SON .        AZ-XX-0907056190:  JOB NUMBER
 PDAT.       Caspian Sea Level:  PERMANENT DATUM
 WTYP.                Deviated:  WELL TYPE
 MDS .        Operator Entered:  MAG DATA SOURCE
 COMP.     BP Exploration (Caspian Sea) Ltd.:  COMPANY
 UWI .            /AZE20000092:  UNIQUE WELL IDENTIFIER
 API .            /AZE20000092:  API NUMBER
 BASE.              Azerbaijan:  LOGGING EQUIPMENT BASE LOCATION
 REGN.                   EESSA:  REGION
 PROV.                    baku:  PROVINCE
 STAT.                    baku:  STATE NAME
 CTRY.              Azerbaijan:  COUNTRY NAME
 FLD .                     ACG:  FIELD NAME
 SRVC.          Turan Drilling:  CONTRACTOR
 MWDS.                    Baku:  MWD SHOP
 WELL.                     J26:  WELL NAME
 JOBN.        AZ-XX-0907056190:  JOB TICKET NUMB
 RIG .             West Chirag:  RIG NAME
 DOE .                     N/A:  DOE NUMBER
 DCON.         Sperry Drilling:  DIRECTNL CONTR
 UNIT.                     N/A:  LOGGING EQUIPMENT ID
 CNTY.                        :  COUNTY
 LOC .                        :  LOCATION
 LMF .             Drill Floor:  LOG MEASURED FROM
 TVDS.m                  43.00:  TVDSS CORRECTN
 LATI.deg                40.13:  LATITUDE
 LONG.deg                51.22:  LONGITUDE
 WHNS.m                  -7.12:  WELL HEAD N/S
 WHEW.m                  -9.46:  WELL HEAD E/W
 UTMX.m              519004.02:  UTM X
 UTMY.m             4443784.96:  UTM Y
 DFWL.m                   0.00:  DISTANCE FWL
 DFSL.m                   0.00:  DISTANCE FSL
 SDEP.m                 464.00:  START DEPTH
 TDD .m                3500.00:  TOTAL DEPTH (DRILLER)
 VSDR.deg               114.35:  VERT SEC DIRECT
 GVFD.g                   1.00:  GRAVITY FIELD
 MFLD.nT              50386.00:  MAGNETIC FIELD
 MDIP.deg                59.63:  MAGNETIC DIP
 MDEC.deg                 6.43:  MAGNETIC DECL
 GRDC.deg                 0.15:  GRID CORRECTION
 AZTC.deg                 6.29:  AZM TOTAL CORR
 EPD .m                   0.00:  ELEVATION
 EGL .m                   0.00:  GROUND ELEVATION
 WDMS.m                 169.80:  WD ELEV
 APD .m                  43.00:  DEPTH ABOVE PD
 VSEW.m                  -9.46:  VERT SEC E/W
 VSNS.m                  -7.12:  VERT SEC N/S
 AGAP.m                  43.00:  AIR GAP
 DEP .m                 356.16:  DEPTH
 EKB .m                  43.00:  KB ELEVATION
 EDF .m                  43.00:  DF ELEVATION
 TDL .m                 699.00:  TOTAL DEPTH (LOGGER)
 VSC .                       0:  VS TO CLOSURE
 MAGU.                 1853727:  MAGUTM CHECKSUM
~Parameter Information Block
#MNEM.UNIT       Value        Description
#---------     -----------    ---------------------------
 AV  .mps                 1.30:  Ann Velocity 
 AVMX.mps                 1.67:  Max Ann Veloc 
 AZIF.deg               280.40:  Azm, Final 
 BHAT.        Rotary Steerable:  BHA Type 
 BREV.rev            528970.00:  Rev Bit Total 
 BROT.°/30m               1.00:  Build Rotating 
 BS  .in                 12.25:  Bit Size 
 BSZ .in                 12.25:  Bit Size 
 BTPL.psig              738.00:  Bit Press Loss 
 CABU.                     Yes:  Customer Abuse 
 CGEO.        Elvin Suleymanov:  Customer Geo 
 COMM.                     lþe:  Run Comments 1 
 TCS .hr                 66.05:  Time Ciculation Ended 
 CV  .mps                 2.20:  Crit Velocity 
 CVMX.mps                 2.56:  Max Crit Veloc 
 DD1 .          Rashad Habibov:  Direct Drillr 1 
 DD2 .            Azer ravanov:  Direct Drillr 2 
 DD3 .           Teymur Agayev:  Direct Drillr 3 
 DDSV.               Geo-Pilot:  DD Service 
 DEFF.%                  90.00:  % Det Eff 
 DLRX.°/30m               2.95:  Dogleg Rot Max 
 DLSO.°/30m               1.00:  Dogleg Oriented 
 DLSX.°/30m               2.95:  Dogleg Str Max 
 DRET.      11.42.20 11-Aug-21:  Drill End Time 
 DRST.      23.03.20 08-Aug-21:  Drill Start Tim 
 DTIM.hr                 45.50:  Time Drilling 
 EDEP.m                3488.00:  End Depth 
 ENG1.         Marcelo Marcari:  Engineer 1 
 ENG2.         Dair Mahammadov:  Engineer 2 
 ENG3.       Davud Huseyn-zada:  Engineer 3 
 ENG4.         Yevgeniy Ulikov:  Engineer 4 
 ETIM.      17.45.20 17-Aug-21:  End Time 
 FLOI.gpm              1197.70:  Flow In 
 FLON.gpm              1100.00:  Flow In Min 
 FLOS.cptm                0.00:  Fluid Loss 
 FLOX.gpm              1200.00:  Flow In Max 
 DFT .        Mineral Oil Base:  Mud Type 
 FTRO.       Formation Presure:  FTWD Run Obj 
 HFLO.                      No:  High Flow 
 HPRE.                      No:  High Pressure 
 HTEM.                      No:  High Temp 
 HYDO.m                   1.80:  Hydro Offset 
 IFIN.deg                 9.87:  Inc, Final 
 IMAX.deg                19.96:  Inc Max 
 IMIN.deg                 3.82:  Inc Min 
 IMND.m                3257.42:  Inc Min Depth 
 IMXD.m                2945.53:  Inc Max Depth 
 JARR.                      No:  Jarring 
 LETM.      11.42.20 11-Aug-21:  Log End Time 
 LOST.hr                     0:  Lost Rig Time 
 LSTM.      23.03.20 08-Aug-21:  Log Start Time 
 MDCL.ppm             42500.00:  Mud Chlorides 
 MDES.     Inversion Oil/Synthetic:  Mud Desc 
 DFD .sg                  1.45:  Mud Density 
 MDMN.sg                  1.39:  Dens Mud Min 
 MDMX.sg                  1.57:  Dens Mud Max 
 MOIL.                   53.20:  Run Mud Oil % 
 MOWR.                   70:30:  Run Mud OWR 
 MSND.                       0:  Run Mud Sand % 
 MSOL.                   24.30:  Run Mud Solids% 
 DFV .spqt               79.00:  Mud Viscosity 
 MWOD.in                  8.00:  MWD Tool OD 
 MWSI.                      No:  Serv Intrp, MWD 
 OTIM.hr                253.06:  Time Operating 
 PCON.           Look Like New:  Pad Condition 
 PMAX.psia            11068.93:  Press Op, Max 
 PV  .cP                 36.00:  Mud PV 
 RUN .                    1000:  Run Number 
 ROPA.m/hr               15.34:  ROP Avg 
 ROPN.m/hr                4.00:  ROP Min 
 ROPX.m/hr               31.00:  ROP Max 
 RPMA.rpm               151.40:  RPM Surface Avg 
 RPMN.rpm               120.00:  RPM Surface Min 
 RPMX.rpm               160.00:  RPM Surface Max 
 RRUN.                    L505:  Rig Run Number 
 RTIM.hr                 10.00:  Time Reaming 
 SAZI.deg                88.92:  Azm, Start 
 SDEP.m                2789.00:  Start Depth 
 SIDD.                      No:  Serv Intrp, DD 
 SINC.deg                19.84:  Inc, Start 
 SPPA.psig             4421.39:  SPP Avg 
 SPPN.psig             4130.00:  SPP Min 
 SPPX.psig             4800.00:  SPP Max 
 STIM.      01.25.20 07-Aug-21:  Start Time 
 SVCS.                 DD, MWD:  Services 
 SVER.                    9.20:  Sperry Version 
 TDAT.m                 699.00:  Tot Depth Attmp 
 TDDF.                      No:  Trip for DD 
 TDLG.m                 699.00:  Tot Depth Loggd 
 TFF .                      No:  Trip for Fail 
 TQAA.f-kp               20.55:  Torque Abs Avg 
 TQAN.f-kp               15.00:  Torque Abs Min 
 TQAX.f-kp               24.00:  Torque Abs Max 
 TRRT.°/30m               0.50:  Turn Rotating 
 MRT .                    HCIM:  Maximum Recorded Temperature 
 TTMX.degC               82.35:  Max Tool Temp 
 VS01.                90654677:  Virtual Str1 SN 
 VS02.                90636294:  Virtual Str2 SN 
 VS03.                90653866:  Virtual Str3 SN 
 VS04.                90654674:  Virtual Str4 SN 
 WBMN.klb                10.00:  WOB Min 
 WITN.         Haytham Mostafa:  Customer Rep 
 WITN.           Rufat Babayev:  Customer Rep 2 
 WOBA.klb                22.43:  WOB Avg 
 WOBX.klb                35.00:  WOB Max 
 YP  .lhf2               32.00:  Yield Point 
~Curve Information Block
#MNEM.UNIT                 API CODE     Curve Description
#---------               -----------    ---------------------------
 TIME.HHMMSS            00 000 000 000:  GT Time & Date
 GTDEPTH.m              00 000 000 000:  GT Depth
 GTPQH.psia             00 000 000 000:  GT HR Quartz Pressure
 GTTQ.degC              00 000 000 000:  GT Quartz Temperature
 GTTN.NONE              00 000 000 000:  GT Test Number
 GTET.sec               00 000 000 000:  GT Elapsed Test Time
 GTTVD.m                00 000 000 000:  GT True Vertical Depth
#Other Information
#
#WARRANTY: Halliburton will use its best efforts to furnish customers with 
#accurate information and interpretations that are part of, and incident to, the services 
#provided.  However, Halliburton cannot and does not warrant the accuracy 
#or correctness of such information and interpretations.  Under no circumstances should any 
#such information or interpretation be relied upon as the sole basis for any drilling, 
#completion, production, or financial decision or any procedure involving any risk to the 
#safety of any drilling venture, drilling rig or its crew or any other third party.  The 
#Customer has full responsibility for all drilling, completion and production operation.  
#Halliburton makes no representations or warranties, either expressed or 
#implied, including, but not limited to, the implied warranties of merchantability or fitness 
#for a particular purpose, with respect to the services rendered.  In no event will 
#Halliburton be liable for failure to obtain any particular results or for 
#any damages, including, but not limited to, indirect, special or consequential damages, 
#resulting from the use of any information or interpretation provided by Halliburton.
#
~A           TIME           GTDEPTH  GTPQH  GTTQ  GTTN  GTET   GTTVD  
# ...
   11:50:40.186.15-Aug-2021 3405.50 5539.25 53.99 5.00 183.89 3258.07
   11:50:40.386.15-Aug-2021 3405.50 5539.25 53.99 5.00 184.09 3258.07
   11:50:40.586.15-Aug-2021 3405.50 5541.08 53.99 5.00 184.29 3258.07
   11:50:40.786.15-Aug-2021 3405.50 5541.87 53.99 5.00 184.49 3258.07
   11:50:40.985.15-Aug-2021 3405.50 5542.81 53.99 5.00 184.69 3258.07
   11:50:41.185.15-Aug-2021 3405.50 5543.43 53.99 5.00 184.89 3258.07
   11:50:41.385.15-Aug-2021 3405.50 5543.43 53.99 5.00 185.09 3258.07
   11:50:41.585.15-Aug-2021 3405.50 5545.03 53.98 5.00 185.29 3258.07
   11:50:41.785.15-Aug-2021 3405.50 5545.83 53.98 5.00 185.49 3258.07
   11:50:41.985.15-Aug-2021 3405.50 5546.58 53.98 5.00 185.69 3258.07
   11:50:42.185.15-Aug-2021 3405.50 5547.57 53.98 5.00 185.89 3258.07
   11:50:42.385.15-Aug-2021 3405.50 5547.57 53.98 5.00 186.09 3258.07
   11:50:42.585.15-Aug-2021 3405.50 5549.09 53.98 5.00 186.29 3258.07
   11:50:42.784.15-Aug-2021 3405.50 5549.89 53.98 5.00 186.49 3258.07
   11:50:42.984.15-Aug-2021 3405.50 5550.43 53.98 5.00 186.69 3258.07
   11:50:43.184.15-Aug-2021 3405.50 5551.89 53.98 5.00 186.89 3258.07
   11:50:43.384.15-Aug-2021 3405.50 5551.89 53.98 5.00 187.09 3258.07
   11:50:43.584.15-Aug-2021 3405.50 5553.23 53.98 5.00 187.29 3258.07
   11:50:43.784.15-Aug-2021 3405.50 5553.82 53.98 5.00 187.49 3258.07
   11:50:43.984.15-Aug-2021 3405.50 5554.80 53.98 5.00 187.69 3258.07
   11:50:44.184.15-Aug-2021 3405.50 5560.64 53.98 5.00 187.89 3258.07
   11:50:44.383.15-Aug-2021 3405.50 5560.64 53.98 5.00 188.09 3258.07
   11:50:44.583.15-Aug-2021 3405.50 5562.41 53.98 5.00 188.29 3258.07
   11:50:44.783.15-Aug-2021 3405.50 5562.98 53.98 5.00 188.49 3258.07
   11:50:44.983.15-Aug-2021 3405.50 5564.41 53.98 5.00 188.69 3258.07
   11:50:45.183.15-Aug-2021 3405.50 5564.96 53.98 5.00 188.89 3258.07
   11:50:45.383.15-Aug-2021 3405.50 5564.96 53.98 5.00 189.09 3258.07
   11:50:45.583.15-Aug-2021 3405.50 5566.26 53.98 5.00 189.29 3258.07
   11:50:45.783.15-Aug-2021 3405.50 5566.77 53.98 5.00 189.49 3258.07
   11:50:45.982.15-Aug-2021 3405.50 5567.33 53.98 5.00 189.69 3258.07
   11:50:46.182.15-Aug-2021 3405.50 5568.01 53.98 5.00 189.89 3258.07
   11:50:46.382.15-Aug-2021 3405.50 5568.01 53.98 5.00 190.09 3258.07
   11:50:46.582.15-Aug-2021 3405.50 5569.71 53.98 5.00 190.29 3258.07
   11:50:46.782.15-Aug-2021 3405.50 5570.95 53.98 5.00 190.49 3258.07
   11:50:46.982.15-Aug-2021 3405.50 5571.64 53.98 5.00 190.69 3258.07
   11:50:47.182.15-Aug-2021 3405.50 5572.38 53.98 5.00 190.89 3258.07
   11:50:47.382.15-Aug-2021 3405.50 5572.38 53.98 5.00 191.09 3258.07
   11:50:47.582.15-Aug-2021 3405.50 5574.38 53.98 5.00 191.28 3258.07
   11:50:47.781.15-Aug-2021 3405.50 5575.12 53.98 5.00 191.48 3258.07
   11:50:47.981.15-Aug-2021 3405.50 5575.98 53.98 5.00 191.68 3258.07
   11:50:48.181.15-Aug-2021 3405.50 5576.65 53.98 5.00 191.88 3258.07
   11:50:48.381.15-Aug-2021 3405.50 5576.65 53.98 5.00 192.08 3258.07
   11:50:48.581.15-Aug-2021 3405.50 5578.24 53.98 5.00 192.28 3258.07
   11:50:48.781.15-Aug-2021 3405.50 5579.00 53.98 5.00 192.48 3258.07
   11:50:48.981.15-Aug-2021 3405.50 5579.72 53.98 5.00 192.68 3258.07
   11:50:49.181.15-Aug-2021 3405.50 5580.54 53.98 5.00 192.88 3258.07
   11:50:49.380.15-Aug-2021 3405.50 5580.54 53.98 5.00 193.08 3258.07
   11:50:49.580.15-Aug-2021 3405.50 5581.64 53.98 5.00 193.28 3258.07
   11:50:49.780.15-Aug-2021 3405.50 5582.05 53.98 5.00 193.48 3258.07
   11:50:49.980.15-Aug-2021 3405.50 5583.47 53.98 5.00 193.68 3258.07
   11:50:50.180.15-Aug-2021 3405.50 5584.09 53.98 5.00 193.88 3258.07
   11:50:50.380.15-Aug-2021 3405.50 5584.09 53.98 5.00 194.08 3258.07
   11:50:50.580.15-Aug-2021 3405.50 5585.31 53.98 5.00 194.28 3258.07
   11:50:50.780.15-Aug-2021 3405.50 5586.19 53.98 5.00 194.48 3258.07
   11:50:50.979.15-Aug-2021 3405.50 5587.79 53.98 5.00 194.68 3258.07
   11:50:51.179.15-Aug-2021 3405.50 5588.53 53.98 5.00 194.88 3258.07
   11:50:51.379.15-Aug-2021 3405.50 5588.53 53.98 5.00 195.08 3258.07
   11:50:51.579.15-Aug-2021 3405.50 5590.03 53.98 5.00 195.28 3258.07
   11:50:51.779.15-Aug-2021 3405.50 5007.37 53.98 5.00 195.48 3258.07
   11:50:51.979.15-Aug-2021 3405.50 4504.83 53.98 5.00 195.68 3258.07
   11:50:52.179.15-Aug-2021 3405.50 4261.19 53.98 5.00 195.88 3258.07
   11:50:52.379.15-Aug-2021 3405.50 4261.19 53.98 5.00 196.08 3258.07
   11:50:52.578.15-Aug-2021 3405.50 3872.39 53.97 5.00 196.28 3258.07
   11:50:52.778.15-Aug-2021 3405.50 3787.56 53.97 5.00 196.48 3258.07
   11:50:52.978.15-Aug-2021 3405.50 3712.71 53.97 5.00 196.68 3258.07
   11:50:53.178.15-Aug-2021 3405.50 3626.13 53.97 5.00 196.88 3258.07
   11:50:53.378.15-Aug-2021 3405.50 3626.13 53.97 5.00 197.08 3258.07
   11:50:53.578.15-Aug-2021 3405.50 3473.21 53.97 5.00 197.28 3258.07
   11:50:53.778.15-Aug-2021 3405.50 3403.64 53.97 5.00 197.48 3258.07
   11:50:53.978.15-Aug-2021 3405.50 3332.83 53.97 5.00 197.68 3258.07
   11:50:54.178.15-Aug-2021 3405.50 3262.58 53.97 5.00 197.88 3258.07
   11:50:54.377.15-Aug-2021 3405.50 3262.58 53.97 5.00 198.08 3258.07
   11:50:54.577.15-Aug-2021 3405.50 3114.40 53.96 5.00 198.28 3258.07
   11:50:54.777.15-Aug-2021 3405.50 3041.64 53.96 5.00 198.48 3258.07
   11:50:54.977.15-Aug-2021 3405.50 2966.17 53.96 5.00 198.68 3258.07
   11:50:55.177.15-Aug-2021 3405.50 2893.30 53.96 5.00 198.88 3258.07
   11:50:55.377.15-Aug-2021 3405.50 2893.30 53.96 5.00 199.08 3258.07
   11:50:55.577.15-Aug-2021 3405.50 2760.41 53.95 5.00 199.28 3258.07
   11:50:55.777.15-Aug-2021 3405.50 2694.85 53.95 5.00 199.48 3258.07
   11:50:55.976.15-Aug-2021 3405.50 2631.09 53.95 5.00 199.68 3258.07
   11:50:56.176.15-Aug-2021 3405.50 2563.68 53.95 5.00 199.88 3258.07
   11:50:56.376.15-Aug-2021 3405.50 2563.68 53.95 5.00 200.08 3258.07
   11:50:56.576.15-Aug-2021 3405.50 2414.59 53.94 5.00 200.28 3258.07
   11:50:56.776.15-Aug-2021 3405.50 2339.70 53.94 5.00 200.48 3258.07
   11:50:56.976.15-Aug-2021 3405.50 2269.65 53.94 5.00 200.68 3258.07
   11:50:57.176.15-Aug-2021 3405.50 2191.95 53.94 5.00 200.88 3258.07
   11:50:57.376.15-Aug-2021 3405.50 2191.95 53.94 5.00 201.08 3258.07
   11:50:57.575.15-Aug-2021 3405.50 2030.26 53.93 5.00 201.28 3258.07
   11:50:57.775.15-Aug-2021 3405.50 1945.16 53.93 5.00 201.48 3258.07
   11:50:57.975.15-Aug-2021 3405.50 1857.87 53.93 5.00 201.68 3258.07
   11:50:58.175.15-Aug-2021 3405.50 1779.39 53.93 5.00 201.88 3258.07
   11:50:58.375.15-Aug-2021 3405.50 1779.39 53.93 5.00 202.08 3258.07
   11:50:58.575.15-Aug-2021 3405.50 1649.25 53.92 5.00 202.28 3258.07
   11:50:58.775.15-Aug-2021 3405.50 1631.33 53.92 5.00 202.48 3258.07
   11:50:58.975.15-Aug-2021 3405.50 1623.37 53.92 5.00 202.68 3258.07
   11:50:59.175.15-Aug-2021 3405.50 1622.14 53.91 5.00 202.88 3258.07
   11:50:59.374.15-Aug-2021 3405.50 1622.14 53.91 5.00 203.08 3258.07
   11:50:59.574.15-Aug-2021 3405.50 1615.82 53.91 5.00 203.28 3258.07
   11:50:59.774.15-Aug-2021 3405.50 1613.76 53.91 5.00 203.48 3258.07
   11:50:59.974.15-Aug-2021 3405.50 1614.64 53.90 5.00 203.68 3258.07
   11:51:00.174.15-Aug-2021 3405.50 1615.73 53.90 5.00 203.88 3258.07
   11:51:00.374.15-Aug-2021 3405.50 1615.73 53.90 5.00 204.08 3258.07
   11:51:00.574.15-Aug-2021 3405.50 1613.19 53.90 5.00 204.28 3258.07
   11:51:00.774.15-Aug-2021 3405.50 1613.06 53.90 5.00 204.48 3258.07
   11:51:00.973.15-Aug-2021 3405.50 1611.98 53.89 5.00 204.68 3258.07
   11:51:01.173.15-Aug-2021 3405.50 1611.70 53.89 5.00 204.88 3258.07
   11:51:01.373.15-Aug-2021 3405.50 1611.70 53.89 5.00 205.08 3258.07
   11:51:01.573.15-Aug-2021 3405.50 1612.51 53.89 5.00 205.28 3258.07
   11:51:01.773.15-Aug-2021 3405.50 1611.60 53.89 5.00 205.48 3258.07
   11:51:01.973.15-Aug-2021 3405.50 1610.98 53.88 5.00 205.68 3258.07
   11:51:02.173.15-Aug-2021 3405.50 1611.40 53.88 5.00 205.88 3258.07
   11:51:02.373.15-Aug-2021 3405.50 1611.40 53.88 5.00 206.08 3258.07
   11:51:02.572.15-Aug-2021 3405.50 1628.42 53.88 5.00 206.28 3258.07
   11:51:02.772.15-Aug-2021 3405.50 1635.26 53.88 5.00 206.48 3258.07
   11:51:02.972.15-Aug-2021 3405.50 1641.71 53.88 5.00 206.68 3258.07
