~Version Information
 VERS.                  2.0:   CWLS log ASCII Standard -VERSION 2.0
 WRAP.                   NO:   One line per depth step
~Well Information Block
#MNEM.UNIT     VALUE/NAME     DESCRIPTION
#---------     -----------    ---------------------------
 STRT.S             11:47:36 15-Aug-21: START TIME 11:47:36 15-Aug-21
 STOP.S             11:55:59 15-Aug-21: STOP TIME  11:55:59 15-Aug-21
 STEP.S                   0.00: STEP TIME
 NULL.                 -999.25: NULL VALUE
 DFWT.                        :  DIST FWL TEXT
 DFST.                        :  DIST FSL TEXT
 DMF .             Drill Floor:  DRILL MEAS FROM
 STIM.      17.18.56 20-Jun-21:  START TIME
 DATE.      17.18.56 20-Aug-21:  END TIME
 SPUD.               20-Jun-21:  SPUD DATE
 NREF.                    Grid:  NORTH REFERENCE
 HPTY.       Minimum Curvature:  HOLE POS TYPE
 DMOD.             Drill Model:  DRILL MOD DESC
 SVYD.                  Survey:  SURVEY DESC
 ILTD.               Lithology:  INTERP LTH DESC
 FTOP.          Formation Tops:  FORM TOPS DESC
 SON .        AZ-XX-0907056190:  JOB NUMBER
 PDAT.       Caspian Sea Level:  PERMANENT DATUM
 WTYP.                Deviated:  WELL TYPE
 MDS .        Operator Entered:  MAG DATA SOURCE
 COMP.     BP Exploration (Caspian Sea) Ltd.:  COMPANY
 UWI .            /AZE20000092:  UNIQUE WELL IDENTIFIER
 API .            /AZE20000092:  API NUMBER
 BASE.              Azerbaijan:  LOGGING EQUIPMENT BASE LOCATION
 REGN.                   EESSA:  REGION
 PROV.                    baku:  PROVINCE
 STAT.                    baku:  STATE NAME
 CTRY.              Azerbaijan:  COUNTRY NAME
 FLD .                     ACG:  FIELD NAME
 SRVC.          Turan Drilling:  CONTRACTOR
 MWDS.                    Baku:  MWD SHOP
 WELL.                     J26:  WELL NAME
 JOBN.        AZ-XX-0907056190:  JOB TICKET NUMB
 RIG .             West Chirag:  RIG NAME
 DOE .                     N/A:  DOE NUMBER
 DCON.         Sperry Drilling:  DIRECTNL CONTR
 UNIT.                     N/A:  LOGGING EQUIPMENT ID
 CNTY.                        :  COUNTY
 LOC .                        :  LOCATION
 LMF .             Drill Floor:  LOG MEASURED FROM
 TVDS.m                  43.00:  TVDSS CORRECTN
 LATI.deg                40.13:  LATITUDE
 LONG.deg                51.22:  LONGITUDE
 WHNS.m                  -7.12:  WELL HEAD N/S
 WHEW.m                  -9.46:  WELL HEAD E/W
 UTMX.m              519004.02:  UTM X
 UTMY.m             4443784.96:  UTM Y
 DFWL.m                   0.00:  DISTANCE FWL
 DFSL.m                   0.00:  DISTANCE FSL
 SDEP.m                 464.00:  START DEPTH
 TDD .m                3500.00:  TOTAL DEPTH (DRILLER)
 VSDR.deg               114.35:  VERT SEC DIRECT
 GVFD.g                   1.00:  GRAVITY FIELD
 MFLD.nT              50386.00:  MAGNETIC FIELD
 MDIP.deg                59.63:  MAGNETIC DIP
 MDEC.deg                 6.43:  MAGNETIC DECL
 GRDC.deg                 0.15:  GRID CORRECTION
 AZTC.deg                 6.29:  AZM TOTAL CORR
 EPD .m                   0.00:  ELEVATION
 EGL .m                   0.00:  GROUND ELEVATION
 WDMS.m                 169.80:  WD ELEV
 APD .m                  43.00:  DEPTH ABOVE PD
 VSEW.m                  -9.46:  VERT SEC E/W
 VSNS.m                  -7.12:  VERT SEC N/S
 AGAP.m                  43.00:  AIR GAP
 DEP .m                 356.16:  DEPTH
 EKB .m                  43.00:  KB ELEVATION
 EDF .m                  43.00:  DF ELEVATION
 TDL .m                 699.00:  TOTAL DEPTH (LOGGER)
 VSC .                       0:  VS TO CLOSURE
 MAGU.                 1853727:  MAGUTM CHECKSUM
~Parameter Information Block
#MNEM.UNIT       Value        Description
#---------     -----------    ---------------------------
 AV  .mps                 1.30:  Ann Velocity 
 AVMX.mps                 1.67:  Max Ann Veloc 
 AZIF.deg               280.40:  Azm, Final 
 BHAT.        Rotary Steerable:  BHA Type 
 BREV.rev            528970.00:  Rev Bit Total 
 BROT.°/30m               1.00:  Build Rotating 
 BS  .in                 12.25:  Bit Size 
 BSZ .in                 12.25:  Bit Size 
 BTPL.psig              738.00:  Bit Press Loss 
 CABU.                     Yes:  Customer Abuse 
 CGEO.        Elvin Suleymanov:  Customer Geo 
 COMM.                     lþe:  Run Comments 1 
 TCS .hr                 66.05:  Time Ciculation Ended 
 CV  .mps                 2.20:  Crit Velocity 
 CVMX.mps                 2.56:  Max Crit Veloc 
 DD1 .          Rashad Habibov:  Direct Drillr 1 
 DD2 .            Azer ravanov:  Direct Drillr 2 
 DD3 .           Teymur Agayev:  Direct Drillr 3 
 DDSV.               Geo-Pilot:  DD Service 
 DEFF.%                  90.00:  % Det Eff 
 DLRX.°/30m               2.95:  Dogleg Rot Max 
 DLSO.°/30m               1.00:  Dogleg Oriented 
 DLSX.°/30m               2.95:  Dogleg Str Max 
 DRET.      11.42.20 11-Aug-21:  Drill End Time 
 DRST.      23.03.20 08-Aug-21:  Drill Start Tim 
 DTIM.hr                 45.50:  Time Drilling 
 EDEP.m                3488.00:  End Depth 
 ENG1.         Marcelo Marcari:  Engineer 1 
 ENG2.         Dair Mahammadov:  Engineer 2 
 ENG3.       Davud Huseyn-zada:  Engineer 3 
 ENG4.         Yevgeniy Ulikov:  Engineer 4 
 ETIM.      17.45.20 17-Aug-21:  End Time 
 FLOI.gpm              1197.70:  Flow In 
 FLON.gpm              1100.00:  Flow In Min 
 FLOS.cptm                0.00:  Fluid Loss 
 FLOX.gpm              1200.00:  Flow In Max 
 DFT .        Mineral Oil Base:  Mud Type 
 FTRO.       Formation Presure:  FTWD Run Obj 
 HFLO.                      No:  High Flow 
 HPRE.                      No:  High Pressure 
 HTEM.                      No:  High Temp 
 HYDO.m                   1.80:  Hydro Offset 
 IFIN.deg                 9.87:  Inc, Final 
 IMAX.deg                19.96:  Inc Max 
 IMIN.deg                 3.82:  Inc Min 
 IMND.m                3257.42:  Inc Min Depth 
 IMXD.m                2945.53:  Inc Max Depth 
 JARR.                      No:  Jarring 
 LETM.      11.42.20 11-Aug-21:  Log End Time 
 LOST.hr                     0:  Lost Rig Time 
 LSTM.      23.03.20 08-Aug-21:  Log Start Time 
 MDCL.ppm             42500.00:  Mud Chlorides 
 MDES.     Inversion Oil/Synthetic:  Mud Desc 
 DFD .sg                  1.45:  Mud Density 
 MDMN.sg                  1.39:  Dens Mud Min 
 MDMX.sg                  1.57:  Dens Mud Max 
 MOIL.                   53.20:  Run Mud Oil % 
 MOWR.                   70:30:  Run Mud OWR 
 MSND.                       0:  Run Mud Sand % 
 MSOL.                   24.30:  Run Mud Solids% 
 DFV .spqt               79.00:  Mud Viscosity 
 MWOD.in                  8.00:  MWD Tool OD 
 MWSI.                      No:  Serv Intrp, MWD 
 OTIM.hr                253.06:  Time Operating 
 PCON.           Look Like New:  Pad Condition 
 PMAX.psia            11068.93:  Press Op, Max 
 PV  .cP                 36.00:  Mud PV 
 RUN .                    1000:  Run Number 
 ROPA.m/hr               15.34:  ROP Avg 
 ROPN.m/hr                4.00:  ROP Min 
 ROPX.m/hr               31.00:  ROP Max 
 RPMA.rpm               151.40:  RPM Surface Avg 
 RPMN.rpm               120.00:  RPM Surface Min 
 RPMX.rpm               160.00:  RPM Surface Max 
 RRUN.                    L505:  Rig Run Number 
 RTIM.hr                 10.00:  Time Reaming 
 SAZI.deg                88.92:  Azm, Start 
 SDEP.m                2789.00:  Start Depth 
 SIDD.                      No:  Serv Intrp, DD 
 SINC.deg                19.84:  Inc, Start 
 SPPA.psig             4421.39:  SPP Avg 
 SPPN.psig             4130.00:  SPP Min 
 SPPX.psig             4800.00:  SPP Max 
 STIM.      01.25.20 07-Aug-21:  Start Time 
 SVCS.                 DD, MWD:  Services 
 SVER.                    9.20:  Sperry Version 
 TDAT.m                 699.00:  Tot Depth Attmp 
 TDDF.                      No:  Trip for DD 
 TDLG.m                 699.00:  Tot Depth Loggd 
 TFF .                      No:  Trip for Fail 
 TQAA.f-kp               20.55:  Torque Abs Avg 
 TQAN.f-kp               15.00:  Torque Abs Min 
 TQAX.f-kp               24.00:  Torque Abs Max 
 TRRT.°/30m               0.50:  Turn Rotating 
 MRT .                    HCIM:  Maximum Recorded Temperature 
 TTMX.degC               82.35:  Max Tool Temp 
 VS01.                90654677:  Virtual Str1 SN 
 VS02.                90636294:  Virtual Str2 SN 
 VS03.                90653866:  Virtual Str3 SN 
 VS04.                90654674:  Virtual Str4 SN 
 WBMN.klb                10.00:  WOB Min 
 WITN.         Haytham Mostafa:  Customer Rep 
 WITN.           Rufat Babayev:  Customer Rep 2 
 WOBA.klb                22.43:  WOB Avg 
 WOBX.klb                35.00:  WOB Max 
 YP  .lhf2               32.00:  Yield Point 
~Curve Information Block
#MNEM.UNIT                 API CODE     Curve Description
#---------               -----------    ---------------------------
 TIME.HHMMSS            00 000 000 000:  GT Time & Date
 GTDEPTH.m              00 000 000 000:  GT Depth
 GTPQH.psia             00 000 000 000:  GT HR Quartz Pressure
 GTTQ.degC              00 000 000 000:  GT Quartz Temperature
 GTTN.NONE              00 000 000 000:  GT Test Number
 GTET.sec               00 000 000 000:  GT Elapsed Test Time
 GTTVD.m                00 000 000 000:  GT True Vertical Depth
#Other Information
#
#WARRANTY: Halliburton will use its best efforts to furnish customers with 
#accurate information and interpretations that are part of, and incident to, the services 
#provided.  However, Halliburton cannot and does not warrant the accuracy 
#or correctness of such information and interpretations.  Under no circumstances should any 
#such information or interpretation be relied upon as the sole basis for any drilling, 
#completion, production, or financial decision or any procedure involving any risk to the 
#safety of any drilling venture, drilling rig or its crew or any other third party.  The 
#Customer has full responsibility for all drilling, completion and production operation.  
#Halliburton makes no representations or warranties, either expressed or 
#implied, including, but not limited to, the implied warranties of merchantability or fitness 
#for a particular purpose, with respect to the services rendered.  In no event will 
#Halliburton be liable for failure to obtain any particular results or for 
#any damages, including, but not limited to, indirect, special or consequential damages, 
#resulting from the use of any information or interpretation provided by Halliburton.
#
~A           TIME           GTDEPTH  GTPQH  GTTQ  GTTN  GTET   GTTVD  
# ...
   11:51:26.158.15-Aug-2021 3405.50 1948.36 53.86 5.00 229.86 3258.07
   11:51:26.358.15-Aug-2021 3405.50 1948.36 53.86 5.00 230.06 3258.07
   11:51:26.558.15-Aug-2021 3405.50 1950.56 53.86 5.00 230.26 3258.07
   11:51:26.758.15-Aug-2021 3405.50 1951.83 53.86 5.00 230.46 3258.07
   11:51:26.958.15-Aug-2021 3405.50 1953.14 53.87 5.00 230.66 3258.07
   11:51:27.158.15-Aug-2021 3405.50 1954.28 53.86 5.00 230.86 3258.07
   11:51:27.358.15-Aug-2021 3405.50 1954.28 53.86 5.00 231.06 3258.07
   11:51:27.557.15-Aug-2021 3405.50 1956.88 53.87 5.00 231.26 3258.07
   11:51:27.757.15-Aug-2021 3405.50 1958.59 53.87 5.00 231.46 3258.07
   11:51:27.957.15-Aug-2021 3405.50 1959.96 53.87 5.00 231.66 3258.07
   11:51:28.157.15-Aug-2021 3405.50 1961.06 53.87 5.00 231.86 3258.07
   11:51:28.357.15-Aug-2021 3405.50 1961.06 53.87 5.00 232.06 3258.07
   11:51:28.557.15-Aug-2021 3405.50 1963.29 53.87 5.00 232.26 3258.07
   11:51:28.757.15-Aug-2021 3405.50 1964.98 53.87 5.00 232.46 3258.07
   11:51:28.957.15-Aug-2021 3405.50 1966.08 53.87 5.00 232.66 3258.07
   11:51:29.156.15-Aug-2021 3405.50 1967.63 53.87 5.00 232.86 3258.07
   11:51:29.356.15-Aug-2021 3405.50 1967.63 53.87 5.00 233.06 3258.07
   11:51:29.556.15-Aug-2021 3405.50 1969.86 53.87 5.00 233.26 3258.07
   11:51:29.756.15-Aug-2021 3405.50 1970.91 53.87 5.00 233.46 3258.07
   11:51:29.956.15-Aug-2021 3405.50 1972.17 53.87 5.00 233.66 3258.07
   11:51:30.156.15-Aug-2021 3405.50 1973.37 53.87 5.00 233.86 3258.07
   11:51:30.356.15-Aug-2021 3405.50 1973.37 53.87 5.00 234.06 3258.07
   11:51:30.556.15-Aug-2021 3405.50 1976.21 53.87 5.00 234.26 3258.07
   11:51:30.756.15-Aug-2021 3405.50 1977.29 53.87 5.00 234.46 3258.07
   11:51:30.955.15-Aug-2021 3405.50 1978.48 53.87 5.00 234.66 3258.07
   11:51:31.155.15-Aug-2021 3405.50 1979.54 53.87 5.00 234.86 3258.07
   11:51:31.355.15-Aug-2021 3405.50 1979.54 53.87 5.00 235.06 3258.07
   11:51:31.555.15-Aug-2021 3405.50 1981.99 53.87 5.00 235.26 3258.07
   11:51:31.755.15-Aug-2021 3405.50 1983.54 53.87 5.00 235.46 3258.07
   11:51:31.955.15-Aug-2021 3405.50 1984.79 53.87 5.00 235.66 3258.07
   11:51:32.155.15-Aug-2021 3405.50 1985.87 53.87 5.00 235.86 3258.07
   11:51:32.355.15-Aug-2021 3405.50 1985.87 53.87 5.00 236.06 3258.07
   11:51:32.554.15-Aug-2021 3405.50 1988.35 53.87 5.00 236.26 3258.07
   11:51:32.754.15-Aug-2021 3405.50 1989.72 53.87 5.00 236.46 3258.07
   11:51:32.954.15-Aug-2021 3405.50 1990.98 53.87 5.00 236.66 3258.07
   11:51:33.154.15-Aug-2021 3405.50 1992.35 53.87 5.00 236.86 3258.07
   11:51:33.354.15-Aug-2021 3405.50 1992.35 53.87 5.00 237.06 3258.07
   11:51:33.554.15-Aug-2021 3405.50 1994.78 53.87 5.00 237.26 3258.07
   11:51:33.754.15-Aug-2021 3405.50 1995.98 53.87 5.00 237.46 3258.07
   11:51:33.954.15-Aug-2021 3405.50 1996.88 53.87 5.00 237.66 3258.07
   11:51:34.153.15-Aug-2021 3405.50 1997.83 53.87 5.00 237.86 3258.07
   11:51:34.353.15-Aug-2021 3405.50 1997.83 53.87 5.00 238.06 3258.07
   11:51:34.553.15-Aug-2021 3405.50 1999.84 53.87 5.00 238.26 3258.07
   11:51:34.753.15-Aug-2021 3405.50 2001.14 53.87 5.00 238.46 3258.07
   11:51:34.953.15-Aug-2021 3405.50 2002.53 53.87 5.00 238.66 3258.07
   11:51:35.153.15-Aug-2021 3405.50 2003.54 53.87 5.00 238.86 3258.07
   11:51:35.353.15-Aug-2021 3405.50 2003.54 53.87 5.00 239.06 3258.07
   11:51:35.553.15-Aug-2021 3405.50 2005.37 53.87 5.00 239.26 3258.07
   11:51:35.753.15-Aug-2021 3405.50 2006.20 53.87 5.00 239.46 3258.07
   11:51:35.952.15-Aug-2021 3405.50 2007.30 53.87 5.00 239.66 3258.07
   11:51:36.152.15-Aug-2021 3405.50 2008.34 53.87 5.00 239.86 3258.07
   11:51:36.352.15-Aug-2021 3405.50 2008.34 53.87 5.00 240.06 3258.07
   11:51:36.552.15-Aug-2021 3405.50 2010.55 53.87 5.00 240.26 3258.07
   11:51:36.752.15-Aug-2021 3405.50 2011.46 53.87 5.00 240.46 3258.07
   11:51:36.952.15-Aug-2021 3405.50 2012.48 53.87 5.00 240.66 3258.07
   11:51:37.152.15-Aug-2021 3405.50 2013.62 53.87 5.00 240.86 3258.07
   11:51:37.352.15-Aug-2021 3405.50 2013.62 53.87 5.00 241.05 3258.07
   11:51:37.551.15-Aug-2021 3405.50 2016.09 53.87 5.00 241.25 3258.07
   11:51:37.751.15-Aug-2021 3405.50 2017.22 53.87 5.00 241.45 3258.07
   11:51:37.951.15-Aug-2021 3405.50 2018.25 53.87 5.00 241.65 3258.07
   11:51:38.151.15-Aug-2021 3405.50 2019.03 53.87 5.00 241.85 3258.07
   11:51:38.351.15-Aug-2021 3405.50 2019.03 53.87 5.00 242.05 3258.07
   11:51:38.551.15-Aug-2021 3405.50 2021.36 53.87 5.00 242.25 3258.07
   11:51:38.751.15-Aug-2021 3405.50 2022.04 53.87 5.00 242.45 3258.07
   11:51:38.951.15-Aug-2021 3405.50 2023.38 53.87 5.00 242.65 3258.07
   11:51:39.150.15-Aug-2021 3405.50 2024.36 53.87 5.00 242.85 3258.07
   11:51:39.350.15-Aug-2021 3405.50 2024.36 53.87 5.00 243.05 3258.07
   11:51:39.550.15-Aug-2021 3405.50 2026.27 53.87 5.00 243.25 3258.07
   11:51:39.750.15-Aug-2021 3405.50 2027.16 53.87 5.00 243.45 3258.07
   11:51:39.950.15-Aug-2021 3405.50 2027.92 53.87 5.00 243.65 3258.07
   11:51:40.150.15-Aug-2021 3405.50 2029.10 53.87 5.00 243.85 3258.07
   11:51:40.350.15-Aug-2021 3405.50 2029.10 53.87 5.00 244.05 3258.07
   11:51:40.550.15-Aug-2021 3405.50 2031.37 53.87 5.00 244.25 3258.07
   11:51:40.750.15-Aug-2021 3405.50 2032.38 53.87 5.00 244.45 3258.07
   11:51:40.949.15-Aug-2021 3405.50 2033.70 53.87 5.00 244.65 3258.07
   11:51:41.149.15-Aug-2021 3405.50 2034.59 53.87 5.00 244.85 3258.07
   11:51:41.349.15-Aug-2021 3405.50 2034.59 53.87 5.00 245.05 3258.07
   11:51:41.549.15-Aug-2021 3405.50 2036.59 53.87 5.00 245.25 3258.07
   11:51:41.749.15-Aug-2021 3405.50 2037.77 53.87 5.00 245.45 3258.07
   11:51:41.949.15-Aug-2021 3405.50 2038.76 53.87 5.00 245.65 3258.07
   11:51:42.149.15-Aug-2021 3405.50 2039.88 53.87 5.00 245.85 3258.07
   11:51:42.349.15-Aug-2021 3405.50 2039.88 53.87 5.00 246.05 3258.07
   11:51:42.548.15-Aug-2021 3405.50 2041.62 53.87 5.00 246.25 3258.07
   11:51:42.748.15-Aug-2021 3405.50 2042.49 53.87 5.00 246.45 3258.07
   11:51:42.948.15-Aug-2021 3405.50 2043.34 53.87 5.00 246.65 3258.07
   11:51:43.148.15-Aug-2021 3405.50 2044.03 53.87 5.00 246.85 3258.07
   11:51:43.348.15-Aug-2021 3405.50 2044.03 53.87 5.00 247.05 3258.07
   11:51:43.548.15-Aug-2021 3405.50 2046.11 53.87 5.00 247.25 3258.07
   11:51:43.748.15-Aug-2021 3405.50 2047.03 53.87 5.00 247.45 3258.07
   11:51:43.948.15-Aug-2021 3405.50 2047.84 53.87 5.00 247.65 3258.07
   11:51:44.147.15-Aug-2021 3405.50 2048.61 53.87 5.00 247.85 3258.07
   11:51:44.347.15-Aug-2021 3405.50 2048.61 53.87 5.00 248.05 3258.07
   11:51:44.547.15-Aug-2021 3405.50 2050.16 53.87 5.00 248.25 3258.07
   11:51:44.747.15-Aug-2021 3405.50 2051.02 53.87 5.00 248.45 3258.07
   11:51:44.947.15-Aug-2021 3405.50 2051.76 53.87 5.00 248.65 3258.07
   11:51:45.147.15-Aug-2021 3405.50 2052.86 53.87 5.00 248.85 3258.07
   11:51:45.347.15-Aug-2021 3405.50 2052.86 53.87 5.00 249.05 3258.07
   11:51:45.547.15-Aug-2021 3405.50 2054.60 53.87 5.00 249.25 3258.07
   11:51:45.747.15-Aug-2021 3405.50 2055.66 53.87 5.00 249.45 3258.07
   11:51:45.946.15-Aug-2021 3405.50 2056.56 53.87 5.00 249.65 3258.07
   11:51:46.146.15-Aug-2021 3405.50 2057.41 53.87 5.00 249.85 3258.07
   11:51:46.346.15-Aug-2021 3405.50 2057.41 53.87 5.00 250.05 3258.07
   11:51:46.546.15-Aug-2021 3405.50 2059.49 53.87 5.00 250.25 3258.07
   11:51:46.746.15-Aug-2021 3405.50 2060.34 53.87 5.00 250.45 3258.07
   11:51:46.946.15-Aug-2021 3405.50 2061.08 53.87 5.00 250.65 3258.07
   11:51:47.146.15-Aug-2021 3405.50 2061.98 53.87 5.00 250.85 3258.07
   11:51:47.346.15-Aug-2021 3405.50 2061.98 53.87 5.00 251.05 3258.07
   11:51:47.545.15-Aug-2021 3405.50 2063.52 53.87 5.00 251.25 3258.07
   11:51:47.745.15-Aug-2021 3405.50 2064.54 53.87 5.00 251.45 3258.07
   11:51:47.945.15-Aug-2021 3405.50 2065.65 53.87 5.00 251.65 3258.07
   11:51:48.145.15-Aug-2021 3405.50 2066.46 53.87 5.00 251.85 3258.07
   11:51:48.345.15-Aug-2021 3405.50 2066.46 53.87 5.00 252.05 3258.07
   11:51:48.545.15-Aug-2021 3405.50 2067.98 53.87 5.00 252.25 3258.07
   11:51:48.745.15-Aug-2021 3405.50 2068.67 53.87 5.00 252.45 3258.07
   11:51:48.945.15-Aug-2021 3405.50 2069.57 53.87 5.00 252.65 3258.07
