~Version Information
 VERS.                  2.0:   CWLS log ASCII Standard -VERSION 2.0
 WRAP.                   NO:   One line per depth step
~Well Information Block
#MNEM.UNIT     VALUE/NAME     DESCRIPTION
#---------     -----------    ---------------------------
 STRT.S             09:29:08 15-Aug-21: START TIME 09:29:08 15-Aug-21
 STOP.S             09:37:37 15-Aug-21: STOP TIME  09:37:37 15-Aug-21
 STEP.S                   0.00: STEP TIME
 NULL.                 -999.25: NULL VALUE
 DFWT.                        :  DIST FWL TEXT
 DFST.                        :  DIST FSL TEXT
 DMF .             Drill Floor:  DRILL MEAS FROM
 STIM.      17.18.56 20-Jun-21:  START TIME
 DATE.      17.18.56 20-Aug-21:  END TIME
 SPUD.               20-Jun-21:  SPUD DATE
 NREF.                    Grid:  NORTH REFERENCE
 HPTY.       Minimum Curvature:  HOLE POS TYPE
 DMOD.             Drill Model:  DRILL MOD DESC
 SVYD.                  Survey:  SURVEY DESC
 ILTD.               Lithology:  INTERP LTH DESC
 FTOP.          Formation Tops:  FORM TOPS DESC
 SON .        AZ-XX-0907056190:  JOB NUMBER
 PDAT.       Caspian Sea Level:  PERMANENT DATUM
 WTYP.                Deviated:  WELL TYPE
 MDS .        Operator Entered:  MAG DATA SOURCE
 COMP.     BP Exploration (Caspian Sea) Ltd.:  COMPANY
 UWI .            /AZE20000092:  UNIQUE WELL IDENTIFIER
 API .            /AZE20000092:  API NUMBER
 BASE.              Azerbaijan:  LOGGING EQUIPMENT BASE LOCATION
 REGN.                   EESSA:  REGION
 PROV.                    baku:  PROVINCE
 STAT.                    baku:  STATE NAME
 CTRY.              Azerbaijan:  COUNTRY NAME
 FLD .                     ACG:  FIELD NAME
 SRVC.          Turan Drilling:  CONTRACTOR
 MWDS.                    Baku:  MWD SHOP
 WELL.                     J26:  WELL NAME
 JOBN.        AZ-XX-0907056190:  JOB TICKET NUMB
 RIG .             West Chirag:  RIG NAME
 DOE .                     N/A:  DOE NUMBER
 DCON.         Sperry Drilling:  DIRECTNL CONTR
 UNIT.                     N/A:  LOGGING EQUIPMENT ID
 CNTY.                        :  COUNTY
 LOC .                        :  LOCATION
 LMF .             Drill Floor:  LOG MEASURED FROM
 TVDS.m                  43.00:  TVDSS CORRECTN
 LATI.deg                40.13:  LATITUDE
 LONG.deg                51.22:  LONGITUDE
 WHNS.m                  -7.12:  WELL HEAD N/S
 WHEW.m                  -9.46:  WELL HEAD E/W
 UTMX.m              519004.02:  UTM X
 UTMY.m             4443784.96:  UTM Y
 DFWL.m                   0.00:  DISTANCE FWL
 DFSL.m                   0.00:  DISTANCE FSL
 SDEP.m                 464.00:  START DEPTH
 TDD .m                3500.00:  TOTAL DEPTH (DRILLER)
 VSDR.deg               114.35:  VERT SEC DIRECT
 GVFD.g                   1.00:  GRAVITY FIELD
 MFLD.nT              50386.00:  MAGNETIC FIELD
 MDIP.deg                59.63:  MAGNETIC DIP
 MDEC.deg                 6.43:  MAGNETIC DECL
 GRDC.deg                 0.15:  GRID CORRECTION
 AZTC.deg                 6.29:  AZM TOTAL CORR
 EPD .m                   0.00:  ELEVATION
 EGL .m                   0.00:  GROUND ELEVATION
 WDMS.m                 169.80:  WD ELEV
 APD .m                  43.00:  DEPTH ABOVE PD
 VSEW.m                  -9.46:  VERT SEC E/W
 VSNS.m                  -7.12:  VERT SEC N/S
 AGAP.m                  43.00:  AIR GAP
 DEP .m                 356.16:  DEPTH
 EKB .m                  43.00:  KB ELEVATION
 EDF .m                  43.00:  DF ELEVATION
 TDL .m                 699.00:  TOTAL DEPTH (LOGGER)
 VSC .                       0:  VS TO CLOSURE
 MAGU.                 1853727:  MAGUTM CHECKSUM
~Parameter Information Block
#MNEM.UNIT       Value        Description
#---------     -----------    ---------------------------
 AV  .mps                 1.30:  Ann Velocity 
 AVMX.mps                 1.67:  Max Ann Veloc 
 AZIF.deg               280.40:  Azm, Final 
 BHAT.        Rotary Steerable:  BHA Type 
 BREV.rev            528970.00:  Rev Bit Total 
 BROT.°/30m               1.00:  Build Rotating 
 BS  .in                 12.25:  Bit Size 
 BSZ .in                 12.25:  Bit Size 
 BTPL.psig              738.00:  Bit Press Loss 
 CABU.                     Yes:  Customer Abuse 
 CGEO.        Elvin Suleymanov:  Customer Geo 
 COMM.                     œR:  Run Comments 1 
 TCS .hr                 66.05:  Time Ciculation Ended 
 CV  .mps                 2.20:  Crit Velocity 
 CVMX.mps                 2.56:  Max Crit Veloc 
 DD1 .          Rashad Habibov:  Direct Drillr 1 
 DD2 .            Azer ravanov:  Direct Drillr 2 
 DD3 .           Teymur Agayev:  Direct Drillr 3 
 DDSV.               Geo-Pilot:  DD Service 
 DEFF.%                  90.00:  % Det Eff 
 DLRX.°/30m               2.95:  Dogleg Rot Max 
 DLSO.°/30m               1.00:  Dogleg Oriented 
 DLSX.°/30m               2.95:  Dogleg Str Max 
 DRET.      11.42.20 11-Aug-21:  Drill End Time 
 DRST.      23.03.20 08-Aug-21:  Drill Start Tim 
 DTIM.hr                 45.50:  Time Drilling 
 EDEP.m                3488.00:  End Depth 
 ENG1.         Marcelo Marcari:  Engineer 1 
 ENG2.         Dair Mahammadov:  Engineer 2 
 ENG3.       Davud Huseyn-zada:  Engineer 3 
 ENG4.         Yevgeniy Ulikov:  Engineer 4 
 ETIM.      17.45.20 17-Aug-21:  End Time 
 FLOI.gpm              1197.70:  Flow In 
 FLON.gpm              1100.00:  Flow In Min 
 FLOS.cptm                0.00:  Fluid Loss 
 FLOX.gpm              1200.00:  Flow In Max 
 DFT .        Mineral Oil Base:  Mud Type 
 FTRO.       Formation Presure:  FTWD Run Obj 
 HFLO.                      No:  High Flow 
 HPRE.                      No:  High Pressure 
 HTEM.                      No:  High Temp 
 HYDO.m                   1.80:  Hydro Offset 
 IFIN.deg                 9.87:  Inc, Final 
 IMAX.deg                19.96:  Inc Max 
 IMIN.deg                 3.82:  Inc Min 
 IMND.m                3257.42:  Inc Min Depth 
 IMXD.m                2945.53:  Inc Max Depth 
 JARR.                      No:  Jarring 
 LETM.      11.42.20 11-Aug-21:  Log End Time 
 LOST.hr                     0:  Lost Rig Time 
 LSTM.      23.03.20 08-Aug-21:  Log Start Time 
 MDCL.ppm             42500.00:  Mud Chlorides 
 MDES.     Inversion Oil/Synthetic:  Mud Desc 
 DFD .sg                  1.45:  Mud Density 
 MDMN.sg                  1.39:  Dens Mud Min 
 MDMX.sg                  1.57:  Dens Mud Max 
 MOIL.                   53.20:  Run Mud Oil % 
 MOWR.                   70:30:  Run Mud OWR 
 MSND.                       0:  Run Mud Sand % 
 MSOL.                   24.30:  Run Mud Solids% 
 DFV .spqt               79.00:  Mud Viscosity 
 MWOD.in                  8.00:  MWD Tool OD 
 MWSI.                      No:  Serv Intrp, MWD 
 OTIM.hr                253.06:  Time Operating 
 PCON.           Look Like New:  Pad Condition 
 PMAX.psia            11068.93:  Press Op, Max 
 PV  .cP                 36.00:  Mud PV 
 RUN .                    1000:  Run Number 
 ROPA.m/hr               15.34:  ROP Avg 
 ROPN.m/hr                4.00:  ROP Min 
 ROPX.m/hr               31.00:  ROP Max 
 RPMA.rpm               151.40:  RPM Surface Avg 
 RPMN.rpm               120.00:  RPM Surface Min 
 RPMX.rpm               160.00:  RPM Surface Max 
 RRUN.                    L505:  Rig Run Number 
 RTIM.hr                 10.00:  Time Reaming 
 SAZI.deg                88.92:  Azm, Start 
 SDEP.m                2789.00:  Start Depth 
 SIDD.                      No:  Serv Intrp, DD 
 SINC.deg                19.84:  Inc, Start 
 SPPA.psig             4421.39:  SPP Avg 
 SPPN.psig             4130.00:  SPP Min 
 SPPX.psig             4800.00:  SPP Max 
 STIM.      01.25.20 07-Aug-21:  Start Time 
 SVCS.                 DD, MWD:  Services 
 SVER.                    9.20:  Sperry Version 
 TDAT.m                 699.00:  Tot Depth Attmp 
 TDDF.                      No:  Trip for DD 
 TDLG.m                 699.00:  Tot Depth Loggd 
 TFF .                      No:  Trip for Fail 
 TQAA.f-kp               20.55:  Torque Abs Avg 
 TQAN.f-kp               15.00:  Torque Abs Min 
 TQAX.f-kp               24.00:  Torque Abs Max 
 TRRT.°/30m               0.50:  Turn Rotating 
 MRT .                    HCIM:  Maximum Recorded Temperature 
 TTMX.degC               82.35:  Max Tool Temp 
 VS01.                90654677:  Virtual Str1 SN 
 VS02.                90636294:  Virtual Str2 SN 
 VS03.                90653866:  Virtual Str3 SN 
 VS04.                90654674:  Virtual Str4 SN 
 WBMN.klb                10.00:  WOB Min 
 WITN.         Haytham Mostafa:  Customer Rep 
 WITN.           Rufat Babayev:  Customer Rep 2 
 WOBA.klb                22.43:  WOB Avg 
 WOBX.klb                35.00:  WOB Max 
 YP  .lhf2               32.00:  Yield Point 
~Curve Information Block
#MNEM.UNIT                 API CODE     Curve Description
#---------               -----------    ---------------------------
 TIME.HHMMSS            00 000 000 000:  GT Time & Date
 GTDEPTH.m              00 000 000 000:  GT Depth
 GTPQH.psia             00 000 000 000:  GT HR Quartz Pressure
 GTTQ.degC              00 000 000 000:  GT Quartz Temperature
 GTTN.NONE              00 000 000 000:  GT Test Number
 GTET.sec               00 000 000 000:  GT Elapsed Test Time
 GTTVD.m                00 000 000 000:  GT True Vertical Depth
#Other Information
#
#WARRANTY: Halliburton will use its best efforts to furnish customers with 
#accurate information and interpretations that are part of, and incident to, the services 
#provided.  However, Halliburton cannot and does not warrant the accuracy 
#or correctness of such information and interpretations.  Under no circumstances should any 
#such information or interpretation be relied upon as the sole basis for any drilling, 
#completion, production, or financial decision or any procedure involving any risk to the 
#safety of any drilling venture, drilling rig or its crew or any other third party.  The 
#Customer has full responsibility for all drilling, completion and production operation.  
#Halliburton makes no representations or warranties, either expressed or 
#implied, including, but not limited to, the implied warranties of merchantability or fitness 
#for a particular purpose, with respect to the services rendered.  In no event will 
#Halliburton be liable for failure to obtain any particular results or for 
#any damages, including, but not limited to, indirect, special or consequential damages, 
#resulting from the use of any information or interpretation provided by Halliburton.
#
~A           TIME           GTDEPTH  GTPQH  GTTQ  GTTN  GTET   GTTVD  
# ...
   09:34:07.880.15-Aug-2021 3421.80 5165.99 55.06 3.00 299.05 3274.11
   09:34:08.080.15-Aug-2021 3421.80 5165.99 55.06 3.00 299.25 3274.11
   09:34:08.280.15-Aug-2021 3421.80 5167.06 55.06 3.00 299.45 3274.11
   09:34:08.480.15-Aug-2021 3421.80 5168.02 55.06 3.00 299.65 3274.11
   09:34:08.680.15-Aug-2021 3421.80 5168.91 55.06 3.00 299.85 3274.11
   09:34:08.880.15-Aug-2021 3421.80 5169.34 55.06 3.00 300.05 3274.11
   09:34:09.080.15-Aug-2021 3421.80 5169.34 55.06 3.00 300.25 3274.11
   09:34:09.280.15-Aug-2021 3421.80 5170.80 55.06 3.00 300.45 3274.11
   09:34:09.480.15-Aug-2021 3421.80 5171.55 55.06 3.00 300.65 3274.11
   09:34:09.680.15-Aug-2021 3421.80 5172.03 55.06 3.00 300.85 3274.11
   09:34:09.880.15-Aug-2021 3421.80 5172.55 55.06 3.00 301.05 3274.11
   09:34:10.080.15-Aug-2021 3421.80 5172.55 55.06 3.00 301.25 3274.11
   09:34:10.280.15-Aug-2021 3421.80 5173.93 55.06 3.00 301.45 3274.11
   09:34:10.480.15-Aug-2021 3421.80 5174.42 55.06 3.00 301.65 3274.11
   09:34:10.680.15-Aug-2021 3421.80 5175.10 55.06 3.00 301.85 3274.11
   09:34:10.880.15-Aug-2021 3421.80 5175.66 55.06 3.00 302.05 3274.11
   09:34:11.080.15-Aug-2021 3421.80 5175.66 55.06 3.00 302.25 3274.11
   09:34:11.280.15-Aug-2021 3421.80 5176.63 55.06 3.00 302.45 3274.11
   09:34:11.480.15-Aug-2021 3421.80 5177.24 55.06 3.00 302.65 3274.11
   09:34:11.680.15-Aug-2021 3421.80 5177.81 55.06 3.00 302.85 3274.11
   09:34:11.880.15-Aug-2021 3421.80 5178.41 55.05 3.00 303.05 3274.11
   09:34:12.080.15-Aug-2021 3421.80 5178.41 55.05 3.00 303.25 3274.11
   09:34:12.280.15-Aug-2021 3421.80 5180.15 55.05 3.00 303.45 3274.11
   09:34:12.480.15-Aug-2021 3421.80 5180.67 55.05 3.00 303.65 3274.11
   09:34:12.680.15-Aug-2021 3421.80 5181.12 55.05 3.00 303.85 3274.11
   09:34:12.880.15-Aug-2021 3421.80 5181.51 55.05 3.00 304.05 3274.11
   09:34:13.080.15-Aug-2021 3421.80 5181.51 55.05 3.00 304.25 3274.11
   09:34:13.281.15-Aug-2021 3421.80 5183.30 55.05 3.00 304.45 3274.11
   09:34:13.481.15-Aug-2021 3421.80 5183.68 55.05 3.00 304.65 3274.11
   09:34:13.681.15-Aug-2021 3421.80 5184.03 55.05 3.00 304.85 3274.11
   09:34:13.881.15-Aug-2021 3421.80 5184.29 55.05 3.00 305.05 3274.11
   09:34:14.081.15-Aug-2021 3421.80 5184.29 55.05 3.00 305.25 3274.11
   09:34:14.281.15-Aug-2021 3421.80 5184.29 55.05 3.00 305.45 3274.11
   09:34:14.481.15-Aug-2021 3421.80 5185.77 55.05 3.00 305.65 3274.11
   09:34:14.681.15-Aug-2021 3421.80 5186.27 55.05 3.00 305.85 3274.11
   09:34:14.881.15-Aug-2021 3421.80 5186.77 55.05 3.00 306.05 3274.11
   09:34:15.081.15-Aug-2021 3421.80 5186.77 55.05 3.00 306.25 3274.11
   09:34:15.281.15-Aug-2021 3421.80 5188.02 55.05 3.00 306.45 3274.11
   09:34:15.481.15-Aug-2021 3421.80 5188.38 55.05 3.00 306.65 3274.11
   09:34:15.681.15-Aug-2021 3421.80 5188.93 55.05 3.00 306.85 3274.11
   09:34:15.881.15-Aug-2021 3421.80 5189.43 55.05 3.00 307.05 3274.11
   09:34:16.081.15-Aug-2021 3421.80 5189.43 55.05 3.00 307.25 3274.11
   09:34:16.281.15-Aug-2021 3421.80 5190.71 55.05 3.00 307.45 3274.11
   09:34:16.481.15-Aug-2021 3421.80 5191.30 55.05 3.00 307.65 3274.11
   09:34:16.681.15-Aug-2021 3421.80 5191.68 55.05 3.00 307.85 3274.11
   09:34:16.881.15-Aug-2021 3421.80 5192.05 55.05 3.00 308.05 3274.11
   09:34:17.081.15-Aug-2021 3421.80 5192.05 55.05 3.00 308.25 3274.11
   09:34:17.281.15-Aug-2021 3421.80 5193.37 55.05 3.00 308.45 3274.11
   09:34:17.481.15-Aug-2021 3421.80 5193.78 55.05 3.00 308.65 3274.11
   09:34:17.681.15-Aug-2021 3421.80 5194.25 55.05 3.00 308.85 3274.11
   09:34:17.881.15-Aug-2021 3421.80 5194.58 55.05 3.00 309.05 3274.11
   09:34:18.081.15-Aug-2021 3421.80 5194.58 55.05 3.00 309.25 3274.11
   09:34:18.281.15-Aug-2021 3421.80 5194.91 55.05 3.00 309.45 3274.11
   09:34:18.481.15-Aug-2021 3421.80 5196.60 55.05 3.00 309.65 3274.11
   09:34:18.681.15-Aug-2021 3421.80 5196.83 55.05 3.00 309.85 3274.11
   09:34:18.881.15-Aug-2021 3421.80 5197.21 55.05 3.00 310.05 3274.11
   09:34:19.081.15-Aug-2021 3421.80 5197.21 55.05 3.00 310.25 3274.11
   09:34:19.282.15-Aug-2021 3421.80 5198.02 55.05 3.00 310.45 3274.11
   09:34:19.482.15-Aug-2021 3421.80 5198.51 55.05 3.00 310.65 3274.11
   09:34:19.682.15-Aug-2021 3421.80 5198.93 55.05 3.00 310.85 3274.11
   09:34:19.882.15-Aug-2021 3421.80 5199.32 55.05 3.00 311.05 3274.11
   09:34:20.082.15-Aug-2021 3421.80 5199.32 55.05 3.00 311.25 3274.11
   09:34:20.282.15-Aug-2021 3421.80 5200.72 55.05 3.00 311.45 3274.11
   09:34:20.482.15-Aug-2021 3421.80 5201.17 55.05 3.00 311.65 3274.11
   09:34:20.682.15-Aug-2021 3421.80 5201.67 55.05 3.00 311.85 3274.11
   09:34:20.882.15-Aug-2021 3421.80 5202.08 55.05 3.00 312.05 3274.11
   09:34:21.082.15-Aug-2021 3421.80 5202.08 55.05 3.00 312.25 3274.11
   09:34:21.282.15-Aug-2021 3421.80 5202.97 55.05 3.00 312.45 3274.11
   09:34:21.482.15-Aug-2021 3421.80 5203.54 55.05 3.00 312.65 3274.11
   09:34:21.682.15-Aug-2021 3421.80 5203.96 55.05 3.00 312.85 3274.11
   09:34:21.882.15-Aug-2021 3421.80 5204.36 55.05 3.00 313.05 3274.11
   09:34:22.082.15-Aug-2021 3421.80 5204.36 55.05 3.00 313.25 3274.11
   09:34:22.282.15-Aug-2021 3421.80 5204.60 55.05 3.00 313.45 3274.11
   09:34:22.482.15-Aug-2021 3421.80 5205.31 55.05 3.00 313.65 3274.11
   09:34:22.682.15-Aug-2021 3421.80 5205.75 55.05 3.00 313.85 3274.11
   09:34:22.882.15-Aug-2021 3421.80 5206.66 55.05 3.00 314.05 3274.11
   09:34:23.082.15-Aug-2021 3421.80 5206.66 55.05 3.00 314.25 3274.11
   09:34:23.282.15-Aug-2021 3421.80 5207.42 55.05 3.00 314.45 3274.11
   09:34:23.482.15-Aug-2021 3421.80 5207.91 55.05 3.00 314.65 3274.11
   09:34:23.682.15-Aug-2021 3421.80 5208.50 55.05 3.00 314.85 3274.11
   09:34:23.882.15-Aug-2021 3421.80 5208.87 55.05 3.00 315.05 3274.11
   09:34:24.082.15-Aug-2021 3421.80 5208.87 55.05 3.00 315.25 3274.11
   09:34:24.282.15-Aug-2021 3421.80 5209.55 55.05 3.00 315.45 3274.11
   09:34:24.482.15-Aug-2021 3421.80 5209.90 55.05 3.00 315.65 3274.11
   09:34:24.682.15-Aug-2021 3421.80 5210.50 55.05 3.00 315.85 3274.11
   09:34:24.882.15-Aug-2021 3421.80 5211.02 55.05 3.00 316.05 3274.11
   09:34:25.082.15-Aug-2021 3421.80 5211.02 55.05 3.00 316.25 3274.11
   09:34:25.282.15-Aug-2021 3421.80 5211.61 55.05 3.00 316.45 3274.11
   09:34:25.483.15-Aug-2021 3421.80 5212.18 55.05 3.00 316.65 3274.11
   09:34:25.683.15-Aug-2021 3421.80 5212.64 55.05 3.00 316.85 3274.11
   09:34:25.883.15-Aug-2021 3421.80 5212.94 55.05 3.00 317.05 3274.11
   09:34:26.083.15-Aug-2021 3421.80 5212.94 55.05 3.00 317.25 3274.11
   09:34:26.283.15-Aug-2021 3421.80 5213.58 55.05 3.00 317.45 3274.11
   09:34:26.483.15-Aug-2021 3421.80 5213.79 55.05 3.00 317.65 3274.11
   09:34:26.683.15-Aug-2021 3421.80 5214.04 55.05 3.00 317.85 3274.11
   09:34:26.883.15-Aug-2021 3421.80 5214.27 55.05 3.00 318.05 3274.11
   09:34:27.083.15-Aug-2021 3421.80 5214.27 55.05 3.00 318.25 3274.11
   09:34:27.283.15-Aug-2021 3421.80 5215.63 55.05 3.00 318.45 3274.11
   09:34:27.483.15-Aug-2021 3421.80 5215.93 55.05 3.00 318.65 3274.11
   09:34:27.683.15-Aug-2021 3421.80 5216.30 55.05 3.00 318.85 3274.11
   09:34:27.883.15-Aug-2021 3421.80 5216.50 55.05 3.00 319.05 3274.11
   09:34:28.083.15-Aug-2021 3421.80 5216.50 55.05 3.00 319.25 3274.11
   09:34:28.283.15-Aug-2021 3421.80 5216.87 55.05 3.00 319.45 3274.11
   09:34:28.483.15-Aug-2021 3421.80 5217.18 55.05 3.00 319.65 3274.11
   09:34:28.683.15-Aug-2021 3421.80 5217.59 55.05 3.00 319.85 3274.11
   09:34:28.883.15-Aug-2021 3421.80 5218.49 55.05 3.00 320.05 3274.11
   09:34:29.083.15-Aug-2021 3421.80 5218.49 55.05 3.00 320.25 3274.11
   09:34:29.283.15-Aug-2021 3421.80 5219.34 55.05 3.00 320.45 3274.11
   09:34:29.483.15-Aug-2021 3421.80 5219.61 55.05 3.00 320.65 3274.11
   09:34:29.683.15-Aug-2021 3421.80 5219.78 55.05 3.00 320.85 3274.11
   09:34:29.883.15-Aug-2021 3421.80 5219.93 55.05 3.00 321.05 3274.11
   09:34:30.083.15-Aug-2021 3421.80 5219.93 55.05 3.00 321.25 3274.11
   09:34:30.283.15-Aug-2021 3421.80 5221.20 55.05 3.00 321.45 3274.11
   09:34:30.483.15-Aug-2021 3421.80 5221.37 55.05 3.00 321.65 3274.11
   09:34:30.683.15-Aug-2021 3421.80 5221.59 55.04 3.00 321.85 3274.11
