~Version Information
 VERS.                  2.0:   CWLS log ASCII Standard -VERSION 2.0
 WRAP.                   NO:   One line per depth step
~Well Information Block
#MNEM.UNIT     VALUE/NAME     DESCRIPTION
#---------     -----------    ---------------------------
 STRT.S             11:47:36 15-Aug-21: START TIME 11:47:36 15-Aug-21
 STOP.S             11:55:59 15-Aug-21: STOP TIME  11:55:59 15-Aug-21
 STEP.S                   0.00: STEP TIME
 NULL.                 -999.25: NULL VALUE
 DFWT.                        :  DIST FWL TEXT
 DFST.                        :  DIST FSL TEXT
 DMF .             Drill Floor:  DRILL MEAS FROM
 STIM.      17.18.56 20-Jun-21:  START TIME
 DATE.      17.18.56 20-Aug-21:  END TIME
 SPUD.               20-Jun-21:  SPUD DATE
 NREF.                    Grid:  NORTH REFERENCE
 HPTY.       Minimum Curvature:  HOLE POS TYPE
 DMOD.             Drill Model:  DRILL MOD DESC
 SVYD.                  Survey:  SURVEY DESC
 ILTD.               Lithology:  INTERP LTH DESC
 FTOP.          Formation Tops:  FORM TOPS DESC
 SON .        AZ-XX-0907056190:  JOB NUMBER
 PDAT.       Caspian Sea Level:  PERMANENT DATUM
 WTYP.                Deviated:  WELL TYPE
 MDS .        Operator Entered:  MAG DATA SOURCE
 COMP.     BP Exploration (Caspian Sea) Ltd.:  COMPANY
 UWI .            /AZE20000092:  UNIQUE WELL IDENTIFIER
 API .            /AZE20000092:  API NUMBER
 BASE.              Azerbaijan:  LOGGING EQUIPMENT BASE LOCATION
 REGN.                   EESSA:  REGION
 PROV.                    baku:  PROVINCE
 STAT.                    baku:  STATE NAME
 CTRY.              Azerbaijan:  COUNTRY NAME
 FLD .                     ACG:  FIELD NAME
 SRVC.          Turan Drilling:  CONTRACTOR
 MWDS.                    Baku:  MWD SHOP
 WELL.                     J26:  WELL NAME
 JOBN.        AZ-XX-0907056190:  JOB TICKET NUMB
 RIG .             West Chirag:  RIG NAME
 DOE .                     N/A:  DOE NUMBER
 DCON.         Sperry Drilling:  DIRECTNL CONTR
 UNIT.                     N/A:  LOGGING EQUIPMENT ID
 CNTY.                        :  COUNTY
 LOC .                        :  LOCATION
 LMF .             Drill Floor:  LOG MEASURED FROM
 TVDS.m                  43.00:  TVDSS CORRECTN
 LATI.deg                40.13:  LATITUDE
 LONG.deg                51.22:  LONGITUDE
 WHNS.m                  -7.12:  WELL HEAD N/S
 WHEW.m                  -9.46:  WELL HEAD E/W
 UTMX.m              519004.02:  UTM X
 UTMY.m             4443784.96:  UTM Y
 DFWL.m                   0.00:  DISTANCE FWL
 DFSL.m                   0.00:  DISTANCE FSL
 SDEP.m                 464.00:  START DEPTH
 TDD .m                3500.00:  TOTAL DEPTH (DRILLER)
 VSDR.deg               114.35:  VERT SEC DIRECT
 GVFD.g                   1.00:  GRAVITY FIELD
 MFLD.nT              50386.00:  MAGNETIC FIELD
 MDIP.deg                59.63:  MAGNETIC DIP
 MDEC.deg                 6.43:  MAGNETIC DECL
 GRDC.deg                 0.15:  GRID CORRECTION
 AZTC.deg                 6.29:  AZM TOTAL CORR
 EPD .m                   0.00:  ELEVATION
 EGL .m                   0.00:  GROUND ELEVATION
 WDMS.m                 169.80:  WD ELEV
 APD .m                  43.00:  DEPTH ABOVE PD
 VSEW.m                  -9.46:  VERT SEC E/W
 VSNS.m                  -7.12:  VERT SEC N/S
 AGAP.m                  43.00:  AIR GAP
 DEP .m                 356.16:  DEPTH
 EKB .m                  43.00:  KB ELEVATION
 EDF .m                  43.00:  DF ELEVATION
 TDL .m                 699.00:  TOTAL DEPTH (LOGGER)
 VSC .                       0:  VS TO CLOSURE
 MAGU.                 1853727:  MAGUTM CHECKSUM
~Parameter Information Block
#MNEM.UNIT       Value        Description
#---------     -----------    ---------------------------
 AV  .mps                 1.30:  Ann Velocity 
 AVMX.mps                 1.67:  Max Ann Veloc 
 AZIF.deg               280.40:  Azm, Final 
 BHAT.        Rotary Steerable:  BHA Type 
 BREV.rev            528970.00:  Rev Bit Total 
 BROT.°/30m               1.00:  Build Rotating 
 BS  .in                 12.25:  Bit Size 
 BSZ .in                 12.25:  Bit Size 
 BTPL.psig              738.00:  Bit Press Loss 
 CABU.                     Yes:  Customer Abuse 
 CGEO.        Elvin Suleymanov:  Customer Geo 
 COMM.                     lþe:  Run Comments 1 
 TCS .hr                 66.05:  Time Ciculation Ended 
 CV  .mps                 2.20:  Crit Velocity 
 CVMX.mps                 2.56:  Max Crit Veloc 
 DD1 .          Rashad Habibov:  Direct Drillr 1 
 DD2 .            Azer ravanov:  Direct Drillr 2 
 DD3 .           Teymur Agayev:  Direct Drillr 3 
 DDSV.               Geo-Pilot:  DD Service 
 DEFF.%                  90.00:  % Det Eff 
 DLRX.°/30m               2.95:  Dogleg Rot Max 
 DLSO.°/30m               1.00:  Dogleg Oriented 
 DLSX.°/30m               2.95:  Dogleg Str Max 
 DRET.      11.42.20 11-Aug-21:  Drill End Time 
 DRST.      23.03.20 08-Aug-21:  Drill Start Tim 
 DTIM.hr                 45.50:  Time Drilling 
 EDEP.m                3488.00:  End Depth 
 ENG1.         Marcelo Marcari:  Engineer 1 
 ENG2.         Dair Mahammadov:  Engineer 2 
 ENG3.       Davud Huseyn-zada:  Engineer 3 
 ENG4.         Yevgeniy Ulikov:  Engineer 4 
 ETIM.      17.45.20 17-Aug-21:  End Time 
 FLOI.gpm              1197.70:  Flow In 
 FLON.gpm              1100.00:  Flow In Min 
 FLOS.cptm                0.00:  Fluid Loss 
 FLOX.gpm              1200.00:  Flow In Max 
 DFT .        Mineral Oil Base:  Mud Type 
 FTRO.       Formation Presure:  FTWD Run Obj 
 HFLO.                      No:  High Flow 
 HPRE.                      No:  High Pressure 
 HTEM.                      No:  High Temp 
 HYDO.m                   1.80:  Hydro Offset 
 IFIN.deg                 9.87:  Inc, Final 
 IMAX.deg                19.96:  Inc Max 
 IMIN.deg                 3.82:  Inc Min 
 IMND.m                3257.42:  Inc Min Depth 
 IMXD.m                2945.53:  Inc Max Depth 
 JARR.                      No:  Jarring 
 LETM.      11.42.20 11-Aug-21:  Log End Time 
 LOST.hr                     0:  Lost Rig Time 
 LSTM.      23.03.20 08-Aug-21:  Log Start Time 
 MDCL.ppm             42500.00:  Mud Chlorides 
 MDES.     Inversion Oil/Synthetic:  Mud Desc 
 DFD .sg                  1.45:  Mud Density 
 MDMN.sg                  1.39:  Dens Mud Min 
 MDMX.sg                  1.57:  Dens Mud Max 
 MOIL.                   53.20:  Run Mud Oil % 
 MOWR.                   70:30:  Run Mud OWR 
 MSND.                       0:  Run Mud Sand % 
 MSOL.                   24.30:  Run Mud Solids% 
 DFV .spqt               79.00:  Mud Viscosity 
 MWOD.in                  8.00:  MWD Tool OD 
 MWSI.                      No:  Serv Intrp, MWD 
 OTIM.hr                253.06:  Time Operating 
 PCON.           Look Like New:  Pad Condition 
 PMAX.psia            11068.93:  Press Op, Max 
 PV  .cP                 36.00:  Mud PV 
 RUN .                    1000:  Run Number 
 ROPA.m/hr               15.34:  ROP Avg 
 ROPN.m/hr                4.00:  ROP Min 
 ROPX.m/hr               31.00:  ROP Max 
 RPMA.rpm               151.40:  RPM Surface Avg 
 RPMN.rpm               120.00:  RPM Surface Min 
 RPMX.rpm               160.00:  RPM Surface Max 
 RRUN.                    L505:  Rig Run Number 
 RTIM.hr                 10.00:  Time Reaming 
 SAZI.deg                88.92:  Azm, Start 
 SDEP.m                2789.00:  Start Depth 
 SIDD.                      No:  Serv Intrp, DD 
 SINC.deg                19.84:  Inc, Start 
 SPPA.psig             4421.39:  SPP Avg 
 SPPN.psig             4130.00:  SPP Min 
 SPPX.psig             4800.00:  SPP Max 
 STIM.      01.25.20 07-Aug-21:  Start Time 
 SVCS.                 DD, MWD:  Services 
 SVER.                    9.20:  Sperry Version 
 TDAT.m                 699.00:  Tot Depth Attmp 
 TDDF.                      No:  Trip for DD 
 TDLG.m                 699.00:  Tot Depth Loggd 
 TFF .                      No:  Trip for Fail 
 TQAA.f-kp               20.55:  Torque Abs Avg 
 TQAN.f-kp               15.00:  Torque Abs Min 
 TQAX.f-kp               24.00:  Torque Abs Max 
 TRRT.°/30m               0.50:  Turn Rotating 
 MRT .                    HCIM:  Maximum Recorded Temperature 
 TTMX.degC               82.35:  Max Tool Temp 
 VS01.                90654677:  Virtual Str1 SN 
 VS02.                90636294:  Virtual Str2 SN 
 VS03.                90653866:  Virtual Str3 SN 
 VS04.                90654674:  Virtual Str4 SN 
 WBMN.klb                10.00:  WOB Min 
 WITN.         Haytham Mostafa:  Customer Rep 
 WITN.           Rufat Babayev:  Customer Rep 2 
 WOBA.klb                22.43:  WOB Avg 
 WOBX.klb                35.00:  WOB Max 
 YP  .lhf2               32.00:  Yield Point 
~Curve Information Block
#MNEM.UNIT                 API CODE     Curve Description
#---------               -----------    ---------------------------
 TIME.HHMMSS            00 000 000 000:  GT Time & Date
 GTDEPTH.m              00 000 000 000:  GT Depth
 GTPQH.psia             00 000 000 000:  GT HR Quartz Pressure
 GTTQ.degC              00 000 000 000:  GT Quartz Temperature
 GTTN.NONE              00 000 000 000:  GT Test Number
 GTET.sec               00 000 000 000:  GT Elapsed Test Time
 GTTVD.m                00 000 000 000:  GT True Vertical Depth
#Other Information
#
#WARRANTY: Halliburton will use its best efforts to furnish customers with 
#accurate information and interpretations that are part of, and incident to, the services 
#provided.  However, Halliburton cannot and does not warrant the accuracy 
#or correctness of such information and interpretations.  Under no circumstances should any 
#such information or interpretation be relied upon as the sole basis for any drilling, 
#completion, production, or financial decision or any procedure involving any risk to the 
#safety of any drilling venture, drilling rig or its crew or any other third party.  The 
#Customer has full responsibility for all drilling, completion and production operation.  
#Halliburton makes no representations or warranties, either expressed or 
#implied, including, but not limited to, the implied warranties of merchantability or fitness 
#for a particular purpose, with respect to the services rendered.  In no event will 
#Halliburton be liable for failure to obtain any particular results or for 
#any damages, including, but not limited to, indirect, special or consequential damages, 
#resulting from the use of any information or interpretation provided by Halliburton.
#
~A           TIME           GTDEPTH  GTPQH  GTTQ  GTTN  GTET   GTTVD  
# ...
   11:50:17.200.15-Aug-2021 3405.50 5430.52 54.00 5.00 160.90 3258.07
   11:50:17.400.15-Aug-2021 3405.50 5430.52 54.00 5.00 161.10 3258.07
   11:50:17.600.15-Aug-2021 3405.50 5433.02 54.00 5.00 161.30 3258.07
   11:50:17.799.15-Aug-2021 3405.50 5434.26 54.00 5.00 161.50 3258.07
   11:50:17.999.15-Aug-2021 3405.50 5435.29 54.00 5.00 161.70 3258.07
   11:50:18.199.15-Aug-2021 3405.50 5435.88 54.00 5.00 161.90 3258.07
   11:50:18.399.15-Aug-2021 3405.50 5435.88 54.00 5.00 162.10 3258.07
   11:50:18.599.15-Aug-2021 3405.50 5438.80 54.00 5.00 162.30 3258.07
   11:50:18.799.15-Aug-2021 3405.50 5439.77 54.00 5.00 162.50 3258.07
   11:50:18.999.15-Aug-2021 3405.50 5440.73 54.00 5.00 162.70 3258.07
   11:50:19.199.15-Aug-2021 3405.50 5441.50 54.00 5.00 162.90 3258.07
   11:50:19.398.15-Aug-2021 3405.50 5441.50 54.00 5.00 163.10 3258.07
   11:50:19.598.15-Aug-2021 3405.50 5443.89 54.00 5.00 163.30 3258.07
   11:50:19.798.15-Aug-2021 3405.50 5445.03 54.00 5.00 163.50 3258.07
   11:50:19.998.15-Aug-2021 3405.50 5446.07 54.00 5.00 163.70 3258.07
   11:50:20.198.15-Aug-2021 3405.50 5447.45 54.00 5.00 163.90 3258.07
   11:50:20.398.15-Aug-2021 3405.50 5447.45 54.00 5.00 164.10 3258.07
   11:50:20.598.15-Aug-2021 3405.50 5449.76 54.00 5.00 164.30 3258.07
   11:50:20.798.15-Aug-2021 3405.50 5450.80 54.00 5.00 164.50 3258.07
   11:50:20.997.15-Aug-2021 3405.50 5451.54 54.00 5.00 164.70 3258.07
   11:50:21.197.15-Aug-2021 3405.50 5452.21 54.00 5.00 164.90 3258.07
   11:50:21.397.15-Aug-2021 3405.50 5452.21 54.00 5.00 165.10 3258.07
   11:50:21.597.15-Aug-2021 3405.50 5454.08 54.00 5.00 165.30 3258.07
   11:50:21.797.15-Aug-2021 3405.50 5455.09 54.00 5.00 165.50 3258.07
   11:50:21.997.15-Aug-2021 3405.50 5457.00 54.00 5.00 165.70 3258.07
   11:50:22.197.15-Aug-2021 3405.50 5457.76 54.00 5.00 165.90 3258.07
   11:50:22.397.15-Aug-2021 3405.50 5457.76 54.00 5.00 166.10 3258.07
   11:50:22.597.15-Aug-2021 3405.50 5459.30 54.00 5.00 166.30 3258.07
   11:50:22.796.15-Aug-2021 3405.50 5459.93 54.00 5.00 166.50 3258.07
   11:50:22.996.15-Aug-2021 3405.50 5460.83 54.00 5.00 166.70 3258.07
   11:50:23.196.15-Aug-2021 3405.50 5461.77 54.00 5.00 166.90 3258.07
   11:50:23.396.15-Aug-2021 3405.50 5461.77 54.00 5.00 167.10 3258.07
   11:50:23.596.15-Aug-2021 3405.50 5463.87 54.00 5.00 167.30 3258.07
   11:50:23.796.15-Aug-2021 3405.50 5465.51 54.00 5.00 167.50 3258.07
   11:50:23.996.15-Aug-2021 3405.50 5465.92 54.00 5.00 167.70 3258.07
   11:50:24.196.15-Aug-2021 3405.50 5466.13 54.00 5.00 167.90 3258.07
   11:50:24.395.15-Aug-2021 3405.50 5466.13 54.00 5.00 168.10 3258.07
   11:50:24.595.15-Aug-2021 3405.50 5468.86 54.00 5.00 168.30 3258.07
   11:50:24.795.15-Aug-2021 3405.50 5469.92 54.00 5.00 168.50 3258.07
   11:50:24.995.15-Aug-2021 3405.50 5470.75 54.00 5.00 168.70 3258.07
   11:50:25.195.15-Aug-2021 3405.50 5471.37 54.00 5.00 168.90 3258.07
   11:50:25.395.15-Aug-2021 3405.50 5471.37 54.00 5.00 169.10 3258.07
   11:50:25.595.15-Aug-2021 3405.50 5472.97 54.00 5.00 169.30 3258.07
   11:50:25.795.15-Aug-2021 3405.50 5474.46 54.00 5.00 169.50 3258.07
   11:50:25.994.15-Aug-2021 3405.50 5475.53 54.00 5.00 169.70 3258.07
   11:50:26.194.15-Aug-2021 3405.50 5476.50 54.00 5.00 169.90 3258.07
   11:50:26.394.15-Aug-2021 3405.50 5476.50 54.00 5.00 170.10 3258.07
   11:50:26.594.15-Aug-2021 3405.50 5478.31 54.00 5.00 170.30 3258.07
   11:50:26.794.15-Aug-2021 3405.50 5479.51 54.00 5.00 170.50 3258.07
   11:50:26.994.15-Aug-2021 3405.50 5480.66 54.00 5.00 170.70 3258.07
   11:50:27.194.15-Aug-2021 3405.50 5481.56 54.00 5.00 170.90 3258.07
   11:50:27.394.15-Aug-2021 3405.50 5481.56 54.00 5.00 171.10 3258.07
   11:50:27.594.15-Aug-2021 3405.50 5483.25 54.00 5.00 171.30 3258.07
   11:50:27.793.15-Aug-2021 3405.50 5484.67 54.00 5.00 171.50 3258.07
   11:50:27.993.15-Aug-2021 3405.50 5485.26 54.00 5.00 171.70 3258.07
   11:50:28.193.15-Aug-2021 3405.50 5486.71 54.00 5.00 171.90 3258.07
   11:50:28.393.15-Aug-2021 3405.50 5486.71 54.00 5.00 172.10 3258.07
   11:50:28.593.15-Aug-2021 3405.50 5488.71 53.99 5.00 172.30 3258.07
   11:50:28.793.15-Aug-2021 3405.50 5489.34 53.99 5.00 172.50 3258.07
   11:50:28.993.15-Aug-2021 3405.50 5490.82 53.99 5.00 172.70 3258.07
   11:50:29.193.15-Aug-2021 3405.50 5491.77 53.99 5.00 172.90 3258.07
   11:50:29.392.15-Aug-2021 3405.50 5491.77 53.99 5.00 173.10 3258.07
   11:50:29.592.15-Aug-2021 3405.50 5493.19 53.99 5.00 173.30 3258.07
   11:50:29.792.15-Aug-2021 3405.50 5493.86 53.99 5.00 173.50 3258.07
   11:50:29.992.15-Aug-2021 3405.50 5494.57 53.99 5.00 173.70 3258.07
   11:50:30.192.15-Aug-2021 3405.50 5495.58 53.99 5.00 173.90 3258.07
   11:50:30.392.15-Aug-2021 3405.50 5495.58 53.99 5.00 174.10 3258.07
   11:50:30.592.15-Aug-2021 3405.50 5497.29 53.99 5.00 174.30 3258.07
   11:50:30.792.15-Aug-2021 3405.50 5498.30 53.99 5.00 174.50 3258.07
   11:50:30.991.15-Aug-2021 3405.50 5498.85 53.99 5.00 174.69 3258.07
   11:50:31.191.15-Aug-2021 3405.50 5499.45 53.99 5.00 174.89 3258.07
   11:50:31.391.15-Aug-2021 3405.50 5499.45 53.99 5.00 175.09 3258.07
   11:50:31.591.15-Aug-2021 3405.50 5500.94 53.99 5.00 175.29 3258.07
   11:50:31.791.15-Aug-2021 3405.50 5501.66 53.99 5.00 175.49 3258.07
   11:50:31.991.15-Aug-2021 3405.50 5503.05 53.99 5.00 175.69 3258.07
   11:50:32.191.15-Aug-2021 3405.50 5503.69 53.99 5.00 175.89 3258.07
   11:50:32.391.15-Aug-2021 3405.50 5503.69 53.99 5.00 176.09 3258.07
   11:50:32.591.15-Aug-2021 3405.50 5505.59 53.99 5.00 176.29 3258.07
   11:50:32.790.15-Aug-2021 3405.50 5506.64 53.99 5.00 176.49 3258.07
   11:50:32.990.15-Aug-2021 3405.50 5506.99 53.99 5.00 176.69 3258.07
   11:50:33.190.15-Aug-2021 3405.50 5508.27 53.99 5.00 176.89 3258.07
   11:50:33.390.15-Aug-2021 3405.50 5508.27 53.99 5.00 177.09 3258.07
   11:50:33.590.15-Aug-2021 3405.50 5509.53 53.99 5.00 177.29 3258.07
   11:50:33.790.15-Aug-2021 3405.50 5510.32 53.99 5.00 177.49 3258.07
   11:50:33.990.15-Aug-2021 3405.50 5511.57 53.99 5.00 177.69 3258.07
   11:50:34.190.15-Aug-2021 3405.50 5512.64 53.99 5.00 177.89 3258.07
   11:50:34.389.15-Aug-2021 3405.50 5512.64 53.99 5.00 178.09 3258.07
   11:50:34.589.15-Aug-2021 3405.50 5514.11 53.99 5.00 178.29 3258.07
   11:50:34.789.15-Aug-2021 3405.50 5514.74 53.99 5.00 178.49 3258.07
   11:50:34.989.15-Aug-2021 3405.50 5516.15 53.99 5.00 178.69 3258.07
   11:50:35.189.15-Aug-2021 3405.50 5516.64 53.99 5.00 178.89 3258.07
   11:50:35.389.15-Aug-2021 3405.50 5516.64 53.99 5.00 179.09 3258.07
   11:50:35.589.15-Aug-2021 3405.50 5518.64 53.99 5.00 179.29 3258.07
   11:50:35.789.15-Aug-2021 3405.50 5519.45 53.99 5.00 179.49 3258.07
   11:50:35.988.15-Aug-2021 3405.50 5520.54 53.99 5.00 179.69 3258.07
   11:50:36.188.15-Aug-2021 3405.50 5521.32 53.99 5.00 179.89 3258.07
   11:50:36.388.15-Aug-2021 3405.50 5521.32 53.99 5.00 180.09 3258.07
   11:50:36.588.15-Aug-2021 3405.50 5523.72 53.99 5.00 180.29 3258.07
   11:50:36.788.15-Aug-2021 3405.50 5524.67 53.99 5.00 180.49 3258.07
   11:50:36.988.15-Aug-2021 3405.50 5525.27 53.99 5.00 180.69 3258.07
   11:50:37.188.15-Aug-2021 3405.50 5526.77 53.99 5.00 180.89 3258.07
   11:50:37.388.15-Aug-2021 3405.50 5526.77 53.99 5.00 181.09 3258.07
   11:50:37.588.15-Aug-2021 3405.50 5528.50 53.99 5.00 181.29 3258.07
   11:50:37.787.15-Aug-2021 3405.50 5529.22 53.99 5.00 181.49 3258.07
   11:50:37.987.15-Aug-2021 3405.50 5529.80 53.99 5.00 181.69 3258.07
   11:50:38.187.15-Aug-2021 3405.50 5530.44 53.99 5.00 181.89 3258.07
   11:50:38.387.15-Aug-2021 3405.50 5530.44 53.99 5.00 182.09 3258.07
   11:50:38.587.15-Aug-2021 3405.50 5533.05 53.99 5.00 182.29 3258.07
   11:50:38.787.15-Aug-2021 3405.50 5533.69 53.99 5.00 182.49 3258.07
   11:50:38.987.15-Aug-2021 3405.50 5534.47 53.99 5.00 182.69 3258.07
   11:50:39.187.15-Aug-2021 3405.50 5535.30 53.99 5.00 182.89 3258.07
   11:50:39.386.15-Aug-2021 3405.50 5535.30 53.99 5.00 183.09 3258.07
   11:50:39.586.15-Aug-2021 3405.50 5536.58 53.99 5.00 183.29 3258.07
   11:50:39.786.15-Aug-2021 3405.50 5537.23 53.99 5.00 183.49 3258.07
   11:50:39.986.15-Aug-2021 3405.50 5537.90 53.99 5.00 183.69 3258.07
