~Version Information
 VERS.                  2.0:   CWLS log ASCII Standard -VERSION 2.0
 WRAP.                   NO:   One line per depth step
~Well Information Block
#MNEM.UNIT     VALUE/NAME     DESCRIPTION
#---------     -----------    ---------------------------
 STRT.S             09:29:08 15-Aug-21: START TIME 09:29:08 15-Aug-21
 STOP.S             09:37:37 15-Aug-21: STOP TIME  09:37:37 15-Aug-21
 STEP.S                   0.00: STEP TIME
 NULL.                 -999.25: NULL VALUE
 DFWT.                        :  DIST FWL TEXT
 DFST.                        :  DIST FSL TEXT
 DMF .             Drill Floor:  DRILL MEAS FROM
 STIM.      17.18.56 20-Jun-21:  START TIME
 DATE.      17.18.56 20-Aug-21:  END TIME
 SPUD.               20-Jun-21:  SPUD DATE
 NREF.                    Grid:  NORTH REFERENCE
 HPTY.       Minimum Curvature:  HOLE POS TYPE
 DMOD.             Drill Model:  DRILL MOD DESC
 SVYD.                  Survey:  SURVEY DESC
 ILTD.               Lithology:  INTERP LTH DESC
 FTOP.          Formation Tops:  FORM TOPS DESC
 SON .        AZ-XX-0907056190:  JOB NUMBER
 PDAT.       Caspian Sea Level:  PERMANENT DATUM
 WTYP.                Deviated:  WELL TYPE
 MDS .        Operator Entered:  MAG DATA SOURCE
 COMP.     BP Exploration (Caspian Sea) Ltd.:  COMPANY
 UWI .            /AZE20000092:  UNIQUE WELL IDENTIFIER
 API .            /AZE20000092:  API NUMBER
 BASE.              Azerbaijan:  LOGGING EQUIPMENT BASE LOCATION
 REGN.                   EESSA:  REGION
 PROV.                    baku:  PROVINCE
 STAT.                    baku:  STATE NAME
 CTRY.              Azerbaijan:  COUNTRY NAME
 FLD .                     ACG:  FIELD NAME
 SRVC.          Turan Drilling:  CONTRACTOR
 MWDS.                    Baku:  MWD SHOP
 WELL.                     J26:  WELL NAME
 JOBN.        AZ-XX-0907056190:  JOB TICKET NUMB
 RIG .             West Chirag:  RIG NAME
 DOE .                     N/A:  DOE NUMBER
 DCON.         Sperry Drilling:  DIRECTNL CONTR
 UNIT.                     N/A:  LOGGING EQUIPMENT ID
 CNTY.                        :  COUNTY
 LOC .                        :  LOCATION
 LMF .             Drill Floor:  LOG MEASURED FROM
 TVDS.m                  43.00:  TVDSS CORRECTN
 LATI.deg                40.13:  LATITUDE
 LONG.deg                51.22:  LONGITUDE
 WHNS.m                  -7.12:  WELL HEAD N/S
 WHEW.m                  -9.46:  WELL HEAD E/W
 UTMX.m              519004.02:  UTM X
 UTMY.m             4443784.96:  UTM Y
 DFWL.m                   0.00:  DISTANCE FWL
 DFSL.m                   0.00:  DISTANCE FSL
 SDEP.m                 464.00:  START DEPTH
 TDD .m                3500.00:  TOTAL DEPTH (DRILLER)
 VSDR.deg               114.35:  VERT SEC DIRECT
 GVFD.g                   1.00:  GRAVITY FIELD
 MFLD.nT              50386.00:  MAGNETIC FIELD
 MDIP.deg                59.63:  MAGNETIC DIP
 MDEC.deg                 6.43:  MAGNETIC DECL
 GRDC.deg                 0.15:  GRID CORRECTION
 AZTC.deg                 6.29:  AZM TOTAL CORR
 EPD .m                   0.00:  ELEVATION
 EGL .m                   0.00:  GROUND ELEVATION
 WDMS.m                 169.80:  WD ELEV
 APD .m                  43.00:  DEPTH ABOVE PD
 VSEW.m                  -9.46:  VERT SEC E/W
 VSNS.m                  -7.12:  VERT SEC N/S
 AGAP.m                  43.00:  AIR GAP
 DEP .m                 356.16:  DEPTH
 EKB .m                  43.00:  KB ELEVATION
 EDF .m                  43.00:  DF ELEVATION
 TDL .m                 699.00:  TOTAL DEPTH (LOGGER)
 VSC .                       0:  VS TO CLOSURE
 MAGU.                 1853727:  MAGUTM CHECKSUM
~Parameter Information Block
#MNEM.UNIT       Value        Description
#---------     -----------    ---------------------------
 AV  .mps                 1.30:  Ann Velocity 
 AVMX.mps                 1.67:  Max Ann Veloc 
 AZIF.deg               280.40:  Azm, Final 
 BHAT.        Rotary Steerable:  BHA Type 
 BREV.rev            528970.00:  Rev Bit Total 
 BROT.°/30m               1.00:  Build Rotating 
 BS  .in                 12.25:  Bit Size 
 BSZ .in                 12.25:  Bit Size 
 BTPL.psig              738.00:  Bit Press Loss 
 CABU.                     Yes:  Customer Abuse 
 CGEO.        Elvin Suleymanov:  Customer Geo 
 COMM.                     œR:  Run Comments 1 
 TCS .hr                 66.05:  Time Ciculation Ended 
 CV  .mps                 2.20:  Crit Velocity 
 CVMX.mps                 2.56:  Max Crit Veloc 
 DD1 .          Rashad Habibov:  Direct Drillr 1 
 DD2 .            Azer ravanov:  Direct Drillr 2 
 DD3 .           Teymur Agayev:  Direct Drillr 3 
 DDSV.               Geo-Pilot:  DD Service 
 DEFF.%                  90.00:  % Det Eff 
 DLRX.°/30m               2.95:  Dogleg Rot Max 
 DLSO.°/30m               1.00:  Dogleg Oriented 
 DLSX.°/30m               2.95:  Dogleg Str Max 
 DRET.      11.42.20 11-Aug-21:  Drill End Time 
 DRST.      23.03.20 08-Aug-21:  Drill Start Tim 
 DTIM.hr                 45.50:  Time Drilling 
 EDEP.m                3488.00:  End Depth 
 ENG1.         Marcelo Marcari:  Engineer 1 
 ENG2.         Dair Mahammadov:  Engineer 2 
 ENG3.       Davud Huseyn-zada:  Engineer 3 
 ENG4.         Yevgeniy Ulikov:  Engineer 4 
 ETIM.      17.45.20 17-Aug-21:  End Time 
 FLOI.gpm              1197.70:  Flow In 
 FLON.gpm              1100.00:  Flow In Min 
 FLOS.cptm                0.00:  Fluid Loss 
 FLOX.gpm              1200.00:  Flow In Max 
 DFT .        Mineral Oil Base:  Mud Type 
 FTRO.       Formation Presure:  FTWD Run Obj 
 HFLO.                      No:  High Flow 
 HPRE.                      No:  High Pressure 
 HTEM.                      No:  High Temp 
 HYDO.m                   1.80:  Hydro Offset 
 IFIN.deg                 9.87:  Inc, Final 
 IMAX.deg                19.96:  Inc Max 
 IMIN.deg                 3.82:  Inc Min 
 IMND.m                3257.42:  Inc Min Depth 
 IMXD.m                2945.53:  Inc Max Depth 
 JARR.                      No:  Jarring 
 LETM.      11.42.20 11-Aug-21:  Log End Time 
 LOST.hr                     0:  Lost Rig Time 
 LSTM.      23.03.20 08-Aug-21:  Log Start Time 
 MDCL.ppm             42500.00:  Mud Chlorides 
 MDES.     Inversion Oil/Synthetic:  Mud Desc 
 DFD .sg                  1.45:  Mud Density 
 MDMN.sg                  1.39:  Dens Mud Min 
 MDMX.sg                  1.57:  Dens Mud Max 
 MOIL.                   53.20:  Run Mud Oil % 
 MOWR.                   70:30:  Run Mud OWR 
 MSND.                       0:  Run Mud Sand % 
 MSOL.                   24.30:  Run Mud Solids% 
 DFV .spqt               79.00:  Mud Viscosity 
 MWOD.in                  8.00:  MWD Tool OD 
 MWSI.                      No:  Serv Intrp, MWD 
 OTIM.hr                253.06:  Time Operating 
 PCON.           Look Like New:  Pad Condition 
 PMAX.psia            11068.93:  Press Op, Max 
 PV  .cP                 36.00:  Mud PV 
 RUN .                    1000:  Run Number 
 ROPA.m/hr               15.34:  ROP Avg 
 ROPN.m/hr                4.00:  ROP Min 
 ROPX.m/hr               31.00:  ROP Max 
 RPMA.rpm               151.40:  RPM Surface Avg 
 RPMN.rpm               120.00:  RPM Surface Min 
 RPMX.rpm               160.00:  RPM Surface Max 
 RRUN.                    L505:  Rig Run Number 
 RTIM.hr                 10.00:  Time Reaming 
 SAZI.deg                88.92:  Azm, Start 
 SDEP.m                2789.00:  Start Depth 
 SIDD.                      No:  Serv Intrp, DD 
 SINC.deg                19.84:  Inc, Start 
 SPPA.psig             4421.39:  SPP Avg 
 SPPN.psig             4130.00:  SPP Min 
 SPPX.psig             4800.00:  SPP Max 
 STIM.      01.25.20 07-Aug-21:  Start Time 
 SVCS.                 DD, MWD:  Services 
 SVER.                    9.20:  Sperry Version 
 TDAT.m                 699.00:  Tot Depth Attmp 
 TDDF.                      No:  Trip for DD 
 TDLG.m                 699.00:  Tot Depth Loggd 
 TFF .                      No:  Trip for Fail 
 TQAA.f-kp               20.55:  Torque Abs Avg 
 TQAN.f-kp               15.00:  Torque Abs Min 
 TQAX.f-kp               24.00:  Torque Abs Max 
 TRRT.°/30m               0.50:  Turn Rotating 
 MRT .                    HCIM:  Maximum Recorded Temperature 
 TTMX.degC               82.35:  Max Tool Temp 
 VS01.                90654677:  Virtual Str1 SN 
 VS02.                90636294:  Virtual Str2 SN 
 VS03.                90653866:  Virtual Str3 SN 
 VS04.                90654674:  Virtual Str4 SN 
 WBMN.klb                10.00:  WOB Min 
 WITN.         Haytham Mostafa:  Customer Rep 
 WITN.           Rufat Babayev:  Customer Rep 2 
 WOBA.klb                22.43:  WOB Avg 
 WOBX.klb                35.00:  WOB Max 
 YP  .lhf2               32.00:  Yield Point 
~Curve Information Block
#MNEM.UNIT                 API CODE     Curve Description
#---------               -----------    ---------------------------
 TIME.HHMMSS            00 000 000 000:  GT Time & Date
 GTDEPTH.m              00 000 000 000:  GT Depth
 GTPQH.psia             00 000 000 000:  GT HR Quartz Pressure
 GTTQ.degC              00 000 000 000:  GT Quartz Temperature
 GTTN.NONE              00 000 000 000:  GT Test Number
 GTET.sec               00 000 000 000:  GT Elapsed Test Time
 GTTVD.m                00 000 000 000:  GT True Vertical Depth
#Other Information
#
#WARRANTY: Halliburton will use its best efforts to furnish customers with 
#accurate information and interpretations that are part of, and incident to, the services 
#provided.  However, Halliburton cannot and does not warrant the accuracy 
#or correctness of such information and interpretations.  Under no circumstances should any 
#such information or interpretation be relied upon as the sole basis for any drilling, 
#completion, production, or financial decision or any procedure involving any risk to the 
#safety of any drilling venture, drilling rig or its crew or any other third party.  The 
#Customer has full responsibility for all drilling, completion and production operation.  
#Halliburton makes no representations or warranties, either expressed or 
#implied, including, but not limited to, the implied warranties of merchantability or fitness 
#for a particular purpose, with respect to the services rendered.  In no event will 
#Halliburton be liable for failure to obtain any particular results or for 
#any damages, including, but not limited to, indirect, special or consequential damages, 
#resulting from the use of any information or interpretation provided by Halliburton.
#
~A           TIME           GTDEPTH  GTPQH  GTTQ  GTTN  GTET   GTTVD  
# ...
   09:34:30.883.15-Aug-2021 3421.80 5221.82 55.04 3.00 322.05 3274.11
   09:34:31.083.15-Aug-2021 3421.80 5221.82 55.04 3.00 322.25 3274.11
   09:34:31.283.15-Aug-2021 3421.80 5222.91 55.04 3.00 322.45 3274.11
   09:34:31.484.15-Aug-2021 3421.80 5223.03 55.04 3.00 322.65 3274.11
   09:34:31.684.15-Aug-2021 3421.80 5223.27 55.04 3.00 322.85 3274.11
   09:34:31.884.15-Aug-2021 3421.80 5223.70 55.04 3.00 323.05 3274.11
   09:34:32.084.15-Aug-2021 3421.80 5223.70 55.04 3.00 323.25 3274.11
   09:34:32.284.15-Aug-2021 3421.80 5224.00 55.04 3.00 323.45 3274.11
   09:34:32.484.15-Aug-2021 3421.80 5224.28 55.04 3.00 323.65 3274.11
   09:34:32.684.15-Aug-2021 3421.80 5224.46 55.04 3.00 323.85 3274.11
   09:34:32.884.15-Aug-2021 3421.80 5224.66 55.04 3.00 324.05 3274.11
   09:34:33.084.15-Aug-2021 3421.80 5224.66 55.04 3.00 324.25 3274.11
   09:34:33.284.15-Aug-2021 3421.80 5225.45 55.04 3.00 324.45 3274.11
   09:34:33.484.15-Aug-2021 3421.80 5225.72 55.04 3.00 324.65 3274.11
   09:34:33.684.15-Aug-2021 3421.80 5225.91 55.04 3.00 324.85 3274.11
   09:34:33.884.15-Aug-2021 3421.80 5226.26 55.04 3.00 325.05 3274.11
   09:34:34.084.15-Aug-2021 3421.80 5226.26 55.04 3.00 325.25 3274.11
   09:34:34.284.15-Aug-2021 3421.80 5226.26 55.04 3.00 325.45 3274.11
   09:34:34.484.15-Aug-2021 3421.80 5227.09 55.04 3.00 325.65 3274.11
   09:34:34.684.15-Aug-2021 3421.80 5227.27 55.04 3.00 325.85 3274.11
   09:34:34.884.15-Aug-2021 3421.80 5227.42 55.04 3.00 326.05 3274.11
   09:34:35.084.15-Aug-2021 3421.80 5227.42 55.04 3.00 326.25 3274.11
   09:34:35.284.15-Aug-2021 3421.80 5228.47 55.04 3.00 326.45 3274.11
   09:34:35.484.15-Aug-2021 3421.80 5228.87 55.04 3.00 326.65 3274.11
   09:34:35.684.15-Aug-2021 3421.80 5228.98 55.04 3.00 326.85 3274.11
   09:34:35.884.15-Aug-2021 3421.80 5229.21 55.04 3.00 327.05 3274.11
   09:34:36.084.15-Aug-2021 3421.80 5229.21 55.04 3.00 327.25 3274.11
   09:34:36.284.15-Aug-2021 3421.80 5229.59 55.04 3.00 327.45 3274.11
   09:34:36.484.15-Aug-2021 3421.80 5229.87 55.04 3.00 327.65 3274.11
   09:34:36.684.15-Aug-2021 3421.80 5230.04 55.04 3.00 327.85 3274.11
   09:34:36.884.15-Aug-2021 3421.80 5230.20 55.04 3.00 328.05 3274.11
   09:34:37.084.15-Aug-2021 3421.80 5230.20 55.04 3.00 328.25 3274.11
   09:34:37.284.15-Aug-2021 3421.80 5231.39 55.04 3.00 328.45 3274.11
   09:34:37.484.15-Aug-2021 3421.80 5231.64 55.04 3.00 328.65 3274.11
   09:34:37.685.15-Aug-2021 3421.80 5231.88 55.04 3.00 328.85 3274.11
   09:34:37.885.15-Aug-2021 3421.80 5232.01 55.04 3.00 329.05 3274.11
   09:34:38.085.15-Aug-2021 3421.80 5232.01 55.04 3.00 329.25 3274.11
   09:34:38.285.15-Aug-2021 3421.80 5232.79 55.04 3.00 329.45 3274.11
   09:34:38.485.15-Aug-2021 3421.80 5233.23 55.04 3.00 329.65 3274.11
   09:34:38.685.15-Aug-2021 3421.80 5233.37 55.04 3.00 329.85 3274.11
   09:34:38.885.15-Aug-2021 3421.80 5233.55 55.04 3.00 330.05 3274.11
   09:34:39.085.15-Aug-2021 3421.80 5233.55 55.04 3.00 330.25 3274.11
   09:34:39.285.15-Aug-2021 3421.80 5233.90 55.04 3.00 330.45 3274.11
   09:34:39.485.15-Aug-2021 3421.80 5234.53 55.04 3.00 330.65 3274.11
   09:34:39.685.15-Aug-2021 3421.80 5234.84 55.04 3.00 330.85 3274.11
   09:34:39.885.15-Aug-2021 3421.80 5234.97 55.04 3.00 331.05 3274.11
   09:34:40.085.15-Aug-2021 3421.80 5234.97 55.04 3.00 331.25 3274.11
   09:34:40.285.15-Aug-2021 3421.80 5235.70 55.04 3.00 331.45 3274.11
   09:34:40.485.15-Aug-2021 3421.80 5235.90 55.04 3.00 331.65 3274.11
   09:34:40.685.15-Aug-2021 3421.80 5236.08 55.04 3.00 331.85 3274.11
   09:34:40.885.15-Aug-2021 3421.80 5236.40 55.04 3.00 332.05 3274.11
   09:34:41.085.15-Aug-2021 3421.80 5236.40 55.04 3.00 332.25 3274.11
   09:34:41.285.15-Aug-2021 3421.80 5236.81 55.04 3.00 332.45 3274.11
   09:34:41.485.15-Aug-2021 3421.80 5237.40 55.04 3.00 332.65 3274.11
   09:34:41.685.15-Aug-2021 3421.80 5237.56 55.04 3.00 332.85 3274.11
   09:34:41.885.15-Aug-2021 3421.80 5237.71 55.04 3.00 333.05 3274.11
   09:34:42.085.15-Aug-2021 3421.80 5237.71 55.04 3.00 333.25 3274.11
   09:34:42.285.15-Aug-2021 3421.80 5237.84 55.04 3.00 333.45 3274.11
   09:34:42.485.15-Aug-2021 3421.80 5238.41 55.04 3.00 333.65 3274.11
   09:34:42.685.15-Aug-2021 3421.80 5238.67 55.04 3.00 333.85 3274.11
   09:34:42.885.15-Aug-2021 3421.80 5238.80 55.04 3.00 334.05 3274.11
   09:34:43.085.15-Aug-2021 3421.80 5238.80 55.04 3.00 334.25 3274.11
   09:34:43.285.15-Aug-2021 3421.80 5239.58 55.04 3.00 334.45 3274.11
   09:34:43.485.15-Aug-2021 3421.80 5239.75 55.04 3.00 334.65 3274.11
   09:34:43.686.15-Aug-2021 3421.80 5239.94 55.04 3.00 334.85 3274.11
   09:34:43.886.15-Aug-2021 3421.80 5239.94 55.04 3.00 335.05 3274.11
   09:34:44.086.15-Aug-2021 3421.80 5239.94 55.04 3.00 335.25 3274.11
   09:34:44.286.15-Aug-2021 3421.80 5240.26 55.04 3.00 335.45 3274.11
   09:34:44.486.15-Aug-2021 3421.80 5240.46 55.04 3.00 335.65 3274.11
   09:34:44.686.15-Aug-2021 3421.80 5240.63 55.04 3.00 335.85 3274.11
   09:34:44.886.15-Aug-2021 3421.80 5241.16 55.04 3.00 336.06 3274.11
   09:34:45.086.15-Aug-2021 3421.80 5241.16 55.04 3.00 336.26 3274.11
   09:34:45.286.15-Aug-2021 3421.80 5241.58 55.04 3.00 336.46 3274.11
   09:34:45.486.15-Aug-2021 3421.80 5241.84 55.04 3.00 336.66 3274.11
   09:34:45.686.15-Aug-2021 3421.80 5242.06 55.04 3.00 336.86 3274.11
   09:34:45.886.15-Aug-2021 3421.80 5242.20 55.04 3.00 337.06 3274.11
   09:34:46.086.15-Aug-2021 3421.80 5242.20 55.04 3.00 337.26 3274.11
   09:34:46.286.15-Aug-2021 3421.80 5242.63 55.04 3.00 337.46 3274.11
   09:34:46.486.15-Aug-2021 3421.80 5242.97 55.04 3.00 337.66 3274.11
   09:34:46.686.15-Aug-2021 3421.80 5243.20 55.04 3.00 337.86 3274.11
   09:34:46.886.15-Aug-2021 3421.80 5054.72 55.04 3.00 338.06 3274.11
   09:34:47.086.15-Aug-2021 3421.80 5054.72 55.04 3.00 338.26 3274.11
   09:34:47.286.15-Aug-2021 3421.80 3130.41 55.04 3.00 338.46 3274.11
   09:34:47.486.15-Aug-2021 3421.80 3031.31 55.04 3.00 338.66 3274.11
   09:34:47.686.15-Aug-2021 3421.80 2937.70 55.03 3.00 338.86 3274.11
   09:34:47.886.15-Aug-2021 3421.80 2850.26 55.03 3.00 339.06 3274.11
   09:34:48.086.15-Aug-2021 3421.80 2850.26 55.03 3.00 339.26 3274.11
   09:34:48.286.15-Aug-2021 3421.80 2768.39 55.03 3.00 339.46 3274.11
   09:34:48.486.15-Aug-2021 3421.80 2613.14 55.03 3.00 339.66 3274.11
   09:34:48.686.15-Aug-2021 3421.80 2537.80 55.03 3.00 339.86 3274.11
   09:34:48.886.15-Aug-2021 3421.80 2462.99 55.03 3.00 340.06 3274.11
   09:34:49.086.15-Aug-2021 3421.80 2462.99 55.03 3.00 340.26 3274.11
   09:34:49.286.15-Aug-2021 3421.80 2312.56 55.02 3.00 340.46 3274.11
   09:34:49.486.15-Aug-2021 3421.80 2236.52 55.02 3.00 340.66 3274.11
   09:34:49.686.15-Aug-2021 3421.80 2163.20 55.02 3.00 340.86 3274.11
   09:34:49.887.15-Aug-2021 3421.80 2091.38 55.02 3.00 341.06 3274.11
   09:34:50.087.15-Aug-2021 3421.80 2091.38 55.02 3.00 341.26 3274.11
   09:34:50.287.15-Aug-2021 3421.80 2022.76 55.02 3.00 341.46 3274.11
   09:34:50.487.15-Aug-2021 3421.80 1881.31 55.01 3.00 341.66 3274.11
   09:34:50.687.15-Aug-2021 3421.80 1817.05 55.01 3.00 341.86 3274.11
   09:34:50.887.15-Aug-2021 3421.80 1762.66 55.01 3.00 342.06 3274.11
   09:34:51.087.15-Aug-2021 3421.80 1762.66 55.01 3.00 342.26 3274.11
   09:34:51.287.15-Aug-2021 3421.80 1678.83 55.00 3.00 342.46 3274.11
   09:34:51.487.15-Aug-2021 3421.80 1665.12 55.00 3.00 342.66 3274.11
   09:34:51.687.15-Aug-2021 3421.80 1660.04 55.00 3.00 342.86 3274.11
   09:34:51.887.15-Aug-2021 3421.80 1657.49 54.99 3.00 343.06 3274.11
   09:34:52.087.15-Aug-2021 3421.80 1657.49 54.99 3.00 343.26 3274.11
   09:34:52.287.15-Aug-2021 3421.80 1659.45 54.99 3.00 343.46 3274.11
   09:34:52.487.15-Aug-2021 3421.80 1673.23 54.99 3.00 343.66 3274.11
   09:34:52.687.15-Aug-2021 3421.80 1676.62 54.98 3.00 343.86 3274.11
   09:34:52.887.15-Aug-2021 3421.80 1678.96 54.98 3.00 344.06 3274.11
   09:34:53.087.15-Aug-2021 3421.80 1678.96 54.98 3.00 344.26 3274.11
   09:34:53.287.15-Aug-2021 3421.80 1669.46 54.98 3.00 344.46 3274.11
   09:34:53.487.15-Aug-2021 3421.80 1684.00 54.98 3.00 344.66 3274.11
   09:34:53.687.15-Aug-2021 3421.80 1693.82 54.97 3.00 344.86 3274.11
