~Version Information
 VERS.                  2.0:   CWLS log ASCII Standard -VERSION 2.0
 WRAP.                   NO:   One line per depth step
~Well Information Block
#MNEM.UNIT     VALUE/NAME     DESCRIPTION
#---------     -----------    ---------------------------
 STRT.S             08:47:11 15-Aug-21: START TIME 08:47:11 15-Aug-21
 STOP.S             08:54:08 15-Aug-21: STOP TIME  08:54:08 15-Aug-21
 STEP.S                   0.00: STEP TIME
 NULL.                 -999.25: NULL VALUE
 DFWT.                        :  DIST FWL TEXT
 DFST.                        :  DIST FSL TEXT
 DMF .             Drill Floor:  DRILL MEAS FROM
 STIM.      17.18.56 20-Jun-21:  START TIME
 DATE.      17.18.56 20-Aug-21:  END TIME
 SPUD.               20-Jun-21:  SPUD DATE
 NREF.                    Grid:  NORTH REFERENCE
 HPTY.       Minimum Curvature:  HOLE POS TYPE
 DMOD.             Drill Model:  DRILL MOD DESC
 SVYD.                  Survey:  SURVEY DESC
 ILTD.               Lithology:  INTERP LTH DESC
 FTOP.          Formation Tops:  FORM TOPS DESC
 SON .        AZ-XX-0907056190:  JOB NUMBER
 PDAT.       Caspian Sea Level:  PERMANENT DATUM
 WTYP.                Deviated:  WELL TYPE
 MDS .        Operator Entered:  MAG DATA SOURCE
 COMP.     BP Exploration (Caspian Sea) Ltd.:  COMPANY
 UWI .            /AZE20000092:  UNIQUE WELL IDENTIFIER
 API .            /AZE20000092:  API NUMBER
 BASE.              Azerbaijan:  LOGGING EQUIPMENT BASE LOCATION
 REGN.                   EESSA:  REGION
 PROV.                    baku:  PROVINCE
 STAT.                    baku:  STATE NAME
 CTRY.              Azerbaijan:  COUNTRY NAME
 FLD .                     ACG:  FIELD NAME
 SRVC.          Turan Drilling:  CONTRACTOR
 MWDS.                    Baku:  MWD SHOP
 WELL.                     J26:  WELL NAME
 JOBN.        AZ-XX-0907056190:  JOB TICKET NUMB
 RIG .             West Chirag:  RIG NAME
 DOE .                     N/A:  DOE NUMBER
 DCON.         Sperry Drilling:  DIRECTNL CONTR
 UNIT.                     N/A:  LOGGING EQUIPMENT ID
 CNTY.                        :  COUNTY
 LOC .                        :  LOCATION
 LMF .             Drill Floor:  LOG MEASURED FROM
 TVDS.m                  43.00:  TVDSS CORRECTN
 LATI.deg                40.13:  LATITUDE
 LONG.deg                51.22:  LONGITUDE
 WHNS.m                  -7.12:  WELL HEAD N/S
 WHEW.m                  -9.46:  WELL HEAD E/W
 UTMX.m              519004.02:  UTM X
 UTMY.m             4443784.96:  UTM Y
 DFWL.m                   0.00:  DISTANCE FWL
 DFSL.m                   0.00:  DISTANCE FSL
 SDEP.m                 464.00:  START DEPTH
 TDD .m                3500.00:  TOTAL DEPTH (DRILLER)
 VSDR.deg               114.35:  VERT SEC DIRECT
 GVFD.g                   1.00:  GRAVITY FIELD
 MFLD.nT              50386.00:  MAGNETIC FIELD
 MDIP.deg                59.63:  MAGNETIC DIP
 MDEC.deg                 6.43:  MAGNETIC DECL
 GRDC.deg                 0.15:  GRID CORRECTION
 AZTC.deg                 6.29:  AZM TOTAL CORR
 EPD .m                   0.00:  ELEVATION
 EGL .m                   0.00:  GROUND ELEVATION
 WDMS.m                 169.80:  WD ELEV
 APD .m                  43.00:  DEPTH ABOVE PD
 VSEW.m                  -9.46:  VERT SEC E/W
 VSNS.m                  -7.12:  VERT SEC N/S
 AGAP.m                  43.00:  AIR GAP
 DEP .m                 356.16:  DEPTH
 EKB .m                  43.00:  KB ELEVATION
 EDF .m                  43.00:  DF ELEVATION
 TDL .m                 699.00:  TOTAL DEPTH (LOGGER)
 VSC .                       0:  VS TO CLOSURE
 MAGU.                 1853727:  MAGUTM CHECKSUM
~Parameter Information Block
#MNEM.UNIT       Value        Description
#---------     -----------    ---------------------------
 AV  .mps                 1.30:  Ann Velocity 
 AVMX.mps                 1.67:  Max Ann Veloc 
 AZIF.deg               280.40:  Azm, Final 
 BHAT.        Rotary Steerable:  BHA Type 
 BREV.rev            528970.00:  Rev Bit Total 
 BROT.°/30m               1.00:  Build Rotating 
 BS  .in                 12.25:  Bit Size 
 BSZ .in                 12.25:  Bit Size 
 BTPL.psig              738.00:  Bit Press Loss 
 CABU.                     Yes:  Customer Abuse 
 CGEO.        Elvin Suleymanov:  Customer Geo 
 COMM.                     äji:  Run Comments 1 
 TCS .hr                 66.05:  Time Ciculation Ended 
 CV  .mps                 2.20:  Crit Velocity 
 CVMX.mps                 2.56:  Max Crit Veloc 
 DD1 .          Rashad Habibov:  Direct Drillr 1 
 DD2 .            Azer ravanov:  Direct Drillr 2 
 DD3 .           Teymur Agayev:  Direct Drillr 3 
 DDSV.               Geo-Pilot:  DD Service 
 DEFF.%                  90.00:  % Det Eff 
 DLRX.°/30m               2.95:  Dogleg Rot Max 
 DLSO.°/30m               1.00:  Dogleg Oriented 
 DLSX.°/30m               2.95:  Dogleg Str Max 
 DRET.      11.42.20 11-Aug-21:  Drill End Time 
 DRST.      23.03.20 08-Aug-21:  Drill Start Tim 
 DTIM.hr                 45.50:  Time Drilling 
 EDEP.m                3488.00:  End Depth 
 ENG1.         Marcelo Marcari:  Engineer 1 
 ENG2.         Dair Mahammadov:  Engineer 2 
 ENG3.       Davud Huseyn-zada:  Engineer 3 
 ENG4.         Yevgeniy Ulikov:  Engineer 4 
 ETIM.      17.45.20 17-Aug-21:  End Time 
 FLOI.gpm              1197.70:  Flow In 
 FLON.gpm              1100.00:  Flow In Min 
 FLOS.cptm                0.00:  Fluid Loss 
 FLOX.gpm              1200.00:  Flow In Max 
 DFT .        Mineral Oil Base:  Mud Type 
 FTRO.       Formation Presure:  FTWD Run Obj 
 HFLO.                      No:  High Flow 
 HPRE.                      No:  High Pressure 
 HTEM.                      No:  High Temp 
 HYDO.m                   1.80:  Hydro Offset 
 IFIN.deg                 9.87:  Inc, Final 
 IMAX.deg                19.96:  Inc Max 
 IMIN.deg                 3.82:  Inc Min 
 IMND.m                3257.42:  Inc Min Depth 
 IMXD.m                2945.53:  Inc Max Depth 
 JARR.                      No:  Jarring 
 LETM.      11.42.20 11-Aug-21:  Log End Time 
 LOST.hr                     0:  Lost Rig Time 
 LSTM.      23.03.20 08-Aug-21:  Log Start Time 
 MDCL.ppm             42500.00:  Mud Chlorides 
 MDES.     Inversion Oil/Synthetic:  Mud Desc 
 DFD .sg                  1.45:  Mud Density 
 MDMN.sg                  1.39:  Dens Mud Min 
 MDMX.sg                  1.57:  Dens Mud Max 
 MOIL.                   53.20:  Run Mud Oil % 
 MOWR.                   70:30:  Run Mud OWR 
 MSND.                       0:  Run Mud Sand % 
 MSOL.                   24.30:  Run Mud Solids% 
 DFV .spqt               79.00:  Mud Viscosity 
 MWOD.in                  8.00:  MWD Tool OD 
 MWSI.                      No:  Serv Intrp, MWD 
 OTIM.hr                253.06:  Time Operating 
 PCON.           Look Like New:  Pad Condition 
 PMAX.psia            11068.93:  Press Op, Max 
 PV  .cP                 36.00:  Mud PV 
 RUN .                    1000:  Run Number 
 ROPA.m/hr               15.34:  ROP Avg 
 ROPN.m/hr                4.00:  ROP Min 
 ROPX.m/hr               31.00:  ROP Max 
 RPMA.rpm               151.40:  RPM Surface Avg 
 RPMN.rpm               120.00:  RPM Surface Min 
 RPMX.rpm               160.00:  RPM Surface Max 
 RRUN.                    L505:  Rig Run Number 
 RTIM.hr                 10.00:  Time Reaming 
 SAZI.deg                88.92:  Azm, Start 
 SDEP.m                2789.00:  Start Depth 
 SIDD.                      No:  Serv Intrp, DD 
 SINC.deg                19.84:  Inc, Start 
 SPPA.psig             4421.39:  SPP Avg 
 SPPN.psig             4130.00:  SPP Min 
 SPPX.psig             4800.00:  SPP Max 
 STIM.      01.25.20 07-Aug-21:  Start Time 
 SVCS.                 DD, MWD:  Services 
 SVER.                    9.20:  Sperry Version 
 TDAT.m                 699.00:  Tot Depth Attmp 
 TDDF.                      No:  Trip for DD 
 TDLG.m                 699.00:  Tot Depth Loggd 
 TFF .                      No:  Trip for Fail 
 TQAA.f-kp               20.55:  Torque Abs Avg 
 TQAN.f-kp               15.00:  Torque Abs Min 
 TQAX.f-kp               24.00:  Torque Abs Max 
 TRRT.°/30m               0.50:  Turn Rotating 
 MRT .                    HCIM:  Maximum Recorded Temperature 
 TTMX.degC               82.35:  Max Tool Temp 
 VS01.                90654677:  Virtual Str1 SN 
 VS02.                90636294:  Virtual Str2 SN 
 VS03.                90653866:  Virtual Str3 SN 
 VS04.                90654674:  Virtual Str4 SN 
 WBMN.klb                10.00:  WOB Min 
 WITN.         Haytham Mostafa:  Customer Rep 
 WITN.           Rufat Babayev:  Customer Rep 2 
 WOBA.klb                22.43:  WOB Avg 
 WOBX.klb                35.00:  WOB Max 
 YP  .lhf2               32.00:  Yield Point 
~Curve Information Block
#MNEM.UNIT                 API CODE     Curve Description
#---------               -----------    ---------------------------
 TIME.HHMMSS            00 000 000 000:  GT Time & Date
 GTDEPTH.m              00 000 000 000:  GT Depth
 GTPQH.psia             00 000 000 000:  GT HR Quartz Pressure
 GTTQ.degC              00 000 000 000:  GT Quartz Temperature
 GTTN.NONE              00 000 000 000:  GT Test Number
 GTET.sec               00 000 000 000:  GT Elapsed Test Time
 GTTVD.m                00 000 000 000:  GT True Vertical Depth
#Other Information
#
#WARRANTY: Halliburton will use its best efforts to furnish customers with 
#accurate information and interpretations that are part of, and incident to, the services 
#provided.  However, Halliburton cannot and does not warrant the accuracy 
#or correctness of such information and interpretations.  Under no circumstances should any 
#such information or interpretation be relied upon as the sole basis for any drilling, 
#completion, production, or financial decision or any procedure involving any risk to the 
#safety of any drilling venture, drilling rig or its crew or any other third party.  The 
#Customer has full responsibility for all drilling, completion and production operation.  
#Halliburton makes no representations or warranties, either expressed or 
#implied, including, but not limited to, the implied warranties of merchantability or fitness 
#for a particular purpose, with respect to the services rendered.  In no event will 
#Halliburton be liable for failure to obtain any particular results or for 
#any damages, including, but not limited to, indirect, special or consequential damages, 
#resulting from the use of any information or interpretation provided by Halliburton.
#
~A           TIME           GTDEPTH  GTPQH  GTTQ  GTTN  GTET   GTTVD  
# ...
   08:51:01.456.15-Aug-2021 3421.80 5102.60 56.20 2.00 230.04 3274.11
   08:51:01.656.15-Aug-2021 3421.80 5102.60 56.20 2.00 230.24 3274.11
   08:51:01.856.15-Aug-2021 3421.80 5103.53 56.20 2.00 230.44 3274.11
   08:51:02.056.15-Aug-2021 3421.80 5104.35 56.20 2.00 230.64 3274.11
   08:51:02.256.15-Aug-2021 3421.80 5105.51 56.20 2.00 230.84 3274.11
   08:51:02.456.15-Aug-2021 3421.80 5106.25 56.20 2.00 231.04 3274.11
   08:51:02.656.15-Aug-2021 3421.80 5106.25 56.20 2.00 231.24 3274.11
   08:51:02.856.15-Aug-2021 3421.80 5107.47 56.20 2.00 231.44 3274.11
   08:51:03.056.15-Aug-2021 3421.80 5108.36 56.20 2.00 231.64 3274.11
   08:51:03.256.15-Aug-2021 3421.80 5109.04 56.20 2.00 231.84 3274.11
   08:51:03.457.15-Aug-2021 3421.80 5109.57 56.20 2.00 232.04 3274.11
   08:51:03.657.15-Aug-2021 3421.80 5109.57 56.20 2.00 232.24 3274.11
   08:51:03.857.15-Aug-2021 3421.80 5110.34 56.20 2.00 232.44 3274.11
   08:51:04.057.15-Aug-2021 3421.80 5110.73 56.20 2.00 232.64 3274.11
   08:51:04.257.15-Aug-2021 3421.80 5111.71 56.20 2.00 232.84 3274.11
   08:51:04.457.15-Aug-2021 3421.80 5112.37 56.20 2.00 233.04 3274.11
   08:51:04.657.15-Aug-2021 3421.80 5112.37 56.20 2.00 233.24 3274.11
   08:51:04.857.15-Aug-2021 3421.80 5113.69 56.20 2.00 233.44 3274.11
   08:51:05.057.15-Aug-2021 3421.80 5114.14 56.20 2.00 233.64 3274.11
   08:51:05.257.15-Aug-2021 3421.80 5114.54 56.20 2.00 233.84 3274.11
   08:51:05.457.15-Aug-2021 3421.80 5114.90 56.20 2.00 234.04 3274.11
   08:51:05.657.15-Aug-2021 3421.80 5114.90 56.20 2.00 234.24 3274.11
   08:51:05.857.15-Aug-2021 3421.80 5115.71 56.20 2.00 234.44 3274.11
   08:51:06.057.15-Aug-2021 3421.80 5116.21 56.20 2.00 234.64 3274.11
   08:51:06.257.15-Aug-2021 3421.80 5117.12 56.20 2.00 234.84 3274.11
   08:51:06.457.15-Aug-2021 3421.80 5117.94 56.20 2.00 235.04 3274.11
   08:51:06.657.15-Aug-2021 3421.80 5117.94 56.20 2.00 235.24 3274.11
   08:51:06.857.15-Aug-2021 3421.80 5119.17 56.20 2.00 235.44 3274.11
   08:51:07.057.15-Aug-2021 3421.80 5119.66 56.20 2.00 235.64 3274.11
   08:51:07.257.15-Aug-2021 3421.80 5120.40 56.20 2.00 235.84 3274.11
   08:51:07.457.15-Aug-2021 3421.80 5121.15 56.20 2.00 236.04 3274.11
   08:51:07.657.15-Aug-2021 3421.80 5121.15 56.20 2.00 236.24 3274.11
   08:51:07.857.15-Aug-2021 3421.80 5121.87 56.20 2.00 236.44 3274.11
   08:51:08.057.15-Aug-2021 3421.80 5122.10 56.20 2.00 236.64 3274.11
   08:51:08.257.15-Aug-2021 3421.80 5122.75 56.20 2.00 236.84 3274.11
   08:51:08.457.15-Aug-2021 3421.80 5123.80 56.20 2.00 237.04 3274.11
   08:51:08.657.15-Aug-2021 3421.80 5123.80 56.20 2.00 237.24 3274.11
   08:51:08.857.15-Aug-2021 3421.80 5124.83 56.20 2.00 237.44 3274.11
   08:51:09.057.15-Aug-2021 3421.80 5125.16 56.20 2.00 237.64 3274.11
   08:51:09.257.15-Aug-2021 3421.80 5125.53 56.20 2.00 237.84 3274.11
   08:51:09.457.15-Aug-2021 3421.80 5125.83 56.20 2.00 238.04 3274.11
   08:51:09.658.15-Aug-2021 3421.80 5125.83 56.20 2.00 238.24 3274.11
   08:51:09.858.15-Aug-2021 3421.80 5126.70 56.20 2.00 238.44 3274.11
   08:51:10.058.15-Aug-2021 3421.80 5127.33 56.20 2.00 238.64 3274.11
   08:51:10.258.15-Aug-2021 3421.80 5127.84 56.20 2.00 238.84 3274.11
   08:51:10.458.15-Aug-2021 3421.80 5128.15 56.20 2.00 239.04 3274.11
   08:51:10.658.15-Aug-2021 3421.80 5128.15 56.20 2.00 239.24 3274.11
   08:51:10.858.15-Aug-2021 3421.80 5129.23 56.20 2.00 239.44 3274.11
   08:51:11.058.15-Aug-2021 3421.80 5129.89 56.19 2.00 239.64 3274.11
   08:51:11.258.15-Aug-2021 3421.80 5130.49 56.20 2.00 239.84 3274.11
   08:51:11.458.15-Aug-2021 3421.80 5130.98 56.19 2.00 240.04 3274.11
   08:51:11.658.15-Aug-2021 3421.80 5130.98 56.19 2.00 240.24 3274.11
   08:51:11.858.15-Aug-2021 3421.80 5132.02 56.19 2.00 240.44 3274.11
   08:51:12.058.15-Aug-2021 3421.80 5132.62 56.19 2.00 240.64 3274.11
   08:51:12.258.15-Aug-2021 3421.80 5132.99 56.19 2.00 240.84 3274.11
   08:51:12.458.15-Aug-2021 3421.80 5133.25 56.19 2.00 241.04 3274.11
   08:51:12.658.15-Aug-2021 3421.80 5133.25 56.19 2.00 241.24 3274.11
   08:51:12.858.15-Aug-2021 3421.80 5134.40 56.19 2.00 241.44 3274.11
   08:51:13.058.15-Aug-2021 3421.80 5134.79 56.19 2.00 241.64 3274.11
   08:51:13.258.15-Aug-2021 3421.80 5135.08 56.19 2.00 241.84 3274.11
   08:51:13.458.15-Aug-2021 3421.80 5135.41 56.19 2.00 242.04 3274.11
   08:51:13.658.15-Aug-2021 3421.80 5135.41 56.19 2.00 242.24 3274.11
   08:51:13.858.15-Aug-2021 3421.80 5135.84 56.19 2.00 242.44 3274.11
   08:51:14.058.15-Aug-2021 3421.80 5136.05 56.19 2.00 242.64 3274.11
   08:51:14.258.15-Aug-2021 3421.80 5136.77 56.19 2.00 242.84 3274.11
   08:51:14.458.15-Aug-2021 3421.80 5137.37 56.19 2.00 243.04 3274.11
   08:51:14.658.15-Aug-2021 3421.80 5137.37 56.19 2.00 243.24 3274.11
   08:51:14.858.15-Aug-2021 3421.80 5138.48 56.19 2.00 243.44 3274.11
   08:51:15.058.15-Aug-2021 3421.80 5138.79 56.19 2.00 243.64 3274.11
   08:51:15.258.15-Aug-2021 3421.80 5139.39 56.19 2.00 243.84 3274.11
   08:51:15.458.15-Aug-2021 3421.80 5139.64 56.19 2.00 244.04 3274.11
   08:51:15.659.15-Aug-2021 3421.80 5139.64 56.19 2.00 244.24 3274.11
   08:51:15.859.15-Aug-2021 3421.80 5140.79 56.19 2.00 244.44 3274.11
   08:51:16.059.15-Aug-2021 3421.80 5141.17 56.19 2.00 244.64 3274.11
   08:51:16.259.15-Aug-2021 3421.80 5141.38 56.19 2.00 244.84 3274.11
   08:51:16.459.15-Aug-2021 3421.80 5141.56 56.19 2.00 245.04 3274.11
   08:51:16.659.15-Aug-2021 3421.80 5141.56 56.19 2.00 245.24 3274.11
   08:51:16.859.15-Aug-2021 3421.80 5142.16 56.19 2.00 245.44 3274.11
   08:51:17.059.15-Aug-2021 3421.80 5142.88 56.19 2.00 245.64 3274.11
   08:51:17.259.15-Aug-2021 3421.80 5143.29 56.19 2.00 245.84 3274.11
   08:51:17.459.15-Aug-2021 3421.80 5143.54 56.19 2.00 246.04 3274.11
   08:51:17.659.15-Aug-2021 3421.80 5143.54 56.19 2.00 246.24 3274.11
   08:51:17.859.15-Aug-2021 3421.80 5143.86 56.19 2.00 246.44 3274.11
   08:51:18.059.15-Aug-2021 3421.80 5144.08 56.19 2.00 246.64 3274.11
   08:51:18.259.15-Aug-2021 3421.80 5144.28 56.19 2.00 246.84 3274.11
   08:51:18.459.15-Aug-2021 3421.80 5144.88 56.19 2.00 247.04 3274.11
   08:51:18.659.15-Aug-2021 3421.80 5144.88 56.19 2.00 247.24 3274.11
   08:51:18.859.15-Aug-2021 3421.80 5146.07 56.19 2.00 247.44 3274.11
   08:51:19.059.15-Aug-2021 3421.80 5146.32 56.19 2.00 247.64 3274.11
   08:51:19.259.15-Aug-2021 3421.80 5146.41 56.19 2.00 247.84 3274.11
   08:51:19.459.15-Aug-2021 3421.80 5146.87 56.19 2.00 248.04 3274.11
   08:51:19.659.15-Aug-2021 3421.80 5146.87 56.19 2.00 248.24 3274.11
   08:51:19.859.15-Aug-2021 3421.80 5148.15 56.19 2.00 248.44 3274.11
   08:51:20.059.15-Aug-2021 3421.80 5148.48 56.19 2.00 248.64 3274.11
   08:51:20.259.15-Aug-2021 3421.80 5148.73 56.19 2.00 248.84 3274.11
   08:51:20.459.15-Aug-2021 3421.80 5149.45 56.19 2.00 249.04 3274.11
   08:51:20.659.15-Aug-2021 3421.80 5149.45 56.19 2.00 249.24 3274.11
   08:51:20.859.15-Aug-2021 3421.80 5150.31 56.19 2.00 249.44 3274.11
   08:51:21.059.15-Aug-2021 3421.80 5150.46 56.19 2.00 249.64 3274.11
   08:51:21.259.15-Aug-2021 3421.80 5150.63 56.19 2.00 249.84 3274.11
   08:51:21.459.15-Aug-2021 3421.80 5150.81 56.18 2.00 250.04 3274.11
   08:51:21.659.15-Aug-2021 3421.80 5150.81 56.18 2.00 250.24 3274.11
   08:51:21.860.15-Aug-2021 3421.80 5151.79 56.18 2.00 250.44 3274.11
   08:51:22.060.15-Aug-2021 3421.80 5152.12 56.18 2.00 250.64 3274.11
   08:51:22.260.15-Aug-2021 3421.80 5152.36 56.18 2.00 250.84 3274.11
   08:51:22.460.15-Aug-2021 3421.80 5152.52 56.18 2.00 251.04 3274.11
   08:51:22.660.15-Aug-2021 3421.80 5152.52 56.18 2.00 251.24 3274.11
   08:51:22.860.15-Aug-2021 3421.80 5152.85 56.18 2.00 251.44 3274.11
   08:51:23.060.15-Aug-2021 3421.80 5153.03 56.18 2.00 251.64 3274.11
   08:51:23.260.15-Aug-2021 3421.80 5153.19 56.18 2.00 251.84 3274.11
   08:51:23.460.15-Aug-2021 3421.80 5153.65 56.18 2.00 252.04 3274.11
   08:51:23.660.15-Aug-2021 3421.80 5153.65 56.18 2.00 252.24 3274.11
   08:51:23.860.15-Aug-2021 3421.80 5154.82 56.18 2.00 252.44 3274.11
   08:51:24.060.15-Aug-2021 3421.80 5155.23 56.18 2.00 252.64 3274.11
   08:51:24.260.15-Aug-2021 3421.80 5155.47 56.18 2.00 252.84 3274.11
