~Version Information
 VERS.                  2.0:   CWLS log ASCII Standard -VERSION 2.0
 WRAP.                   NO:   One line per depth step
~Well Information Block
#MNEM.UNIT     VALUE/NAME     DESCRIPTION
#---------     -----------    ---------------------------
 STRT.S             06:52:24 15-Aug-21: START TIME 06:52:24 15-Aug-21
 STOP.S             06:59:28 15-Aug-21: STOP TIME  06:59:28 15-Aug-21
 STEP.S                   0.00: STEP TIME
 NULL.                 -999.25: NULL VALUE
 DFWT.                        :  DIST FWL TEXT
 DFST.                        :  DIST FSL TEXT
 DMF .             Drill Floor:  DRILL MEAS FROM
 STIM.      17.18.56 20-Jun-21:  START TIME
 DATE.      17.18.56 20-Aug-21:  END TIME
 SPUD.               20-Jun-21:  SPUD DATE
 NREF.                    Grid:  NORTH REFERENCE
 HPTY.       Minimum Curvature:  HOLE POS TYPE
 DMOD.             Drill Model:  DRILL MOD DESC
 SVYD.                  Survey:  SURVEY DESC
 ILTD.               Lithology:  INTERP LTH DESC
 FTOP.          Formation Tops:  FORM TOPS DESC
 SON .        AZ-XX-0907056190:  JOB NUMBER
 PDAT.       Caspian Sea Level:  PERMANENT DATUM
 WTYP.                Deviated:  WELL TYPE
 MDS .        Operator Entered:  MAG DATA SOURCE
 COMP.     BP Exploration (Caspian Sea) Ltd.:  COMPANY
 UWI .            /AZE20000092:  UNIQUE WELL IDENTIFIER
 API .            /AZE20000092:  API NUMBER
 BASE.              Azerbaijan:  LOGGING EQUIPMENT BASE LOCATION
 REGN.                   EESSA:  REGION
 PROV.                    baku:  PROVINCE
 STAT.                    baku:  STATE NAME
 CTRY.              Azerbaijan:  COUNTRY NAME
 FLD .                     ACG:  FIELD NAME
 SRVC.          Turan Drilling:  CONTRACTOR
 MWDS.                    Baku:  MWD SHOP
 WELL.                     J26:  WELL NAME
 JOBN.        AZ-XX-0907056190:  JOB TICKET NUMB
 RIG .             West Chirag:  RIG NAME
 DOE .                     N/A:  DOE NUMBER
 DCON.         Sperry Drilling:  DIRECTNL CONTR
 UNIT.                     N/A:  LOGGING EQUIPMENT ID
 CNTY.                        :  COUNTY
 LOC .                        :  LOCATION
 LMF .             Drill Floor:  LOG MEASURED FROM
 TVDS.m                  43.00:  TVDSS CORRECTN
 LATI.deg                40.13:  LATITUDE
 LONG.deg                51.22:  LONGITUDE
 WHNS.m                  -7.12:  WELL HEAD N/S
 WHEW.m                  -9.46:  WELL HEAD E/W
 UTMX.m              519004.02:  UTM X
 UTMY.m             4443784.96:  UTM Y
 DFWL.m                   0.00:  DISTANCE FWL
 DFSL.m                   0.00:  DISTANCE FSL
 SDEP.m                 464.00:  START DEPTH
 TDD .m                3500.00:  TOTAL DEPTH (DRILLER)
 VSDR.deg               114.35:  VERT SEC DIRECT
 GVFD.g                   1.00:  GRAVITY FIELD
 MFLD.nT              50386.00:  MAGNETIC FIELD
 MDIP.deg                59.63:  MAGNETIC DIP
 MDEC.deg                 6.43:  MAGNETIC DECL
 GRDC.deg                 0.15:  GRID CORRECTION
 AZTC.deg                 6.29:  AZM TOTAL CORR
 EPD .m                   0.00:  ELEVATION
 EGL .m                   0.00:  GROUND ELEVATION
 WDMS.m                 169.80:  WD ELEV
 APD .m                  43.00:  DEPTH ABOVE PD
 VSEW.m                  -9.46:  VERT SEC E/W
 VSNS.m                  -7.12:  VERT SEC N/S
 AGAP.m                  43.00:  AIR GAP
 DEP .m                 356.16:  DEPTH
 EKB .m                  43.00:  KB ELEVATION
 EDF .m                  43.00:  DF ELEVATION
 TDL .m                 699.00:  TOTAL DEPTH (LOGGER)
 VSC .                       0:  VS TO CLOSURE
 MAGU.                 1853727:  MAGUTM CHECKSUM
~Parameter Information Block
#MNEM.UNIT       Value        Description
#---------     -----------    ---------------------------
 AV  .mps                 1.30:  Ann Velocity 
 AVMX.mps                 1.67:  Max Ann Veloc 
 AZIF.deg               280.40:  Azm, Final 
 BHAT.        Rotary Steerable:  BHA Type 
 BREV.rev            528970.00:  Rev Bit Total 
 BROT.°/30m               1.00:  Build Rotating 
 BS  .in                 12.25:  Bit Size 
 BSZ .in                 12.25:  Bit Size 
 BTPL.psig              738.00:  Bit Press Loss 
 CABU.                     Yes:  Customer Abuse 
 CGEO.        Elvin Suleymanov:  Customer Geo 
 COMM.                     ¬kS:  Run Comments 1 
 TCS .hr                 66.05:  Time Ciculation Ended 
 CV  .mps                 2.20:  Crit Velocity 
 CVMX.mps                 2.56:  Max Crit Veloc 
 DD1 .          Rashad Habibov:  Direct Drillr 1 
 DD2 .            Azer ravanov:  Direct Drillr 2 
 DD3 .           Teymur Agayev:  Direct Drillr 3 
 DDSV.               Geo-Pilot:  DD Service 
 DEFF.%                  90.00:  % Det Eff 
 DLRX.°/30m               2.95:  Dogleg Rot Max 
 DLSO.°/30m               1.00:  Dogleg Oriented 
 DLSX.°/30m               2.95:  Dogleg Str Max 
 DRET.      11.42.20 11-Aug-21:  Drill End Time 
 DRST.      23.03.20 08-Aug-21:  Drill Start Tim 
 DTIM.hr                 45.50:  Time Drilling 
 EDEP.m                3488.00:  End Depth 
 ENG1.         Marcelo Marcari:  Engineer 1 
 ENG2.         Dair Mahammadov:  Engineer 2 
 ENG3.       Davud Huseyn-zada:  Engineer 3 
 ENG4.         Yevgeniy Ulikov:  Engineer 4 
 ETIM.      17.45.20 17-Aug-21:  End Time 
 FLOI.gpm              1197.70:  Flow In 
 FLON.gpm              1100.00:  Flow In Min 
 FLOS.cptm                0.00:  Fluid Loss 
 FLOX.gpm              1200.00:  Flow In Max 
 DFT .        Mineral Oil Base:  Mud Type 
 FTRO.       Formation Presure:  FTWD Run Obj 
 HFLO.                      No:  High Flow 
 HPRE.                      No:  High Pressure 
 HTEM.                      No:  High Temp 
 HYDO.m                   1.80:  Hydro Offset 
 IFIN.deg                 9.87:  Inc, Final 
 IMAX.deg                19.96:  Inc Max 
 IMIN.deg                 3.82:  Inc Min 
 IMND.m                3257.42:  Inc Min Depth 
 IMXD.m                2945.53:  Inc Max Depth 
 JARR.                      No:  Jarring 
 LETM.      11.42.20 11-Aug-21:  Log End Time 
 LOST.hr                     0:  Lost Rig Time 
 LSTM.      23.03.20 08-Aug-21:  Log Start Time 
 MDCL.ppm             42500.00:  Mud Chlorides 
 MDES.     Inversion Oil/Synthetic:  Mud Desc 
 DFD .sg                  1.45:  Mud Density 
 MDMN.sg                  1.39:  Dens Mud Min 
 MDMX.sg                  1.57:  Dens Mud Max 
 MOIL.                   53.20:  Run Mud Oil % 
 MOWR.                   70:30:  Run Mud OWR 
 MSND.                       0:  Run Mud Sand % 
 MSOL.                   24.30:  Run Mud Solids% 
 DFV .spqt               79.00:  Mud Viscosity 
 MWOD.in                  8.00:  MWD Tool OD 
 MWSI.                      No:  Serv Intrp, MWD 
 OTIM.hr                253.06:  Time Operating 
 PCON.           Look Like New:  Pad Condition 
 PMAX.psia            11068.93:  Press Op, Max 
 PV  .cP                 36.00:  Mud PV 
 RUN .                    1000:  Run Number 
 ROPA.m/hr               15.34:  ROP Avg 
 ROPN.m/hr                4.00:  ROP Min 
 ROPX.m/hr               31.00:  ROP Max 
 RPMA.rpm               151.40:  RPM Surface Avg 
 RPMN.rpm               120.00:  RPM Surface Min 
 RPMX.rpm               160.00:  RPM Surface Max 
 RRUN.                    L505:  Rig Run Number 
 RTIM.hr                 10.00:  Time Reaming 
 SAZI.deg                88.92:  Azm, Start 
 SDEP.m                2789.00:  Start Depth 
 SIDD.                      No:  Serv Intrp, DD 
 SINC.deg                19.84:  Inc, Start 
 SPPA.psig             4421.39:  SPP Avg 
 SPPN.psig             4130.00:  SPP Min 
 SPPX.psig             4800.00:  SPP Max 
 STIM.      01.25.20 07-Aug-21:  Start Time 
 SVCS.                 DD, MWD:  Services 
 SVER.                    9.20:  Sperry Version 
 TDAT.m                 699.00:  Tot Depth Attmp 
 TDDF.                      No:  Trip for DD 
 TDLG.m                 699.00:  Tot Depth Loggd 
 TFF .                      No:  Trip for Fail 
 TQAA.f-kp               20.55:  Torque Abs Avg 
 TQAN.f-kp               15.00:  Torque Abs Min 
 TQAX.f-kp               24.00:  Torque Abs Max 
 TRRT.°/30m               0.50:  Turn Rotating 
 MRT .                    HCIM:  Maximum Recorded Temperature 
 TTMX.degC               82.35:  Max Tool Temp 
 VS01.                90654677:  Virtual Str1 SN 
 VS02.                90636294:  Virtual Str2 SN 
 VS03.                90653866:  Virtual Str3 SN 
 VS04.                90654674:  Virtual Str4 SN 
 WBMN.klb                10.00:  WOB Min 
 WITN.         Haytham Mostafa:  Customer Rep 
 WITN.           Rufat Babayev:  Customer Rep 2 
 WOBA.klb                22.43:  WOB Avg 
 WOBX.klb                35.00:  WOB Max 
 YP  .lhf2               32.00:  Yield Point 
~Curve Information Block
#MNEM.UNIT                 API CODE     Curve Description
#---------               -----------    ---------------------------
 TIME.HHMMSS            00 000 000 000:  GT Time & Date
 GTDEPTH.m              00 000 000 000:  GT Depth
 GTPQH.psia             00 000 000 000:  GT HR Quartz Pressure
 GTTQ.degC              00 000 000 000:  GT Quartz Temperature
 GTTN.NONE              00 000 000 000:  GT Test Number
 GTET.sec               00 000 000 000:  GT Elapsed Test Time
 GTTVD.m                00 000 000 000:  GT True Vertical Depth
#Other Information
#
#WARRANTY: Halliburton will use its best efforts to furnish customers with 
#accurate information and interpretations that are part of, and incident to, the services 
#provided.  However, Halliburton cannot and does not warrant the accuracy 
#or correctness of such information and interpretations.  Under no circumstances should any 
#such information or interpretation be relied upon as the sole basis for any drilling, 
#completion, production, or financial decision or any procedure involving any risk to the 
#safety of any drilling venture, drilling rig or its crew or any other third party.  The 
#Customer has full responsibility for all drilling, completion and production operation.  
#Halliburton makes no representations or warranties, either expressed or 
#implied, including, but not limited to, the implied warranties of merchantability or fitness 
#for a particular purpose, with respect to the services rendered.  In no event will 
#Halliburton be liable for failure to obtain any particular results or for 
#any damages, including, but not limited to, indirect, special or consequential damages, 
#resulting from the use of any information or interpretation provided by Halliburton.
#
~A           TIME           GTDEPTH  GTPQH  GTTQ  GTTN  GTET   GTTVD  
# ...
   06:58:09.718.15-Aug-2021 3437.50 5217.33 57.98 1.00 345.02 3289.56
   06:58:09.918.15-Aug-2021 3437.50 5217.33 57.98 1.00 345.22 3289.56
   06:58:10.118.15-Aug-2021 3437.50 5216.80 57.98 1.00 345.42 3289.56
   06:58:10.318.15-Aug-2021 3437.50 5216.71 57.98 1.00 345.62 3289.56
   06:58:10.518.15-Aug-2021 3437.50 5216.86 57.98 1.00 345.82 3289.56
   06:58:10.718.15-Aug-2021 3437.50 5216.69 57.98 1.00 346.02 3289.56
   06:58:10.918.15-Aug-2021 3437.50 5216.69 57.98 1.00 346.22 3289.56
   06:58:11.118.15-Aug-2021 3437.50 5216.66 57.98 1.00 346.42 3289.56
   06:58:11.318.15-Aug-2021 3437.50 5216.62 57.98 1.00 346.62 3289.56
   06:58:11.518.15-Aug-2021 3437.50 5217.38 57.98 1.00 346.82 3289.56
   06:58:11.718.15-Aug-2021 3437.50 5216.39 57.98 1.00 347.02 3289.56
   06:58:11.918.15-Aug-2021 3437.50 5216.39 57.98 1.00 347.22 3289.56
   06:58:12.118.15-Aug-2021 3437.50 5216.82 57.98 1.00 347.42 3289.56
   06:58:12.318.15-Aug-2021 3437.50 5217.23 57.98 1.00 347.62 3289.56
   06:58:12.518.15-Aug-2021 3437.50 5216.70 57.98 1.00 347.82 3289.56
   06:58:12.718.15-Aug-2021 3437.50 5216.67 57.98 1.00 348.02 3289.56
   06:58:12.918.15-Aug-2021 3437.50 5216.67 57.98 1.00 348.22 3289.56
   06:58:13.118.15-Aug-2021 3437.50 5216.47 57.98 1.00 348.42 3289.56
   06:58:13.318.15-Aug-2021 3437.50 5216.70 57.98 1.00 348.62 3289.56
   06:58:13.518.15-Aug-2021 3437.50 5217.23 57.98 1.00 348.82 3289.56
   06:58:13.718.15-Aug-2021 3437.50 5216.47 57.98 1.00 349.02 3289.56
   06:58:13.918.15-Aug-2021 3437.50 5216.47 57.98 1.00 349.22 3289.56
   06:58:14.118.15-Aug-2021 3437.50 5216.84 57.98 1.00 349.42 3289.56
   06:58:14.318.15-Aug-2021 3437.50 5216.98 57.98 1.00 349.62 3289.56
   06:58:14.518.15-Aug-2021 3437.50 5217.14 57.98 1.00 349.82 3289.56
   06:58:14.718.15-Aug-2021 3437.50 5216.25 57.98 1.00 350.02 3289.56
   06:58:14.918.15-Aug-2021 3437.50 5216.25 57.98 1.00 350.22 3289.56
   06:58:15.118.15-Aug-2021 3437.50 5216.42 57.98 1.00 350.42 3289.56
   06:58:15.318.15-Aug-2021 3437.50 5216.98 57.98 1.00 350.62 3289.56
   06:58:15.518.15-Aug-2021 3437.50 5217.24 57.98 1.00 350.82 3289.56
   06:58:15.718.15-Aug-2021 3437.50 5216.28 57.98 1.00 351.02 3289.56
   06:58:15.918.15-Aug-2021 3437.50 5216.28 57.98 1.00 351.22 3289.56
   06:58:16.118.15-Aug-2021 3437.50 5216.84 57.98 1.00 351.42 3289.56
   06:58:16.318.15-Aug-2021 3437.50 5217.39 57.98 1.00 351.62 3289.56
   06:58:16.518.15-Aug-2021 3437.50 5216.21 57.98 1.00 351.82 3289.56
   06:58:16.718.15-Aug-2021 3437.50 5216.93 57.98 1.00 352.02 3289.56
   06:58:16.918.15-Aug-2021 3437.50 5216.93 57.98 1.00 352.22 3289.56
   06:58:17.118.15-Aug-2021 3437.50 5217.46 57.98 1.00 352.42 3289.56
   06:58:17.318.15-Aug-2021 3437.50 5216.17 57.98 1.00 352.62 3289.56
   06:58:17.518.15-Aug-2021 3437.50 5217.07 57.98 1.00 352.82 3289.56
   06:58:17.718.15-Aug-2021 3437.50 5216.63 57.98 1.00 353.02 3289.56
   06:58:17.919.15-Aug-2021 3437.50 5216.63 57.98 1.00 353.22 3289.56
   06:58:18.119.15-Aug-2021 3437.50 5216.71 57.98 1.00 353.42 3289.56
   06:58:18.319.15-Aug-2021 3437.50 5216.72 57.98 1.00 353.63 3289.56
   06:58:18.519.15-Aug-2021 3437.50 5216.73 57.98 1.00 353.83 3289.56
   06:58:18.719.15-Aug-2021 3437.50 5216.80 57.98 1.00 354.03 3289.56
   06:58:18.919.15-Aug-2021 3437.50 5216.80 57.98 1.00 354.23 3289.56
   06:58:19.119.15-Aug-2021 3437.50 5216.49 57.98 1.00 354.43 3289.56
   06:58:19.319.15-Aug-2021 3437.50 5216.77 57.98 1.00 354.63 3289.56
   06:58:19.519.15-Aug-2021 3437.50 5216.75 57.98 1.00 354.83 3289.56
   06:58:19.719.15-Aug-2021 3437.50 5217.45 57.98 1.00 355.03 3289.56
   06:58:19.919.15-Aug-2021 3437.50 5217.45 57.98 1.00 355.23 3289.56
   06:58:20.119.15-Aug-2021 3437.50 5216.86 57.98 1.00 355.43 3289.56
   06:58:20.319.15-Aug-2021 3437.50 5216.64 57.98 1.00 355.63 3289.56
   06:58:20.519.15-Aug-2021 3437.50 5216.68 57.98 1.00 355.83 3289.56
   06:58:20.719.15-Aug-2021 3437.50 5216.70 57.98 1.00 356.03 3289.56
   06:58:20.919.15-Aug-2021 3437.50 5216.70 57.98 1.00 356.23 3289.56
   06:58:21.119.15-Aug-2021 3437.50 5216.49 57.98 1.00 356.43 3289.56
   06:58:21.319.15-Aug-2021 3437.50 5216.63 57.98 1.00 356.63 3289.56
   06:58:21.519.15-Aug-2021 3437.50 5216.72 57.98 1.00 356.83 3289.56
   06:58:21.719.15-Aug-2021 3437.50 5217.45 57.98 1.00 357.03 3289.56
   06:58:21.919.15-Aug-2021 3437.50 5217.45 57.98 1.00 357.23 3289.56
   06:58:22.119.15-Aug-2021 3437.50 5216.74 57.98 1.00 357.43 3289.56
   06:58:22.319.15-Aug-2021 3437.50 5216.85 57.98 1.00 357.63 3289.56
   06:58:22.519.15-Aug-2021 3437.50 5216.58 57.98 1.00 357.83 3289.56
   06:58:22.719.15-Aug-2021 3437.50 5217.33 57.98 1.00 358.03 3289.56
   06:58:22.919.15-Aug-2021 3437.50 5217.33 57.98 1.00 358.23 3289.56
   06:58:23.119.15-Aug-2021 3437.50 5216.47 57.98 1.00 358.43 3289.56
   06:58:23.319.15-Aug-2021 3437.50 5217.06 57.98 1.00 358.63 3289.56
   06:58:23.519.15-Aug-2021 3437.50 5217.07 57.98 1.00 358.83 3289.56
   06:58:23.719.15-Aug-2021 3437.50 5217.07 57.98 1.00 359.03 3289.56
   06:58:23.919.15-Aug-2021 3437.50 5217.07 57.98 1.00 359.23 3289.56
   06:58:24.119.15-Aug-2021 3437.50 5217.17 57.98 1.00 359.43 3289.56
   06:58:24.319.15-Aug-2021 3437.50 5216.95 57.98 1.00 359.63 3289.56
   06:58:24.519.15-Aug-2021 3437.50 5217.08 57.98 1.00 359.83 3289.56
   06:58:24.719.15-Aug-2021 3437.50 5216.30 57.98 1.00 360.03 3289.56
   06:58:24.919.15-Aug-2021 3437.50 5216.30 57.98 1.00 360.23 3289.56
   06:58:25.119.15-Aug-2021 3437.50 5216.54 57.98 1.00 360.43 3289.56
   06:58:25.319.15-Aug-2021 3437.50 5217.01 57.98 1.00 360.63 3289.56
   06:58:25.519.15-Aug-2021 3437.50 5216.66 57.98 1.00 360.83 3289.56
   06:58:25.719.15-Aug-2021 3437.50 5216.82 57.98 1.00 361.03 3289.56
   06:58:25.919.15-Aug-2021 3437.50 5216.82 57.98 1.00 361.23 3289.56
   06:58:26.119.15-Aug-2021 3437.50 5216.94 57.98 1.00 361.43 3289.56
   06:58:26.319.15-Aug-2021 3437.50 5217.36 57.98 1.00 361.63 3289.56
   06:58:26.519.15-Aug-2021 3437.50 5216.34 57.98 1.00 361.83 3289.56
   06:58:26.719.15-Aug-2021 3437.50 5216.97 57.98 1.00 362.03 3289.56
   06:58:26.919.15-Aug-2021 3437.50 5216.97 57.98 1.00 362.23 3289.56
   06:58:27.119.15-Aug-2021 3437.50 5217.01 57.98 1.00 362.43 3289.56
   06:58:27.319.15-Aug-2021 3437.50 5217.30 57.98 1.00 362.63 3289.56
   06:58:27.519.15-Aug-2021 3437.50 5216.42 57.98 1.00 362.83 3289.56
   06:58:27.719.15-Aug-2021 3437.50 5216.86 57.98 1.00 363.03 3289.56
   06:58:27.919.15-Aug-2021 3437.50 5216.86 57.98 1.00 363.23 3289.56
   06:58:28.119.15-Aug-2021 3437.50 5216.85 57.98 1.00 363.43 3289.56
   06:58:28.319.15-Aug-2021 3437.50 5216.88 57.98 1.00 363.63 3289.56
   06:58:28.519.15-Aug-2021 3437.50 5217.27 57.98 1.00 363.83 3289.56
   06:58:28.719.15-Aug-2021 3437.50 5216.20 57.98 1.00 364.03 3289.56
   06:58:28.919.15-Aug-2021 3437.50 5216.20 57.98 1.00 364.23 3289.56
   06:58:29.119.15-Aug-2021 3437.50 5216.71 57.98 1.00 364.43 3289.56
   06:58:29.319.15-Aug-2021 3437.50 5217.51 57.98 1.00 364.63 3289.56
   06:58:29.519.15-Aug-2021 3437.50 5216.29 57.98 1.00 364.83 3289.56
   06:58:29.719.15-Aug-2021 3437.50 5216.75 57.98 1.00 365.03 3289.56
   06:58:29.919.15-Aug-2021 3437.50 5216.75 57.98 1.00 365.23 3289.56
   06:58:30.119.15-Aug-2021 3437.50 5216.93 57.98 1.00 365.43 3289.56
   06:58:30.319.15-Aug-2021 3437.50 5217.35 57.98 1.00 365.63 3289.56
   06:58:30.519.15-Aug-2021 3437.50 5216.35 57.98 1.00 365.83 3289.56
   06:58:30.719.15-Aug-2021 3437.50 5216.85 57.98 1.00 366.03 3289.56
   06:58:30.919.15-Aug-2021 3437.50 5216.85 57.98 1.00 366.23 3289.56
   06:58:31.119.15-Aug-2021 3437.50 5217.31 57.98 1.00 366.43 3289.56
   06:58:31.319.15-Aug-2021 3437.50 5216.56 57.98 1.00 366.63 3289.56
   06:58:31.519.15-Aug-2021 3437.50 5216.64 57.98 1.00 366.83 3289.56
   06:58:31.719.15-Aug-2021 3437.50 5217.07 57.98 1.00 367.03 3289.56
   06:58:31.919.15-Aug-2021 3437.50 5217.07 57.98 1.00 367.23 3289.56
   06:58:32.120.15-Aug-2021 3437.50 5216.93 57.98 1.00 367.43 3289.56
   06:58:32.320.15-Aug-2021 3437.50 5217.31 57.98 1.00 367.63 3289.56
   06:58:32.520.15-Aug-2021 3437.50 5216.60 57.98 1.00 367.83 3289.56
