~Version Information
 VERS.                  2.0:   CWLS log ASCII Standard -VERSION 2.0
 WRAP.                   NO:   One line per depth step
~Well Information Block
#MNEM.UNIT     VALUE/NAME     DESCRIPTION
#---------     -----------    ---------------------------
 STRT.S             10:08:54 15-Aug-21: START TIME 10:08:54 15-Aug-21
 STOP.S             10:17:25 15-Aug-21: STOP TIME  10:17:25 15-Aug-21
 STEP.S                   0.00: STEP TIME
 NULL.                 -999.25: NULL VALUE
 DFWT.                        :  DIST FWL TEXT
 DFST.                        :  DIST FSL TEXT
 DMF .             Drill Floor:  DRILL MEAS FROM
 STIM.      17.18.56 20-Jun-21:  START TIME
 DATE.      17.18.56 20-Aug-21:  END TIME
 SPUD.               20-Jun-21:  SPUD DATE
 NREF.                    Grid:  NORTH REFERENCE
 HPTY.       Minimum Curvature:  HOLE POS TYPE
 DMOD.             Drill Model:  DRILL MOD DESC
 SVYD.                  Survey:  SURVEY DESC
 ILTD.               Lithology:  INTERP LTH DESC
 FTOP.          Formation Tops:  FORM TOPS DESC
 SON .        AZ-XX-0907056190:  JOB NUMBER
 PDAT.       Caspian Sea Level:  PERMANENT DATUM
 WTYP.                Deviated:  WELL TYPE
 MDS .        Operator Entered:  MAG DATA SOURCE
 COMP.     BP Exploration (Caspian Sea) Ltd.:  COMPANY
 UWI .            /AZE20000092:  UNIQUE WELL IDENTIFIER
 API .            /AZE20000092:  API NUMBER
 BASE.              Azerbaijan:  LOGGING EQUIPMENT BASE LOCATION
 REGN.                   EESSA:  REGION
 PROV.                    baku:  PROVINCE
 STAT.                    baku:  STATE NAME
 CTRY.              Azerbaijan:  COUNTRY NAME
 FLD .                     ACG:  FIELD NAME
 SRVC.          Turan Drilling:  CONTRACTOR
 MWDS.                    Baku:  MWD SHOP
 WELL.                     J26:  WELL NAME
 JOBN.        AZ-XX-0907056190:  JOB TICKET NUMB
 RIG .             West Chirag:  RIG NAME
 DOE .                     N/A:  DOE NUMBER
 DCON.         Sperry Drilling:  DIRECTNL CONTR
 UNIT.                     N/A:  LOGGING EQUIPMENT ID
 CNTY.                        :  COUNTY
 LOC .                        :  LOCATION
 LMF .             Drill Floor:  LOG MEASURED FROM
 TVDS.m                  43.00:  TVDSS CORRECTN
 LATI.deg                40.13:  LATITUDE
 LONG.deg                51.22:  LONGITUDE
 WHNS.m                  -7.12:  WELL HEAD N/S
 WHEW.m                  -9.46:  WELL HEAD E/W
 UTMX.m              519004.02:  UTM X
 UTMY.m             4443784.96:  UTM Y
 DFWL.m                   0.00:  DISTANCE FWL
 DFSL.m                   0.00:  DISTANCE FSL
 SDEP.m                 464.00:  START DEPTH
 TDD .m                3500.00:  TOTAL DEPTH (DRILLER)
 VSDR.deg               114.35:  VERT SEC DIRECT
 GVFD.g                   1.00:  GRAVITY FIELD
 MFLD.nT              50386.00:  MAGNETIC FIELD
 MDIP.deg                59.63:  MAGNETIC DIP
 MDEC.deg                 6.43:  MAGNETIC DECL
 GRDC.deg                 0.15:  GRID CORRECTION
 AZTC.deg                 6.29:  AZM TOTAL CORR
 EPD .m                   0.00:  ELEVATION
 EGL .m                   0.00:  GROUND ELEVATION
 WDMS.m                 169.80:  WD ELEV
 APD .m                  43.00:  DEPTH ABOVE PD
 VSEW.m                  -9.46:  VERT SEC E/W
 VSNS.m                  -7.12:  VERT SEC N/S
 AGAP.m                  43.00:  AIR GAP
 DEP .m                 356.16:  DEPTH
 EKB .m                  43.00:  KB ELEVATION
 EDF .m                  43.00:  DF ELEVATION
 TDL .m                 699.00:  TOTAL DEPTH (LOGGER)
 VSC .                       0:  VS TO CLOSURE
 MAGU.                 1853727:  MAGUTM CHECKSUM
~Parameter Information Block
#MNEM.UNIT       Value        Description
#---------     -----------    ---------------------------
 AV  .mps                 1.30:  Ann Velocity 
 AVMX.mps                 1.67:  Max Ann Veloc 
 AZIF.deg               280.40:  Azm, Final 
 BHAT.        Rotary Steerable:  BHA Type 
 BREV.rev            528970.00:  Rev Bit Total 
 BROT.°/30m               1.00:  Build Rotating 
 BS  .in                 12.25:  Bit Size 
 BSZ .in                 12.25:  Bit Size 
 BTPL.psig              738.00:  Bit Press Loss 
 CABU.                     Yes:  Customer Abuse 
 CGEO.        Elvin Suleymanov:  Customer Geo 
 COMM.                     ´½}:  Run Comments 1 
 TCS .hr                 66.05:  Time Ciculation Ended 
 CV  .mps                 2.20:  Crit Velocity 
 CVMX.mps                 2.56:  Max Crit Veloc 
 DD1 .          Rashad Habibov:  Direct Drillr 1 
 DD2 .            Azer ravanov:  Direct Drillr 2 
 DD3 .           Teymur Agayev:  Direct Drillr 3 
 DDSV.               Geo-Pilot:  DD Service 
 DEFF.%                  90.00:  % Det Eff 
 DLRX.°/30m               2.95:  Dogleg Rot Max 
 DLSO.°/30m               1.00:  Dogleg Oriented 
 DLSX.°/30m               2.95:  Dogleg Str Max 
 DRET.      11.42.20 11-Aug-21:  Drill End Time 
 DRST.      23.03.20 08-Aug-21:  Drill Start Tim 
 DTIM.hr                 45.50:  Time Drilling 
 EDEP.m                3488.00:  End Depth 
 ENG1.         Marcelo Marcari:  Engineer 1 
 ENG2.         Dair Mahammadov:  Engineer 2 
 ENG3.       Davud Huseyn-zada:  Engineer 3 
 ENG4.         Yevgeniy Ulikov:  Engineer 4 
 ETIM.      17.45.20 17-Aug-21:  End Time 
 FLOI.gpm              1197.70:  Flow In 
 FLON.gpm              1100.00:  Flow In Min 
 FLOS.cptm                0.00:  Fluid Loss 
 FLOX.gpm              1200.00:  Flow In Max 
 DFT .        Mineral Oil Base:  Mud Type 
 FTRO.       Formation Presure:  FTWD Run Obj 
 HFLO.                      No:  High Flow 
 HPRE.                      No:  High Pressure 
 HTEM.                      No:  High Temp 
 HYDO.m                   1.80:  Hydro Offset 
 IFIN.deg                 9.87:  Inc, Final 
 IMAX.deg                19.96:  Inc Max 
 IMIN.deg                 3.82:  Inc Min 
 IMND.m                3257.42:  Inc Min Depth 
 IMXD.m                2945.53:  Inc Max Depth 
 JARR.                      No:  Jarring 
 LETM.      11.42.20 11-Aug-21:  Log End Time 
 LOST.hr                     0:  Lost Rig Time 
 LSTM.      23.03.20 08-Aug-21:  Log Start Time 
 MDCL.ppm             42500.00:  Mud Chlorides 
 MDES.     Inversion Oil/Synthetic:  Mud Desc 
 DFD .sg                  1.45:  Mud Density 
 MDMN.sg                  1.39:  Dens Mud Min 
 MDMX.sg                  1.57:  Dens Mud Max 
 MOIL.                   53.20:  Run Mud Oil % 
 MOWR.                   70:30:  Run Mud OWR 
 MSND.                       0:  Run Mud Sand % 
 MSOL.                   24.30:  Run Mud Solids% 
 DFV .spqt               79.00:  Mud Viscosity 
 MWOD.in                  8.00:  MWD Tool OD 
 MWSI.                      No:  Serv Intrp, MWD 
 OTIM.hr                253.06:  Time Operating 
 PCON.           Look Like New:  Pad Condition 
 PMAX.psia            11068.93:  Press Op, Max 
 PV  .cP                 36.00:  Mud PV 
 RUN .                    1000:  Run Number 
 ROPA.m/hr               15.34:  ROP Avg 
 ROPN.m/hr                4.00:  ROP Min 
 ROPX.m/hr               31.00:  ROP Max 
 RPMA.rpm               151.40:  RPM Surface Avg 
 RPMN.rpm               120.00:  RPM Surface Min 
 RPMX.rpm               160.00:  RPM Surface Max 
 RRUN.                    L505:  Rig Run Number 
 RTIM.hr                 10.00:  Time Reaming 
 SAZI.deg                88.92:  Azm, Start 
 SDEP.m                2789.00:  Start Depth 
 SIDD.                      No:  Serv Intrp, DD 
 SINC.deg                19.84:  Inc, Start 
 SPPA.psig             4421.39:  SPP Avg 
 SPPN.psig             4130.00:  SPP Min 
 SPPX.psig             4800.00:  SPP Max 
 STIM.      01.25.20 07-Aug-21:  Start Time 
 SVCS.                 DD, MWD:  Services 
 SVER.                    9.20:  Sperry Version 
 TDAT.m                 699.00:  Tot Depth Attmp 
 TDDF.                      No:  Trip for DD 
 TDLG.m                 699.00:  Tot Depth Loggd 
 TFF .                      No:  Trip for Fail 
 TQAA.f-kp               20.55:  Torque Abs Avg 
 TQAN.f-kp               15.00:  Torque Abs Min 
 TQAX.f-kp               24.00:  Torque Abs Max 
 TRRT.°/30m               0.50:  Turn Rotating 
 MRT .                    HCIM:  Maximum Recorded Temperature 
 TTMX.degC               82.35:  Max Tool Temp 
 VS01.                90654677:  Virtual Str1 SN 
 VS02.                90636294:  Virtual Str2 SN 
 VS03.                90653866:  Virtual Str3 SN 
 VS04.                90654674:  Virtual Str4 SN 
 WBMN.klb                10.00:  WOB Min 
 WITN.         Haytham Mostafa:  Customer Rep 
 WITN.           Rufat Babayev:  Customer Rep 2 
 WOBA.klb                22.43:  WOB Avg 
 WOBX.klb                35.00:  WOB Max 
 YP  .lhf2               32.00:  Yield Point 
~Curve Information Block
#MNEM.UNIT                 API CODE     Curve Description
#---------               -----------    ---------------------------
 TIME.HHMMSS            00 000 000 000:  GT Time & Date
 GTDEPTH.m              00 000 000 000:  GT Depth
 GTPQH.psia             00 000 000 000:  GT HR Quartz Pressure
 GTTQ.degC              00 000 000 000:  GT Quartz Temperature
 GTTN.NONE              00 000 000 000:  GT Test Number
 GTET.sec               00 000 000 000:  GT Elapsed Test Time
 GTTVD.m                00 000 000 000:  GT True Vertical Depth
#Other Information
#
#WARRANTY: Halliburton will use its best efforts to furnish customers with 
#accurate information and interpretations that are part of, and incident to, the services 
#provided.  However, Halliburton cannot and does not warrant the accuracy 
#or correctness of such information and interpretations.  Under no circumstances should any 
#such information or interpretation be relied upon as the sole basis for any drilling, 
#completion, production, or financial decision or any procedure involving any risk to the 
#safety of any drilling venture, drilling rig or its crew or any other third party.  The 
#Customer has full responsibility for all drilling, completion and production operation.  
#Halliburton makes no representations or warranties, either expressed or 
#implied, including, but not limited to, the implied warranties of merchantability or fitness 
#for a particular purpose, with respect to the services rendered.  In no event will 
#Halliburton be liable for failure to obtain any particular results or for 
#any damages, including, but not limited to, indirect, special or consequential damages, 
#resulting from the use of any information or interpretation provided by Halliburton.
#
~A           TIME           GTDEPTH  GTPQH  GTTQ  GTTN  GTET   GTTVD  
   10:08:54.221.15-Aug-2021 3416.50 7492.48 54.48 4.00   0.00 3268.90
   10:08:54.421.15-Aug-2021 3416.50 7492.48 54.48 4.00   0.20 3268.90
   10:08:54.621.15-Aug-2021 3416.50 7491.80 54.48 4.00   0.40 3268.90
   10:08:54.821.15-Aug-2021 3416.50 7489.77 54.48 4.00   0.60 3268.90
   10:08:55.021.15-Aug-2021 3416.50 7489.56 54.48 4.00   0.80 3268.90
   10:08:55.221.15-Aug-2021 3416.50 7492.14 54.48 4.00   1.00 3268.90
   10:08:55.421.15-Aug-2021 3416.50 7492.14 54.48 4.00   1.20 3268.90
   10:08:55.621.15-Aug-2021 3416.50 7492.71 54.48 4.00   1.40 3268.90
   10:08:55.821.15-Aug-2021 3416.50 7491.69 54.48 4.00   1.60 3268.90
   10:08:56.022.15-Aug-2021 3416.50 7490.66 54.48 4.00   1.80 3268.90
   10:08:56.222.15-Aug-2021 3416.50 7490.69 54.48 4.00   2.00 3268.90
   10:08:56.422.15-Aug-2021 3416.50 7490.69 54.48 4.00   2.20 3268.90
   10:08:56.622.15-Aug-2021 3416.50 7493.22 54.48 4.00   2.40 3268.90
   10:08:56.822.15-Aug-2021 3416.50 7491.15 54.48 4.00   2.60 3268.90
   10:08:57.022.15-Aug-2021 3416.50 7489.63 54.48 4.00   2.80 3268.90
   10:08:57.222.15-Aug-2021 3416.50 7487.43 54.48 4.00   3.00 3268.90
   10:08:57.422.15-Aug-2021 3416.50 7487.43 54.48 4.00   3.20 3268.90
   10:08:57.622.15-Aug-2021 3416.50 7486.50 54.48 4.00   3.40 3268.90
   10:08:57.822.15-Aug-2021 3416.50 7487.07 54.48 4.00   3.60 3268.90
   10:08:58.022.15-Aug-2021 3416.50 7485.48 54.48 4.00   3.80 3268.90
   10:08:58.222.15-Aug-2021 3416.50 7481.41 54.48 4.00   4.00 3268.90
   10:08:58.422.15-Aug-2021 3416.50 7481.41 54.48 4.00   4.20 3268.90
   10:08:58.622.15-Aug-2021 3416.50 7480.50 54.48 4.00   4.40 3268.90
   10:08:58.822.15-Aug-2021 3416.50 7482.74 54.48 4.00   4.60 3268.90
   10:08:59.022.15-Aug-2021 3416.50 7477.56 54.48 4.00   4.80 3268.90
   10:08:59.222.15-Aug-2021 3416.50 7477.84 54.48 4.00   5.00 3268.90
   10:08:59.422.15-Aug-2021 3416.50 7477.84 54.48 4.00   5.20 3268.90
   10:08:59.622.15-Aug-2021 3416.50 7479.98 54.47 4.00   5.40 3268.90
   10:08:59.822.15-Aug-2021 3416.50 7481.47 54.47 4.00   5.60 3268.90
   10:09:00.022.15-Aug-2021 3416.50 7476.70 54.47 4.00   5.80 3268.90
   10:09:00.222.15-Aug-2021 3416.50 7477.76 54.47 4.00   6.00 3268.90
   10:09:00.422.15-Aug-2021 3416.50 7477.76 54.47 4.00   6.20 3268.90
   10:09:00.622.15-Aug-2021 3416.50 7479.84 54.47 4.00   6.40 3268.90
   10:09:00.822.15-Aug-2021 3416.50 7479.34 54.47 4.00   6.60 3268.90
   10:09:01.022.15-Aug-2021 3416.50 7479.58 54.47 4.00   6.80 3268.90
   10:09:01.222.15-Aug-2021 3416.50 7480.85 54.47 4.00   7.00 3268.90
   10:09:01.422.15-Aug-2021 3416.50 7480.85 54.47 4.00   7.20 3268.90
   10:09:01.622.15-Aug-2021 3416.50 7479.60 54.47 4.00   7.40 3268.90
   10:09:01.822.15-Aug-2021 3416.50 7480.03 54.47 4.00   7.60 3268.90
   10:09:02.022.15-Aug-2021 3416.50 7477.96 54.47 4.00   7.80 3268.90
   10:09:02.223.15-Aug-2021 3416.50 7478.13 54.47 4.00   8.00 3268.90
   10:09:02.423.15-Aug-2021 3416.50 7478.13 54.47 4.00   8.20 3268.90
   10:09:02.623.15-Aug-2021 3416.50 7482.07 54.47 4.00   8.40 3268.90
   10:09:02.823.15-Aug-2021 3416.50 7481.69 54.47 4.00   8.60 3268.90
   10:09:03.023.15-Aug-2021 3416.50 7479.33 54.47 4.00   8.80 3268.90
   10:09:03.223.15-Aug-2021 3416.50 7478.52 54.47 4.00   9.00 3268.90
   10:09:03.423.15-Aug-2021 3416.50 7478.52 54.47 4.00   9.20 3268.90
   10:09:03.623.15-Aug-2021 3416.50 7478.08 54.47 4.00   9.40 3268.90
   10:09:03.823.15-Aug-2021 3416.50 7479.51 54.47 4.00   9.60 3268.90
   10:09:04.023.15-Aug-2021 3416.50 7479.60 54.47 4.00   9.80 3268.90
   10:09:04.223.15-Aug-2021 3416.50 7480.59 54.47 4.00  10.00 3268.90
   10:09:04.423.15-Aug-2021 3416.50 7480.59 54.47 4.00  10.20 3268.90
   10:09:04.623.15-Aug-2021 3416.50 7479.53 54.47 4.00  10.40 3268.90
   10:09:04.823.15-Aug-2021 3416.50 7479.66 54.47 4.00  10.60 3268.90
   10:09:05.023.15-Aug-2021 3416.50 7480.27 54.47 4.00  10.80 3268.90
   10:09:05.223.15-Aug-2021 3416.50 7481.50 54.47 4.00  11.00 3268.90
   10:09:05.423.15-Aug-2021 3416.50 7481.50 54.47 4.00  11.20 3268.90
   10:09:05.623.15-Aug-2021 3416.50 7482.21 54.47 4.00  11.40 3268.90
   10:09:05.823.15-Aug-2021 3416.50 7482.54 54.47 4.00  11.60 3268.90
   10:09:06.023.15-Aug-2021 3416.50 7482.28 54.47 4.00  11.80 3268.90
   10:09:06.223.15-Aug-2021 3416.50 7483.89 54.47 4.00  12.00 3268.90
   10:09:06.423.15-Aug-2021 3416.50 7483.89 54.47 4.00  12.20 3268.90
   10:09:06.623.15-Aug-2021 3416.50 7483.01 54.47 4.00  12.40 3268.90
   10:09:06.823.15-Aug-2021 3416.50 7483.69 54.47 4.00  12.60 3268.90
   10:09:07.023.15-Aug-2021 3416.50 7483.73 54.47 4.00  12.80 3268.90
   10:09:07.223.15-Aug-2021 3416.50 7484.70 54.47 4.00  13.00 3268.90
   10:09:07.423.15-Aug-2021 3416.50 7484.70 54.47 4.00  13.20 3268.90
   10:09:07.623.15-Aug-2021 3416.50 7485.31 54.47 4.00  13.40 3268.90
   10:09:07.823.15-Aug-2021 3416.50 7484.45 54.47 4.00  13.60 3268.90
   10:09:08.023.15-Aug-2021 3416.50 7482.58 54.47 4.00  13.80 3268.90
   10:09:08.224.15-Aug-2021 3416.50 7483.20 54.47 4.00  14.00 3268.90
   10:09:08.424.15-Aug-2021 3416.50 7483.20 54.47 4.00  14.20 3268.90
   10:09:08.624.15-Aug-2021 3416.50 7484.72 54.47 4.00  14.40 3268.90
   10:09:08.824.15-Aug-2021 3416.50 7485.32 54.47 4.00  14.60 3268.90
   10:09:09.024.15-Aug-2021 3416.50 7485.43 54.47 4.00  14.80 3268.90
   10:09:09.224.15-Aug-2021 3416.50 7486.34 54.47 4.00  15.00 3268.90
   10:09:09.424.15-Aug-2021 3416.50 7486.34 54.47 4.00  15.20 3268.90
   10:09:09.624.15-Aug-2021 3416.50 7482.42 54.47 4.00  15.40 3268.90
   10:09:09.824.15-Aug-2021 3416.50 7484.72 54.47 4.00  15.60 3268.90
   10:09:10.024.15-Aug-2021 3416.50 7485.00 54.47 4.00  15.80 3268.90
   10:09:10.224.15-Aug-2021 3416.50 7484.70 54.47 4.00  16.00 3268.90
   10:09:10.424.15-Aug-2021 3416.50 7484.70 54.47 4.00  16.20 3268.90
   10:09:10.624.15-Aug-2021 3416.50 7485.26 54.47 4.00  16.40 3268.90
   10:09:10.824.15-Aug-2021 3416.50 7485.62 54.47 4.00  16.60 3268.90
   10:09:11.024.15-Aug-2021 3416.50 7484.44 54.47 4.00  16.80 3268.90
   10:09:11.224.15-Aug-2021 3416.50 7486.09 54.47 4.00  17.00 3268.90
   10:09:11.424.15-Aug-2021 3416.50 7486.09 54.47 4.00  17.20 3268.90
   10:09:11.624.15-Aug-2021 3416.50 7484.52 54.47 4.00  17.40 3268.90
   10:09:11.824.15-Aug-2021 3416.50 7483.27 54.47 4.00  17.60 3268.90
   10:09:12.024.15-Aug-2021 3416.50 7483.54 54.47 4.00  17.80 3268.90
   10:09:12.224.15-Aug-2021 3416.50 7486.45 54.47 4.00  18.00 3268.90
   10:09:12.424.15-Aug-2021 3416.50 7486.45 54.47 4.00  18.20 3268.90
   10:09:12.624.15-Aug-2021 3416.50 7483.37 54.47 4.00  18.40 3268.90
   10:09:12.824.15-Aug-2021 3416.50 7483.60 54.47 4.00  18.60 3268.90
   10:09:13.024.15-Aug-2021 3416.50 7483.09 54.47 4.00  18.80 3268.90
   10:09:13.224.15-Aug-2021 3416.50 7484.30 54.47 4.00  19.00 3268.90
   10:09:13.424.15-Aug-2021 3416.50 7484.30 54.47 4.00  19.20 3268.90
   10:09:13.624.15-Aug-2021 3416.50 7483.72 54.47 4.00  19.40 3268.90
   10:09:13.824.15-Aug-2021 3416.50 7482.85 54.47 4.00  19.60 3268.90
   10:09:14.024.15-Aug-2021 3416.50 7481.76 54.47 4.00  19.80 3268.90
   10:09:14.224.15-Aug-2021 3416.50 7483.56 54.47 4.00  20.00 3268.90
   10:09:14.425.15-Aug-2021 3416.50 7483.56 54.47 4.00  20.20 3268.90
   10:09:14.625.15-Aug-2021 3416.50 7483.64 54.47 4.00  20.40 3268.90
   10:09:14.825.15-Aug-2021 3416.50 7483.66 54.47 4.00  20.60 3268.90
   10:09:15.025.15-Aug-2021 3416.50 7482.15 54.47 4.00  20.80 3268.90
   10:09:15.225.15-Aug-2021 3416.50 7482.80 54.47 4.00  21.00 3268.90
   10:09:15.425.15-Aug-2021 3416.50 7482.80 54.47 4.00  21.20 3268.90
   10:09:15.625.15-Aug-2021 3416.50 7485.41 54.47 4.00  21.40 3268.90
   10:09:15.825.15-Aug-2021 3416.50 7481.92 54.47 4.00  21.60 3268.90
   10:09:16.025.15-Aug-2021 3416.50 7480.60 54.47 4.00  21.80 3268.90
   10:09:16.225.15-Aug-2021 3416.50 7480.44 54.47 4.00  22.00 3268.90
   10:09:16.425.15-Aug-2021 3416.50 7480.44 54.47 4.00  22.20 3268.90
   10:09:16.625.15-Aug-2021 3416.50 7482.22 54.47 4.00  22.40 3268.90
   10:09:16.825.15-Aug-2021 3416.50 7483.39 54.47 4.00  22.60 3268.90
   10:09:17.025.15-Aug-2021 3416.50 7483.11 54.47 4.00  22.80 3268.90
