~Version Information
 VERS.                  2.0:   CWLS log ASCII Standard -VERSION 2.0
 WRAP.                   NO:   One line per depth step
~Well Information Block
#MNEM.UNIT     VALUE/NAME     DESCRIPTION
#---------     -----------    ---------------------------
 STRT.S             09:29:08 15-Aug-21: START TIME 09:29:08 15-Aug-21
 STOP.S             09:37:37 15-Aug-21: STOP TIME  09:37:37 15-Aug-21
 STEP.S                   0.00: STEP TIME
 NULL.                 -999.25: NULL VALUE
 DFWT.                        :  DIST FWL TEXT
 DFST.                        :  DIST FSL TEXT
 DMF .             Drill Floor:  DRILL MEAS FROM
 STIM.      17.18.56 20-Jun-21:  START TIME
 DATE.      17.18.56 20-Aug-21:  END TIME
 SPUD.               20-Jun-21:  SPUD DATE
 NREF.                    Grid:  NORTH REFERENCE
 HPTY.       Minimum Curvature:  HOLE POS TYPE
 DMOD.             Drill Model:  DRILL MOD DESC
 SVYD.                  Survey:  SURVEY DESC
 ILTD.               Lithology:  INTERP LTH DESC
 FTOP.          Formation Tops:  FORM TOPS DESC
 SON .        AZ-XX-0907056190:  JOB NUMBER
 PDAT.       Caspian Sea Level:  PERMANENT DATUM
 WTYP.                Deviated:  WELL TYPE
 MDS .        Operator Entered:  MAG DATA SOURCE
 COMP.     BP Exploration (Caspian Sea) Ltd.:  COMPANY
 UWI .            /AZE20000092:  UNIQUE WELL IDENTIFIER
 API .            /AZE20000092:  API NUMBER
 BASE.              Azerbaijan:  LOGGING EQUIPMENT BASE LOCATION
 REGN.                   EESSA:  REGION
 PROV.                    baku:  PROVINCE
 STAT.                    baku:  STATE NAME
 CTRY.              Azerbaijan:  COUNTRY NAME
 FLD .                     ACG:  FIELD NAME
 SRVC.          Turan Drilling:  CONTRACTOR
 MWDS.                    Baku:  MWD SHOP
 WELL.                     J26:  WELL NAME
 JOBN.        AZ-XX-0907056190:  JOB TICKET NUMB
 RIG .             West Chirag:  RIG NAME
 DOE .                     N/A:  DOE NUMBER
 DCON.         Sperry Drilling:  DIRECTNL CONTR
 UNIT.                     N/A:  LOGGING EQUIPMENT ID
 CNTY.                        :  COUNTY
 LOC .                        :  LOCATION
 LMF .             Drill Floor:  LOG MEASURED FROM
 TVDS.m                  43.00:  TVDSS CORRECTN
 LATI.deg                40.13:  LATITUDE
 LONG.deg                51.22:  LONGITUDE
 WHNS.m                  -7.12:  WELL HEAD N/S
 WHEW.m                  -9.46:  WELL HEAD E/W
 UTMX.m              519004.02:  UTM X
 UTMY.m             4443784.96:  UTM Y
 DFWL.m                   0.00:  DISTANCE FWL
 DFSL.m                   0.00:  DISTANCE FSL
 SDEP.m                 464.00:  START DEPTH
 TDD .m                3500.00:  TOTAL DEPTH (DRILLER)
 VSDR.deg               114.35:  VERT SEC DIRECT
 GVFD.g                   1.00:  GRAVITY FIELD
 MFLD.nT              50386.00:  MAGNETIC FIELD
 MDIP.deg                59.63:  MAGNETIC DIP
 MDEC.deg                 6.43:  MAGNETIC DECL
 GRDC.deg                 0.15:  GRID CORRECTION
 AZTC.deg                 6.29:  AZM TOTAL CORR
 EPD .m                   0.00:  ELEVATION
 EGL .m                   0.00:  GROUND ELEVATION
 WDMS.m                 169.80:  WD ELEV
 APD .m                  43.00:  DEPTH ABOVE PD
 VSEW.m                  -9.46:  VERT SEC E/W
 VSNS.m                  -7.12:  VERT SEC N/S
 AGAP.m                  43.00:  AIR GAP
 DEP .m                 356.16:  DEPTH
 EKB .m                  43.00:  KB ELEVATION
 EDF .m                  43.00:  DF ELEVATION
 TDL .m                 699.00:  TOTAL DEPTH (LOGGER)
 VSC .                       0:  VS TO CLOSURE
 MAGU.                 1853727:  MAGUTM CHECKSUM
~Parameter Information Block
#MNEM.UNIT       Value        Description
#---------     -----------    ---------------------------
 AV  .mps                 1.30:  Ann Velocity 
 AVMX.mps                 1.67:  Max Ann Veloc 
 AZIF.deg               280.40:  Azm, Final 
 BHAT.        Rotary Steerable:  BHA Type 
 BREV.rev            528970.00:  Rev Bit Total 
 BROT.°/30m               1.00:  Build Rotating 
 BS  .in                 12.25:  Bit Size 
 BSZ .in                 12.25:  Bit Size 
 BTPL.psig              738.00:  Bit Press Loss 
 CABU.                     Yes:  Customer Abuse 
 CGEO.        Elvin Suleymanov:  Customer Geo 
 COMM.                     œR:  Run Comments 1 
 TCS .hr                 66.05:  Time Ciculation Ended 
 CV  .mps                 2.20:  Crit Velocity 
 CVMX.mps                 2.56:  Max Crit Veloc 
 DD1 .          Rashad Habibov:  Direct Drillr 1 
 DD2 .            Azer ravanov:  Direct Drillr 2 
 DD3 .           Teymur Agayev:  Direct Drillr 3 
 DDSV.               Geo-Pilot:  DD Service 
 DEFF.%                  90.00:  % Det Eff 
 DLRX.°/30m               2.95:  Dogleg Rot Max 
 DLSO.°/30m               1.00:  Dogleg Oriented 
 DLSX.°/30m               2.95:  Dogleg Str Max 
 DRET.      11.42.20 11-Aug-21:  Drill End Time 
 DRST.      23.03.20 08-Aug-21:  Drill Start Tim 
 DTIM.hr                 45.50:  Time Drilling 
 EDEP.m                3488.00:  End Depth 
 ENG1.         Marcelo Marcari:  Engineer 1 
 ENG2.         Dair Mahammadov:  Engineer 2 
 ENG3.       Davud Huseyn-zada:  Engineer 3 
 ENG4.         Yevgeniy Ulikov:  Engineer 4 
 ETIM.      17.45.20 17-Aug-21:  End Time 
 FLOI.gpm              1197.70:  Flow In 
 FLON.gpm              1100.00:  Flow In Min 
 FLOS.cptm                0.00:  Fluid Loss 
 FLOX.gpm              1200.00:  Flow In Max 
 DFT .        Mineral Oil Base:  Mud Type 
 FTRO.       Formation Presure:  FTWD Run Obj 
 HFLO.                      No:  High Flow 
 HPRE.                      No:  High Pressure 
 HTEM.                      No:  High Temp 
 HYDO.m                   1.80:  Hydro Offset 
 IFIN.deg                 9.87:  Inc, Final 
 IMAX.deg                19.96:  Inc Max 
 IMIN.deg                 3.82:  Inc Min 
 IMND.m                3257.42:  Inc Min Depth 
 IMXD.m                2945.53:  Inc Max Depth 
 JARR.                      No:  Jarring 
 LETM.      11.42.20 11-Aug-21:  Log End Time 
 LOST.hr                     0:  Lost Rig Time 
 LSTM.      23.03.20 08-Aug-21:  Log Start Time 
 MDCL.ppm             42500.00:  Mud Chlorides 
 MDES.     Inversion Oil/Synthetic:  Mud Desc 
 DFD .sg                  1.45:  Mud Density 
 MDMN.sg                  1.39:  Dens Mud Min 
 MDMX.sg                  1.57:  Dens Mud Max 
 MOIL.                   53.20:  Run Mud Oil % 
 MOWR.                   70:30:  Run Mud OWR 
 MSND.                       0:  Run Mud Sand % 
 MSOL.                   24.30:  Run Mud Solids% 
 DFV .spqt               79.00:  Mud Viscosity 
 MWOD.in                  8.00:  MWD Tool OD 
 MWSI.                      No:  Serv Intrp, MWD 
 OTIM.hr                253.06:  Time Operating 
 PCON.           Look Like New:  Pad Condition 
 PMAX.psia            11068.93:  Press Op, Max 
 PV  .cP                 36.00:  Mud PV 
 RUN .                    1000:  Run Number 
 ROPA.m/hr               15.34:  ROP Avg 
 ROPN.m/hr                4.00:  ROP Min 
 ROPX.m/hr               31.00:  ROP Max 
 RPMA.rpm               151.40:  RPM Surface Avg 
 RPMN.rpm               120.00:  RPM Surface Min 
 RPMX.rpm               160.00:  RPM Surface Max 
 RRUN.                    L505:  Rig Run Number 
 RTIM.hr                 10.00:  Time Reaming 
 SAZI.deg                88.92:  Azm, Start 
 SDEP.m                2789.00:  Start Depth 
 SIDD.                      No:  Serv Intrp, DD 
 SINC.deg                19.84:  Inc, Start 
 SPPA.psig             4421.39:  SPP Avg 
 SPPN.psig             4130.00:  SPP Min 
 SPPX.psig             4800.00:  SPP Max 
 STIM.      01.25.20 07-Aug-21:  Start Time 
 SVCS.                 DD, MWD:  Services 
 SVER.                    9.20:  Sperry Version 
 TDAT.m                 699.00:  Tot Depth Attmp 
 TDDF.                      No:  Trip for DD 
 TDLG.m                 699.00:  Tot Depth Loggd 
 TFF .                      No:  Trip for Fail 
 TQAA.f-kp               20.55:  Torque Abs Avg 
 TQAN.f-kp               15.00:  Torque Abs Min 
 TQAX.f-kp               24.00:  Torque Abs Max 
 TRRT.°/30m               0.50:  Turn Rotating 
 MRT .                    HCIM:  Maximum Recorded Temperature 
 TTMX.degC               82.35:  Max Tool Temp 
 VS01.                90654677:  Virtual Str1 SN 
 VS02.                90636294:  Virtual Str2 SN 
 VS03.                90653866:  Virtual Str3 SN 
 VS04.                90654674:  Virtual Str4 SN 
 WBMN.klb                10.00:  WOB Min 
 WITN.         Haytham Mostafa:  Customer Rep 
 WITN.           Rufat Babayev:  Customer Rep 2 
 WOBA.klb                22.43:  WOB Avg 
 WOBX.klb                35.00:  WOB Max 
 YP  .lhf2               32.00:  Yield Point 
~Curve Information Block
#MNEM.UNIT                 API CODE     Curve Description
#---------               -----------    ---------------------------
 TIME.HHMMSS            00 000 000 000:  GT Time & Date
 GTDEPTH.m              00 000 000 000:  GT Depth
 GTPQH.psia             00 000 000 000:  GT HR Quartz Pressure
 GTTQ.degC              00 000 000 000:  GT Quartz Temperature
 GTTN.NONE              00 000 000 000:  GT Test Number
 GTET.sec               00 000 000 000:  GT Elapsed Test Time
 GTTVD.m                00 000 000 000:  GT True Vertical Depth
#Other Information
#
#WARRANTY: Halliburton will use its best efforts to furnish customers with 
#accurate information and interpretations that are part of, and incident to, the services 
#provided.  However, Halliburton cannot and does not warrant the accuracy 
#or correctness of such information and interpretations.  Under no circumstances should any 
#such information or interpretation be relied upon as the sole basis for any drilling, 
#completion, production, or financial decision or any procedure involving any risk to the 
#safety of any drilling venture, drilling rig or its crew or any other third party.  The 
#Customer has full responsibility for all drilling, completion and production operation.  
#Halliburton makes no representations or warranties, either expressed or 
#implied, including, but not limited to, the implied warranties of merchantability or fitness 
#for a particular purpose, with respect to the services rendered.  In no event will 
#Halliburton be liable for failure to obtain any particular results or for 
#any damages, including, but not limited to, indirect, special or consequential damages, 
#resulting from the use of any information or interpretation provided by Halliburton.
#
~A           TIME           GTDEPTH  GTPQH  GTTQ  GTTN  GTET   GTTVD  
# ...
   09:36:02.898.15-Aug-2021 3421.80 5164.02 55.01 3.00 414.07 3274.11
   09:36:03.099.15-Aug-2021 3421.80 5164.02 55.01 3.00 414.27 3274.11
   09:36:03.299.15-Aug-2021 3421.80 5165.82 55.01 3.00 414.47 3274.11
   09:36:03.499.15-Aug-2021 3421.80 5166.53 55.01 3.00 414.67 3274.11
   09:36:03.699.15-Aug-2021 3421.80 5167.23 55.01 3.00 414.87 3274.11
   09:36:03.899.15-Aug-2021 3421.80 5168.04 55.01 3.00 415.07 3274.11
   09:36:04.099.15-Aug-2021 3421.80 5168.04 55.01 3.00 415.27 3274.11
   09:36:04.299.15-Aug-2021 3421.80 5169.44 55.01 3.00 415.47 3274.11
   09:36:04.499.15-Aug-2021 3421.80 5170.03 55.01 3.00 415.67 3274.11
   09:36:04.699.15-Aug-2021 3421.80 5170.62 55.01 3.00 415.87 3274.11
   09:36:04.899.15-Aug-2021 3421.80 5171.40 55.01 3.00 416.07 3274.11
   09:36:05.099.15-Aug-2021 3421.80 5171.40 55.01 3.00 416.27 3274.11
   09:36:05.299.15-Aug-2021 3421.80 5171.90 55.01 3.00 416.47 3274.11
   09:36:05.499.15-Aug-2021 3421.80 5173.27 55.01 3.00 416.67 3274.11
   09:36:05.699.15-Aug-2021 3421.80 5173.80 55.01 3.00 416.87 3274.11
   09:36:05.899.15-Aug-2021 3421.80 5174.81 55.01 3.00 417.07 3274.11
   09:36:06.099.15-Aug-2021 3421.80 5174.81 55.01 3.00 417.27 3274.11
   09:36:06.299.15-Aug-2021 3421.80 5175.95 55.01 3.00 417.47 3274.11
   09:36:06.499.15-Aug-2021 3421.80 5176.77 55.01 3.00 417.67 3274.11
   09:36:06.699.15-Aug-2021 3421.80 5177.36 55.01 3.00 417.87 3274.11
   09:36:06.899.15-Aug-2021 3421.80 5177.86 55.01 3.00 418.07 3274.11
   09:36:07.099.15-Aug-2021 3421.80 5177.86 55.01 3.00 418.27 3274.11
   09:36:07.299.15-Aug-2021 3421.80 5179.12 55.01 3.00 418.47 3274.11
   09:36:07.499.15-Aug-2021 3421.80 5179.84 55.01 3.00 418.67 3274.11
   09:36:07.699.15-Aug-2021 3421.80 5180.62 55.01 3.00 418.87 3274.11
   09:36:07.899.15-Aug-2021 3421.80 5181.71 55.01 3.00 419.07 3274.11
   09:36:08.099.15-Aug-2021 3421.80 5181.71 55.01 3.00 419.27 3274.11
   09:36:08.299.15-Aug-2021 3421.80 5182.72 55.01 3.00 419.47 3274.11
   09:36:08.499.15-Aug-2021 3421.80 5183.24 55.01 3.00 419.67 3274.11
   09:36:08.699.15-Aug-2021 3421.80 5183.78 55.01 3.00 419.87 3274.11
   09:36:08.899.15-Aug-2021 3421.80 5184.41 55.01 3.00 420.07 3274.11
   09:36:09.099.15-Aug-2021 3421.80 5184.41 55.01 3.00 420.27 3274.11
   09:36:09.300.15-Aug-2021 3421.80 5186.23 55.01 3.00 420.47 3274.11
   09:36:09.500.15-Aug-2021 3421.80 5186.63 55.01 3.00 420.67 3274.11
   09:36:09.700.15-Aug-2021 3421.80 5187.12 55.00 3.00 420.87 3274.11
   09:36:09.900.15-Aug-2021 3421.80 5187.56 55.01 3.00 421.07 3274.11
   09:36:10.100.15-Aug-2021 3421.80 5187.56 55.01 3.00 421.27 3274.11
   09:36:10.300.15-Aug-2021 3421.80 5188.77 55.00 3.00 421.47 3274.11
   09:36:10.500.15-Aug-2021 3421.80 5189.82 55.00 3.00 421.67 3274.11
   09:36:10.700.15-Aug-2021 3421.80 5190.18 55.00 3.00 421.87 3274.11
   09:36:10.900.15-Aug-2021 3421.80 5190.65 55.00 3.00 422.07 3274.11
   09:36:11.100.15-Aug-2021 3421.80 5190.65 55.00 3.00 422.27 3274.11
   09:36:11.300.15-Aug-2021 3421.80 5192.04 55.00 3.00 422.47 3274.11
   09:36:11.500.15-Aug-2021 3421.80 5192.39 55.00 3.00 422.67 3274.11
   09:36:11.700.15-Aug-2021 3421.80 5192.89 55.00 3.00 422.87 3274.11
   09:36:11.900.15-Aug-2021 3421.80 5193.37 55.00 3.00 423.07 3274.11
   09:36:12.100.15-Aug-2021 3421.80 5193.37 55.00 3.00 423.27 3274.11
   09:36:12.300.15-Aug-2021 3421.80 5194.73 55.00 3.00 423.47 3274.11
   09:36:12.500.15-Aug-2021 3421.80 5195.28 55.00 3.00 423.67 3274.11
   09:36:12.700.15-Aug-2021 3421.80 5195.60 55.00 3.00 423.87 3274.11
   09:36:12.900.15-Aug-2021 3421.80 5195.95 55.00 3.00 424.07 3274.11
   09:36:13.100.15-Aug-2021 3421.80 5195.95 55.00 3.00 424.27 3274.11
   09:36:13.300.15-Aug-2021 3421.80 5197.26 55.00 3.00 424.47 3274.11
   09:36:13.500.15-Aug-2021 3421.80 5197.69 55.00 3.00 424.67 3274.11
   09:36:13.700.15-Aug-2021 3421.80 5198.12 55.00 3.00 424.87 3274.11
   09:36:13.900.15-Aug-2021 3421.80 5198.79 55.00 3.00 425.07 3274.11
   09:36:14.100.15-Aug-2021 3421.80 5198.79 55.00 3.00 425.27 3274.11
   09:36:14.300.15-Aug-2021 3421.80 5198.79 55.00 3.00 425.47 3274.11
   09:36:14.500.15-Aug-2021 3421.80 5200.07 55.00 3.00 425.67 3274.11
   09:36:14.700.15-Aug-2021 3421.80 5200.37 55.00 3.00 425.87 3274.11
   09:36:14.900.15-Aug-2021 3421.80 5200.66 55.00 3.00 426.07 3274.11
   09:36:15.100.15-Aug-2021 3421.80 5200.66 55.00 3.00 426.27 3274.11
   09:36:15.300.15-Aug-2021 3421.80 5201.65 55.00 3.00 426.47 3274.11
   09:36:15.501.15-Aug-2021 3421.80 5202.08 55.00 3.00 426.67 3274.11
   09:36:15.701.15-Aug-2021 3421.80 5202.74 55.00 3.00 426.87 3274.11
   09:36:15.901.15-Aug-2021 3421.80 5203.02 55.00 3.00 427.07 3274.11
   09:36:16.101.15-Aug-2021 3421.80 5203.02 55.00 3.00 427.27 3274.11
   09:36:16.301.15-Aug-2021 3421.80 5203.70 55.00 3.00 427.47 3274.11
   09:36:16.501.15-Aug-2021 3421.80 5204.45 55.00 3.00 427.67 3274.11
   09:36:16.701.15-Aug-2021 3421.80 5204.88 55.00 3.00 427.87 3274.11
   09:36:16.901.15-Aug-2021 3421.80 5205.17 55.00 3.00 428.07 3274.11
   09:36:17.101.15-Aug-2021 3421.80 5205.17 55.00 3.00 428.27 3274.11
   09:36:17.301.15-Aug-2021 3421.80 5206.19 55.00 3.00 428.47 3274.11
   09:36:17.501.15-Aug-2021 3421.80 5206.50 55.00 3.00 428.67 3274.11
   09:36:17.701.15-Aug-2021 3421.80 5206.81 55.00 3.00 428.87 3274.11
   09:36:17.901.15-Aug-2021 3421.80 5207.30 55.00 3.00 429.07 3274.11
   09:36:18.101.15-Aug-2021 3421.80 5207.30 55.00 3.00 429.27 3274.11
   09:36:18.301.15-Aug-2021 3421.80 5208.26 55.00 3.00 429.47 3274.11
   09:36:18.501.15-Aug-2021 3421.80 5208.63 55.00 3.00 429.67 3274.11
   09:36:18.701.15-Aug-2021 3421.80 5209.13 55.00 3.00 429.87 3274.11
   09:36:18.901.15-Aug-2021 3421.80 5209.42 55.00 3.00 430.07 3274.11
   09:36:19.101.15-Aug-2021 3421.80 5209.42 55.00 3.00 430.27 3274.11
   09:36:19.301.15-Aug-2021 3421.80 5210.26 55.00 3.00 430.47 3274.11
   09:36:19.501.15-Aug-2021 3421.80 5210.82 55.00 3.00 430.67 3274.11
   09:36:19.701.15-Aug-2021 3421.80 5211.13 55.00 3.00 430.87 3274.11
   09:36:19.901.15-Aug-2021 3421.80 5211.37 55.00 3.00 431.07 3274.11
   09:36:20.101.15-Aug-2021 3421.80 5211.37 55.00 3.00 431.27 3274.11
   09:36:20.301.15-Aug-2021 3421.80 5212.48 55.00 3.00 431.47 3274.11
   09:36:20.501.15-Aug-2021 3421.80 5212.80 55.00 3.00 431.67 3274.11
   09:36:20.701.15-Aug-2021 3421.80 5213.03 55.00 3.00 431.87 3274.11
   09:36:20.901.15-Aug-2021 3421.80 5213.21 55.00 3.00 432.07 3274.11
   09:36:21.101.15-Aug-2021 3421.80 5213.21 55.00 3.00 432.27 3274.11
   09:36:21.301.15-Aug-2021 3421.80 5214.44 55.00 3.00 432.47 3274.11
   09:36:21.502.15-Aug-2021 3421.80 5214.90 55.00 3.00 432.67 3274.11
   09:36:21.702.15-Aug-2021 3421.80 5215.17 55.00 3.00 432.87 3274.11
   09:36:21.902.15-Aug-2021 3421.80 5215.46 55.00 3.00 433.07 3274.11
   09:36:22.102.15-Aug-2021 3421.80 5215.46 55.00 3.00 433.27 3274.11
   09:36:22.302.15-Aug-2021 3421.80 5215.96 55.00 3.00 433.47 3274.11
   09:36:22.502.15-Aug-2021 3421.80 5216.19 55.00 3.00 433.67 3274.11
   09:36:22.702.15-Aug-2021 3421.80 5216.44 55.00 3.00 433.87 3274.11
   09:36:22.902.15-Aug-2021 3421.80 5216.84 55.00 3.00 434.07 3274.11
   09:36:23.102.15-Aug-2021 3421.80 5216.84 55.00 3.00 434.27 3274.11
   09:36:23.302.15-Aug-2021 3421.80 5218.20 55.00 3.00 434.47 3274.11
   09:36:23.502.15-Aug-2021 3421.80 5218.39 55.00 3.00 434.67 3274.11
   09:36:23.702.15-Aug-2021 3421.80 5218.78 55.00 3.00 434.87 3274.11
   09:36:23.902.15-Aug-2021 3421.80 5219.09 55.00 3.00 435.07 3274.11
   09:36:24.102.15-Aug-2021 3421.80 5219.09 55.00 3.00 435.27 3274.11
   09:36:24.302.15-Aug-2021 3421.80 5219.46 55.00 3.00 435.47 3274.11
   09:36:24.502.15-Aug-2021 3421.80 5220.20 55.00 3.00 435.67 3274.11
   09:36:24.702.15-Aug-2021 3421.80 5220.74 55.00 3.00 435.87 3274.11
   09:36:24.902.15-Aug-2021 3421.80 5220.87 55.00 3.00 436.07 3274.11
   09:36:25.102.15-Aug-2021 3421.80 5220.87 55.00 3.00 436.27 3274.11
   09:36:25.302.15-Aug-2021 3421.80 5221.40 55.00 3.00 436.47 3274.11
   09:36:25.502.15-Aug-2021 3421.80 5221.99 55.00 3.00 436.67 3274.11
   09:36:25.702.15-Aug-2021 3421.80 5222.45 55.00 3.00 436.87 3274.11
