~Version Information
 VERS.                  2.0:   CWLS log ASCII Standard -VERSION 2.0
 WRAP.                   NO:   One line per depth step
~Well Information Block
#MNEM.UNIT     VALUE/NAME     DESCRIPTION
#---------     -----------    ---------------------------
 STRT.S             11:47:36 15-Aug-21: START TIME 11:47:36 15-Aug-21
 STOP.S             11:55:59 15-Aug-21: STOP TIME  11:55:59 15-Aug-21
 STEP.S                   0.00: STEP TIME
 NULL.                 -999.25: NULL VALUE
 DFWT.                        :  DIST FWL TEXT
 DFST.                        :  DIST FSL TEXT
 DMF .             Drill Floor:  DRILL MEAS FROM
 STIM.      17.18.56 20-Jun-21:  START TIME
 DATE.      17.18.56 20-Aug-21:  END TIME
 SPUD.               20-Jun-21:  SPUD DATE
 NREF.                    Grid:  NORTH REFERENCE
 HPTY.       Minimum Curvature:  HOLE POS TYPE
 DMOD.             Drill Model:  DRILL MOD DESC
 SVYD.                  Survey:  SURVEY DESC
 ILTD.               Lithology:  INTERP LTH DESC
 FTOP.          Formation Tops:  FORM TOPS DESC
 SON .        AZ-XX-0907056190:  JOB NUMBER
 PDAT.       Caspian Sea Level:  PERMANENT DATUM
 WTYP.                Deviated:  WELL TYPE
 MDS .        Operator Entered:  MAG DATA SOURCE
 COMP.     BP Exploration (Caspian Sea) Ltd.:  COMPANY
 UWI .            /AZE20000092:  UNIQUE WELL IDENTIFIER
 API .            /AZE20000092:  API NUMBER
 BASE.              Azerbaijan:  LOGGING EQUIPMENT BASE LOCATION
 REGN.                   EESSA:  REGION
 PROV.                    baku:  PROVINCE
 STAT.                    baku:  STATE NAME
 CTRY.              Azerbaijan:  COUNTRY NAME
 FLD .                     ACG:  FIELD NAME
 SRVC.          Turan Drilling:  CONTRACTOR
 MWDS.                    Baku:  MWD SHOP
 WELL.                     J26:  WELL NAME
 JOBN.        AZ-XX-0907056190:  JOB TICKET NUMB
 RIG .             West Chirag:  RIG NAME
 DOE .                     N/A:  DOE NUMBER
 DCON.         Sperry Drilling:  DIRECTNL CONTR
 UNIT.                     N/A:  LOGGING EQUIPMENT ID
 CNTY.                        :  COUNTY
 LOC .                        :  LOCATION
 LMF .             Drill Floor:  LOG MEASURED FROM
 TVDS.m                  43.00:  TVDSS CORRECTN
 LATI.deg                40.13:  LATITUDE
 LONG.deg                51.22:  LONGITUDE
 WHNS.m                  -7.12:  WELL HEAD N/S
 WHEW.m                  -9.46:  WELL HEAD E/W
 UTMX.m              519004.02:  UTM X
 UTMY.m             4443784.96:  UTM Y
 DFWL.m                   0.00:  DISTANCE FWL
 DFSL.m                   0.00:  DISTANCE FSL
 SDEP.m                 464.00:  START DEPTH
 TDD .m                3500.00:  TOTAL DEPTH (DRILLER)
 VSDR.deg               114.35:  VERT SEC DIRECT
 GVFD.g                   1.00:  GRAVITY FIELD
 MFLD.nT              50386.00:  MAGNETIC FIELD
 MDIP.deg                59.63:  MAGNETIC DIP
 MDEC.deg                 6.43:  MAGNETIC DECL
 GRDC.deg                 0.15:  GRID CORRECTION
 AZTC.deg                 6.29:  AZM TOTAL CORR
 EPD .m                   0.00:  ELEVATION
 EGL .m                   0.00:  GROUND ELEVATION
 WDMS.m                 169.80:  WD ELEV
 APD .m                  43.00:  DEPTH ABOVE PD
 VSEW.m                  -9.46:  VERT SEC E/W
 VSNS.m                  -7.12:  VERT SEC N/S
 AGAP.m                  43.00:  AIR GAP
 DEP .m                 356.16:  DEPTH
 EKB .m                  43.00:  KB ELEVATION
 EDF .m                  43.00:  DF ELEVATION
 TDL .m                 699.00:  TOTAL DEPTH (LOGGER)
 VSC .                       0:  VS TO CLOSURE
 MAGU.                 1853727:  MAGUTM CHECKSUM
~Parameter Information Block
#MNEM.UNIT       Value        Description
#---------     -----------    ---------------------------
 AV  .mps                 1.30:  Ann Velocity 
 AVMX.mps                 1.67:  Max Ann Veloc 
 AZIF.deg               280.40:  Azm, Final 
 BHAT.        Rotary Steerable:  BHA Type 
 BREV.rev            528970.00:  Rev Bit Total 
 BROT.°/30m               1.00:  Build Rotating 
 BS  .in                 12.25:  Bit Size 
 BSZ .in                 12.25:  Bit Size 
 BTPL.psig              738.00:  Bit Press Loss 
 CABU.                     Yes:  Customer Abuse 
 CGEO.        Elvin Suleymanov:  Customer Geo 
 COMM.                     lþe:  Run Comments 1 
 TCS .hr                 66.05:  Time Ciculation Ended 
 CV  .mps                 2.20:  Crit Velocity 
 CVMX.mps                 2.56:  Max Crit Veloc 
 DD1 .          Rashad Habibov:  Direct Drillr 1 
 DD2 .            Azer ravanov:  Direct Drillr 2 
 DD3 .           Teymur Agayev:  Direct Drillr 3 
 DDSV.               Geo-Pilot:  DD Service 
 DEFF.%                  90.00:  % Det Eff 
 DLRX.°/30m               2.95:  Dogleg Rot Max 
 DLSO.°/30m               1.00:  Dogleg Oriented 
 DLSX.°/30m               2.95:  Dogleg Str Max 
 DRET.      11.42.20 11-Aug-21:  Drill End Time 
 DRST.      23.03.20 08-Aug-21:  Drill Start Tim 
 DTIM.hr                 45.50:  Time Drilling 
 EDEP.m                3488.00:  End Depth 
 ENG1.         Marcelo Marcari:  Engineer 1 
 ENG2.         Dair Mahammadov:  Engineer 2 
 ENG3.       Davud Huseyn-zada:  Engineer 3 
 ENG4.         Yevgeniy Ulikov:  Engineer 4 
 ETIM.      17.45.20 17-Aug-21:  End Time 
 FLOI.gpm              1197.70:  Flow In 
 FLON.gpm              1100.00:  Flow In Min 
 FLOS.cptm                0.00:  Fluid Loss 
 FLOX.gpm              1200.00:  Flow In Max 
 DFT .        Mineral Oil Base:  Mud Type 
 FTRO.       Formation Presure:  FTWD Run Obj 
 HFLO.                      No:  High Flow 
 HPRE.                      No:  High Pressure 
 HTEM.                      No:  High Temp 
 HYDO.m                   1.80:  Hydro Offset 
 IFIN.deg                 9.87:  Inc, Final 
 IMAX.deg                19.96:  Inc Max 
 IMIN.deg                 3.82:  Inc Min 
 IMND.m                3257.42:  Inc Min Depth 
 IMXD.m                2945.53:  Inc Max Depth 
 JARR.                      No:  Jarring 
 LETM.      11.42.20 11-Aug-21:  Log End Time 
 LOST.hr                     0:  Lost Rig Time 
 LSTM.      23.03.20 08-Aug-21:  Log Start Time 
 MDCL.ppm             42500.00:  Mud Chlorides 
 MDES.     Inversion Oil/Synthetic:  Mud Desc 
 DFD .sg                  1.45:  Mud Density 
 MDMN.sg                  1.39:  Dens Mud Min 
 MDMX.sg                  1.57:  Dens Mud Max 
 MOIL.                   53.20:  Run Mud Oil % 
 MOWR.                   70:30:  Run Mud OWR 
 MSND.                       0:  Run Mud Sand % 
 MSOL.                   24.30:  Run Mud Solids% 
 DFV .spqt               79.00:  Mud Viscosity 
 MWOD.in                  8.00:  MWD Tool OD 
 MWSI.                      No:  Serv Intrp, MWD 
 OTIM.hr                253.06:  Time Operating 
 PCON.           Look Like New:  Pad Condition 
 PMAX.psia            11068.93:  Press Op, Max 
 PV  .cP                 36.00:  Mud PV 
 RUN .                    1000:  Run Number 
 ROPA.m/hr               15.34:  ROP Avg 
 ROPN.m/hr                4.00:  ROP Min 
 ROPX.m/hr               31.00:  ROP Max 
 RPMA.rpm               151.40:  RPM Surface Avg 
 RPMN.rpm               120.00:  RPM Surface Min 
 RPMX.rpm               160.00:  RPM Surface Max 
 RRUN.                    L505:  Rig Run Number 
 RTIM.hr                 10.00:  Time Reaming 
 SAZI.deg                88.92:  Azm, Start 
 SDEP.m                2789.00:  Start Depth 
 SIDD.                      No:  Serv Intrp, DD 
 SINC.deg                19.84:  Inc, Start 
 SPPA.psig             4421.39:  SPP Avg 
 SPPN.psig             4130.00:  SPP Min 
 SPPX.psig             4800.00:  SPP Max 
 STIM.      01.25.20 07-Aug-21:  Start Time 
 SVCS.                 DD, MWD:  Services 
 SVER.                    9.20:  Sperry Version 
 TDAT.m                 699.00:  Tot Depth Attmp 
 TDDF.                      No:  Trip for DD 
 TDLG.m                 699.00:  Tot Depth Loggd 
 TFF .                      No:  Trip for Fail 
 TQAA.f-kp               20.55:  Torque Abs Avg 
 TQAN.f-kp               15.00:  Torque Abs Min 
 TQAX.f-kp               24.00:  Torque Abs Max 
 TRRT.°/30m               0.50:  Turn Rotating 
 MRT .                    HCIM:  Maximum Recorded Temperature 
 TTMX.degC               82.35:  Max Tool Temp 
 VS01.                90654677:  Virtual Str1 SN 
 VS02.                90636294:  Virtual Str2 SN 
 VS03.                90653866:  Virtual Str3 SN 
 VS04.                90654674:  Virtual Str4 SN 
 WBMN.klb                10.00:  WOB Min 
 WITN.         Haytham Mostafa:  Customer Rep 
 WITN.           Rufat Babayev:  Customer Rep 2 
 WOBA.klb                22.43:  WOB Avg 
 WOBX.klb                35.00:  WOB Max 
 YP  .lhf2               32.00:  Yield Point 
~Curve Information Block
#MNEM.UNIT                 API CODE     Curve Description
#---------               -----------    ---------------------------
 TIME.HHMMSS            00 000 000 000:  GT Time & Date
 GTDEPTH.m              00 000 000 000:  GT Depth
 GTPQH.psia             00 000 000 000:  GT HR Quartz Pressure
 GTTQ.degC              00 000 000 000:  GT Quartz Temperature
 GTTN.NONE              00 000 000 000:  GT Test Number
 GTET.sec               00 000 000 000:  GT Elapsed Test Time
 GTTVD.m                00 000 000 000:  GT True Vertical Depth
#Other Information
#
#WARRANTY: Halliburton will use its best efforts to furnish customers with 
#accurate information and interpretations that are part of, and incident to, the services 
#provided.  However, Halliburton cannot and does not warrant the accuracy 
#or correctness of such information and interpretations.  Under no circumstances should any 
#such information or interpretation be relied upon as the sole basis for any drilling, 
#completion, production, or financial decision or any procedure involving any risk to the 
#safety of any drilling venture, drilling rig or its crew or any other third party.  The 
#Customer has full responsibility for all drilling, completion and production operation.  
#Halliburton makes no representations or warranties, either expressed or 
#implied, including, but not limited to, the implied warranties of merchantability or fitness 
#for a particular purpose, with respect to the services rendered.  In no event will 
#Halliburton be liable for failure to obtain any particular results or for 
#any damages, including, but not limited to, indirect, special or consequential damages, 
#resulting from the use of any information or interpretation provided by Halliburton.
#
~A           TIME           GTDEPTH  GTPQH  GTTQ  GTTN  GTET   GTTVD  
# ...
   11:54:07.061.15-Aug-2021 3405.50 1821.61 53.77 5.00 390.76 3258.07
   11:54:07.261.15-Aug-2021 3405.50 1821.61 53.77 5.00 390.96 3258.07
   11:54:07.461.15-Aug-2021 3405.50 1822.43 53.77 5.00 391.16 3258.07
   11:54:07.661.15-Aug-2021 3405.50 1822.86 53.77 5.00 391.36 3258.07
   11:54:07.861.15-Aug-2021 3405.50 1823.27 53.77 5.00 391.56 3258.07
   11:54:08.061.15-Aug-2021 3405.50 1823.81 53.77 5.00 391.76 3258.07
   11:54:08.261.15-Aug-2021 3405.50 1823.81 53.77 5.00 391.96 3258.07
   11:54:08.461.15-Aug-2021 3405.50 1824.69 53.77 5.00 392.16 3258.07
   11:54:08.661.15-Aug-2021 3405.50 1825.05 53.77 5.00 392.36 3258.07
   11:54:08.860.15-Aug-2021 3405.50 1825.72 53.77 5.00 392.56 3258.07
   11:54:09.060.15-Aug-2021 3405.50 1826.01 53.77 5.00 392.76 3258.07
   11:54:09.260.15-Aug-2021 3405.50 1826.01 53.77 5.00 392.96 3258.07
   11:54:09.460.15-Aug-2021 3405.50 1827.14 53.77 5.00 393.16 3258.07
   11:54:09.660.15-Aug-2021 3405.50 1827.73 53.77 5.00 393.36 3258.07
   11:54:09.860.15-Aug-2021 3405.50 1828.16 53.77 5.00 393.56 3258.07
   11:54:10.060.15-Aug-2021 3405.50 1828.66 53.77 5.00 393.76 3258.07
   11:54:10.260.15-Aug-2021 3405.50 1828.66 53.77 5.00 393.96 3258.07
   11:54:10.459.15-Aug-2021 3405.50 1829.41 53.77 5.00 394.16 3258.07
   11:54:10.659.15-Aug-2021 3405.50 1829.78 53.77 5.00 394.36 3258.07
   11:54:10.859.15-Aug-2021 3405.50 1830.49 53.77 5.00 394.56 3258.07
   11:54:11.059.15-Aug-2021 3405.50 1830.75 53.77 5.00 394.76 3258.07
   11:54:11.259.15-Aug-2021 3405.50 1830.75 53.77 5.00 394.96 3258.07
   11:54:11.459.15-Aug-2021 3405.50 1832.05 53.77 5.00 395.16 3258.07
   11:54:11.659.15-Aug-2021 3405.50 1832.43 53.77 5.00 395.36 3258.07
   11:54:11.859.15-Aug-2021 3405.50 1832.74 53.77 5.00 395.56 3258.07
   11:54:12.058.15-Aug-2021 3405.50 1833.09 53.77 5.00 395.76 3258.07
   11:54:12.258.15-Aug-2021 3405.50 1833.09 53.77 5.00 395.96 3258.07
   11:54:12.458.15-Aug-2021 3405.50 1834.05 53.77 5.00 396.16 3258.07
   11:54:12.658.15-Aug-2021 3405.50 1834.38 53.77 5.00 396.36 3258.07
   11:54:12.858.15-Aug-2021 3405.50 1835.00 53.77 5.00 396.56 3258.07
   11:54:13.058.15-Aug-2021 3405.50 1835.70 53.77 5.00 396.76 3258.07
   11:54:13.258.15-Aug-2021 3405.50 1835.70 53.77 5.00 396.96 3258.07
   11:54:13.458.15-Aug-2021 3405.50 1836.37 53.77 5.00 397.16 3258.07
   11:54:13.658.15-Aug-2021 3405.50 1836.76 53.77 5.00 397.36 3258.07
   11:54:13.857.15-Aug-2021 3405.50 1837.13 53.77 5.00 397.56 3258.07
   11:54:14.057.15-Aug-2021 3405.50 1837.79 53.77 5.00 397.76 3258.07
   11:54:14.257.15-Aug-2021 3405.50 1837.79 53.77 5.00 397.96 3258.07
   11:54:14.457.15-Aug-2021 3405.50 1838.83 53.77 5.00 398.16 3258.07
   11:54:14.657.15-Aug-2021 3405.50 1839.14 53.77 5.00 398.36 3258.07
   11:54:14.857.15-Aug-2021 3405.50 1839.44 53.77 5.00 398.56 3258.07
   11:54:15.057.15-Aug-2021 3405.50 1840.19 53.77 5.00 398.76 3258.07
   11:54:15.257.15-Aug-2021 3405.50 1840.19 53.77 5.00 398.96 3258.07
   11:54:15.456.15-Aug-2021 3405.50 1841.03 53.76 5.00 399.16 3258.07
   11:54:15.656.15-Aug-2021 3405.50 1841.35 53.76 5.00 399.36 3258.07
   11:54:15.856.15-Aug-2021 3405.50 1841.72 53.76 5.00 399.56 3258.07
   11:54:16.056.15-Aug-2021 3405.50 1842.19 53.76 5.00 399.76 3258.07
   11:54:16.256.15-Aug-2021 3405.50 1842.19 53.76 5.00 399.96 3258.07
   11:54:16.456.15-Aug-2021 3405.50 1843.27 53.76 5.00 400.16 3258.07
   11:54:16.656.15-Aug-2021 3405.50 1843.32 53.76 5.00 400.36 3258.07
   11:54:16.856.15-Aug-2021 3405.50 1844.06 53.76 5.00 400.56 3258.07
   11:54:17.055.15-Aug-2021 3405.50 1844.57 53.76 5.00 400.76 3258.07
   11:54:17.255.15-Aug-2021 3405.50 1844.57 53.76 5.00 400.96 3258.07
   11:54:17.455.15-Aug-2021 3405.50 1845.39 53.76 5.00 401.16 3258.07
   11:54:17.655.15-Aug-2021 3405.50 1846.07 53.76 5.00 401.36 3258.07
   11:54:17.855.15-Aug-2021 3405.50 1846.41 53.76 5.00 401.56 3258.07
   11:54:18.055.15-Aug-2021 3405.50 1846.99 53.76 5.00 401.76 3258.07
   11:54:18.255.15-Aug-2021 3405.50 1846.99 53.76 5.00 401.96 3258.07
   11:54:18.455.15-Aug-2021 3405.50 1848.17 53.76 5.00 402.16 3258.07
   11:54:18.655.15-Aug-2021 3405.50 1848.54 53.76 5.00 402.36 3258.07
   11:54:18.854.15-Aug-2021 3405.50 1849.14 53.76 5.00 402.56 3258.07
   11:54:19.054.15-Aug-2021 3405.50 1849.32 53.76 5.00 402.76 3258.07
   11:54:19.254.15-Aug-2021 3405.50 1849.32 53.76 5.00 402.96 3258.07
   11:54:19.454.15-Aug-2021 3405.50 1850.35 53.76 5.00 403.16 3258.07
   11:54:19.654.15-Aug-2021 3405.50 1850.73 53.76 5.00 403.36 3258.07
   11:54:19.854.15-Aug-2021 3405.50 1851.10 53.76 5.00 403.56 3258.07
   11:54:20.054.15-Aug-2021 3405.50 1851.57 53.76 5.00 403.76 3258.07
   11:54:20.254.15-Aug-2021 3405.50 1851.57 53.76 5.00 403.96 3258.07
   11:54:20.453.15-Aug-2021 3405.50 1852.49 53.76 5.00 404.16 3258.07
   11:54:20.653.15-Aug-2021 3405.50 1852.68 53.76 5.00 404.36 3258.07
   11:54:20.853.15-Aug-2021 3405.50 1853.15 53.76 5.00 404.56 3258.07
   11:54:21.053.15-Aug-2021 3405.50 1853.85 53.76 5.00 404.76 3258.07
   11:54:21.253.15-Aug-2021 3405.50 1853.85 53.76 5.00 404.96 3258.07
   11:54:21.453.15-Aug-2021 3405.50 1854.72 53.76 5.00 405.16 3258.07
   11:54:21.653.15-Aug-2021 3405.50 1855.24 53.76 5.00 405.36 3258.07
   11:54:21.853.15-Aug-2021 3405.50 1855.71 53.76 5.00 405.56 3258.07
   11:54:22.052.15-Aug-2021 3405.50 1856.09 53.76 5.00 405.76 3258.07
   11:54:22.252.15-Aug-2021 3405.50 1856.09 53.76 5.00 405.96 3258.07
   11:54:22.452.15-Aug-2021 3405.50 1856.97 53.76 5.00 406.16 3258.07
   11:54:22.652.15-Aug-2021 3405.50 1857.29 53.76 5.00 406.36 3258.07
   11:54:22.852.15-Aug-2021 3405.50 1857.87 53.76 5.00 406.56 3258.07
   11:54:23.052.15-Aug-2021 3405.50 1858.06 53.76 5.00 406.76 3258.07
   11:54:23.252.15-Aug-2021 3405.50 1858.06 53.76 5.00 406.96 3258.07
   11:54:23.452.15-Aug-2021 3405.50 1858.92 53.76 5.00 407.16 3258.07
   11:54:23.652.15-Aug-2021 3405.50 1859.38 53.76 5.00 407.35 3258.07
   11:54:23.851.15-Aug-2021 3405.50 1859.81 53.76 5.00 407.55 3258.07
   11:54:24.051.15-Aug-2021 3405.50 1860.13 53.76 5.00 407.75 3258.07
   11:54:24.251.15-Aug-2021 3405.50 1860.13 53.76 5.00 407.95 3258.07
   11:54:24.451.15-Aug-2021 3405.50 1861.04 53.76 5.00 408.15 3258.07
   11:54:24.651.15-Aug-2021 3405.50 1861.75 53.76 5.00 408.35 3258.07
   11:54:24.851.15-Aug-2021 3405.50 1862.03 53.76 5.00 408.55 3258.07
   11:54:25.051.15-Aug-2021 3405.50 1862.35 53.76 5.00 408.75 3258.07
   11:54:25.251.15-Aug-2021 3405.50 1862.35 53.76 5.00 408.95 3258.07
   11:54:25.450.15-Aug-2021 3405.50 1863.54 53.76 5.00 409.15 3258.07
   11:54:25.650.15-Aug-2021 3405.50 1863.82 53.76 5.00 409.35 3258.07
   11:54:25.850.15-Aug-2021 3405.50 1864.15 53.76 5.00 409.55 3258.07
   11:54:26.050.15-Aug-2021 3405.50 1864.66 53.76 5.00 409.75 3258.07
   11:54:26.250.15-Aug-2021 3405.50 1864.66 53.76 5.00 409.95 3258.07
   11:54:26.450.15-Aug-2021 3405.50 1865.72 53.76 5.00 410.15 3258.07
   11:54:26.650.15-Aug-2021 3405.50 1866.12 53.76 5.00 410.35 3258.07
   11:54:26.850.15-Aug-2021 3405.50 1866.40 53.76 5.00 410.55 3258.07
   11:54:27.049.15-Aug-2021 3405.50 1866.74 53.76 5.00 410.75 3258.07
   11:54:27.249.15-Aug-2021 3405.50 1866.74 53.76 5.00 410.95 3258.07
   11:54:27.449.15-Aug-2021 3405.50 1867.47 53.76 5.00 411.15 3258.07
   11:54:27.649.15-Aug-2021 3405.50 1867.92 53.76 5.00 411.35 3258.07
   11:54:27.849.15-Aug-2021 3405.50 1868.31 53.76 5.00 411.55 3258.07
   11:54:28.049.15-Aug-2021 3405.50 1868.77 53.76 5.00 411.75 3258.07
   11:54:28.249.15-Aug-2021 3405.50 1868.77 53.76 5.00 411.95 3258.07
   11:54:28.449.15-Aug-2021 3405.50 1869.30 53.76 5.00 412.15 3258.07
   11:54:28.648.15-Aug-2021 3405.50 1869.71 53.76 5.00 412.35 3258.07
   11:54:28.848.15-Aug-2021 3405.50 1870.11 53.75 5.00 412.55 3258.07
   11:54:29.048.15-Aug-2021 3405.50 1870.46 53.75 5.00 412.75 3258.07
   11:54:29.248.15-Aug-2021 3405.50 1870.46 53.75 5.00 412.95 3258.07
   11:54:29.448.15-Aug-2021 3405.50 1871.45 53.75 5.00 413.15 3258.07
   11:54:29.648.15-Aug-2021 3405.50 1871.71 53.75 5.00 413.35 3258.07
   11:54:29.848.15-Aug-2021 3405.50 1872.09 53.75 5.00 413.55 3258.07
