~Version Information
 VERS.                  2.0:   CWLS log ASCII Standard -VERSION 2.0
 WRAP.                   NO:   One line per depth step
~Well Information Block
#MNEM.UNIT     VALUE/NAME     DESCRIPTION
#---------     -----------    ---------------------------
 STRT.S             10:08:54 15-Aug-21: START TIME 10:08:54 15-Aug-21
 STOP.S             10:17:25 15-Aug-21: STOP TIME  10:17:25 15-Aug-21
 STEP.S                   0.00: STEP TIME
 NULL.                 -999.25: NULL VALUE
 DFWT.                        :  DIST FWL TEXT
 DFST.                        :  DIST FSL TEXT
 DMF .             Drill Floor:  DRILL MEAS FROM
 STIM.      17.18.56 20-Jun-21:  START TIME
 DATE.      17.18.56 20-Aug-21:  END TIME
 SPUD.               20-Jun-21:  SPUD DATE
 NREF.                    Grid:  NORTH REFERENCE
 HPTY.       Minimum Curvature:  HOLE POS TYPE
 DMOD.             Drill Model:  DRILL MOD DESC
 SVYD.                  Survey:  SURVEY DESC
 ILTD.               Lithology:  INTERP LTH DESC
 FTOP.          Formation Tops:  FORM TOPS DESC
 SON .        AZ-XX-0907056190:  JOB NUMBER
 PDAT.       Caspian Sea Level:  PERMANENT DATUM
 WTYP.                Deviated:  WELL TYPE
 MDS .        Operator Entered:  MAG DATA SOURCE
 COMP.     BP Exploration (Caspian Sea) Ltd.:  COMPANY
 UWI .            /AZE20000092:  UNIQUE WELL IDENTIFIER
 API .            /AZE20000092:  API NUMBER
 BASE.              Azerbaijan:  LOGGING EQUIPMENT BASE LOCATION
 REGN.                   EESSA:  REGION
 PROV.                    baku:  PROVINCE
 STAT.                    baku:  STATE NAME
 CTRY.              Azerbaijan:  COUNTRY NAME
 FLD .                     ACG:  FIELD NAME
 SRVC.          Turan Drilling:  CONTRACTOR
 MWDS.                    Baku:  MWD SHOP
 WELL.                     J26:  WELL NAME
 JOBN.        AZ-XX-0907056190:  JOB TICKET NUMB
 RIG .             West Chirag:  RIG NAME
 DOE .                     N/A:  DOE NUMBER
 DCON.         Sperry Drilling:  DIRECTNL CONTR
 UNIT.                     N/A:  LOGGING EQUIPMENT ID
 CNTY.                        :  COUNTY
 LOC .                        :  LOCATION
 LMF .             Drill Floor:  LOG MEASURED FROM
 TVDS.m                  43.00:  TVDSS CORRECTN
 LATI.deg                40.13:  LATITUDE
 LONG.deg                51.22:  LONGITUDE
 WHNS.m                  -7.12:  WELL HEAD N/S
 WHEW.m                  -9.46:  WELL HEAD E/W
 UTMX.m              519004.02:  UTM X
 UTMY.m             4443784.96:  UTM Y
 DFWL.m                   0.00:  DISTANCE FWL
 DFSL.m                   0.00:  DISTANCE FSL
 SDEP.m                 464.00:  START DEPTH
 TDD .m                3500.00:  TOTAL DEPTH (DRILLER)
 VSDR.deg               114.35:  VERT SEC DIRECT
 GVFD.g                   1.00:  GRAVITY FIELD
 MFLD.nT              50386.00:  MAGNETIC FIELD
 MDIP.deg                59.63:  MAGNETIC DIP
 MDEC.deg                 6.43:  MAGNETIC DECL
 GRDC.deg                 0.15:  GRID CORRECTION
 AZTC.deg                 6.29:  AZM TOTAL CORR
 EPD .m                   0.00:  ELEVATION
 EGL .m                   0.00:  GROUND ELEVATION
 WDMS.m                 169.80:  WD ELEV
 APD .m                  43.00:  DEPTH ABOVE PD
 VSEW.m                  -9.46:  VERT SEC E/W
 VSNS.m                  -7.12:  VERT SEC N/S
 AGAP.m                  43.00:  AIR GAP
 DEP .m                 356.16:  DEPTH
 EKB .m                  43.00:  KB ELEVATION
 EDF .m                  43.00:  DF ELEVATION
 TDL .m                 699.00:  TOTAL DEPTH (LOGGER)
 VSC .                       0:  VS TO CLOSURE
 MAGU.                 1853727:  MAGUTM CHECKSUM
~Parameter Information Block
#MNEM.UNIT       Value        Description
#---------     -----------    ---------------------------
 AV  .mps                 1.30:  Ann Velocity 
 AVMX.mps                 1.67:  Max Ann Veloc 
 AZIF.deg               280.40:  Azm, Final 
 BHAT.        Rotary Steerable:  BHA Type 
 BREV.rev            528970.00:  Rev Bit Total 
 BROT.°/30m               1.00:  Build Rotating 
 BS  .in                 12.25:  Bit Size 
 BSZ .in                 12.25:  Bit Size 
 BTPL.psig              738.00:  Bit Press Loss 
 CABU.                     Yes:  Customer Abuse 
 CGEO.        Elvin Suleymanov:  Customer Geo 
 COMM.                     ´½}:  Run Comments 1 
 TCS .hr                 66.05:  Time Ciculation Ended 
 CV  .mps                 2.20:  Crit Velocity 
 CVMX.mps                 2.56:  Max Crit Veloc 
 DD1 .          Rashad Habibov:  Direct Drillr 1 
 DD2 .            Azer ravanov:  Direct Drillr 2 
 DD3 .           Teymur Agayev:  Direct Drillr 3 
 DDSV.               Geo-Pilot:  DD Service 
 DEFF.%                  90.00:  % Det Eff 
 DLRX.°/30m               2.95:  Dogleg Rot Max 
 DLSO.°/30m               1.00:  Dogleg Oriented 
 DLSX.°/30m               2.95:  Dogleg Str Max 
 DRET.      11.42.20 11-Aug-21:  Drill End Time 
 DRST.      23.03.20 08-Aug-21:  Drill Start Tim 
 DTIM.hr                 45.50:  Time Drilling 
 EDEP.m                3488.00:  End Depth 
 ENG1.         Marcelo Marcari:  Engineer 1 
 ENG2.         Dair Mahammadov:  Engineer 2 
 ENG3.       Davud Huseyn-zada:  Engineer 3 
 ENG4.         Yevgeniy Ulikov:  Engineer 4 
 ETIM.      17.45.20 17-Aug-21:  End Time 
 FLOI.gpm              1197.70:  Flow In 
 FLON.gpm              1100.00:  Flow In Min 
 FLOS.cptm                0.00:  Fluid Loss 
 FLOX.gpm              1200.00:  Flow In Max 
 DFT .        Mineral Oil Base:  Mud Type 
 FTRO.       Formation Presure:  FTWD Run Obj 
 HFLO.                      No:  High Flow 
 HPRE.                      No:  High Pressure 
 HTEM.                      No:  High Temp 
 HYDO.m                   1.80:  Hydro Offset 
 IFIN.deg                 9.87:  Inc, Final 
 IMAX.deg                19.96:  Inc Max 
 IMIN.deg                 3.82:  Inc Min 
 IMND.m                3257.42:  Inc Min Depth 
 IMXD.m                2945.53:  Inc Max Depth 
 JARR.                      No:  Jarring 
 LETM.      11.42.20 11-Aug-21:  Log End Time 
 LOST.hr                     0:  Lost Rig Time 
 LSTM.      23.03.20 08-Aug-21:  Log Start Time 
 MDCL.ppm             42500.00:  Mud Chlorides 
 MDES.     Inversion Oil/Synthetic:  Mud Desc 
 DFD .sg                  1.45:  Mud Density 
 MDMN.sg                  1.39:  Dens Mud Min 
 MDMX.sg                  1.57:  Dens Mud Max 
 MOIL.                   53.20:  Run Mud Oil % 
 MOWR.                   70:30:  Run Mud OWR 
 MSND.                       0:  Run Mud Sand % 
 MSOL.                   24.30:  Run Mud Solids% 
 DFV .spqt               79.00:  Mud Viscosity 
 MWOD.in                  8.00:  MWD Tool OD 
 MWSI.                      No:  Serv Intrp, MWD 
 OTIM.hr                253.06:  Time Operating 
 PCON.           Look Like New:  Pad Condition 
 PMAX.psia            11068.93:  Press Op, Max 
 PV  .cP                 36.00:  Mud PV 
 RUN .                    1000:  Run Number 
 ROPA.m/hr               15.34:  ROP Avg 
 ROPN.m/hr                4.00:  ROP Min 
 ROPX.m/hr               31.00:  ROP Max 
 RPMA.rpm               151.40:  RPM Surface Avg 
 RPMN.rpm               120.00:  RPM Surface Min 
 RPMX.rpm               160.00:  RPM Surface Max 
 RRUN.                    L505:  Rig Run Number 
 RTIM.hr                 10.00:  Time Reaming 
 SAZI.deg                88.92:  Azm, Start 
 SDEP.m                2789.00:  Start Depth 
 SIDD.                      No:  Serv Intrp, DD 
 SINC.deg                19.84:  Inc, Start 
 SPPA.psig             4421.39:  SPP Avg 
 SPPN.psig             4130.00:  SPP Min 
 SPPX.psig             4800.00:  SPP Max 
 STIM.      01.25.20 07-Aug-21:  Start Time 
 SVCS.                 DD, MWD:  Services 
 SVER.                    9.20:  Sperry Version 
 TDAT.m                 699.00:  Tot Depth Attmp 
 TDDF.                      No:  Trip for DD 
 TDLG.m                 699.00:  Tot Depth Loggd 
 TFF .                      No:  Trip for Fail 
 TQAA.f-kp               20.55:  Torque Abs Avg 
 TQAN.f-kp               15.00:  Torque Abs Min 
 TQAX.f-kp               24.00:  Torque Abs Max 
 TRRT.°/30m               0.50:  Turn Rotating 
 MRT .                    HCIM:  Maximum Recorded Temperature 
 TTMX.degC               82.35:  Max Tool Temp 
 VS01.                90654677:  Virtual Str1 SN 
 VS02.                90636294:  Virtual Str2 SN 
 VS03.                90653866:  Virtual Str3 SN 
 VS04.                90654674:  Virtual Str4 SN 
 WBMN.klb                10.00:  WOB Min 
 WITN.         Haytham Mostafa:  Customer Rep 
 WITN.           Rufat Babayev:  Customer Rep 2 
 WOBA.klb                22.43:  WOB Avg 
 WOBX.klb                35.00:  WOB Max 
 YP  .lhf2               32.00:  Yield Point 
~Curve Information Block
#MNEM.UNIT                 API CODE     Curve Description
#---------               -----------    ---------------------------
 TIME.HHMMSS            00 000 000 000:  GT Time & Date
 GTDEPTH.m              00 000 000 000:  GT Depth
 GTPQH.psia             00 000 000 000:  GT HR Quartz Pressure
 GTTQ.degC              00 000 000 000:  GT Quartz Temperature
 GTTN.NONE              00 000 000 000:  GT Test Number
 GTET.sec               00 000 000 000:  GT Elapsed Test Time
 GTTVD.m                00 000 000 000:  GT True Vertical Depth
#Other Information
#
#WARRANTY: Halliburton will use its best efforts to furnish customers with 
#accurate information and interpretations that are part of, and incident to, the services 
#provided.  However, Halliburton cannot and does not warrant the accuracy 
#or correctness of such information and interpretations.  Under no circumstances should any 
#such information or interpretation be relied upon as the sole basis for any drilling, 
#completion, production, or financial decision or any procedure involving any risk to the 
#safety of any drilling venture, drilling rig or its crew or any other third party.  The 
#Customer has full responsibility for all drilling, completion and production operation.  
#Halliburton makes no representations or warranties, either expressed or 
#implied, including, but not limited to, the implied warranties of merchantability or fitness 
#for a particular purpose, with respect to the services rendered.  In no event will 
#Halliburton be liable for failure to obtain any particular results or for 
#any damages, including, but not limited to, indirect, special or consequential damages, 
#resulting from the use of any information or interpretation provided by Halliburton.
#
~A           TIME           GTDEPTH  GTPQH  GTTQ  GTTN  GTET   GTTVD  
# ...
   10:11:35.248.15-Aug-2021 3416.50 5185.26 54.39 4.00 161.03 3268.90
   10:11:35.448.15-Aug-2021 3416.50 5185.26 54.39 4.00 161.23 3268.90
   10:11:35.648.15-Aug-2021 3416.50 5186.00 54.39 4.00 161.43 3268.90
   10:11:35.848.15-Aug-2021 3416.50 5186.11 54.39 4.00 161.63 3268.90
   10:11:36.048.15-Aug-2021 3416.50 5185.46 54.39 4.00 161.83 3268.90
   10:11:36.248.15-Aug-2021 3416.50 5185.67 54.39 4.00 162.03 3268.90
   10:11:36.448.15-Aug-2021 3416.50 5185.67 54.39 4.00 162.23 3268.90
   10:11:36.648.15-Aug-2021 3416.50 5185.97 54.39 4.00 162.43 3268.90
   10:11:36.848.15-Aug-2021 3416.50 5185.66 54.39 4.00 162.63 3268.90
   10:11:37.048.15-Aug-2021 3416.50 5185.49 54.39 4.00 162.83 3268.90
   10:11:37.248.15-Aug-2021 3416.50 5186.22 54.39 4.00 163.03 3268.90
   10:11:37.448.15-Aug-2021 3416.50 5186.22 54.39 4.00 163.23 3268.90
   10:11:37.648.15-Aug-2021 3416.50 5186.09 54.39 4.00 163.43 3268.90
   10:11:37.848.15-Aug-2021 3416.50 5185.51 54.39 4.00 163.63 3268.90
   10:11:38.048.15-Aug-2021 3416.50 5185.83 54.39 4.00 163.83 3268.90
   10:11:38.248.15-Aug-2021 3416.50 5185.60 54.39 4.00 164.03 3268.90
   10:11:38.448.15-Aug-2021 3416.50 5185.60 54.39 4.00 164.23 3268.90
   10:11:38.648.15-Aug-2021 3416.50 5186.13 54.39 4.00 164.43 3268.90
   10:11:38.848.15-Aug-2021 3416.50 5185.69 54.39 4.00 164.63 3268.90
   10:11:39.048.15-Aug-2021 3416.50 5185.88 54.39 4.00 164.83 3268.90
   10:11:39.248.15-Aug-2021 3416.50 5185.42 54.39 4.00 165.03 3268.90
   10:11:39.448.15-Aug-2021 3416.50 5185.42 54.39 4.00 165.23 3268.90
   10:11:39.648.15-Aug-2021 3416.50 5186.10 54.39 4.00 165.43 3268.90
   10:11:39.848.15-Aug-2021 3416.50 5185.65 54.39 4.00 165.63 3268.90
   10:11:40.048.15-Aug-2021 3416.50 5185.85 54.39 4.00 165.83 3268.90
   10:11:40.248.15-Aug-2021 3416.50 5185.51 54.39 4.00 166.03 3268.90
   10:11:40.448.15-Aug-2021 3416.50 5185.51 54.39 4.00 166.23 3268.90
   10:11:40.648.15-Aug-2021 3416.50 5186.33 54.39 4.00 166.43 3268.90
   10:11:40.848.15-Aug-2021 3416.50 5185.82 54.39 4.00 166.63 3268.90
   10:11:41.049.15-Aug-2021 3416.50 5185.38 54.39 4.00 166.83 3268.90
   10:11:41.249.15-Aug-2021 3416.50 5186.85 54.39 4.00 167.03 3268.90
   10:11:41.449.15-Aug-2021 3416.50 5186.85 54.39 4.00 167.23 3268.90
   10:11:41.649.15-Aug-2021 3416.50 5185.92 54.39 4.00 167.43 3268.90
   10:11:41.849.15-Aug-2021 3416.50 5185.83 54.39 4.00 167.63 3268.90
   10:11:42.049.15-Aug-2021 3416.50 5185.60 54.39 4.00 167.83 3268.90
   10:11:42.249.15-Aug-2021 3416.50 5186.52 54.39 4.00 168.03 3268.90
   10:11:42.449.15-Aug-2021 3416.50 5186.52 54.39 4.00 168.23 3268.90
   10:11:42.649.15-Aug-2021 3416.50 5185.67 54.39 4.00 168.43 3268.90
   10:11:42.849.15-Aug-2021 3416.50 5185.92 54.39 4.00 168.63 3268.90
   10:11:43.049.15-Aug-2021 3416.50 5186.50 54.39 4.00 168.83 3268.90
   10:11:43.249.15-Aug-2021 3416.50 5185.03 54.39 4.00 169.03 3268.90
   10:11:43.449.15-Aug-2021 3416.50 5185.03 54.39 4.00 169.23 3268.90
   10:11:43.649.15-Aug-2021 3416.50 5185.91 54.39 4.00 169.43 3268.90
   10:11:43.849.15-Aug-2021 3416.50 5186.44 54.39 4.00 169.63 3268.90
   10:11:44.049.15-Aug-2021 3416.50 5185.09 54.39 4.00 169.83 3268.90
   10:11:44.249.15-Aug-2021 3416.50 5185.74 54.39 4.00 170.03 3268.90
   10:11:44.449.15-Aug-2021 3416.50 5185.74 54.39 4.00 170.23 3268.90
   10:11:44.649.15-Aug-2021 3416.50 5186.04 54.39 4.00 170.43 3268.90
   10:11:44.849.15-Aug-2021 3416.50 5185.96 54.39 4.00 170.63 3268.90
   10:11:45.049.15-Aug-2021 3416.50 5185.66 54.39 4.00 170.83 3268.90
   10:11:45.249.15-Aug-2021 3416.50 5185.77 54.39 4.00 171.03 3268.90
   10:11:45.449.15-Aug-2021 3416.50 5185.77 54.39 4.00 171.23 3268.90
   10:11:45.649.15-Aug-2021 3416.50 5186.38 54.39 4.00 171.43 3268.90
   10:11:45.849.15-Aug-2021 3416.50 5185.33 54.39 4.00 171.63 3268.90
   10:11:46.049.15-Aug-2021 3416.50 5185.88 54.38 4.00 171.83 3268.90
   10:11:46.249.15-Aug-2021 3416.50 5186.01 54.38 4.00 172.03 3268.90
   10:11:46.449.15-Aug-2021 3416.50 5186.01 54.38 4.00 172.23 3268.90
   10:11:46.649.15-Aug-2021 3416.50 5185.94 54.38 4.00 172.43 3268.90
   10:11:46.849.15-Aug-2021 3416.50 5186.35 54.38 4.00 172.63 3268.90
   10:11:47.050.15-Aug-2021 3416.50 5185.39 54.38 4.00 172.83 3268.90
   10:11:47.250.15-Aug-2021 3416.50 5185.66 54.38 4.00 173.03 3268.90
   10:11:47.450.15-Aug-2021 3416.50 5185.66 54.38 4.00 173.23 3268.90
   10:11:47.650.15-Aug-2021 3416.50 5185.84 54.38 4.00 173.43 3268.90
   10:11:47.850.15-Aug-2021 3416.50 5185.63 54.38 4.00 173.63 3268.90
   10:11:48.050.15-Aug-2021 3416.50 5185.56 54.38 4.00 173.83 3268.90
   10:11:48.250.15-Aug-2021 3416.50 5186.46 54.38 4.00 174.03 3268.90
   10:11:48.450.15-Aug-2021 3416.50 5186.46 54.38 4.00 174.23 3268.90
   10:11:48.650.15-Aug-2021 3416.50 5187.06 54.38 4.00 174.43 3268.90
   10:11:48.850.15-Aug-2021 3416.50 5185.58 54.38 4.00 174.63 3268.90
   10:11:49.050.15-Aug-2021 3416.50 5186.05 54.38 4.00 174.83 3268.90
   10:11:49.250.15-Aug-2021 3416.50 5185.54 54.38 4.00 175.03 3268.90
   10:11:49.450.15-Aug-2021 3416.50 5185.54 54.38 4.00 175.23 3268.90
   10:11:49.650.15-Aug-2021 3416.50 5186.45 54.38 4.00 175.43 3268.90
   10:11:49.850.15-Aug-2021 3416.50 5185.18 54.38 4.00 175.63 3268.90
   10:11:50.050.15-Aug-2021 3416.50 5185.78 54.38 4.00 175.83 3268.90
   10:11:50.250.15-Aug-2021 3416.50 5185.75 54.38 4.00 176.03 3268.90
   10:11:50.450.15-Aug-2021 3416.50 5185.75 54.38 4.00 176.23 3268.90
   10:11:50.650.15-Aug-2021 3416.50 5184.94 54.38 4.00 176.43 3268.90
   10:11:50.850.15-Aug-2021 3416.50 5185.79 54.38 4.00 176.63 3268.90
   10:11:51.050.15-Aug-2021 3416.50 5185.76 54.38 4.00 176.83 3268.90
   10:11:51.250.15-Aug-2021 3416.50 5185.83 54.38 4.00 177.03 3268.90
   10:11:51.450.15-Aug-2021 3416.50 5185.83 54.38 4.00 177.23 3268.90
   10:11:51.650.15-Aug-2021 3416.50 5186.85 54.38 4.00 177.43 3268.90
   10:11:51.850.15-Aug-2021 3416.50 5184.94 54.38 4.00 177.63 3268.90
   10:11:52.050.15-Aug-2021 3416.50 5185.75 54.38 4.00 177.83 3268.90
   10:11:52.250.15-Aug-2021 3416.50 5186.07 54.38 4.00 178.03 3268.90
   10:11:52.450.15-Aug-2021 3416.50 5186.07 54.38 4.00 178.23 3268.90
   10:11:52.650.15-Aug-2021 3416.50 5185.37 54.38 4.00 178.43 3268.90
   10:11:52.850.15-Aug-2021 3416.50 5185.72 54.38 4.00 178.63 3268.90
   10:11:53.050.15-Aug-2021 3416.50 5185.89 54.38 4.00 178.83 3268.90
   10:11:53.251.15-Aug-2021 3416.50 5185.76 54.38 4.00 179.03 3268.90
   10:11:53.451.15-Aug-2021 3416.50 5185.76 54.38 4.00 179.23 3268.90
   10:11:53.651.15-Aug-2021 3416.50 5185.17 54.38 4.00 179.43 3268.90
   10:11:53.851.15-Aug-2021 3416.50 5185.64 54.38 4.00 179.63 3268.90
   10:11:54.051.15-Aug-2021 3416.50 5185.97 54.38 4.00 179.83 3268.90
   10:11:54.251.15-Aug-2021 3416.50 5185.44 54.38 4.00 180.03 3268.90
   10:11:54.451.15-Aug-2021 3416.50 5185.44 54.38 4.00 180.23 3268.90
   10:11:54.651.15-Aug-2021 3416.50 5186.21 54.38 4.00 180.43 3268.90
   10:11:54.851.15-Aug-2021 3416.50 5185.44 54.38 4.00 180.63 3268.90
   10:11:55.051.15-Aug-2021 3416.50 5185.77 54.38 4.00 180.83 3268.90
   10:11:55.251.15-Aug-2021 3416.50 5186.14 54.38 4.00 181.03 3268.90
   10:11:55.451.15-Aug-2021 3416.50 5186.14 54.38 4.00 181.23 3268.90
   10:11:55.651.15-Aug-2021 3416.50 5185.57 54.38 4.00 181.43 3268.90
   10:11:55.851.15-Aug-2021 3416.50 5185.61 54.38 4.00 181.63 3268.90
   10:11:56.051.15-Aug-2021 3416.50 5186.23 54.38 4.00 181.83 3268.90
   10:11:56.251.15-Aug-2021 3416.50 5185.37 54.38 4.00 182.03 3268.90
   10:11:56.451.15-Aug-2021 3416.50 5185.37 54.38 4.00 182.23 3268.90
   10:11:56.651.15-Aug-2021 3416.50 5186.43 54.38 4.00 182.43 3268.90
   10:11:56.851.15-Aug-2021 3416.50 5186.00 54.38 4.00 182.63 3268.90
   10:11:57.051.15-Aug-2021 3416.50 5185.54 54.38 4.00 182.83 3268.90
   10:11:57.251.15-Aug-2021 3416.50 5185.84 54.38 4.00 183.03 3268.90
   10:11:57.451.15-Aug-2021 3416.50 5185.84 54.38 4.00 183.23 3268.90
   10:11:57.651.15-Aug-2021 3416.50 5185.23 54.38 4.00 183.43 3268.90
   10:11:57.851.15-Aug-2021 3416.50 5185.90 54.38 4.00 183.63 3268.90
   10:11:58.051.15-Aug-2021 3416.50 5185.81 54.38 4.00 183.83 3268.90
