~Version Information
 VERS.                  2.0:   CWLS log ASCII Standard -VERSION 2.0
 WRAP.                   NO:   One line per depth step
~Well Information Block
#MNEM.UNIT     VALUE/NAME     DESCRIPTION
#---------     -----------    ---------------------------
 STRT.S             06:52:24 15-Aug-21: START TIME 06:52:24 15-Aug-21
 STOP.S             06:59:28 15-Aug-21: STOP TIME  06:59:28 15-Aug-21
 STEP.S                   0.00: STEP TIME
 NULL.                 -999.25: NULL VALUE
 DFWT.                        :  DIST FWL TEXT
 DFST.                        :  DIST FSL TEXT
 DMF .             Drill Floor:  DRILL MEAS FROM
 STIM.      17.18.56 20-Jun-21:  START TIME
 DATE.      17.18.56 20-Aug-21:  END TIME
 SPUD.               20-Jun-21:  SPUD DATE
 NREF.                    Grid:  NORTH REFERENCE
 HPTY.       Minimum Curvature:  HOLE POS TYPE
 DMOD.             Drill Model:  DRILL MOD DESC
 SVYD.                  Survey:  SURVEY DESC
 ILTD.               Lithology:  INTERP LTH DESC
 FTOP.          Formation Tops:  FORM TOPS DESC
 SON .        AZ-XX-0907056190:  JOB NUMBER
 PDAT.       Caspian Sea Level:  PERMANENT DATUM
 WTYP.                Deviated:  WELL TYPE
 MDS .        Operator Entered:  MAG DATA SOURCE
 COMP.     BP Exploration (Caspian Sea) Ltd.:  COMPANY
 UWI .            /AZE20000092:  UNIQUE WELL IDENTIFIER
 API .            /AZE20000092:  API NUMBER
 BASE.              Azerbaijan:  LOGGING EQUIPMENT BASE LOCATION
 REGN.                   EESSA:  REGION
 PROV.                    baku:  PROVINCE
 STAT.                    baku:  STATE NAME
 CTRY.              Azerbaijan:  COUNTRY NAME
 FLD .                     ACG:  FIELD NAME
 SRVC.          Turan Drilling:  CONTRACTOR
 MWDS.                    Baku:  MWD SHOP
 WELL.                     J26:  WELL NAME
 JOBN.        AZ-XX-0907056190:  JOB TICKET NUMB
 RIG .             West Chirag:  RIG NAME
 DOE .                     N/A:  DOE NUMBER
 DCON.         Sperry Drilling:  DIRECTNL CONTR
 UNIT.                     N/A:  LOGGING EQUIPMENT ID
 CNTY.                        :  COUNTY
 LOC .                        :  LOCATION
 LMF .             Drill Floor:  LOG MEASURED FROM
 TVDS.m                  43.00:  TVDSS CORRECTN
 LATI.deg                40.13:  LATITUDE
 LONG.deg                51.22:  LONGITUDE
 WHNS.m                  -7.12:  WELL HEAD N/S
 WHEW.m                  -9.46:  WELL HEAD E/W
 UTMX.m              519004.02:  UTM X
 UTMY.m             4443784.96:  UTM Y
 DFWL.m                   0.00:  DISTANCE FWL
 DFSL.m                   0.00:  DISTANCE FSL
 SDEP.m                 464.00:  START DEPTH
 TDD .m                3500.00:  TOTAL DEPTH (DRILLER)
 VSDR.deg               114.35:  VERT SEC DIRECT
 GVFD.g                   1.00:  GRAVITY FIELD
 MFLD.nT              50386.00:  MAGNETIC FIELD
 MDIP.deg                59.63:  MAGNETIC DIP
 MDEC.deg                 6.43:  MAGNETIC DECL
 GRDC.deg                 0.15:  GRID CORRECTION
 AZTC.deg                 6.29:  AZM TOTAL CORR
 EPD .m                   0.00:  ELEVATION
 EGL .m                   0.00:  GROUND ELEVATION
 WDMS.m                 169.80:  WD ELEV
 APD .m                  43.00:  DEPTH ABOVE PD
 VSEW.m                  -9.46:  VERT SEC E/W
 VSNS.m                  -7.12:  VERT SEC N/S
 AGAP.m                  43.00:  AIR GAP
 DEP .m                 356.16:  DEPTH
 EKB .m                  43.00:  KB ELEVATION
 EDF .m                  43.00:  DF ELEVATION
 TDL .m                 699.00:  TOTAL DEPTH (LOGGER)
 VSC .                       0:  VS TO CLOSURE
 MAGU.                 1853727:  MAGUTM CHECKSUM
~Parameter Information Block
#MNEM.UNIT       Value        Description
#---------     -----------    ---------------------------
 AV  .mps                 1.30:  Ann Velocity 
 AVMX.mps                 1.67:  Max Ann Veloc 
 AZIF.deg               280.40:  Azm, Final 
 BHAT.        Rotary Steerable:  BHA Type 
 BREV.rev            528970.00:  Rev Bit Total 
 BROT.°/30m               1.00:  Build Rotating 
 BS  .in                 12.25:  Bit Size 
 BSZ .in                 12.25:  Bit Size 
 BTPL.psig              738.00:  Bit Press Loss 
 CABU.                     Yes:  Customer Abuse 
 CGEO.        Elvin Suleymanov:  Customer Geo 
 COMM.                     ¬kS:  Run Comments 1 
 TCS .hr                 66.05:  Time Ciculation Ended 
 CV  .mps                 2.20:  Crit Velocity 
 CVMX.mps                 2.56:  Max Crit Veloc 
 DD1 .          Rashad Habibov:  Direct Drillr 1 
 DD2 .            Azer ravanov:  Direct Drillr 2 
 DD3 .           Teymur Agayev:  Direct Drillr 3 
 DDSV.               Geo-Pilot:  DD Service 
 DEFF.%                  90.00:  % Det Eff 
 DLRX.°/30m               2.95:  Dogleg Rot Max 
 DLSO.°/30m               1.00:  Dogleg Oriented 
 DLSX.°/30m               2.95:  Dogleg Str Max 
 DRET.      11.42.20 11-Aug-21:  Drill End Time 
 DRST.      23.03.20 08-Aug-21:  Drill Start Tim 
 DTIM.hr                 45.50:  Time Drilling 
 EDEP.m                3488.00:  End Depth 
 ENG1.         Marcelo Marcari:  Engineer 1 
 ENG2.         Dair Mahammadov:  Engineer 2 
 ENG3.       Davud Huseyn-zada:  Engineer 3 
 ENG4.         Yevgeniy Ulikov:  Engineer 4 
 ETIM.      17.45.20 17-Aug-21:  End Time 
 FLOI.gpm              1197.70:  Flow In 
 FLON.gpm              1100.00:  Flow In Min 
 FLOS.cptm                0.00:  Fluid Loss 
 FLOX.gpm              1200.00:  Flow In Max 
 DFT .        Mineral Oil Base:  Mud Type 
 FTRO.       Formation Presure:  FTWD Run Obj 
 HFLO.                      No:  High Flow 
 HPRE.                      No:  High Pressure 
 HTEM.                      No:  High Temp 
 HYDO.m                   1.80:  Hydro Offset 
 IFIN.deg                 9.87:  Inc, Final 
 IMAX.deg                19.96:  Inc Max 
 IMIN.deg                 3.82:  Inc Min 
 IMND.m                3257.42:  Inc Min Depth 
 IMXD.m                2945.53:  Inc Max Depth 
 JARR.                      No:  Jarring 
 LETM.      11.42.20 11-Aug-21:  Log End Time 
 LOST.hr                     0:  Lost Rig Time 
 LSTM.      23.03.20 08-Aug-21:  Log Start Time 
 MDCL.ppm             42500.00:  Mud Chlorides 
 MDES.     Inversion Oil/Synthetic:  Mud Desc 
 DFD .sg                  1.45:  Mud Density 
 MDMN.sg                  1.39:  Dens Mud Min 
 MDMX.sg                  1.57:  Dens Mud Max 
 MOIL.                   53.20:  Run Mud Oil % 
 MOWR.                   70:30:  Run Mud OWR 
 MSND.                       0:  Run Mud Sand % 
 MSOL.                   24.30:  Run Mud Solids% 
 DFV .spqt               79.00:  Mud Viscosity 
 MWOD.in                  8.00:  MWD Tool OD 
 MWSI.                      No:  Serv Intrp, MWD 
 OTIM.hr                253.06:  Time Operating 
 PCON.           Look Like New:  Pad Condition 
 PMAX.psia            11068.93:  Press Op, Max 
 PV  .cP                 36.00:  Mud PV 
 RUN .                    1000:  Run Number 
 ROPA.m/hr               15.34:  ROP Avg 
 ROPN.m/hr                4.00:  ROP Min 
 ROPX.m/hr               31.00:  ROP Max 
 RPMA.rpm               151.40:  RPM Surface Avg 
 RPMN.rpm               120.00:  RPM Surface Min 
 RPMX.rpm               160.00:  RPM Surface Max 
 RRUN.                    L505:  Rig Run Number 
 RTIM.hr                 10.00:  Time Reaming 
 SAZI.deg                88.92:  Azm, Start 
 SDEP.m                2789.00:  Start Depth 
 SIDD.                      No:  Serv Intrp, DD 
 SINC.deg                19.84:  Inc, Start 
 SPPA.psig             4421.39:  SPP Avg 
 SPPN.psig             4130.00:  SPP Min 
 SPPX.psig             4800.00:  SPP Max 
 STIM.      01.25.20 07-Aug-21:  Start Time 
 SVCS.                 DD, MWD:  Services 
 SVER.                    9.20:  Sperry Version 
 TDAT.m                 699.00:  Tot Depth Attmp 
 TDDF.                      No:  Trip for DD 
 TDLG.m                 699.00:  Tot Depth Loggd 
 TFF .                      No:  Trip for Fail 
 TQAA.f-kp               20.55:  Torque Abs Avg 
 TQAN.f-kp               15.00:  Torque Abs Min 
 TQAX.f-kp               24.00:  Torque Abs Max 
 TRRT.°/30m               0.50:  Turn Rotating 
 MRT .                    HCIM:  Maximum Recorded Temperature 
 TTMX.degC               82.35:  Max Tool Temp 
 VS01.                90654677:  Virtual Str1 SN 
 VS02.                90636294:  Virtual Str2 SN 
 VS03.                90653866:  Virtual Str3 SN 
 VS04.                90654674:  Virtual Str4 SN 
 WBMN.klb                10.00:  WOB Min 
 WITN.         Haytham Mostafa:  Customer Rep 
 WITN.           Rufat Babayev:  Customer Rep 2 
 WOBA.klb                22.43:  WOB Avg 
 WOBX.klb                35.00:  WOB Max 
 YP  .lhf2               32.00:  Yield Point 
~Curve Information Block
#MNEM.UNIT                 API CODE     Curve Description
#---------               -----------    ---------------------------
 TIME.HHMMSS            00 000 000 000:  GT Time & Date
 GTDEPTH.m              00 000 000 000:  GT Depth
 GTPQH.psia             00 000 000 000:  GT HR Quartz Pressure
 GTTQ.degC              00 000 000 000:  GT Quartz Temperature
 GTTN.NONE              00 000 000 000:  GT Test Number
 GTET.sec               00 000 000 000:  GT Elapsed Test Time
 GTTVD.m                00 000 000 000:  GT True Vertical Depth
#Other Information
#
#WARRANTY: Halliburton will use its best efforts to furnish customers with 
#accurate information and interpretations that are part of, and incident to, the services 
#provided.  However, Halliburton cannot and does not warrant the accuracy 
#or correctness of such information and interpretations.  Under no circumstances should any 
#such information or interpretation be relied upon as the sole basis for any drilling, 
#completion, production, or financial decision or any procedure involving any risk to the 
#safety of any drilling venture, drilling rig or its crew or any other third party.  The 
#Customer has full responsibility for all drilling, completion and production operation.  
#Halliburton makes no representations or warranties, either expressed or 
#implied, including, but not limited to, the implied warranties of merchantability or fitness 
#for a particular purpose, with respect to the services rendered.  In no event will 
#Halliburton be liable for failure to obtain any particular results or for 
#any damages, including, but not limited to, indirect, special or consequential damages, 
#resulting from the use of any information or interpretation provided by Halliburton.
#
~A           TIME           GTDEPTH  GTPQH  GTTQ  GTTN  GTET   GTTVD  
# ...
   06:52:47.695.15-Aug-2021 3437.50 7510.66 58.02 1.00  23.00 3289.56
   06:52:47.895.15-Aug-2021 3437.50 7510.66 58.02 1.00  23.20 3289.56
   06:52:48.095.15-Aug-2021 3437.50 7513.14 58.02 1.00  23.40 3289.56
   06:52:48.295.15-Aug-2021 3437.50 7511.54 58.01 1.00  23.60 3289.56
   06:52:48.495.15-Aug-2021 3437.50 7509.98 58.02 1.00  23.80 3289.56
   06:52:48.695.15-Aug-2021 3437.50 7513.37 58.01 1.00  24.00 3289.56
   06:52:48.895.15-Aug-2021 3437.50 7513.37 58.01 1.00  24.20 3289.56
   06:52:49.095.15-Aug-2021 3437.50 7512.15 58.01 1.00  24.40 3289.56
   06:52:49.295.15-Aug-2021 3437.50 7512.67 58.01 1.00  24.60 3289.56
   06:52:49.495.15-Aug-2021 3437.50 7511.95 58.01 1.00  24.80 3289.56
   06:52:49.695.15-Aug-2021 3437.50 7514.32 58.01 1.00  25.00 3289.56
   06:52:49.895.15-Aug-2021 3437.50 7514.32 58.01 1.00  25.20 3289.56
   06:52:50.095.15-Aug-2021 3437.50 7511.52 58.01 1.00  25.40 3289.56
   06:52:50.295.15-Aug-2021 3437.50 7513.06 58.01 1.00  25.60 3289.56
   06:52:50.495.15-Aug-2021 3437.50 7512.85 58.01 1.00  25.80 3289.56
   06:52:50.695.15-Aug-2021 3437.50 7511.03 58.01 1.00  26.00 3289.56
   06:52:50.895.15-Aug-2021 3437.50 7511.03 58.01 1.00  26.20 3289.56
   06:52:51.095.15-Aug-2021 3437.50 7512.14 58.01 1.00  26.40 3289.56
   06:52:51.295.15-Aug-2021 3437.50 7512.69 58.01 1.00  26.60 3289.56
   06:52:51.495.15-Aug-2021 3437.50 7512.53 58.01 1.00  26.80 3289.56
   06:52:51.695.15-Aug-2021 3437.50 7513.30 58.01 1.00  27.00 3289.56
   06:52:51.895.15-Aug-2021 3437.50 7513.30 58.01 1.00  27.20 3289.56
   06:52:52.095.15-Aug-2021 3437.50 7510.80 58.01 1.00  27.40 3289.56
   06:52:52.295.15-Aug-2021 3437.50 7513.19 58.01 1.00  27.60 3289.56
   06:52:52.495.15-Aug-2021 3437.50 7512.84 58.01 1.00  27.80 3289.56
   06:52:52.696.15-Aug-2021 3437.50 7516.17 58.01 1.00  28.00 3289.56
   06:52:52.896.15-Aug-2021 3437.50 7516.17 58.01 1.00  28.20 3289.56
   06:52:53.096.15-Aug-2021 3437.50 7513.17 58.01 1.00  28.40 3289.56
   06:52:53.296.15-Aug-2021 3437.50 7513.05 58.01 1.00  28.60 3289.56
   06:52:53.496.15-Aug-2021 3437.50 7511.91 58.01 1.00  28.80 3289.56
   06:52:53.696.15-Aug-2021 3437.50 7510.57 58.01 1.00  29.00 3289.56
   06:52:53.896.15-Aug-2021 3437.50 7510.57 58.01 1.00  29.20 3289.56
   06:52:54.096.15-Aug-2021 3437.50 7513.71 58.01 1.00  29.40 3289.56
   06:52:54.296.15-Aug-2021 3437.50 7513.25 58.01 1.00  29.60 3289.56
   06:52:54.496.15-Aug-2021 3437.50 7513.71 58.01 1.00  29.80 3289.56
   06:52:54.696.15-Aug-2021 3437.50 7512.12 58.01 1.00  30.00 3289.56
   06:52:54.896.15-Aug-2021 3437.50 7512.12 58.01 1.00  30.20 3289.56
   06:52:55.096.15-Aug-2021 3437.50 7513.16 58.01 1.00  30.40 3289.56
   06:52:55.296.15-Aug-2021 3437.50 7514.04 58.01 1.00  30.60 3289.56
   06:52:55.496.15-Aug-2021 3437.50 7511.58 58.01 1.00  30.80 3289.56
   06:52:55.696.15-Aug-2021 3437.50 7513.57 58.01 1.00  31.00 3289.56
   06:52:55.896.15-Aug-2021 3437.50 7513.57 58.01 1.00  31.20 3289.56
   06:52:56.096.15-Aug-2021 3437.50 7513.40 58.01 1.00  31.40 3289.56
   06:52:56.296.15-Aug-2021 3437.50 7513.65 58.01 1.00  31.60 3289.56
   06:52:56.496.15-Aug-2021 3437.50 7513.24 58.01 1.00  31.80 3289.56
   06:52:56.696.15-Aug-2021 3437.50 7511.09 58.01 1.00  32.00 3289.56
   06:52:56.896.15-Aug-2021 3437.50 7511.09 58.01 1.00  32.20 3289.56
   06:52:57.096.15-Aug-2021 3437.50 7513.43 58.01 1.00  32.40 3289.56
   06:52:57.296.15-Aug-2021 3437.50 7513.90 58.01 1.00  32.60 3289.56
   06:52:57.496.15-Aug-2021 3437.50 7514.42 58.01 1.00  32.80 3289.56
   06:52:57.696.15-Aug-2021 3437.50 7511.54 58.01 1.00  33.00 3289.56
   06:52:57.896.15-Aug-2021 3437.50 7511.54 58.01 1.00  33.20 3289.56
   06:52:58.096.15-Aug-2021 3437.50 7512.69 58.01 1.00  33.40 3289.56
   06:52:58.296.15-Aug-2021 3437.50 7513.60 58.01 1.00  33.60 3289.56
   06:52:58.496.15-Aug-2021 3437.50 7512.69 58.01 1.00  33.80 3289.56
   06:52:58.696.15-Aug-2021 3437.50 7511.55 58.01 1.00  34.00 3289.56
   06:52:58.896.15-Aug-2021 3437.50 7511.55 58.01 1.00  34.20 3289.56
   06:52:59.096.15-Aug-2021 3437.50 7515.27 58.01 1.00  34.40 3289.56
   06:52:59.296.15-Aug-2021 3437.50 7514.58 58.01 1.00  34.60 3289.56
   06:52:59.496.15-Aug-2021 3437.50 7512.31 58.01 1.00  34.80 3289.56
   06:52:59.696.15-Aug-2021 3437.50 7511.73 58.01 1.00  35.00 3289.56
   06:52:59.896.15-Aug-2021 3437.50 7511.73 58.01 1.00  35.20 3289.56
   06:53:00.096.15-Aug-2021 3437.50 7512.93 58.01 1.00  35.40 3289.56
   06:53:00.296.15-Aug-2021 3437.50 7512.28 58.01 1.00  35.60 3289.56
   06:53:00.496.15-Aug-2021 3437.50 7513.94 58.01 1.00  35.80 3289.56
   06:53:00.696.15-Aug-2021 3437.50 7512.03 58.01 1.00  36.00 3289.56
   06:53:00.896.15-Aug-2021 3437.50 7512.03 58.01 1.00  36.20 3289.56
   06:53:01.096.15-Aug-2021 3437.50 7512.46 58.01 1.00  36.40 3289.56
   06:53:01.296.15-Aug-2021 3437.50 7512.76 58.01 1.00  36.60 3289.56
   06:53:01.496.15-Aug-2021 3437.50 7511.22 58.01 1.00  36.80 3289.56
   06:53:01.696.15-Aug-2021 3437.50 7511.34 58.01 1.00  37.00 3289.56
   06:53:01.896.15-Aug-2021 3437.50 7511.34 58.01 1.00  37.20 3289.56
   06:53:02.096.15-Aug-2021 3437.50 7512.78 58.01 1.00  37.40 3289.56
   06:53:02.296.15-Aug-2021 3437.50 7513.24 58.01 1.00  37.60 3289.56
   06:53:02.496.15-Aug-2021 3437.50 7512.41 58.01 1.00  37.80 3289.56
   06:53:02.696.15-Aug-2021 3437.50 7510.23 58.01 1.00  38.00 3289.56
   06:53:02.896.15-Aug-2021 3437.50 7510.23 58.01 1.00  38.20 3289.56
   06:53:03.096.15-Aug-2021 3437.50 7511.55 58.01 1.00  38.40 3289.56
   06:53:03.296.15-Aug-2021 3437.50 7514.08 58.01 1.00  38.60 3289.56
   06:53:03.496.15-Aug-2021 3437.50 7512.88 58.01 1.00  38.80 3289.56
   06:53:03.696.15-Aug-2021 3437.50 7510.14 58.01 1.00  39.00 3289.56
   06:53:03.896.15-Aug-2021 3437.50 7510.14 58.01 1.00  39.20 3289.56
   06:53:04.096.15-Aug-2021 3437.50 7511.43 58.01 1.00  39.40 3289.56
   06:53:04.296.15-Aug-2021 3437.50 7512.03 58.01 1.00  39.60 3289.56
   06:53:04.496.15-Aug-2021 3437.50 7512.51 58.01 1.00  39.80 3289.56
   06:53:04.696.15-Aug-2021 3437.50 7513.12 58.01 1.00  40.00 3289.56
   06:53:04.896.15-Aug-2021 3437.50 7513.12 58.01 1.00  40.20 3289.56
   06:53:05.096.15-Aug-2021 3437.50 7510.59 58.01 1.00  40.40 3289.56
   06:53:05.296.15-Aug-2021 3437.50 7511.80 58.01 1.00  40.60 3289.56
   06:53:05.496.15-Aug-2021 3437.50 7514.54 58.01 1.00  40.80 3289.56
   06:53:05.696.15-Aug-2021 3437.50 7512.55 58.01 1.00  41.00 3289.56
   06:53:05.896.15-Aug-2021 3437.50 7512.55 58.01 1.00  41.20 3289.56
   06:53:06.096.15-Aug-2021 3437.50 7511.19 58.01 1.00  41.40 3289.56
   06:53:06.296.15-Aug-2021 3437.50 7514.53 58.01 1.00  41.60 3289.56
   06:53:06.496.15-Aug-2021 3437.50 7511.06 58.01 1.00  41.80 3289.56
   06:53:06.697.15-Aug-2021 3437.50 7510.41 58.01 1.00  42.00 3289.56
   06:53:06.897.15-Aug-2021 3437.50 7510.41 58.01 1.00  42.20 3289.56
   06:53:07.097.15-Aug-2021 3437.50 7511.92 58.01 1.00  42.40 3289.56
   06:53:07.297.15-Aug-2021 3437.50 7511.62 58.01 1.00  42.60 3289.56
   06:53:07.497.15-Aug-2021 3437.50 7512.37 58.01 1.00  42.80 3289.56
   06:53:07.697.15-Aug-2021 3437.50 7515.07 58.01 1.00  43.00 3289.56
   06:53:07.897.15-Aug-2021 3437.50 7515.07 58.01 1.00  43.20 3289.56
   06:53:08.097.15-Aug-2021 3437.50 7510.25 58.01 1.00  43.40 3289.56
   06:53:08.297.15-Aug-2021 3437.50 7510.92 58.01 1.00  43.60 3289.56
   06:53:08.497.15-Aug-2021 3437.50 7512.72 58.01 1.00  43.80 3289.56
   06:53:08.697.15-Aug-2021 3437.50 7515.23 58.01 1.00  44.00 3289.56
   06:53:08.897.15-Aug-2021 3437.50 7515.23 58.01 1.00  44.20 3289.56
   06:53:09.097.15-Aug-2021 3437.50 7512.47 58.01 1.00  44.40 3289.56
   06:53:09.297.15-Aug-2021 3437.50 7511.52 58.01 1.00  44.60 3289.56
   06:53:09.497.15-Aug-2021 3437.50 7512.04 58.01 1.00  44.80 3289.56
   06:53:09.697.15-Aug-2021 3437.50 7514.22 58.01 1.00  45.00 3289.56
   06:53:09.897.15-Aug-2021 3437.50 7514.22 58.01 1.00  45.20 3289.56
   06:53:10.097.15-Aug-2021 3437.50 7511.56 58.01 1.00  45.40 3289.56
   06:53:10.297.15-Aug-2021 3437.50 7510.06 58.01 1.00  45.60 3289.56
   06:53:10.497.15-Aug-2021 3437.50 7511.67 58.01 1.00  45.80 3289.56
