~Version Information
 VERS.                  2.0:   CWLS log ASCII Standard -VERSION 2.0
 WRAP.                   NO:   One line per depth step
~Well Information Block
#MNEM.UNIT     VALUE/NAME     DESCRIPTION
#---------     -----------    ---------------------------
 STRT.S             09:29:08 15-Aug-21: START TIME 09:29:08 15-Aug-21
 STOP.S             09:37:37 15-Aug-21: STOP TIME  09:37:37 15-Aug-21
 STEP.S                   0.00: STEP TIME
 NULL.                 -999.25: NULL VALUE
 DFWT.                        :  DIST FWL TEXT
 DFST.                        :  DIST FSL TEXT
 DMF .             Drill Floor:  DRILL MEAS FROM
 STIM.      17.18.56 20-Jun-21:  START TIME
 DATE.      17.18.56 20-Aug-21:  END TIME
 SPUD.               20-Jun-21:  SPUD DATE
 NREF.                    Grid:  NORTH REFERENCE
 HPTY.       Minimum Curvature:  HOLE POS TYPE
 DMOD.             Drill Model:  DRILL MOD DESC
 SVYD.                  Survey:  SURVEY DESC
 ILTD.               Lithology:  INTERP LTH DESC
 FTOP.          Formation Tops:  FORM TOPS DESC
 SON .        AZ-XX-0907056190:  JOB NUMBER
 PDAT.       Caspian Sea Level:  PERMANENT DATUM
 WTYP.                Deviated:  WELL TYPE
 MDS .        Operator Entered:  MAG DATA SOURCE
 COMP.     BP Exploration (Caspian Sea) Ltd.:  COMPANY
 UWI .            /AZE20000092:  UNIQUE WELL IDENTIFIER
 API .            /AZE20000092:  API NUMBER
 BASE.              Azerbaijan:  LOGGING EQUIPMENT BASE LOCATION
 REGN.                   EESSA:  REGION
 PROV.                    baku:  PROVINCE
 STAT.                    baku:  STATE NAME
 CTRY.              Azerbaijan:  COUNTRY NAME
 FLD .                     ACG:  FIELD NAME
 SRVC.          Turan Drilling:  CONTRACTOR
 MWDS.                    Baku:  MWD SHOP
 WELL.                     J26:  WELL NAME
 JOBN.        AZ-XX-0907056190:  JOB TICKET NUMB
 RIG .             West Chirag:  RIG NAME
 DOE .                     N/A:  DOE NUMBER
 DCON.         Sperry Drilling:  DIRECTNL CONTR
 UNIT.                     N/A:  LOGGING EQUIPMENT ID
 CNTY.                        :  COUNTY
 LOC .                        :  LOCATION
 LMF .             Drill Floor:  LOG MEASURED FROM
 TVDS.m                  43.00:  TVDSS CORRECTN
 LATI.deg                40.13:  LATITUDE
 LONG.deg                51.22:  LONGITUDE
 WHNS.m                  -7.12:  WELL HEAD N/S
 WHEW.m                  -9.46:  WELL HEAD E/W
 UTMX.m              519004.02:  UTM X
 UTMY.m             4443784.96:  UTM Y
 DFWL.m                   0.00:  DISTANCE FWL
 DFSL.m                   0.00:  DISTANCE FSL
 SDEP.m                 464.00:  START DEPTH
 TDD .m                3500.00:  TOTAL DEPTH (DRILLER)
 VSDR.deg               114.35:  VERT SEC DIRECT
 GVFD.g                   1.00:  GRAVITY FIELD
 MFLD.nT              50386.00:  MAGNETIC FIELD
 MDIP.deg                59.63:  MAGNETIC DIP
 MDEC.deg                 6.43:  MAGNETIC DECL
 GRDC.deg                 0.15:  GRID CORRECTION
 AZTC.deg                 6.29:  AZM TOTAL CORR
 EPD .m                   0.00:  ELEVATION
 EGL .m                   0.00:  GROUND ELEVATION
 WDMS.m                 169.80:  WD ELEV
 APD .m                  43.00:  DEPTH ABOVE PD
 VSEW.m                  -9.46:  VERT SEC E/W
 VSNS.m                  -7.12:  VERT SEC N/S
 AGAP.m                  43.00:  AIR GAP
 DEP .m                 356.16:  DEPTH
 EKB .m                  43.00:  KB ELEVATION
 EDF .m                  43.00:  DF ELEVATION
 TDL .m                 699.00:  TOTAL DEPTH (LOGGER)
 VSC .                       0:  VS TO CLOSURE
 MAGU.                 1853727:  MAGUTM CHECKSUM
~Parameter Information Block
#MNEM.UNIT       Value        Description
#---------     -----------    ---------------------------
 AV  .mps                 1.30:  Ann Velocity 
 AVMX.mps                 1.67:  Max Ann Veloc 
 AZIF.deg               280.40:  Azm, Final 
 BHAT.        Rotary Steerable:  BHA Type 
 BREV.rev            528970.00:  Rev Bit Total 
 BROT.°/30m               1.00:  Build Rotating 
 BS  .in                 12.25:  Bit Size 
 BSZ .in                 12.25:  Bit Size 
 BTPL.psig              738.00:  Bit Press Loss 
 CABU.                     Yes:  Customer Abuse 
 CGEO.        Elvin Suleymanov:  Customer Geo 
 COMM.                     œR:  Run Comments 1 
 TCS .hr                 66.05:  Time Ciculation Ended 
 CV  .mps                 2.20:  Crit Velocity 
 CVMX.mps                 2.56:  Max Crit Veloc 
 DD1 .          Rashad Habibov:  Direct Drillr 1 
 DD2 .            Azer ravanov:  Direct Drillr 2 
 DD3 .           Teymur Agayev:  Direct Drillr 3 
 DDSV.               Geo-Pilot:  DD Service 
 DEFF.%                  90.00:  % Det Eff 
 DLRX.°/30m               2.95:  Dogleg Rot Max 
 DLSO.°/30m               1.00:  Dogleg Oriented 
 DLSX.°/30m               2.95:  Dogleg Str Max 
 DRET.      11.42.20 11-Aug-21:  Drill End Time 
 DRST.      23.03.20 08-Aug-21:  Drill Start Tim 
 DTIM.hr                 45.50:  Time Drilling 
 EDEP.m                3488.00:  End Depth 
 ENG1.         Marcelo Marcari:  Engineer 1 
 ENG2.         Dair Mahammadov:  Engineer 2 
 ENG3.       Davud Huseyn-zada:  Engineer 3 
 ENG4.         Yevgeniy Ulikov:  Engineer 4 
 ETIM.      17.45.20 17-Aug-21:  End Time 
 FLOI.gpm              1197.70:  Flow In 
 FLON.gpm              1100.00:  Flow In Min 
 FLOS.cptm                0.00:  Fluid Loss 
 FLOX.gpm              1200.00:  Flow In Max 
 DFT .        Mineral Oil Base:  Mud Type 
 FTRO.       Formation Presure:  FTWD Run Obj 
 HFLO.                      No:  High Flow 
 HPRE.                      No:  High Pressure 
 HTEM.                      No:  High Temp 
 HYDO.m                   1.80:  Hydro Offset 
 IFIN.deg                 9.87:  Inc, Final 
 IMAX.deg                19.96:  Inc Max 
 IMIN.deg                 3.82:  Inc Min 
 IMND.m                3257.42:  Inc Min Depth 
 IMXD.m                2945.53:  Inc Max Depth 
 JARR.                      No:  Jarring 
 LETM.      11.42.20 11-Aug-21:  Log End Time 
 LOST.hr                     0:  Lost Rig Time 
 LSTM.      23.03.20 08-Aug-21:  Log Start Time 
 MDCL.ppm             42500.00:  Mud Chlorides 
 MDES.     Inversion Oil/Synthetic:  Mud Desc 
 DFD .sg                  1.45:  Mud Density 
 MDMN.sg                  1.39:  Dens Mud Min 
 MDMX.sg                  1.57:  Dens Mud Max 
 MOIL.                   53.20:  Run Mud Oil % 
 MOWR.                   70:30:  Run Mud OWR 
 MSND.                       0:  Run Mud Sand % 
 MSOL.                   24.30:  Run Mud Solids% 
 DFV .spqt               79.00:  Mud Viscosity 
 MWOD.in                  8.00:  MWD Tool OD 
 MWSI.                      No:  Serv Intrp, MWD 
 OTIM.hr                253.06:  Time Operating 
 PCON.           Look Like New:  Pad Condition 
 PMAX.psia            11068.93:  Press Op, Max 
 PV  .cP                 36.00:  Mud PV 
 RUN .                    1000:  Run Number 
 ROPA.m/hr               15.34:  ROP Avg 
 ROPN.m/hr                4.00:  ROP Min 
 ROPX.m/hr               31.00:  ROP Max 
 RPMA.rpm               151.40:  RPM Surface Avg 
 RPMN.rpm               120.00:  RPM Surface Min 
 RPMX.rpm               160.00:  RPM Surface Max 
 RRUN.                    L505:  Rig Run Number 
 RTIM.hr                 10.00:  Time Reaming 
 SAZI.deg                88.92:  Azm, Start 
 SDEP.m                2789.00:  Start Depth 
 SIDD.                      No:  Serv Intrp, DD 
 SINC.deg                19.84:  Inc, Start 
 SPPA.psig             4421.39:  SPP Avg 
 SPPN.psig             4130.00:  SPP Min 
 SPPX.psig             4800.00:  SPP Max 
 STIM.      01.25.20 07-Aug-21:  Start Time 
 SVCS.                 DD, MWD:  Services 
 SVER.                    9.20:  Sperry Version 
 TDAT.m                 699.00:  Tot Depth Attmp 
 TDDF.                      No:  Trip for DD 
 TDLG.m                 699.00:  Tot Depth Loggd 
 TFF .                      No:  Trip for Fail 
 TQAA.f-kp               20.55:  Torque Abs Avg 
 TQAN.f-kp               15.00:  Torque Abs Min 
 TQAX.f-kp               24.00:  Torque Abs Max 
 TRRT.°/30m               0.50:  Turn Rotating 
 MRT .                    HCIM:  Maximum Recorded Temperature 
 TTMX.degC               82.35:  Max Tool Temp 
 VS01.                90654677:  Virtual Str1 SN 
 VS02.                90636294:  Virtual Str2 SN 
 VS03.                90653866:  Virtual Str3 SN 
 VS04.                90654674:  Virtual Str4 SN 
 WBMN.klb                10.00:  WOB Min 
 WITN.         Haytham Mostafa:  Customer Rep 
 WITN.           Rufat Babayev:  Customer Rep 2 
 WOBA.klb                22.43:  WOB Avg 
 WOBX.klb                35.00:  WOB Max 
 YP  .lhf2               32.00:  Yield Point 
~Curve Information Block
#MNEM.UNIT                 API CODE     Curve Description
#---------               -----------    ---------------------------
 TIME.HHMMSS            00 000 000 000:  GT Time & Date
 GTDEPTH.m              00 000 000 000:  GT Depth
 GTPQH.psia             00 000 000 000:  GT HR Quartz Pressure
 GTTQ.degC              00 000 000 000:  GT Quartz Temperature
 GTTN.NONE              00 000 000 000:  GT Test Number
 GTET.sec               00 000 000 000:  GT Elapsed Test Time
 GTTVD.m                00 000 000 000:  GT True Vertical Depth
#Other Information
#
#WARRANTY: Halliburton will use its best efforts to furnish customers with 
#accurate information and interpretations that are part of, and incident to, the services 
#provided.  However, Halliburton cannot and does not warrant the accuracy 
#or correctness of such information and interpretations.  Under no circumstances should any 
#such information or interpretation be relied upon as the sole basis for any drilling, 
#completion, production, or financial decision or any procedure involving any risk to the 
#safety of any drilling venture, drilling rig or its crew or any other third party.  The 
#Customer has full responsibility for all drilling, completion and production operation.  
#Halliburton makes no representations or warranties, either expressed or 
#implied, including, but not limited to, the implied warranties of merchantability or fitness 
#for a particular purpose, with respect to the services rendered.  In no event will 
#Halliburton be liable for failure to obtain any particular results or for 
#any damages, including, but not limited to, indirect, special or consequential damages, 
#resulting from the use of any information or interpretation provided by Halliburton.
#
~A           TIME           GTDEPTH  GTPQH  GTTQ  GTTN  GTET   GTTVD  
# ...
   09:31:26.853.15-Aug-2021 3421.80 5037.44 55.11 3.00 138.02 3274.11
   09:31:27.053.15-Aug-2021 3421.80 5037.44 55.11 3.00 138.22 3274.11
   09:31:27.253.15-Aug-2021 3421.80 5040.15 55.11 3.00 138.42 3274.11
   09:31:27.453.15-Aug-2021 3421.80 5041.67 55.11 3.00 138.62 3274.11
   09:31:27.653.15-Aug-2021 3421.80 5042.96 55.11 3.00 138.82 3274.11
   09:31:27.853.15-Aug-2021 3421.80 5044.35 55.11 3.00 139.02 3274.11
   09:31:28.053.15-Aug-2021 3421.80 5044.35 55.11 3.00 139.22 3274.11
   09:31:28.254.15-Aug-2021 3421.80 5048.35 55.11 3.00 139.42 3274.11
   09:31:28.454.15-Aug-2021 3421.80 5049.37 55.11 3.00 139.62 3274.11
   09:31:28.654.15-Aug-2021 3421.80 5050.56 55.11 3.00 139.82 3274.11
   09:31:28.854.15-Aug-2021 3421.80 5051.86 55.11 3.00 140.02 3274.11
   09:31:29.054.15-Aug-2021 3421.80 5051.86 55.11 3.00 140.22 3274.11
   09:31:29.254.15-Aug-2021 3421.80 5054.78 55.11 3.00 140.42 3274.11
   09:31:29.454.15-Aug-2021 3421.80 5056.09 55.11 3.00 140.62 3274.11
   09:31:29.654.15-Aug-2021 3421.80 5058.04 55.11 3.00 140.82 3274.11
   09:31:29.854.15-Aug-2021 3421.80 5059.14 55.11 3.00 141.02 3274.11
   09:31:30.054.15-Aug-2021 3421.80 5059.14 55.11 3.00 141.22 3274.11
   09:31:30.254.15-Aug-2021 3421.80 5061.48 55.11 3.00 141.42 3274.11
   09:31:30.454.15-Aug-2021 3421.80 5062.53 55.11 3.00 141.62 3274.11
   09:31:30.654.15-Aug-2021 3421.80 5064.38 55.11 3.00 141.82 3274.11
   09:31:30.854.15-Aug-2021 3421.80 5065.47 55.11 3.00 142.02 3274.11
   09:31:31.054.15-Aug-2021 3421.80 5065.47 55.11 3.00 142.22 3274.11
   09:31:31.254.15-Aug-2021 3421.80 5068.01 55.11 3.00 142.42 3274.11
   09:31:31.454.15-Aug-2021 3421.80 5069.88 55.11 3.00 142.62 3274.11
   09:31:31.654.15-Aug-2021 3421.80 5071.02 55.11 3.00 142.82 3274.11
   09:31:31.854.15-Aug-2021 3421.80 5072.13 55.11 3.00 143.02 3274.11
   09:31:32.054.15-Aug-2021 3421.80 5072.13 55.11 3.00 143.22 3274.11
   09:31:32.254.15-Aug-2021 3421.80 5075.11 55.11 3.00 143.42 3274.11
   09:31:32.454.15-Aug-2021 3421.80 5076.15 55.11 3.00 143.62 3274.11
   09:31:32.654.15-Aug-2021 3421.80 5077.10 55.11 3.00 143.82 3274.11
   09:31:32.854.15-Aug-2021 3421.80 5078.44 55.11 3.00 144.02 3274.11
   09:31:33.054.15-Aug-2021 3421.80 5078.44 55.11 3.00 144.22 3274.11
   09:31:33.254.15-Aug-2021 3421.80 5080.91 55.11 3.00 144.42 3274.11
   09:31:33.454.15-Aug-2021 3421.80 5082.17 55.11 3.00 144.62 3274.11
   09:31:33.654.15-Aug-2021 3421.80 5083.30 55.11 3.00 144.82 3274.11
   09:31:33.854.15-Aug-2021 3421.80 5084.48 55.11 3.00 145.02 3274.11
   09:31:34.054.15-Aug-2021 3421.80 5084.48 55.11 3.00 145.22 3274.11
   09:31:34.254.15-Aug-2021 3421.80 5084.48 55.11 3.00 145.42 3274.11
   09:31:34.455.15-Aug-2021 3421.80 5088.79 55.11 3.00 145.62 3274.11
   09:31:34.655.15-Aug-2021 3421.80 5089.82 55.11 3.00 145.82 3274.11
   09:31:34.855.15-Aug-2021 3421.80 5090.79 55.11 3.00 146.02 3274.11
   09:31:35.055.15-Aug-2021 3421.80 5090.79 55.11 3.00 146.22 3274.11
   09:31:35.255.15-Aug-2021 3421.80 5092.83 55.11 3.00 146.42 3274.11
   09:31:35.455.15-Aug-2021 3421.80 5094.11 55.11 3.00 146.62 3274.11
   09:31:35.655.15-Aug-2021 3421.80 5095.81 55.11 3.00 146.82 3274.11
   09:31:35.855.15-Aug-2021 3421.80 5096.63 55.11 3.00 147.02 3274.11
   09:31:36.055.15-Aug-2021 3421.80 5096.63 55.11 3.00 147.22 3274.11
   09:31:36.255.15-Aug-2021 3421.80 5098.57 55.11 3.00 147.42 3274.11
   09:31:36.455.15-Aug-2021 3421.80 5099.45 55.11 3.00 147.62 3274.11
   09:31:36.655.15-Aug-2021 3421.80 5101.10 55.11 3.00 147.82 3274.11
   09:31:36.855.15-Aug-2021 3421.80 5102.29 55.11 3.00 148.02 3274.11
   09:31:37.055.15-Aug-2021 3421.80 5102.29 55.11 3.00 148.22 3274.11
   09:31:37.255.15-Aug-2021 3421.80 5104.28 55.11 3.00 148.42 3274.11
   09:31:37.455.15-Aug-2021 3421.80 5105.11 55.11 3.00 148.62 3274.11
   09:31:37.655.15-Aug-2021 3421.80 5106.06 55.11 3.00 148.82 3274.11
   09:31:37.855.15-Aug-2021 3421.80 5107.29 55.11 3.00 149.02 3274.11
   09:31:38.055.15-Aug-2021 3421.80 5107.29 55.11 3.00 149.22 3274.11
   09:31:38.255.15-Aug-2021 3421.80 5110.13 55.11 3.00 149.42 3274.11
   09:31:38.455.15-Aug-2021 3421.80 5110.94 55.11 3.00 149.62 3274.11
   09:31:38.655.15-Aug-2021 3421.80 5111.81 55.11 3.00 149.82 3274.11
   09:31:38.855.15-Aug-2021 3421.80 5112.86 55.11 3.00 150.02 3274.11
   09:31:39.055.15-Aug-2021 3421.80 5112.86 55.11 3.00 150.22 3274.11
   09:31:39.255.15-Aug-2021 3421.80 5115.25 55.11 3.00 150.42 3274.11
   09:31:39.455.15-Aug-2021 3421.80 5116.18 55.11 3.00 150.62 3274.11
   09:31:39.655.15-Aug-2021 3421.80 5117.01 55.11 3.00 150.82 3274.11
   09:31:39.855.15-Aug-2021 3421.80 5117.97 55.11 3.00 151.02 3274.11
   09:31:40.055.15-Aug-2021 3421.80 5117.97 55.11 3.00 151.22 3274.11
   09:31:40.255.15-Aug-2021 3421.80 5120.26 55.11 3.00 151.42 3274.11
   09:31:40.456.15-Aug-2021 3421.80 5121.06 55.10 3.00 151.62 3274.11
   09:31:40.656.15-Aug-2021 3421.80 5121.98 55.11 3.00 151.82 3274.11
   09:31:40.856.15-Aug-2021 3421.80 5122.72 55.10 3.00 152.02 3274.11
   09:31:41.056.15-Aug-2021 3421.80 5122.72 55.10 3.00 152.22 3274.11
   09:31:41.256.15-Aug-2021 3421.80 5124.59 55.10 3.00 152.42 3274.11
   09:31:41.456.15-Aug-2021 3421.80 5126.31 55.10 3.00 152.62 3274.11
   09:31:41.656.15-Aug-2021 3421.80 5127.24 55.10 3.00 152.83 3274.11
   09:31:41.856.15-Aug-2021 3421.80 5127.87 55.10 3.00 153.03 3274.11
   09:31:42.056.15-Aug-2021 3421.80 5127.87 55.10 3.00 153.23 3274.11
   09:31:42.256.15-Aug-2021 3421.80 5129.30 55.10 3.00 153.43 3274.11
   09:31:42.456.15-Aug-2021 3421.80 5129.92 55.10 3.00 153.63 3274.11
   09:31:42.656.15-Aug-2021 3421.80 5130.77 55.10 3.00 153.83 3274.11
   09:31:42.856.15-Aug-2021 3421.80 5131.69 55.10 3.00 154.03 3274.11
   09:31:43.056.15-Aug-2021 3421.80 5131.69 55.10 3.00 154.23 3274.11
   09:31:43.256.15-Aug-2021 3421.80 5134.06 55.10 3.00 154.43 3274.11
   09:31:43.456.15-Aug-2021 3421.80 5134.89 55.10 3.00 154.63 3274.11
   09:31:43.656.15-Aug-2021 3421.80 5135.53 55.10 3.00 154.83 3274.11
   09:31:43.856.15-Aug-2021 3421.80 5136.40 55.10 3.00 155.03 3274.11
   09:31:44.056.15-Aug-2021 3421.80 5136.40 55.10 3.00 155.23 3274.11
   09:31:44.256.15-Aug-2021 3421.80 5138.08 55.10 3.00 155.43 3274.11
   09:31:44.456.15-Aug-2021 3421.80 5138.94 55.10 3.00 155.63 3274.11
   09:31:44.656.15-Aug-2021 3421.80 5140.36 55.10 3.00 155.83 3274.11
   09:31:44.856.15-Aug-2021 3421.80 5141.27 55.10 3.00 156.03 3274.11
   09:31:45.056.15-Aug-2021 3421.80 5141.27 55.10 3.00 156.23 3274.11
   09:31:45.256.15-Aug-2021 3421.80 5142.57 55.10 3.00 156.43 3274.11
   09:31:45.456.15-Aug-2021 3421.80 5143.45 55.10 3.00 156.63 3274.11
   09:31:45.656.15-Aug-2021 3421.80 5144.23 55.10 3.00 156.83 3274.11
   09:31:45.856.15-Aug-2021 3421.80 5145.50 55.10 3.00 157.03 3274.11
   09:31:46.056.15-Aug-2021 3421.80 5145.50 55.10 3.00 157.23 3274.11
   09:31:46.256.15-Aug-2021 3421.80 5146.87 55.10 3.00 157.43 3274.11
   09:31:46.456.15-Aug-2021 3421.80 5147.76 55.10 3.00 157.63 3274.11
   09:31:46.657.15-Aug-2021 3421.80 5148.43 55.10 3.00 157.83 3274.11
   09:31:46.857.15-Aug-2021 3421.80 5149.03 55.10 3.00 158.03 3274.11
   09:31:47.057.15-Aug-2021 3421.80 5149.03 55.10 3.00 158.23 3274.11
   09:31:47.257.15-Aug-2021 3421.80 5150.62 55.10 3.00 158.43 3274.11
   09:31:47.457.15-Aug-2021 3421.80 5152.17 55.10 3.00 158.63 3274.11
   09:31:47.657.15-Aug-2021 3421.80 5152.94 55.10 3.00 158.83 3274.11
   09:31:47.857.15-Aug-2021 3421.80 5153.48 55.10 3.00 159.03 3274.11
   09:31:48.057.15-Aug-2021 3421.80 5153.48 55.10 3.00 159.23 3274.11
   09:31:48.257.15-Aug-2021 3421.80 5154.76 55.10 3.00 159.43 3274.11
   09:31:48.457.15-Aug-2021 3421.80 5155.84 55.10 3.00 159.63 3274.11
   09:31:48.657.15-Aug-2021 3421.80 5156.66 55.10 3.00 159.83 3274.11
   09:31:48.857.15-Aug-2021 3421.80 5157.23 55.10 3.00 160.03 3274.11
   09:31:49.057.15-Aug-2021 3421.80 5157.23 55.10 3.00 160.23 3274.11
   09:31:49.257.15-Aug-2021 3421.80 5159.00 55.10 3.00 160.43 3274.11
   09:31:49.457.15-Aug-2021 3421.80 5159.67 55.10 3.00 160.63 3274.11
   09:31:49.657.15-Aug-2021 3421.80 5160.24 55.10 3.00 160.83 3274.11
