~Version Information
 VERS.                  2.0:   CWLS log ASCII Standard -VERSION 2.0
 WRAP.                   NO:   One line per depth step
~Well Information Block
#MNEM.UNIT     VALUE/NAME     DESCRIPTION
#---------     -----------    ---------------------------
 STRT.S             09:29:08 15-Aug-21: START TIME 09:29:08 15-Aug-21
 STOP.S             09:37:37 15-Aug-21: STOP TIME  09:37:37 15-Aug-21
 STEP.S                   0.00: STEP TIME
 NULL.                 -999.25: NULL VALUE
 DFWT.                        :  DIST FWL TEXT
 DFST.                        :  DIST FSL TEXT
 DMF .             Drill Floor:  DRILL MEAS FROM
 STIM.      17.18.56 20-Jun-21:  START TIME
 DATE.      17.18.56 20-Aug-21:  END TIME
 SPUD.               20-Jun-21:  SPUD DATE
 NREF.                    Grid:  NORTH REFERENCE
 HPTY.       Minimum Curvature:  HOLE POS TYPE
 DMOD.             Drill Model:  DRILL MOD DESC
 SVYD.                  Survey:  SURVEY DESC
 ILTD.               Lithology:  INTERP LTH DESC
 FTOP.          Formation Tops:  FORM TOPS DESC
 SON .        AZ-XX-0907056190:  JOB NUMBER
 PDAT.       Caspian Sea Level:  PERMANENT DATUM
 WTYP.                Deviated:  WELL TYPE
 MDS .        Operator Entered:  MAG DATA SOURCE
 COMP.     BP Exploration (Caspian Sea) Ltd.:  COMPANY
 UWI .            /AZE20000092:  UNIQUE WELL IDENTIFIER
 API .            /AZE20000092:  API NUMBER
 BASE.              Azerbaijan:  LOGGING EQUIPMENT BASE LOCATION
 REGN.                   EESSA:  REGION
 PROV.                    baku:  PROVINCE
 STAT.                    baku:  STATE NAME
 CTRY.              Azerbaijan:  COUNTRY NAME
 FLD .                     ACG:  FIELD NAME
 SRVC.          Turan Drilling:  CONTRACTOR
 MWDS.                    Baku:  MWD SHOP
 WELL.                     J26:  WELL NAME
 JOBN.        AZ-XX-0907056190:  JOB TICKET NUMB
 RIG .             West Chirag:  RIG NAME
 DOE .                     N/A:  DOE NUMBER
 DCON.         Sperry Drilling:  DIRECTNL CONTR
 UNIT.                     N/A:  LOGGING EQUIPMENT ID
 CNTY.                        :  COUNTY
 LOC .                        :  LOCATION
 LMF .             Drill Floor:  LOG MEASURED FROM
 TVDS.m                  43.00:  TVDSS CORRECTN
 LATI.deg                40.13:  LATITUDE
 LONG.deg                51.22:  LONGITUDE
 WHNS.m                  -7.12:  WELL HEAD N/S
 WHEW.m                  -9.46:  WELL HEAD E/W
 UTMX.m              519004.02:  UTM X
 UTMY.m             4443784.96:  UTM Y
 DFWL.m                   0.00:  DISTANCE FWL
 DFSL.m                   0.00:  DISTANCE FSL
 SDEP.m                 464.00:  START DEPTH
 TDD .m                3500.00:  TOTAL DEPTH (DRILLER)
 VSDR.deg               114.35:  VERT SEC DIRECT
 GVFD.g                   1.00:  GRAVITY FIELD
 MFLD.nT              50386.00:  MAGNETIC FIELD
 MDIP.deg                59.63:  MAGNETIC DIP
 MDEC.deg                 6.43:  MAGNETIC DECL
 GRDC.deg                 0.15:  GRID CORRECTION
 AZTC.deg                 6.29:  AZM TOTAL CORR
 EPD .m                   0.00:  ELEVATION
 EGL .m                   0.00:  GROUND ELEVATION
 WDMS.m                 169.80:  WD ELEV
 APD .m                  43.00:  DEPTH ABOVE PD
 VSEW.m                  -9.46:  VERT SEC E/W
 VSNS.m                  -7.12:  VERT SEC N/S
 AGAP.m                  43.00:  AIR GAP
 DEP .m                 356.16:  DEPTH
 EKB .m                  43.00:  KB ELEVATION
 EDF .m                  43.00:  DF ELEVATION
 TDL .m                 699.00:  TOTAL DEPTH (LOGGER)
 VSC .                       0:  VS TO CLOSURE
 MAGU.                 1853727:  MAGUTM CHECKSUM
~Parameter Information Block
#MNEM.UNIT       Value        Description
#---------     -----------    ---------------------------
 AV  .mps                 1.30:  Ann Velocity 
 AVMX.mps                 1.67:  Max Ann Veloc 
 AZIF.deg               280.40:  Azm, Final 
 BHAT.        Rotary Steerable:  BHA Type 
 BREV.rev            528970.00:  Rev Bit Total 
 BROT.°/30m               1.00:  Build Rotating 
 BS  .in                 12.25:  Bit Size 
 BSZ .in                 12.25:  Bit Size 
 BTPL.psig              738.00:  Bit Press Loss 
 CABU.                     Yes:  Customer Abuse 
 CGEO.        Elvin Suleymanov:  Customer Geo 
 COMM.                     œR:  Run Comments 1 
 TCS .hr                 66.05:  Time Ciculation Ended 
 CV  .mps                 2.20:  Crit Velocity 
 CVMX.mps                 2.56:  Max Crit Veloc 
 DD1 .          Rashad Habibov:  Direct Drillr 1 
 DD2 .            Azer ravanov:  Direct Drillr 2 
 DD3 .           Teymur Agayev:  Direct Drillr 3 
 DDSV.               Geo-Pilot:  DD Service 
 DEFF.%                  90.00:  % Det Eff 
 DLRX.°/30m               2.95:  Dogleg Rot Max 
 DLSO.°/30m               1.00:  Dogleg Oriented 
 DLSX.°/30m               2.95:  Dogleg Str Max 
 DRET.      11.42.20 11-Aug-21:  Drill End Time 
 DRST.      23.03.20 08-Aug-21:  Drill Start Tim 
 DTIM.hr                 45.50:  Time Drilling 
 EDEP.m                3488.00:  End Depth 
 ENG1.         Marcelo Marcari:  Engineer 1 
 ENG2.         Dair Mahammadov:  Engineer 2 
 ENG3.       Davud Huseyn-zada:  Engineer 3 
 ENG4.         Yevgeniy Ulikov:  Engineer 4 
 ETIM.      17.45.20 17-Aug-21:  End Time 
 FLOI.gpm              1197.70:  Flow In 
 FLON.gpm              1100.00:  Flow In Min 
 FLOS.cptm                0.00:  Fluid Loss 
 FLOX.gpm              1200.00:  Flow In Max 
 DFT .        Mineral Oil Base:  Mud Type 
 FTRO.       Formation Presure:  FTWD Run Obj 
 HFLO.                      No:  High Flow 
 HPRE.                      No:  High Pressure 
 HTEM.                      No:  High Temp 
 HYDO.m                   1.80:  Hydro Offset 
 IFIN.deg                 9.87:  Inc, Final 
 IMAX.deg                19.96:  Inc Max 
 IMIN.deg                 3.82:  Inc Min 
 IMND.m                3257.42:  Inc Min Depth 
 IMXD.m                2945.53:  Inc Max Depth 
 JARR.                      No:  Jarring 
 LETM.      11.42.20 11-Aug-21:  Log End Time 
 LOST.hr                     0:  Lost Rig Time 
 LSTM.      23.03.20 08-Aug-21:  Log Start Time 
 MDCL.ppm             42500.00:  Mud Chlorides 
 MDES.     Inversion Oil/Synthetic:  Mud Desc 
 DFD .sg                  1.45:  Mud Density 
 MDMN.sg                  1.39:  Dens Mud Min 
 MDMX.sg                  1.57:  Dens Mud Max 
 MOIL.                   53.20:  Run Mud Oil % 
 MOWR.                   70:30:  Run Mud OWR 
 MSND.                       0:  Run Mud Sand % 
 MSOL.                   24.30:  Run Mud Solids% 
 DFV .spqt               79.00:  Mud Viscosity 
 MWOD.in                  8.00:  MWD Tool OD 
 MWSI.                      No:  Serv Intrp, MWD 
 OTIM.hr                253.06:  Time Operating 
 PCON.           Look Like New:  Pad Condition 
 PMAX.psia            11068.93:  Press Op, Max 
 PV  .cP                 36.00:  Mud PV 
 RUN .                    1000:  Run Number 
 ROPA.m/hr               15.34:  ROP Avg 
 ROPN.m/hr                4.00:  ROP Min 
 ROPX.m/hr               31.00:  ROP Max 
 RPMA.rpm               151.40:  RPM Surface Avg 
 RPMN.rpm               120.00:  RPM Surface Min 
 RPMX.rpm               160.00:  RPM Surface Max 
 RRUN.                    L505:  Rig Run Number 
 RTIM.hr                 10.00:  Time Reaming 
 SAZI.deg                88.92:  Azm, Start 
 SDEP.m                2789.00:  Start Depth 
 SIDD.                      No:  Serv Intrp, DD 
 SINC.deg                19.84:  Inc, Start 
 SPPA.psig             4421.39:  SPP Avg 
 SPPN.psig             4130.00:  SPP Min 
 SPPX.psig             4800.00:  SPP Max 
 STIM.      01.25.20 07-Aug-21:  Start Time 
 SVCS.                 DD, MWD:  Services 
 SVER.                    9.20:  Sperry Version 
 TDAT.m                 699.00:  Tot Depth Attmp 
 TDDF.                      No:  Trip for DD 
 TDLG.m                 699.00:  Tot Depth Loggd 
 TFF .                      No:  Trip for Fail 
 TQAA.f-kp               20.55:  Torque Abs Avg 
 TQAN.f-kp               15.00:  Torque Abs Min 
 TQAX.f-kp               24.00:  Torque Abs Max 
 TRRT.°/30m               0.50:  Turn Rotating 
 MRT .                    HCIM:  Maximum Recorded Temperature 
 TTMX.degC               82.35:  Max Tool Temp 
 VS01.                90654677:  Virtual Str1 SN 
 VS02.                90636294:  Virtual Str2 SN 
 VS03.                90653866:  Virtual Str3 SN 
 VS04.                90654674:  Virtual Str4 SN 
 WBMN.klb                10.00:  WOB Min 
 WITN.         Haytham Mostafa:  Customer Rep 
 WITN.           Rufat Babayev:  Customer Rep 2 
 WOBA.klb                22.43:  WOB Avg 
 WOBX.klb                35.00:  WOB Max 
 YP  .lhf2               32.00:  Yield Point 
~Curve Information Block
#MNEM.UNIT                 API CODE     Curve Description
#---------               -----------    ---------------------------
 TIME.HHMMSS            00 000 000 000:  GT Time & Date
 GTDEPTH.m              00 000 000 000:  GT Depth
 GTPQH.psia             00 000 000 000:  GT HR Quartz Pressure
 GTTQ.degC              00 000 000 000:  GT Quartz Temperature
 GTTN.NONE              00 000 000 000:  GT Test Number
 GTET.sec               00 000 000 000:  GT Elapsed Test Time
 GTTVD.m                00 000 000 000:  GT True Vertical Depth
#Other Information
#
#WARRANTY: Halliburton will use its best efforts to furnish customers with 
#accurate information and interpretations that are part of, and incident to, the services 
#provided.  However, Halliburton cannot and does not warrant the accuracy 
#or correctness of such information and interpretations.  Under no circumstances should any 
#such information or interpretation be relied upon as the sole basis for any drilling, 
#completion, production, or financial decision or any procedure involving any risk to the 
#safety of any drilling venture, drilling rig or its crew or any other third party.  The 
#Customer has full responsibility for all drilling, completion and production operation.  
#Halliburton makes no representations or warranties, either expressed or 
#implied, including, but not limited to, the implied warranties of merchantability or fitness 
#for a particular purpose, with respect to the services rendered.  In no event will 
#Halliburton be liable for failure to obtain any particular results or for 
#any damages, including, but not limited to, indirect, special or consequential damages, 
#resulting from the use of any information or interpretation provided by Halliburton.
#
~A           TIME           GTDEPTH  GTPQH  GTTQ  GTTN  GTET   GTTVD  
# ...
   09:35:39.895.15-Aug-2021 3421.80 5002.50 55.02 3.00 391.06 3274.11
   09:35:40.095.15-Aug-2021 3421.80 5002.50 55.02 3.00 391.26 3274.11
   09:35:40.295.15-Aug-2021 3421.80 5007.28 55.02 3.00 391.46 3274.11
   09:35:40.495.15-Aug-2021 3421.80 5009.68 55.02 3.00 391.66 3274.11
   09:35:40.695.15-Aug-2021 3421.80 5012.57 55.02 3.00 391.86 3274.11
   09:35:40.895.15-Aug-2021 3421.80 5014.68 55.02 3.00 392.06 3274.11
   09:35:41.095.15-Aug-2021 3421.80 5014.68 55.02 3.00 392.26 3274.11
   09:35:41.295.15-Aug-2021 3421.80 5018.79 55.02 3.00 392.46 3274.11
   09:35:41.495.15-Aug-2021 3421.80 5020.98 55.02 3.00 392.66 3274.11
   09:35:41.695.15-Aug-2021 3421.80 5023.05 55.02 3.00 392.86 3274.11
   09:35:41.895.15-Aug-2021 3421.80 5025.12 55.02 3.00 393.06 3274.11
   09:35:42.095.15-Aug-2021 3421.80 5025.12 55.02 3.00 393.26 3274.11
   09:35:42.295.15-Aug-2021 3421.80 5029.19 55.02 3.00 393.46 3274.11
   09:35:42.495.15-Aug-2021 3421.80 5031.54 55.02 3.00 393.66 3274.11
   09:35:42.695.15-Aug-2021 3421.80 5033.97 55.02 3.00 393.86 3274.11
   09:35:42.895.15-Aug-2021 3421.80 5035.56 55.02 3.00 394.06 3274.11
   09:35:43.095.15-Aug-2021 3421.80 5035.56 55.02 3.00 394.26 3274.11
   09:35:43.295.15-Aug-2021 3421.80 5039.56 55.02 3.00 394.46 3274.11
   09:35:43.495.15-Aug-2021 3421.80 5041.74 55.02 3.00 394.66 3274.11
   09:35:43.695.15-Aug-2021 3421.80 5044.10 55.02 3.00 394.86 3274.11
   09:35:43.895.15-Aug-2021 3421.80 5045.67 55.02 3.00 395.06 3274.11
   09:35:44.095.15-Aug-2021 3421.80 5045.67 55.02 3.00 395.26 3274.11
   09:35:44.295.15-Aug-2021 3421.80 5049.40 55.02 3.00 395.46 3274.11
   09:35:44.495.15-Aug-2021 3421.80 5051.50 55.02 3.00 395.66 3274.11
   09:35:44.695.15-Aug-2021 3421.80 5052.97 55.02 3.00 395.86 3274.11
   09:35:44.896.15-Aug-2021 3421.80 5054.39 55.02 3.00 396.06 3274.11
   09:35:45.096.15-Aug-2021 3421.80 5054.39 55.02 3.00 396.26 3274.11
   09:35:45.296.15-Aug-2021 3421.80 5058.06 55.02 3.00 396.46 3274.11
   09:35:45.496.15-Aug-2021 3421.80 5059.65 55.02 3.00 396.66 3274.11
   09:35:45.696.15-Aug-2021 3421.80 5061.58 55.02 3.00 396.86 3274.11
   09:35:45.896.15-Aug-2021 3421.80 5063.62 55.02 3.00 397.07 3274.11
   09:35:46.096.15-Aug-2021 3421.80 5063.62 55.02 3.00 397.27 3274.11
   09:35:46.296.15-Aug-2021 3421.80 5066.97 55.02 3.00 397.47 3274.11
   09:35:46.496.15-Aug-2021 3421.80 5068.72 55.02 3.00 397.67 3274.11
   09:35:46.696.15-Aug-2021 3421.80 5070.50 55.02 3.00 397.87 3274.11
   09:35:46.896.15-Aug-2021 3421.80 5072.28 55.02 3.00 398.07 3274.11
   09:35:47.096.15-Aug-2021 3421.80 5072.28 55.02 3.00 398.27 3274.11
   09:35:47.296.15-Aug-2021 3421.80 5075.56 55.02 3.00 398.47 3274.11
   09:35:47.496.15-Aug-2021 3421.80 5077.14 55.02 3.00 398.67 3274.11
   09:35:47.696.15-Aug-2021 3421.80 5078.71 55.02 3.00 398.87 3274.11
   09:35:47.896.15-Aug-2021 3421.80 5080.48 55.02 3.00 399.07 3274.11
   09:35:48.096.15-Aug-2021 3421.80 5080.48 55.02 3.00 399.27 3274.11
   09:35:48.296.15-Aug-2021 3421.80 5083.00 55.02 3.00 399.47 3274.11
   09:35:48.496.15-Aug-2021 3421.80 5084.39 55.02 3.00 399.67 3274.11
   09:35:48.696.15-Aug-2021 3421.80 5086.28 55.02 3.00 399.87 3274.11
   09:35:48.896.15-Aug-2021 3421.80 5087.61 55.02 3.00 400.07 3274.11
   09:35:49.096.15-Aug-2021 3421.80 5087.61 55.02 3.00 400.27 3274.11
   09:35:49.296.15-Aug-2021 3421.80 5090.39 55.02 3.00 400.47 3274.11
   09:35:49.496.15-Aug-2021 3421.80 5091.62 55.02 3.00 400.67 3274.11
   09:35:49.696.15-Aug-2021 3421.80 5093.12 55.02 3.00 400.87 3274.11
   09:35:49.896.15-Aug-2021 3421.80 5094.80 55.02 3.00 401.07 3274.11
   09:35:50.096.15-Aug-2021 3421.80 5094.80 55.02 3.00 401.27 3274.11
   09:35:50.296.15-Aug-2021 3421.80 5097.66 55.02 3.00 401.47 3274.11
   09:35:50.496.15-Aug-2021 3421.80 5099.46 55.02 3.00 401.67 3274.11
   09:35:50.696.15-Aug-2021 3421.80 5100.84 55.02 3.00 401.87 3274.11
   09:35:50.897.15-Aug-2021 3421.80 5101.98 55.02 3.00 402.07 3274.11
   09:35:51.097.15-Aug-2021 3421.80 5101.98 55.02 3.00 402.27 3274.11
   09:35:51.297.15-Aug-2021 3421.80 5104.57 55.02 3.00 402.47 3274.11
   09:35:51.497.15-Aug-2021 3421.80 5105.72 55.01 3.00 402.67 3274.11
   09:35:51.697.15-Aug-2021 3421.80 5107.21 55.01 3.00 402.87 3274.11
   09:35:51.897.15-Aug-2021 3421.80 5109.09 55.01 3.00 403.07 3274.11
   09:35:52.097.15-Aug-2021 3421.80 5109.09 55.01 3.00 403.27 3274.11
   09:35:52.297.15-Aug-2021 3421.80 5111.07 55.01 3.00 403.47 3274.11
   09:35:52.497.15-Aug-2021 3421.80 5112.19 55.01 3.00 403.67 3274.11
   09:35:52.697.15-Aug-2021 3421.80 5113.23 55.01 3.00 403.87 3274.11
   09:35:52.897.15-Aug-2021 3421.80 5114.21 55.01 3.00 404.07 3274.11
   09:35:53.097.15-Aug-2021 3421.80 5114.21 55.01 3.00 404.27 3274.11
   09:35:53.297.15-Aug-2021 3421.80 5117.54 55.01 3.00 404.47 3274.11
   09:35:53.497.15-Aug-2021 3421.80 5118.70 55.01 3.00 404.67 3274.11
   09:35:53.697.15-Aug-2021 3421.80 5119.59 55.01 3.00 404.87 3274.11
   09:35:53.897.15-Aug-2021 3421.80 5120.62 55.01 3.00 405.07 3274.11
   09:35:54.097.15-Aug-2021 3421.80 5120.62 55.01 3.00 405.27 3274.11
   09:35:54.297.15-Aug-2021 3421.80 5120.62 55.01 3.00 405.47 3274.11
   09:35:54.497.15-Aug-2021 3421.80 5124.06 55.01 3.00 405.67 3274.11
   09:35:54.697.15-Aug-2021 3421.80 5125.65 55.01 3.00 405.87 3274.11
   09:35:54.897.15-Aug-2021 3421.80 5126.83 55.01 3.00 406.07 3274.11
   09:35:55.097.15-Aug-2021 3421.80 5126.83 55.01 3.00 406.27 3274.11
   09:35:55.297.15-Aug-2021 3421.80 5128.89 55.01 3.00 406.47 3274.11
   09:35:55.497.15-Aug-2021 3421.80 5129.86 55.01 3.00 406.67 3274.11
   09:35:55.697.15-Aug-2021 3421.80 5131.23 55.01 3.00 406.87 3274.11
   09:35:55.897.15-Aug-2021 3421.80 5132.26 55.01 3.00 407.07 3274.11
   09:35:56.097.15-Aug-2021 3421.80 5132.26 55.01 3.00 407.27 3274.11
   09:35:56.297.15-Aug-2021 3421.80 5134.28 55.01 3.00 407.47 3274.11
   09:35:56.497.15-Aug-2021 3421.80 5135.60 55.01 3.00 407.67 3274.11
   09:35:56.697.15-Aug-2021 3421.80 5136.52 55.01 3.00 407.87 3274.11
   09:35:56.897.15-Aug-2021 3421.80 5137.31 55.01 3.00 408.07 3274.11
   09:35:57.098.15-Aug-2021 3421.80 5137.31 55.01 3.00 408.27 3274.11
   09:35:57.298.15-Aug-2021 3421.80 5139.18 55.01 3.00 408.47 3274.11
   09:35:57.498.15-Aug-2021 3421.80 5140.13 55.01 3.00 408.67 3274.11
   09:35:57.698.15-Aug-2021 3421.80 5140.79 55.01 3.00 408.87 3274.11
   09:35:57.898.15-Aug-2021 3421.80 5141.81 55.01 3.00 409.07 3274.11
   09:35:58.098.15-Aug-2021 3421.80 5141.81 55.01 3.00 409.27 3274.11
   09:35:58.298.15-Aug-2021 3421.80 5142.75 55.01 3.00 409.47 3274.11
   09:35:58.498.15-Aug-2021 3421.80 5144.41 55.01 3.00 409.67 3274.11
   09:35:58.698.15-Aug-2021 3421.80 5145.29 55.01 3.00 409.87 3274.11
   09:35:58.898.15-Aug-2021 3421.80 5146.23 55.01 3.00 410.07 3274.11
   09:35:59.098.15-Aug-2021 3421.80 5146.23 55.01 3.00 410.27 3274.11
   09:35:59.298.15-Aug-2021 3421.80 5148.87 55.01 3.00 410.47 3274.11
   09:35:59.498.15-Aug-2021 3421.80 5149.83 55.01 3.00 410.67 3274.11
   09:35:59.698.15-Aug-2021 3421.80 5150.56 55.01 3.00 410.87 3274.11
   09:35:59.898.15-Aug-2021 3421.80 5151.30 55.01 3.00 411.07 3274.11
   09:36:00.098.15-Aug-2021 3421.80 5151.30 55.01 3.00 411.27 3274.11
   09:36:00.298.15-Aug-2021 3421.80 5153.21 55.01 3.00 411.47 3274.11
   09:36:00.498.15-Aug-2021 3421.80 5154.05 55.01 3.00 411.67 3274.11
   09:36:00.698.15-Aug-2021 3421.80 5154.94 55.01 3.00 411.87 3274.11
   09:36:00.898.15-Aug-2021 3421.80 5155.67 55.01 3.00 412.07 3274.11
   09:36:01.098.15-Aug-2021 3421.80 5155.67 55.01 3.00 412.27 3274.11
   09:36:01.298.15-Aug-2021 3421.80 5156.44 55.01 3.00 412.47 3274.11
   09:36:01.498.15-Aug-2021 3421.80 5158.64 55.01 3.00 412.67 3274.11
   09:36:01.698.15-Aug-2021 3421.80 5159.34 55.01 3.00 412.87 3274.11
   09:36:01.898.15-Aug-2021 3421.80 5160.05 55.01 3.00 413.07 3274.11
   09:36:02.098.15-Aug-2021 3421.80 5160.05 55.01 3.00 413.27 3274.11
   09:36:02.298.15-Aug-2021 3421.80 5161.64 55.01 3.00 413.47 3274.11
   09:36:02.498.15-Aug-2021 3421.80 5162.25 55.01 3.00 413.67 3274.11
   09:36:02.698.15-Aug-2021 3421.80 5162.97 55.01 3.00 413.87 3274.11
