~Version Information
 VERS.                  2.0:   CWLS log ASCII Standard -VERSION 2.0
 WRAP.                   NO:   One line per depth step
~Well Information Block
#MNEM.UNIT     VALUE/NAME     DESCRIPTION
#---------     -----------    ---------------------------
 STRT.S             11:47:36 15-Aug-21: START TIME 11:47:36 15-Aug-21
 STOP.S             11:55:59 15-Aug-21: STOP TIME  11:55:59 15-Aug-21
 STEP.S                   0.00: STEP TIME
 NULL.                 -999.25: NULL VALUE
 DFWT.                        :  DIST FWL TEXT
 DFST.                        :  DIST FSL TEXT
 DMF .             Drill Floor:  DRILL MEAS FROM
 STIM.      17.18.56 20-Jun-21:  START TIME
 DATE.      17.18.56 20-Aug-21:  END TIME
 SPUD.               20-Jun-21:  SPUD DATE
 NREF.                    Grid:  NORTH REFERENCE
 HPTY.       Minimum Curvature:  HOLE POS TYPE
 DMOD.             Drill Model:  DRILL MOD DESC
 SVYD.                  Survey:  SURVEY DESC
 ILTD.               Lithology:  INTERP LTH DESC
 FTOP.          Formation Tops:  FORM TOPS DESC
 SON .        AZ-XX-0907056190:  JOB NUMBER
 PDAT.       Caspian Sea Level:  PERMANENT DATUM
 WTYP.                Deviated:  WELL TYPE
 MDS .        Operator Entered:  MAG DATA SOURCE
 COMP.     BP Exploration (Caspian Sea) Ltd.:  COMPANY
 UWI .            /AZE20000092:  UNIQUE WELL IDENTIFIER
 API .            /AZE20000092:  API NUMBER
 BASE.              Azerbaijan:  LOGGING EQUIPMENT BASE LOCATION
 REGN.                   EESSA:  REGION
 PROV.                    baku:  PROVINCE
 STAT.                    baku:  STATE NAME
 CTRY.              Azerbaijan:  COUNTRY NAME
 FLD .                     ACG:  FIELD NAME
 SRVC.          Turan Drilling:  CONTRACTOR
 MWDS.                    Baku:  MWD SHOP
 WELL.                     J26:  WELL NAME
 JOBN.        AZ-XX-0907056190:  JOB TICKET NUMB
 RIG .             West Chirag:  RIG NAME
 DOE .                     N/A:  DOE NUMBER
 DCON.         Sperry Drilling:  DIRECTNL CONTR
 UNIT.                     N/A:  LOGGING EQUIPMENT ID
 CNTY.                        :  COUNTY
 LOC .                        :  LOCATION
 LMF .             Drill Floor:  LOG MEASURED FROM
 TVDS.m                  43.00:  TVDSS CORRECTN
 LATI.deg                40.13:  LATITUDE
 LONG.deg                51.22:  LONGITUDE
 WHNS.m                  -7.12:  WELL HEAD N/S
 WHEW.m                  -9.46:  WELL HEAD E/W
 UTMX.m              519004.02:  UTM X
 UTMY.m             4443784.96:  UTM Y
 DFWL.m                   0.00:  DISTANCE FWL
 DFSL.m                   0.00:  DISTANCE FSL
 SDEP.m                 464.00:  START DEPTH
 TDD .m                3500.00:  TOTAL DEPTH (DRILLER)
 VSDR.deg               114.35:  VERT SEC DIRECT
 GVFD.g                   1.00:  GRAVITY FIELD
 MFLD.nT              50386.00:  MAGNETIC FIELD
 MDIP.deg                59.63:  MAGNETIC DIP
 MDEC.deg                 6.43:  MAGNETIC DECL
 GRDC.deg                 0.15:  GRID CORRECTION
 AZTC.deg                 6.29:  AZM TOTAL CORR
 EPD .m                   0.00:  ELEVATION
 EGL .m                   0.00:  GROUND ELEVATION
 WDMS.m                 169.80:  WD ELEV
 APD .m                  43.00:  DEPTH ABOVE PD
 VSEW.m                  -9.46:  VERT SEC E/W
 VSNS.m                  -7.12:  VERT SEC N/S
 AGAP.m                  43.00:  AIR GAP
 DEP .m                 356.16:  DEPTH
 EKB .m                  43.00:  KB ELEVATION
 EDF .m                  43.00:  DF ELEVATION
 TDL .m                 699.00:  TOTAL DEPTH (LOGGER)
 VSC .                       0:  VS TO CLOSURE
 MAGU.                 1853727:  MAGUTM CHECKSUM
~Parameter Information Block
#MNEM.UNIT       Value        Description
#---------     -----------    ---------------------------
 AV  .mps                 1.30:  Ann Velocity 
 AVMX.mps                 1.67:  Max Ann Veloc 
 AZIF.deg               280.40:  Azm, Final 
 BHAT.        Rotary Steerable:  BHA Type 
 BREV.rev            528970.00:  Rev Bit Total 
 BROT.°/30m               1.00:  Build Rotating 
 BS  .in                 12.25:  Bit Size 
 BSZ .in                 12.25:  Bit Size 
 BTPL.psig              738.00:  Bit Press Loss 
 CABU.                     Yes:  Customer Abuse 
 CGEO.        Elvin Suleymanov:  Customer Geo 
 COMM.                     lþe:  Run Comments 1 
 TCS .hr                 66.05:  Time Ciculation Ended 
 CV  .mps                 2.20:  Crit Velocity 
 CVMX.mps                 2.56:  Max Crit Veloc 
 DD1 .          Rashad Habibov:  Direct Drillr 1 
 DD2 .            Azer ravanov:  Direct Drillr 2 
 DD3 .           Teymur Agayev:  Direct Drillr 3 
 DDSV.               Geo-Pilot:  DD Service 
 DEFF.%                  90.00:  % Det Eff 
 DLRX.°/30m               2.95:  Dogleg Rot Max 
 DLSO.°/30m               1.00:  Dogleg Oriented 
 DLSX.°/30m               2.95:  Dogleg Str Max 
 DRET.      11.42.20 11-Aug-21:  Drill End Time 
 DRST.      23.03.20 08-Aug-21:  Drill Start Tim 
 DTIM.hr                 45.50:  Time Drilling 
 EDEP.m                3488.00:  End Depth 
 ENG1.         Marcelo Marcari:  Engineer 1 
 ENG2.         Dair Mahammadov:  Engineer 2 
 ENG3.       Davud Huseyn-zada:  Engineer 3 
 ENG4.         Yevgeniy Ulikov:  Engineer 4 
 ETIM.      17.45.20 17-Aug-21:  End Time 
 FLOI.gpm              1197.70:  Flow In 
 FLON.gpm              1100.00:  Flow In Min 
 FLOS.cptm                0.00:  Fluid Loss 
 FLOX.gpm              1200.00:  Flow In Max 
 DFT .        Mineral Oil Base:  Mud Type 
 FTRO.       Formation Presure:  FTWD Run Obj 
 HFLO.                      No:  High Flow 
 HPRE.                      No:  High Pressure 
 HTEM.                      No:  High Temp 
 HYDO.m                   1.80:  Hydro Offset 
 IFIN.deg                 9.87:  Inc, Final 
 IMAX.deg                19.96:  Inc Max 
 IMIN.deg                 3.82:  Inc Min 
 IMND.m                3257.42:  Inc Min Depth 
 IMXD.m                2945.53:  Inc Max Depth 
 JARR.                      No:  Jarring 
 LETM.      11.42.20 11-Aug-21:  Log End Time 
 LOST.hr                     0:  Lost Rig Time 
 LSTM.      23.03.20 08-Aug-21:  Log Start Time 
 MDCL.ppm             42500.00:  Mud Chlorides 
 MDES.     Inversion Oil/Synthetic:  Mud Desc 
 DFD .sg                  1.45:  Mud Density 
 MDMN.sg                  1.39:  Dens Mud Min 
 MDMX.sg                  1.57:  Dens Mud Max 
 MOIL.                   53.20:  Run Mud Oil % 
 MOWR.                   70:30:  Run Mud OWR 
 MSND.                       0:  Run Mud Sand % 
 MSOL.                   24.30:  Run Mud Solids% 
 DFV .spqt               79.00:  Mud Viscosity 
 MWOD.in                  8.00:  MWD Tool OD 
 MWSI.                      No:  Serv Intrp, MWD 
 OTIM.hr                253.06:  Time Operating 
 PCON.           Look Like New:  Pad Condition 
 PMAX.psia            11068.93:  Press Op, Max 
 PV  .cP                 36.00:  Mud PV 
 RUN .                    1000:  Run Number 
 ROPA.m/hr               15.34:  ROP Avg 
 ROPN.m/hr                4.00:  ROP Min 
 ROPX.m/hr               31.00:  ROP Max 
 RPMA.rpm               151.40:  RPM Surface Avg 
 RPMN.rpm               120.00:  RPM Surface Min 
 RPMX.rpm               160.00:  RPM Surface Max 
 RRUN.                    L505:  Rig Run Number 
 RTIM.hr                 10.00:  Time Reaming 
 SAZI.deg                88.92:  Azm, Start 
 SDEP.m                2789.00:  Start Depth 
 SIDD.                      No:  Serv Intrp, DD 
 SINC.deg                19.84:  Inc, Start 
 SPPA.psig             4421.39:  SPP Avg 
 SPPN.psig             4130.00:  SPP Min 
 SPPX.psig             4800.00:  SPP Max 
 STIM.      01.25.20 07-Aug-21:  Start Time 
 SVCS.                 DD, MWD:  Services 
 SVER.                    9.20:  Sperry Version 
 TDAT.m                 699.00:  Tot Depth Attmp 
 TDDF.                      No:  Trip for DD 
 TDLG.m                 699.00:  Tot Depth Loggd 
 TFF .                      No:  Trip for Fail 
 TQAA.f-kp               20.55:  Torque Abs Avg 
 TQAN.f-kp               15.00:  Torque Abs Min 
 TQAX.f-kp               24.00:  Torque Abs Max 
 TRRT.°/30m               0.50:  Turn Rotating 
 MRT .                    HCIM:  Maximum Recorded Temperature 
 TTMX.degC               82.35:  Max Tool Temp 
 VS01.                90654677:  Virtual Str1 SN 
 VS02.                90636294:  Virtual Str2 SN 
 VS03.                90653866:  Virtual Str3 SN 
 VS04.                90654674:  Virtual Str4 SN 
 WBMN.klb                10.00:  WOB Min 
 WITN.         Haytham Mostafa:  Customer Rep 
 WITN.           Rufat Babayev:  Customer Rep 2 
 WOBA.klb                22.43:  WOB Avg 
 WOBX.klb                35.00:  WOB Max 
 YP  .lhf2               32.00:  Yield Point 
~Curve Information Block
#MNEM.UNIT                 API CODE     Curve Description
#---------               -----------    ---------------------------
 TIME.HHMMSS            00 000 000 000:  GT Time & Date
 GTDEPTH.m              00 000 000 000:  GT Depth
 GTPQH.psia             00 000 000 000:  GT HR Quartz Pressure
 GTTQ.degC              00 000 000 000:  GT Quartz Temperature
 GTTN.NONE              00 000 000 000:  GT Test Number
 GTET.sec               00 000 000 000:  GT Elapsed Test Time
 GTTVD.m                00 000 000 000:  GT True Vertical Depth
#Other Information
#
#WARRANTY: Halliburton will use its best efforts to furnish customers with 
#accurate information and interpretations that are part of, and incident to, the services 
#provided.  However, Halliburton cannot and does not warrant the accuracy 
#or correctness of such information and interpretations.  Under no circumstances should any 
#such information or interpretation be relied upon as the sole basis for any drilling, 
#completion, production, or financial decision or any procedure involving any risk to the 
#safety of any drilling venture, drilling rig or its crew or any other third party.  The 
#Customer has full responsibility for all drilling, completion and production operation.  
#Halliburton makes no representations or warranties, either expressed or 
#implied, including, but not limited to, the implied warranties of merchantability or fitness 
#for a particular purpose, with respect to the services rendered.  In no event will 
#Halliburton be liable for failure to obtain any particular results or for 
#any damages, including, but not limited to, indirect, special or consequential damages, 
#resulting from the use of any information or interpretation provided by Halliburton.
#
~A           TIME           GTDEPTH  GTPQH  GTTQ  GTTN  GTET   GTTVD  
   11:47:36.297.15-Aug-2021 3405.50 7468.23 54.18 5.00   0.00 3258.07
   11:47:36.496.15-Aug-2021 3405.50 7468.23 54.18 5.00   0.20 3258.07
   11:47:36.696.15-Aug-2021 3405.50 7469.24 54.18 5.00   0.40 3258.07
   11:47:36.896.15-Aug-2021 3405.50 7470.91 54.18 5.00   0.60 3258.07
   11:47:37.096.15-Aug-2021 3405.50 7469.95 54.18 5.00   0.80 3258.07
   11:47:37.296.15-Aug-2021 3405.50 7470.63 54.18 5.00   1.00 3258.07
   11:47:37.496.15-Aug-2021 3405.50 7470.63 54.18 5.00   1.20 3258.07
   11:47:37.696.15-Aug-2021 3405.50 7471.10 54.18 5.00   1.40 3258.07
   11:47:37.896.15-Aug-2021 3405.50 7469.02 54.18 5.00   1.60 3258.07
   11:47:38.096.15-Aug-2021 3405.50 7469.58 54.18 5.00   1.80 3258.07
   11:47:38.295.15-Aug-2021 3405.50 7470.17 54.18 5.00   2.00 3258.07
   11:47:38.495.15-Aug-2021 3405.50 7470.17 54.18 5.00   2.20 3258.07
   11:47:38.695.15-Aug-2021 3405.50 7466.97 54.18 5.00   2.40 3258.07
   11:47:38.895.15-Aug-2021 3405.50 7468.46 54.18 5.00   2.60 3258.07
   11:47:39.095.15-Aug-2021 3405.50 7467.71 54.18 5.00   2.80 3258.07
   11:47:39.295.15-Aug-2021 3405.50 7465.35 54.18 5.00   3.00 3258.07
   11:47:39.495.15-Aug-2021 3405.50 7465.35 54.18 5.00   3.20 3258.07
   11:47:39.695.15-Aug-2021 3405.50 7460.12 54.18 5.00   3.40 3258.07
   11:47:39.894.15-Aug-2021 3405.50 7460.57 54.18 5.00   3.60 3258.07
   11:47:40.094.15-Aug-2021 3405.50 7459.68 54.18 5.00   3.80 3258.07
   11:47:40.294.15-Aug-2021 3405.50 7459.39 54.18 5.00   4.00 3258.07
   11:47:40.494.15-Aug-2021 3405.50 7459.39 54.18 5.00   4.20 3258.07
   11:47:40.694.15-Aug-2021 3405.50 7457.24 54.18 5.00   4.40 3258.07
   11:47:40.894.15-Aug-2021 3405.50 7456.90 54.18 5.00   4.60 3258.07
   11:47:41.094.15-Aug-2021 3405.50 7456.47 54.18 5.00   4.80 3258.07
   11:47:41.294.15-Aug-2021 3405.50 7458.46 54.17 5.00   5.00 3258.07
   11:47:41.493.15-Aug-2021 3405.50 7458.46 54.17 5.00   5.20 3258.07
   11:47:41.693.15-Aug-2021 3405.50 7454.57 54.17 5.00   5.40 3258.07
   11:47:41.893.15-Aug-2021 3405.50 7455.88 54.17 5.00   5.60 3258.07
   11:47:42.093.15-Aug-2021 3405.50 7456.64 54.17 5.00   5.80 3258.07
   11:47:42.293.15-Aug-2021 3405.50 7459.47 54.17 5.00   6.00 3258.07
   11:47:42.493.15-Aug-2021 3405.50 7459.47 54.17 5.00   6.20 3258.07
   11:47:42.693.15-Aug-2021 3405.50 7457.27 54.17 5.00   6.40 3258.07
   11:47:42.893.15-Aug-2021 3405.50 7456.11 54.17 5.00   6.60 3258.07
   11:47:43.093.15-Aug-2021 3405.50 7457.86 54.17 5.00   6.80 3258.07
   11:47:43.292.15-Aug-2021 3405.50 7455.37 54.17 5.00   7.00 3258.07
   11:47:43.492.15-Aug-2021 3405.50 7455.37 54.17 5.00   7.20 3258.07
   11:47:43.692.15-Aug-2021 3405.50 7457.78 54.17 5.00   7.40 3258.07
   11:47:43.892.15-Aug-2021 3405.50 7458.71 54.17 5.00   7.60 3258.07
   11:47:44.092.15-Aug-2021 3405.50 7459.31 54.17 5.00   7.80 3258.07
   11:47:44.292.15-Aug-2021 3405.50 7456.94 54.17 5.00   8.00 3258.07
   11:47:44.492.15-Aug-2021 3405.50 7456.94 54.17 5.00   8.20 3258.07
   11:47:44.692.15-Aug-2021 3405.50 7455.05 54.17 5.00   8.39 3258.07
   11:47:44.891.15-Aug-2021 3405.50 7456.25 54.17 5.00   8.59 3258.07
   11:47:45.091.15-Aug-2021 3405.50 7457.18 54.17 5.00   8.79 3258.07
   11:47:45.291.15-Aug-2021 3405.50 7458.16 54.17 5.00   8.99 3258.07
   11:47:45.491.15-Aug-2021 3405.50 7458.16 54.17 5.00   9.19 3258.07
   11:47:45.691.15-Aug-2021 3405.50 7455.05 54.17 5.00   9.39 3258.07
   11:47:45.891.15-Aug-2021 3405.50 7455.18 54.17 5.00   9.59 3258.07
   11:47:46.091.15-Aug-2021 3405.50 7456.07 54.17 5.00   9.79 3258.07
   11:47:46.291.15-Aug-2021 3405.50 7457.57 54.17 5.00   9.99 3258.07
   11:47:46.490.15-Aug-2021 3405.50 7457.57 54.17 5.00  10.19 3258.07
   11:47:46.690.15-Aug-2021 3405.50 7458.43 54.17 5.00  10.39 3258.07
   11:47:46.890.15-Aug-2021 3405.50 7457.31 54.17 5.00  10.59 3258.07
   11:47:47.090.15-Aug-2021 3405.50 7458.20 54.17 5.00  10.79 3258.07
   11:47:47.290.15-Aug-2021 3405.50 7459.52 54.17 5.00  10.99 3258.07
   11:47:47.490.15-Aug-2021 3405.50 7459.52 54.17 5.00  11.19 3258.07
   11:47:47.690.15-Aug-2021 3405.50 7461.09 54.17 5.00  11.39 3258.07
   11:47:47.890.15-Aug-2021 3405.50 7462.22 54.17 5.00  11.59 3258.07
   11:47:48.089.15-Aug-2021 3405.50 7460.53 54.17 5.00  11.79 3258.07
   11:47:48.289.15-Aug-2021 3405.50 7459.62 54.17 5.00  11.99 3258.07
   11:47:48.489.15-Aug-2021 3405.50 7459.62 54.17 5.00  12.19 3258.07
   11:47:48.689.15-Aug-2021 3405.50 7464.10 54.17 5.00  12.39 3258.07
   11:47:48.889.15-Aug-2021 3405.50 7463.49 54.17 5.00  12.59 3258.07
   11:47:49.089.15-Aug-2021 3405.50 7461.20 54.17 5.00  12.79 3258.07
   11:47:49.289.15-Aug-2021 3405.50 7461.08 54.17 5.00  12.99 3258.07
   11:47:49.489.15-Aug-2021 3405.50 7461.08 54.17 5.00  13.19 3258.07
   11:47:49.689.15-Aug-2021 3405.50 7462.36 54.17 5.00  13.39 3258.07
   11:47:49.888.15-Aug-2021 3405.50 7461.93 54.17 5.00  13.59 3258.07
   11:47:50.088.15-Aug-2021 3405.50 7461.52 54.17 5.00  13.79 3258.07
   11:47:50.288.15-Aug-2021 3405.50 7461.80 54.16 5.00  13.99 3258.07
   11:47:50.488.15-Aug-2021 3405.50 7461.80 54.16 5.00  14.19 3258.07
   11:47:50.688.15-Aug-2021 3405.50 7462.58 54.16 5.00  14.39 3258.07
   11:47:50.888.15-Aug-2021 3405.50 7463.49 54.16 5.00  14.59 3258.07
   11:47:51.088.15-Aug-2021 3405.50 7460.65 54.16 5.00  14.79 3258.07
   11:47:51.288.15-Aug-2021 3405.50 7461.08 54.16 5.00  14.99 3258.07
   11:47:51.487.15-Aug-2021 3405.50 7461.08 54.16 5.00  15.19 3258.07
   11:47:51.687.15-Aug-2021 3405.50 7462.88 54.16 5.00  15.39 3258.07
   11:47:51.887.15-Aug-2021 3405.50 7464.63 54.16 5.00  15.59 3258.07
   11:47:52.087.15-Aug-2021 3405.50 7462.68 54.16 5.00  15.79 3258.07
   11:47:52.287.15-Aug-2021 3405.50 7462.57 54.16 5.00  15.99 3258.07
   11:47:52.487.15-Aug-2021 3405.50 7462.57 54.16 5.00  16.19 3258.07
   11:47:52.687.15-Aug-2021 3405.50 7462.89 54.16 5.00  16.39 3258.07
   11:47:52.887.15-Aug-2021 3405.50 7465.82 54.16 5.00  16.59 3258.07
   11:47:53.086.15-Aug-2021 3405.50 7462.59 54.16 5.00  16.79 3258.07
   11:47:53.286.15-Aug-2021 3405.50 7461.56 54.16 5.00  16.99 3258.07
   11:47:53.486.15-Aug-2021 3405.50 7461.56 54.16 5.00  17.19 3258.07
   11:47:53.686.15-Aug-2021 3405.50 7462.83 54.16 5.00  17.39 3258.07
   11:47:53.886.15-Aug-2021 3405.50 7462.71 54.16 5.00  17.59 3258.07
   11:47:54.086.15-Aug-2021 3405.50 7463.23 54.16 5.00  17.79 3258.07
   11:47:54.286.15-Aug-2021 3405.50 7463.14 54.16 5.00  17.99 3258.07
   11:47:54.486.15-Aug-2021 3405.50 7463.14 54.16 5.00  18.19 3258.07
   11:47:54.686.15-Aug-2021 3405.50 7461.57 54.16 5.00  18.39 3258.07
   11:47:54.885.15-Aug-2021 3405.50 7460.97 54.16 5.00  18.59 3258.07
   11:47:55.085.15-Aug-2021 3405.50 7462.12 54.16 5.00  18.79 3258.07
   11:47:55.285.15-Aug-2021 3405.50 7461.31 54.16 5.00  18.99 3258.07
   11:47:55.485.15-Aug-2021 3405.50 7461.31 54.16 5.00  19.19 3258.07
   11:47:55.685.15-Aug-2021 3405.50 7460.08 54.16 5.00  19.39 3258.07
   11:47:55.885.15-Aug-2021 3405.50 7461.96 54.16 5.00  19.59 3258.07
   11:47:56.085.15-Aug-2021 3405.50 7462.12 54.16 5.00  19.79 3258.07
   11:47:56.285.15-Aug-2021 3405.50 7460.24 54.16 5.00  19.99 3258.07
   11:47:56.484.15-Aug-2021 3405.50 7460.24 54.16 5.00  20.19 3258.07
   11:47:56.684.15-Aug-2021 3405.50 7460.08 54.16 5.00  20.39 3258.07
   11:47:56.884.15-Aug-2021 3405.50 7460.27 54.16 5.00  20.59 3258.07
   11:47:57.084.15-Aug-2021 3405.50 7460.38 54.16 5.00  20.79 3258.07
   11:47:57.284.15-Aug-2021 3405.50 7462.17 54.16 5.00  20.99 3258.07
   11:47:57.484.15-Aug-2021 3405.50 7462.17 54.16 5.00  21.19 3258.07
   11:47:57.684.15-Aug-2021 3405.50 7458.65 54.16 5.00  21.39 3258.07
   11:47:57.884.15-Aug-2021 3405.50 7458.32 54.16 5.00  21.59 3258.07
   11:47:58.083.15-Aug-2021 3405.50 7459.59 54.16 5.00  21.79 3258.07
   11:47:58.283.15-Aug-2021 3405.50 7462.12 54.16 5.00  21.99 3258.07
   11:47:58.483.15-Aug-2021 3405.50 7462.12 54.16 5.00  22.19 3258.07
   11:47:58.683.15-Aug-2021 3405.50 7459.38 54.16 5.00  22.39 3258.07
   11:47:58.883.15-Aug-2021 3405.50 7458.60 54.16 5.00  22.59 3258.07
   11:47:59.083.15-Aug-2021 3405.50 7459.24 54.16 5.00  22.79 3258.07
