~Version Information
 VERS.                  2.0:   CWLS log ASCII Standard -VERSION 2.0
 WRAP.                   NO:   One line per depth step
~Well Information Block
#MNEM.UNIT     VALUE/NAME     DESCRIPTION
#---------     -----------    ---------------------------
 STRT.S             09:29:08 15-Aug-21: START TIME 09:29:08 15-Aug-21
 STOP.S             09:37:37 15-Aug-21: STOP TIME  09:37:37 15-Aug-21
 STEP.S                   0.00: STEP TIME
 NULL.                 -999.25: NULL VALUE
 DFWT.                        :  DIST FWL TEXT
 DFST.                        :  DIST FSL TEXT
 DMF .             Drill Floor:  DRILL MEAS FROM
 STIM.      17.18.56 20-Jun-21:  START TIME
 DATE.      17.18.56 20-Aug-21:  END TIME
 SPUD.               20-Jun-21:  SPUD DATE
 NREF.                    Grid:  NORTH REFERENCE
 HPTY.       Minimum Curvature:  HOLE POS TYPE
 DMOD.             Drill Model:  DRILL MOD DESC
 SVYD.                  Survey:  SURVEY DESC
 ILTD.               Lithology:  INTERP LTH DESC
 FTOP.          Formation Tops:  FORM TOPS DESC
 SON .        AZ-XX-0907056190:  JOB NUMBER
 PDAT.       Caspian Sea Level:  PERMANENT DATUM
 WTYP.                Deviated:  WELL TYPE
 MDS .        Operator Entered:  MAG DATA SOURCE
 COMP.     BP Exploration (Caspian Sea) Ltd.:  COMPANY
 UWI .            /AZE20000092:  UNIQUE WELL IDENTIFIER
 API .            /AZE20000092:  API NUMBER
 BASE.              Azerbaijan:  LOGGING EQUIPMENT BASE LOCATION
 REGN.                   EESSA:  REGION
 PROV.                    baku:  PROVINCE
 STAT.                    baku:  STATE NAME
 CTRY.              Azerbaijan:  COUNTRY NAME
 FLD .                     ACG:  FIELD NAME
 SRVC.          Turan Drilling:  CONTRACTOR
 MWDS.                    Baku:  MWD SHOP
 WELL.                     J26:  WELL NAME
 JOBN.        AZ-XX-0907056190:  JOB TICKET NUMB
 RIG .             West Chirag:  RIG NAME
 DOE .                     N/A:  DOE NUMBER
 DCON.         Sperry Drilling:  DIRECTNL CONTR
 UNIT.                     N/A:  LOGGING EQUIPMENT ID
 CNTY.                        :  COUNTY
 LOC .                        :  LOCATION
 LMF .             Drill Floor:  LOG MEASURED FROM
 TVDS.m                  43.00:  TVDSS CORRECTN
 LATI.deg                40.13:  LATITUDE
 LONG.deg                51.22:  LONGITUDE
 WHNS.m                  -7.12:  WELL HEAD N/S
 WHEW.m                  -9.46:  WELL HEAD E/W
 UTMX.m              519004.02:  UTM X
 UTMY.m             4443784.96:  UTM Y
 DFWL.m                   0.00:  DISTANCE FWL
 DFSL.m                   0.00:  DISTANCE FSL
 SDEP.m                 464.00:  START DEPTH
 TDD .m                3500.00:  TOTAL DEPTH (DRILLER)
 VSDR.deg               114.35:  VERT SEC DIRECT
 GVFD.g                   1.00:  GRAVITY FIELD
 MFLD.nT              50386.00:  MAGNETIC FIELD
 MDIP.deg                59.63:  MAGNETIC DIP
 MDEC.deg                 6.43:  MAGNETIC DECL
 GRDC.deg                 0.15:  GRID CORRECTION
 AZTC.deg                 6.29:  AZM TOTAL CORR
 EPD .m                   0.00:  ELEVATION
 EGL .m                   0.00:  GROUND ELEVATION
 WDMS.m                 169.80:  WD ELEV
 APD .m                  43.00:  DEPTH ABOVE PD
 VSEW.m                  -9.46:  VERT SEC E/W
 VSNS.m                  -7.12:  VERT SEC N/S
 AGAP.m                  43.00:  AIR GAP
 DEP .m                 356.16:  DEPTH
 EKB .m                  43.00:  KB ELEVATION
 EDF .m                  43.00:  DF ELEVATION
 TDL .m                 699.00:  TOTAL DEPTH (LOGGER)
 VSC .                       0:  VS TO CLOSURE
 MAGU.                 1853727:  MAGUTM CHECKSUM
~Parameter Information Block
#MNEM.UNIT       Value        Description
#---------     -----------    ---------------------------
 AV  .mps                 1.30:  Ann Velocity 
 AVMX.mps                 1.67:  Max Ann Veloc 
 AZIF.deg               280.40:  Azm, Final 
 BHAT.        Rotary Steerable:  BHA Type 
 BREV.rev            528970.00:  Rev Bit Total 
 BROT.°/30m               1.00:  Build Rotating 
 BS  .in                 12.25:  Bit Size 
 BSZ .in                 12.25:  Bit Size 
 BTPL.psig              738.00:  Bit Press Loss 
 CABU.                     Yes:  Customer Abuse 
 CGEO.        Elvin Suleymanov:  Customer Geo 
 COMM.                     œR:  Run Comments 1 
 TCS .hr                 66.05:  Time Ciculation Ended 
 CV  .mps                 2.20:  Crit Velocity 
 CVMX.mps                 2.56:  Max Crit Veloc 
 DD1 .          Rashad Habibov:  Direct Drillr 1 
 DD2 .            Azer ravanov:  Direct Drillr 2 
 DD3 .           Teymur Agayev:  Direct Drillr 3 
 DDSV.               Geo-Pilot:  DD Service 
 DEFF.%                  90.00:  % Det Eff 
 DLRX.°/30m               2.95:  Dogleg Rot Max 
 DLSO.°/30m               1.00:  Dogleg Oriented 
 DLSX.°/30m               2.95:  Dogleg Str Max 
 DRET.      11.42.20 11-Aug-21:  Drill End Time 
 DRST.      23.03.20 08-Aug-21:  Drill Start Tim 
 DTIM.hr                 45.50:  Time Drilling 
 EDEP.m                3488.00:  End Depth 
 ENG1.         Marcelo Marcari:  Engineer 1 
 ENG2.         Dair Mahammadov:  Engineer 2 
 ENG3.       Davud Huseyn-zada:  Engineer 3 
 ENG4.         Yevgeniy Ulikov:  Engineer 4 
 ETIM.      17.45.20 17-Aug-21:  End Time 
 FLOI.gpm              1197.70:  Flow In 
 FLON.gpm              1100.00:  Flow In Min 
 FLOS.cptm                0.00:  Fluid Loss 
 FLOX.gpm              1200.00:  Flow In Max 
 DFT .        Mineral Oil Base:  Mud Type 
 FTRO.       Formation Presure:  FTWD Run Obj 
 HFLO.                      No:  High Flow 
 HPRE.                      No:  High Pressure 
 HTEM.                      No:  High Temp 
 HYDO.m                   1.80:  Hydro Offset 
 IFIN.deg                 9.87:  Inc, Final 
 IMAX.deg                19.96:  Inc Max 
 IMIN.deg                 3.82:  Inc Min 
 IMND.m                3257.42:  Inc Min Depth 
 IMXD.m                2945.53:  Inc Max Depth 
 JARR.                      No:  Jarring 
 LETM.      11.42.20 11-Aug-21:  Log End Time 
 LOST.hr                     0:  Lost Rig Time 
 LSTM.      23.03.20 08-Aug-21:  Log Start Time 
 MDCL.ppm             42500.00:  Mud Chlorides 
 MDES.     Inversion Oil/Synthetic:  Mud Desc 
 DFD .sg                  1.45:  Mud Density 
 MDMN.sg                  1.39:  Dens Mud Min 
 MDMX.sg                  1.57:  Dens Mud Max 
 MOIL.                   53.20:  Run Mud Oil % 
 MOWR.                   70:30:  Run Mud OWR 
 MSND.                       0:  Run Mud Sand % 
 MSOL.                   24.30:  Run Mud Solids% 
 DFV .spqt               79.00:  Mud Viscosity 
 MWOD.in                  8.00:  MWD Tool OD 
 MWSI.                      No:  Serv Intrp, MWD 
 OTIM.hr                253.06:  Time Operating 
 PCON.           Look Like New:  Pad Condition 
 PMAX.psia            11068.93:  Press Op, Max 
 PV  .cP                 36.00:  Mud PV 
 RUN .                    1000:  Run Number 
 ROPA.m/hr               15.34:  ROP Avg 
 ROPN.m/hr                4.00:  ROP Min 
 ROPX.m/hr               31.00:  ROP Max 
 RPMA.rpm               151.40:  RPM Surface Avg 
 RPMN.rpm               120.00:  RPM Surface Min 
 RPMX.rpm               160.00:  RPM Surface Max 
 RRUN.                    L505:  Rig Run Number 
 RTIM.hr                 10.00:  Time Reaming 
 SAZI.deg                88.92:  Azm, Start 
 SDEP.m                2789.00:  Start Depth 
 SIDD.                      No:  Serv Intrp, DD 
 SINC.deg                19.84:  Inc, Start 
 SPPA.psig             4421.39:  SPP Avg 
 SPPN.psig             4130.00:  SPP Min 
 SPPX.psig             4800.00:  SPP Max 
 STIM.      01.25.20 07-Aug-21:  Start Time 
 SVCS.                 DD, MWD:  Services 
 SVER.                    9.20:  Sperry Version 
 TDAT.m                 699.00:  Tot Depth Attmp 
 TDDF.                      No:  Trip for DD 
 TDLG.m                 699.00:  Tot Depth Loggd 
 TFF .                      No:  Trip for Fail 
 TQAA.f-kp               20.55:  Torque Abs Avg 
 TQAN.f-kp               15.00:  Torque Abs Min 
 TQAX.f-kp               24.00:  Torque Abs Max 
 TRRT.°/30m               0.50:  Turn Rotating 
 MRT .                    HCIM:  Maximum Recorded Temperature 
 TTMX.degC               82.35:  Max Tool Temp 
 VS01.                90654677:  Virtual Str1 SN 
 VS02.                90636294:  Virtual Str2 SN 
 VS03.                90653866:  Virtual Str3 SN 
 VS04.                90654674:  Virtual Str4 SN 
 WBMN.klb                10.00:  WOB Min 
 WITN.         Haytham Mostafa:  Customer Rep 
 WITN.           Rufat Babayev:  Customer Rep 2 
 WOBA.klb                22.43:  WOB Avg 
 WOBX.klb                35.00:  WOB Max 
 YP  .lhf2               32.00:  Yield Point 
~Curve Information Block
#MNEM.UNIT                 API CODE     Curve Description
#---------               -----------    ---------------------------
 TIME.HHMMSS            00 000 000 000:  GT Time & Date
 GTDEPTH.m              00 000 000 000:  GT Depth
 GTPQH.psia             00 000 000 000:  GT HR Quartz Pressure
 GTTQ.degC              00 000 000 000:  GT Quartz Temperature
 GTTN.NONE              00 000 000 000:  GT Test Number
 GTET.sec               00 000 000 000:  GT Elapsed Test Time
 GTTVD.m                00 000 000 000:  GT True Vertical Depth
#Other Information
#
#WARRANTY: Halliburton will use its best efforts to furnish customers with 
#accurate information and interpretations that are part of, and incident to, the services 
#provided.  However, Halliburton cannot and does not warrant the accuracy 
#or correctness of such information and interpretations.  Under no circumstances should any 
#such information or interpretation be relied upon as the sole basis for any drilling, 
#completion, production, or financial decision or any procedure involving any risk to the 
#safety of any drilling venture, drilling rig or its crew or any other third party.  The 
#Customer has full responsibility for all drilling, completion and production operation.  
#Halliburton makes no representations or warranties, either expressed or 
#implied, including, but not limited to, the implied warranties of merchantability or fitness 
#for a particular purpose, with respect to the services rendered.  In no event will 
#Halliburton be liable for failure to obtain any particular results or for 
#any damages, including, but not limited to, indirect, special or consequential damages, 
#resulting from the use of any information or interpretation provided by Halliburton.
#
~A           TIME           GTDEPTH  GTPQH  GTTQ  GTTN  GTET   GTTVD  
# ...
   09:33:21.872.15-Aug-2021 3421.80 4762.56 55.07 3.00 253.04 3274.11
   09:33:22.072.15-Aug-2021 3421.80 4762.56 55.07 3.00 253.24 3274.11
   09:33:22.272.15-Aug-2021 3421.80 4770.21 55.07 3.00 253.44 3274.11
   09:33:22.472.15-Aug-2021 3421.80 4774.51 55.07 3.00 253.64 3274.11
   09:33:22.672.15-Aug-2021 3421.80 4777.80 55.07 3.00 253.84 3274.11
   09:33:22.872.15-Aug-2021 3421.80 4781.11 55.07 3.00 254.04 3274.11
   09:33:23.072.15-Aug-2021 3421.80 4781.11 55.07 3.00 254.24 3274.11
   09:33:23.272.15-Aug-2021 3421.80 4788.17 55.07 3.00 254.44 3274.11
   09:33:23.472.15-Aug-2021 3421.80 4792.39 55.07 3.00 254.64 3274.11
   09:33:23.672.15-Aug-2021 3421.80 4795.77 55.07 3.00 254.84 3274.11
   09:33:23.872.15-Aug-2021 3421.80 4799.19 55.07 3.00 255.04 3274.11
   09:33:24.072.15-Aug-2021 3421.80 4799.19 55.07 3.00 255.24 3274.11
   09:33:24.272.15-Aug-2021 3421.80 4806.09 55.07 3.00 255.44 3274.11
   09:33:24.473.15-Aug-2021 3421.80 4809.44 55.07 3.00 255.64 3274.11
   09:33:24.673.15-Aug-2021 3421.80 4812.88 55.07 3.00 255.84 3274.11
   09:33:24.873.15-Aug-2021 3421.80 4816.21 55.07 3.00 256.04 3274.11
   09:33:25.073.15-Aug-2021 3421.80 4816.21 55.07 3.00 256.24 3274.11
   09:33:25.273.15-Aug-2021 3421.80 4822.91 55.07 3.00 256.44 3274.11
   09:33:25.473.15-Aug-2021 3421.80 4826.19 55.07 3.00 256.64 3274.11
   09:33:25.673.15-Aug-2021 3421.80 4829.70 55.07 3.00 256.84 3274.11
   09:33:25.873.15-Aug-2021 3421.80 4832.80 55.07 3.00 257.04 3274.11
   09:33:26.073.15-Aug-2021 3421.80 4832.80 55.07 3.00 257.24 3274.11
   09:33:26.273.15-Aug-2021 3421.80 4839.78 55.07 3.00 257.44 3274.11
   09:33:26.473.15-Aug-2021 3421.80 4842.26 55.07 3.00 257.64 3274.11
   09:33:26.673.15-Aug-2021 3421.80 4845.32 55.07 3.00 257.84 3274.11
   09:33:26.873.15-Aug-2021 3421.80 4848.33 55.07 3.00 258.04 3274.11
   09:33:27.073.15-Aug-2021 3421.80 4848.33 55.07 3.00 258.24 3274.11
   09:33:27.273.15-Aug-2021 3421.80 4854.99 55.07 3.00 258.44 3274.11
   09:33:27.473.15-Aug-2021 3421.80 4857.46 55.07 3.00 258.64 3274.11
   09:33:27.673.15-Aug-2021 3421.80 4860.67 55.07 3.00 258.84 3274.11
   09:33:27.873.15-Aug-2021 3421.80 4863.91 55.07 3.00 259.04 3274.11
   09:33:28.073.15-Aug-2021 3421.80 4863.91 55.07 3.00 259.24 3274.11
   09:33:28.273.15-Aug-2021 3421.80 4869.72 55.07 3.00 259.44 3274.11
   09:33:28.473.15-Aug-2021 3421.80 4872.47 55.07 3.00 259.64 3274.11
   09:33:28.673.15-Aug-2021 3421.80 4875.18 55.07 3.00 259.84 3274.11
   09:33:28.873.15-Aug-2021 3421.80 4877.93 55.07 3.00 260.04 3274.11
   09:33:29.073.15-Aug-2021 3421.80 4877.93 55.07 3.00 260.24 3274.11
   09:33:29.273.15-Aug-2021 3421.80 4884.10 55.07 3.00 260.44 3274.11
   09:33:29.473.15-Aug-2021 3421.80 4886.40 55.07 3.00 260.64 3274.11
   09:33:29.673.15-Aug-2021 3421.80 4889.36 55.07 3.00 260.84 3274.11
   09:33:29.873.15-Aug-2021 3421.80 4892.23 55.07 3.00 261.04 3274.11
   09:33:30.073.15-Aug-2021 3421.80 4892.23 55.07 3.00 261.24 3274.11
   09:33:30.273.15-Aug-2021 3421.80 4894.88 55.07 3.00 261.44 3274.11
   09:33:30.474.15-Aug-2021 3421.80 4900.06 55.07 3.00 261.64 3274.11
   09:33:30.674.15-Aug-2021 3421.80 4902.66 55.07 3.00 261.84 3274.11
   09:33:30.874.15-Aug-2021 3421.80 4905.20 55.07 3.00 262.04 3274.11
   09:33:31.074.15-Aug-2021 3421.80 4905.20 55.07 3.00 262.24 3274.11
   09:33:31.274.15-Aug-2021 3421.80 4910.77 55.07 3.00 262.44 3274.11
   09:33:31.474.15-Aug-2021 3421.80 4913.21 55.07 3.00 262.64 3274.11
   09:33:31.674.15-Aug-2021 3421.80 4915.77 55.07 3.00 262.84 3274.11
   09:33:31.874.15-Aug-2021 3421.80 4918.10 55.07 3.00 263.04 3274.11
   09:33:32.074.15-Aug-2021 3421.80 4918.10 55.07 3.00 263.24 3274.11
   09:33:32.274.15-Aug-2021 3421.80 4923.58 55.07 3.00 263.44 3274.11
   09:33:32.474.15-Aug-2021 3421.80 4926.03 55.07 3.00 263.64 3274.11
   09:33:32.674.15-Aug-2021 3421.80 4928.52 55.07 3.00 263.84 3274.11
   09:33:32.874.15-Aug-2021 3421.80 4930.60 55.07 3.00 264.04 3274.11
   09:33:33.074.15-Aug-2021 3421.80 4930.60 55.07 3.00 264.24 3274.11
   09:33:33.274.15-Aug-2021 3421.80 4935.24 55.07 3.00 264.44 3274.11
   09:33:33.474.15-Aug-2021 3421.80 4938.19 55.07 3.00 264.64 3274.11
   09:33:33.674.15-Aug-2021 3421.80 4940.13 55.07 3.00 264.84 3274.11
   09:33:33.874.15-Aug-2021 3421.80 4942.38 55.07 3.00 265.04 3274.11
   09:33:34.074.15-Aug-2021 3421.80 4942.38 55.07 3.00 265.24 3274.11
   09:33:34.274.15-Aug-2021 3421.80 4946.92 55.07 3.00 265.44 3274.11
   09:33:34.474.15-Aug-2021 3421.80 4949.40 55.07 3.00 265.64 3274.11
   09:33:34.674.15-Aug-2021 3421.80 4952.29 55.07 3.00 265.84 3274.11
   09:33:34.874.15-Aug-2021 3421.80 4954.24 55.07 3.00 266.04 3274.11
   09:33:35.074.15-Aug-2021 3421.80 4954.24 55.07 3.00 266.24 3274.11
   09:33:35.274.15-Aug-2021 3421.80 4958.51 55.07 3.00 266.44 3274.11
   09:33:35.474.15-Aug-2021 3421.80 4960.69 55.07 3.00 266.64 3274.11
   09:33:35.674.15-Aug-2021 3421.80 4963.32 55.07 3.00 266.84 3274.11
   09:33:35.874.15-Aug-2021 3421.80 4964.96 55.07 3.00 267.04 3274.11
   09:33:36.074.15-Aug-2021 3421.80 4964.96 55.07 3.00 267.24 3274.11
   09:33:36.274.15-Aug-2021 3421.80 4968.70 55.07 3.00 267.44 3274.11
   09:33:36.474.15-Aug-2021 3421.80 4971.42 55.07 3.00 267.64 3274.11
   09:33:36.675.15-Aug-2021 3421.80 4973.36 55.07 3.00 267.84 3274.11
   09:33:36.875.15-Aug-2021 3421.80 4975.21 55.07 3.00 268.04 3274.11
   09:33:37.075.15-Aug-2021 3421.80 4975.21 55.07 3.00 268.24 3274.11
   09:33:37.275.15-Aug-2021 3421.80 4979.56 55.07 3.00 268.44 3274.11
   09:33:37.475.15-Aug-2021 3421.80 4982.01 55.07 3.00 268.64 3274.11
   09:33:37.675.15-Aug-2021 3421.80 4983.59 55.07 3.00 268.84 3274.11
   09:33:37.875.15-Aug-2021 3421.80 4985.49 55.07 3.00 269.04 3274.11
   09:33:38.075.15-Aug-2021 3421.80 4985.49 55.07 3.00 269.24 3274.11
   09:33:38.275.15-Aug-2021 3421.80 4987.42 55.07 3.00 269.44 3274.11
   09:33:38.475.15-Aug-2021 3421.80 4991.48 55.07 3.00 269.64 3274.11
   09:33:38.675.15-Aug-2021 3421.80 4993.36 55.07 3.00 269.84 3274.11
   09:33:38.875.15-Aug-2021 3421.80 4995.05 55.07 3.00 270.04 3274.11
   09:33:39.075.15-Aug-2021 3421.80 4995.05 55.07 3.00 270.24 3274.11
   09:33:39.275.15-Aug-2021 3421.80 4999.23 55.07 3.00 270.44 3274.11
   09:33:39.475.15-Aug-2021 3421.80 5000.90 55.07 3.00 270.64 3274.11
   09:33:39.675.15-Aug-2021 3421.80 5002.57 55.07 3.00 270.84 3274.11
   09:33:39.875.15-Aug-2021 3421.80 5004.42 55.07 3.00 271.04 3274.11
   09:33:40.075.15-Aug-2021 3421.80 5004.42 55.07 3.00 271.24 3274.11
   09:33:40.275.15-Aug-2021 3421.80 5007.83 55.07 3.00 271.44 3274.11
   09:33:40.475.15-Aug-2021 3421.80 5010.38 55.07 3.00 271.64 3274.11
   09:33:40.675.15-Aug-2021 3421.80 5012.03 55.07 3.00 271.84 3274.11
   09:33:40.875.15-Aug-2021 3421.80 5013.65 55.07 3.00 272.04 3274.11
   09:33:41.075.15-Aug-2021 3421.80 5013.65 55.07 3.00 272.24 3274.11
   09:33:41.275.15-Aug-2021 3421.80 5017.03 55.07 3.00 272.44 3274.11
   09:33:41.475.15-Aug-2021 3421.80 5018.71 55.07 3.00 272.64 3274.11
   09:33:41.675.15-Aug-2021 3421.80 5020.62 55.07 3.00 272.84 3274.11
   09:33:41.875.15-Aug-2021 3421.80 5022.94 55.07 3.00 273.04 3274.11
   09:33:42.075.15-Aug-2021 3421.80 5022.94 55.07 3.00 273.24 3274.11
   09:33:42.275.15-Aug-2021 3421.80 5024.30 55.07 3.00 273.44 3274.11
   09:33:42.475.15-Aug-2021 3421.80 5027.18 55.07 3.00 273.64 3274.11
   09:33:42.676.15-Aug-2021 3421.80 5028.48 55.07 3.00 273.84 3274.11
   09:33:42.876.15-Aug-2021 3421.80 5030.20 55.07 3.00 274.04 3274.11
   09:33:43.076.15-Aug-2021 3421.80 5030.20 55.07 3.00 274.24 3274.11
   09:33:43.276.15-Aug-2021 3421.80 5034.16 55.07 3.00 274.44 3274.11
   09:33:43.476.15-Aug-2021 3421.80 5035.38 55.07 3.00 274.64 3274.11
   09:33:43.676.15-Aug-2021 3421.80 5036.98 55.07 3.00 274.84 3274.11
   09:33:43.876.15-Aug-2021 3421.80 5038.61 55.07 3.00 275.05 3274.11
   09:33:44.076.15-Aug-2021 3421.80 5038.61 55.07 3.00 275.25 3274.11
   09:33:44.276.15-Aug-2021 3421.80 5042.13 55.07 3.00 275.45 3274.11
   09:33:44.476.15-Aug-2021 3421.80 5043.31 55.07 3.00 275.65 3274.11
   09:33:44.676.15-Aug-2021 3421.80 5044.96 55.07 3.00 275.85 3274.11
