~Version Information
 VERS.                  2.0:   CWLS log ASCII Standard -VERSION 2.0
 WRAP.                   NO:   One line per depth step
~Well Information Block
#MNEM.UNIT     VALUE/NAME     DESCRIPTION
#---------     -----------    ---------------------------
 STRT.S             12:25:56 15-Aug-21: START TIME 12:25:56 15-Aug-21
 STOP.S             12:39:05 15-Aug-21: STOP TIME  12:39:05 15-Aug-21
 STEP.S                   0.00: STEP TIME
 NULL.                 -999.25: NULL VALUE
 DFWT.                        :  DIST FWL TEXT
 DFST.                        :  DIST FSL TEXT
 DMF .             Drill Floor:  DRILL MEAS FROM
 STIM.      17.18.56 20-Jun-21:  START TIME
 DATE.      17.18.56 20-Aug-21:  END TIME
 SPUD.               20-Jun-21:  SPUD DATE
 NREF.                    Grid:  NORTH REFERENCE
 HPTY.       Minimum Curvature:  HOLE POS TYPE
 DMOD.             Drill Model:  DRILL MOD DESC
 SVYD.                  Survey:  SURVEY DESC
 ILTD.               Lithology:  INTERP LTH DESC
 FTOP.          Formation Tops:  FORM TOPS DESC
 SON .        AZ-XX-0907056190:  JOB NUMBER
 PDAT.       Caspian Sea Level:  PERMANENT DATUM
 WTYP.                Deviated:  WELL TYPE
 MDS .        Operator Entered:  MAG DATA SOURCE
 COMP.     BP Exploration (Caspian Sea) Ltd.:  COMPANY
 UWI .            /AZE20000092:  UNIQUE WELL IDENTIFIER
 API .            /AZE20000092:  API NUMBER
 BASE.              Azerbaijan:  LOGGING EQUIPMENT BASE LOCATION
 REGN.                   EESSA:  REGION
 PROV.                    baku:  PROVINCE
 STAT.                    baku:  STATE NAME
 CTRY.              Azerbaijan:  COUNTRY NAME
 FLD .                     ACG:  FIELD NAME
 SRVC.          Turan Drilling:  CONTRACTOR
 MWDS.                    Baku:  MWD SHOP
 WELL.                     J26:  WELL NAME
 JOBN.        AZ-XX-0907056190:  JOB TICKET NUMB
 RIG .             West Chirag:  RIG NAME
 DOE .                     N/A:  DOE NUMBER
 DCON.         Sperry Drilling:  DIRECTNL CONTR
 UNIT.                     N/A:  LOGGING EQUIPMENT ID
 CNTY.                        :  COUNTY
 LOC .                        :  LOCATION
 LMF .             Drill Floor:  LOG MEASURED FROM
 TVDS.m                  43.00:  TVDSS CORRECTN
 LATI.deg                40.13:  LATITUDE
 LONG.deg                51.22:  LONGITUDE
 WHNS.m                  -7.12:  WELL HEAD N/S
 WHEW.m                  -9.46:  WELL HEAD E/W
 UTMX.m              519004.02:  UTM X
 UTMY.m             4443784.96:  UTM Y
 DFWL.m                   0.00:  DISTANCE FWL
 DFSL.m                   0.00:  DISTANCE FSL
 SDEP.m                 464.00:  START DEPTH
 TDD .m                3500.00:  TOTAL DEPTH (DRILLER)
 VSDR.deg               114.35:  VERT SEC DIRECT
 GVFD.g                   1.00:  GRAVITY FIELD
 MFLD.nT              50386.00:  MAGNETIC FIELD
 MDIP.deg                59.63:  MAGNETIC DIP
 MDEC.deg                 6.43:  MAGNETIC DECL
 GRDC.deg                 0.15:  GRID CORRECTION
 AZTC.deg                 6.29:  AZM TOTAL CORR
 EPD .m                   0.00:  ELEVATION
 EGL .m                   0.00:  GROUND ELEVATION
 WDMS.m                 169.80:  WD ELEV
 APD .m                  43.00:  DEPTH ABOVE PD
 VSEW.m                  -9.46:  VERT SEC E/W
 VSNS.m                  -7.12:  VERT SEC N/S
 AGAP.m                  43.00:  AIR GAP
 DEP .m                 356.16:  DEPTH
 EKB .m                  43.00:  KB ELEVATION
 EDF .m                  43.00:  DF ELEVATION
 TDL .m                 699.00:  TOTAL DEPTH (LOGGER)
 VSC .                       0:  VS TO CLOSURE
 MAGU.                 1853727:  MAGUTM CHECKSUM
~Parameter Information Block
#MNEM.UNIT       Value        Description
#---------     -----------    ---------------------------
 AV  .mps                 1.30:  Ann Velocity 
 AVMX.mps                 1.67:  Max Ann Veloc 
 AZIF.deg               280.40:  Azm, Final 
 BHAT.        Rotary Steerable:  BHA Type 
 BREV.rev            528970.00:  Rev Bit Total 
 BROT.°/30m               1.00:  Build Rotating 
 BS  .in                 12.25:  Bit Size 
 BSZ .in                 12.25:  Bit Size 
 BTPL.psig              738.00:  Bit Press Loss 
 CABU.                     Yes:  Customer Abuse 
 CGEO.        Elvin Suleymanov:  Customer Geo 
 COMM.                     ´3x:  Run Comments 1 
 TCS .hr                 66.05:  Time Ciculation Ended 
 CV  .mps                 2.20:  Crit Velocity 
 CVMX.mps                 2.56:  Max Crit Veloc 
 DD1 .          Rashad Habibov:  Direct Drillr 1 
 DD2 .            Azer ravanov:  Direct Drillr 2 
 DD3 .           Teymur Agayev:  Direct Drillr 3 
 DDSV.               Geo-Pilot:  DD Service 
 DEFF.%                  90.00:  % Det Eff 
 DLRX.°/30m               2.95:  Dogleg Rot Max 
 DLSO.°/30m               1.00:  Dogleg Oriented 
 DLSX.°/30m               2.95:  Dogleg Str Max 
 DRET.      11.42.20 11-Aug-21:  Drill End Time 
 DRST.      23.03.20 08-Aug-21:  Drill Start Tim 
 DTIM.hr                 45.50:  Time Drilling 
 EDEP.m                3488.00:  End Depth 
 ENG1.         Marcelo Marcari:  Engineer 1 
 ENG2.         Dair Mahammadov:  Engineer 2 
 ENG3.       Davud Huseyn-zada:  Engineer 3 
 ENG4.         Yevgeniy Ulikov:  Engineer 4 
 ETIM.      17.45.20 17-Aug-21:  End Time 
 FLOI.gpm              1197.70:  Flow In 
 FLON.gpm              1100.00:  Flow In Min 
 FLOS.cptm                0.00:  Fluid Loss 
 FLOX.gpm              1200.00:  Flow In Max 
 DFT .        Mineral Oil Base:  Mud Type 
 FTRO.       Formation Presure:  FTWD Run Obj 
 HFLO.                      No:  High Flow 
 HPRE.                      No:  High Pressure 
 HTEM.                      No:  High Temp 
 HYDO.m                   1.80:  Hydro Offset 
 IFIN.deg                 9.87:  Inc, Final 
 IMAX.deg                19.96:  Inc Max 
 IMIN.deg                 3.82:  Inc Min 
 IMND.m                3257.42:  Inc Min Depth 
 IMXD.m                2945.53:  Inc Max Depth 
 JARR.                      No:  Jarring 
 LETM.      11.42.20 11-Aug-21:  Log End Time 
 LOST.hr                     0:  Lost Rig Time 
 LSTM.      23.03.20 08-Aug-21:  Log Start Time 
 MDCL.ppm             42500.00:  Mud Chlorides 
 MDES.     Inversion Oil/Synthetic:  Mud Desc 
 DFD .sg                  1.45:  Mud Density 
 MDMN.sg                  1.39:  Dens Mud Min 
 MDMX.sg                  1.57:  Dens Mud Max 
 MOIL.                   53.20:  Run Mud Oil % 
 MOWR.                   70:30:  Run Mud OWR 
 MSND.                       0:  Run Mud Sand % 
 MSOL.                   24.30:  Run Mud Solids% 
 DFV .spqt               79.00:  Mud Viscosity 
 MWOD.in                  8.00:  MWD Tool OD 
 MWSI.                      No:  Serv Intrp, MWD 
 OTIM.hr                253.06:  Time Operating 
 PCON.           Look Like New:  Pad Condition 
 PMAX.psia            11068.93:  Press Op, Max 
 PV  .cP                 36.00:  Mud PV 
 RUN .                    1000:  Run Number 
 ROPA.m/hr               15.34:  ROP Avg 
 ROPN.m/hr                4.00:  ROP Min 
 ROPX.m/hr               31.00:  ROP Max 
 RPMA.rpm               151.40:  RPM Surface Avg 
 RPMN.rpm               120.00:  RPM Surface Min 
 RPMX.rpm               160.00:  RPM Surface Max 
 RRUN.                    L505:  Rig Run Number 
 RTIM.hr                 10.00:  Time Reaming 
 SAZI.deg                88.92:  Azm, Start 
 SDEP.m                2789.00:  Start Depth 
 SIDD.                      No:  Serv Intrp, DD 
 SINC.deg                19.84:  Inc, Start 
 SPPA.psig             4421.39:  SPP Avg 
 SPPN.psig             4130.00:  SPP Min 
 SPPX.psig             4800.00:  SPP Max 
 STIM.      01.25.20 07-Aug-21:  Start Time 
 SVCS.                 DD, MWD:  Services 
 SVER.                    9.20:  Sperry Version 
 TDAT.m                 699.00:  Tot Depth Attmp 
 TDDF.                      No:  Trip for DD 
 TDLG.m                 699.00:  Tot Depth Loggd 
 TFF .                      No:  Trip for Fail 
 TQAA.f-kp               20.55:  Torque Abs Avg 
 TQAN.f-kp               15.00:  Torque Abs Min 
 TQAX.f-kp               24.00:  Torque Abs Max 
 TRRT.°/30m               0.50:  Turn Rotating 
 MRT .                    HCIM:  Maximum Recorded Temperature 
 TTMX.degC               82.35:  Max Tool Temp 
 VS01.                90654677:  Virtual Str1 SN 
 VS02.                90636294:  Virtual Str2 SN 
 VS03.                90653866:  Virtual Str3 SN 
 VS04.                90654674:  Virtual Str4 SN 
 WBMN.klb                10.00:  WOB Min 
 WITN.         Haytham Mostafa:  Customer Rep 
 WITN.           Rufat Babayev:  Customer Rep 2 
 WOBA.klb                22.43:  WOB Avg 
 WOBX.klb                35.00:  WOB Max 
 YP  .lhf2               32.00:  Yield Point 
~Curve Information Block
#MNEM.UNIT                 API CODE     Curve Description
#---------               -----------    ---------------------------
 TIME.HHMMSS            00 000 000 000:  GT Time & Date
 GTDEPTH.m              00 000 000 000:  GT Depth
 GTPQH.psia             00 000 000 000:  GT HR Quartz Pressure
 GTTQ.degC              00 000 000 000:  GT Quartz Temperature
 GTTN.NONE              00 000 000 000:  GT Test Number
 GTET.sec               00 000 000 000:  GT Elapsed Test Time
 GTTVD.m                00 000 000 000:  GT True Vertical Depth
#Other Information
#
#WARRANTY: Halliburton will use its best efforts to furnish customers with 
#accurate information and interpretations that are part of, and incident to, the services 
#provided.  However, Halliburton cannot and does not warrant the accuracy 
#or correctness of such information and interpretations.  Under no circumstances should any 
#such information or interpretation be relied upon as the sole basis for any drilling, 
#completion, production, or financial decision or any procedure involving any risk to the 
#safety of any drilling venture, drilling rig or its crew or any other third party.  The 
#Customer has full responsibility for all drilling, completion and production operation.  
#Halliburton makes no representations or warranties, either expressed or 
#implied, including, but not limited to, the implied warranties of merchantability or fitness 
#for a particular purpose, with respect to the services rendered.  In no event will 
#Halliburton be liable for failure to obtain any particular results or for 
#any damages, including, but not limited to, indirect, special or consequential damages, 
#resulting from the use of any information or interpretation provided by Halliburton.
#
~A           TIME           GTDEPTH  GTPQH  GTTQ  GTTN  GTET   GTTVD  
# ...
   12:31:41.705.15-Aug-2021 3405.50 2663.84 52.36 6.00 344.79 3258.07
   12:31:41.905.15-Aug-2021 3405.50 2663.84 52.36 6.00 344.99 3258.07
   12:31:42.105.15-Aug-2021 3405.50 2666.97 52.36 6.00 345.19 3258.07
   12:31:42.305.15-Aug-2021 3405.50 2673.19 52.36 6.00 345.39 3258.07
   12:31:42.504.15-Aug-2021 3405.50 2676.12 52.36 6.00 345.59 3258.07
   12:31:42.704.15-Aug-2021 3405.50 2679.12 52.36 6.00 345.79 3258.07
   12:31:42.904.15-Aug-2021 3405.50 2679.12 52.36 6.00 345.99 3258.07
   12:31:43.104.15-Aug-2021 3405.50 2682.10 52.36 6.00 346.19 3258.07
   12:31:43.304.15-Aug-2021 3405.50 2688.49 52.36 6.00 346.39 3258.07
   12:31:43.504.15-Aug-2021 3405.50 2691.36 52.36 6.00 346.59 3258.07
   12:31:43.704.15-Aug-2021 3405.50 2694.20 52.36 6.00 346.79 3258.07
   12:31:43.904.15-Aug-2021 3405.50 2694.20 52.36 6.00 346.99 3258.07
   12:31:44.104.15-Aug-2021 3405.50 2700.07 52.36 6.00 347.19 3258.07
   12:31:44.303.15-Aug-2021 3405.50 2703.01 52.36 6.00 347.39 3258.07
   12:31:44.503.15-Aug-2021 3405.50 2706.08 52.36 6.00 347.59 3258.07
   12:31:44.703.15-Aug-2021 3405.50 2708.96 52.36 6.00 347.79 3258.07
   12:31:44.903.15-Aug-2021 3405.50 2708.96 52.36 6.00 347.99 3258.07
   12:31:45.103.15-Aug-2021 3405.50 2711.80 52.36 6.00 348.19 3258.07
   12:31:45.303.15-Aug-2021 3405.50 2716.50 52.36 6.00 348.39 3258.07
   12:31:45.503.15-Aug-2021 3405.50 2719.41 52.36 6.00 348.59 3258.07
   12:31:45.703.15-Aug-2021 3405.50 2722.19 52.36 6.00 348.79 3258.07
   12:31:45.902.15-Aug-2021 3405.50 2722.19 52.36 6.00 348.99 3258.07
   12:31:46.102.15-Aug-2021 3405.50 2725.06 52.36 6.00 349.19 3258.07
   12:31:46.302.15-Aug-2021 3405.50 2731.10 52.36 6.00 349.39 3258.07
   12:31:46.502.15-Aug-2021 3405.50 2733.95 52.36 6.00 349.59 3258.07
   12:31:46.702.15-Aug-2021 3405.50 2736.86 52.36 6.00 349.79 3258.07
   12:31:46.902.15-Aug-2021 3405.50 2736.86 52.36 6.00 349.99 3258.07
   12:31:47.102.15-Aug-2021 3405.50 2739.90 52.36 6.00 350.19 3258.07
   12:31:47.302.15-Aug-2021 3405.50 2745.22 52.36 6.00 350.39 3258.07
   12:31:47.501.15-Aug-2021 3405.50 2748.17 52.36 6.00 350.59 3258.07
   12:31:47.701.15-Aug-2021 3405.50 2751.35 52.36 6.00 350.79 3258.07
   12:31:47.901.15-Aug-2021 3405.50 2751.35 52.36 6.00 350.99 3258.07
   12:31:48.101.15-Aug-2021 3405.50 2756.70 52.36 6.00 351.19 3258.07
   12:31:48.301.15-Aug-2021 3405.50 2759.55 52.36 6.00 351.39 3258.07
   12:31:48.501.15-Aug-2021 3405.50 2762.40 52.36 6.00 351.59 3258.07
   12:31:48.701.15-Aug-2021 3405.50 2765.05 52.36 6.00 351.79 3258.07
   12:31:48.901.15-Aug-2021 3405.50 2765.05 52.36 6.00 351.99 3258.07
   12:31:49.101.15-Aug-2021 3405.50 2767.70 52.36 6.00 352.19 3258.07
   12:31:49.300.15-Aug-2021 3405.50 2772.27 52.36 6.00 352.39 3258.07
   12:31:49.500.15-Aug-2021 3405.50 2775.11 52.36 6.00 352.59 3258.07
   12:31:49.700.15-Aug-2021 3405.50 2777.95 52.36 6.00 352.79 3258.07
   12:31:49.900.15-Aug-2021 3405.50 2777.95 52.36 6.00 352.99 3258.07
   12:31:50.100.15-Aug-2021 3405.50 2780.65 52.36 6.00 353.19 3258.07
   12:31:50.300.15-Aug-2021 3405.50 2786.17 52.36 6.00 353.39 3258.07
   12:31:50.500.15-Aug-2021 3405.50 2789.02 52.36 6.00 353.59 3258.07
   12:31:50.700.15-Aug-2021 3405.50 2792.01 52.36 6.00 353.79 3258.07
   12:31:50.899.15-Aug-2021 3405.50 2792.01 52.36 6.00 353.99 3258.07
   12:31:51.099.15-Aug-2021 3405.50 2794.69 52.36 6.00 354.19 3258.07
   12:31:51.299.15-Aug-2021 3405.50 2800.11 52.36 6.00 354.39 3258.07
   12:31:51.499.15-Aug-2021 3405.50 2802.77 52.36 6.00 354.59 3258.07
   12:31:51.699.15-Aug-2021 3405.50 2805.43 52.36 6.00 354.79 3258.07
   12:31:51.899.15-Aug-2021 3405.50 2805.43 52.36 6.00 354.99 3258.07
   12:31:52.099.15-Aug-2021 3405.50 2811.09 52.36 6.00 355.19 3258.07
   12:31:52.299.15-Aug-2021 3405.50 2813.67 52.36 6.00 355.39 3258.07
   12:31:52.498.15-Aug-2021 3405.50 2816.40 52.36 6.00 355.59 3258.07
   12:31:52.698.15-Aug-2021 3405.50 2818.96 52.36 6.00 355.79 3258.07
   12:31:52.898.15-Aug-2021 3405.50 2818.96 52.36 6.00 355.99 3258.07
   12:31:53.098.15-Aug-2021 3405.50 2821.20 52.36 6.00 356.19 3258.07
   12:31:53.298.15-Aug-2021 3405.50 2825.84 52.36 6.00 356.39 3258.07
   12:31:53.498.15-Aug-2021 3405.50 2828.65 52.36 6.00 356.59 3258.07
   12:31:53.698.15-Aug-2021 3405.50 2831.27 52.36 6.00 356.79 3258.07
   12:31:53.898.15-Aug-2021 3405.50 2831.27 52.36 6.00 356.99 3258.07
   12:31:54.098.15-Aug-2021 3405.50 2836.54 52.36 6.00 357.19 3258.07
   12:31:54.297.15-Aug-2021 3405.50 2839.13 52.36 6.00 357.38 3258.07
   12:31:54.497.15-Aug-2021 3405.50 2841.72 52.36 6.00 357.58 3258.07
   12:31:54.697.15-Aug-2021 3405.50 2844.70 52.36 6.00 357.78 3258.07
   12:31:54.897.15-Aug-2021 3405.50 2844.70 52.36 6.00 357.98 3258.07
   12:31:55.097.15-Aug-2021 3405.50 2847.19 52.36 6.00 358.18 3258.07
   12:31:55.297.15-Aug-2021 3405.50 2852.37 52.36 6.00 358.38 3258.07
   12:31:55.497.15-Aug-2021 3405.50 2854.95 52.36 6.00 358.58 3258.07
   12:31:55.697.15-Aug-2021 3405.50 2857.61 52.36 6.00 358.78 3258.07
   12:31:55.896.15-Aug-2021 3405.50 2857.61 52.36 6.00 358.98 3258.07
   12:31:56.096.15-Aug-2021 3405.50 2862.83 52.36 6.00 359.18 3258.07
   12:31:56.296.15-Aug-2021 3405.50 2865.49 52.36 6.00 359.38 3258.07
   12:31:56.496.15-Aug-2021 3405.50 2868.13 52.36 6.00 359.58 3258.07
   12:31:56.696.15-Aug-2021 3405.50 2870.65 52.36 6.00 359.78 3258.07
   12:31:56.896.15-Aug-2021 3405.50 2870.65 52.36 6.00 359.98 3258.07
   12:31:57.096.15-Aug-2021 3405.50 2875.56 52.37 6.00 360.18 3258.07
   12:31:57.296.15-Aug-2021 3405.50 2877.31 52.36 6.00 360.38 3258.07
   12:31:57.495.15-Aug-2021 3405.50 2879.48 52.37 6.00 360.58 3258.07
   12:31:57.695.15-Aug-2021 3405.50 2882.04 52.37 6.00 360.78 3258.07
   12:31:57.895.15-Aug-2021 3405.50 2882.04 52.37 6.00 360.98 3258.07
   12:31:58.095.15-Aug-2021 3405.50 2887.37 52.37 6.00 361.18 3258.07
   12:31:58.295.15-Aug-2021 3405.50 2889.84 52.37 6.00 361.38 3258.07
   12:31:58.495.15-Aug-2021 3405.50 2892.36 52.37 6.00 361.58 3258.07
   12:31:58.695.15-Aug-2021 3405.50 2894.87 52.37 6.00 361.78 3258.07
   12:31:58.895.15-Aug-2021 3405.50 2894.87 52.37 6.00 361.98 3258.07
   12:31:59.095.15-Aug-2021 3405.50 2897.35 52.37 6.00 362.18 3258.07
   12:31:59.294.15-Aug-2021 3405.50 2902.60 52.37 6.00 362.38 3258.07
   12:31:59.494.15-Aug-2021 3405.50 2905.14 52.37 6.00 362.58 3258.07
   12:31:59.694.15-Aug-2021 3405.50 2907.83 52.37 6.00 362.78 3258.07
   12:31:59.894.15-Aug-2021 3405.50 2907.83 52.37 6.00 362.98 3258.07
   12:32:00.094.15-Aug-2021 3405.50 2912.58 52.37 6.00 363.18 3258.07
   12:32:00.294.15-Aug-2021 3405.50 2915.09 52.37 6.00 363.38 3258.07
   12:32:00.494.15-Aug-2021 3405.50 2917.59 52.37 6.00 363.58 3258.07
   12:32:00.694.15-Aug-2021 3405.50 2920.32 52.37 6.00 363.78 3258.07
   12:32:00.893.15-Aug-2021 3405.50 2920.32 52.37 6.00 363.98 3258.07
   12:32:01.093.15-Aug-2021 3405.50 2925.19 52.37 6.00 364.18 3258.07
   12:32:01.293.15-Aug-2021 3405.50 2927.63 52.37 6.00 364.38 3258.07
   12:32:01.493.15-Aug-2021 3405.50 2929.90 52.37 6.00 364.58 3258.07
   12:32:01.693.15-Aug-2021 3405.50 2931.82 52.37 6.00 364.78 3258.07
   12:32:01.893.15-Aug-2021 3405.50 2931.82 52.37 6.00 364.98 3258.07
   12:32:02.093.15-Aug-2021 3405.50 2936.17 52.37 6.00 365.18 3258.07
   12:32:02.293.15-Aug-2021 3405.50 2938.59 52.37 6.00 365.38 3258.07
   12:32:02.492.15-Aug-2021 3405.50 2940.89 52.37 6.00 365.58 3258.07
   12:32:02.692.15-Aug-2021 3405.50 2943.37 52.37 6.00 365.78 3258.07
   12:32:02.892.15-Aug-2021 3405.50 2943.37 52.37 6.00 365.98 3258.07
   12:32:03.092.15-Aug-2021 3405.50 2945.90 52.37 6.00 366.18 3258.07
   12:32:03.292.15-Aug-2021 3405.50 2950.83 52.37 6.00 366.38 3258.07
   12:32:03.492.15-Aug-2021 3405.50 2953.20 52.37 6.00 366.58 3258.07
   12:32:03.692.15-Aug-2021 3405.50 2955.71 52.37 6.00 366.78 3258.07
   12:32:03.892.15-Aug-2021 3405.50 2955.71 52.37 6.00 366.98 3258.07
   12:32:04.092.15-Aug-2021 3405.50 2960.55 52.37 6.00 367.18 3258.07
   12:32:04.291.15-Aug-2021 3405.50 2962.91 52.37 6.00 367.38 3258.07
   12:32:04.491.15-Aug-2021 3405.50 2965.26 52.37 6.00 367.58 3258.07
