~Version Information
 VERS.                  2.0:   CWLS log ASCII Standard -VERSION 2.0
 WRAP.                   NO:   One line per depth step
~Well Information Block
#MNEM.UNIT     VALUE/NAME     DESCRIPTION
#---------     -----------    ---------------------------
 STRT.S             08:47:11 15-Aug-21: START TIME 08:47:11 15-Aug-21
 STOP.S             08:54:08 15-Aug-21: STOP TIME  08:54:08 15-Aug-21
 STEP.S                   0.00: STEP TIME
 NULL.                 -999.25: NULL VALUE
 DFWT.                        :  DIST FWL TEXT
 DFST.                        :  DIST FSL TEXT
 DMF .             Drill Floor:  DRILL MEAS FROM
 STIM.      17.18.56 20-Jun-21:  START TIME
 DATE.      17.18.56 20-Aug-21:  END TIME
 SPUD.               20-Jun-21:  SPUD DATE
 NREF.                    Grid:  NORTH REFERENCE
 HPTY.       Minimum Curvature:  HOLE POS TYPE
 DMOD.             Drill Model:  DRILL MOD DESC
 SVYD.                  Survey:  SURVEY DESC
 ILTD.               Lithology:  INTERP LTH DESC
 FTOP.          Formation Tops:  FORM TOPS DESC
 SON .        AZ-XX-0907056190:  JOB NUMBER
 PDAT.       Caspian Sea Level:  PERMANENT DATUM
 WTYP.                Deviated:  WELL TYPE
 MDS .        Operator Entered:  MAG DATA SOURCE
 COMP.     BP Exploration (Caspian Sea) Ltd.:  COMPANY
 UWI .            /AZE20000092:  UNIQUE WELL IDENTIFIER
 API .            /AZE20000092:  API NUMBER
 BASE.              Azerbaijan:  LOGGING EQUIPMENT BASE LOCATION
 REGN.                   EESSA:  REGION
 PROV.                    baku:  PROVINCE
 STAT.                    baku:  STATE NAME
 CTRY.              Azerbaijan:  COUNTRY NAME
 FLD .                     ACG:  FIELD NAME
 SRVC.          Turan Drilling:  CONTRACTOR
 MWDS.                    Baku:  MWD SHOP
 WELL.                     J26:  WELL NAME
 JOBN.        AZ-XX-0907056190:  JOB TICKET NUMB
 RIG .             West Chirag:  RIG NAME
 DOE .                     N/A:  DOE NUMBER
 DCON.         Sperry Drilling:  DIRECTNL CONTR
 UNIT.                     N/A:  LOGGING EQUIPMENT ID
 CNTY.                        :  COUNTY
 LOC .                        :  LOCATION
 LMF .             Drill Floor:  LOG MEASURED FROM
 TVDS.m                  43.00:  TVDSS CORRECTN
 LATI.deg                40.13:  LATITUDE
 LONG.deg                51.22:  LONGITUDE
 WHNS.m                  -7.12:  WELL HEAD N/S
 WHEW.m                  -9.46:  WELL HEAD E/W
 UTMX.m              519004.02:  UTM X
 UTMY.m             4443784.96:  UTM Y
 DFWL.m                   0.00:  DISTANCE FWL
 DFSL.m                   0.00:  DISTANCE FSL
 SDEP.m                 464.00:  START DEPTH
 TDD .m                3500.00:  TOTAL DEPTH (DRILLER)
 VSDR.deg               114.35:  VERT SEC DIRECT
 GVFD.g                   1.00:  GRAVITY FIELD
 MFLD.nT              50386.00:  MAGNETIC FIELD
 MDIP.deg                59.63:  MAGNETIC DIP
 MDEC.deg                 6.43:  MAGNETIC DECL
 GRDC.deg                 0.15:  GRID CORRECTION
 AZTC.deg                 6.29:  AZM TOTAL CORR
 EPD .m                   0.00:  ELEVATION
 EGL .m                   0.00:  GROUND ELEVATION
 WDMS.m                 169.80:  WD ELEV
 APD .m                  43.00:  DEPTH ABOVE PD
 VSEW.m                  -9.46:  VERT SEC E/W
 VSNS.m                  -7.12:  VERT SEC N/S
 AGAP.m                  43.00:  AIR GAP
 DEP .m                 356.16:  DEPTH
 EKB .m                  43.00:  KB ELEVATION
 EDF .m                  43.00:  DF ELEVATION
 TDL .m                 699.00:  TOTAL DEPTH (LOGGER)
 VSC .                       0:  VS TO CLOSURE
 MAGU.                 1853727:  MAGUTM CHECKSUM
~Parameter Information Block
#MNEM.UNIT       Value        Description
#---------     -----------    ---------------------------
 AV  .mps                 1.30:  Ann Velocity 
 AVMX.mps                 1.67:  Max Ann Veloc 
 AZIF.deg               280.40:  Azm, Final 
 BHAT.        Rotary Steerable:  BHA Type 
 BREV.rev            528970.00:  Rev Bit Total 
 BROT.°/30m               1.00:  Build Rotating 
 BS  .in                 12.25:  Bit Size 
 BSZ .in                 12.25:  Bit Size 
 BTPL.psig              738.00:  Bit Press Loss 
 CABU.                     Yes:  Customer Abuse 
 CGEO.        Elvin Suleymanov:  Customer Geo 
 COMM.                     äji:  Run Comments 1 
 TCS .hr                 66.05:  Time Ciculation Ended 
 CV  .mps                 2.20:  Crit Velocity 
 CVMX.mps                 2.56:  Max Crit Veloc 
 DD1 .          Rashad Habibov:  Direct Drillr 1 
 DD2 .            Azer ravanov:  Direct Drillr 2 
 DD3 .           Teymur Agayev:  Direct Drillr 3 
 DDSV.               Geo-Pilot:  DD Service 
 DEFF.%                  90.00:  % Det Eff 
 DLRX.°/30m               2.95:  Dogleg Rot Max 
 DLSO.°/30m               1.00:  Dogleg Oriented 
 DLSX.°/30m               2.95:  Dogleg Str Max 
 DRET.      11.42.20 11-Aug-21:  Drill End Time 
 DRST.      23.03.20 08-Aug-21:  Drill Start Tim 
 DTIM.hr                 45.50:  Time Drilling 
 EDEP.m                3488.00:  End Depth 
 ENG1.         Marcelo Marcari:  Engineer 1 
 ENG2.         Dair Mahammadov:  Engineer 2 
 ENG3.       Davud Huseyn-zada:  Engineer 3 
 ENG4.         Yevgeniy Ulikov:  Engineer 4 
 ETIM.      17.45.20 17-Aug-21:  End Time 
 FLOI.gpm              1197.70:  Flow In 
 FLON.gpm              1100.00:  Flow In Min 
 FLOS.cptm                0.00:  Fluid Loss 
 FLOX.gpm              1200.00:  Flow In Max 
 DFT .        Mineral Oil Base:  Mud Type 
 FTRO.       Formation Presure:  FTWD Run Obj 
 HFLO.                      No:  High Flow 
 HPRE.                      No:  High Pressure 
 HTEM.                      No:  High Temp 
 HYDO.m                   1.80:  Hydro Offset 
 IFIN.deg                 9.87:  Inc, Final 
 IMAX.deg                19.96:  Inc Max 
 IMIN.deg                 3.82:  Inc Min 
 IMND.m                3257.42:  Inc Min Depth 
 IMXD.m                2945.53:  Inc Max Depth 
 JARR.                      No:  Jarring 
 LETM.      11.42.20 11-Aug-21:  Log End Time 
 LOST.hr                     0:  Lost Rig Time 
 LSTM.      23.03.20 08-Aug-21:  Log Start Time 
 MDCL.ppm             42500.00:  Mud Chlorides 
 MDES.     Inversion Oil/Synthetic:  Mud Desc 
 DFD .sg                  1.45:  Mud Density 
 MDMN.sg                  1.39:  Dens Mud Min 
 MDMX.sg                  1.57:  Dens Mud Max 
 MOIL.                   53.20:  Run Mud Oil % 
 MOWR.                   70:30:  Run Mud OWR 
 MSND.                       0:  Run Mud Sand % 
 MSOL.                   24.30:  Run Mud Solids% 
 DFV .spqt               79.00:  Mud Viscosity 
 MWOD.in                  8.00:  MWD Tool OD 
 MWSI.                      No:  Serv Intrp, MWD 
 OTIM.hr                253.06:  Time Operating 
 PCON.           Look Like New:  Pad Condition 
 PMAX.psia            11068.93:  Press Op, Max 
 PV  .cP                 36.00:  Mud PV 
 RUN .                    1000:  Run Number 
 ROPA.m/hr               15.34:  ROP Avg 
 ROPN.m/hr                4.00:  ROP Min 
 ROPX.m/hr               31.00:  ROP Max 
 RPMA.rpm               151.40:  RPM Surface Avg 
 RPMN.rpm               120.00:  RPM Surface Min 
 RPMX.rpm               160.00:  RPM Surface Max 
 RRUN.                    L505:  Rig Run Number 
 RTIM.hr                 10.00:  Time Reaming 
 SAZI.deg                88.92:  Azm, Start 
 SDEP.m                2789.00:  Start Depth 
 SIDD.                      No:  Serv Intrp, DD 
 SINC.deg                19.84:  Inc, Start 
 SPPA.psig             4421.39:  SPP Avg 
 SPPN.psig             4130.00:  SPP Min 
 SPPX.psig             4800.00:  SPP Max 
 STIM.      01.25.20 07-Aug-21:  Start Time 
 SVCS.                 DD, MWD:  Services 
 SVER.                    9.20:  Sperry Version 
 TDAT.m                 699.00:  Tot Depth Attmp 
 TDDF.                      No:  Trip for DD 
 TDLG.m                 699.00:  Tot Depth Loggd 
 TFF .                      No:  Trip for Fail 
 TQAA.f-kp               20.55:  Torque Abs Avg 
 TQAN.f-kp               15.00:  Torque Abs Min 
 TQAX.f-kp               24.00:  Torque Abs Max 
 TRRT.°/30m               0.50:  Turn Rotating 
 MRT .                    HCIM:  Maximum Recorded Temperature 
 TTMX.degC               82.35:  Max Tool Temp 
 VS01.                90654677:  Virtual Str1 SN 
 VS02.                90636294:  Virtual Str2 SN 
 VS03.                90653866:  Virtual Str3 SN 
 VS04.                90654674:  Virtual Str4 SN 
 WBMN.klb                10.00:  WOB Min 
 WITN.         Haytham Mostafa:  Customer Rep 
 WITN.           Rufat Babayev:  Customer Rep 2 
 WOBA.klb                22.43:  WOB Avg 
 WOBX.klb                35.00:  WOB Max 
 YP  .lhf2               32.00:  Yield Point 
~Curve Information Block
#MNEM.UNIT                 API CODE     Curve Description
#---------               -----------    ---------------------------
 TIME.HHMMSS            00 000 000 000:  GT Time & Date
 GTDEPTH.m              00 000 000 000:  GT Depth
 GTPQH.psia             00 000 000 000:  GT HR Quartz Pressure
 GTTQ.degC              00 000 000 000:  GT Quartz Temperature
 GTTN.NONE              00 000 000 000:  GT Test Number
 GTET.sec               00 000 000 000:  GT Elapsed Test Time
 GTTVD.m                00 000 000 000:  GT True Vertical Depth
#Other Information
#
#WARRANTY: Halliburton will use its best efforts to furnish customers with 
#accurate information and interpretations that are part of, and incident to, the services 
#provided.  However, Halliburton cannot and does not warrant the accuracy 
#or correctness of such information and interpretations.  Under no circumstances should any 
#such information or interpretation be relied upon as the sole basis for any drilling, 
#completion, production, or financial decision or any procedure involving any risk to the 
#safety of any drilling venture, drilling rig or its crew or any other third party.  The 
#Customer has full responsibility for all drilling, completion and production operation.  
#Halliburton makes no representations or warranties, either expressed or 
#implied, including, but not limited to, the implied warranties of merchantability or fitness 
#for a particular purpose, with respect to the services rendered.  In no event will 
#Halliburton be liable for failure to obtain any particular results or for 
#any damages, including, but not limited to, indirect, special or consequential damages, 
#resulting from the use of any information or interpretation provided by Halliburton.
#
~A           TIME           GTDEPTH  GTPQH  GTTQ  GTTN  GTET   GTTVD  
# ...
   08:50:38.452.15-Aug-2021 3421.80 4950.99 56.22 2.00 207.03 3274.11
   08:50:38.652.15-Aug-2021 3421.80 4950.99 56.22 2.00 207.23 3274.11
   08:50:38.852.15-Aug-2021 3421.80 4956.57 56.22 2.00 207.43 3274.11
   08:50:39.053.15-Aug-2021 3421.80 4959.13 56.22 2.00 207.63 3274.11
   08:50:39.253.15-Aug-2021 3421.80 4961.49 56.22 2.00 207.83 3274.11
   08:50:39.453.15-Aug-2021 3421.80 4963.66 56.22 2.00 208.03 3274.11
   08:50:39.653.15-Aug-2021 3421.80 4963.66 56.22 2.00 208.23 3274.11
   08:50:39.853.15-Aug-2021 3421.80 4968.01 56.22 2.00 208.43 3274.11
   08:50:40.053.15-Aug-2021 3421.80 4970.41 56.22 2.00 208.63 3274.11
   08:50:40.253.15-Aug-2021 3421.80 4973.38 56.22 2.00 208.83 3274.11
   08:50:40.453.15-Aug-2021 3421.80 4975.68 56.22 2.00 209.03 3274.11
   08:50:40.653.15-Aug-2021 3421.80 4975.68 56.22 2.00 209.23 3274.11
   08:50:40.853.15-Aug-2021 3421.80 4979.65 56.22 2.00 209.43 3274.11
   08:50:41.053.15-Aug-2021 3421.80 4981.69 56.22 2.00 209.63 3274.11
   08:50:41.253.15-Aug-2021 3421.80 4983.66 56.22 2.00 209.83 3274.11
   08:50:41.453.15-Aug-2021 3421.80 4985.64 56.22 2.00 210.03 3274.11
   08:50:41.653.15-Aug-2021 3421.80 4985.64 56.22 2.00 210.23 3274.11
   08:50:41.853.15-Aug-2021 3421.80 4990.29 56.22 2.00 210.43 3274.11
   08:50:42.053.15-Aug-2021 3421.80 4992.38 56.22 2.00 210.63 3274.11
   08:50:42.253.15-Aug-2021 3421.80 4994.25 56.22 2.00 210.83 3274.11
   08:50:42.453.15-Aug-2021 3421.80 4995.83 56.22 2.00 211.03 3274.11
   08:50:42.653.15-Aug-2021 3421.80 4995.83 56.22 2.00 211.23 3274.11
   08:50:42.853.15-Aug-2021 3421.80 4999.24 56.22 2.00 211.43 3274.11
   08:50:43.053.15-Aug-2021 3421.80 5001.74 56.22 2.00 211.63 3274.11
   08:50:43.253.15-Aug-2021 3421.80 5004.09 56.22 2.00 211.83 3274.11
   08:50:43.453.15-Aug-2021 3421.80 5005.67 56.22 2.00 212.03 3274.11
   08:50:43.653.15-Aug-2021 3421.80 5005.67 56.22 2.00 212.23 3274.11
   08:50:43.853.15-Aug-2021 3421.80 5008.34 56.22 2.00 212.43 3274.11
   08:50:44.053.15-Aug-2021 3421.80 5010.38 56.22 2.00 212.63 3274.11
   08:50:44.253.15-Aug-2021 3421.80 5012.52 56.22 2.00 212.83 3274.11
   08:50:44.453.15-Aug-2021 3421.80 5014.19 56.22 2.00 213.03 3274.11
   08:50:44.653.15-Aug-2021 3421.80 5014.19 56.22 2.00 213.23 3274.11
   08:50:44.853.15-Aug-2021 3421.80 5017.34 56.22 2.00 213.43 3274.11
   08:50:45.054.15-Aug-2021 3421.80 5019.19 56.22 2.00 213.63 3274.11
   08:50:45.254.15-Aug-2021 3421.80 5020.69 56.22 2.00 213.84 3274.11
   08:50:45.454.15-Aug-2021 3421.80 5022.06 56.22 2.00 214.04 3274.11
   08:50:45.654.15-Aug-2021 3421.80 5022.06 56.22 2.00 214.24 3274.11
   08:50:45.854.15-Aug-2021 3421.80 5025.04 56.22 2.00 214.44 3274.11
   08:50:46.054.15-Aug-2021 3421.80 5026.67 56.22 2.00 214.64 3274.11
   08:50:46.254.15-Aug-2021 3421.80 5028.35 56.22 2.00 214.84 3274.11
   08:50:46.454.15-Aug-2021 3421.80 5029.78 56.22 2.00 215.04 3274.11
   08:50:46.654.15-Aug-2021 3421.80 5029.78 56.22 2.00 215.24 3274.11
   08:50:46.854.15-Aug-2021 3421.80 5032.05 56.22 2.00 215.44 3274.11
   08:50:47.054.15-Aug-2021 3421.80 5033.12 56.22 2.00 215.64 3274.11
   08:50:47.254.15-Aug-2021 3421.80 5034.35 56.22 2.00 215.84 3274.11
   08:50:47.454.15-Aug-2021 3421.80 5035.62 56.22 2.00 216.04 3274.11
   08:50:47.654.15-Aug-2021 3421.80 5035.62 56.22 2.00 216.24 3274.11
   08:50:47.854.15-Aug-2021 3421.80 5039.13 56.22 2.00 216.44 3274.11
   08:50:48.054.15-Aug-2021 3421.80 5040.65 56.22 2.00 216.64 3274.11
   08:50:48.254.15-Aug-2021 3421.80 5041.91 56.22 2.00 216.84 3274.11
   08:50:48.454.15-Aug-2021 3421.80 5042.81 56.22 2.00 217.04 3274.11
   08:50:48.654.15-Aug-2021 3421.80 5042.81 56.22 2.00 217.24 3274.11
   08:50:48.854.15-Aug-2021 3421.80 5044.74 56.22 2.00 217.44 3274.11
   08:50:49.054.15-Aug-2021 3421.80 5046.18 56.22 2.00 217.64 3274.11
   08:50:49.254.15-Aug-2021 3421.80 5047.91 56.22 2.00 217.84 3274.11
   08:50:49.454.15-Aug-2021 3421.80 5049.13 56.22 2.00 218.04 3274.11
   08:50:49.654.15-Aug-2021 3421.80 5049.13 56.22 2.00 218.24 3274.11
   08:50:49.854.15-Aug-2021 3421.80 5051.01 56.22 2.00 218.44 3274.11
   08:50:50.054.15-Aug-2021 3421.80 5051.84 56.22 2.00 218.64 3274.11
   08:50:50.254.15-Aug-2021 3421.80 5052.83 56.22 2.00 218.84 3274.11
   08:50:50.454.15-Aug-2021 3421.80 5054.51 56.22 2.00 219.04 3274.11
   08:50:50.654.15-Aug-2021 3421.80 5054.51 56.22 2.00 219.24 3274.11
   08:50:50.854.15-Aug-2021 3421.80 5056.89 56.22 2.00 219.44 3274.11
   08:50:51.054.15-Aug-2021 3421.80 5057.82 56.22 2.00 219.64 3274.11
   08:50:51.255.15-Aug-2021 3421.80 5058.76 56.22 2.00 219.84 3274.11
   08:50:51.455.15-Aug-2021 3421.80 5059.66 56.21 2.00 220.04 3274.11
   08:50:51.655.15-Aug-2021 3421.80 5059.66 56.21 2.00 220.24 3274.11
   08:50:51.855.15-Aug-2021 3421.80 5061.77 56.21 2.00 220.44 3274.11
   08:50:52.055.15-Aug-2021 3421.80 5063.45 56.21 2.00 220.64 3274.11
   08:50:52.255.15-Aug-2021 3421.80 5064.81 56.21 2.00 220.84 3274.11
   08:50:52.455.15-Aug-2021 3421.80 5065.83 56.21 2.00 221.04 3274.11
   08:50:52.655.15-Aug-2021 3421.80 5065.83 56.21 2.00 221.24 3274.11
   08:50:52.855.15-Aug-2021 3421.80 5067.37 56.21 2.00 221.44 3274.11
   08:50:53.055.15-Aug-2021 3421.80 5068.56 56.21 2.00 221.64 3274.11
   08:50:53.255.15-Aug-2021 3421.80 5069.76 56.21 2.00 221.84 3274.11
   08:50:53.455.15-Aug-2021 3421.80 5070.77 56.21 2.00 222.04 3274.11
   08:50:53.655.15-Aug-2021 3421.80 5070.77 56.21 2.00 222.24 3274.11
   08:50:53.855.15-Aug-2021 3421.80 5070.77 56.21 2.00 222.44 3274.11
   08:50:54.055.15-Aug-2021 3421.80 5073.60 56.21 2.00 222.64 3274.11
   08:50:54.255.15-Aug-2021 3421.80 5074.69 56.21 2.00 222.84 3274.11
   08:50:54.455.15-Aug-2021 3421.80 5075.35 56.21 2.00 223.04 3274.11
   08:50:54.655.15-Aug-2021 3421.80 5075.35 56.21 2.00 223.24 3274.11
   08:50:54.855.15-Aug-2021 3421.80 5076.65 56.21 2.00 223.44 3274.11
   08:50:55.055.15-Aug-2021 3421.80 5077.93 56.21 2.00 223.64 3274.11
   08:50:55.255.15-Aug-2021 3421.80 5078.97 56.21 2.00 223.84 3274.11
   08:50:55.455.15-Aug-2021 3421.80 5079.82 56.21 2.00 224.04 3274.11
   08:50:55.655.15-Aug-2021 3421.80 5079.82 56.21 2.00 224.24 3274.11
   08:50:55.855.15-Aug-2021 3421.80 5081.00 56.21 2.00 224.44 3274.11
   08:50:56.055.15-Aug-2021 3421.80 5081.53 56.21 2.00 224.64 3274.11
   08:50:56.255.15-Aug-2021 3421.80 5082.30 56.21 2.00 224.84 3274.11
   08:50:56.455.15-Aug-2021 3421.80 5083.10 56.21 2.00 225.04 3274.11
   08:50:56.655.15-Aug-2021 3421.80 5083.10 56.21 2.00 225.24 3274.11
   08:50:56.855.15-Aug-2021 3421.80 5085.35 56.21 2.00 225.44 3274.11
   08:50:57.055.15-Aug-2021 3421.80 5086.63 56.21 2.00 225.64 3274.11
   08:50:57.256.15-Aug-2021 3421.80 5087.41 56.21 2.00 225.84 3274.11
   08:50:57.456.15-Aug-2021 3421.80 5088.01 56.21 2.00 226.04 3274.11
   08:50:57.656.15-Aug-2021 3421.80 5088.01 56.21 2.00 226.24 3274.11
   08:50:57.856.15-Aug-2021 3421.80 5089.08 56.21 2.00 226.44 3274.11
   08:50:58.056.15-Aug-2021 3421.80 5090.30 56.21 2.00 226.64 3274.11
   08:50:58.256.15-Aug-2021 3421.80 5091.40 56.21 2.00 226.84 3274.11
   08:50:58.456.15-Aug-2021 3421.80 5092.08 56.21 2.00 227.04 3274.11
   08:50:58.656.15-Aug-2021 3421.80 5092.08 56.21 2.00 227.24 3274.11
   08:50:58.856.15-Aug-2021 3421.80 5092.96 56.21 2.00 227.44 3274.11
   08:50:59.056.15-Aug-2021 3421.80 5093.40 56.21 2.00 227.64 3274.11
   08:50:59.256.15-Aug-2021 3421.80 5094.02 56.21 2.00 227.84 3274.11
   08:50:59.456.15-Aug-2021 3421.80 5094.79 56.21 2.00 228.04 3274.11
   08:50:59.656.15-Aug-2021 3421.80 5094.79 56.21 2.00 228.24 3274.11
   08:50:59.856.15-Aug-2021 3421.80 5096.69 56.21 2.00 228.44 3274.11
   08:51:00.056.15-Aug-2021 3421.80 5097.37 56.21 2.00 228.64 3274.11
   08:51:00.256.15-Aug-2021 3421.80 5097.92 56.21 2.00 228.84 3274.11
   08:51:00.456.15-Aug-2021 3421.80 5098.38 56.21 2.00 229.04 3274.11
   08:51:00.656.15-Aug-2021 3421.80 5098.38 56.21 2.00 229.24 3274.11
   08:51:00.856.15-Aug-2021 3421.80 5099.45 56.21 2.00 229.44 3274.11
   08:51:01.056.15-Aug-2021 3421.80 5100.57 56.21 2.00 229.64 3274.11
   08:51:01.256.15-Aug-2021 3421.80 5101.88 56.21 2.00 229.84 3274.11
