~Version Information
 VERS.                  2.0:   CWLS log ASCII Standard -VERSION 2.0
 WRAP.                   NO:   One line per depth step
~Well Information Block
#MNEM.UNIT     VALUE/NAME     DESCRIPTION
#---------     -----------    ---------------------------
 STRT.S             06:52:24 15-Aug-21: START TIME 06:52:24 15-Aug-21
 STOP.S             06:59:28 15-Aug-21: STOP TIME  06:59:28 15-Aug-21
 STEP.S                   0.00: STEP TIME
 NULL.                 -999.25: NULL VALUE
 DFWT.                        :  DIST FWL TEXT
 DFST.                        :  DIST FSL TEXT
 DMF .             Drill Floor:  DRILL MEAS FROM
 STIM.      17.18.56 20-Jun-21:  START TIME
 DATE.      17.18.56 20-Aug-21:  END TIME
 SPUD.               20-Jun-21:  SPUD DATE
 NREF.                    Grid:  NORTH REFERENCE
 HPTY.       Minimum Curvature:  HOLE POS TYPE
 DMOD.             Drill Model:  DRILL MOD DESC
 SVYD.                  Survey:  SURVEY DESC
 ILTD.               Lithology:  INTERP LTH DESC
 FTOP.          Formation Tops:  FORM TOPS DESC
 SON .        AZ-XX-0907056190:  JOB NUMBER
 PDAT.       Caspian Sea Level:  PERMANENT DATUM
 WTYP.                Deviated:  WELL TYPE
 MDS .        Operator Entered:  MAG DATA SOURCE
 COMP.     BP Exploration (Caspian Sea) Ltd.:  COMPANY
 UWI .            /AZE20000092:  UNIQUE WELL IDENTIFIER
 API .            /AZE20000092:  API NUMBER
 BASE.              Azerbaijan:  LOGGING EQUIPMENT BASE LOCATION
 REGN.                   EESSA:  REGION
 PROV.                    baku:  PROVINCE
 STAT.                    baku:  STATE NAME
 CTRY.              Azerbaijan:  COUNTRY NAME
 FLD .                     ACG:  FIELD NAME
 SRVC.          Turan Drilling:  CONTRACTOR
 MWDS.                    Baku:  MWD SHOP
 WELL.                     J26:  WELL NAME
 JOBN.        AZ-XX-0907056190:  JOB TICKET NUMB
 RIG .             West Chirag:  RIG NAME
 DOE .                     N/A:  DOE NUMBER
 DCON.         Sperry Drilling:  DIRECTNL CONTR
 UNIT.                     N/A:  LOGGING EQUIPMENT ID
 CNTY.                        :  COUNTY
 LOC .                        :  LOCATION
 LMF .             Drill Floor:  LOG MEASURED FROM
 TVDS.m                  43.00:  TVDSS CORRECTN
 LATI.deg                40.13:  LATITUDE
 LONG.deg                51.22:  LONGITUDE
 WHNS.m                  -7.12:  WELL HEAD N/S
 WHEW.m                  -9.46:  WELL HEAD E/W
 UTMX.m              519004.02:  UTM X
 UTMY.m             4443784.96:  UTM Y
 DFWL.m                   0.00:  DISTANCE FWL
 DFSL.m                   0.00:  DISTANCE FSL
 SDEP.m                 464.00:  START DEPTH
 TDD .m                3500.00:  TOTAL DEPTH (DRILLER)
 VSDR.deg               114.35:  VERT SEC DIRECT
 GVFD.g                   1.00:  GRAVITY FIELD
 MFLD.nT              50386.00:  MAGNETIC FIELD
 MDIP.deg                59.63:  MAGNETIC DIP
 MDEC.deg                 6.43:  MAGNETIC DECL
 GRDC.deg                 0.15:  GRID CORRECTION
 AZTC.deg                 6.29:  AZM TOTAL CORR
 EPD .m                   0.00:  ELEVATION
 EGL .m                   0.00:  GROUND ELEVATION
 WDMS.m                 169.80:  WD ELEV
 APD .m                  43.00:  DEPTH ABOVE PD
 VSEW.m                  -9.46:  VERT SEC E/W
 VSNS.m                  -7.12:  VERT SEC N/S
 AGAP.m                  43.00:  AIR GAP
 DEP .m                 356.16:  DEPTH
 EKB .m                  43.00:  KB ELEVATION
 EDF .m                  43.00:  DF ELEVATION
 TDL .m                 699.00:  TOTAL DEPTH (LOGGER)
 VSC .                       0:  VS TO CLOSURE
 MAGU.                 1853727:  MAGUTM CHECKSUM
~Parameter Information Block
#MNEM.UNIT       Value        Description
#---------     -----------    ---------------------------
 AV  .mps                 1.30:  Ann Velocity 
 AVMX.mps                 1.67:  Max Ann Veloc 
 AZIF.deg               280.40:  Azm, Final 
 BHAT.        Rotary Steerable:  BHA Type 
 BREV.rev            528970.00:  Rev Bit Total 
 BROT.°/30m               1.00:  Build Rotating 
 BS  .in                 12.25:  Bit Size 
 BSZ .in                 12.25:  Bit Size 
 BTPL.psig              738.00:  Bit Press Loss 
 CABU.                     Yes:  Customer Abuse 
 CGEO.        Elvin Suleymanov:  Customer Geo 
 COMM.                     ¬kS:  Run Comments 1 
 TCS .hr                 66.05:  Time Ciculation Ended 
 CV  .mps                 2.20:  Crit Velocity 
 CVMX.mps                 2.56:  Max Crit Veloc 
 DD1 .          Rashad Habibov:  Direct Drillr 1 
 DD2 .            Azer ravanov:  Direct Drillr 2 
 DD3 .           Teymur Agayev:  Direct Drillr 3 
 DDSV.               Geo-Pilot:  DD Service 
 DEFF.%                  90.00:  % Det Eff 
 DLRX.°/30m               2.95:  Dogleg Rot Max 
 DLSO.°/30m               1.00:  Dogleg Oriented 
 DLSX.°/30m               2.95:  Dogleg Str Max 
 DRET.      11.42.20 11-Aug-21:  Drill End Time 
 DRST.      23.03.20 08-Aug-21:  Drill Start Tim 
 DTIM.hr                 45.50:  Time Drilling 
 EDEP.m                3488.00:  End Depth 
 ENG1.         Marcelo Marcari:  Engineer 1 
 ENG2.         Dair Mahammadov:  Engineer 2 
 ENG3.       Davud Huseyn-zada:  Engineer 3 
 ENG4.         Yevgeniy Ulikov:  Engineer 4 
 ETIM.      17.45.20 17-Aug-21:  End Time 
 FLOI.gpm              1197.70:  Flow In 
 FLON.gpm              1100.00:  Flow In Min 
 FLOS.cptm                0.00:  Fluid Loss 
 FLOX.gpm              1200.00:  Flow In Max 
 DFT .        Mineral Oil Base:  Mud Type 
 FTRO.       Formation Presure:  FTWD Run Obj 
 HFLO.                      No:  High Flow 
 HPRE.                      No:  High Pressure 
 HTEM.                      No:  High Temp 
 HYDO.m                   1.80:  Hydro Offset 
 IFIN.deg                 9.87:  Inc, Final 
 IMAX.deg                19.96:  Inc Max 
 IMIN.deg                 3.82:  Inc Min 
 IMND.m                3257.42:  Inc Min Depth 
 IMXD.m                2945.53:  Inc Max Depth 
 JARR.                      No:  Jarring 
 LETM.      11.42.20 11-Aug-21:  Log End Time 
 LOST.hr                     0:  Lost Rig Time 
 LSTM.      23.03.20 08-Aug-21:  Log Start Time 
 MDCL.ppm             42500.00:  Mud Chlorides 
 MDES.     Inversion Oil/Synthetic:  Mud Desc 
 DFD .sg                  1.45:  Mud Density 
 MDMN.sg                  1.39:  Dens Mud Min 
 MDMX.sg                  1.57:  Dens Mud Max 
 MOIL.                   53.20:  Run Mud Oil % 
 MOWR.                   70:30:  Run Mud OWR 
 MSND.                       0:  Run Mud Sand % 
 MSOL.                   24.30:  Run Mud Solids% 
 DFV .spqt               79.00:  Mud Viscosity 
 MWOD.in                  8.00:  MWD Tool OD 
 MWSI.                      No:  Serv Intrp, MWD 
 OTIM.hr                253.06:  Time Operating 
 PCON.           Look Like New:  Pad Condition 
 PMAX.psia            11068.93:  Press Op, Max 
 PV  .cP                 36.00:  Mud PV 
 RUN .                    1000:  Run Number 
 ROPA.m/hr               15.34:  ROP Avg 
 ROPN.m/hr                4.00:  ROP Min 
 ROPX.m/hr               31.00:  ROP Max 
 RPMA.rpm               151.40:  RPM Surface Avg 
 RPMN.rpm               120.00:  RPM Surface Min 
 RPMX.rpm               160.00:  RPM Surface Max 
 RRUN.                    L505:  Rig Run Number 
 RTIM.hr                 10.00:  Time Reaming 
 SAZI.deg                88.92:  Azm, Start 
 SDEP.m                2789.00:  Start Depth 
 SIDD.                      No:  Serv Intrp, DD 
 SINC.deg                19.84:  Inc, Start 
 SPPA.psig             4421.39:  SPP Avg 
 SPPN.psig             4130.00:  SPP Min 
 SPPX.psig             4800.00:  SPP Max 
 STIM.      01.25.20 07-Aug-21:  Start Time 
 SVCS.                 DD, MWD:  Services 
 SVER.                    9.20:  Sperry Version 
 TDAT.m                 699.00:  Tot Depth Attmp 
 TDDF.                      No:  Trip for DD 
 TDLG.m                 699.00:  Tot Depth Loggd 
 TFF .                      No:  Trip for Fail 
 TQAA.f-kp               20.55:  Torque Abs Avg 
 TQAN.f-kp               15.00:  Torque Abs Min 
 TQAX.f-kp               24.00:  Torque Abs Max 
 TRRT.°/30m               0.50:  Turn Rotating 
 MRT .                    HCIM:  Maximum Recorded Temperature 
 TTMX.degC               82.35:  Max Tool Temp 
 VS01.                90654677:  Virtual Str1 SN 
 VS02.                90636294:  Virtual Str2 SN 
 VS03.                90653866:  Virtual Str3 SN 
 VS04.                90654674:  Virtual Str4 SN 
 WBMN.klb                10.00:  WOB Min 
 WITN.         Haytham Mostafa:  Customer Rep 
 WITN.           Rufat Babayev:  Customer Rep 2 
 WOBA.klb                22.43:  WOB Avg 
 WOBX.klb                35.00:  WOB Max 
 YP  .lhf2               32.00:  Yield Point 
~Curve Information Block
#MNEM.UNIT                 API CODE     Curve Description
#---------               -----------    ---------------------------
 TIME.HHMMSS            00 000 000 000:  GT Time & Date
 GTDEPTH.m              00 000 000 000:  GT Depth
 GTPQH.psia             00 000 000 000:  GT HR Quartz Pressure
 GTTQ.degC              00 000 000 000:  GT Quartz Temperature
 GTTN.NONE              00 000 000 000:  GT Test Number
 GTET.sec               00 000 000 000:  GT Elapsed Test Time
 GTTVD.m                00 000 000 000:  GT True Vertical Depth
#Other Information
#
#WARRANTY: Halliburton will use its best efforts to furnish customers with 
#accurate information and interpretations that are part of, and incident to, the services 
#provided.  However, Halliburton cannot and does not warrant the accuracy 
#or correctness of such information and interpretations.  Under no circumstances should any 
#such information or interpretation be relied upon as the sole basis for any drilling, 
#completion, production, or financial decision or any procedure involving any risk to the 
#safety of any drilling venture, drilling rig or its crew or any other third party.  The 
#Customer has full responsibility for all drilling, completion and production operation.  
#Halliburton makes no representations or warranties, either expressed or 
#implied, including, but not limited to, the implied warranties of merchantability or fitness 
#for a particular purpose, with respect to the services rendered.  In no event will 
#Halliburton be liable for failure to obtain any particular results or for 
#any damages, including, but not limited to, indirect, special or consequential damages, 
#resulting from the use of any information or interpretation provided by Halliburton.
#
~A           TIME           GTDEPTH  GTPQH  GTTQ  GTTN  GTET   GTTVD  
# ...
   06:56:14.710.15-Aug-2021 3437.50 5216.77 57.98 1.00 230.02 3289.56
   06:56:14.910.15-Aug-2021 3437.50 5216.77 57.98 1.00 230.22 3289.56
   06:56:15.110.15-Aug-2021 3437.50 5216.54 57.98 1.00 230.42 3289.56
   06:56:15.310.15-Aug-2021 3437.50 5216.91 57.98 1.00 230.62 3289.56
   06:56:15.510.15-Aug-2021 3437.50 5216.86 57.98 1.00 230.82 3289.56
   06:56:15.710.15-Aug-2021 3437.50 5216.82 57.98 1.00 231.02 3289.56
   06:56:15.910.15-Aug-2021 3437.50 5216.82 57.98 1.00 231.22 3289.56
   06:56:16.110.15-Aug-2021 3437.50 5216.86 57.98 1.00 231.42 3289.56
   06:56:16.310.15-Aug-2021 3437.50 5216.82 57.98 1.00 231.62 3289.56
   06:56:16.510.15-Aug-2021 3437.50 5216.75 57.98 1.00 231.82 3289.56
   06:56:16.710.15-Aug-2021 3437.50 5217.35 57.98 1.00 232.02 3289.56
   06:56:16.910.15-Aug-2021 3437.50 5217.35 57.98 1.00 232.22 3289.56
   06:56:17.110.15-Aug-2021 3437.50 5216.70 57.98 1.00 232.42 3289.56
   06:56:17.310.15-Aug-2021 3437.50 5216.89 57.98 1.00 232.62 3289.56
   06:56:17.510.15-Aug-2021 3437.50 5217.26 57.98 1.00 232.82 3289.56
   06:56:17.710.15-Aug-2021 3437.50 5216.76 57.98 1.00 233.02 3289.56
   06:56:17.910.15-Aug-2021 3437.50 5216.76 57.98 1.00 233.22 3289.56
   06:56:18.110.15-Aug-2021 3437.50 5216.92 57.98 1.00 233.42 3289.56
   06:56:18.310.15-Aug-2021 3437.50 5216.60 57.98 1.00 233.62 3289.56
   06:56:18.510.15-Aug-2021 3437.50 5216.90 57.98 1.00 233.82 3289.56
   06:56:18.710.15-Aug-2021 3437.50 5217.18 57.98 1.00 234.02 3289.56
   06:56:18.910.15-Aug-2021 3437.50 5217.18 57.98 1.00 234.22 3289.56
   06:56:19.110.15-Aug-2021 3437.50 5216.58 57.98 1.00 234.42 3289.56
   06:56:19.310.15-Aug-2021 3437.50 5216.93 57.98 1.00 234.62 3289.56
   06:56:19.510.15-Aug-2021 3437.50 5217.06 57.98 1.00 234.82 3289.56
   06:56:19.710.15-Aug-2021 3437.50 5217.13 57.98 1.00 235.02 3289.56
   06:56:19.910.15-Aug-2021 3437.50 5217.13 57.98 1.00 235.22 3289.56
   06:56:20.110.15-Aug-2021 3437.50 5216.50 57.98 1.00 235.42 3289.56
   06:56:20.310.15-Aug-2021 3437.50 5216.57 57.98 1.00 235.62 3289.56
   06:56:20.510.15-Aug-2021 3437.50 5217.14 57.98 1.00 235.82 3289.56
   06:56:20.710.15-Aug-2021 3437.50 5217.13 57.98 1.00 236.02 3289.56
   06:56:20.910.15-Aug-2021 3437.50 5217.13 57.98 1.00 236.22 3289.56
   06:56:21.110.15-Aug-2021 3437.50 5216.90 57.98 1.00 236.42 3289.56
   06:56:21.310.15-Aug-2021 3437.50 5216.98 57.98 1.00 236.62 3289.56
   06:56:21.510.15-Aug-2021 3437.50 5217.48 57.98 1.00 236.82 3289.56
   06:56:21.710.15-Aug-2021 3437.50 5216.32 57.98 1.00 237.02 3289.56
   06:56:21.910.15-Aug-2021 3437.50 5216.32 57.98 1.00 237.22 3289.56
   06:56:22.110.15-Aug-2021 3437.50 5216.84 57.98 1.00 237.42 3289.56
   06:56:22.310.15-Aug-2021 3437.50 5217.52 57.98 1.00 237.62 3289.56
   06:56:22.510.15-Aug-2021 3437.50 5216.40 57.98 1.00 237.82 3289.56
   06:56:22.710.15-Aug-2021 3437.50 5217.12 57.98 1.00 238.02 3289.56
   06:56:22.910.15-Aug-2021 3437.50 5217.12 57.98 1.00 238.22 3289.56
   06:56:23.110.15-Aug-2021 3437.50 5216.97 57.98 1.00 238.42 3289.56
   06:56:23.310.15-Aug-2021 3437.50 5216.86 57.98 1.00 238.62 3289.56
   06:56:23.510.15-Aug-2021 3437.50 5216.91 57.98 1.00 238.82 3289.56
   06:56:23.710.15-Aug-2021 3437.50 5216.79 57.98 1.00 239.02 3289.56
   06:56:23.910.15-Aug-2021 3437.50 5216.79 57.98 1.00 239.22 3289.56
   06:56:24.110.15-Aug-2021 3437.50 5216.79 57.98 1.00 239.42 3289.56
   06:56:24.310.15-Aug-2021 3437.50 5216.67 57.98 1.00 239.62 3289.56
   06:56:24.510.15-Aug-2021 3437.50 5216.96 57.98 1.00 239.82 3289.56
   06:56:24.711.15-Aug-2021 3437.50 5216.85 57.98 1.00 240.02 3289.56
   06:56:24.911.15-Aug-2021 3437.50 5216.85 57.98 1.00 240.22 3289.56
   06:56:25.111.15-Aug-2021 3437.50 5216.66 57.98 1.00 240.42 3289.56
   06:56:25.311.15-Aug-2021 3437.50 5217.02 57.98 1.00 240.62 3289.56
   06:56:25.511.15-Aug-2021 3437.50 5216.88 57.98 1.00 240.82 3289.56
   06:56:25.711.15-Aug-2021 3437.50 5216.78 57.98 1.00 241.02 3289.56
   06:56:25.911.15-Aug-2021 3437.50 5216.78 57.98 1.00 241.22 3289.56
   06:56:26.111.15-Aug-2021 3437.50 5217.43 57.98 1.00 241.42 3289.56
   06:56:26.311.15-Aug-2021 3437.50 5216.69 57.98 1.00 241.62 3289.56
   06:56:26.511.15-Aug-2021 3437.50 5216.81 57.98 1.00 241.82 3289.56
   06:56:26.711.15-Aug-2021 3437.50 5216.89 57.98 1.00 242.02 3289.56
   06:56:26.911.15-Aug-2021 3437.50 5216.89 57.98 1.00 242.22 3289.56
   06:56:27.111.15-Aug-2021 3437.50 5216.77 57.98 1.00 242.42 3289.56
   06:56:27.311.15-Aug-2021 3437.50 5216.84 57.98 1.00 242.62 3289.56
   06:56:27.511.15-Aug-2021 3437.50 5217.04 57.98 1.00 242.82 3289.56
   06:56:27.711.15-Aug-2021 3437.50 5216.69 57.98 1.00 243.02 3289.56
   06:56:27.911.15-Aug-2021 3437.50 5216.69 57.98 1.00 243.22 3289.56
   06:56:28.111.15-Aug-2021 3437.50 5216.83 57.98 1.00 243.42 3289.56
   06:56:28.311.15-Aug-2021 3437.50 5216.70 57.98 1.00 243.62 3289.56
   06:56:28.511.15-Aug-2021 3437.50 5217.17 57.98 1.00 243.82 3289.56
   06:56:28.711.15-Aug-2021 3437.50 5217.21 57.98 1.00 244.02 3289.56
   06:56:28.911.15-Aug-2021 3437.50 5217.21 57.98 1.00 244.22 3289.56
   06:56:29.111.15-Aug-2021 3437.50 5216.44 57.98 1.00 244.42 3289.56
   06:56:29.311.15-Aug-2021 3437.50 5217.28 57.98 1.00 244.62 3289.56
   06:56:29.511.15-Aug-2021 3437.50 5217.11 57.98 1.00 244.82 3289.56
   06:56:29.711.15-Aug-2021 3437.50 5217.30 57.98 1.00 245.02 3289.56
   06:56:29.911.15-Aug-2021 3437.50 5217.30 57.98 1.00 245.22 3289.56
   06:56:30.111.15-Aug-2021 3437.50 5217.39 57.98 1.00 245.42 3289.56
   06:56:30.311.15-Aug-2021 3437.50 5216.72 57.98 1.00 245.62 3289.56
   06:56:30.511.15-Aug-2021 3437.50 5217.22 57.98 1.00 245.82 3289.56
   06:56:30.711.15-Aug-2021 3437.50 5216.82 57.98 1.00 246.02 3289.56
   06:56:30.911.15-Aug-2021 3437.50 5216.82 57.98 1.00 246.22 3289.56
   06:56:31.111.15-Aug-2021 3437.50 5216.89 57.98 1.00 246.42 3289.56
   06:56:31.311.15-Aug-2021 3437.50 5217.11 57.98 1.00 246.62 3289.56
   06:56:31.511.15-Aug-2021 3437.50 5217.51 57.98 1.00 246.82 3289.56
   06:56:31.711.15-Aug-2021 3437.50 5216.59 57.98 1.00 247.02 3289.56
   06:56:31.911.15-Aug-2021 3437.50 5216.59 57.98 1.00 247.22 3289.56
   06:56:32.111.15-Aug-2021 3437.50 5216.98 57.98 1.00 247.42 3289.56
   06:56:32.311.15-Aug-2021 3437.50 5217.68 57.98 1.00 247.62 3289.56
   06:56:32.511.15-Aug-2021 3437.50 5216.55 57.98 1.00 247.82 3289.56
   06:56:32.711.15-Aug-2021 3437.50 5217.24 57.98 1.00 248.02 3289.56
   06:56:32.911.15-Aug-2021 3437.50 5217.24 57.98 1.00 248.22 3289.56
   06:56:33.111.15-Aug-2021 3437.50 5216.97 57.98 1.00 248.42 3289.56
   06:56:33.311.15-Aug-2021 3437.50 5216.92 57.98 1.00 248.62 3289.56
   06:56:33.511.15-Aug-2021 3437.50 5217.61 57.98 1.00 248.82 3289.56
   06:56:33.711.15-Aug-2021 3437.50 5216.47 57.98 1.00 249.02 3289.56
   06:56:33.911.15-Aug-2021 3437.50 5216.47 57.98 1.00 249.22 3289.56
   06:56:34.111.15-Aug-2021 3437.50 5216.90 57.98 1.00 249.42 3289.56
   06:56:34.311.15-Aug-2021 3437.50 5217.63 57.98 1.00 249.62 3289.56
   06:56:34.511.15-Aug-2021 3437.50 5216.70 57.98 1.00 249.82 3289.56
   06:56:34.711.15-Aug-2021 3437.50 5217.07 57.98 1.00 250.02 3289.56
   06:56:34.911.15-Aug-2021 3437.50 5217.07 57.98 1.00 250.22 3289.56
   06:56:35.111.15-Aug-2021 3437.50 5216.99 57.98 1.00 250.42 3289.56
   06:56:35.311.15-Aug-2021 3437.50 5217.54 57.98 1.00 250.62 3289.56
   06:56:35.511.15-Aug-2021 3437.50 5216.67 57.98 1.00 250.82 3289.56
   06:56:35.711.15-Aug-2021 3437.50 5216.98 57.98 1.00 251.02 3289.56
   06:56:35.911.15-Aug-2021 3437.50 5216.98 57.98 1.00 251.22 3289.56
   06:56:36.111.15-Aug-2021 3437.50 5217.65 57.98 1.00 251.42 3289.56
   06:56:36.311.15-Aug-2021 3437.50 5216.83 57.98 1.00 251.62 3289.56
   06:56:36.511.15-Aug-2021 3437.50 5216.83 57.98 1.00 251.82 3289.56
   06:56:36.711.15-Aug-2021 3437.50 5217.18 57.98 1.00 252.02 3289.56
   06:56:36.911.15-Aug-2021 3437.50 5217.18 57.98 1.00 252.22 3289.56
   06:56:37.111.15-Aug-2021 3437.50 5216.95 57.98 1.00 252.42 3289.56
   06:56:37.311.15-Aug-2021 3437.50 5216.85 57.98 1.00 252.62 3289.56
   06:56:37.511.15-Aug-2021 3437.50 5217.22 57.98 1.00 252.82 3289.56
