~Version Information
 VERS.                  2.0:   CWLS log ASCII Standard -VERSION 2.0
 WRAP.                   NO:   One line per depth step
~Well Information Block
#MNEM.UNIT     VALUE/NAME     DESCRIPTION
#---------     -----------    ---------------------------
 STRT.S             06:52:24 15-Aug-21: START TIME 06:52:24 15-Aug-21
 STOP.S             06:59:28 15-Aug-21: STOP TIME  06:59:28 15-Aug-21
 STEP.S                   0.00: STEP TIME
 NULL.                 -999.25: NULL VALUE
 DFWT.                        :  DIST FWL TEXT
 DFST.                        :  DIST FSL TEXT
 DMF .             Drill Floor:  DRILL MEAS FROM
 STIM.      17.18.56 20-Jun-21:  START TIME
 DATE.      17.18.56 20-Aug-21:  END TIME
 SPUD.               20-Jun-21:  SPUD DATE
 NREF.                    Grid:  NORTH REFERENCE
 HPTY.       Minimum Curvature:  HOLE POS TYPE
 DMOD.             Drill Model:  DRILL MOD DESC
 SVYD.                  Survey:  SURVEY DESC
 ILTD.               Lithology:  INTERP LTH DESC
 FTOP.          Formation Tops:  FORM TOPS DESC
 SON .        AZ-XX-0907056190:  JOB NUMBER
 PDAT.       Caspian Sea Level:  PERMANENT DATUM
 WTYP.                Deviated:  WELL TYPE
 MDS .        Operator Entered:  MAG DATA SOURCE
 COMP.     BP Exploration (Caspian Sea) Ltd.:  COMPANY
 UWI .            /AZE20000092:  UNIQUE WELL IDENTIFIER
 API .            /AZE20000092:  API NUMBER
 BASE.              Azerbaijan:  LOGGING EQUIPMENT BASE LOCATION
 REGN.                   EESSA:  REGION
 PROV.                    baku:  PROVINCE
 STAT.                    baku:  STATE NAME
 CTRY.              Azerbaijan:  COUNTRY NAME
 FLD .                     ACG:  FIELD NAME
 SRVC.          Turan Drilling:  CONTRACTOR
 MWDS.                    Baku:  MWD SHOP
 WELL.                     J26:  WELL NAME
 JOBN.        AZ-XX-0907056190:  JOB TICKET NUMB
 RIG .             West Chirag:  RIG NAME
 DOE .                     N/A:  DOE NUMBER
 DCON.         Sperry Drilling:  DIRECTNL CONTR
 UNIT.                     N/A:  LOGGING EQUIPMENT ID
 CNTY.                        :  COUNTY
 LOC .                        :  LOCATION
 LMF .             Drill Floor:  LOG MEASURED FROM
 TVDS.m                  43.00:  TVDSS CORRECTN
 LATI.deg                40.13:  LATITUDE
 LONG.deg                51.22:  LONGITUDE
 WHNS.m                  -7.12:  WELL HEAD N/S
 WHEW.m                  -9.46:  WELL HEAD E/W
 UTMX.m              519004.02:  UTM X
 UTMY.m             4443784.96:  UTM Y
 DFWL.m                   0.00:  DISTANCE FWL
 DFSL.m                   0.00:  DISTANCE FSL
 SDEP.m                 464.00:  START DEPTH
 TDD .m                3500.00:  TOTAL DEPTH (DRILLER)
 VSDR.deg               114.35:  VERT SEC DIRECT
 GVFD.g                   1.00:  GRAVITY FIELD
 MFLD.nT              50386.00:  MAGNETIC FIELD
 MDIP.deg                59.63:  MAGNETIC DIP
 MDEC.deg                 6.43:  MAGNETIC DECL
 GRDC.deg                 0.15:  GRID CORRECTION
 AZTC.deg                 6.29:  AZM TOTAL CORR
 EPD .m                   0.00:  ELEVATION
 EGL .m                   0.00:  GROUND ELEVATION
 WDMS.m                 169.80:  WD ELEV
 APD .m                  43.00:  DEPTH ABOVE PD
 VSEW.m                  -9.46:  VERT SEC E/W
 VSNS.m                  -7.12:  VERT SEC N/S
 AGAP.m                  43.00:  AIR GAP
 DEP .m                 356.16:  DEPTH
 EKB .m                  43.00:  KB ELEVATION
 EDF .m                  43.00:  DF ELEVATION
 TDL .m                 699.00:  TOTAL DEPTH (LOGGER)
 VSC .                       0:  VS TO CLOSURE
 MAGU.                 1853727:  MAGUTM CHECKSUM
~Parameter Information Block
#MNEM.UNIT       Value        Description
#---------     -----------    ---------------------------
 AV  .mps                 1.30:  Ann Velocity 
 AVMX.mps                 1.67:  Max Ann Veloc 
 AZIF.deg               280.40:  Azm, Final 
 BHAT.        Rotary Steerable:  BHA Type 
 BREV.rev            528970.00:  Rev Bit Total 
 BROT.°/30m               1.00:  Build Rotating 
 BS  .in                 12.25:  Bit Size 
 BSZ .in                 12.25:  Bit Size 
 BTPL.psig              738.00:  Bit Press Loss 
 CABU.                     Yes:  Customer Abuse 
 CGEO.        Elvin Suleymanov:  Customer Geo 
 COMM.                     ¬kS:  Run Comments 1 
 TCS .hr                 66.05:  Time Ciculation Ended 
 CV  .mps                 2.20:  Crit Velocity 
 CVMX.mps                 2.56:  Max Crit Veloc 
 DD1 .          Rashad Habibov:  Direct Drillr 1 
 DD2 .            Azer ravanov:  Direct Drillr 2 
 DD3 .           Teymur Agayev:  Direct Drillr 3 
 DDSV.               Geo-Pilot:  DD Service 
 DEFF.%                  90.00:  % Det Eff 
 DLRX.°/30m               2.95:  Dogleg Rot Max 
 DLSO.°/30m               1.00:  Dogleg Oriented 
 DLSX.°/30m               2.95:  Dogleg Str Max 
 DRET.      11.42.20 11-Aug-21:  Drill End Time 
 DRST.      23.03.20 08-Aug-21:  Drill Start Tim 
 DTIM.hr                 45.50:  Time Drilling 
 EDEP.m                3488.00:  End Depth 
 ENG1.         Marcelo Marcari:  Engineer 1 
 ENG2.         Dair Mahammadov:  Engineer 2 
 ENG3.       Davud Huseyn-zada:  Engineer 3 
 ENG4.         Yevgeniy Ulikov:  Engineer 4 
 ETIM.      17.45.20 17-Aug-21:  End Time 
 FLOI.gpm              1197.70:  Flow In 
 FLON.gpm              1100.00:  Flow In Min 
 FLOS.cptm                0.00:  Fluid Loss 
 FLOX.gpm              1200.00:  Flow In Max 
 DFT .        Mineral Oil Base:  Mud Type 
 FTRO.       Formation Presure:  FTWD Run Obj 
 HFLO.                      No:  High Flow 
 HPRE.                      No:  High Pressure 
 HTEM.                      No:  High Temp 
 HYDO.m                   1.80:  Hydro Offset 
 IFIN.deg                 9.87:  Inc, Final 
 IMAX.deg                19.96:  Inc Max 
 IMIN.deg                 3.82:  Inc Min 
 IMND.m                3257.42:  Inc Min Depth 
 IMXD.m                2945.53:  Inc Max Depth 
 JARR.                      No:  Jarring 
 LETM.      11.42.20 11-Aug-21:  Log End Time 
 LOST.hr                     0:  Lost Rig Time 
 LSTM.      23.03.20 08-Aug-21:  Log Start Time 
 MDCL.ppm             42500.00:  Mud Chlorides 
 MDES.     Inversion Oil/Synthetic:  Mud Desc 
 DFD .sg                  1.45:  Mud Density 
 MDMN.sg                  1.39:  Dens Mud Min 
 MDMX.sg                  1.57:  Dens Mud Max 
 MOIL.                   53.20:  Run Mud Oil % 
 MOWR.                   70:30:  Run Mud OWR 
 MSND.                       0:  Run Mud Sand % 
 MSOL.                   24.30:  Run Mud Solids% 
 DFV .spqt               79.00:  Mud Viscosity 
 MWOD.in                  8.00:  MWD Tool OD 
 MWSI.                      No:  Serv Intrp, MWD 
 OTIM.hr                253.06:  Time Operating 
 PCON.           Look Like New:  Pad Condition 
 PMAX.psia            11068.93:  Press Op, Max 
 PV  .cP                 36.00:  Mud PV 
 RUN .                    1000:  Run Number 
 ROPA.m/hr               15.34:  ROP Avg 
 ROPN.m/hr                4.00:  ROP Min 
 ROPX.m/hr               31.00:  ROP Max 
 RPMA.rpm               151.40:  RPM Surface Avg 
 RPMN.rpm               120.00:  RPM Surface Min 
 RPMX.rpm               160.00:  RPM Surface Max 
 RRUN.                    L505:  Rig Run Number 
 RTIM.hr                 10.00:  Time Reaming 
 SAZI.deg                88.92:  Azm, Start 
 SDEP.m                2789.00:  Start Depth 
 SIDD.                      No:  Serv Intrp, DD 
 SINC.deg                19.84:  Inc, Start 
 SPPA.psig             4421.39:  SPP Avg 
 SPPN.psig             4130.00:  SPP Min 
 SPPX.psig             4800.00:  SPP Max 
 STIM.      01.25.20 07-Aug-21:  Start Time 
 SVCS.                 DD, MWD:  Services 
 SVER.                    9.20:  Sperry Version 
 TDAT.m                 699.00:  Tot Depth Attmp 
 TDDF.                      No:  Trip for DD 
 TDLG.m                 699.00:  Tot Depth Loggd 
 TFF .                      No:  Trip for Fail 
 TQAA.f-kp               20.55:  Torque Abs Avg 
 TQAN.f-kp               15.00:  Torque Abs Min 
 TQAX.f-kp               24.00:  Torque Abs Max 
 TRRT.°/30m               0.50:  Turn Rotating 
 MRT .                    HCIM:  Maximum Recorded Temperature 
 TTMX.degC               82.35:  Max Tool Temp 
 VS01.                90654677:  Virtual Str1 SN 
 VS02.                90636294:  Virtual Str2 SN 
 VS03.                90653866:  Virtual Str3 SN 
 VS04.                90654674:  Virtual Str4 SN 
 WBMN.klb                10.00:  WOB Min 
 WITN.         Haytham Mostafa:  Customer Rep 
 WITN.           Rufat Babayev:  Customer Rep 2 
 WOBA.klb                22.43:  WOB Avg 
 WOBX.klb                35.00:  WOB Max 
 YP  .lhf2               32.00:  Yield Point 
~Curve Information Block
#MNEM.UNIT                 API CODE     Curve Description
#---------               -----------    ---------------------------
 TIME.HHMMSS            00 000 000 000:  GT Time & Date
 GTDEPTH.m              00 000 000 000:  GT Depth
 GTPQH.psia             00 000 000 000:  GT HR Quartz Pressure
 GTTQ.degC              00 000 000 000:  GT Quartz Temperature
 GTTN.NONE              00 000 000 000:  GT Test Number
 GTET.sec               00 000 000 000:  GT Elapsed Test Time
 GTTVD.m                00 000 000 000:  GT True Vertical Depth
#Other Information
#
#WARRANTY: Halliburton will use its best efforts to furnish customers with 
#accurate information and interpretations that are part of, and incident to, the services 
#provided.  However, Halliburton cannot and does not warrant the accuracy 
#or correctness of such information and interpretations.  Under no circumstances should any 
#such information or interpretation be relied upon as the sole basis for any drilling, 
#completion, production, or financial decision or any procedure involving any risk to the 
#safety of any drilling venture, drilling rig or its crew or any other third party.  The 
#Customer has full responsibility for all drilling, completion and production operation.  
#Halliburton makes no representations or warranties, either expressed or 
#implied, including, but not limited to, the implied warranties of merchantability or fitness 
#for a particular purpose, with respect to the services rendered.  In no event will 
#Halliburton be liable for failure to obtain any particular results or for 
#any damages, including, but not limited to, indirect, special or consequential damages, 
#resulting from the use of any information or interpretation provided by Halliburton.
#
~A           TIME           GTDEPTH  GTPQH  GTTQ  GTTN  GTET   GTTVD  
# ...
   06:55:51.708.15-Aug-2021 3437.50 5216.02 57.98 1.00 207.01 3289.56
   06:55:51.908.15-Aug-2021 3437.50 5216.02 57.98 1.00 207.21 3289.56
   06:55:52.108.15-Aug-2021 3437.50 5215.93 57.98 1.00 207.41 3289.56
   06:55:52.308.15-Aug-2021 3437.50 5215.88 57.98 1.00 207.61 3289.56
   06:55:52.508.15-Aug-2021 3437.50 5216.02 57.98 1.00 207.81 3289.56
   06:55:52.708.15-Aug-2021 3437.50 5215.98 57.98 1.00 208.01 3289.56
   06:55:52.908.15-Aug-2021 3437.50 5215.98 57.98 1.00 208.21 3289.56
   06:55:53.108.15-Aug-2021 3437.50 5215.91 57.98 1.00 208.41 3289.56
   06:55:53.308.15-Aug-2021 3437.50 5215.71 57.98 1.00 208.61 3289.56
   06:55:53.508.15-Aug-2021 3437.50 5216.18 57.98 1.00 208.81 3289.56
   06:55:53.708.15-Aug-2021 3437.50 5215.97 57.98 1.00 209.01 3289.56
   06:55:53.908.15-Aug-2021 3437.50 5215.97 57.98 1.00 209.21 3289.56
   06:55:54.108.15-Aug-2021 3437.50 5215.92 57.98 1.00 209.41 3289.56
   06:55:54.308.15-Aug-2021 3437.50 5216.13 57.98 1.00 209.61 3289.56
   06:55:54.508.15-Aug-2021 3437.50 5216.05 57.98 1.00 209.81 3289.56
   06:55:54.708.15-Aug-2021 3437.50 5215.88 57.98 1.00 210.01 3289.56
   06:55:54.908.15-Aug-2021 3437.50 5215.88 57.98 1.00 210.21 3289.56
   06:55:55.108.15-Aug-2021 3437.50 5215.93 57.98 1.00 210.41 3289.56
   06:55:55.308.15-Aug-2021 3437.50 5216.13 57.98 1.00 210.61 3289.56
   06:55:55.508.15-Aug-2021 3437.50 5216.34 57.98 1.00 210.81 3289.56
   06:55:55.708.15-Aug-2021 3437.50 5216.13 57.98 1.00 211.01 3289.56
   06:55:55.908.15-Aug-2021 3437.50 5216.13 57.98 1.00 211.21 3289.56
   06:55:56.108.15-Aug-2021 3437.50 5216.18 57.98 1.00 211.41 3289.56
   06:55:56.308.15-Aug-2021 3437.50 5216.22 57.98 1.00 211.61 3289.56
   06:55:56.509.15-Aug-2021 3437.50 5216.44 57.98 1.00 211.81 3289.56
   06:55:56.709.15-Aug-2021 3437.50 5215.83 57.98 1.00 212.01 3289.56
   06:55:56.909.15-Aug-2021 3437.50 5215.83 57.98 1.00 212.22 3289.56
   06:55:57.109.15-Aug-2021 3437.50 5216.03 57.98 1.00 212.42 3289.56
   06:55:57.309.15-Aug-2021 3437.50 5216.41 57.98 1.00 212.62 3289.56
   06:55:57.509.15-Aug-2021 3437.50 5216.47 57.98 1.00 212.82 3289.56
   06:55:57.709.15-Aug-2021 3437.50 5216.11 57.98 1.00 213.02 3289.56
   06:55:57.909.15-Aug-2021 3437.50 5216.11 57.98 1.00 213.22 3289.56
   06:55:58.109.15-Aug-2021 3437.50 5216.20 57.98 1.00 213.42 3289.56
   06:55:58.309.15-Aug-2021 3437.50 5216.69 57.98 1.00 213.62 3289.56
   06:55:58.509.15-Aug-2021 3437.50 5215.96 57.98 1.00 213.82 3289.56
   06:55:58.709.15-Aug-2021 3437.50 5216.56 57.98 1.00 214.02 3289.56
   06:55:58.909.15-Aug-2021 3437.50 5216.56 57.98 1.00 214.22 3289.56
   06:55:59.109.15-Aug-2021 3437.50 5216.45 57.98 1.00 214.42 3289.56
   06:55:59.309.15-Aug-2021 3437.50 5216.61 57.98 1.00 214.62 3289.56
   06:55:59.509.15-Aug-2021 3437.50 5216.25 57.98 1.00 214.82 3289.56
   06:55:59.709.15-Aug-2021 3437.50 5216.30 57.98 1.00 215.02 3289.56
   06:55:59.909.15-Aug-2021 3437.50 5216.30 57.98 1.00 215.22 3289.56
   06:56:00.109.15-Aug-2021 3437.50 5216.30 57.98 1.00 215.42 3289.56
   06:56:00.309.15-Aug-2021 3437.50 5216.46 57.98 1.00 215.62 3289.56
   06:56:00.509.15-Aug-2021 3437.50 5216.42 57.98 1.00 215.82 3289.56
   06:56:00.709.15-Aug-2021 3437.50 5216.49 57.98 1.00 216.02 3289.56
   06:56:00.909.15-Aug-2021 3437.50 5216.49 57.98 1.00 216.22 3289.56
   06:56:01.109.15-Aug-2021 3437.50 5216.58 57.98 1.00 216.42 3289.56
   06:56:01.309.15-Aug-2021 3437.50 5216.32 57.98 1.00 216.62 3289.56
   06:56:01.509.15-Aug-2021 3437.50 5216.08 57.98 1.00 216.82 3289.56
   06:56:01.709.15-Aug-2021 3437.50 5216.65 57.98 1.00 217.02 3289.56
   06:56:01.909.15-Aug-2021 3437.50 5216.65 57.98 1.00 217.22 3289.56
   06:56:02.109.15-Aug-2021 3437.50 5216.60 57.98 1.00 217.42 3289.56
   06:56:02.309.15-Aug-2021 3437.50 5216.33 57.98 1.00 217.62 3289.56
   06:56:02.509.15-Aug-2021 3437.50 5216.60 57.98 1.00 217.82 3289.56
   06:56:02.709.15-Aug-2021 3437.50 5216.46 57.98 1.00 218.02 3289.56
   06:56:02.909.15-Aug-2021 3437.50 5216.46 57.98 1.00 218.22 3289.56
   06:56:03.109.15-Aug-2021 3437.50 5216.68 57.98 1.00 218.42 3289.56
   06:56:03.309.15-Aug-2021 3437.50 5216.28 57.98 1.00 218.62 3289.56
   06:56:03.509.15-Aug-2021 3437.50 5216.55 57.98 1.00 218.82 3289.56
   06:56:03.709.15-Aug-2021 3437.50 5216.78 57.98 1.00 219.02 3289.56
   06:56:03.909.15-Aug-2021 3437.50 5216.78 57.98 1.00 219.22 3289.56
   06:56:04.109.15-Aug-2021 3437.50 5216.78 57.98 1.00 219.42 3289.56
   06:56:04.309.15-Aug-2021 3437.50 5216.59 57.98 1.00 219.62 3289.56
   06:56:04.509.15-Aug-2021 3437.50 5216.60 57.98 1.00 219.82 3289.56
   06:56:04.709.15-Aug-2021 3437.50 5216.83 57.98 1.00 220.02 3289.56
   06:56:04.909.15-Aug-2021 3437.50 5216.83 57.98 1.00 220.22 3289.56
   06:56:05.109.15-Aug-2021 3437.50 5216.79 57.98 1.00 220.42 3289.56
   06:56:05.309.15-Aug-2021 3437.50 5216.34 57.98 1.00 220.62 3289.56
   06:56:05.509.15-Aug-2021 3437.50 5216.77 57.98 1.00 220.82 3289.56
   06:56:05.709.15-Aug-2021 3437.50 5216.86 57.98 1.00 221.02 3289.56
   06:56:05.909.15-Aug-2021 3437.50 5216.86 57.98 1.00 221.22 3289.56
   06:56:06.109.15-Aug-2021 3437.50 5216.65 57.98 1.00 221.42 3289.56
   06:56:06.309.15-Aug-2021 3437.50 5216.54 57.98 1.00 221.62 3289.56
   06:56:06.509.15-Aug-2021 3437.50 5217.04 57.98 1.00 221.82 3289.56
   06:56:06.709.15-Aug-2021 3437.50 5216.24 57.98 1.00 222.02 3289.56
   06:56:06.909.15-Aug-2021 3437.50 5216.24 57.98 1.00 222.22 3289.56
   06:56:07.109.15-Aug-2021 3437.50 5216.63 57.98 1.00 222.42 3289.56
   06:56:07.309.15-Aug-2021 3437.50 5216.77 57.98 1.00 222.62 3289.56
   06:56:07.509.15-Aug-2021 3437.50 5216.93 57.98 1.00 222.82 3289.56
   06:56:07.709.15-Aug-2021 3437.50 5216.53 57.98 1.00 223.02 3289.56
   06:56:07.909.15-Aug-2021 3437.50 5216.53 57.98 1.00 223.22 3289.56
   06:56:08.109.15-Aug-2021 3437.50 5216.56 57.98 1.00 223.42 3289.56
   06:56:08.309.15-Aug-2021 3437.50 5216.57 57.98 1.00 223.62 3289.56
   06:56:08.509.15-Aug-2021 3437.50 5216.75 57.98 1.00 223.82 3289.56
   06:56:08.709.15-Aug-2021 3437.50 5216.69 57.98 1.00 224.02 3289.56
   06:56:08.909.15-Aug-2021 3437.50 5216.69 57.98 1.00 224.22 3289.56
   06:56:09.109.15-Aug-2021 3437.50 5216.72 57.98 1.00 224.42 3289.56
   06:56:09.309.15-Aug-2021 3437.50 5216.92 57.98 1.00 224.62 3289.56
   06:56:09.509.15-Aug-2021 3437.50 5216.50 57.98 1.00 224.82 3289.56
   06:56:09.709.15-Aug-2021 3437.50 5216.35 57.98 1.00 225.02 3289.56
   06:56:09.909.15-Aug-2021 3437.50 5216.35 57.98 1.00 225.22 3289.56
   06:56:10.109.15-Aug-2021 3437.50 5216.87 57.98 1.00 225.42 3289.56
   06:56:10.309.15-Aug-2021 3437.50 5216.99 57.98 1.00 225.62 3289.56
   06:56:10.509.15-Aug-2021 3437.50 5216.19 57.98 1.00 225.82 3289.56
   06:56:10.710.15-Aug-2021 3437.50 5216.93 57.98 1.00 226.02 3289.56
   06:56:10.910.15-Aug-2021 3437.50 5216.93 57.98 1.00 226.22 3289.56
   06:56:11.110.15-Aug-2021 3437.50 5216.88 57.98 1.00 226.42 3289.56
   06:56:11.310.15-Aug-2021 3437.50 5216.83 57.98 1.00 226.62 3289.56
   06:56:11.510.15-Aug-2021 3437.50 5216.70 57.98 1.00 226.82 3289.56
   06:56:11.710.15-Aug-2021 3437.50 5216.33 57.98 1.00 227.02 3289.56
   06:56:11.910.15-Aug-2021 3437.50 5216.33 57.98 1.00 227.22 3289.56
   06:56:12.110.15-Aug-2021 3437.50 5217.03 57.98 1.00 227.42 3289.56
   06:56:12.310.15-Aug-2021 3437.50 5217.34 57.98 1.00 227.62 3289.56
   06:56:12.510.15-Aug-2021 3437.50 5216.01 57.98 1.00 227.82 3289.56
   06:56:12.710.15-Aug-2021 3437.50 5216.90 57.98 1.00 228.02 3289.56
   06:56:12.910.15-Aug-2021 3437.50 5216.90 57.98 1.00 228.22 3289.56
   06:56:13.110.15-Aug-2021 3437.50 5216.86 57.98 1.00 228.42 3289.56
   06:56:13.310.15-Aug-2021 3437.50 5216.95 57.98 1.00 228.62 3289.56
   06:56:13.510.15-Aug-2021 3437.50 5216.52 57.98 1.00 228.82 3289.56
   06:56:13.710.15-Aug-2021 3437.50 5216.88 57.98 1.00 229.02 3289.56
   06:56:13.910.15-Aug-2021 3437.50 5216.88 57.98 1.00 229.22 3289.56
   06:56:14.110.15-Aug-2021 3437.50 5217.34 57.98 1.00 229.42 3289.56
   06:56:14.310.15-Aug-2021 3437.50 5216.43 57.98 1.00 229.62 3289.56
   06:56:14.510.15-Aug-2021 3437.50 5216.69 57.98 1.00 229.82 3289.56
