~Version Information
 VERS.                  2.0:   CWLS log ASCII Standard -VERSION 2.0
 WRAP.                   NO:   One line per depth step
~Well Information Block
#MNEM.UNIT     VALUE/NAME     DESCRIPTION
#---------     -----------    ---------------------------
 STRT.S             12:25:56 15-Aug-21: START TIME 12:25:56 15-Aug-21
 STOP.S             12:39:05 15-Aug-21: STOP TIME  12:39:05 15-Aug-21
 STEP.S                   0.00: STEP TIME
 NULL.                 -999.25: NULL VALUE
 DFWT.                        :  DIST FWL TEXT
 DFST.                        :  DIST FSL TEXT
 DMF .             Drill Floor:  DRILL MEAS FROM
 STIM.      17.18.56 20-Jun-21:  START TIME
 DATE.      17.18.56 20-Aug-21:  END TIME
 SPUD.               20-Jun-21:  SPUD DATE
 NREF.                    Grid:  NORTH REFERENCE
 HPTY.       Minimum Curvature:  HOLE POS TYPE
 DMOD.             Drill Model:  DRILL MOD DESC
 SVYD.                  Survey:  SURVEY DESC
 ILTD.               Lithology:  INTERP LTH DESC
 FTOP.          Formation Tops:  FORM TOPS DESC
 SON .        AZ-XX-0907056190:  JOB NUMBER
 PDAT.       Caspian Sea Level:  PERMANENT DATUM
 WTYP.                Deviated:  WELL TYPE
 MDS .        Operator Entered:  MAG DATA SOURCE
 COMP.     BP Exploration (Caspian Sea) Ltd.:  COMPANY
 UWI .            /AZE20000092:  UNIQUE WELL IDENTIFIER
 API .            /AZE20000092:  API NUMBER
 BASE.              Azerbaijan:  LOGGING EQUIPMENT BASE LOCATION
 REGN.                   EESSA:  REGION
 PROV.                    baku:  PROVINCE
 STAT.                    baku:  STATE NAME
 CTRY.              Azerbaijan:  COUNTRY NAME
 FLD .                     ACG:  FIELD NAME
 SRVC.          Turan Drilling:  CONTRACTOR
 MWDS.                    Baku:  MWD SHOP
 WELL.                     J26:  WELL NAME
 JOBN.        AZ-XX-0907056190:  JOB TICKET NUMB
 RIG .             West Chirag:  RIG NAME
 DOE .                     N/A:  DOE NUMBER
 DCON.         Sperry Drilling:  DIRECTNL CONTR
 UNIT.                     N/A:  LOGGING EQUIPMENT ID
 CNTY.                        :  COUNTY
 LOC .                        :  LOCATION
 LMF .             Drill Floor:  LOG MEASURED FROM
 TVDS.m                  43.00:  TVDSS CORRECTN
 LATI.deg                40.13:  LATITUDE
 LONG.deg                51.22:  LONGITUDE
 WHNS.m                  -7.12:  WELL HEAD N/S
 WHEW.m                  -9.46:  WELL HEAD E/W
 UTMX.m              519004.02:  UTM X
 UTMY.m             4443784.96:  UTM Y
 DFWL.m                   0.00:  DISTANCE FWL
 DFSL.m                   0.00:  DISTANCE FSL
 SDEP.m                 464.00:  START DEPTH
 TDD .m                3500.00:  TOTAL DEPTH (DRILLER)
 VSDR.deg               114.35:  VERT SEC DIRECT
 GVFD.g                   1.00:  GRAVITY FIELD
 MFLD.nT              50386.00:  MAGNETIC FIELD
 MDIP.deg                59.63:  MAGNETIC DIP
 MDEC.deg                 6.43:  MAGNETIC DECL
 GRDC.deg                 0.15:  GRID CORRECTION
 AZTC.deg                 6.29:  AZM TOTAL CORR
 EPD .m                   0.00:  ELEVATION
 EGL .m                   0.00:  GROUND ELEVATION
 WDMS.m                 169.80:  WD ELEV
 APD .m                  43.00:  DEPTH ABOVE PD
 VSEW.m                  -9.46:  VERT SEC E/W
 VSNS.m                  -7.12:  VERT SEC N/S
 AGAP.m                  43.00:  AIR GAP
 DEP .m                 356.16:  DEPTH
 EKB .m                  43.00:  KB ELEVATION
 EDF .m                  43.00:  DF ELEVATION
 TDL .m                 699.00:  TOTAL DEPTH (LOGGER)
 VSC .                       0:  VS TO CLOSURE
 MAGU.                 1853727:  MAGUTM CHECKSUM
~Parameter Information Block
#MNEM.UNIT       Value        Description
#---------     -----------    ---------------------------
 AV  .mps                 1.30:  Ann Velocity 
 AVMX.mps                 1.67:  Max Ann Veloc 
 AZIF.deg               280.40:  Azm, Final 
 BHAT.        Rotary Steerable:  BHA Type 
 BREV.rev            528970.00:  Rev Bit Total 
 BROT.°/30m               1.00:  Build Rotating 
 BS  .in                 12.25:  Bit Size 
 BSZ .in                 12.25:  Bit Size 
 BTPL.psig              738.00:  Bit Press Loss 
 CABU.                     Yes:  Customer Abuse 
 CGEO.        Elvin Suleymanov:  Customer Geo 
 COMM.                     ´3x:  Run Comments 1 
 TCS .hr                 66.05:  Time Ciculation Ended 
 CV  .mps                 2.20:  Crit Velocity 
 CVMX.mps                 2.56:  Max Crit Veloc 
 DD1 .          Rashad Habibov:  Direct Drillr 1 
 DD2 .            Azer ravanov:  Direct Drillr 2 
 DD3 .           Teymur Agayev:  Direct Drillr 3 
 DDSV.               Geo-Pilot:  DD Service 
 DEFF.%                  90.00:  % Det Eff 
 DLRX.°/30m               2.95:  Dogleg Rot Max 
 DLSO.°/30m               1.00:  Dogleg Oriented 
 DLSX.°/30m               2.95:  Dogleg Str Max 
 DRET.      11.42.20 11-Aug-21:  Drill End Time 
 DRST.      23.03.20 08-Aug-21:  Drill Start Tim 
 DTIM.hr                 45.50:  Time Drilling 
 EDEP.m                3488.00:  End Depth 
 ENG1.         Marcelo Marcari:  Engineer 1 
 ENG2.         Dair Mahammadov:  Engineer 2 
 ENG3.       Davud Huseyn-zada:  Engineer 3 
 ENG4.         Yevgeniy Ulikov:  Engineer 4 
 ETIM.      17.45.20 17-Aug-21:  End Time 
 FLOI.gpm              1197.70:  Flow In 
 FLON.gpm              1100.00:  Flow In Min 
 FLOS.cptm                0.00:  Fluid Loss 
 FLOX.gpm              1200.00:  Flow In Max 
 DFT .        Mineral Oil Base:  Mud Type 
 FTRO.       Formation Presure:  FTWD Run Obj 
 HFLO.                      No:  High Flow 
 HPRE.                      No:  High Pressure 
 HTEM.                      No:  High Temp 
 HYDO.m                   1.80:  Hydro Offset 
 IFIN.deg                 9.87:  Inc, Final 
 IMAX.deg                19.96:  Inc Max 
 IMIN.deg                 3.82:  Inc Min 
 IMND.m                3257.42:  Inc Min Depth 
 IMXD.m                2945.53:  Inc Max Depth 
 JARR.                      No:  Jarring 
 LETM.      11.42.20 11-Aug-21:  Log End Time 
 LOST.hr                     0:  Lost Rig Time 
 LSTM.      23.03.20 08-Aug-21:  Log Start Time 
 MDCL.ppm             42500.00:  Mud Chlorides 
 MDES.     Inversion Oil/Synthetic:  Mud Desc 
 DFD .sg                  1.45:  Mud Density 
 MDMN.sg                  1.39:  Dens Mud Min 
 MDMX.sg                  1.57:  Dens Mud Max 
 MOIL.                   53.20:  Run Mud Oil % 
 MOWR.                   70:30:  Run Mud OWR 
 MSND.                       0:  Run Mud Sand % 
 MSOL.                   24.30:  Run Mud Solids% 
 DFV .spqt               79.00:  Mud Viscosity 
 MWOD.in                  8.00:  MWD Tool OD 
 MWSI.                      No:  Serv Intrp, MWD 
 OTIM.hr                253.06:  Time Operating 
 PCON.           Look Like New:  Pad Condition 
 PMAX.psia            11068.93:  Press Op, Max 
 PV  .cP                 36.00:  Mud PV 
 RUN .                    1000:  Run Number 
 ROPA.m/hr               15.34:  ROP Avg 
 ROPN.m/hr                4.00:  ROP Min 
 ROPX.m/hr               31.00:  ROP Max 
 RPMA.rpm               151.40:  RPM Surface Avg 
 RPMN.rpm               120.00:  RPM Surface Min 
 RPMX.rpm               160.00:  RPM Surface Max 
 RRUN.                    L505:  Rig Run Number 
 RTIM.hr                 10.00:  Time Reaming 
 SAZI.deg                88.92:  Azm, Start 
 SDEP.m                2789.00:  Start Depth 
 SIDD.                      No:  Serv Intrp, DD 
 SINC.deg                19.84:  Inc, Start 
 SPPA.psig             4421.39:  SPP Avg 
 SPPN.psig             4130.00:  SPP Min 
 SPPX.psig             4800.00:  SPP Max 
 STIM.      01.25.20 07-Aug-21:  Start Time 
 SVCS.                 DD, MWD:  Services 
 SVER.                    9.20:  Sperry Version 
 TDAT.m                 699.00:  Tot Depth Attmp 
 TDDF.                      No:  Trip for DD 
 TDLG.m                 699.00:  Tot Depth Loggd 
 TFF .                      No:  Trip for Fail 
 TQAA.f-kp               20.55:  Torque Abs Avg 
 TQAN.f-kp               15.00:  Torque Abs Min 
 TQAX.f-kp               24.00:  Torque Abs Max 
 TRRT.°/30m               0.50:  Turn Rotating 
 MRT .                    HCIM:  Maximum Recorded Temperature 
 TTMX.degC               82.35:  Max Tool Temp 
 VS01.                90654677:  Virtual Str1 SN 
 VS02.                90636294:  Virtual Str2 SN 
 VS03.                90653866:  Virtual Str3 SN 
 VS04.                90654674:  Virtual Str4 SN 
 WBMN.klb                10.00:  WOB Min 
 WITN.         Haytham Mostafa:  Customer Rep 
 WITN.           Rufat Babayev:  Customer Rep 2 
 WOBA.klb                22.43:  WOB Avg 
 WOBX.klb                35.00:  WOB Max 
 YP  .lhf2               32.00:  Yield Point 
~Curve Information Block
#MNEM.UNIT                 API CODE     Curve Description
#---------               -----------    ---------------------------
 TIME.HHMMSS            00 000 000 000:  GT Time & Date
 GTDEPTH.m              00 000 000 000:  GT Depth
 GTPQH.psia             00 000 000 000:  GT HR Quartz Pressure
 GTTQ.degC              00 000 000 000:  GT Quartz Temperature
 GTTN.NONE              00 000 000 000:  GT Test Number
 GTET.sec               00 000 000 000:  GT Elapsed Test Time
 GTTVD.m                00 000 000 000:  GT True Vertical Depth
#Other Information
#
#WARRANTY: Halliburton will use its best efforts to furnish customers with 
#accurate information and interpretations that are part of, and incident to, the services 
#provided.  However, Halliburton cannot and does not warrant the accuracy 
#or correctness of such information and interpretations.  Under no circumstances should any 
#such information or interpretation be relied upon as the sole basis for any drilling, 
#completion, production, or financial decision or any procedure involving any risk to the 
#safety of any drilling venture, drilling rig or its crew or any other third party.  The 
#Customer has full responsibility for all drilling, completion and production operation.  
#Halliburton makes no representations or warranties, either expressed or 
#implied, including, but not limited to, the implied warranties of merchantability or fitness 
#for a particular purpose, with respect to the services rendered.  In no event will 
#Halliburton be liable for failure to obtain any particular results or for 
#any damages, including, but not limited to, indirect, special or consequential damages, 
#resulting from the use of any information or interpretation provided by Halliburton.
#
~A           TIME           GTDEPTH  GTPQH  GTTQ  GTTN  GTET   GTTVD  
   12:25:56.912.15-Aug-2021 3405.50 7470.06 52.54 6.00   0.00 3258.07
   12:25:57.112.15-Aug-2021 3405.50 7470.06 52.54 6.00   0.20 3258.07
   12:25:57.312.15-Aug-2021 3405.50 7470.15 52.54 6.00   0.40 3258.07
   12:25:57.512.15-Aug-2021 3405.50 7470.07 52.54 6.00   0.60 3258.07
   12:25:57.712.15-Aug-2021 3405.50 7468.77 52.54 6.00   0.80 3258.07
   12:25:57.912.15-Aug-2021 3405.50 7468.80 52.54 6.00   1.00 3258.07
   12:25:58.112.15-Aug-2021 3405.50 7468.80 52.54 6.00   1.20 3258.07
   12:25:58.312.15-Aug-2021 3405.50 7469.74 52.54 6.00   1.40 3258.07
   12:25:58.511.15-Aug-2021 3405.50 7470.46 52.54 6.00   1.60 3258.07
   12:25:58.711.15-Aug-2021 3405.50 7473.34 52.54 6.00   1.80 3258.07
   12:25:58.911.15-Aug-2021 3405.50 7470.02 52.54 6.00   2.00 3258.07
   12:25:59.111.15-Aug-2021 3405.50 7470.02 52.54 6.00   2.20 3258.07
   12:25:59.311.15-Aug-2021 3405.50 7468.39 52.54 6.00   2.40 3258.07
   12:25:59.511.15-Aug-2021 3405.50 7470.38 52.54 6.00   2.60 3258.07
   12:25:59.711.15-Aug-2021 3405.50 7467.51 52.54 6.00   2.80 3258.07
   12:25:59.911.15-Aug-2021 3405.50 7466.69 52.54 6.00   3.00 3258.07
   12:26:00.110.15-Aug-2021 3405.50 7466.69 52.54 6.00   3.20 3258.07
   12:26:00.310.15-Aug-2021 3405.50 7463.66 52.54 6.00   3.40 3258.07
   12:26:00.510.15-Aug-2021 3405.50 7462.01 52.53 6.00   3.60 3258.07
   12:26:00.710.15-Aug-2021 3405.50 7461.75 52.53 6.00   3.80 3258.07
   12:26:00.910.15-Aug-2021 3405.50 7463.10 52.53 6.00   4.00 3258.07
   12:26:01.110.15-Aug-2021 3405.50 7463.10 52.53 6.00   4.20 3258.07
   12:26:01.310.15-Aug-2021 3405.50 7458.27 52.53 6.00   4.40 3258.07
   12:26:01.510.15-Aug-2021 3405.50 7455.92 52.53 6.00   4.60 3258.07
   12:26:01.710.15-Aug-2021 3405.50 7456.09 52.53 6.00   4.80 3258.07
   12:26:01.909.15-Aug-2021 3405.50 7455.37 52.53 6.00   5.00 3258.07
   12:26:02.109.15-Aug-2021 3405.50 7455.37 52.53 6.00   5.20 3258.07
   12:26:02.309.15-Aug-2021 3405.50 7458.09 52.53 6.00   5.40 3258.07
   12:26:02.509.15-Aug-2021 3405.50 7458.06 52.53 6.00   5.60 3258.07
   12:26:02.709.15-Aug-2021 3405.50 7457.63 52.53 6.00   5.80 3258.07
   12:26:02.909.15-Aug-2021 3405.50 7457.11 52.53 6.00   6.00 3258.07
   12:26:03.109.15-Aug-2021 3405.50 7457.11 52.53 6.00   6.20 3258.07
   12:26:03.309.15-Aug-2021 3405.50 7460.18 52.53 6.00   6.40 3258.07
   12:26:03.508.15-Aug-2021 3405.50 7456.70 52.53 6.00   6.60 3258.07
   12:26:03.708.15-Aug-2021 3405.50 7456.39 52.53 6.00   6.80 3258.07
   12:26:03.908.15-Aug-2021 3405.50 7456.39 52.53 6.00   7.00 3258.07
   12:26:04.108.15-Aug-2021 3405.50 7456.39 52.53 6.00   7.20 3258.07
   12:26:04.308.15-Aug-2021 3405.50 7458.75 52.53 6.00   7.40 3258.07
   12:26:04.508.15-Aug-2021 3405.50 7458.50 52.53 6.00   7.60 3258.07
   12:26:04.708.15-Aug-2021 3405.50 7460.36 52.53 6.00   7.80 3258.07
   12:26:04.908.15-Aug-2021 3405.50 7456.82 52.53 6.00   8.00 3258.07
   12:26:05.107.15-Aug-2021 3405.50 7456.82 52.53 6.00   8.20 3258.07
   12:26:05.307.15-Aug-2021 3405.50 7458.35 52.53 6.00   8.39 3258.07
   12:26:05.507.15-Aug-2021 3405.50 7460.11 52.53 6.00   8.59 3258.07
   12:26:05.707.15-Aug-2021 3405.50 7456.06 52.53 6.00   8.79 3258.07
   12:26:05.907.15-Aug-2021 3405.50 7456.89 52.53 6.00   8.99 3258.07
   12:26:06.107.15-Aug-2021 3405.50 7456.89 52.53 6.00   9.19 3258.07
   12:26:06.307.15-Aug-2021 3405.50 7459.48 52.53 6.00   9.39 3258.07
   12:26:06.507.15-Aug-2021 3405.50 7455.55 52.53 6.00   9.59 3258.07
   12:26:06.707.15-Aug-2021 3405.50 7456.72 52.53 6.00   9.79 3258.07
   12:26:06.906.15-Aug-2021 3405.50 7457.65 52.53 6.00   9.99 3258.07
   12:26:07.106.15-Aug-2021 3405.50 7457.65 52.53 6.00  10.19 3258.07
   12:26:07.306.15-Aug-2021 3405.50 7457.97 52.53 6.00  10.39 3258.07
   12:26:07.506.15-Aug-2021 3405.50 7458.25 52.53 6.00  10.59 3258.07
   12:26:07.706.15-Aug-2021 3405.50 7460.40 52.53 6.00  10.79 3258.07
   12:26:07.906.15-Aug-2021 3405.50 7457.64 52.53 6.00  10.99 3258.07
   12:26:08.106.15-Aug-2021 3405.50 7457.64 52.53 6.00  11.19 3258.07
   12:26:08.306.15-Aug-2021 3405.50 7459.61 52.53 6.00  11.39 3258.07
   12:26:08.505.15-Aug-2021 3405.50 7461.47 52.53 6.00  11.59 3258.07
   12:26:08.705.15-Aug-2021 3405.50 7463.20 52.53 6.00  11.79 3258.07
   12:26:08.905.15-Aug-2021 3405.50 7461.34 52.53 6.00  11.99 3258.07
   12:26:09.105.15-Aug-2021 3405.50 7461.34 52.53 6.00  12.19 3258.07
   12:26:09.305.15-Aug-2021 3405.50 7462.15 52.53 6.00  12.39 3258.07
   12:26:09.505.15-Aug-2021 3405.50 7462.59 52.53 6.00  12.59 3258.07
   12:26:09.705.15-Aug-2021 3405.50 7462.42 52.53 6.00  12.79 3258.07
   12:26:09.905.15-Aug-2021 3405.50 7463.38 52.53 6.00  12.99 3258.07
   12:26:10.104.15-Aug-2021 3405.50 7463.38 52.53 6.00  13.19 3258.07
   12:26:10.304.15-Aug-2021 3405.50 7461.04 52.53 6.00  13.39 3258.07
   12:26:10.504.15-Aug-2021 3405.50 7462.00 52.53 6.00  13.59 3258.07
   12:26:10.704.15-Aug-2021 3405.50 7462.86 52.53 6.00  13.79 3258.07
   12:26:10.904.15-Aug-2021 3405.50 7463.27 52.53 6.00  13.99 3258.07
   12:26:11.104.15-Aug-2021 3405.50 7463.27 52.53 6.00  14.19 3258.07
   12:26:11.304.15-Aug-2021 3405.50 7463.21 52.53 6.00  14.39 3258.07
   12:26:11.504.15-Aug-2021 3405.50 7461.43 52.53 6.00  14.59 3258.07
   12:26:11.704.15-Aug-2021 3405.50 7461.99 52.53 6.00  14.79 3258.07
   12:26:11.903.15-Aug-2021 3405.50 7462.96 52.53 6.00  14.99 3258.07
   12:26:12.103.15-Aug-2021 3405.50 7462.96 52.53 6.00  15.19 3258.07
   12:26:12.303.15-Aug-2021 3405.50 7462.35 52.53 6.00  15.39 3258.07
   12:26:12.503.15-Aug-2021 3405.50 7461.83 52.53 6.00  15.59 3258.07
   12:26:12.703.15-Aug-2021 3405.50 7463.43 52.53 6.00  15.79 3258.07
   12:26:12.903.15-Aug-2021 3405.50 7464.35 52.53 6.00  15.99 3258.07
   12:26:13.103.15-Aug-2021 3405.50 7464.35 52.53 6.00  16.19 3258.07
   12:26:13.303.15-Aug-2021 3405.50 7461.64 52.53 6.00  16.39 3258.07
   12:26:13.502.15-Aug-2021 3405.50 7462.04 52.53 6.00  16.59 3258.07
   12:26:13.702.15-Aug-2021 3405.50 7462.53 52.53 6.00  16.79 3258.07
   12:26:13.902.15-Aug-2021 3405.50 7464.87 52.53 6.00  16.99 3258.07
   12:26:14.102.15-Aug-2021 3405.50 7464.87 52.53 6.00  17.19 3258.07
   12:26:14.302.15-Aug-2021 3405.50 7462.90 52.53 6.00  17.39 3258.07
   12:26:14.502.15-Aug-2021 3405.50 7462.18 52.53 6.00  17.59 3258.07
   12:26:14.702.15-Aug-2021 3405.50 7461.24 52.53 6.00  17.79 3258.07
   12:26:14.902.15-Aug-2021 3405.50 7463.05 52.53 6.00  17.99 3258.07
   12:26:15.101.15-Aug-2021 3405.50 7463.05 52.53 6.00  18.19 3258.07
   12:26:15.301.15-Aug-2021 3405.50 7463.80 52.53 6.00  18.39 3258.07
   12:26:15.501.15-Aug-2021 3405.50 7462.69 52.53 6.00  18.59 3258.07
   12:26:15.701.15-Aug-2021 3405.50 7460.90 52.53 6.00  18.79 3258.07
   12:26:15.901.15-Aug-2021 3405.50 7461.23 52.53 6.00  18.99 3258.07
   12:26:16.101.15-Aug-2021 3405.50 7461.23 52.53 6.00  19.19 3258.07
   12:26:16.301.15-Aug-2021 3405.50 7462.93 52.53 6.00  19.39 3258.07
   12:26:16.501.15-Aug-2021 3405.50 7460.86 52.53 6.00  19.59 3258.07
   12:26:16.701.15-Aug-2021 3405.50 7460.32 52.53 6.00  19.79 3258.07
   12:26:16.900.15-Aug-2021 3405.50 7461.25 52.53 6.00  19.99 3258.07
   12:26:17.100.15-Aug-2021 3405.50 7461.25 52.53 6.00  20.19 3258.07
   12:26:17.300.15-Aug-2021 3405.50 7461.17 52.53 6.00  20.39 3258.07
   12:26:17.500.15-Aug-2021 3405.50 7461.83 52.53 6.00  20.59 3258.07
   12:26:17.700.15-Aug-2021 3405.50 7460.71 52.53 6.00  20.79 3258.07
   12:26:17.900.15-Aug-2021 3405.50 7460.37 52.53 6.00  20.99 3258.07
   12:26:18.100.15-Aug-2021 3405.50 7460.37 52.53 6.00  21.19 3258.07
   12:26:18.300.15-Aug-2021 3405.50 7460.05 52.52 6.00  21.39 3258.07
   12:26:18.499.15-Aug-2021 3405.50 7458.87 52.52 6.00  21.59 3258.07
   12:26:18.699.15-Aug-2021 3405.50 7458.63 52.52 6.00  21.79 3258.07
   12:26:18.899.15-Aug-2021 3405.50 7460.62 52.52 6.00  21.99 3258.07
   12:26:19.099.15-Aug-2021 3405.50 7460.62 52.52 6.00  22.19 3258.07
   12:26:19.299.15-Aug-2021 3405.50 7460.72 52.52 6.00  22.39 3258.07
   12:26:19.499.15-Aug-2021 3405.50 7459.75 52.52 6.00  22.59 3258.07
   12:26:19.699.15-Aug-2021 3405.50 7458.97 52.52 6.00  22.79 3258.07
