~Version Information
 VERS.                  2.0:   CWLS log ASCII Standard -VERSION 2.0
 WRAP.                   NO:   One line per depth step
~Well Information Block
#MNEM.UNIT     VALUE/NAME     DESCRIPTION
#---------     -----------    ---------------------------
 STRT.S             12:25:56 15-Aug-21: START TIME 12:25:56 15-Aug-21
 STOP.S             12:39:05 15-Aug-21: STOP TIME  12:39:05 15-Aug-21
 STEP.S                   0.00: STEP TIME
 NULL.                 -999.25: NULL VALUE
 DFWT.                        :  DIST FWL TEXT
 DFST.                        :  DIST FSL TEXT
 DMF .             Drill Floor:  DRILL MEAS FROM
 STIM.      17.18.56 20-Jun-21:  START TIME
 DATE.      17.18.56 20-Aug-21:  END TIME
 SPUD.               20-Jun-21:  SPUD DATE
 NREF.                    Grid:  NORTH REFERENCE
 HPTY.       Minimum Curvature:  HOLE POS TYPE
 DMOD.             Drill Model:  DRILL MOD DESC
 SVYD.                  Survey:  SURVEY DESC
 ILTD.               Lithology:  INTERP LTH DESC
 FTOP.          Formation Tops:  FORM TOPS DESC
 SON .        AZ-XX-0907056190:  JOB NUMBER
 PDAT.       Caspian Sea Level:  PERMANENT DATUM
 WTYP.                Deviated:  WELL TYPE
 MDS .        Operator Entered:  MAG DATA SOURCE
 COMP.     BP Exploration (Caspian Sea) Ltd.:  COMPANY
 UWI .            /AZE20000092:  UNIQUE WELL IDENTIFIER
 API .            /AZE20000092:  API NUMBER
 BASE.              Azerbaijan:  LOGGING EQUIPMENT BASE LOCATION
 REGN.                   EESSA:  REGION
 PROV.                    baku:  PROVINCE
 STAT.                    baku:  STATE NAME
 CTRY.              Azerbaijan:  COUNTRY NAME
 FLD .                     ACG:  FIELD NAME
 SRVC.          Turan Drilling:  CONTRACTOR
 MWDS.                    Baku:  MWD SHOP
 WELL.                     J26:  WELL NAME
 JOBN.        AZ-XX-0907056190:  JOB TICKET NUMB
 RIG .             West Chirag:  RIG NAME
 DOE .                     N/A:  DOE NUMBER
 DCON.         Sperry Drilling:  DIRECTNL CONTR
 UNIT.                     N/A:  LOGGING EQUIPMENT ID
 CNTY.                        :  COUNTY
 LOC .                        :  LOCATION
 LMF .             Drill Floor:  LOG MEASURED FROM
 TVDS.m                  43.00:  TVDSS CORRECTN
 LATI.deg                40.13:  LATITUDE
 LONG.deg                51.22:  LONGITUDE
 WHNS.m                  -7.12:  WELL HEAD N/S
 WHEW.m                  -9.46:  WELL HEAD E/W
 UTMX.m              519004.02:  UTM X
 UTMY.m             4443784.96:  UTM Y
 DFWL.m                   0.00:  DISTANCE FWL
 DFSL.m                   0.00:  DISTANCE FSL
 SDEP.m                 464.00:  START DEPTH
 TDD .m                3500.00:  TOTAL DEPTH (DRILLER)
 VSDR.deg               114.35:  VERT SEC DIRECT
 GVFD.g                   1.00:  GRAVITY FIELD
 MFLD.nT              50386.00:  MAGNETIC FIELD
 MDIP.deg                59.63:  MAGNETIC DIP
 MDEC.deg                 6.43:  MAGNETIC DECL
 GRDC.deg                 0.15:  GRID CORRECTION
 AZTC.deg                 6.29:  AZM TOTAL CORR
 EPD .m                   0.00:  ELEVATION
 EGL .m                   0.00:  GROUND ELEVATION
 WDMS.m                 169.80:  WD ELEV
 APD .m                  43.00:  DEPTH ABOVE PD
 VSEW.m                  -9.46:  VERT SEC E/W
 VSNS.m                  -7.12:  VERT SEC N/S
 AGAP.m                  43.00:  AIR GAP
 DEP .m                 356.16:  DEPTH
 EKB .m                  43.00:  KB ELEVATION
 EDF .m                  43.00:  DF ELEVATION
 TDL .m                 699.00:  TOTAL DEPTH (LOGGER)
 VSC .                       0:  VS TO CLOSURE
 MAGU.                 1853727:  MAGUTM CHECKSUM
~Parameter Information Block
#MNEM.UNIT       Value        Description
#---------     -----------    ---------------------------
 AV  .mps                 1.30:  Ann Velocity 
 AVMX.mps                 1.67:  Max Ann Veloc 
 AZIF.deg               280.40:  Azm, Final 
 BHAT.        Rotary Steerable:  BHA Type 
 BREV.rev            528970.00:  Rev Bit Total 
 BROT.°/30m               1.00:  Build Rotating 
 BS  .in                 12.25:  Bit Size 
 BSZ .in                 12.25:  Bit Size 
 BTPL.psig              738.00:  Bit Press Loss 
 CABU.                     Yes:  Customer Abuse 
 CGEO.        Elvin Suleymanov:  Customer Geo 
 COMM.                     ´3x:  Run Comments 1 
 TCS .hr                 66.05:  Time Ciculation Ended 
 CV  .mps                 2.20:  Crit Velocity 
 CVMX.mps                 2.56:  Max Crit Veloc 
 DD1 .          Rashad Habibov:  Direct Drillr 1 
 DD2 .            Azer ravanov:  Direct Drillr 2 
 DD3 .           Teymur Agayev:  Direct Drillr 3 
 DDSV.               Geo-Pilot:  DD Service 
 DEFF.%                  90.00:  % Det Eff 
 DLRX.°/30m               2.95:  Dogleg Rot Max 
 DLSO.°/30m               1.00:  Dogleg Oriented 
 DLSX.°/30m               2.95:  Dogleg Str Max 
 DRET.      11.42.20 11-Aug-21:  Drill End Time 
 DRST.      23.03.20 08-Aug-21:  Drill Start Tim 
 DTIM.hr                 45.50:  Time Drilling 
 EDEP.m                3488.00:  End Depth 
 ENG1.         Marcelo Marcari:  Engineer 1 
 ENG2.         Dair Mahammadov:  Engineer 2 
 ENG3.       Davud Huseyn-zada:  Engineer 3 
 ENG4.         Yevgeniy Ulikov:  Engineer 4 
 ETIM.      17.45.20 17-Aug-21:  End Time 
 FLOI.gpm              1197.70:  Flow In 
 FLON.gpm              1100.00:  Flow In Min 
 FLOS.cptm                0.00:  Fluid Loss 
 FLOX.gpm              1200.00:  Flow In Max 
 DFT .        Mineral Oil Base:  Mud Type 
 FTRO.       Formation Presure:  FTWD Run Obj 
 HFLO.                      No:  High Flow 
 HPRE.                      No:  High Pressure 
 HTEM.                      No:  High Temp 
 HYDO.m                   1.80:  Hydro Offset 
 IFIN.deg                 9.87:  Inc, Final 
 IMAX.deg                19.96:  Inc Max 
 IMIN.deg                 3.82:  Inc Min 
 IMND.m                3257.42:  Inc Min Depth 
 IMXD.m                2945.53:  Inc Max Depth 
 JARR.                      No:  Jarring 
 LETM.      11.42.20 11-Aug-21:  Log End Time 
 LOST.hr                     0:  Lost Rig Time 
 LSTM.      23.03.20 08-Aug-21:  Log Start Time 
 MDCL.ppm             42500.00:  Mud Chlorides 
 MDES.     Inversion Oil/Synthetic:  Mud Desc 
 DFD .sg                  1.45:  Mud Density 
 MDMN.sg                  1.39:  Dens Mud Min 
 MDMX.sg                  1.57:  Dens Mud Max 
 MOIL.                   53.20:  Run Mud Oil % 
 MOWR.                   70:30:  Run Mud OWR 
 MSND.                       0:  Run Mud Sand % 
 MSOL.                   24.30:  Run Mud Solids% 
 DFV .spqt               79.00:  Mud Viscosity 
 MWOD.in                  8.00:  MWD Tool OD 
 MWSI.                      No:  Serv Intrp, MWD 
 OTIM.hr                253.06:  Time Operating 
 PCON.           Look Like New:  Pad Condition 
 PMAX.psia            11068.93:  Press Op, Max 
 PV  .cP                 36.00:  Mud PV 
 RUN .                    1000:  Run Number 
 ROPA.m/hr               15.34:  ROP Avg 
 ROPN.m/hr                4.00:  ROP Min 
 ROPX.m/hr               31.00:  ROP Max 
 RPMA.rpm               151.40:  RPM Surface Avg 
 RPMN.rpm               120.00:  RPM Surface Min 
 RPMX.rpm               160.00:  RPM Surface Max 
 RRUN.                    L505:  Rig Run Number 
 RTIM.hr                 10.00:  Time Reaming 
 SAZI.deg                88.92:  Azm, Start 
 SDEP.m                2789.00:  Start Depth 
 SIDD.                      No:  Serv Intrp, DD 
 SINC.deg                19.84:  Inc, Start 
 SPPA.psig             4421.39:  SPP Avg 
 SPPN.psig             4130.00:  SPP Min 
 SPPX.psig             4800.00:  SPP Max 
 STIM.      01.25.20 07-Aug-21:  Start Time 
 SVCS.                 DD, MWD:  Services 
 SVER.                    9.20:  Sperry Version 
 TDAT.m                 699.00:  Tot Depth Attmp 
 TDDF.                      No:  Trip for DD 
 TDLG.m                 699.00:  Tot Depth Loggd 
 TFF .                      No:  Trip for Fail 
 TQAA.f-kp               20.55:  Torque Abs Avg 
 TQAN.f-kp               15.00:  Torque Abs Min 
 TQAX.f-kp               24.00:  Torque Abs Max 
 TRRT.°/30m               0.50:  Turn Rotating 
 MRT .                    HCIM:  Maximum Recorded Temperature 
 TTMX.degC               82.35:  Max Tool Temp 
 VS01.                90654677:  Virtual Str1 SN 
 VS02.                90636294:  Virtual Str2 SN 
 VS03.                90653866:  Virtual Str3 SN 
 VS04.                90654674:  Virtual Str4 SN 
 WBMN.klb                10.00:  WOB Min 
 WITN.         Haytham Mostafa:  Customer Rep 
 WITN.           Rufat Babayev:  Customer Rep 2 
 WOBA.klb                22.43:  WOB Avg 
 WOBX.klb                35.00:  WOB Max 
 YP  .lhf2               32.00:  Yield Point 
~Curve Information Block
#MNEM.UNIT                 API CODE     Curve Description
#---------               -----------    ---------------------------
 TIME.HHMMSS            00 000 000 000:  GT Time & Date
 GTDEPTH.m              00 000 000 000:  GT Depth
 GTPQH.psia             00 000 000 000:  GT HR Quartz Pressure
 GTTQ.degC              00 000 000 000:  GT Quartz Temperature
 GTTN.NONE              00 000 000 000:  GT Test Number
 GTET.sec               00 000 000 000:  GT Elapsed Test Time
 GTTVD.m                00 000 000 000:  GT True Vertical Depth
#Other Information
#
#WARRANTY: Halliburton will use its best efforts to furnish customers with 
#accurate information and interpretations that are part of, and incident to, the services 
#provided.  However, Halliburton cannot and does not warrant the accuracy 
#or correctness of such information and interpretations.  Under no circumstances should any 
#such information or interpretation be relied upon as the sole basis for any drilling, 
#completion, production, or financial decision or any procedure involving any risk to the 
#safety of any drilling venture, drilling rig or its crew or any other third party.  The 
#Customer has full responsibility for all drilling, completion and production operation.  
#Halliburton makes no representations or warranties, either expressed or 
#implied, including, but not limited to, the implied warranties of merchantability or fitness 
#for a particular purpose, with respect to the services rendered.  In no event will 
#Halliburton be liable for failure to obtain any particular results or for 
#any damages, including, but not limited to, indirect, special or consequential damages, 
#resulting from the use of any information or interpretation provided by Halliburton.
#
~A           TIME           GTDEPTH  GTPQH  GTTQ  GTTN  GTET   GTTVD  
# ...
   12:37:49.484.15-Aug-2021 3405.50 3218.36 52.32 6.00 712.57 3258.07
   12:37:49.684.15-Aug-2021 3405.50 3218.36 52.32 6.00 712.77 3258.07
   12:37:49.883.15-Aug-2021 3405.50 3220.70 52.32 6.00 712.97 3258.07
   12:37:50.083.15-Aug-2021 3405.50 3222.03 52.32 6.00 713.17 3258.07
   12:37:50.283.15-Aug-2021 3405.50 3223.05 52.32 6.00 713.37 3258.07
   12:37:50.483.15-Aug-2021 3405.50 3223.76 52.32 6.00 713.57 3258.07
   12:37:50.683.15-Aug-2021 3405.50 3223.76 52.32 6.00 713.77 3258.07
   12:37:50.883.15-Aug-2021 3405.50 3225.23 52.32 6.00 713.97 3258.07
   12:37:51.083.15-Aug-2021 3405.50 3226.25 52.32 6.00 714.17 3258.07
   12:37:51.283.15-Aug-2021 3405.50 3227.47 52.32 6.00 714.37 3258.07
   12:37:51.482.15-Aug-2021 3405.50 3228.72 52.32 6.00 714.57 3258.07
   12:37:51.682.15-Aug-2021 3405.50 3228.72 52.32 6.00 714.77 3258.07
   12:37:51.882.15-Aug-2021 3405.50 3231.31 52.32 6.00 714.97 3258.07
   12:37:52.082.15-Aug-2021 3405.50 3232.31 52.32 6.00 715.17 3258.07
   12:37:52.282.15-Aug-2021 3405.50 3233.39 52.32 6.00 715.37 3258.07
   12:37:52.482.15-Aug-2021 3405.50 3234.57 52.32 6.00 715.57 3258.07
   12:37:52.682.15-Aug-2021 3405.50 3234.57 52.32 6.00 715.77 3258.07
   12:37:52.882.15-Aug-2021 3405.50 3237.07 52.32 6.00 715.97 3258.07
   12:37:53.082.15-Aug-2021 3405.50 3238.14 52.32 6.00 716.17 3258.07
   12:37:53.281.15-Aug-2021 3405.50 3239.27 52.32 6.00 716.37 3258.07
   12:37:53.481.15-Aug-2021 3405.50 3240.38 52.32 6.00 716.57 3258.07
   12:37:53.681.15-Aug-2021 3405.50 3240.38 52.32 6.00 716.77 3258.07
   12:37:53.881.15-Aug-2021 3405.50 3242.53 52.32 6.00 716.97 3258.07
   12:37:54.081.15-Aug-2021 3405.50 3243.76 52.32 6.00 717.17 3258.07
   12:37:54.281.15-Aug-2021 3405.50 3245.18 52.32 6.00 717.37 3258.07
   12:37:54.481.15-Aug-2021 3405.50 3246.34 52.32 6.00 717.57 3258.07
   12:37:54.681.15-Aug-2021 3405.50 3246.34 52.32 6.00 717.77 3258.07
   12:37:54.880.15-Aug-2021 3405.50 3248.45 52.32 6.00 717.97 3258.07
   12:37:55.080.15-Aug-2021 3405.50 3249.61 52.32 6.00 718.17 3258.07
   12:37:55.280.15-Aug-2021 3405.50 3250.81 52.32 6.00 718.37 3258.07
   12:37:55.480.15-Aug-2021 3405.50 3251.91 52.32 6.00 718.57 3258.07
   12:37:55.680.15-Aug-2021 3405.50 3251.91 52.32 6.00 718.77 3258.07
   12:37:55.880.15-Aug-2021 3405.50 3254.10 52.32 6.00 718.97 3258.07
   12:37:56.080.15-Aug-2021 3405.50 3255.33 52.32 6.00 719.17 3258.07
   12:37:56.280.15-Aug-2021 3405.50 3256.46 52.32 6.00 719.37 3258.07
   12:37:56.479.15-Aug-2021 3405.50 3257.51 52.32 6.00 719.57 3258.07
   12:37:56.679.15-Aug-2021 3405.50 3257.51 52.32 6.00 719.77 3258.07
   12:37:56.879.15-Aug-2021 3405.50 3259.76 52.32 6.00 719.97 3258.07
   12:37:57.079.15-Aug-2021 3405.50 3260.86 52.32 6.00 720.17 3258.07
   12:37:57.279.15-Aug-2021 3405.50 3261.96 52.32 6.00 720.37 3258.07
   12:37:57.479.15-Aug-2021 3405.50 3263.15 52.32 6.00 720.57 3258.07
   12:37:57.679.15-Aug-2021 3405.50 3263.15 52.32 6.00 720.77 3258.07
   12:37:57.879.15-Aug-2021 3405.50 3265.47 52.32 6.00 720.97 3258.07
   12:37:58.079.15-Aug-2021 3405.50 3266.66 52.32 6.00 721.17 3258.07
   12:37:58.278.15-Aug-2021 3405.50 3267.69 52.32 6.00 721.37 3258.07
   12:37:58.478.15-Aug-2021 3405.50 3268.59 52.32 6.00 721.57 3258.07
   12:37:58.678.15-Aug-2021 3405.50 3268.59 52.32 6.00 721.77 3258.07
   12:37:58.878.15-Aug-2021 3405.50 3270.11 52.32 6.00 721.97 3258.07
   12:37:59.078.15-Aug-2021 3405.50 3271.05 52.32 6.00 722.17 3258.07
   12:37:59.278.15-Aug-2021 3405.50 3272.19 52.32 6.00 722.37 3258.07
   12:37:59.478.15-Aug-2021 3405.50 3273.27 52.32 6.00 722.57 3258.07
   12:37:59.678.15-Aug-2021 3405.50 3273.27 52.32 6.00 722.77 3258.07
   12:37:59.877.15-Aug-2021 3405.50 3275.63 52.32 6.00 722.97 3258.07
   12:38:00.077.15-Aug-2021 3405.50 3276.81 52.32 6.00 723.16 3258.07
   12:38:00.277.15-Aug-2021 3405.50 3277.88 52.32 6.00 723.36 3258.07
   12:38:00.477.15-Aug-2021 3405.50 3279.03 52.32 6.00 723.56 3258.07
   12:38:00.677.15-Aug-2021 3405.50 3279.03 52.32 6.00 723.76 3258.07
   12:38:00.877.15-Aug-2021 3405.50 3281.16 52.32 6.00 723.96 3258.07
   12:38:01.077.15-Aug-2021 3405.50 3282.46 52.32 6.00 724.16 3258.07
   12:38:01.277.15-Aug-2021 3405.50 3283.64 52.32 6.00 724.36 3258.07
   12:38:01.476.15-Aug-2021 3405.50 3284.66 52.32 6.00 724.56 3258.07
   12:38:01.676.15-Aug-2021 3405.50 3284.66 52.32 6.00 724.76 3258.07
   12:38:01.876.15-Aug-2021 3405.50 3286.82 52.32 6.00 724.96 3258.07
   12:38:02.076.15-Aug-2021 3405.50 3287.88 52.32 6.00 725.16 3258.07
   12:38:02.276.15-Aug-2021 3405.50 3289.31 52.32 6.00 725.36 3258.07
   12:38:02.476.15-Aug-2021 3405.50 3290.54 52.32 6.00 725.56 3258.07
   12:38:02.676.15-Aug-2021 3405.50 3290.54 52.32 6.00 725.76 3258.07
   12:38:02.876.15-Aug-2021 3405.50 3292.57 52.32 6.00 725.96 3258.07
   12:38:03.076.15-Aug-2021 3405.50 3293.86 52.32 6.00 726.16 3258.07
   12:38:03.275.15-Aug-2021 3405.50 3294.76 52.32 6.00 726.36 3258.07
   12:38:03.475.15-Aug-2021 3405.50 3295.83 52.32 6.00 726.56 3258.07
   12:38:03.675.15-Aug-2021 3405.50 3295.83 52.32 6.00 726.76 3258.07
   12:38:03.875.15-Aug-2021 3405.50 3297.90 52.32 6.00 726.96 3258.07
   12:38:04.075.15-Aug-2021 3405.50 3299.21 52.32 6.00 727.16 3258.07
   12:38:04.275.15-Aug-2021 3405.50 3300.50 52.32 6.00 727.36 3258.07
   12:38:04.475.15-Aug-2021 3405.50 3301.42 52.32 6.00 727.56 3258.07
   12:38:04.675.15-Aug-2021 3405.50 3301.42 52.32 6.00 727.76 3258.07
   12:38:04.874.15-Aug-2021 3405.50 3303.61 52.32 6.00 727.96 3258.07
   12:38:05.074.15-Aug-2021 3405.50 3304.80 52.32 6.00 728.16 3258.07
   12:38:05.274.15-Aug-2021 3405.50 3305.84 52.32 6.00 728.36 3258.07
   12:38:05.474.15-Aug-2021 3405.50 3306.96 52.32 6.00 728.56 3258.07
   12:38:05.674.15-Aug-2021 3405.50 3306.96 52.32 6.00 728.76 3258.07
   12:38:05.874.15-Aug-2021 3405.50 3309.23 52.32 6.00 728.96 3258.07
   12:38:06.074.15-Aug-2021 3405.50 3310.32 52.32 6.00 729.16 3258.07
   12:38:06.274.15-Aug-2021 3405.50 3311.38 52.32 6.00 729.36 3258.07
   12:38:06.473.15-Aug-2021 3405.50 3312.39 52.32 6.00 729.56 3258.07
   12:38:06.673.15-Aug-2021 3405.50 3312.39 52.32 6.00 729.76 3258.07
   12:38:06.873.15-Aug-2021 3405.50 3314.57 52.32 6.00 729.96 3258.07
   12:38:07.073.15-Aug-2021 3405.50 3315.72 52.32 6.00 730.16 3258.07
   12:38:07.273.15-Aug-2021 3405.50 3316.78 52.32 6.00 730.36 3258.07
   12:38:07.473.15-Aug-2021 3405.50 3317.48 52.32 6.00 730.56 3258.07
   12:38:07.673.15-Aug-2021 3405.50 3317.48 52.32 6.00 730.76 3258.07
   12:38:07.873.15-Aug-2021 3405.50 3318.91 52.32 6.00 730.96 3258.07
   12:38:08.073.15-Aug-2021 3405.50 3319.98 52.32 6.00 731.16 3258.07
   12:38:08.272.15-Aug-2021 3405.50 3321.10 52.32 6.00 731.36 3258.07
   12:38:08.472.15-Aug-2021 3405.50 3322.22 52.32 6.00 731.56 3258.07
   12:38:08.672.15-Aug-2021 3405.50 3322.22 52.32 6.00 731.76 3258.07
   12:38:08.872.15-Aug-2021 3405.50 3324.57 52.32 6.00 731.96 3258.07
   12:38:09.072.15-Aug-2021 3405.50 3325.65 52.32 6.00 732.16 3258.07
   12:38:09.272.15-Aug-2021 3405.50 3326.69 52.32 6.00 732.36 3258.07
   12:38:09.472.15-Aug-2021 3405.50 3327.84 52.32 6.00 732.56 3258.07
   12:38:09.672.15-Aug-2021 3405.50 3327.84 52.32 6.00 732.76 3258.07
   12:38:09.871.15-Aug-2021 3405.50 3330.21 52.32 6.00 732.96 3258.07
   12:38:10.071.15-Aug-2021 3405.50 3331.13 52.32 6.00 733.16 3258.07
   12:38:10.271.15-Aug-2021 3405.50 3332.21 52.32 6.00 733.36 3258.07
   12:38:10.471.15-Aug-2021 3405.50 3333.31 52.32 6.00 733.56 3258.07
   12:38:10.671.15-Aug-2021 3405.50 3333.31 52.32 6.00 733.76 3258.07
   12:38:10.871.15-Aug-2021 3405.50 3335.48 52.32 6.00 733.96 3258.07
   12:38:11.071.15-Aug-2021 3405.50 3336.69 52.31 6.00 734.16 3258.07
   12:38:11.271.15-Aug-2021 3405.50 3337.68 52.32 6.00 734.36 3258.07
   12:38:11.470.15-Aug-2021 3405.50 3338.75 52.31 6.00 734.56 3258.07
   12:38:11.670.15-Aug-2021 3405.50 3338.75 52.31 6.00 734.76 3258.07
   12:38:11.870.15-Aug-2021 3405.50 3340.98 52.31 6.00 734.96 3258.07
   12:38:12.070.15-Aug-2021 3405.50 3342.20 52.31 6.00 735.16 3258.07
   12:38:12.270.15-Aug-2021 3405.50 3343.17 52.31 6.00 735.36 3258.07
