~Version Information
 VERS.                  2.0:   CWLS log ASCII Standard -VERSION 2.0
 WRAP.                   NO:   One line per depth step
~Well Information Block
#MNEM.UNIT     VALUE/NAME     DESCRIPTION
#---------     -----------    ---------------------------
 STRT.S             06:52:24 15-Aug-21: START TIME 06:52:24 15-Aug-21
 STOP.S             06:59:28 15-Aug-21: STOP TIME  06:59:28 15-Aug-21
 STEP.S                   0.00: STEP TIME
 NULL.                 -999.25: NULL VALUE
 DFWT.                        :  DIST FWL TEXT
 DFST.                        :  DIST FSL TEXT
 DMF .             Drill Floor:  DRILL MEAS FROM
 STIM.      17.18.56 20-Jun-21:  START TIME
 DATE.      17.18.56 20-Aug-21:  END TIME
 SPUD.               20-Jun-21:  SPUD DATE
 NREF.                    Grid:  NORTH REFERENCE
 HPTY.       Minimum Curvature:  HOLE POS TYPE
 DMOD.             Drill Model:  DRILL MOD DESC
 SVYD.                  Survey:  SURVEY DESC
 ILTD.               Lithology:  INTERP LTH DESC
 FTOP.          Formation Tops:  FORM TOPS DESC
 SON .        AZ-XX-0907056190:  JOB NUMBER
 PDAT.       Caspian Sea Level:  PERMANENT DATUM
 WTYP.                Deviated:  WELL TYPE
 MDS .        Operator Entered:  MAG DATA SOURCE
 COMP.     BP Exploration (Caspian Sea) Ltd.:  COMPANY
 UWI .            /AZE20000092:  UNIQUE WELL IDENTIFIER
 API .            /AZE20000092:  API NUMBER
 BASE.              Azerbaijan:  LOGGING EQUIPMENT BASE LOCATION
 REGN.                   EESSA:  REGION
 PROV.                    baku:  PROVINCE
 STAT.                    baku:  STATE NAME
 CTRY.              Azerbaijan:  COUNTRY NAME
 FLD .                     ACG:  FIELD NAME
 SRVC.          Turan Drilling:  CONTRACTOR
 MWDS.                    Baku:  MWD SHOP
 WELL.                     J26:  WELL NAME
 JOBN.        AZ-XX-0907056190:  JOB TICKET NUMB
 RIG .             West Chirag:  RIG NAME
 DOE .                     N/A:  DOE NUMBER
 DCON.         Sperry Drilling:  DIRECTNL CONTR
 UNIT.                     N/A:  LOGGING EQUIPMENT ID
 CNTY.                        :  COUNTY
 LOC .                        :  LOCATION
 LMF .             Drill Floor:  LOG MEASURED FROM
 TVDS.m                  43.00:  TVDSS CORRECTN
 LATI.deg                40.13:  LATITUDE
 LONG.deg                51.22:  LONGITUDE
 WHNS.m                  -7.12:  WELL HEAD N/S
 WHEW.m                  -9.46:  WELL HEAD E/W
 UTMX.m              519004.02:  UTM X
 UTMY.m             4443784.96:  UTM Y
 DFWL.m                   0.00:  DISTANCE FWL
 DFSL.m                   0.00:  DISTANCE FSL
 SDEP.m                 464.00:  START DEPTH
 TDD .m                3500.00:  TOTAL DEPTH (DRILLER)
 VSDR.deg               114.35:  VERT SEC DIRECT
 GVFD.g                   1.00:  GRAVITY FIELD
 MFLD.nT              50386.00:  MAGNETIC FIELD
 MDIP.deg                59.63:  MAGNETIC DIP
 MDEC.deg                 6.43:  MAGNETIC DECL
 GRDC.deg                 0.15:  GRID CORRECTION
 AZTC.deg                 6.29:  AZM TOTAL CORR
 EPD .m                   0.00:  ELEVATION
 EGL .m                   0.00:  GROUND ELEVATION
 WDMS.m                 169.80:  WD ELEV
 APD .m                  43.00:  DEPTH ABOVE PD
 VSEW.m                  -9.46:  VERT SEC E/W
 VSNS.m                  -7.12:  VERT SEC N/S
 AGAP.m                  43.00:  AIR GAP
 DEP .m                 356.16:  DEPTH
 EKB .m                  43.00:  KB ELEVATION
 EDF .m                  43.00:  DF ELEVATION
 TDL .m                 699.00:  TOTAL DEPTH (LOGGER)
 VSC .                       0:  VS TO CLOSURE
 MAGU.                 1853727:  MAGUTM CHECKSUM
~Parameter Information Block
#MNEM.UNIT       Value        Description
#---------     -----------    ---------------------------
 AV  .mps                 1.30:  Ann Velocity 
 AVMX.mps                 1.67:  Max Ann Veloc 
 AZIF.deg               280.40:  Azm, Final 
 BHAT.        Rotary Steerable:  BHA Type 
 BREV.rev            528970.00:  Rev Bit Total 
 BROT.°/30m               1.00:  Build Rotating 
 BS  .in                 12.25:  Bit Size 
 BSZ .in                 12.25:  Bit Size 
 BTPL.psig              738.00:  Bit Press Loss 
 CABU.                     Yes:  Customer Abuse 
 CGEO.        Elvin Suleymanov:  Customer Geo 
 COMM.                     ¬kS:  Run Comments 1 
 TCS .hr                 66.05:  Time Ciculation Ended 
 CV  .mps                 2.20:  Crit Velocity 
 CVMX.mps                 2.56:  Max Crit Veloc 
 DD1 .          Rashad Habibov:  Direct Drillr 1 
 DD2 .            Azer ravanov:  Direct Drillr 2 
 DD3 .           Teymur Agayev:  Direct Drillr 3 
 DDSV.               Geo-Pilot:  DD Service 
 DEFF.%                  90.00:  % Det Eff 
 DLRX.°/30m               2.95:  Dogleg Rot Max 
 DLSO.°/30m               1.00:  Dogleg Oriented 
 DLSX.°/30m               2.95:  Dogleg Str Max 
 DRET.      11.42.20 11-Aug-21:  Drill End Time 
 DRST.      23.03.20 08-Aug-21:  Drill Start Tim 
 DTIM.hr                 45.50:  Time Drilling 
 EDEP.m                3488.00:  End Depth 
 ENG1.         Marcelo Marcari:  Engineer 1 
 ENG2.         Dair Mahammadov:  Engineer 2 
 ENG3.       Davud Huseyn-zada:  Engineer 3 
 ENG4.         Yevgeniy Ulikov:  Engineer 4 
 ETIM.      17.45.20 17-Aug-21:  End Time 
 FLOI.gpm              1197.70:  Flow In 
 FLON.gpm              1100.00:  Flow In Min 
 FLOS.cptm                0.00:  Fluid Loss 
 FLOX.gpm              1200.00:  Flow In Max 
 DFT .        Mineral Oil Base:  Mud Type 
 FTRO.       Formation Presure:  FTWD Run Obj 
 HFLO.                      No:  High Flow 
 HPRE.                      No:  High Pressure 
 HTEM.                      No:  High Temp 
 HYDO.m                   1.80:  Hydro Offset 
 IFIN.deg                 9.87:  Inc, Final 
 IMAX.deg                19.96:  Inc Max 
 IMIN.deg                 3.82:  Inc Min 
 IMND.m                3257.42:  Inc Min Depth 
 IMXD.m                2945.53:  Inc Max Depth 
 JARR.                      No:  Jarring 
 LETM.      11.42.20 11-Aug-21:  Log End Time 
 LOST.hr                     0:  Lost Rig Time 
 LSTM.      23.03.20 08-Aug-21:  Log Start Time 
 MDCL.ppm             42500.00:  Mud Chlorides 
 MDES.     Inversion Oil/Synthetic:  Mud Desc 
 DFD .sg                  1.45:  Mud Density 
 MDMN.sg                  1.39:  Dens Mud Min 
 MDMX.sg                  1.57:  Dens Mud Max 
 MOIL.                   53.20:  Run Mud Oil % 
 MOWR.                   70:30:  Run Mud OWR 
 MSND.                       0:  Run Mud Sand % 
 MSOL.                   24.30:  Run Mud Solids% 
 DFV .spqt               79.00:  Mud Viscosity 
 MWOD.in                  8.00:  MWD Tool OD 
 MWSI.                      No:  Serv Intrp, MWD 
 OTIM.hr                253.06:  Time Operating 
 PCON.           Look Like New:  Pad Condition 
 PMAX.psia            11068.93:  Press Op, Max 
 PV  .cP                 36.00:  Mud PV 
 RUN .                    1000:  Run Number 
 ROPA.m/hr               15.34:  ROP Avg 
 ROPN.m/hr                4.00:  ROP Min 
 ROPX.m/hr               31.00:  ROP Max 
 RPMA.rpm               151.40:  RPM Surface Avg 
 RPMN.rpm               120.00:  RPM Surface Min 
 RPMX.rpm               160.00:  RPM Surface Max 
 RRUN.                    L505:  Rig Run Number 
 RTIM.hr                 10.00:  Time Reaming 
 SAZI.deg                88.92:  Azm, Start 
 SDEP.m                2789.00:  Start Depth 
 SIDD.                      No:  Serv Intrp, DD 
 SINC.deg                19.84:  Inc, Start 
 SPPA.psig             4421.39:  SPP Avg 
 SPPN.psig             4130.00:  SPP Min 
 SPPX.psig             4800.00:  SPP Max 
 STIM.      01.25.20 07-Aug-21:  Start Time 
 SVCS.                 DD, MWD:  Services 
 SVER.                    9.20:  Sperry Version 
 TDAT.m                 699.00:  Tot Depth Attmp 
 TDDF.                      No:  Trip for DD 
 TDLG.m                 699.00:  Tot Depth Loggd 
 TFF .                      No:  Trip for Fail 
 TQAA.f-kp               20.55:  Torque Abs Avg 
 TQAN.f-kp               15.00:  Torque Abs Min 
 TQAX.f-kp               24.00:  Torque Abs Max 
 TRRT.°/30m               0.50:  Turn Rotating 
 MRT .                    HCIM:  Maximum Recorded Temperature 
 TTMX.degC               82.35:  Max Tool Temp 
 VS01.                90654677:  Virtual Str1 SN 
 VS02.                90636294:  Virtual Str2 SN 
 VS03.                90653866:  Virtual Str3 SN 
 VS04.                90654674:  Virtual Str4 SN 
 WBMN.klb                10.00:  WOB Min 
 WITN.         Haytham Mostafa:  Customer Rep 
 WITN.           Rufat Babayev:  Customer Rep 2 
 WOBA.klb                22.43:  WOB Avg 
 WOBX.klb                35.00:  WOB Max 
 YP  .lhf2               32.00:  Yield Point 
~Curve Information Block
#MNEM.UNIT                 API CODE     Curve Description
#---------               -----------    ---------------------------
 TIME.HHMMSS            00 000 000 000:  GT Time & Date
 GTDEPTH.m              00 000 000 000:  GT Depth
 GTPQH.psia             00 000 000 000:  GT HR Quartz Pressure
 GTTQ.degC              00 000 000 000:  GT Quartz Temperature
 GTTN.NONE              00 000 000 000:  GT Test Number
 GTET.sec               00 000 000 000:  GT Elapsed Test Time
 GTTVD.m                00 000 000 000:  GT True Vertical Depth
#Other Information
#
#WARRANTY: Halliburton will use its best efforts to furnish customers with 
#accurate information and interpretations that are part of, and incident to, the services 
#provided.  However, Halliburton cannot and does not warrant the accuracy 
#or correctness of such information and interpretations.  Under no circumstances should any 
#such information or interpretation be relied upon as the sole basis for any drilling, 
#completion, production, or financial decision or any procedure involving any risk to the 
#safety of any drilling venture, drilling rig or its crew or any other third party.  The 
#Customer has full responsibility for all drilling, completion and production operation.  
#Halliburton makes no representations or warranties, either expressed or 
#implied, including, but not limited to, the implied warranties of merchantability or fitness 
#for a particular purpose, with respect to the services rendered.  In no event will 
#Halliburton be liable for failure to obtain any particular results or for 
#any damages, including, but not limited to, indirect, special or consequential damages, 
#resulting from the use of any information or interpretation provided by Halliburton.
#
~A           TIME           GTDEPTH  GTPQH  GTTQ  GTTN  GTET   GTTVD  
# ...
   06:55:05.705.15-Aug-2021 3437.50 5218.88 57.97 1.00 161.01 3289.56
   06:55:05.905.15-Aug-2021 3437.50 5218.88 57.97 1.00 161.21 3289.56
   06:55:06.105.15-Aug-2021 3437.50 5218.22 57.97 1.00 161.41 3289.56
   06:55:06.305.15-Aug-2021 3437.50 5218.43 57.97 1.00 161.61 3289.56
   06:55:06.505.15-Aug-2021 3437.50 5218.29 57.97 1.00 161.81 3289.56
   06:55:06.705.15-Aug-2021 3437.50 5218.46 57.97 1.00 162.01 3289.56
   06:55:06.905.15-Aug-2021 3437.50 5218.46 57.97 1.00 162.21 3289.56
   06:55:07.105.15-Aug-2021 3437.50 5218.09 57.97 1.00 162.41 3289.56
   06:55:07.305.15-Aug-2021 3437.50 5218.38 57.97 1.00 162.61 3289.56
   06:55:07.505.15-Aug-2021 3437.50 5218.50 57.97 1.00 162.81 3289.56
   06:55:07.705.15-Aug-2021 3437.50 5218.60 57.97 1.00 163.01 3289.56
   06:55:07.905.15-Aug-2021 3437.50 5218.60 57.97 1.00 163.21 3289.56
   06:55:08.105.15-Aug-2021 3437.50 5217.88 57.97 1.00 163.41 3289.56
   06:55:08.305.15-Aug-2021 3437.50 5218.75 57.97 1.00 163.61 3289.56
   06:55:08.505.15-Aug-2021 3437.50 5218.08 57.97 1.00 163.81 3289.56
   06:55:08.705.15-Aug-2021 3437.50 5218.51 57.97 1.00 164.01 3289.56
   06:55:08.905.15-Aug-2021 3437.50 5218.51 57.97 1.00 164.21 3289.56
   06:55:09.105.15-Aug-2021 3437.50 5218.06 57.97 1.00 164.41 3289.56
   06:55:09.305.15-Aug-2021 3437.50 5218.52 57.97 1.00 164.61 3289.56
   06:55:09.505.15-Aug-2021 3437.50 5218.20 57.97 1.00 164.81 3289.56
   06:55:09.705.15-Aug-2021 3437.50 5218.79 57.97 1.00 165.01 3289.56
   06:55:09.905.15-Aug-2021 3437.50 5218.79 57.97 1.00 165.21 3289.56
   06:55:10.105.15-Aug-2021 3437.50 5218.61 57.97 1.00 165.41 3289.56
   06:55:10.305.15-Aug-2021 3437.50 5218.27 57.97 1.00 165.61 3289.56
   06:55:10.505.15-Aug-2021 3437.50 5218.89 57.97 1.00 165.81 3289.56
   06:55:10.705.15-Aug-2021 3437.50 5217.97 57.97 1.00 166.01 3289.56
   06:55:10.905.15-Aug-2021 3437.50 5217.97 57.97 1.00 166.21 3289.56
   06:55:11.105.15-Aug-2021 3437.50 5218.20 57.97 1.00 166.41 3289.56
   06:55:11.305.15-Aug-2021 3437.50 5218.31 57.97 1.00 166.61 3289.56
   06:55:11.505.15-Aug-2021 3437.50 5218.11 57.97 1.00 166.81 3289.56
   06:55:11.705.15-Aug-2021 3437.50 5218.30 57.97 1.00 167.01 3289.56
   06:55:11.905.15-Aug-2021 3437.50 5218.30 57.97 1.00 167.21 3289.56
   06:55:12.105.15-Aug-2021 3437.50 5218.34 57.97 1.00 167.41 3289.56
   06:55:12.305.15-Aug-2021 3437.50 5218.92 57.97 1.00 167.61 3289.56
   06:55:12.505.15-Aug-2021 3437.50 5217.91 57.97 1.00 167.81 3289.56
   06:55:12.705.15-Aug-2021 3437.50 5218.30 57.97 1.00 168.01 3289.56
   06:55:12.905.15-Aug-2021 3437.50 5218.30 57.97 1.00 168.21 3289.56
   06:55:13.105.15-Aug-2021 3437.50 5218.28 57.97 1.00 168.41 3289.56
   06:55:13.305.15-Aug-2021 3437.50 5218.45 57.97 1.00 168.61 3289.56
   06:55:13.505.15-Aug-2021 3437.50 5218.75 57.97 1.00 168.81 3289.56
   06:55:13.705.15-Aug-2021 3437.50 5218.00 57.97 1.00 169.01 3289.56
   06:55:13.905.15-Aug-2021 3437.50 5218.00 57.97 1.00 169.21 3289.56
   06:55:14.106.15-Aug-2021 3437.50 5218.26 57.97 1.00 169.41 3289.56
   06:55:14.306.15-Aug-2021 3437.50 5218.26 57.97 1.00 169.61 3289.56
   06:55:14.506.15-Aug-2021 3437.50 5218.36 57.97 1.00 169.81 3289.56
   06:55:14.706.15-Aug-2021 3437.50 5218.55 57.97 1.00 170.01 3289.56
   06:55:14.906.15-Aug-2021 3437.50 5218.55 57.97 1.00 170.21 3289.56
   06:55:15.106.15-Aug-2021 3437.50 5218.23 57.97 1.00 170.41 3289.56
   06:55:15.306.15-Aug-2021 3437.50 5218.44 57.97 1.00 170.61 3289.56
   06:55:15.506.15-Aug-2021 3437.50 5218.46 57.97 1.00 170.81 3289.56
   06:55:15.706.15-Aug-2021 3437.50 5218.29 57.97 1.00 171.01 3289.56
   06:55:15.906.15-Aug-2021 3437.50 5218.29 57.97 1.00 171.21 3289.56
   06:55:16.106.15-Aug-2021 3437.50 5218.58 57.97 1.00 171.41 3289.56
   06:55:16.306.15-Aug-2021 3437.50 5217.99 57.97 1.00 171.61 3289.56
   06:55:16.506.15-Aug-2021 3437.50 5218.37 57.97 1.00 171.81 3289.56
   06:55:16.706.15-Aug-2021 3437.50 5218.29 57.97 1.00 172.01 3289.56
   06:55:16.906.15-Aug-2021 3437.50 5218.29 57.97 1.00 172.21 3289.56
   06:55:17.106.15-Aug-2021 3437.50 5218.35 57.97 1.00 172.41 3289.56
   06:55:17.306.15-Aug-2021 3437.50 5218.11 57.97 1.00 172.61 3289.56
   06:55:17.506.15-Aug-2021 3437.50 5218.62 57.97 1.00 172.81 3289.56
   06:55:17.706.15-Aug-2021 3437.50 5217.76 57.97 1.00 173.01 3289.56
   06:55:17.906.15-Aug-2021 3437.50 5217.76 57.97 1.00 173.21 3289.56
   06:55:18.106.15-Aug-2021 3437.50 4788.49 57.97 1.00 173.41 3289.56
   06:55:18.306.15-Aug-2021 3437.50 4687.09 57.97 1.00 173.61 3289.56
   06:55:18.506.15-Aug-2021 3437.50 4639.40 57.97 1.00 173.81 3289.56
   06:55:18.706.15-Aug-2021 3437.50 4616.49 57.97 1.00 174.01 3289.56
   06:55:18.906.15-Aug-2021 3437.50 4616.49 57.97 1.00 174.21 3289.56
   06:55:19.106.15-Aug-2021 3437.50 4592.46 57.97 1.00 174.41 3289.56
   06:55:19.306.15-Aug-2021 3437.50 4586.36 57.97 1.00 174.61 3289.56
   06:55:19.506.15-Aug-2021 3437.50 4581.66 57.97 1.00 174.81 3289.56
   06:55:19.706.15-Aug-2021 3437.50 4577.84 57.97 1.00 175.01 3289.56
   06:55:19.906.15-Aug-2021 3437.50 4577.84 57.97 1.00 175.21 3289.56
   06:55:20.106.15-Aug-2021 3437.50 4567.69 57.97 1.00 175.41 3289.56
   06:55:20.306.15-Aug-2021 3437.50 4561.72 57.97 1.00 175.61 3289.56
   06:55:20.506.15-Aug-2021 3437.50 4559.95 57.97 1.00 175.81 3289.56
   06:55:20.706.15-Aug-2021 3437.50 4556.58 57.97 1.00 176.01 3289.56
   06:55:20.906.15-Aug-2021 3437.50 4556.58 57.97 1.00 176.21 3289.56
   06:55:21.106.15-Aug-2021 3437.50 4553.50 57.97 1.00 176.41 3289.56
   06:55:21.306.15-Aug-2021 3437.50 4552.29 57.97 1.00 176.61 3289.56
   06:55:21.506.15-Aug-2021 3437.50 4550.95 57.97 1.00 176.81 3289.56
   06:55:21.706.15-Aug-2021 3437.50 4549.74 57.97 1.00 177.01 3289.56
   06:55:21.906.15-Aug-2021 3437.50 4549.74 57.97 1.00 177.21 3289.56
   06:55:22.106.15-Aug-2021 3437.50 4544.64 57.97 1.00 177.41 3289.56
   06:55:22.306.15-Aug-2021 3437.50 4542.58 57.97 1.00 177.61 3289.56
   06:55:22.506.15-Aug-2021 3437.50 4541.47 57.96 1.00 177.81 3289.56
   06:55:22.706.15-Aug-2021 3437.50 4539.19 57.96 1.00 178.01 3289.56
   06:55:22.906.15-Aug-2021 3437.50 4539.19 57.96 1.00 178.21 3289.56
   06:55:23.106.15-Aug-2021 3437.50 4537.17 57.96 1.00 178.41 3289.56
   06:55:23.306.15-Aug-2021 3437.50 4536.81 57.96 1.00 178.61 3289.56
   06:55:23.506.15-Aug-2021 3437.50 4534.59 57.96 1.00 178.81 3289.56
   06:55:23.706.15-Aug-2021 3437.50 4534.29 57.96 1.00 179.01 3289.56
   06:55:23.906.15-Aug-2021 3437.50 4534.29 57.96 1.00 179.21 3289.56
   06:55:24.106.15-Aug-2021 3437.50 4532.48 57.96 1.00 179.41 3289.56
   06:55:24.306.15-Aug-2021 3437.50 4531.30 57.96 1.00 179.61 3289.56
   06:55:24.506.15-Aug-2021 3437.50 4528.83 57.96 1.00 179.81 3289.56
   06:55:24.706.15-Aug-2021 3437.50 4526.13 57.96 1.00 180.01 3289.56
   06:55:24.906.15-Aug-2021 3437.50 4526.13 57.96 1.00 180.21 3289.56
   06:55:25.106.15-Aug-2021 3437.50 4524.81 57.96 1.00 180.41 3289.56
   06:55:25.306.15-Aug-2021 3437.50 4523.79 57.96 1.00 180.61 3289.56
   06:55:25.506.15-Aug-2021 3437.50 4523.53 57.96 1.00 180.81 3289.56
   06:55:25.706.15-Aug-2021 3437.50 4524.80 57.96 1.00 181.01 3289.56
   06:55:25.906.15-Aug-2021 3437.50 4524.80 57.96 1.00 181.21 3289.56
   06:55:26.106.15-Aug-2021 3437.50 4526.05 57.96 1.00 181.41 3289.56
   06:55:26.306.15-Aug-2021 3437.50 4525.99 57.96 1.00 181.61 3289.56
   06:55:26.506.15-Aug-2021 3437.50 4524.64 57.96 1.00 181.81 3289.56
   06:55:26.706.15-Aug-2021 3437.50 4522.92 57.96 1.00 182.01 3289.56
   06:55:26.906.15-Aug-2021 3437.50 4522.92 57.96 1.00 182.21 3289.56
   06:55:27.106.15-Aug-2021 3437.50 4519.09 57.96 1.00 182.41 3289.56
   06:55:27.306.15-Aug-2021 3437.50 4516.65 57.96 1.00 182.61 3289.56
   06:55:27.506.15-Aug-2021 3437.50 4515.57 57.96 1.00 182.81 3289.56
   06:55:27.706.15-Aug-2021 3437.50 4514.96 57.96 1.00 183.01 3289.56
   06:55:27.906.15-Aug-2021 3437.50 4514.96 57.96 1.00 183.21 3289.56
   06:55:28.107.15-Aug-2021 3437.50 4510.03 57.96 1.00 183.41 3289.56
   06:55:28.307.15-Aug-2021 3437.50 4529.62 57.96 1.00 183.61 3289.56
   06:55:28.507.15-Aug-2021 3437.50 4777.53 57.96 1.00 183.81 3289.56
