~Version Information
 VERS.                  2.0:   CWLS log ASCII Standard -VERSION 2.0
 WRAP.                   NO:   One line per depth step
~Well Information Block
#MNEM.UNIT     VALUE/NAME     DESCRIPTION
#---------     -----------    ---------------------------
 STRT.S             08:47:11 15-Aug-21: START TIME 08:47:11 15-Aug-21
 STOP.S             08:54:08 15-Aug-21: STOP TIME  08:54:08 15-Aug-21
 STEP.S                   0.00: STEP TIME
 NULL.                 -999.25: NULL VALUE
 DFWT.                        :  DIST FWL TEXT
 DFST.                        :  DIST FSL TEXT
 DMF .             Drill Floor:  DRILL MEAS FROM
 STIM.      17.18.56 20-Jun-21:  START TIME
 DATE.      17.18.56 20-Aug-21:  END TIME
 SPUD.               20-Jun-21:  SPUD DATE
 NREF.                    Grid:  NORTH REFERENCE
 HPTY.       Minimum Curvature:  HOLE POS TYPE
 DMOD.             Drill Model:  DRILL MOD DESC
 SVYD.                  Survey:  SURVEY DESC
 ILTD.               Lithology:  INTERP LTH DESC
 FTOP.          Formation Tops:  FORM TOPS DESC
 SON .        AZ-XX-0907056190:  JOB NUMBER
 PDAT.       Caspian Sea Level:  PERMANENT DATUM
 WTYP.                Deviated:  WELL TYPE
 MDS .        Operator Entered:  MAG DATA SOURCE
 COMP.     BP Exploration (Caspian Sea) Ltd.:  COMPANY
 UWI .            /AZE20000092:  UNIQUE WELL IDENTIFIER
 API .            /AZE20000092:  API NUMBER
 BASE.              Azerbaijan:  LOGGING EQUIPMENT BASE LOCATION
 REGN.                   EESSA:  REGION
 PROV.                    baku:  PROVINCE
 STAT.                    baku:  STATE NAME
 CTRY.              Azerbaijan:  COUNTRY NAME
 FLD .                     ACG:  FIELD NAME
 SRVC.          Turan Drilling:  CONTRACTOR
 MWDS.                    Baku:  MWD SHOP
 WELL.                     J26:  WELL NAME
 JOBN.        AZ-XX-0907056190:  JOB TICKET NUMB
 RIG .             West Chirag:  RIG NAME
 DOE .                     N/A:  DOE NUMBER
 DCON.         Sperry Drilling:  DIRECTNL CONTR
 UNIT.                     N/A:  LOGGING EQUIPMENT ID
 CNTY.                        :  COUNTY
 LOC .                        :  LOCATION
 LMF .             Drill Floor:  LOG MEASURED FROM
 TVDS.m                  43.00:  TVDSS CORRECTN
 LATI.deg                40.13:  LATITUDE
 LONG.deg                51.22:  LONGITUDE
 WHNS.m                  -7.12:  WELL HEAD N/S
 WHEW.m                  -9.46:  WELL HEAD E/W
 UTMX.m              519004.02:  UTM X
 UTMY.m             4443784.96:  UTM Y
 DFWL.m                   0.00:  DISTANCE FWL
 DFSL.m                   0.00:  DISTANCE FSL
 SDEP.m                 464.00:  START DEPTH
 TDD .m                3500.00:  TOTAL DEPTH (DRILLER)
 VSDR.deg               114.35:  VERT SEC DIRECT
 GVFD.g                   1.00:  GRAVITY FIELD
 MFLD.nT              50386.00:  MAGNETIC FIELD
 MDIP.deg                59.63:  MAGNETIC DIP
 MDEC.deg                 6.43:  MAGNETIC DECL
 GRDC.deg                 0.15:  GRID CORRECTION
 AZTC.deg                 6.29:  AZM TOTAL CORR
 EPD .m                   0.00:  ELEVATION
 EGL .m                   0.00:  GROUND ELEVATION
 WDMS.m                 169.80:  WD ELEV
 APD .m                  43.00:  DEPTH ABOVE PD
 VSEW.m                  -9.46:  VERT SEC E/W
 VSNS.m                  -7.12:  VERT SEC N/S
 AGAP.m                  43.00:  AIR GAP
 DEP .m                 356.16:  DEPTH
 EKB .m                  43.00:  KB ELEVATION
 EDF .m                  43.00:  DF ELEVATION
 TDL .m                 699.00:  TOTAL DEPTH (LOGGER)
 VSC .                       0:  VS TO CLOSURE
 MAGU.                 1853727:  MAGUTM CHECKSUM
~Parameter Information Block
#MNEM.UNIT       Value        Description
#---------     -----------    ---------------------------
 AV  .mps                 1.30:  Ann Velocity 
 AVMX.mps                 1.67:  Max Ann Veloc 
 AZIF.deg               280.40:  Azm, Final 
 BHAT.        Rotary Steerable:  BHA Type 
 BREV.rev            528970.00:  Rev Bit Total 
 BROT.°/30m               1.00:  Build Rotating 
 BS  .in                 12.25:  Bit Size 
 BSZ .in                 12.25:  Bit Size 
 BTPL.psig              738.00:  Bit Press Loss 
 CABU.                     Yes:  Customer Abuse 
 CGEO.        Elvin Suleymanov:  Customer Geo 
 COMM.                     äji:  Run Comments 1 
 TCS .hr                 66.05:  Time Ciculation Ended 
 CV  .mps                 2.20:  Crit Velocity 
 CVMX.mps                 2.56:  Max Crit Veloc 
 DD1 .          Rashad Habibov:  Direct Drillr 1 
 DD2 .            Azer ravanov:  Direct Drillr 2 
 DD3 .           Teymur Agayev:  Direct Drillr 3 
 DDSV.               Geo-Pilot:  DD Service 
 DEFF.%                  90.00:  % Det Eff 
 DLRX.°/30m               2.95:  Dogleg Rot Max 
 DLSO.°/30m               1.00:  Dogleg Oriented 
 DLSX.°/30m               2.95:  Dogleg Str Max 
 DRET.      11.42.20 11-Aug-21:  Drill End Time 
 DRST.      23.03.20 08-Aug-21:  Drill Start Tim 
 DTIM.hr                 45.50:  Time Drilling 
 EDEP.m                3488.00:  End Depth 
 ENG1.         Marcelo Marcari:  Engineer 1 
 ENG2.         Dair Mahammadov:  Engineer 2 
 ENG3.       Davud Huseyn-zada:  Engineer 3 
 ENG4.         Yevgeniy Ulikov:  Engineer 4 
 ETIM.      17.45.20 17-Aug-21:  End Time 
 FLOI.gpm              1197.70:  Flow In 
 FLON.gpm              1100.00:  Flow In Min 
 FLOS.cptm                0.00:  Fluid Loss 
 FLOX.gpm              1200.00:  Flow In Max 
 DFT .        Mineral Oil Base:  Mud Type 
 FTRO.       Formation Presure:  FTWD Run Obj 
 HFLO.                      No:  High Flow 
 HPRE.                      No:  High Pressure 
 HTEM.                      No:  High Temp 
 HYDO.m                   1.80:  Hydro Offset 
 IFIN.deg                 9.87:  Inc, Final 
 IMAX.deg                19.96:  Inc Max 
 IMIN.deg                 3.82:  Inc Min 
 IMND.m                3257.42:  Inc Min Depth 
 IMXD.m                2945.53:  Inc Max Depth 
 JARR.                      No:  Jarring 
 LETM.      11.42.20 11-Aug-21:  Log End Time 
 LOST.hr                     0:  Lost Rig Time 
 LSTM.      23.03.20 08-Aug-21:  Log Start Time 
 MDCL.ppm             42500.00:  Mud Chlorides 
 MDES.     Inversion Oil/Synthetic:  Mud Desc 
 DFD .sg                  1.45:  Mud Density 
 MDMN.sg                  1.39:  Dens Mud Min 
 MDMX.sg                  1.57:  Dens Mud Max 
 MOIL.                   53.20:  Run Mud Oil % 
 MOWR.                   70:30:  Run Mud OWR 
 MSND.                       0:  Run Mud Sand % 
 MSOL.                   24.30:  Run Mud Solids% 
 DFV .spqt               79.00:  Mud Viscosity 
 MWOD.in                  8.00:  MWD Tool OD 
 MWSI.                      No:  Serv Intrp, MWD 
 OTIM.hr                253.06:  Time Operating 
 PCON.           Look Like New:  Pad Condition 
 PMAX.psia            11068.93:  Press Op, Max 
 PV  .cP                 36.00:  Mud PV 
 RUN .                    1000:  Run Number 
 ROPA.m/hr               15.34:  ROP Avg 
 ROPN.m/hr                4.00:  ROP Min 
 ROPX.m/hr               31.00:  ROP Max 
 RPMA.rpm               151.40:  RPM Surface Avg 
 RPMN.rpm               120.00:  RPM Surface Min 
 RPMX.rpm               160.00:  RPM Surface Max 
 RRUN.                    L505:  Rig Run Number 
 RTIM.hr                 10.00:  Time Reaming 
 SAZI.deg                88.92:  Azm, Start 
 SDEP.m                2789.00:  Start Depth 
 SIDD.                      No:  Serv Intrp, DD 
 SINC.deg                19.84:  Inc, Start 
 SPPA.psig             4421.39:  SPP Avg 
 SPPN.psig             4130.00:  SPP Min 
 SPPX.psig             4800.00:  SPP Max 
 STIM.      01.25.20 07-Aug-21:  Start Time 
 SVCS.                 DD, MWD:  Services 
 SVER.                    9.20:  Sperry Version 
 TDAT.m                 699.00:  Tot Depth Attmp 
 TDDF.                      No:  Trip for DD 
 TDLG.m                 699.00:  Tot Depth Loggd 
 TFF .                      No:  Trip for Fail 
 TQAA.f-kp               20.55:  Torque Abs Avg 
 TQAN.f-kp               15.00:  Torque Abs Min 
 TQAX.f-kp               24.00:  Torque Abs Max 
 TRRT.°/30m               0.50:  Turn Rotating 
 MRT .                    HCIM:  Maximum Recorded Temperature 
 TTMX.degC               82.35:  Max Tool Temp 
 VS01.                90654677:  Virtual Str1 SN 
 VS02.                90636294:  Virtual Str2 SN 
 VS03.                90653866:  Virtual Str3 SN 
 VS04.                90654674:  Virtual Str4 SN 
 WBMN.klb                10.00:  WOB Min 
 WITN.         Haytham Mostafa:  Customer Rep 
 WITN.           Rufat Babayev:  Customer Rep 2 
 WOBA.klb                22.43:  WOB Avg 
 WOBX.klb                35.00:  WOB Max 
 YP  .lhf2               32.00:  Yield Point 
~Curve Information Block
#MNEM.UNIT                 API CODE     Curve Description
#---------               -----------    ---------------------------
 TIME.HHMMSS            00 000 000 000:  GT Time & Date
 GTDEPTH.m              00 000 000 000:  GT Depth
 GTPQH.psia             00 000 000 000:  GT HR Quartz Pressure
 GTTQ.degC              00 000 000 000:  GT Quartz Temperature
 GTTN.NONE              00 000 000 000:  GT Test Number
 GTET.sec               00 000 000 000:  GT Elapsed Test Time
 GTTVD.m                00 000 000 000:  GT True Vertical Depth
#Other Information
#
#WARRANTY: Halliburton will use its best efforts to furnish customers with 
#accurate information and interpretations that are part of, and incident to, the services 
#provided.  However, Halliburton cannot and does not warrant the accuracy 
#or correctness of such information and interpretations.  Under no circumstances should any 
#such information or interpretation be relied upon as the sole basis for any drilling, 
#completion, production, or financial decision or any procedure involving any risk to the 
#safety of any drilling venture, drilling rig or its crew or any other third party.  The 
#Customer has full responsibility for all drilling, completion and production operation.  
#Halliburton makes no representations or warranties, either expressed or 
#implied, including, but not limited to, the implied warranties of merchantability or fitness 
#for a particular purpose, with respect to the services rendered.  In no event will 
#Halliburton be liable for failure to obtain any particular results or for 
#any damages, including, but not limited to, indirect, special or consequential damages, 
#resulting from the use of any information or interpretation provided by Halliburton.
#
~A           TIME           GTDEPTH  GTPQH  GTTQ  GTTN  GTET   GTTVD  
# ...
   08:49:52.445.15-Aug-2021 3421.80 5247.55 56.26 2.00 161.03 3274.11
   08:49:52.645.15-Aug-2021 3421.80 5247.55 56.26 2.00 161.23 3274.11
   08:49:52.845.15-Aug-2021 3421.80 5247.52 56.26 2.00 161.43 3274.11
   08:49:53.045.15-Aug-2021 3421.80 5247.87 56.26 2.00 161.63 3274.11
   08:49:53.245.15-Aug-2021 3421.80 5248.19 56.26 2.00 161.83 3274.11
   08:49:53.445.15-Aug-2021 3421.80 5248.34 56.26 2.00 162.03 3274.11
   08:49:53.645.15-Aug-2021 3421.80 5248.34 56.26 2.00 162.23 3274.11
   08:49:53.845.15-Aug-2021 3421.80 5248.34 56.26 2.00 162.43 3274.11
   08:49:54.045.15-Aug-2021 3421.80 5248.60 56.26 2.00 162.63 3274.11
   08:49:54.245.15-Aug-2021 3421.80 5248.87 56.26 2.00 162.83 3274.11
   08:49:54.445.15-Aug-2021 3421.80 5249.01 56.26 2.00 163.03 3274.11
   08:49:54.645.15-Aug-2021 3421.80 5249.01 56.26 2.00 163.23 3274.11
   08:49:54.845.15-Aug-2021 3421.80 5249.16 56.26 2.00 163.43 3274.11
   08:49:55.045.15-Aug-2021 3421.80 5249.51 56.26 2.00 163.63 3274.11
   08:49:55.245.15-Aug-2021 3421.80 5249.79 56.26 2.00 163.83 3274.11
   08:49:55.445.15-Aug-2021 3421.80 5250.10 56.26 2.00 164.03 3274.11
   08:49:55.645.15-Aug-2021 3421.80 5250.10 56.26 2.00 164.23 3274.11
   08:49:55.845.15-Aug-2021 3421.80 5250.33 56.26 2.00 164.43 3274.11
   08:49:56.045.15-Aug-2021 3421.80 5250.61 56.26 2.00 164.63 3274.11
   08:49:56.246.15-Aug-2021 3421.80 5250.36 56.26 2.00 164.83 3274.11
   08:49:56.446.15-Aug-2021 3421.80 5250.52 56.26 2.00 165.03 3274.11
   08:49:56.646.15-Aug-2021 3421.80 5250.52 56.26 2.00 165.23 3274.11
   08:49:56.846.15-Aug-2021 3421.80 5251.22 56.26 2.00 165.43 3274.11
   08:49:57.046.15-Aug-2021 3421.80 5251.32 56.25 2.00 165.63 3274.11
   08:49:57.246.15-Aug-2021 3421.80 5251.33 56.25 2.00 165.83 3274.11
   08:49:57.446.15-Aug-2021 3421.80 5251.47 56.25 2.00 166.03 3274.11
   08:49:57.646.15-Aug-2021 3421.80 5251.47 56.25 2.00 166.23 3274.11
   08:49:57.846.15-Aug-2021 3421.80 5251.66 56.25 2.00 166.43 3274.11
   08:49:58.046.15-Aug-2021 3421.80 5251.64 56.25 2.00 166.63 3274.11
   08:49:58.246.15-Aug-2021 3421.80 5252.09 56.25 2.00 166.83 3274.11
   08:49:58.446.15-Aug-2021 3421.80 5252.31 56.25 2.00 167.03 3274.11
   08:49:58.646.15-Aug-2021 3421.80 5252.31 56.25 2.00 167.23 3274.11
   08:49:58.846.15-Aug-2021 3421.80 5252.41 56.25 2.00 167.43 3274.11
   08:49:59.046.15-Aug-2021 3421.80 5252.34 56.25 2.00 167.63 3274.11
   08:49:59.246.15-Aug-2021 3421.80 5252.83 56.25 2.00 167.83 3274.11
   08:49:59.446.15-Aug-2021 3421.80 5253.02 56.25 2.00 168.03 3274.11
   08:49:59.646.15-Aug-2021 3421.80 5253.02 56.25 2.00 168.23 3274.11
   08:49:59.846.15-Aug-2021 3421.80 5253.18 56.25 2.00 168.43 3274.11
   08:50:00.046.15-Aug-2021 3421.80 5253.34 56.25 2.00 168.63 3274.11
   08:50:00.246.15-Aug-2021 3421.80 5253.51 56.25 2.00 168.83 3274.11
   08:50:00.446.15-Aug-2021 3421.80 5253.68 56.25 2.00 169.03 3274.11
   08:50:00.646.15-Aug-2021 3421.80 5253.68 56.25 2.00 169.23 3274.11
   08:50:00.846.15-Aug-2021 3421.80 5253.60 56.25 2.00 169.43 3274.11
   08:50:01.046.15-Aug-2021 3421.80 5253.96 56.25 2.00 169.63 3274.11
   08:50:01.246.15-Aug-2021 3421.80 5254.11 56.25 2.00 169.83 3274.11
   08:50:01.446.15-Aug-2021 3421.80 5253.77 56.25 2.00 170.03 3274.11
   08:50:01.646.15-Aug-2021 3421.80 5253.77 56.25 2.00 170.23 3274.11
   08:50:01.846.15-Aug-2021 3421.80 5254.41 56.25 2.00 170.43 3274.11
   08:50:02.046.15-Aug-2021 3421.80 5254.75 56.25 2.00 170.63 3274.11
   08:50:02.246.15-Aug-2021 3421.80 5254.75 56.25 2.00 170.83 3274.11
   08:50:02.447.15-Aug-2021 3421.80 5254.68 56.25 2.00 171.03 3274.11
   08:50:02.647.15-Aug-2021 3421.80 5254.68 56.25 2.00 171.23 3274.11
   08:50:02.847.15-Aug-2021 3421.80 5255.07 56.25 2.00 171.43 3274.11
   08:50:03.047.15-Aug-2021 3421.80 5255.17 56.25 2.00 171.63 3274.11
   08:50:03.247.15-Aug-2021 3421.80 5255.21 56.25 2.00 171.83 3274.11
   08:50:03.447.15-Aug-2021 3421.80 5255.56 56.25 2.00 172.03 3274.11
   08:50:03.647.15-Aug-2021 3421.80 5255.56 56.25 2.00 172.23 3274.11
   08:50:03.847.15-Aug-2021 3421.80 3057.84 56.25 2.00 172.43 3274.11
   08:50:04.047.15-Aug-2021 3421.80 2892.66 56.25 2.00 172.63 3274.11
   08:50:04.247.15-Aug-2021 3421.80 2755.77 56.25 2.00 172.83 3274.11
   08:50:04.447.15-Aug-2021 3421.80 2627.22 56.25 2.00 173.03 3274.11
   08:50:04.647.15-Aug-2021 3421.80 2627.22 56.25 2.00 173.23 3274.11
   08:50:04.847.15-Aug-2021 3421.80 2353.99 56.24 2.00 173.43 3274.11
   08:50:05.047.15-Aug-2021 3421.80 2220.48 56.24 2.00 173.63 3274.11
   08:50:05.247.15-Aug-2021 3421.80 2112.50 56.24 2.00 173.83 3274.11
   08:50:05.447.15-Aug-2021 3421.80 2021.06 56.24 2.00 174.03 3274.11
   08:50:05.647.15-Aug-2021 3421.80 2021.06 56.24 2.00 174.23 3274.11
   08:50:05.847.15-Aug-2021 3421.80 1829.96 56.24 2.00 174.43 3274.11
   08:50:06.047.15-Aug-2021 3421.80 1746.66 56.23 2.00 174.63 3274.11
   08:50:06.247.15-Aug-2021 3421.80 1711.14 56.23 2.00 174.83 3274.11
   08:50:06.447.15-Aug-2021 3421.80 1710.34 56.23 2.00 175.03 3274.11
   08:50:06.647.15-Aug-2021 3421.80 1710.34 56.23 2.00 175.23 3274.11
   08:50:06.847.15-Aug-2021 3421.80 1727.18 56.22 2.00 175.43 3274.11
   08:50:07.047.15-Aug-2021 3421.80 1714.13 56.22 2.00 175.63 3274.11
   08:50:07.247.15-Aug-2021 3421.80 1705.12 56.22 2.00 175.83 3274.11
   08:50:07.447.15-Aug-2021 3421.80 1704.78 56.22 2.00 176.03 3274.11
   08:50:07.647.15-Aug-2021 3421.80 1704.78 56.22 2.00 176.23 3274.11
   08:50:07.847.15-Aug-2021 3421.80 1704.78 56.22 2.00 176.43 3274.11
   08:50:08.047.15-Aug-2021 3421.80 1703.87 56.21 2.00 176.63 3274.11
   08:50:08.247.15-Aug-2021 3421.80 1703.77 56.20 2.00 176.83 3274.11
   08:50:08.448.15-Aug-2021 3421.80 1701.72 56.20 2.00 177.03 3274.11
   08:50:08.648.15-Aug-2021 3421.80 1701.72 56.20 2.00 177.23 3274.11
   08:50:08.848.15-Aug-2021 3421.80 1702.87 56.20 2.00 177.43 3274.11
   08:50:09.048.15-Aug-2021 3421.80 1701.12 56.19 2.00 177.63 3274.11
   08:50:09.248.15-Aug-2021 3421.80 1698.06 56.19 2.00 177.83 3274.11
   08:50:09.448.15-Aug-2021 3421.80 1698.26 56.19 2.00 178.03 3274.11
   08:50:09.648.15-Aug-2021 3421.80 1698.26 56.19 2.00 178.23 3274.11
   08:50:09.848.15-Aug-2021 3421.80 1715.07 56.18 2.00 178.43 3274.11
   08:50:10.048.15-Aug-2021 3421.80 1708.64 56.18 2.00 178.63 3274.11
   08:50:10.248.15-Aug-2021 3421.80 1708.81 56.18 2.00 178.83 3274.11
   08:50:10.448.15-Aug-2021 3421.80 1705.09 56.18 2.00 179.03 3274.11
   08:50:10.648.15-Aug-2021 3421.80 1705.09 56.18 2.00 179.23 3274.11
   08:50:10.848.15-Aug-2021 3421.80 1702.68 56.17 2.00 179.43 3274.11
   08:50:11.048.15-Aug-2021 3421.80 1703.14 56.17 2.00 179.63 3274.11
   08:50:11.248.15-Aug-2021 3421.80 1711.08 56.17 2.00 179.83 3274.11
   08:50:11.448.15-Aug-2021 3421.80 1703.48 56.17 2.00 180.03 3274.11
   08:50:11.648.15-Aug-2021 3421.80 1703.48 56.17 2.00 180.23 3274.11
   08:50:11.848.15-Aug-2021 3421.80 1699.91 56.16 2.00 180.43 3274.11
   08:50:12.048.15-Aug-2021 3421.80 1699.59 56.16 2.00 180.63 3274.11
   08:50:12.248.15-Aug-2021 3421.80 1700.54 56.16 2.00 180.83 3274.11
   08:50:12.448.15-Aug-2021 3421.80 1700.38 56.16 2.00 181.03 3274.11
   08:50:12.648.15-Aug-2021 3421.80 1700.38 56.16 2.00 181.23 3274.11
   08:50:12.848.15-Aug-2021 3421.80 1702.77 56.16 2.00 181.43 3274.11
   08:50:13.048.15-Aug-2021 3421.80 1704.41 56.15 2.00 181.63 3274.11
   08:50:13.248.15-Aug-2021 3421.80 1703.18 56.15 2.00 181.83 3274.11
   08:50:13.448.15-Aug-2021 3421.80 1700.03 56.15 2.00 182.03 3274.11
   08:50:13.648.15-Aug-2021 3421.80 1700.03 56.15 2.00 182.23 3274.11
   08:50:13.848.15-Aug-2021 3421.80 1700.03 56.15 2.00 182.43 3274.11
   08:50:14.048.15-Aug-2021 3421.80 1708.01 56.15 2.00 182.63 3274.11
   08:50:14.248.15-Aug-2021 3421.80 1848.11 56.15 2.00 182.83 3274.11
   08:50:14.448.15-Aug-2021 3421.80 2012.29 56.15 2.00 183.03 3274.11
   08:50:14.649.15-Aug-2021 3421.80 2012.29 56.15 2.00 183.23 3274.11
   08:50:14.849.15-Aug-2021 3421.80 2295.04 56.15 2.00 183.43 3274.11
   08:50:15.049.15-Aug-2021 3421.80 2421.25 56.14 2.00 183.63 3274.11
   08:50:15.249.15-Aug-2021 3421.80 2536.74 56.14 2.00 183.83 3274.11
