~Version Information
 VERS.                  2.0:   CWLS log ASCII Standard -VERSION 2.0
 WRAP.                   NO:   One line per depth step
~Well Information Block
#MNEM.UNIT     VALUE/NAME     DESCRIPTION
#---------     -----------    ---------------------------
 STRT.S             08:47:11 15-Aug-21: START TIME 08:47:11 15-Aug-21
 STOP.S             08:54:08 15-Aug-21: STOP TIME  08:54:08 15-Aug-21
 STEP.S                   0.00: STEP TIME
 NULL.                 -999.25: NULL VALUE
 DFWT.                        :  DIST FWL TEXT
 DFST.                        :  DIST FSL TEXT
 DMF .             Drill Floor:  DRILL MEAS FROM
 STIM.      17.18.56 20-Jun-21:  START TIME
 DATE.      17.18.56 20-Aug-21:  END TIME
 SPUD.               20-Jun-21:  SPUD DATE
 NREF.                    Grid:  NORTH REFERENCE
 HPTY.       Minimum Curvature:  HOLE POS TYPE
 DMOD.             Drill Model:  DRILL MOD DESC
 SVYD.                  Survey:  SURVEY DESC
 ILTD.               Lithology:  INTERP LTH DESC
 FTOP.          Formation Tops:  FORM TOPS DESC
 SON .        AZ-XX-0907056190:  JOB NUMBER
 PDAT.       Caspian Sea Level:  PERMANENT DATUM
 WTYP.                Deviated:  WELL TYPE
 MDS .        Operator Entered:  MAG DATA SOURCE
 COMP.     BP Exploration (Caspian Sea) Ltd.:  COMPANY
 UWI .            /AZE20000092:  UNIQUE WELL IDENTIFIER
 API .            /AZE20000092:  API NUMBER
 BASE.              Azerbaijan:  LOGGING EQUIPMENT BASE LOCATION
 REGN.                   EESSA:  REGION
 PROV.                    baku:  PROVINCE
 STAT.                    baku:  STATE NAME
 CTRY.              Azerbaijan:  COUNTRY NAME
 FLD .                     ACG:  FIELD NAME
 SRVC.          Turan Drilling:  CONTRACTOR
 MWDS.                    Baku:  MWD SHOP
 WELL.                     J26:  WELL NAME
 JOBN.        AZ-XX-0907056190:  JOB TICKET NUMB
 RIG .             West Chirag:  RIG NAME
 DOE .                     N/A:  DOE NUMBER
 DCON.         Sperry Drilling:  DIRECTNL CONTR
 UNIT.                     N/A:  LOGGING EQUIPMENT ID
 CNTY.                        :  COUNTY
 LOC .                        :  LOCATION
 LMF .             Drill Floor:  LOG MEASURED FROM
 TVDS.m                  43.00:  TVDSS CORRECTN
 LATI.deg                40.13:  LATITUDE
 LONG.deg                51.22:  LONGITUDE
 WHNS.m                  -7.12:  WELL HEAD N/S
 WHEW.m                  -9.46:  WELL HEAD E/W
 UTMX.m              519004.02:  UTM X
 UTMY.m             4443784.96:  UTM Y
 DFWL.m                   0.00:  DISTANCE FWL
 DFSL.m                   0.00:  DISTANCE FSL
 SDEP.m                 464.00:  START DEPTH
 TDD .m                3500.00:  TOTAL DEPTH (DRILLER)
 VSDR.deg               114.35:  VERT SEC DIRECT
 GVFD.g                   1.00:  GRAVITY FIELD
 MFLD.nT              50386.00:  MAGNETIC FIELD
 MDIP.deg                59.63:  MAGNETIC DIP
 MDEC.deg                 6.43:  MAGNETIC DECL
 GRDC.deg                 0.15:  GRID CORRECTION
 AZTC.deg                 6.29:  AZM TOTAL CORR
 EPD .m                   0.00:  ELEVATION
 EGL .m                   0.00:  GROUND ELEVATION
 WDMS.m                 169.80:  WD ELEV
 APD .m                  43.00:  DEPTH ABOVE PD
 VSEW.m                  -9.46:  VERT SEC E/W
 VSNS.m                  -7.12:  VERT SEC N/S
 AGAP.m                  43.00:  AIR GAP
 DEP .m                 356.16:  DEPTH
 EKB .m                  43.00:  KB ELEVATION
 EDF .m                  43.00:  DF ELEVATION
 TDL .m                 699.00:  TOTAL DEPTH (LOGGER)
 VSC .                       0:  VS TO CLOSURE
 MAGU.                 1853727:  MAGUTM CHECKSUM
~Parameter Information Block
#MNEM.UNIT       Value        Description
#---------     -----------    ---------------------------
 AV  .mps                 1.30:  Ann Velocity 
 AVMX.mps                 1.67:  Max Ann Veloc 
 AZIF.deg               280.40:  Azm, Final 
 BHAT.        Rotary Steerable:  BHA Type 
 BREV.rev            528970.00:  Rev Bit Total 
 BROT.°/30m               1.00:  Build Rotating 
 BS  .in                 12.25:  Bit Size 
 BSZ .in                 12.25:  Bit Size 
 BTPL.psig              738.00:  Bit Press Loss 
 CABU.                     Yes:  Customer Abuse 
 CGEO.        Elvin Suleymanov:  Customer Geo 
 COMM.                     äji:  Run Comments 1 
 TCS .hr                 66.05:  Time Ciculation Ended 
 CV  .mps                 2.20:  Crit Velocity 
 CVMX.mps                 2.56:  Max Crit Veloc 
 DD1 .          Rashad Habibov:  Direct Drillr 1 
 DD2 .            Azer ravanov:  Direct Drillr 2 
 DD3 .           Teymur Agayev:  Direct Drillr 3 
 DDSV.               Geo-Pilot:  DD Service 
 DEFF.%                  90.00:  % Det Eff 
 DLRX.°/30m               2.95:  Dogleg Rot Max 
 DLSO.°/30m               1.00:  Dogleg Oriented 
 DLSX.°/30m               2.95:  Dogleg Str Max 
 DRET.      11.42.20 11-Aug-21:  Drill End Time 
 DRST.      23.03.20 08-Aug-21:  Drill Start Tim 
 DTIM.hr                 45.50:  Time Drilling 
 EDEP.m                3488.00:  End Depth 
 ENG1.         Marcelo Marcari:  Engineer 1 
 ENG2.         Dair Mahammadov:  Engineer 2 
 ENG3.       Davud Huseyn-zada:  Engineer 3 
 ENG4.         Yevgeniy Ulikov:  Engineer 4 
 ETIM.      17.45.20 17-Aug-21:  End Time 
 FLOI.gpm              1197.70:  Flow In 
 FLON.gpm              1100.00:  Flow In Min 
 FLOS.cptm                0.00:  Fluid Loss 
 FLOX.gpm              1200.00:  Flow In Max 
 DFT .        Mineral Oil Base:  Mud Type 
 FTRO.       Formation Presure:  FTWD Run Obj 
 HFLO.                      No:  High Flow 
 HPRE.                      No:  High Pressure 
 HTEM.                      No:  High Temp 
 HYDO.m                   1.80:  Hydro Offset 
 IFIN.deg                 9.87:  Inc, Final 
 IMAX.deg                19.96:  Inc Max 
 IMIN.deg                 3.82:  Inc Min 
 IMND.m                3257.42:  Inc Min Depth 
 IMXD.m                2945.53:  Inc Max Depth 
 JARR.                      No:  Jarring 
 LETM.      11.42.20 11-Aug-21:  Log End Time 
 LOST.hr                     0:  Lost Rig Time 
 LSTM.      23.03.20 08-Aug-21:  Log Start Time 
 MDCL.ppm             42500.00:  Mud Chlorides 
 MDES.     Inversion Oil/Synthetic:  Mud Desc 
 DFD .sg                  1.45:  Mud Density 
 MDMN.sg                  1.39:  Dens Mud Min 
 MDMX.sg                  1.57:  Dens Mud Max 
 MOIL.                   53.20:  Run Mud Oil % 
 MOWR.                   70:30:  Run Mud OWR 
 MSND.                       0:  Run Mud Sand % 
 MSOL.                   24.30:  Run Mud Solids% 
 DFV .spqt               79.00:  Mud Viscosity 
 MWOD.in                  8.00:  MWD Tool OD 
 MWSI.                      No:  Serv Intrp, MWD 
 OTIM.hr                253.06:  Time Operating 
 PCON.           Look Like New:  Pad Condition 
 PMAX.psia            11068.93:  Press Op, Max 
 PV  .cP                 36.00:  Mud PV 
 RUN .                    1000:  Run Number 
 ROPA.m/hr               15.34:  ROP Avg 
 ROPN.m/hr                4.00:  ROP Min 
 ROPX.m/hr               31.00:  ROP Max 
 RPMA.rpm               151.40:  RPM Surface Avg 
 RPMN.rpm               120.00:  RPM Surface Min 
 RPMX.rpm               160.00:  RPM Surface Max 
 RRUN.                    L505:  Rig Run Number 
 RTIM.hr                 10.00:  Time Reaming 
 SAZI.deg                88.92:  Azm, Start 
 SDEP.m                2789.00:  Start Depth 
 SIDD.                      No:  Serv Intrp, DD 
 SINC.deg                19.84:  Inc, Start 
 SPPA.psig             4421.39:  SPP Avg 
 SPPN.psig             4130.00:  SPP Min 
 SPPX.psig             4800.00:  SPP Max 
 STIM.      01.25.20 07-Aug-21:  Start Time 
 SVCS.                 DD, MWD:  Services 
 SVER.                    9.20:  Sperry Version 
 TDAT.m                 699.00:  Tot Depth Attmp 
 TDDF.                      No:  Trip for DD 
 TDLG.m                 699.00:  Tot Depth Loggd 
 TFF .                      No:  Trip for Fail 
 TQAA.f-kp               20.55:  Torque Abs Avg 
 TQAN.f-kp               15.00:  Torque Abs Min 
 TQAX.f-kp               24.00:  Torque Abs Max 
 TRRT.°/30m               0.50:  Turn Rotating 
 MRT .                    HCIM:  Maximum Recorded Temperature 
 TTMX.degC               82.35:  Max Tool Temp 
 VS01.                90654677:  Virtual Str1 SN 
 VS02.                90636294:  Virtual Str2 SN 
 VS03.                90653866:  Virtual Str3 SN 
 VS04.                90654674:  Virtual Str4 SN 
 WBMN.klb                10.00:  WOB Min 
 WITN.         Haytham Mostafa:  Customer Rep 
 WITN.           Rufat Babayev:  Customer Rep 2 
 WOBA.klb                22.43:  WOB Avg 
 WOBX.klb                35.00:  WOB Max 
 YP  .lhf2               32.00:  Yield Point 
~Curve Information Block
#MNEM.UNIT                 API CODE     Curve Description
#---------               -----------    ---------------------------
 TIME.HHMMSS            00 000 000 000:  GT Time & Date
 GTDEPTH.m              00 000 000 000:  GT Depth
 GTPQH.psia             00 000 000 000:  GT HR Quartz Pressure
 GTTQ.degC              00 000 000 000:  GT Quartz Temperature
 GTTN.NONE              00 000 000 000:  GT Test Number
 GTET.sec               00 000 000 000:  GT Elapsed Test Time
 GTTVD.m                00 000 000 000:  GT True Vertical Depth
#Other Information
#
#WARRANTY: Halliburton will use its best efforts to furnish customers with 
#accurate information and interpretations that are part of, and incident to, the services 
#provided.  However, Halliburton cannot and does not warrant the accuracy 
#or correctness of such information and interpretations.  Under no circumstances should any 
#such information or interpretation be relied upon as the sole basis for any drilling, 
#completion, production, or financial decision or any procedure involving any risk to the 
#safety of any drilling venture, drilling rig or its crew or any other third party.  The 
#Customer has full responsibility for all drilling, completion and production operation.  
#Halliburton makes no representations or warranties, either expressed or 
#implied, including, but not limited to, the implied warranties of merchantability or fitness 
#for a particular purpose, with respect to the services rendered.  In no event will 
#Halliburton be liable for failure to obtain any particular results or for 
#any damages, including, but not limited to, indirect, special or consequential damages, 
#resulting from the use of any information or interpretation provided by Halliburton.
#
~A           TIME           GTDEPTH  GTPQH  GTTQ  GTTN  GTET   GTTVD  
# ...
   08:51:24.460.15-Aug-2021 3421.80 5155.83 56.18 2.00 253.04 3274.11
   08:51:24.660.15-Aug-2021 3421.80 5155.83 56.18 2.00 253.24 3274.11
   08:51:24.860.15-Aug-2021 3421.80 5156.86 56.18 2.00 253.44 3274.11
   08:51:25.060.15-Aug-2021 3421.80 5157.15 56.18 2.00 253.64 3274.11
   08:51:25.260.15-Aug-2021 3421.80 5157.36 56.18 2.00 253.84 3274.11
   08:51:25.460.15-Aug-2021 3421.80 5157.88 56.18 2.00 254.04 3274.11
   08:51:25.660.15-Aug-2021 3421.80 5157.88 56.18 2.00 254.24 3274.11
   08:51:25.860.15-Aug-2021 3421.80 5158.64 56.18 2.00 254.44 3274.11
   08:51:26.060.15-Aug-2021 3421.80 5159.04 56.18 2.00 254.64 3274.11
   08:51:26.260.15-Aug-2021 3421.80 5159.68 56.18 2.00 254.84 3274.11
   08:51:26.460.15-Aug-2021 3421.80 5159.46 56.18 2.00 255.04 3274.11
   08:51:26.660.15-Aug-2021 3421.80 5159.46 56.18 2.00 255.24 3274.11
   08:51:26.860.15-Aug-2021 3421.80 5160.44 56.18 2.00 255.44 3274.11
   08:51:27.060.15-Aug-2021 3421.80 5160.75 56.18 2.00 255.64 3274.11
   08:51:27.260.15-Aug-2021 3421.80 5161.14 56.18 2.00 255.84 3274.11
   08:51:27.460.15-Aug-2021 3421.80 5161.03 56.18 2.00 256.04 3274.11
   08:51:27.660.15-Aug-2021 3421.80 5161.03 56.18 2.00 256.24 3274.11
   08:51:27.861.15-Aug-2021 3421.80 5162.17 56.18 2.00 256.44 3274.11
   08:51:28.061.15-Aug-2021 3421.80 5162.68 56.18 2.00 256.64 3274.11
   08:51:28.261.15-Aug-2021 3421.80 5162.47 56.18 2.00 256.84 3274.11
   08:51:28.461.15-Aug-2021 3421.80 5162.77 56.18 2.00 257.04 3274.11
   08:51:28.661.15-Aug-2021 3421.80 5162.77 56.18 2.00 257.24 3274.11
   08:51:28.861.15-Aug-2021 3421.80 5163.72 56.18 2.00 257.44 3274.11
   08:51:29.061.15-Aug-2021 3421.80 5163.98 56.18 2.00 257.64 3274.11
   08:51:29.261.15-Aug-2021 3421.80 5164.17 56.18 2.00 257.84 3274.11
   08:51:29.461.15-Aug-2021 3421.80 5164.37 56.18 2.00 258.04 3274.11
   08:51:29.661.15-Aug-2021 3421.80 5164.37 56.18 2.00 258.24 3274.11
   08:51:29.861.15-Aug-2021 3421.80 5165.12 56.18 2.00 258.44 3274.11
   08:51:30.061.15-Aug-2021 3421.80 5165.42 56.18 2.00 258.64 3274.11
   08:51:30.261.15-Aug-2021 3421.80 5165.74 56.18 2.00 258.84 3274.11
   08:51:30.461.15-Aug-2021 3421.80 5165.88 56.18 2.00 259.04 3274.11
   08:51:30.661.15-Aug-2021 3421.80 5165.88 56.18 2.00 259.24 3274.11
   08:51:30.861.15-Aug-2021 3421.80 5166.39 56.18 2.00 259.44 3274.11
   08:51:31.061.15-Aug-2021 3421.80 5166.55 56.18 2.00 259.64 3274.11
   08:51:31.261.15-Aug-2021 3421.80 5166.63 56.18 2.00 259.84 3274.11
   08:51:31.461.15-Aug-2021 3421.80 5166.76 56.18 2.00 260.04 3274.11
   08:51:31.661.15-Aug-2021 3421.80 5166.76 56.18 2.00 260.24 3274.11
   08:51:31.861.15-Aug-2021 3421.80 5167.79 56.17 2.00 260.44 3274.11
   08:51:32.061.15-Aug-2021 3421.80 5168.08 56.17 2.00 260.64 3274.11
   08:51:32.261.15-Aug-2021 3421.80 5168.20 56.17 2.00 260.84 3274.11
   08:51:32.461.15-Aug-2021 3421.80 5168.61 56.17 2.00 261.04 3274.11
   08:51:32.661.15-Aug-2021 3421.80 5168.61 56.17 2.00 261.24 3274.11
   08:51:32.861.15-Aug-2021 3421.80 5169.30 56.17 2.00 261.44 3274.11
   08:51:33.061.15-Aug-2021 3421.80 5169.49 56.17 2.00 261.64 3274.11
   08:51:33.261.15-Aug-2021 3421.80 5169.66 56.17 2.00 261.84 3274.11
   08:51:33.461.15-Aug-2021 3421.80 5169.90 56.17 2.00 262.04 3274.11
   08:51:33.661.15-Aug-2021 3421.80 5169.90 56.17 2.00 262.24 3274.11
   08:51:33.861.15-Aug-2021 3421.80 5169.90 56.17 2.00 262.44 3274.11
   08:51:34.062.15-Aug-2021 3421.80 5170.76 56.17 2.00 262.64 3274.11
   08:51:34.262.15-Aug-2021 3421.80 5170.89 56.17 2.00 262.84 3274.11
   08:51:34.462.15-Aug-2021 3421.80 5171.33 56.17 2.00 263.04 3274.11
   08:51:34.662.15-Aug-2021 3421.80 5171.33 56.17 2.00 263.24 3274.11
   08:51:34.862.15-Aug-2021 3421.80 5171.88 56.17 2.00 263.44 3274.11
   08:51:35.062.15-Aug-2021 3421.80 5172.06 56.17 2.00 263.64 3274.11
   08:51:35.262.15-Aug-2021 3421.80 5172.61 56.17 2.00 263.84 3274.11
   08:51:35.462.15-Aug-2021 3421.80 5172.45 56.17 2.00 264.04 3274.11
   08:51:35.662.15-Aug-2021 3421.80 5172.45 56.17 2.00 264.24 3274.11
   08:51:35.862.15-Aug-2021 3421.80 5173.33 56.17 2.00 264.44 3274.11
   08:51:36.062.15-Aug-2021 3421.80 5174.00 56.17 2.00 264.64 3274.11
   08:51:36.262.15-Aug-2021 3421.80 5173.58 56.17 2.00 264.84 3274.11
   08:51:36.462.15-Aug-2021 3421.80 5173.88 56.17 2.00 265.04 3274.11
   08:51:36.662.15-Aug-2021 3421.80 5173.88 56.17 2.00 265.24 3274.11
   08:51:36.862.15-Aug-2021 3421.80 5174.69 56.17 2.00 265.44 3274.11
   08:51:37.062.15-Aug-2021 3421.80 5174.90 56.17 2.00 265.64 3274.11
   08:51:37.262.15-Aug-2021 3421.80 5175.42 56.17 2.00 265.84 3274.11
   08:51:37.462.15-Aug-2021 3421.80 5175.22 56.17 2.00 266.04 3274.11
   08:51:37.662.15-Aug-2021 3421.80 5175.22 56.17 2.00 266.24 3274.11
   08:51:37.862.15-Aug-2021 3421.80 5175.88 56.17 2.00 266.44 3274.11
   08:51:38.062.15-Aug-2021 3421.80 5176.07 56.17 2.00 266.64 3274.11
   08:51:38.262.15-Aug-2021 3421.80 5176.16 56.17 2.00 266.84 3274.11
   08:51:38.462.15-Aug-2021 3421.80 5176.28 56.17 2.00 267.04 3274.11
   08:51:38.662.15-Aug-2021 3421.80 5176.28 56.17 2.00 267.24 3274.11
   08:51:38.862.15-Aug-2021 3421.80 5176.61 56.17 2.00 267.44 3274.11
   08:51:39.062.15-Aug-2021 3421.80 5176.77 56.17 2.00 267.64 3274.11
   08:51:39.262.15-Aug-2021 3421.80 5176.90 56.17 2.00 267.84 3274.11
   08:51:39.462.15-Aug-2021 3421.80 5177.36 56.17 2.00 268.04 3274.11
   08:51:39.662.15-Aug-2021 3421.80 5177.36 56.17 2.00 268.24 3274.11
   08:51:39.862.15-Aug-2021 3421.80 5178.07 56.17 2.00 268.44 3274.11
   08:51:40.063.15-Aug-2021 3421.80 5178.28 56.17 2.00 268.64 3274.11
   08:51:40.263.15-Aug-2021 3421.80 5178.20 56.17 2.00 268.84 3274.11
   08:51:40.463.15-Aug-2021 3421.80 5178.60 56.17 2.00 269.04 3274.11
   08:51:40.663.15-Aug-2021 3421.80 5178.60 56.17 2.00 269.24 3274.11
   08:51:40.863.15-Aug-2021 3421.80 5179.29 56.17 2.00 269.44 3274.11
   08:51:41.063.15-Aug-2021 3421.80 5179.38 56.17 2.00 269.64 3274.11
   08:51:41.263.15-Aug-2021 3421.80 5179.49 56.17 2.00 269.84 3274.11
   08:51:41.463.15-Aug-2021 3421.80 5179.91 56.17 2.00 270.04 3274.11
   08:51:41.663.15-Aug-2021 3421.80 5179.91 56.17 2.00 270.24 3274.11
   08:51:41.863.15-Aug-2021 3421.80 5180.20 56.16 2.00 270.44 3274.11
   08:51:42.063.15-Aug-2021 3421.80 5180.33 56.16 2.00 270.64 3274.11
   08:51:42.263.15-Aug-2021 3421.80 5180.79 56.16 2.00 270.84 3274.11
   08:51:42.463.15-Aug-2021 3421.80 5180.63 56.16 2.00 271.04 3274.11
   08:51:42.663.15-Aug-2021 3421.80 5180.63 56.16 2.00 271.24 3274.11
   08:51:42.863.15-Aug-2021 3421.80 5181.35 56.16 2.00 271.44 3274.11
   08:51:43.063.15-Aug-2021 3421.80 5181.60 56.16 2.00 271.64 3274.11
   08:51:43.263.15-Aug-2021 3421.80 5181.93 56.16 2.00 271.84 3274.11
   08:51:43.463.15-Aug-2021 3421.80 5181.82 56.16 2.00 272.04 3274.11
   08:51:43.663.15-Aug-2021 3421.80 5181.82 56.16 2.00 272.24 3274.11
   08:51:43.863.15-Aug-2021 3421.80 5182.77 56.16 2.00 272.44 3274.11
   08:51:44.063.15-Aug-2021 3421.80 5183.11 56.16 2.00 272.64 3274.11
   08:51:44.263.15-Aug-2021 3421.80 5182.84 56.16 2.00 272.84 3274.11
   08:51:44.463.15-Aug-2021 3421.80 5183.21 56.16 2.00 273.04 3274.11
   08:51:44.663.15-Aug-2021 3421.80 5183.21 56.16 2.00 273.24 3274.11
   08:51:44.863.15-Aug-2021 3421.80 5183.94 56.16 2.00 273.44 3274.11
   08:51:45.063.15-Aug-2021 3421.80 5184.42 56.16 2.00 273.64 3274.11
   08:51:45.263.15-Aug-2021 3421.80 5184.07 56.16 2.00 273.84 3274.11
   08:51:45.463.15-Aug-2021 3421.80 5184.43 56.16 2.00 274.04 3274.11
   08:51:45.663.15-Aug-2021 3421.80 5184.43 56.16 2.00 274.24 3274.11
   08:51:45.863.15-Aug-2021 3421.80 5184.67 56.16 2.00 274.44 3274.11
   08:51:46.063.15-Aug-2021 3421.80 5184.72 56.16 2.00 274.64 3274.11
   08:51:46.264.15-Aug-2021 3421.80 5184.81 56.16 2.00 274.84 3274.11
   08:51:46.464.15-Aug-2021 3421.80 5184.97 56.16 2.00 275.05 3274.11
   08:51:46.664.15-Aug-2021 3421.80 5184.97 56.16 2.00 275.25 3274.11
   08:51:46.864.15-Aug-2021 3421.80 5185.21 56.16 2.00 275.45 3274.11
   08:51:47.064.15-Aug-2021 3421.80 5185.31 56.16 2.00 275.65 3274.11
   08:51:47.264.15-Aug-2021 3421.80 5185.71 56.16 2.00 275.85 3274.11
