~Version Information
 VERS.                  2.0:   CWLS log ASCII Standard -VERSION 2.0
 WRAP.                   NO:   One line per depth step
~Well Information Block
#MNEM.UNIT     VALUE/NAME     DESCRIPTION
#---------     -----------    ---------------------------
 STRT.S             12:25:56 15-Aug-21: START TIME 12:25:56 15-Aug-21
 STOP.S             12:39:05 15-Aug-21: STOP TIME  12:39:05 15-Aug-21
 STEP.S                   0.00: STEP TIME
 NULL.                 -999.25: NULL VALUE
 DFWT.                        :  DIST FWL TEXT
 DFST.                        :  DIST FSL TEXT
 DMF .             Drill Floor:  DRILL MEAS FROM
 STIM.      17.18.56 20-Jun-21:  START TIME
 DATE.      17.18.56 20-Aug-21:  END TIME
 SPUD.               20-Jun-21:  SPUD DATE
 NREF.                    Grid:  NORTH REFERENCE
 HPTY.       Minimum Curvature:  HOLE POS TYPE
 DMOD.             Drill Model:  DRILL MOD DESC
 SVYD.                  Survey:  SURVEY DESC
 ILTD.               Lithology:  INTERP LTH DESC
 FTOP.          Formation Tops:  FORM TOPS DESC
 SON .        AZ-XX-0907056190:  JOB NUMBER
 PDAT.       Caspian Sea Level:  PERMANENT DATUM
 WTYP.                Deviated:  WELL TYPE
 MDS .        Operator Entered:  MAG DATA SOURCE
 COMP.     BP Exploration (Caspian Sea) Ltd.:  COMPANY
 UWI .            /AZE20000092:  UNIQUE WELL IDENTIFIER
 API .            /AZE20000092:  API NUMBER
 BASE.              Azerbaijan:  LOGGING EQUIPMENT BASE LOCATION
 REGN.                   EESSA:  REGION
 PROV.                    baku:  PROVINCE
 STAT.                    baku:  STATE NAME
 CTRY.              Azerbaijan:  COUNTRY NAME
 FLD .                     ACG:  FIELD NAME
 SRVC.          Turan Drilling:  CONTRACTOR
 MWDS.                    Baku:  MWD SHOP
 WELL.                     J26:  WELL NAME
 JOBN.        AZ-XX-0907056190:  JOB TICKET NUMB
 RIG .             West Chirag:  RIG NAME
 DOE .                     N/A:  DOE NUMBER
 DCON.         Sperry Drilling:  DIRECTNL CONTR
 UNIT.                     N/A:  LOGGING EQUIPMENT ID
 CNTY.                        :  COUNTY
 LOC .                        :  LOCATION
 LMF .             Drill Floor:  LOG MEASURED FROM
 TVDS.m                  43.00:  TVDSS CORRECTN
 LATI.deg                40.13:  LATITUDE
 LONG.deg                51.22:  LONGITUDE
 WHNS.m                  -7.12:  WELL HEAD N/S
 WHEW.m                  -9.46:  WELL HEAD E/W
 UTMX.m              519004.02:  UTM X
 UTMY.m             4443784.96:  UTM Y
 DFWL.m                   0.00:  DISTANCE FWL
 DFSL.m                   0.00:  DISTANCE FSL
 SDEP.m                 464.00:  START DEPTH
 TDD .m                3500.00:  TOTAL DEPTH (DRILLER)
 VSDR.deg               114.35:  VERT SEC DIRECT
 GVFD.g                   1.00:  GRAVITY FIELD
 MFLD.nT              50386.00:  MAGNETIC FIELD
 MDIP.deg                59.63:  MAGNETIC DIP
 MDEC.deg                 6.43:  MAGNETIC DECL
 GRDC.deg                 0.15:  GRID CORRECTION
 AZTC.deg                 6.29:  AZM TOTAL CORR
 EPD .m                   0.00:  ELEVATION
 EGL .m                   0.00:  GROUND ELEVATION
 WDMS.m                 169.80:  WD ELEV
 APD .m                  43.00:  DEPTH ABOVE PD
 VSEW.m                  -9.46:  VERT SEC E/W
 VSNS.m                  -7.12:  VERT SEC N/S
 AGAP.m                  43.00:  AIR GAP
 DEP .m                 356.16:  DEPTH
 EKB .m                  43.00:  KB ELEVATION
 EDF .m                  43.00:  DF ELEVATION
 TDL .m                 699.00:  TOTAL DEPTH (LOGGER)
 VSC .                       0:  VS TO CLOSURE
 MAGU.                 1853727:  MAGUTM CHECKSUM
~Parameter Information Block
#MNEM.UNIT       Value        Description
#---------     -----------    ---------------------------
 AV  .mps                 1.30:  Ann Velocity 
 AVMX.mps                 1.67:  Max Ann Veloc 
 AZIF.deg               280.40:  Azm, Final 
 BHAT.        Rotary Steerable:  BHA Type 
 BREV.rev            528970.00:  Rev Bit Total 
 BROT.°/30m               1.00:  Build Rotating 
 BS  .in                 12.25:  Bit Size 
 BSZ .in                 12.25:  Bit Size 
 BTPL.psig              738.00:  Bit Press Loss 
 CABU.                     Yes:  Customer Abuse 
 CGEO.        Elvin Suleymanov:  Customer Geo 
 COMM.                     ´3x:  Run Comments 1 
 TCS .hr                 66.05:  Time Ciculation Ended 
 CV  .mps                 2.20:  Crit Velocity 
 CVMX.mps                 2.56:  Max Crit Veloc 
 DD1 .          Rashad Habibov:  Direct Drillr 1 
 DD2 .            Azer ravanov:  Direct Drillr 2 
 DD3 .           Teymur Agayev:  Direct Drillr 3 
 DDSV.               Geo-Pilot:  DD Service 
 DEFF.%                  90.00:  % Det Eff 
 DLRX.°/30m               2.95:  Dogleg Rot Max 
 DLSO.°/30m               1.00:  Dogleg Oriented 
 DLSX.°/30m               2.95:  Dogleg Str Max 
 DRET.      11.42.20 11-Aug-21:  Drill End Time 
 DRST.      23.03.20 08-Aug-21:  Drill Start Tim 
 DTIM.hr                 45.50:  Time Drilling 
 EDEP.m                3488.00:  End Depth 
 ENG1.         Marcelo Marcari:  Engineer 1 
 ENG2.         Dair Mahammadov:  Engineer 2 
 ENG3.       Davud Huseyn-zada:  Engineer 3 
 ENG4.         Yevgeniy Ulikov:  Engineer 4 
 ETIM.      17.45.20 17-Aug-21:  End Time 
 FLOI.gpm              1197.70:  Flow In 
 FLON.gpm              1100.00:  Flow In Min 
 FLOS.cptm                0.00:  Fluid Loss 
 FLOX.gpm              1200.00:  Flow In Max 
 DFT .        Mineral Oil Base:  Mud Type 
 FTRO.       Formation Presure:  FTWD Run Obj 
 HFLO.                      No:  High Flow 
 HPRE.                      No:  High Pressure 
 HTEM.                      No:  High Temp 
 HYDO.m                   1.80:  Hydro Offset 
 IFIN.deg                 9.87:  Inc, Final 
 IMAX.deg                19.96:  Inc Max 
 IMIN.deg                 3.82:  Inc Min 
 IMND.m                3257.42:  Inc Min Depth 
 IMXD.m                2945.53:  Inc Max Depth 
 JARR.                      No:  Jarring 
 LETM.      11.42.20 11-Aug-21:  Log End Time 
 LOST.hr                     0:  Lost Rig Time 
 LSTM.      23.03.20 08-Aug-21:  Log Start Time 
 MDCL.ppm             42500.00:  Mud Chlorides 
 MDES.     Inversion Oil/Synthetic:  Mud Desc 
 DFD .sg                  1.45:  Mud Density 
 MDMN.sg                  1.39:  Dens Mud Min 
 MDMX.sg                  1.57:  Dens Mud Max 
 MOIL.                   53.20:  Run Mud Oil % 
 MOWR.                   70:30:  Run Mud OWR 
 MSND.                       0:  Run Mud Sand % 
 MSOL.                   24.30:  Run Mud Solids% 
 DFV .spqt               79.00:  Mud Viscosity 
 MWOD.in                  8.00:  MWD Tool OD 
 MWSI.                      No:  Serv Intrp, MWD 
 OTIM.hr                253.06:  Time Operating 
 PCON.           Look Like New:  Pad Condition 
 PMAX.psia            11068.93:  Press Op, Max 
 PV  .cP                 36.00:  Mud PV 
 RUN .                    1000:  Run Number 
 ROPA.m/hr               15.34:  ROP Avg 
 ROPN.m/hr                4.00:  ROP Min 
 ROPX.m/hr               31.00:  ROP Max 
 RPMA.rpm               151.40:  RPM Surface Avg 
 RPMN.rpm               120.00:  RPM Surface Min 
 RPMX.rpm               160.00:  RPM Surface Max 
 RRUN.                    L505:  Rig Run Number 
 RTIM.hr                 10.00:  Time Reaming 
 SAZI.deg                88.92:  Azm, Start 
 SDEP.m                2789.00:  Start Depth 
 SIDD.                      No:  Serv Intrp, DD 
 SINC.deg                19.84:  Inc, Start 
 SPPA.psig             4421.39:  SPP Avg 
 SPPN.psig             4130.00:  SPP Min 
 SPPX.psig             4800.00:  SPP Max 
 STIM.      01.25.20 07-Aug-21:  Start Time 
 SVCS.                 DD, MWD:  Services 
 SVER.                    9.20:  Sperry Version 
 TDAT.m                 699.00:  Tot Depth Attmp 
 TDDF.                      No:  Trip for DD 
 TDLG.m                 699.00:  Tot Depth Loggd 
 TFF .                      No:  Trip for Fail 
 TQAA.f-kp               20.55:  Torque Abs Avg 
 TQAN.f-kp               15.00:  Torque Abs Min 
 TQAX.f-kp               24.00:  Torque Abs Max 
 TRRT.°/30m               0.50:  Turn Rotating 
 MRT .                    HCIM:  Maximum Recorded Temperature 
 TTMX.degC               82.35:  Max Tool Temp 
 VS01.                90654677:  Virtual Str1 SN 
 VS02.                90636294:  Virtual Str2 SN 
 VS03.                90653866:  Virtual Str3 SN 
 VS04.                90654674:  Virtual Str4 SN 
 WBMN.klb                10.00:  WOB Min 
 WITN.         Haytham Mostafa:  Customer Rep 
 WITN.           Rufat Babayev:  Customer Rep 2 
 WOBA.klb                22.43:  WOB Avg 
 WOBX.klb                35.00:  WOB Max 
 YP  .lhf2               32.00:  Yield Point 
~Curve Information Block
#MNEM.UNIT                 API CODE     Curve Description
#---------               -----------    ---------------------------
 TIME.HHMMSS            00 000 000 000:  GT Time & Date
 GTDEPTH.m              00 000 000 000:  GT Depth
 GTPQH.psia             00 000 000 000:  GT HR Quartz Pressure
 GTTQ.degC              00 000 000 000:  GT Quartz Temperature
 GTTN.NONE              00 000 000 000:  GT Test Number
 GTET.sec               00 000 000 000:  GT Elapsed Test Time
 GTTVD.m                00 000 000 000:  GT True Vertical Depth
#Other Information
#
#WARRANTY: Halliburton will use its best efforts to furnish customers with 
#accurate information and interpretations that are part of, and incident to, the services 
#provided.  However, Halliburton cannot and does not warrant the accuracy 
#or correctness of such information and interpretations.  Under no circumstances should any 
#such information or interpretation be relied upon as the sole basis for any drilling, 
#completion, production, or financial decision or any procedure involving any risk to the 
#safety of any drilling venture, drilling rig or its crew or any other third party.  The 
#Customer has full responsibility for all drilling, completion and production operation.  
#Halliburton makes no representations or warranties, either expressed or 
#implied, including, but not limited to, the implied warranties of merchantability or fitness 
#for a particular purpose, with respect to the services rendered.  In no event will 
#Halliburton be liable for failure to obtain any particular results or for 
#any damages, including, but not limited to, indirect, special or consequential damages, 
#resulting from the use of any information or interpretation provided by Halliburton.
#
~A           TIME           GTDEPTH  GTPQH  GTTQ  GTTN  GTET   GTTVD  
# ...
   12:32:50.663.15-Aug-2021 3405.50 3424.91 52.37 6.00 413.75 3258.07
   12:32:50.863.15-Aug-2021 3405.50 3424.91 52.37 6.00 413.95 3258.07
   12:32:51.063.15-Aug-2021 3405.50 3427.09 52.37 6.00 414.15 3258.07
   12:32:51.263.15-Aug-2021 3405.50 3430.17 52.37 6.00 414.35 3258.07
   12:32:51.463.15-Aug-2021 3405.50 3431.93 52.37 6.00 414.55 3258.07
   12:32:51.663.15-Aug-2021 3405.50 3433.72 52.37 6.00 414.75 3258.07
   12:32:51.863.15-Aug-2021 3405.50 3433.72 52.37 6.00 414.95 3258.07
   12:32:52.063.15-Aug-2021 3405.50 3437.46 52.37 6.00 415.15 3258.07
   12:32:52.263.15-Aug-2021 3405.50 3439.01 52.37 6.00 415.35 3258.07
   12:32:52.462.15-Aug-2021 3405.50 3440.80 52.37 6.00 415.55 3258.07
   12:32:52.662.15-Aug-2021 3405.50 3442.47 52.37 6.00 415.75 3258.07
   12:32:52.862.15-Aug-2021 3405.50 3442.47 52.37 6.00 415.95 3258.07
   12:32:53.062.15-Aug-2021 3405.50 3446.02 52.38 6.00 416.15 3258.07
   12:32:53.262.15-Aug-2021 3405.50 3447.58 52.37 6.00 416.35 3258.07
   12:32:53.462.15-Aug-2021 3405.50 3449.35 52.37 6.00 416.55 3258.07
   12:32:53.662.15-Aug-2021 3405.50 3450.96 52.37 6.00 416.75 3258.07
   12:32:53.862.15-Aug-2021 3405.50 3450.96 52.37 6.00 416.95 3258.07
   12:32:54.061.15-Aug-2021 3405.50 3453.50 52.37 6.00 417.15 3258.07
   12:32:54.261.15-Aug-2021 3405.50 3455.15 52.37 6.00 417.35 3258.07
   12:32:54.461.15-Aug-2021 3405.50 3456.77 52.37 6.00 417.55 3258.07
   12:32:54.661.15-Aug-2021 3405.50 3458.46 52.37 6.00 417.75 3258.07
   12:32:54.861.15-Aug-2021 3405.50 3458.46 52.37 6.00 417.95 3258.07
   12:32:55.061.15-Aug-2021 3405.50 3460.15 52.37 6.00 418.15 3258.07
   12:32:55.261.15-Aug-2021 3405.50 3463.77 52.37 6.00 418.35 3258.07
   12:32:55.461.15-Aug-2021 3405.50 3465.47 52.37 6.00 418.55 3258.07
   12:32:55.660.15-Aug-2021 3405.50 3467.25 52.37 6.00 418.75 3258.07
   12:32:55.860.15-Aug-2021 3405.50 3467.25 52.37 6.00 418.95 3258.07
   12:32:56.060.15-Aug-2021 3405.50 3470.49 52.37 6.00 419.15 3258.07
   12:32:56.260.15-Aug-2021 3405.50 3472.15 52.37 6.00 419.35 3258.07
   12:32:56.460.15-Aug-2021 3405.50 3473.89 52.37 6.00 419.55 3258.07
   12:32:56.660.15-Aug-2021 3405.50 3475.63 52.37 6.00 419.75 3258.07
   12:32:56.860.15-Aug-2021 3405.50 3475.63 52.37 6.00 419.95 3258.07
   12:32:57.060.15-Aug-2021 3405.50 3479.42 52.37 6.00 420.15 3258.07
   12:32:57.260.15-Aug-2021 3405.50 3480.91 52.37 6.00 420.35 3258.07
   12:32:57.459.15-Aug-2021 3405.50 3482.54 52.37 6.00 420.55 3258.07
   12:32:57.659.15-Aug-2021 3405.50 3484.11 52.37 6.00 420.75 3258.07
   12:32:57.859.15-Aug-2021 3405.50 3484.11 52.37 6.00 420.95 3258.07
   12:32:58.059.15-Aug-2021 3405.50 3487.81 52.37 6.00 421.15 3258.07
   12:32:58.259.15-Aug-2021 3405.50 3489.61 52.37 6.00 421.35 3258.07
   12:32:58.459.15-Aug-2021 3405.50 3491.05 52.37 6.00 421.55 3258.07
   12:32:58.659.15-Aug-2021 3405.50 3492.66 52.37 6.00 421.75 3258.07
   12:32:58.859.15-Aug-2021 3405.50 3492.66 52.37 6.00 421.95 3258.07
   12:32:59.058.15-Aug-2021 3405.50 3496.17 52.37 6.00 422.15 3258.07
   12:32:59.258.15-Aug-2021 3405.50 3497.93 52.37 6.00 422.35 3258.07
   12:32:59.458.15-Aug-2021 3405.50 3499.10 52.37 6.00 422.55 3258.07
   12:32:59.658.15-Aug-2021 3405.50 3500.33 52.37 6.00 422.75 3258.07
   12:32:59.858.15-Aug-2021 3405.50 3500.33 52.37 6.00 422.95 3258.07
   12:33:00.058.15-Aug-2021 3405.50 3503.45 52.37 6.00 423.15 3258.07
   12:33:00.258.15-Aug-2021 3405.50 3504.95 52.37 6.00 423.35 3258.07
   12:33:00.458.15-Aug-2021 3405.50 3506.48 52.37 6.00 423.55 3258.07
   12:33:00.657.15-Aug-2021 3405.50 3508.13 52.37 6.00 423.75 3258.07
   12:33:00.857.15-Aug-2021 3405.50 3508.13 52.37 6.00 423.94 3258.07
   12:33:01.057.15-Aug-2021 3405.50 3511.69 52.37 6.00 424.14 3258.07
   12:33:01.257.15-Aug-2021 3405.50 3513.42 52.37 6.00 424.34 3258.07
   12:33:01.457.15-Aug-2021 3405.50 3514.89 52.37 6.00 424.54 3258.07
   12:33:01.657.15-Aug-2021 3405.50 3516.45 52.37 6.00 424.74 3258.07
   12:33:01.857.15-Aug-2021 3405.50 3516.45 52.37 6.00 424.94 3258.07
   12:33:02.057.15-Aug-2021 3405.50 3519.91 52.37 6.00 425.14 3258.07
   12:33:02.257.15-Aug-2021 3405.50 3521.49 52.37 6.00 425.34 3258.07
   12:33:02.456.15-Aug-2021 3405.50 3523.18 52.37 6.00 425.54 3258.07
   12:33:02.656.15-Aug-2021 3405.50 3524.77 52.37 6.00 425.74 3258.07
   12:33:02.856.15-Aug-2021 3405.50 3524.77 52.37 6.00 425.94 3258.07
   12:33:03.056.15-Aug-2021 3405.50 3526.55 52.37 6.00 426.14 3258.07
   12:33:03.256.15-Aug-2021 3405.50 3529.80 52.37 6.00 426.34 3258.07
   12:33:03.456.15-Aug-2021 3405.50 3531.39 52.37 6.00 426.54 3258.07
   12:33:03.656.15-Aug-2021 3405.50 3532.95 52.37 6.00 426.74 3258.07
   12:33:03.856.15-Aug-2021 3405.50 3532.95 52.37 6.00 426.94 3258.07
   12:33:04.055.15-Aug-2021 3405.50 3536.25 52.37 6.00 427.14 3258.07
   12:33:04.255.15-Aug-2021 3405.50 3537.98 52.37 6.00 427.34 3258.07
   12:33:04.455.15-Aug-2021 3405.50 3539.61 52.37 6.00 427.54 3258.07
   12:33:04.655.15-Aug-2021 3405.50 3541.14 52.37 6.00 427.74 3258.07
   12:33:04.855.15-Aug-2021 3405.50 3541.14 52.37 6.00 427.94 3258.07
   12:33:05.055.15-Aug-2021 3405.50 3544.55 52.37 6.00 428.14 3258.07
   12:33:05.255.15-Aug-2021 3405.50 3546.11 52.37 6.00 428.34 3258.07
   12:33:05.455.15-Aug-2021 3405.50 3547.57 52.37 6.00 428.54 3258.07
   12:33:05.654.15-Aug-2021 3405.50 3548.56 52.37 6.00 428.74 3258.07
   12:33:05.854.15-Aug-2021 3405.50 3548.56 52.37 6.00 428.94 3258.07
   12:33:06.054.15-Aug-2021 3405.50 3551.48 52.37 6.00 429.14 3258.07
   12:33:06.254.15-Aug-2021 3405.50 3553.03 52.37 6.00 429.34 3258.07
   12:33:06.454.15-Aug-2021 3405.50 3554.69 52.37 6.00 429.54 3258.07
   12:33:06.654.15-Aug-2021 3405.50 3556.19 52.37 6.00 429.74 3258.07
   12:33:06.854.15-Aug-2021 3405.50 3556.19 52.37 6.00 429.94 3258.07
   12:33:07.054.15-Aug-2021 3405.50 3559.54 52.37 6.00 430.14 3258.07
   12:33:07.254.15-Aug-2021 3405.50 3561.11 52.37 6.00 430.34 3258.07
   12:33:07.453.15-Aug-2021 3405.50 3562.77 52.37 6.00 430.54 3258.07
   12:33:07.653.15-Aug-2021 3405.50 3564.32 52.37 6.00 430.74 3258.07
   12:33:07.853.15-Aug-2021 3405.50 3564.32 52.37 6.00 430.94 3258.07
   12:33:08.053.15-Aug-2021 3405.50 3567.67 52.37 6.00 431.14 3258.07
   12:33:08.253.15-Aug-2021 3405.50 3569.45 52.37 6.00 431.34 3258.07
   12:33:08.453.15-Aug-2021 3405.50 3570.82 52.37 6.00 431.54 3258.07
   12:33:08.653.15-Aug-2021 3405.50 3572.34 52.37 6.00 431.74 3258.07
   12:33:08.853.15-Aug-2021 3405.50 3572.34 52.37 6.00 431.94 3258.07
   12:33:09.052.15-Aug-2021 3405.50 3575.69 52.37 6.00 432.14 3258.07
   12:33:09.252.15-Aug-2021 3405.50 3577.38 52.37 6.00 432.34 3258.07
   12:33:09.452.15-Aug-2021 3405.50 3578.83 52.37 6.00 432.54 3258.07
   12:33:09.652.15-Aug-2021 3405.50 3580.35 52.37 6.00 432.74 3258.07
   12:33:09.852.15-Aug-2021 3405.50 3580.35 52.37 6.00 432.94 3258.07
   12:33:10.052.15-Aug-2021 3405.50 3583.60 52.37 6.00 433.14 3258.07
   12:33:10.252.15-Aug-2021 3405.50 3585.18 52.37 6.00 433.34 3258.07
   12:33:10.452.15-Aug-2021 3405.50 3586.80 52.37 6.00 433.54 3258.07
   12:33:10.651.15-Aug-2021 3405.50 3588.24 52.37 6.00 433.74 3258.07
   12:33:10.851.15-Aug-2021 3405.50 3588.24 52.37 6.00 433.94 3258.07
   12:33:11.051.15-Aug-2021 3405.50 3591.78 52.37 6.00 434.14 3258.07
   12:33:11.251.15-Aug-2021 3405.50 3593.14 52.37 6.00 434.34 3258.07
   12:33:11.451.15-Aug-2021 3405.50 3594.59 52.37 6.00 434.54 3258.07
   12:33:11.651.15-Aug-2021 3405.50 3596.02 52.37 6.00 434.74 3258.07
   12:33:11.851.15-Aug-2021 3405.50 3596.02 52.37 6.00 434.94 3258.07
   12:33:12.051.15-Aug-2021 3405.50 3598.50 52.37 6.00 435.14 3258.07
   12:33:12.250.15-Aug-2021 3405.50 3599.73 52.37 6.00 435.34 3258.07
   12:33:12.450.15-Aug-2021 3405.50 3601.18 52.37 6.00 435.54 3258.07
   12:33:12.650.15-Aug-2021 3405.50 3603.03 52.37 6.00 435.74 3258.07
   12:33:12.850.15-Aug-2021 3405.50 3603.03 52.37 6.00 435.94 3258.07
   12:33:13.050.15-Aug-2021 3405.50 3605.98 52.37 6.00 436.14 3258.07
   12:33:13.250.15-Aug-2021 3405.50 3607.57 52.37 6.00 436.34 3258.07
   12:33:13.450.15-Aug-2021 3405.50 3609.12 52.37 6.00 436.54 3258.07
