~Version Information
 VERS.                  2.0:   CWLS log ASCII Standard -VERSION 2.0
 WRAP.                   NO:   One line per depth step
~Well Information Block
#MNEM.UNIT     VALUE/NAME     DESCRIPTION
#---------     -----------    ---------------------------
 STRT.S             12:25:56 15-Aug-21: START TIME 12:25:56 15-Aug-21
 STOP.S             12:39:05 15-Aug-21: STOP TIME  12:39:05 15-Aug-21
 STEP.S                   0.00: STEP TIME
 NULL.                 -999.25: NULL VALUE
 DFWT.                        :  DIST FWL TEXT
 DFST.                        :  DIST FSL TEXT
 DMF .             Drill Floor:  DRILL MEAS FROM
 STIM.      17.18.56 20-Jun-21:  START TIME
 DATE.      17.18.56 20-Aug-21:  END TIME
 SPUD.               20-Jun-21:  SPUD DATE
 NREF.                    Grid:  NORTH REFERENCE
 HPTY.       Minimum Curvature:  HOLE POS TYPE
 DMOD.             Drill Model:  DRILL MOD DESC
 SVYD.                  Survey:  SURVEY DESC
 ILTD.               Lithology:  INTERP LTH DESC
 FTOP.          Formation Tops:  FORM TOPS DESC
 SON .        AZ-XX-0907056190:  JOB NUMBER
 PDAT.       Caspian Sea Level:  PERMANENT DATUM
 WTYP.                Deviated:  WELL TYPE
 MDS .        Operator Entered:  MAG DATA SOURCE
 COMP.     BP Exploration (Caspian Sea) Ltd.:  COMPANY
 UWI .            /AZE20000092:  UNIQUE WELL IDENTIFIER
 API .            /AZE20000092:  API NUMBER
 BASE.              Azerbaijan:  LOGGING EQUIPMENT BASE LOCATION
 REGN.                   EESSA:  REGION
 PROV.                    baku:  PROVINCE
 STAT.                    baku:  STATE NAME
 CTRY.              Azerbaijan:  COUNTRY NAME
 FLD .                     ACG:  FIELD NAME
 SRVC.          Turan Drilling:  CONTRACTOR
 MWDS.                    Baku:  MWD SHOP
 WELL.                     J26:  WELL NAME
 JOBN.        AZ-XX-0907056190:  JOB TICKET NUMB
 RIG .             West Chirag:  RIG NAME
 DOE .                     N/A:  DOE NUMBER
 DCON.         Sperry Drilling:  DIRECTNL CONTR
 UNIT.                     N/A:  LOGGING EQUIPMENT ID
 CNTY.                        :  COUNTY
 LOC .                        :  LOCATION
 LMF .             Drill Floor:  LOG MEASURED FROM
 TVDS.m                  43.00:  TVDSS CORRECTN
 LATI.deg                40.13:  LATITUDE
 LONG.deg                51.22:  LONGITUDE
 WHNS.m                  -7.12:  WELL HEAD N/S
 WHEW.m                  -9.46:  WELL HEAD E/W
 UTMX.m              519004.02:  UTM X
 UTMY.m             4443784.96:  UTM Y
 DFWL.m                   0.00:  DISTANCE FWL
 DFSL.m                   0.00:  DISTANCE FSL
 SDEP.m                 464.00:  START DEPTH
 TDD .m                3500.00:  TOTAL DEPTH (DRILLER)
 VSDR.deg               114.35:  VERT SEC DIRECT
 GVFD.g                   1.00:  GRAVITY FIELD
 MFLD.nT              50386.00:  MAGNETIC FIELD
 MDIP.deg                59.63:  MAGNETIC DIP
 MDEC.deg                 6.43:  MAGNETIC DECL
 GRDC.deg                 0.15:  GRID CORRECTION
 AZTC.deg                 6.29:  AZM TOTAL CORR
 EPD .m                   0.00:  ELEVATION
 EGL .m                   0.00:  GROUND ELEVATION
 WDMS.m                 169.80:  WD ELEV
 APD .m                  43.00:  DEPTH ABOVE PD
 VSEW.m                  -9.46:  VERT SEC E/W
 VSNS.m                  -7.12:  VERT SEC N/S
 AGAP.m                  43.00:  AIR GAP
 DEP .m                 356.16:  DEPTH
 EKB .m                  43.00:  KB ELEVATION
 EDF .m                  43.00:  DF ELEVATION
 TDL .m                 699.00:  TOTAL DEPTH (LOGGER)
 VSC .                       0:  VS TO CLOSURE
 MAGU.                 1853727:  MAGUTM CHECKSUM
~Parameter Information Block
#MNEM.UNIT       Value        Description
#---------     -----------    ---------------------------
 AV  .mps                 1.30:  Ann Velocity 
 AVMX.mps                 1.67:  Max Ann Veloc 
 AZIF.deg               280.40:  Azm, Final 
 BHAT.        Rotary Steerable:  BHA Type 
 BREV.rev            528970.00:  Rev Bit Total 
 BROT.°/30m               1.00:  Build Rotating 
 BS  .in                 12.25:  Bit Size 
 BSZ .in                 12.25:  Bit Size 
 BTPL.psig              738.00:  Bit Press Loss 
 CABU.                     Yes:  Customer Abuse 
 CGEO.        Elvin Suleymanov:  Customer Geo 
 COMM.                     ´3x:  Run Comments 1 
 TCS .hr                 66.05:  Time Ciculation Ended 
 CV  .mps                 2.20:  Crit Velocity 
 CVMX.mps                 2.56:  Max Crit Veloc 
 DD1 .          Rashad Habibov:  Direct Drillr 1 
 DD2 .            Azer ravanov:  Direct Drillr 2 
 DD3 .           Teymur Agayev:  Direct Drillr 3 
 DDSV.               Geo-Pilot:  DD Service 
 DEFF.%                  90.00:  % Det Eff 
 DLRX.°/30m               2.95:  Dogleg Rot Max 
 DLSO.°/30m               1.00:  Dogleg Oriented 
 DLSX.°/30m               2.95:  Dogleg Str Max 
 DRET.      11.42.20 11-Aug-21:  Drill End Time 
 DRST.      23.03.20 08-Aug-21:  Drill Start Tim 
 DTIM.hr                 45.50:  Time Drilling 
 EDEP.m                3488.00:  End Depth 
 ENG1.         Marcelo Marcari:  Engineer 1 
 ENG2.         Dair Mahammadov:  Engineer 2 
 ENG3.       Davud Huseyn-zada:  Engineer 3 
 ENG4.         Yevgeniy Ulikov:  Engineer 4 
 ETIM.      17.45.20 17-Aug-21:  End Time 
 FLOI.gpm              1197.70:  Flow In 
 FLON.gpm              1100.00:  Flow In Min 
 FLOS.cptm                0.00:  Fluid Loss 
 FLOX.gpm              1200.00:  Flow In Max 
 DFT .        Mineral Oil Base:  Mud Type 
 FTRO.       Formation Presure:  FTWD Run Obj 
 HFLO.                      No:  High Flow 
 HPRE.                      No:  High Pressure 
 HTEM.                      No:  High Temp 
 HYDO.m                   1.80:  Hydro Offset 
 IFIN.deg                 9.87:  Inc, Final 
 IMAX.deg                19.96:  Inc Max 
 IMIN.deg                 3.82:  Inc Min 
 IMND.m                3257.42:  Inc Min Depth 
 IMXD.m                2945.53:  Inc Max Depth 
 JARR.                      No:  Jarring 
 LETM.      11.42.20 11-Aug-21:  Log End Time 
 LOST.hr                     0:  Lost Rig Time 
 LSTM.      23.03.20 08-Aug-21:  Log Start Time 
 MDCL.ppm             42500.00:  Mud Chlorides 
 MDES.     Inversion Oil/Synthetic:  Mud Desc 
 DFD .sg                  1.45:  Mud Density 
 MDMN.sg                  1.39:  Dens Mud Min 
 MDMX.sg                  1.57:  Dens Mud Max 
 MOIL.                   53.20:  Run Mud Oil % 
 MOWR.                   70:30:  Run Mud OWR 
 MSND.                       0:  Run Mud Sand % 
 MSOL.                   24.30:  Run Mud Solids% 
 DFV .spqt               79.00:  Mud Viscosity 
 MWOD.in                  8.00:  MWD Tool OD 
 MWSI.                      No:  Serv Intrp, MWD 
 OTIM.hr                253.06:  Time Operating 
 PCON.           Look Like New:  Pad Condition 
 PMAX.psia            11068.93:  Press Op, Max 
 PV  .cP                 36.00:  Mud PV 
 RUN .                    1000:  Run Number 
 ROPA.m/hr               15.34:  ROP Avg 
 ROPN.m/hr                4.00:  ROP Min 
 ROPX.m/hr               31.00:  ROP Max 
 RPMA.rpm               151.40:  RPM Surface Avg 
 RPMN.rpm               120.00:  RPM Surface Min 
 RPMX.rpm               160.00:  RPM Surface Max 
 RRUN.                    L505:  Rig Run Number 
 RTIM.hr                 10.00:  Time Reaming 
 SAZI.deg                88.92:  Azm, Start 
 SDEP.m                2789.00:  Start Depth 
 SIDD.                      No:  Serv Intrp, DD 
 SINC.deg                19.84:  Inc, Start 
 SPPA.psig             4421.39:  SPP Avg 
 SPPN.psig             4130.00:  SPP Min 
 SPPX.psig             4800.00:  SPP Max 
 STIM.      01.25.20 07-Aug-21:  Start Time 
 SVCS.                 DD, MWD:  Services 
 SVER.                    9.20:  Sperry Version 
 TDAT.m                 699.00:  Tot Depth Attmp 
 TDDF.                      No:  Trip for DD 
 TDLG.m                 699.00:  Tot Depth Loggd 
 TFF .                      No:  Trip for Fail 
 TQAA.f-kp               20.55:  Torque Abs Avg 
 TQAN.f-kp               15.00:  Torque Abs Min 
 TQAX.f-kp               24.00:  Torque Abs Max 
 TRRT.°/30m               0.50:  Turn Rotating 
 MRT .                    HCIM:  Maximum Recorded Temperature 
 TTMX.degC               82.35:  Max Tool Temp 
 VS01.                90654677:  Virtual Str1 SN 
 VS02.                90636294:  Virtual Str2 SN 
 VS03.                90653866:  Virtual Str3 SN 
 VS04.                90654674:  Virtual Str4 SN 
 WBMN.klb                10.00:  WOB Min 
 WITN.         Haytham Mostafa:  Customer Rep 
 WITN.           Rufat Babayev:  Customer Rep 2 
 WOBA.klb                22.43:  WOB Avg 
 WOBX.klb                35.00:  WOB Max 
 YP  .lhf2               32.00:  Yield Point 
~Curve Information Block
#MNEM.UNIT                 API CODE     Curve Description
#---------               -----------    ---------------------------
 TIME.HHMMSS            00 000 000 000:  GT Time & Date
 GTDEPTH.m              00 000 000 000:  GT Depth
 GTPQH.psia             00 000 000 000:  GT HR Quartz Pressure
 GTTQ.degC              00 000 000 000:  GT Quartz Temperature
 GTTN.NONE              00 000 000 000:  GT Test Number
 GTET.sec               00 000 000 000:  GT Elapsed Test Time
 GTTVD.m                00 000 000 000:  GT True Vertical Depth
#Other Information
#
#WARRANTY: Halliburton will use its best efforts to furnish customers with 
#accurate information and interpretations that are part of, and incident to, the services 
#provided.  However, Halliburton cannot and does not warrant the accuracy 
#or correctness of such information and interpretations.  Under no circumstances should any 
#such information or interpretation be relied upon as the sole basis for any drilling, 
#completion, production, or financial decision or any procedure involving any risk to the 
#safety of any drilling venture, drilling rig or its crew or any other third party.  The 
#Customer has full responsibility for all drilling, completion and production operation.  
#Halliburton makes no representations or warranties, either expressed or 
#implied, including, but not limited to, the implied warranties of merchantability or fitness 
#for a particular purpose, with respect to the services rendered.  In no event will 
#Halliburton be liable for failure to obtain any particular results or for 
#any damages, including, but not limited to, indirect, special or consequential damages, 
#resulting from the use of any information or interpretation provided by Halliburton.
#
~A           TIME           GTDEPTH  GTPQH  GTTQ  GTTN  GTET   GTTVD  
# ...
   12:34:22.608.15-Aug-2021 3405.50 4070.08 52.37 6.00 505.70 3258.07
   12:34:22.808.15-Aug-2021 3405.50 4070.08 52.37 6.00 505.90 3258.07
   12:34:23.008.15-Aug-2021 3405.50 4071.15 52.37 6.00 506.10 3258.07
   12:34:23.208.15-Aug-2021 3405.50 4073.50 52.36 6.00 506.30 3258.07
   12:34:23.408.15-Aug-2021 3405.50 4074.54 52.37 6.00 506.50 3258.07
   12:34:23.608.15-Aug-2021 3405.50 4075.23 52.36 6.00 506.70 3258.07
   12:34:23.807.15-Aug-2021 3405.50 4075.23 52.36 6.00 506.90 3258.07
   12:34:24.007.15-Aug-2021 3405.50 4077.22 52.37 6.00 507.09 3258.07
   12:34:24.207.15-Aug-2021 3405.50 4078.32 52.36 6.00 507.29 3258.07
   12:34:24.407.15-Aug-2021 3405.50 4079.67 52.36 6.00 507.49 3258.07
   12:34:24.607.15-Aug-2021 3405.50 4080.67 52.37 6.00 507.69 3258.07
   12:34:24.807.15-Aug-2021 3405.50 4080.67 52.37 6.00 507.89 3258.07
   12:34:25.007.15-Aug-2021 3405.50 4082.97 52.36 6.00 508.09 3258.07
   12:34:25.207.15-Aug-2021 3405.50 4084.47 52.36 6.00 508.29 3258.07
   12:34:25.406.15-Aug-2021 3405.50 4085.50 52.36 6.00 508.49 3258.07
   12:34:25.606.15-Aug-2021 3405.50 4086.58 52.36 6.00 508.69 3258.07
   12:34:25.806.15-Aug-2021 3405.50 4086.58 52.36 6.00 508.89 3258.07
   12:34:26.006.15-Aug-2021 3405.50 4088.87 52.36 6.00 509.09 3258.07
   12:34:26.206.15-Aug-2021 3405.50 4090.12 52.36 6.00 509.29 3258.07
   12:34:26.406.15-Aug-2021 3405.50 4091.42 52.36 6.00 509.49 3258.07
   12:34:26.606.15-Aug-2021 3405.50 4092.56 52.36 6.00 509.69 3258.07
   12:34:26.806.15-Aug-2021 3405.50 4092.56 52.36 6.00 509.89 3258.07
   12:34:27.006.15-Aug-2021 3405.50 4093.76 52.36 6.00 510.09 3258.07
   12:34:27.205.15-Aug-2021 3405.50 4096.00 52.36 6.00 510.29 3258.07
   12:34:27.405.15-Aug-2021 3405.50 4097.09 52.36 6.00 510.49 3258.07
   12:34:27.605.15-Aug-2021 3405.50 4098.25 52.36 6.00 510.69 3258.07
   12:34:27.805.15-Aug-2021 3405.50 4098.25 52.36 6.00 510.89 3258.07
   12:34:28.005.15-Aug-2021 3405.50 4100.69 52.36 6.00 511.09 3258.07
   12:34:28.205.15-Aug-2021 3405.50 4102.21 52.36 6.00 511.29 3258.07
   12:34:28.405.15-Aug-2021 3405.50 4103.42 52.36 6.00 511.49 3258.07
   12:34:28.605.15-Aug-2021 3405.50 4104.37 52.36 6.00 511.69 3258.07
   12:34:28.804.15-Aug-2021 3405.50 4104.37 52.36 6.00 511.89 3258.07
   12:34:29.004.15-Aug-2021 3405.50 4106.52 52.36 6.00 512.09 3258.07
   12:34:29.204.15-Aug-2021 3405.50 4107.73 52.36 6.00 512.29 3258.07
   12:34:29.404.15-Aug-2021 3405.50 4109.25 52.36 6.00 512.49 3258.07
   12:34:29.604.15-Aug-2021 3405.50 4110.45 52.36 6.00 512.69 3258.07
   12:34:29.804.15-Aug-2021 3405.50 4110.45 52.36 6.00 512.89 3258.07
   12:34:30.004.15-Aug-2021 3405.50 4112.55 52.36 6.00 513.09 3258.07
   12:34:30.204.15-Aug-2021 3405.50 4113.52 52.36 6.00 513.29 3258.07
   12:34:30.403.15-Aug-2021 3405.50 4114.96 52.36 6.00 513.49 3258.07
   12:34:30.603.15-Aug-2021 3405.50 4116.05 52.36 6.00 513.69 3258.07
   12:34:30.803.15-Aug-2021 3405.50 4116.05 52.36 6.00 513.89 3258.07
   12:34:31.003.15-Aug-2021 3405.50 4117.18 52.36 6.00 514.09 3258.07
   12:34:31.203.15-Aug-2021 3405.50 4119.20 52.36 6.00 514.29 3258.07
   12:34:31.403.15-Aug-2021 3405.50 4120.01 52.36 6.00 514.49 3258.07
   12:34:31.603.15-Aug-2021 3405.50 4120.91 52.36 6.00 514.69 3258.07
   12:34:31.803.15-Aug-2021 3405.50 4120.91 52.36 6.00 514.89 3258.07
   12:34:32.003.15-Aug-2021 3405.50 4122.94 52.36 6.00 515.09 3258.07
   12:34:32.202.15-Aug-2021 3405.50 4124.14 52.36 6.00 515.29 3258.07
   12:34:32.402.15-Aug-2021 3405.50 4125.15 52.36 6.00 515.49 3258.07
   12:34:32.602.15-Aug-2021 3405.50 4126.26 52.36 6.00 515.69 3258.07
   12:34:32.802.15-Aug-2021 3405.50 4126.26 52.36 6.00 515.89 3258.07
   12:34:33.002.15-Aug-2021 3405.50 4128.54 52.36 6.00 516.09 3258.07
   12:34:33.202.15-Aug-2021 3405.50 4129.72 52.36 6.00 516.29 3258.07
   12:34:33.402.15-Aug-2021 3405.50 4130.80 52.36 6.00 516.49 3258.07
   12:34:33.602.15-Aug-2021 3405.50 4131.96 52.36 6.00 516.69 3258.07
   12:34:33.801.15-Aug-2021 3405.50 4131.96 52.36 6.00 516.89 3258.07
   12:34:34.001.15-Aug-2021 3405.50 4134.43 52.36 6.00 517.09 3258.07
   12:34:34.201.15-Aug-2021 3405.50 4135.45 52.36 6.00 517.29 3258.07
   12:34:34.401.15-Aug-2021 3405.50 4136.58 52.36 6.00 517.49 3258.07
   12:34:34.601.15-Aug-2021 3405.50 4137.83 52.36 6.00 517.69 3258.07
   12:34:34.801.15-Aug-2021 3405.50 4137.83 52.36 6.00 517.89 3258.07
   12:34:35.001.15-Aug-2021 3405.50 4139.04 52.36 6.00 518.09 3258.07
   12:34:35.201.15-Aug-2021 3405.50 4141.08 52.36 6.00 518.29 3258.07
   12:34:35.400.15-Aug-2021 3405.50 4142.20 52.36 6.00 518.49 3258.07
   12:34:35.600.15-Aug-2021 3405.50 4143.35 52.36 6.00 518.69 3258.07
   12:34:35.800.15-Aug-2021 3405.50 4143.35 52.36 6.00 518.89 3258.07
   12:34:36.000.15-Aug-2021 3405.50 4145.59 52.36 6.00 519.09 3258.07
   12:34:36.200.15-Aug-2021 3405.50 4146.67 52.36 6.00 519.29 3258.07
   12:34:36.400.15-Aug-2021 3405.50 4148.21 52.36 6.00 519.49 3258.07
   12:34:36.600.15-Aug-2021 3405.50 4149.34 52.36 6.00 519.69 3258.07
   12:34:36.800.15-Aug-2021 3405.50 4149.34 52.36 6.00 519.89 3258.07
   12:34:37.000.15-Aug-2021 3405.50 4151.43 52.36 6.00 520.09 3258.07
   12:34:37.199.15-Aug-2021 3405.50 4152.77 52.36 6.00 520.29 3258.07
   12:34:37.399.15-Aug-2021 3405.50 4153.76 52.36 6.00 520.49 3258.07
   12:34:37.599.15-Aug-2021 3405.50 4154.84 52.36 6.00 520.69 3258.07
   12:34:37.799.15-Aug-2021 3405.50 4154.84 52.36 6.00 520.89 3258.07
   12:34:37.999.15-Aug-2021 3405.50 4157.11 52.36 6.00 521.09 3258.07
   12:34:38.199.15-Aug-2021 3405.50 4158.36 52.36 6.00 521.29 3258.07
   12:34:38.399.15-Aug-2021 3405.50 4159.54 52.36 6.00 521.49 3258.07
   12:34:38.599.15-Aug-2021 3405.50 4160.47 52.36 6.00 521.69 3258.07
   12:34:38.798.15-Aug-2021 3405.50 4160.47 52.36 6.00 521.89 3258.07
   12:34:38.998.15-Aug-2021 3405.50 4161.45 52.36 6.00 522.09 3258.07
   12:34:39.198.15-Aug-2021 3405.50 4163.86 52.36 6.00 522.29 3258.07
   12:34:39.398.15-Aug-2021 3405.50 4164.63 52.36 6.00 522.49 3258.07
   12:34:39.598.15-Aug-2021 3405.50 4165.33 52.36 6.00 522.69 3258.07
   12:34:39.798.15-Aug-2021 3405.50 4165.33 52.36 6.00 522.89 3258.07
   12:34:39.998.15-Aug-2021 3405.50 4167.17 52.36 6.00 523.09 3258.07
   12:34:40.198.15-Aug-2021 3405.50 4168.43 52.36 6.00 523.29 3258.07
   12:34:40.397.15-Aug-2021 3405.50 4169.37 52.36 6.00 523.49 3258.07
   12:34:40.597.15-Aug-2021 3405.50 4170.41 52.36 6.00 523.68 3258.07
   12:34:40.797.15-Aug-2021 3405.50 4170.41 52.36 6.00 523.88 3258.07
   12:34:40.997.15-Aug-2021 3405.50 4172.93 52.36 6.00 524.08 3258.07
   12:34:41.197.15-Aug-2021 3405.50 3708.81 52.36 6.00 524.28 3258.07
   12:34:41.397.15-Aug-2021 3405.50 2906.04 52.36 6.00 524.48 3258.07
   12:34:41.597.15-Aug-2021 3405.50 2769.64 52.36 6.00 524.68 3258.07
   12:34:41.797.15-Aug-2021 3405.50 2769.64 52.36 6.00 524.88 3258.07
   12:34:41.996.15-Aug-2021 3405.50 2562.41 52.36 6.00 525.08 3258.07
   12:34:42.196.15-Aug-2021 3405.50 2464.85 52.36 6.00 525.28 3258.07
   12:34:42.396.15-Aug-2021 3405.50 2366.19 52.36 6.00 525.48 3258.07
   12:34:42.596.15-Aug-2021 3405.50 2265.99 52.36 6.00 525.68 3258.07
   12:34:42.796.15-Aug-2021 3405.50 2265.99 52.36 6.00 525.88 3258.07
   12:34:42.996.15-Aug-2021 3405.50 2165.38 52.36 6.00 526.08 3258.07
   12:34:43.196.15-Aug-2021 3405.50 1963.11 52.36 6.00 526.28 3258.07
   12:34:43.396.15-Aug-2021 3405.50 1861.03 52.36 6.00 526.48 3258.07
   12:34:43.596.15-Aug-2021 3405.50 1766.49 52.35 6.00 526.68 3258.07
   12:34:43.795.15-Aug-2021 3405.50 1766.49 52.35 6.00 526.88 3258.07
   12:34:43.995.15-Aug-2021 3405.50 1617.45 52.35 6.00 527.08 3258.07
   12:34:44.195.15-Aug-2021 3405.50 1600.27 52.35 6.00 527.28 3258.07
   12:34:44.395.15-Aug-2021 3405.50 1598.41 52.35 6.00 527.48 3258.07
   12:34:44.595.15-Aug-2021 3405.50 1597.80 52.35 6.00 527.68 3258.07
   12:34:44.795.15-Aug-2021 3405.50 1597.80 52.35 6.00 527.88 3258.07
   12:34:44.995.15-Aug-2021 3405.50 1595.12 52.34 6.00 528.08 3258.07
   12:34:45.195.15-Aug-2021 3405.50 1595.11 52.34 6.00 528.28 3258.07
   12:34:45.394.15-Aug-2021 3405.50 1593.04 52.34 6.00 528.48 3258.07
