~Version Information
 VERS.                  2.0:   CWLS log ASCII Standard -VERSION 2.0
 WRAP.                   NO:   One line per depth step
~Well Information Block
#MNEM.UNIT     VALUE/NAME     DESCRIPTION
#---------     -----------    ---------------------------
 STRT.S             11:47:36 15-Aug-21: START TIME 11:47:36 15-Aug-21
 STOP.S             11:55:59 15-Aug-21: STOP TIME  11:55:59 15-Aug-21
 STEP.S                   0.00: STEP TIME
 NULL.                 -999.25: NULL VALUE
 DFWT.                        :  DIST FWL TEXT
 DFST.                        :  DIST FSL TEXT
 DMF .             Drill Floor:  DRILL MEAS FROM
 STIM.      17.18.56 20-Jun-21:  START TIME
 DATE.      17.18.56 20-Aug-21:  END TIME
 SPUD.               20-Jun-21:  SPUD DATE
 NREF.                    Grid:  NORTH REFERENCE
 HPTY.       Minimum Curvature:  HOLE POS TYPE
 DMOD.             Drill Model:  DRILL MOD DESC
 SVYD.                  Survey:  SURVEY DESC
 ILTD.               Lithology:  INTERP LTH DESC
 FTOP.          Formation Tops:  FORM TOPS DESC
 SON .        AZ-XX-0907056190:  JOB NUMBER
 PDAT.       Caspian Sea Level:  PERMANENT DATUM
 WTYP.                Deviated:  WELL TYPE
 MDS .        Operator Entered:  MAG DATA SOURCE
 COMP.     BP Exploration (Caspian Sea) Ltd.:  COMPANY
 UWI .            /AZE20000092:  UNIQUE WELL IDENTIFIER
 API .            /AZE20000092:  API NUMBER
 BASE.              Azerbaijan:  LOGGING EQUIPMENT BASE LOCATION
 REGN.                   EESSA:  REGION
 PROV.                    baku:  PROVINCE
 STAT.                    baku:  STATE NAME
 CTRY.              Azerbaijan:  COUNTRY NAME
 FLD .                     ACG:  FIELD NAME
 SRVC.          Turan Drilling:  CONTRACTOR
 MWDS.                    Baku:  MWD SHOP
 WELL.                     J26:  WELL NAME
 JOBN.        AZ-XX-0907056190:  JOB TICKET NUMB
 RIG .             West Chirag:  RIG NAME
 DOE .                     N/A:  DOE NUMBER
 DCON.         Sperry Drilling:  DIRECTNL CONTR
 UNIT.                     N/A:  LOGGING EQUIPMENT ID
 CNTY.                        :  COUNTY
 LOC .                        :  LOCATION
 LMF .             Drill Floor:  LOG MEASURED FROM
 TVDS.m                  43.00:  TVDSS CORRECTN
 LATI.deg                40.13:  LATITUDE
 LONG.deg                51.22:  LONGITUDE
 WHNS.m                  -7.12:  WELL HEAD N/S
 WHEW.m                  -9.46:  WELL HEAD E/W
 UTMX.m              519004.02:  UTM X
 UTMY.m             4443784.96:  UTM Y
 DFWL.m                   0.00:  DISTANCE FWL
 DFSL.m                   0.00:  DISTANCE FSL
 SDEP.m                 464.00:  START DEPTH
 TDD .m                3500.00:  TOTAL DEPTH (DRILLER)
 VSDR.deg               114.35:  VERT SEC DIRECT
 GVFD.g                   1.00:  GRAVITY FIELD
 MFLD.nT              50386.00:  MAGNETIC FIELD
 MDIP.deg                59.63:  MAGNETIC DIP
 MDEC.deg                 6.43:  MAGNETIC DECL
 GRDC.deg                 0.15:  GRID CORRECTION
 AZTC.deg                 6.29:  AZM TOTAL CORR
 EPD .m                   0.00:  ELEVATION
 EGL .m                   0.00:  GROUND ELEVATION
 WDMS.m                 169.80:  WD ELEV
 APD .m                  43.00:  DEPTH ABOVE PD
 VSEW.m                  -9.46:  VERT SEC E/W
 VSNS.m                  -7.12:  VERT SEC N/S
 AGAP.m                  43.00:  AIR GAP
 DEP .m                 356.16:  DEPTH
 EKB .m                  43.00:  KB ELEVATION
 EDF .m                  43.00:  DF ELEVATION
 TDL .m                 699.00:  TOTAL DEPTH (LOGGER)
 VSC .                       0:  VS TO CLOSURE
 MAGU.                 1853727:  MAGUTM CHECKSUM
~Parameter Information Block
#MNEM.UNIT       Value        Description
#---------     -----------    ---------------------------
 AV  .mps                 1.30:  Ann Velocity 
 AVMX.mps                 1.67:  Max Ann Veloc 
 AZIF.deg               280.40:  Azm, Final 
 BHAT.        Rotary Steerable:  BHA Type 
 BREV.rev            528970.00:  Rev Bit Total 
 BROT.°/30m               1.00:  Build Rotating 
 BS  .in                 12.25:  Bit Size 
 BSZ .in                 12.25:  Bit Size 
 BTPL.psig              738.00:  Bit Press Loss 
 CABU.                     Yes:  Customer Abuse 
 CGEO.        Elvin Suleymanov:  Customer Geo 
 COMM.                     lþe:  Run Comments 1 
 TCS .hr                 66.05:  Time Ciculation Ended 
 CV  .mps                 2.20:  Crit Velocity 
 CVMX.mps                 2.56:  Max Crit Veloc 
 DD1 .          Rashad Habibov:  Direct Drillr 1 
 DD2 .            Azer ravanov:  Direct Drillr 2 
 DD3 .           Teymur Agayev:  Direct Drillr 3 
 DDSV.               Geo-Pilot:  DD Service 
 DEFF.%                  90.00:  % Det Eff 
 DLRX.°/30m               2.95:  Dogleg Rot Max 
 DLSO.°/30m               1.00:  Dogleg Oriented 
 DLSX.°/30m               2.95:  Dogleg Str Max 
 DRET.      11.42.20 11-Aug-21:  Drill End Time 
 DRST.      23.03.20 08-Aug-21:  Drill Start Tim 
 DTIM.hr                 45.50:  Time Drilling 
 EDEP.m                3488.00:  End Depth 
 ENG1.         Marcelo Marcari:  Engineer 1 
 ENG2.         Dair Mahammadov:  Engineer 2 
 ENG3.       Davud Huseyn-zada:  Engineer 3 
 ENG4.         Yevgeniy Ulikov:  Engineer 4 
 ETIM.      17.45.20 17-Aug-21:  End Time 
 FLOI.gpm              1197.70:  Flow In 
 FLON.gpm              1100.00:  Flow In Min 
 FLOS.cptm                0.00:  Fluid Loss 
 FLOX.gpm              1200.00:  Flow In Max 
 DFT .        Mineral Oil Base:  Mud Type 
 FTRO.       Formation Presure:  FTWD Run Obj 
 HFLO.                      No:  High Flow 
 HPRE.                      No:  High Pressure 
 HTEM.                      No:  High Temp 
 HYDO.m                   1.80:  Hydro Offset 
 IFIN.deg                 9.87:  Inc, Final 
 IMAX.deg                19.96:  Inc Max 
 IMIN.deg                 3.82:  Inc Min 
 IMND.m                3257.42:  Inc Min Depth 
 IMXD.m                2945.53:  Inc Max Depth 
 JARR.                      No:  Jarring 
 LETM.      11.42.20 11-Aug-21:  Log End Time 
 LOST.hr                     0:  Lost Rig Time 
 LSTM.      23.03.20 08-Aug-21:  Log Start Time 
 MDCL.ppm             42500.00:  Mud Chlorides 
 MDES.     Inversion Oil/Synthetic:  Mud Desc 
 DFD .sg                  1.45:  Mud Density 
 MDMN.sg                  1.39:  Dens Mud Min 
 MDMX.sg                  1.57:  Dens Mud Max 
 MOIL.                   53.20:  Run Mud Oil % 
 MOWR.                   70:30:  Run Mud OWR 
 MSND.                       0:  Run Mud Sand % 
 MSOL.                   24.30:  Run Mud Solids% 
 DFV .spqt               79.00:  Mud Viscosity 
 MWOD.in                  8.00:  MWD Tool OD 
 MWSI.                      No:  Serv Intrp, MWD 
 OTIM.hr                253.06:  Time Operating 
 PCON.           Look Like New:  Pad Condition 
 PMAX.psia            11068.93:  Press Op, Max 
 PV  .cP                 36.00:  Mud PV 
 RUN .                    1000:  Run Number 
 ROPA.m/hr               15.34:  ROP Avg 
 ROPN.m/hr                4.00:  ROP Min 
 ROPX.m/hr               31.00:  ROP Max 
 RPMA.rpm               151.40:  RPM Surface Avg 
 RPMN.rpm               120.00:  RPM Surface Min 
 RPMX.rpm               160.00:  RPM Surface Max 
 RRUN.                    L505:  Rig Run Number 
 RTIM.hr                 10.00:  Time Reaming 
 SAZI.deg                88.92:  Azm, Start 
 SDEP.m                2789.00:  Start Depth 
 SIDD.                      No:  Serv Intrp, DD 
 SINC.deg                19.84:  Inc, Start 
 SPPA.psig             4421.39:  SPP Avg 
 SPPN.psig             4130.00:  SPP Min 
 SPPX.psig             4800.00:  SPP Max 
 STIM.      01.25.20 07-Aug-21:  Start Time 
 SVCS.                 DD, MWD:  Services 
 SVER.                    9.20:  Sperry Version 
 TDAT.m                 699.00:  Tot Depth Attmp 
 TDDF.                      No:  Trip for DD 
 TDLG.m                 699.00:  Tot Depth Loggd 
 TFF .                      No:  Trip for Fail 
 TQAA.f-kp               20.55:  Torque Abs Avg 
 TQAN.f-kp               15.00:  Torque Abs Min 
 TQAX.f-kp               24.00:  Torque Abs Max 
 TRRT.°/30m               0.50:  Turn Rotating 
 MRT .                    HCIM:  Maximum Recorded Temperature 
 TTMX.degC               82.35:  Max Tool Temp 
 VS01.                90654677:  Virtual Str1 SN 
 VS02.                90636294:  Virtual Str2 SN 
 VS03.                90653866:  Virtual Str3 SN 
 VS04.                90654674:  Virtual Str4 SN 
 WBMN.klb                10.00:  WOB Min 
 WITN.         Haytham Mostafa:  Customer Rep 
 WITN.           Rufat Babayev:  Customer Rep 2 
 WOBA.klb                22.43:  WOB Avg 
 WOBX.klb                35.00:  WOB Max 
 YP  .lhf2               32.00:  Yield Point 
~Curve Information Block
#MNEM.UNIT                 API CODE     Curve Description
#---------               -----------    ---------------------------
 TIME.HHMMSS            00 000 000 000:  GT Time & Date
 GTDEPTH.m              00 000 000 000:  GT Depth
 GTPQH.psia             00 000 000 000:  GT HR Quartz Pressure
 GTTQ.degC              00 000 000 000:  GT Quartz Temperature
 GTTN.NONE              00 000 000 000:  GT Test Number
 GTET.sec               00 000 000 000:  GT Elapsed Test Time
 GTTVD.m                00 000 000 000:  GT True Vertical Depth
#Other Information
#
#WARRANTY: Halliburton will use its best efforts to furnish customers with 
#accurate information and interpretations that are part of, and incident to, the services 
#provided.  However, Halliburton cannot and does not warrant the accuracy 
#or correctness of such information and interpretations.  Under no circumstances should any 
#such information or interpretation be relied upon as the sole basis for any drilling, 
#completion, production, or financial decision or any procedure involving any risk to the 
#safety of any drilling venture, drilling rig or its crew or any other third party.  The 
#Customer has full responsibility for all drilling, completion and production operation.  
#Halliburton makes no representations or warranties, either expressed or 
#implied, including, but not limited to, the implied warranties of merchantability or fitness 
#for a particular purpose, with respect to the services rendered.  In no event will 
#Halliburton be liable for failure to obtain any particular results or for 
#any damages, including, but not limited to, indirect, special or consequential damages, 
#resulting from the use of any information or interpretation provided by Halliburton.
#
~A           TIME           GTDEPTH  GTPQH  GTTQ  GTTN  GTET   GTTVD  
# ...
   11:52:58.103.15-Aug-2021 3405.50 2304.38 53.83 5.00 321.81 3258.07
   11:52:58.303.15-Aug-2021 3405.50 2304.38 53.83 5.00 322.01 3258.07
   11:52:58.503.15-Aug-2021 3405.50 2305.64 53.83 5.00 322.21 3258.07
   11:52:58.703.15-Aug-2021 3405.50 2306.05 53.83 5.00 322.41 3258.07
   11:52:58.902.15-Aug-2021 3405.50 2306.42 53.83 5.00 322.61 3258.07
   11:52:59.102.15-Aug-2021 3405.50 2307.12 53.83 5.00 322.81 3258.07
   11:52:59.302.15-Aug-2021 3405.50 2307.12 53.83 5.00 323.01 3258.07
   11:52:59.502.15-Aug-2021 3405.50 2308.21 53.83 5.00 323.21 3258.07
   11:52:59.702.15-Aug-2021 3405.50 2308.74 53.83 5.00 323.41 3258.07
   11:52:59.902.15-Aug-2021 3405.50 2309.08 53.83 5.00 323.61 3258.07
   11:53:00.102.15-Aug-2021 3405.50 2309.45 53.83 5.00 323.81 3258.07
   11:53:00.302.15-Aug-2021 3405.50 2309.45 53.83 5.00 324.01 3258.07
   11:53:00.502.15-Aug-2021 3405.50 2310.64 53.83 5.00 324.20 3258.07
   11:53:00.701.15-Aug-2021 3405.50 2311.23 53.83 5.00 324.40 3258.07
   11:53:00.901.15-Aug-2021 3405.50 2311.58 53.83 5.00 324.60 3258.07
   11:53:01.101.15-Aug-2021 3405.50 2312.06 53.83 5.00 324.80 3258.07
   11:53:01.301.15-Aug-2021 3405.50 2312.06 53.83 5.00 325.00 3258.07
   11:53:01.501.15-Aug-2021 3405.50 2312.87 53.83 5.00 325.20 3258.07
   11:53:01.701.15-Aug-2021 3405.50 2313.69 53.83 5.00 325.40 3258.07
   11:53:01.901.15-Aug-2021 3405.50 2314.11 53.83 5.00 325.60 3258.07
   11:53:02.101.15-Aug-2021 3405.50 2314.58 53.83 5.00 325.80 3258.07
   11:53:02.300.15-Aug-2021 3405.50 2314.58 53.83 5.00 326.00 3258.07
   11:53:02.500.15-Aug-2021 3405.50 2315.85 53.83 5.00 326.20 3258.07
   11:53:02.700.15-Aug-2021 3405.50 2316.22 53.83 5.00 326.40 3258.07
   11:53:02.900.15-Aug-2021 3405.50 2316.74 53.83 5.00 326.60 3258.07
   11:53:03.100.15-Aug-2021 3405.50 2317.37 53.83 5.00 326.80 3258.07
   11:53:03.300.15-Aug-2021 3405.50 2317.37 53.83 5.00 327.00 3258.07
   11:53:03.500.15-Aug-2021 3405.50 2318.41 53.83 5.00 327.20 3258.07
   11:53:03.700.15-Aug-2021 3405.50 2318.94 53.83 5.00 327.40 3258.07
   11:53:03.899.15-Aug-2021 3405.50 2319.30 53.83 5.00 327.60 3258.07
   11:53:04.099.15-Aug-2021 3405.50 2319.75 53.83 5.00 327.80 3258.07
   11:53:04.299.15-Aug-2021 3405.50 2319.75 53.83 5.00 328.00 3258.07
   11:53:04.499.15-Aug-2021 3405.50 2320.77 53.83 5.00 328.20 3258.07
   11:53:04.699.15-Aug-2021 3405.50 2320.95 53.83 5.00 328.40 3258.07
   11:53:04.899.15-Aug-2021 3405.50 2321.84 53.83 5.00 328.60 3258.07
   11:53:05.099.15-Aug-2021 3405.50 2322.27 53.83 5.00 328.80 3258.07
   11:53:05.299.15-Aug-2021 3405.50 2322.27 53.83 5.00 329.00 3258.07
   11:53:05.499.15-Aug-2021 3405.50 2323.31 53.83 5.00 329.20 3258.07
   11:53:05.698.15-Aug-2021 3405.50 2323.61 53.83 5.00 329.40 3258.07
   11:53:05.898.15-Aug-2021 3405.50 2323.98 53.83 5.00 329.60 3258.07
   11:53:06.098.15-Aug-2021 3405.50 2324.41 53.83 5.00 329.80 3258.07
   11:53:06.298.15-Aug-2021 3405.50 2324.41 53.83 5.00 330.00 3258.07
   11:53:06.498.15-Aug-2021 3405.50 2325.46 53.83 5.00 330.20 3258.07
   11:53:06.698.15-Aug-2021 3405.50 2326.23 53.83 5.00 330.40 3258.07
   11:53:06.898.15-Aug-2021 3405.50 2326.63 53.83 5.00 330.60 3258.07
   11:53:07.098.15-Aug-2021 3405.50 2326.97 53.83 5.00 330.80 3258.07
   11:53:07.297.15-Aug-2021 3405.50 2326.97 53.83 5.00 331.00 3258.07
   11:53:07.497.15-Aug-2021 3405.50 2327.70 53.83 5.00 331.20 3258.07
   11:53:07.697.15-Aug-2021 3405.50 2328.22 53.83 5.00 331.40 3258.07
   11:53:07.897.15-Aug-2021 3405.50 2328.85 53.83 5.00 331.60 3258.07
   11:53:08.097.15-Aug-2021 3405.50 2329.36 53.83 5.00 331.80 3258.07
   11:53:08.297.15-Aug-2021 3405.50 2329.36 53.83 5.00 332.00 3258.07
   11:53:08.497.15-Aug-2021 3405.50 2330.12 53.83 5.00 332.20 3258.07
   11:53:08.697.15-Aug-2021 3405.50 2330.76 53.83 5.00 332.40 3258.07
   11:53:08.896.15-Aug-2021 3405.50 2331.27 53.83 5.00 332.60 3258.07
   11:53:09.096.15-Aug-2021 3405.50 2331.65 53.83 5.00 332.80 3258.07
   11:53:09.296.15-Aug-2021 3405.50 2331.65 53.83 5.00 333.00 3258.07
   11:53:09.496.15-Aug-2021 3405.50 2300.05 53.83 5.00 333.20 3258.07
   11:53:09.696.15-Aug-2021 3405.50 2193.87 53.83 5.00 333.40 3258.07
   11:53:09.896.15-Aug-2021 3405.50 2078.39 53.83 5.00 333.60 3258.07
   11:53:10.096.15-Aug-2021 3405.50 1968.29 53.83 5.00 333.80 3258.07
   11:53:10.296.15-Aug-2021 3405.50 1968.29 53.83 5.00 334.00 3258.07
   11:53:10.496.15-Aug-2021 3405.50 1768.80 53.83 5.00 334.20 3258.07
   11:53:10.695.15-Aug-2021 3405.50 1684.71 53.83 5.00 334.40 3258.07
   11:53:10.895.15-Aug-2021 3405.50 1635.61 53.82 5.00 334.60 3258.07
   11:53:11.095.15-Aug-2021 3405.50 1620.89 53.82 5.00 334.80 3258.07
   11:53:11.295.15-Aug-2021 3405.50 1620.89 53.82 5.00 335.00 3258.07
   11:53:11.495.15-Aug-2021 3405.50 1614.82 53.82 5.00 335.20 3258.07
   11:53:11.695.15-Aug-2021 3405.50 1614.16 53.82 5.00 335.40 3258.07
   11:53:11.895.15-Aug-2021 3405.50 1612.63 53.82 5.00 335.60 3258.07
   11:53:12.095.15-Aug-2021 3405.50 1612.19 53.82 5.00 335.80 3258.07
   11:53:12.294.15-Aug-2021 3405.50 1612.19 53.82 5.00 336.00 3258.07
   11:53:12.494.15-Aug-2021 3405.50 1612.09 53.82 5.00 336.20 3258.07
   11:53:12.694.15-Aug-2021 3405.50 1614.02 53.82 5.00 336.40 3258.07
   11:53:12.894.15-Aug-2021 3405.50 1612.04 53.82 5.00 336.60 3258.07
   11:53:13.094.15-Aug-2021 3405.50 1610.59 53.82 5.00 336.80 3258.07
   11:53:13.294.15-Aug-2021 3405.50 1610.59 53.82 5.00 337.00 3258.07
   11:53:13.494.15-Aug-2021 3405.50 1608.33 53.82 5.00 337.20 3258.07
   11:53:13.694.15-Aug-2021 3405.50 1608.24 53.82 5.00 337.40 3258.07
   11:53:13.893.15-Aug-2021 3405.50 1607.84 53.82 5.00 337.60 3258.07
   11:53:14.093.15-Aug-2021 3405.50 1607.67 53.82 5.00 337.80 3258.07
   11:53:14.293.15-Aug-2021 3405.50 1607.67 53.82 5.00 338.00 3258.07
   11:53:14.493.15-Aug-2021 3405.50 1608.62 53.81 5.00 338.20 3258.07
   11:53:14.693.15-Aug-2021 3405.50 1608.29 53.81 5.00 338.40 3258.07
   11:53:14.893.15-Aug-2021 3405.50 1607.76 53.81 5.00 338.60 3258.07
   11:53:15.093.15-Aug-2021 3405.50 1608.18 53.81 5.00 338.80 3258.07
   11:53:15.293.15-Aug-2021 3405.50 1608.18 53.81 5.00 339.00 3258.07
   11:53:15.493.15-Aug-2021 3405.50 1608.09 53.81 5.00 339.20 3258.07
   11:53:15.692.15-Aug-2021 3405.50 1608.62 53.81 5.00 339.40 3258.07
   11:53:15.892.15-Aug-2021 3405.50 1610.15 53.81 5.00 339.60 3258.07
   11:53:16.092.15-Aug-2021 3405.50 1609.86 53.81 5.00 339.80 3258.07
   11:53:16.292.15-Aug-2021 3405.50 1609.86 53.81 5.00 340.00 3258.07
   11:53:16.492.15-Aug-2021 3405.50 1609.11 53.81 5.00 340.20 3258.07
   11:53:16.692.15-Aug-2021 3405.50 1610.47 53.81 5.00 340.40 3258.07
   11:53:16.892.15-Aug-2021 3405.50 1611.39 53.81 5.00 340.60 3258.07
   11:53:17.092.15-Aug-2021 3405.50 1611.39 53.81 5.00 340.79 3258.07
   11:53:17.291.15-Aug-2021 3405.50 1613.05 53.81 5.00 340.99 3258.07
   11:53:17.491.15-Aug-2021 3405.50 1613.05 53.81 5.00 341.19 3258.07
   11:53:17.691.15-Aug-2021 3405.50 1611.17 53.80 5.00 341.39 3258.07
   11:53:17.891.15-Aug-2021 3405.50 1611.30 53.80 5.00 341.59 3258.07
   11:53:18.091.15-Aug-2021 3405.50 1611.87 53.80 5.00 341.79 3258.07
   11:53:18.291.15-Aug-2021 3405.50 1611.87 53.80 5.00 341.99 3258.07
   11:53:18.491.15-Aug-2021 3405.50 1610.54 53.80 5.00 342.19 3258.07
   11:53:18.691.15-Aug-2021 3405.50 1611.54 53.80 5.00 342.39 3258.07
   11:53:18.890.15-Aug-2021 3405.50 1613.15 53.80 5.00 342.59 3258.07
   11:53:19.090.15-Aug-2021 3405.50 1612.50 53.80 5.00 342.79 3258.07
   11:53:19.290.15-Aug-2021 3405.50 1612.50 53.80 5.00 342.99 3258.07
   11:53:19.490.15-Aug-2021 3405.50 1611.53 53.80 5.00 343.19 3258.07
   11:53:19.690.15-Aug-2021 3405.50 1611.61 53.80 5.00 343.39 3258.07
   11:53:19.890.15-Aug-2021 3405.50 1612.94 53.80 5.00 343.59 3258.07
   11:53:20.090.15-Aug-2021 3405.50 1619.07 53.80 5.00 343.79 3258.07
   11:53:20.290.15-Aug-2021 3405.50 1619.07 53.80 5.00 343.99 3258.07
   11:53:20.490.15-Aug-2021 3405.50 1623.62 53.80 5.00 344.19 3258.07
   11:53:20.689.15-Aug-2021 3405.50 1626.21 53.80 5.00 344.39 3258.07
   11:53:20.889.15-Aug-2021 3405.50 1627.81 53.80 5.00 344.59 3258.07
