~Version Information
 VERS.                  2.0:   CWLS log ASCII Standard -VERSION 2.0
 WRAP.                   NO:   One line per depth step
~Well Information Block
#MNEM.UNIT     VALUE/NAME     DESCRIPTION
#---------     -----------    ---------------------------
 STRT.S             10:08:54 15-Aug-21: START TIME 10:08:54 15-Aug-21
 STOP.S             10:17:25 15-Aug-21: STOP TIME  10:17:25 15-Aug-21
 STEP.S                   0.00: STEP TIME
 NULL.                 -999.25: NULL VALUE
 DFWT.                        :  DIST FWL TEXT
 DFST.                        :  DIST FSL TEXT
 DMF .             Drill Floor:  DRILL MEAS FROM
 STIM.      17.18.56 20-Jun-21:  START TIME
 DATE.      17.18.56 20-Aug-21:  END TIME
 SPUD.               20-Jun-21:  SPUD DATE
 NREF.                    Grid:  NORTH REFERENCE
 HPTY.       Minimum Curvature:  HOLE POS TYPE
 DMOD.             Drill Model:  DRILL MOD DESC
 SVYD.                  Survey:  SURVEY DESC
 ILTD.               Lithology:  INTERP LTH DESC
 FTOP.          Formation Tops:  FORM TOPS DESC
 SON .        AZ-XX-0907056190:  JOB NUMBER
 PDAT.       Caspian Sea Level:  PERMANENT DATUM
 WTYP.                Deviated:  WELL TYPE
 MDS .        Operator Entered:  MAG DATA SOURCE
 COMP.     BP Exploration (Caspian Sea) Ltd.:  COMPANY
 UWI .            /AZE20000092:  UNIQUE WELL IDENTIFIER
 API .            /AZE20000092:  API NUMBER
 BASE.              Azerbaijan:  LOGGING EQUIPMENT BASE LOCATION
 REGN.                   EESSA:  REGION
 PROV.                    baku:  PROVINCE
 STAT.                    baku:  STATE NAME
 CTRY.              Azerbaijan:  COUNTRY NAME
 FLD .                     ACG:  FIELD NAME
 SRVC.          Turan Drilling:  CONTRACTOR
 MWDS.                    Baku:  MWD SHOP
 WELL.                     J26:  WELL NAME
 JOBN.        AZ-XX-0907056190:  JOB TICKET NUMB
 RIG .             West Chirag:  RIG NAME
 DOE .                     N/A:  DOE NUMBER
 DCON.         Sperry Drilling:  DIRECTNL CONTR
 UNIT.                     N/A:  LOGGING EQUIPMENT ID
 CNTY.                        :  COUNTY
 LOC .                        :  LOCATION
 LMF .             Drill Floor:  LOG MEASURED FROM
 TVDS.m                  43.00:  TVDSS CORRECTN
 LATI.deg                40.13:  LATITUDE
 LONG.deg                51.22:  LONGITUDE
 WHNS.m                  -7.12:  WELL HEAD N/S
 WHEW.m                  -9.46:  WELL HEAD E/W
 UTMX.m              519004.02:  UTM X
 UTMY.m             4443784.96:  UTM Y
 DFWL.m                   0.00:  DISTANCE FWL
 DFSL.m                   0.00:  DISTANCE FSL
 SDEP.m                 464.00:  START DEPTH
 TDD .m                3500.00:  TOTAL DEPTH (DRILLER)
 VSDR.deg               114.35:  VERT SEC DIRECT
 GVFD.g                   1.00:  GRAVITY FIELD
 MFLD.nT              50386.00:  MAGNETIC FIELD
 MDIP.deg                59.63:  MAGNETIC DIP
 MDEC.deg                 6.43:  MAGNETIC DECL
 GRDC.deg                 0.15:  GRID CORRECTION
 AZTC.deg                 6.29:  AZM TOTAL CORR
 EPD .m                   0.00:  ELEVATION
 EGL .m                   0.00:  GROUND ELEVATION
 WDMS.m                 169.80:  WD ELEV
 APD .m                  43.00:  DEPTH ABOVE PD
 VSEW.m                  -9.46:  VERT SEC E/W
 VSNS.m                  -7.12:  VERT SEC N/S
 AGAP.m                  43.00:  AIR GAP
 DEP .m                 356.16:  DEPTH
 EKB .m                  43.00:  KB ELEVATION
 EDF .m                  43.00:  DF ELEVATION
 TDL .m                 699.00:  TOTAL DEPTH (LOGGER)
 VSC .                       0:  VS TO CLOSURE
 MAGU.                 1853727:  MAGUTM CHECKSUM
~Parameter Information Block
#MNEM.UNIT       Value        Description
#---------     -----------    ---------------------------
 AV  .mps                 1.30:  Ann Velocity 
 AVMX.mps                 1.67:  Max Ann Veloc 
 AZIF.deg               280.40:  Azm, Final 
 BHAT.        Rotary Steerable:  BHA Type 
 BREV.rev            528970.00:  Rev Bit Total 
 BROT.°/30m               1.00:  Build Rotating 
 BS  .in                 12.25:  Bit Size 
 BSZ .in                 12.25:  Bit Size 
 BTPL.psig              738.00:  Bit Press Loss 
 CABU.                     Yes:  Customer Abuse 
 CGEO.        Elvin Suleymanov:  Customer Geo 
 COMM.                     ´½}:  Run Comments 1 
 TCS .hr                 66.05:  Time Ciculation Ended 
 CV  .mps                 2.20:  Crit Velocity 
 CVMX.mps                 2.56:  Max Crit Veloc 
 DD1 .          Rashad Habibov:  Direct Drillr 1 
 DD2 .            Azer ravanov:  Direct Drillr 2 
 DD3 .           Teymur Agayev:  Direct Drillr 3 
 DDSV.               Geo-Pilot:  DD Service 
 DEFF.%                  90.00:  % Det Eff 
 DLRX.°/30m               2.95:  Dogleg Rot Max 
 DLSO.°/30m               1.00:  Dogleg Oriented 
 DLSX.°/30m               2.95:  Dogleg Str Max 
 DRET.      11.42.20 11-Aug-21:  Drill End Time 
 DRST.      23.03.20 08-Aug-21:  Drill Start Tim 
 DTIM.hr                 45.50:  Time Drilling 
 EDEP.m                3488.00:  End Depth 
 ENG1.         Marcelo Marcari:  Engineer 1 
 ENG2.         Dair Mahammadov:  Engineer 2 
 ENG3.       Davud Huseyn-zada:  Engineer 3 
 ENG4.         Yevgeniy Ulikov:  Engineer 4 
 ETIM.      17.45.20 17-Aug-21:  End Time 
 FLOI.gpm              1197.70:  Flow In 
 FLON.gpm              1100.00:  Flow In Min 
 FLOS.cptm                0.00:  Fluid Loss 
 FLOX.gpm              1200.00:  Flow In Max 
 DFT .        Mineral Oil Base:  Mud Type 
 FTRO.       Formation Presure:  FTWD Run Obj 
 HFLO.                      No:  High Flow 
 HPRE.                      No:  High Pressure 
 HTEM.                      No:  High Temp 
 HYDO.m                   1.80:  Hydro Offset 
 IFIN.deg                 9.87:  Inc, Final 
 IMAX.deg                19.96:  Inc Max 
 IMIN.deg                 3.82:  Inc Min 
 IMND.m                3257.42:  Inc Min Depth 
 IMXD.m                2945.53:  Inc Max Depth 
 JARR.                      No:  Jarring 
 LETM.      11.42.20 11-Aug-21:  Log End Time 
 LOST.hr                     0:  Lost Rig Time 
 LSTM.      23.03.20 08-Aug-21:  Log Start Time 
 MDCL.ppm             42500.00:  Mud Chlorides 
 MDES.     Inversion Oil/Synthetic:  Mud Desc 
 DFD .sg                  1.45:  Mud Density 
 MDMN.sg                  1.39:  Dens Mud Min 
 MDMX.sg                  1.57:  Dens Mud Max 
 MOIL.                   53.20:  Run Mud Oil % 
 MOWR.                   70:30:  Run Mud OWR 
 MSND.                       0:  Run Mud Sand % 
 MSOL.                   24.30:  Run Mud Solids% 
 DFV .spqt               79.00:  Mud Viscosity 
 MWOD.in                  8.00:  MWD Tool OD 
 MWSI.                      No:  Serv Intrp, MWD 
 OTIM.hr                253.06:  Time Operating 
 PCON.           Look Like New:  Pad Condition 
 PMAX.psia            11068.93:  Press Op, Max 
 PV  .cP                 36.00:  Mud PV 
 RUN .                    1000:  Run Number 
 ROPA.m/hr               15.34:  ROP Avg 
 ROPN.m/hr                4.00:  ROP Min 
 ROPX.m/hr               31.00:  ROP Max 
 RPMA.rpm               151.40:  RPM Surface Avg 
 RPMN.rpm               120.00:  RPM Surface Min 
 RPMX.rpm               160.00:  RPM Surface Max 
 RRUN.                    L505:  Rig Run Number 
 RTIM.hr                 10.00:  Time Reaming 
 SAZI.deg                88.92:  Azm, Start 
 SDEP.m                2789.00:  Start Depth 
 SIDD.                      No:  Serv Intrp, DD 
 SINC.deg                19.84:  Inc, Start 
 SPPA.psig             4421.39:  SPP Avg 
 SPPN.psig             4130.00:  SPP Min 
 SPPX.psig             4800.00:  SPP Max 
 STIM.      01.25.20 07-Aug-21:  Start Time 
 SVCS.                 DD, MWD:  Services 
 SVER.                    9.20:  Sperry Version 
 TDAT.m                 699.00:  Tot Depth Attmp 
 TDDF.                      No:  Trip for DD 
 TDLG.m                 699.00:  Tot Depth Loggd 
 TFF .                      No:  Trip for Fail 
 TQAA.f-kp               20.55:  Torque Abs Avg 
 TQAN.f-kp               15.00:  Torque Abs Min 
 TQAX.f-kp               24.00:  Torque Abs Max 
 TRRT.°/30m               0.50:  Turn Rotating 
 MRT .                    HCIM:  Maximum Recorded Temperature 
 TTMX.degC               82.35:  Max Tool Temp 
 VS01.                90654677:  Virtual Str1 SN 
 VS02.                90636294:  Virtual Str2 SN 
 VS03.                90653866:  Virtual Str3 SN 
 VS04.                90654674:  Virtual Str4 SN 
 WBMN.klb                10.00:  WOB Min 
 WITN.         Haytham Mostafa:  Customer Rep 
 WITN.           Rufat Babayev:  Customer Rep 2 
 WOBA.klb                22.43:  WOB Avg 
 WOBX.klb                35.00:  WOB Max 
 YP  .lhf2               32.00:  Yield Point 
~Curve Information Block
#MNEM.UNIT                 API CODE     Curve Description
#---------               -----------    ---------------------------
 TIME.HHMMSS            00 000 000 000:  GT Time & Date
 GTDEPTH.m              00 000 000 000:  GT Depth
 GTPQH.psia             00 000 000 000:  GT HR Quartz Pressure
 GTTQ.degC              00 000 000 000:  GT Quartz Temperature
 GTTN.NONE              00 000 000 000:  GT Test Number
 GTET.sec               00 000 000 000:  GT Elapsed Test Time
 GTTVD.m                00 000 000 000:  GT True Vertical Depth
#Other Information
#
#WARRANTY: Halliburton will use its best efforts to furnish customers with 
#accurate information and interpretations that are part of, and incident to, the services 
#provided.  However, Halliburton cannot and does not warrant the accuracy 
#or correctness of such information and interpretations.  Under no circumstances should any 
#such information or interpretation be relied upon as the sole basis for any drilling, 
#completion, production, or financial decision or any procedure involving any risk to the 
#safety of any drilling venture, drilling rig or its crew or any other third party.  The 
#Customer has full responsibility for all drilling, completion and production operation.  
#Halliburton makes no representations or warranties, either expressed or 
#implied, including, but not limited to, the implied warranties of merchantability or fitness 
#for a particular purpose, with respect to the services rendered.  In no event will 
#Halliburton be liable for failure to obtain any particular results or for 
#any damages, including, but not limited to, indirect, special or consequential damages, 
#resulting from the use of any information or interpretation provided by Halliburton.
#
~A           TIME           GTDEPTH  GTPQH  GTTQ  GTTN  GTET   GTTVD  
# ...
   10:11:58.251.15-Aug-2021 3416.50 5186.62 54.38 4.00 184.03 3268.90
   10:11:58.451.15-Aug-2021 3416.50 5186.62 54.38 4.00 184.23 3268.90
   10:11:58.651.15-Aug-2021 3416.50 5185.69 54.38 4.00 184.43 3268.90
   10:11:58.851.15-Aug-2021 3416.50 5185.73 54.38 4.00 184.63 3268.90
   10:11:59.051.15-Aug-2021 3416.50 5185.81 54.38 4.00 184.83 3268.90
   10:11:59.252.15-Aug-2021 3416.50 5185.68 54.38 4.00 185.03 3268.90
   10:11:59.452.15-Aug-2021 3416.50 5185.68 54.38 4.00 185.23 3268.90
   10:11:59.652.15-Aug-2021 3416.50 5184.98 54.38 4.00 185.43 3268.90
   10:11:59.852.15-Aug-2021 3416.50 5185.78 54.38 4.00 185.63 3268.90
   10:12:00.052.15-Aug-2021 3416.50 5186.09 54.38 4.00 185.83 3268.90
   10:12:00.252.15-Aug-2021 3416.50 5185.39 54.38 4.00 186.03 3268.90
   10:12:00.452.15-Aug-2021 3416.50 5185.39 54.38 4.00 186.23 3268.90
   10:12:00.652.15-Aug-2021 3416.50 5185.71 54.38 4.00 186.43 3268.90
   10:12:00.852.15-Aug-2021 3416.50 5185.89 54.38 4.00 186.63 3268.90
   10:12:01.052.15-Aug-2021 3416.50 5185.81 54.38 4.00 186.83 3268.90
   10:12:01.252.15-Aug-2021 3416.50 5186.48 54.38 4.00 187.03 3268.90
   10:12:01.452.15-Aug-2021 3416.50 5186.48 54.38 4.00 187.23 3268.90
   10:12:01.652.15-Aug-2021 3416.50 5185.65 54.38 4.00 187.43 3268.90
   10:12:01.852.15-Aug-2021 3416.50 5186.02 54.38 4.00 187.63 3268.90
   10:12:02.052.15-Aug-2021 3416.50 5185.47 54.38 4.00 187.83 3268.90
   10:12:02.252.15-Aug-2021 3416.50 5186.50 54.38 4.00 188.03 3268.90
   10:12:02.452.15-Aug-2021 3416.50 5186.50 54.38 4.00 188.23 3268.90
   10:12:02.652.15-Aug-2021 3416.50 5185.76 54.38 4.00 188.43 3268.90
   10:12:02.852.15-Aug-2021 3416.50 5186.18 54.38 4.00 188.63 3268.90
   10:12:03.052.15-Aug-2021 3416.50 5185.95 54.38 4.00 188.83 3268.90
   10:12:03.252.15-Aug-2021 3416.50 5185.35 54.38 4.00 189.03 3268.90
   10:12:03.452.15-Aug-2021 3416.50 5185.35 54.38 4.00 189.23 3268.90
   10:12:03.652.15-Aug-2021 3416.50 5186.17 54.38 4.00 189.43 3268.90
   10:12:03.852.15-Aug-2021 3416.50 5185.51 54.38 4.00 189.63 3268.90
   10:12:04.052.15-Aug-2021 3416.50 5186.52 54.38 4.00 189.83 3268.90
   10:12:04.252.15-Aug-2021 3416.50 5185.22 54.38 4.00 190.03 3268.90
   10:12:04.452.15-Aug-2021 3416.50 5185.22 54.38 4.00 190.23 3268.90
   10:12:04.652.15-Aug-2021 3416.50 5185.59 54.38 4.00 190.43 3268.90
   10:12:04.852.15-Aug-2021 3416.50 5185.91 54.38 4.00 190.63 3268.90
   10:12:05.052.15-Aug-2021 3416.50 5186.27 54.38 4.00 190.83 3268.90
   10:12:05.252.15-Aug-2021 3416.50 5185.14 54.38 4.00 191.03 3268.90
   10:12:05.453.15-Aug-2021 3416.50 5185.14 54.38 4.00 191.23 3268.90
   10:12:05.653.15-Aug-2021 3416.50 5185.82 54.38 4.00 191.43 3268.90
   10:12:05.853.15-Aug-2021 3416.50 5186.77 54.38 4.00 191.63 3268.90
   10:12:06.053.15-Aug-2021 3416.50 5185.18 54.38 4.00 191.83 3268.90
   10:12:06.253.15-Aug-2021 3416.50 5185.81 54.38 4.00 192.03 3268.90
   10:12:06.453.15-Aug-2021 3416.50 5185.81 54.38 4.00 192.23 3268.90
   10:12:06.653.15-Aug-2021 3416.50 5186.60 54.38 4.00 192.43 3268.90
   10:12:06.853.15-Aug-2021 3416.50 5185.07 54.38 4.00 192.63 3268.90
   10:12:07.053.15-Aug-2021 3416.50 5185.94 54.38 4.00 192.83 3268.90
   10:12:07.253.15-Aug-2021 3416.50 5185.82 54.38 4.00 193.03 3268.90
   10:12:07.453.15-Aug-2021 3416.50 5185.82 54.38 4.00 193.23 3268.90
   10:12:07.653.15-Aug-2021 3416.50 5185.72 54.38 4.00 193.43 3268.90
   10:12:07.853.15-Aug-2021 3416.50 5185.87 54.38 4.00 193.63 3268.90
   10:12:08.053.15-Aug-2021 3416.50 5185.68 54.38 4.00 193.83 3268.90
   10:12:08.253.15-Aug-2021 3416.50 5185.57 54.38 4.00 194.03 3268.90
   10:12:08.453.15-Aug-2021 3416.50 5185.57 54.38 4.00 194.23 3268.90
   10:12:08.653.15-Aug-2021 3416.50 5184.92 54.38 4.00 194.43 3268.90
   10:12:08.853.15-Aug-2021 3416.50 5185.93 54.38 4.00 194.63 3268.90
   10:12:09.053.15-Aug-2021 3416.50 5185.96 54.38 4.00 194.83 3268.90
   10:12:09.253.15-Aug-2021 3416.50 5185.45 54.38 4.00 195.03 3268.90
   10:12:09.453.15-Aug-2021 3416.50 5185.45 54.38 4.00 195.23 3268.90
   10:12:09.653.15-Aug-2021 3416.50 5186.81 54.38 4.00 195.43 3268.90
   10:12:09.853.15-Aug-2021 3416.50 5184.92 54.38 4.00 195.63 3268.90
   10:12:10.053.15-Aug-2021 3416.50 5185.63 54.38 4.00 195.83 3268.90
   10:12:10.253.15-Aug-2021 3416.50 5186.07 54.38 4.00 196.03 3268.90
   10:12:10.453.15-Aug-2021 3416.50 5186.07 54.38 4.00 196.23 3268.90
   10:12:10.653.15-Aug-2021 3416.50 5185.00 54.38 4.00 196.43 3268.90
   10:12:10.853.15-Aug-2021 3416.50 5185.64 54.38 4.00 196.63 3268.90
   10:12:11.053.15-Aug-2021 3416.50 5185.96 54.38 4.00 196.83 3268.90
   10:12:11.253.15-Aug-2021 3416.50 5186.05 54.38 4.00 197.03 3268.90
   10:12:11.454.15-Aug-2021 3416.50 5186.05 54.38 4.00 197.23 3268.90
   10:12:11.654.15-Aug-2021 3416.50 5185.64 54.38 4.00 197.43 3268.90
   10:12:11.854.15-Aug-2021 3416.50 5186.06 54.38 4.00 197.63 3268.90
   10:12:12.054.15-Aug-2021 3416.50 5185.21 54.38 4.00 197.83 3268.90
   10:12:12.254.15-Aug-2021 3416.50 5186.21 54.38 4.00 198.03 3268.90
   10:12:12.454.15-Aug-2021 3416.50 5186.21 54.38 4.00 198.23 3268.90
   10:12:12.654.15-Aug-2021 3416.50 5185.58 54.38 4.00 198.43 3268.90
   10:12:12.854.15-Aug-2021 3416.50 5185.73 54.38 4.00 198.63 3268.90
   10:12:13.054.15-Aug-2021 3416.50 5185.37 54.38 4.00 198.83 3268.90
   10:12:13.254.15-Aug-2021 3416.50 5084.75 54.38 4.00 199.03 3268.90
   10:12:13.454.15-Aug-2021 3416.50 5084.75 54.38 4.00 199.23 3268.90
   10:12:13.654.15-Aug-2021 3416.50 4833.08 54.38 4.00 199.43 3268.90
   10:12:13.854.15-Aug-2021 3416.50 4808.84 54.38 4.00 199.63 3268.90
   10:12:14.054.15-Aug-2021 3416.50 4803.38 54.38 4.00 199.83 3268.90
   10:12:14.254.15-Aug-2021 3416.50 4804.91 54.38 4.00 200.03 3268.90
   10:12:14.454.15-Aug-2021 3416.50 4804.91 54.38 4.00 200.23 3268.90
   10:12:14.654.15-Aug-2021 3416.50 4804.91 54.38 4.00 200.43 3268.90
   10:12:14.854.15-Aug-2021 3416.50 4809.01 54.38 4.00 200.63 3268.90
   10:12:15.054.15-Aug-2021 3416.50 4808.62 54.38 4.00 200.83 3268.90
   10:12:15.254.15-Aug-2021 3416.50 4809.41 54.38 4.00 201.03 3268.90
   10:12:15.454.15-Aug-2021 3416.50 4809.41 54.38 4.00 201.23 3268.90
   10:12:15.654.15-Aug-2021 3416.50 4807.71 54.38 4.00 201.43 3268.90
   10:12:15.854.15-Aug-2021 3416.50 4808.51 54.38 4.00 201.63 3268.90
   10:12:16.054.15-Aug-2021 3416.50 4808.41 54.38 4.00 201.83 3268.90
   10:12:16.254.15-Aug-2021 3416.50 4808.52 54.38 4.00 202.03 3268.90
   10:12:16.454.15-Aug-2021 3416.50 4808.52 54.38 4.00 202.23 3268.90
   10:12:16.654.15-Aug-2021 3416.50 4810.24 54.38 4.00 202.43 3268.90
   10:12:16.854.15-Aug-2021 3416.50 4810.63 54.38 4.00 202.63 3268.90
   10:12:17.054.15-Aug-2021 3416.50 4810.76 54.38 4.00 202.83 3268.90
   10:12:17.254.15-Aug-2021 3416.50 4812.37 54.38 4.00 203.03 3268.90
   10:12:17.454.15-Aug-2021 3416.50 4812.37 54.38 4.00 203.23 3268.90
   10:12:17.655.15-Aug-2021 3416.50 4811.20 54.37 4.00 203.43 3268.90
   10:12:17.855.15-Aug-2021 3416.50 4810.26 54.37 4.00 203.63 3268.90
   10:12:18.055.15-Aug-2021 3416.50 4811.68 54.37 4.00 203.83 3268.90
   10:12:18.255.15-Aug-2021 3416.50 4809.19 54.37 4.00 204.03 3268.90
   10:12:18.455.15-Aug-2021 3416.50 4809.19 54.37 4.00 204.23 3268.90
   10:12:18.655.15-Aug-2021 3416.50 4813.24 54.37 4.00 204.43 3268.90
   10:12:18.855.15-Aug-2021 3416.50 4813.70 54.37 4.00 204.63 3268.90
   10:12:19.055.15-Aug-2021 3416.50 4810.04 54.37 4.00 204.83 3268.90
   10:12:19.255.15-Aug-2021 3416.50 4810.70 54.37 4.00 205.03 3268.90
   10:12:19.455.15-Aug-2021 3416.50 4810.70 54.37 4.00 205.23 3268.90
   10:12:19.655.15-Aug-2021 3416.50 4810.77 54.37 4.00 205.43 3268.90
   10:12:19.855.15-Aug-2021 3416.50 4810.03 54.37 4.00 205.63 3268.90
   10:12:20.055.15-Aug-2021 3416.50 4809.57 54.37 4.00 205.83 3268.90
   10:12:20.255.15-Aug-2021 3416.50 4811.05 54.37 4.00 206.03 3268.90
   10:12:20.455.15-Aug-2021 3416.50 4811.05 54.37 4.00 206.23 3268.90
   10:12:20.655.15-Aug-2021 3416.50 4811.83 54.37 4.00 206.43 3268.90
   10:12:20.855.15-Aug-2021 3416.50 4808.52 54.37 4.00 206.63 3268.90
   10:12:21.055.15-Aug-2021 3416.50 4808.03 54.37 4.00 206.83 3268.90
