~Version Information
 VERS.                  2.0:   CWLS log ASCII Standard -VERSION 2.0
 WRAP.                   NO:   One line per depth step
~Well Information Block
#MNEM.UNIT     VALUE/NAME     DESCRIPTION
#---------     -----------    ---------------------------
 STRT.S             10:08:54 15-Aug-21: START TIME 10:08:54 15-Aug-21
 STOP.S             10:17:25 15-Aug-21: STOP TIME  10:17:25 15-Aug-21
 STEP.S                   0.00: STEP TIME
 NULL.                 -999.25: NULL VALUE
 DFWT.                        :  DIST FWL TEXT
 DFST.                        :  DIST FSL TEXT
 DMF .             Drill Floor:  DRILL MEAS FROM
 STIM.      17.18.56 20-Jun-21:  START TIME
 DATE.      17.18.56 20-Aug-21:  END TIME
 SPUD.               20-Jun-21:  SPUD DATE
 NREF.                    Grid:  NORTH REFERENCE
 HPTY.       Minimum Curvature:  HOLE POS TYPE
 DMOD.             Drill Model:  DRILL MOD DESC
 SVYD.                  Survey:  SURVEY DESC
 ILTD.               Lithology:  INTERP LTH DESC
 FTOP.          Formation Tops:  FORM TOPS DESC
 SON .        AZ-XX-0907056190:  JOB NUMBER
 PDAT.       Caspian Sea Level:  PERMANENT DATUM
 WTYP.                Deviated:  WELL TYPE
 MDS .        Operator Entered:  MAG DATA SOURCE
 COMP.     BP Exploration (Caspian Sea) Ltd.:  COMPANY
 UWI .            /AZE20000092:  UNIQUE WELL IDENTIFIER
 API .            /AZE20000092:  API NUMBER
 BASE.              Azerbaijan:  LOGGING EQUIPMENT BASE LOCATION
 REGN.                   EESSA:  REGION
 PROV.                    baku:  PROVINCE
 STAT.                    baku:  STATE NAME
 CTRY.              Azerbaijan:  COUNTRY NAME
 FLD .                     ACG:  FIELD NAME
 SRVC.          Turan Drilling:  CONTRACTOR
 MWDS.                    Baku:  MWD SHOP
 WELL.                     J26:  WELL NAME
 JOBN.        AZ-XX-0907056190:  JOB TICKET NUMB
 RIG .             West Chirag:  RIG NAME
 DOE .                     N/A:  DOE NUMBER
 DCON.         Sperry Drilling:  DIRECTNL CONTR
 UNIT.                     N/A:  LOGGING EQUIPMENT ID
 CNTY.                        :  COUNTY
 LOC .                        :  LOCATION
 LMF .             Drill Floor:  LOG MEASURED FROM
 TVDS.m                  43.00:  TVDSS CORRECTN
 LATI.deg                40.13:  LATITUDE
 LONG.deg                51.22:  LONGITUDE
 WHNS.m                  -7.12:  WELL HEAD N/S
 WHEW.m                  -9.46:  WELL HEAD E/W
 UTMX.m              519004.02:  UTM X
 UTMY.m             4443784.96:  UTM Y
 DFWL.m                   0.00:  DISTANCE FWL
 DFSL.m                   0.00:  DISTANCE FSL
 SDEP.m                 464.00:  START DEPTH
 TDD .m                3500.00:  TOTAL DEPTH (DRILLER)
 VSDR.deg               114.35:  VERT SEC DIRECT
 GVFD.g                   1.00:  GRAVITY FIELD
 MFLD.nT              50386.00:  MAGNETIC FIELD
 MDIP.deg                59.63:  MAGNETIC DIP
 MDEC.deg                 6.43:  MAGNETIC DECL
 GRDC.deg                 0.15:  GRID CORRECTION
 AZTC.deg                 6.29:  AZM TOTAL CORR
 EPD .m                   0.00:  ELEVATION
 EGL .m                   0.00:  GROUND ELEVATION
 WDMS.m                 169.80:  WD ELEV
 APD .m                  43.00:  DEPTH ABOVE PD
 VSEW.m                  -9.46:  VERT SEC E/W
 VSNS.m                  -7.12:  VERT SEC N/S
 AGAP.m                  43.00:  AIR GAP
 DEP .m                 356.16:  DEPTH
 EKB .m                  43.00:  KB ELEVATION
 EDF .m                  43.00:  DF ELEVATION
 TDL .m                 699.00:  TOTAL DEPTH (LOGGER)
 VSC .                       0:  VS TO CLOSURE
 MAGU.                 1853727:  MAGUTM CHECKSUM
~Parameter Information Block
#MNEM.UNIT       Value        Description
#---------     -----------    ---------------------------
 AV  .mps                 1.30:  Ann Velocity 
 AVMX.mps                 1.67:  Max Ann Veloc 
 AZIF.deg               280.40:  Azm, Final 
 BHAT.        Rotary Steerable:  BHA Type 
 BREV.rev            528970.00:  Rev Bit Total 
 BROT.°/30m               1.00:  Build Rotating 
 BS  .in                 12.25:  Bit Size 
 BSZ .in                 12.25:  Bit Size 
 BTPL.psig              738.00:  Bit Press Loss 
 CABU.                     Yes:  Customer Abuse 
 CGEO.        Elvin Suleymanov:  Customer Geo 
 COMM.                     ´½}:  Run Comments 1 
 TCS .hr                 66.05:  Time Ciculation Ended 
 CV  .mps                 2.20:  Crit Velocity 
 CVMX.mps                 2.56:  Max Crit Veloc 
 DD1 .          Rashad Habibov:  Direct Drillr 1 
 DD2 .            Azer ravanov:  Direct Drillr 2 
 DD3 .           Teymur Agayev:  Direct Drillr 3 
 DDSV.               Geo-Pilot:  DD Service 
 DEFF.%                  90.00:  % Det Eff 
 DLRX.°/30m               2.95:  Dogleg Rot Max 
 DLSO.°/30m               1.00:  Dogleg Oriented 
 DLSX.°/30m               2.95:  Dogleg Str Max 
 DRET.      11.42.20 11-Aug-21:  Drill End Time 
 DRST.      23.03.20 08-Aug-21:  Drill Start Tim 
 DTIM.hr                 45.50:  Time Drilling 
 EDEP.m                3488.00:  End Depth 
 ENG1.         Marcelo Marcari:  Engineer 1 
 ENG2.         Dair Mahammadov:  Engineer 2 
 ENG3.       Davud Huseyn-zada:  Engineer 3 
 ENG4.         Yevgeniy Ulikov:  Engineer 4 
 ETIM.      17.45.20 17-Aug-21:  End Time 
 FLOI.gpm              1197.70:  Flow In 
 FLON.gpm              1100.00:  Flow In Min 
 FLOS.cptm                0.00:  Fluid Loss 
 FLOX.gpm              1200.00:  Flow In Max 
 DFT .        Mineral Oil Base:  Mud Type 
 FTRO.       Formation Presure:  FTWD Run Obj 
 HFLO.                      No:  High Flow 
 HPRE.                      No:  High Pressure 
 HTEM.                      No:  High Temp 
 HYDO.m                   1.80:  Hydro Offset 
 IFIN.deg                 9.87:  Inc, Final 
 IMAX.deg                19.96:  Inc Max 
 IMIN.deg                 3.82:  Inc Min 
 IMND.m                3257.42:  Inc Min Depth 
 IMXD.m                2945.53:  Inc Max Depth 
 JARR.                      No:  Jarring 
 LETM.      11.42.20 11-Aug-21:  Log End Time 
 LOST.hr                     0:  Lost Rig Time 
 LSTM.      23.03.20 08-Aug-21:  Log Start Time 
 MDCL.ppm             42500.00:  Mud Chlorides 
 MDES.     Inversion Oil/Synthetic:  Mud Desc 
 DFD .sg                  1.45:  Mud Density 
 MDMN.sg                  1.39:  Dens Mud Min 
 MDMX.sg                  1.57:  Dens Mud Max 
 MOIL.                   53.20:  Run Mud Oil % 
 MOWR.                   70:30:  Run Mud OWR 
 MSND.                       0:  Run Mud Sand % 
 MSOL.                   24.30:  Run Mud Solids% 
 DFV .spqt               79.00:  Mud Viscosity 
 MWOD.in                  8.00:  MWD Tool OD 
 MWSI.                      No:  Serv Intrp, MWD 
 OTIM.hr                253.06:  Time Operating 
 PCON.           Look Like New:  Pad Condition 
 PMAX.psia            11068.93:  Press Op, Max 
 PV  .cP                 36.00:  Mud PV 
 RUN .                    1000:  Run Number 
 ROPA.m/hr               15.34:  ROP Avg 
 ROPN.m/hr                4.00:  ROP Min 
 ROPX.m/hr               31.00:  ROP Max 
 RPMA.rpm               151.40:  RPM Surface Avg 
 RPMN.rpm               120.00:  RPM Surface Min 
 RPMX.rpm               160.00:  RPM Surface Max 
 RRUN.                    L505:  Rig Run Number 
 RTIM.hr                 10.00:  Time Reaming 
 SAZI.deg                88.92:  Azm, Start 
 SDEP.m                2789.00:  Start Depth 
 SIDD.                      No:  Serv Intrp, DD 
 SINC.deg                19.84:  Inc, Start 
 SPPA.psig             4421.39:  SPP Avg 
 SPPN.psig             4130.00:  SPP Min 
 SPPX.psig             4800.00:  SPP Max 
 STIM.      01.25.20 07-Aug-21:  Start Time 
 SVCS.                 DD, MWD:  Services 
 SVER.                    9.20:  Sperry Version 
 TDAT.m                 699.00:  Tot Depth Attmp 
 TDDF.                      No:  Trip for DD 
 TDLG.m                 699.00:  Tot Depth Loggd 
 TFF .                      No:  Trip for Fail 
 TQAA.f-kp               20.55:  Torque Abs Avg 
 TQAN.f-kp               15.00:  Torque Abs Min 
 TQAX.f-kp               24.00:  Torque Abs Max 
 TRRT.°/30m               0.50:  Turn Rotating 
 MRT .                    HCIM:  Maximum Recorded Temperature 
 TTMX.degC               82.35:  Max Tool Temp 
 VS01.                90654677:  Virtual Str1 SN 
 VS02.                90636294:  Virtual Str2 SN 
 VS03.                90653866:  Virtual Str3 SN 
 VS04.                90654674:  Virtual Str4 SN 
 WBMN.klb                10.00:  WOB Min 
 WITN.         Haytham Mostafa:  Customer Rep 
 WITN.           Rufat Babayev:  Customer Rep 2 
 WOBA.klb                22.43:  WOB Avg 
 WOBX.klb                35.00:  WOB Max 
 YP  .lhf2               32.00:  Yield Point 
~Curve Information Block
#MNEM.UNIT                 API CODE     Curve Description
#---------               -----------    ---------------------------
 TIME.HHMMSS            00 000 000 000:  GT Time & Date
 GTDEPTH.m              00 000 000 000:  GT Depth
 GTPQH.psia             00 000 000 000:  GT HR Quartz Pressure
 GTTQ.degC              00 000 000 000:  GT Quartz Temperature
 GTTN.NONE              00 000 000 000:  GT Test Number
 GTET.sec               00 000 000 000:  GT Elapsed Test Time
 GTTVD.m                00 000 000 000:  GT True Vertical Depth
#Other Information
#
#WARRANTY: Halliburton will use its best efforts to furnish customers with 
#accurate information and interpretations that are part of, and incident to, the services 
#provided.  However, Halliburton cannot and does not warrant the accuracy 
#or correctness of such information and interpretations.  Under no circumstances should any 
#such information or interpretation be relied upon as the sole basis for any drilling, 
#completion, production, or financial decision or any procedure involving any risk to the 
#safety of any drilling venture, drilling rig or its crew or any other third party.  The 
#Customer has full responsibility for all drilling, completion and production operation.  
#Halliburton makes no representations or warranties, either expressed or 
#implied, including, but not limited to, the implied warranties of merchantability or fitness 
#for a particular purpose, with respect to the services rendered.  In no event will 
#Halliburton be liable for failure to obtain any particular results or for 
#any damages, including, but not limited to, indirect, special or consequential damages, 
#resulting from the use of any information or interpretation provided by Halliburton.
#
~A           TIME           GTDEPTH  GTPQH  GTTQ  GTTN  GTET   GTTVD  
# ...
   10:11:12.244.15-Aug-2021 3416.50 5185.87 54.39 4.00 138.02 3268.90
   10:11:12.444.15-Aug-2021 3416.50 5185.87 54.39 4.00 138.22 3268.90
   10:11:12.644.15-Aug-2021 3416.50 5185.92 54.39 4.00 138.42 3268.90
   10:11:12.844.15-Aug-2021 3416.50 5186.28 54.39 4.00 138.62 3268.90
   10:11:13.044.15-Aug-2021 3416.50 5185.13 54.39 4.00 138.82 3268.90
   10:11:13.244.15-Aug-2021 3416.50 5185.79 54.39 4.00 139.02 3268.90
   10:11:13.444.15-Aug-2021 3416.50 5185.79 54.39 4.00 139.22 3268.90
   10:11:13.644.15-Aug-2021 3416.50 5186.79 54.39 4.00 139.42 3268.90
   10:11:13.844.15-Aug-2021 3416.50 5185.00 54.39 4.00 139.62 3268.90
   10:11:14.044.15-Aug-2021 3416.50 5185.73 54.39 4.00 139.82 3268.90
   10:11:14.244.15-Aug-2021 3416.50 5185.57 54.39 4.00 140.02 3268.90
   10:11:14.444.15-Aug-2021 3416.50 5185.57 54.39 4.00 140.22 3268.90
   10:11:14.644.15-Aug-2021 3416.50 5185.00 54.39 4.00 140.42 3268.90
   10:11:14.844.15-Aug-2021 3416.50 5185.92 54.39 4.00 140.62 3268.90
   10:11:15.044.15-Aug-2021 3416.50 5185.81 54.39 4.00 140.82 3268.90
   10:11:15.244.15-Aug-2021 3416.50 5185.75 54.39 4.00 141.02 3268.90
   10:11:15.444.15-Aug-2021 3416.50 5185.75 54.39 4.00 141.22 3268.90
   10:11:15.644.15-Aug-2021 3416.50 5185.79 54.39 4.00 141.42 3268.90
   10:11:15.844.15-Aug-2021 3416.50 5185.66 54.39 4.00 141.62 3268.90
   10:11:16.044.15-Aug-2021 3416.50 5185.51 54.39 4.00 141.82 3268.90
   10:11:16.244.15-Aug-2021 3416.50 5186.68 54.39 4.00 142.02 3268.90
   10:11:16.444.15-Aug-2021 3416.50 5186.68 54.39 4.00 142.22 3268.90
   10:11:16.645.15-Aug-2021 3416.50 5185.88 54.39 4.00 142.42 3268.90
   10:11:16.845.15-Aug-2021 3416.50 5185.99 54.39 4.00 142.62 3268.90
   10:11:17.045.15-Aug-2021 3416.50 5185.44 54.39 4.00 142.82 3268.90
   10:11:17.245.15-Aug-2021 3416.50 5185.75 54.39 4.00 143.02 3268.90
   10:11:17.445.15-Aug-2021 3416.50 5185.75 54.39 4.00 143.22 3268.90
   10:11:17.645.15-Aug-2021 3416.50 5184.92 54.39 4.00 143.42 3268.90
   10:11:17.845.15-Aug-2021 3416.50 5185.60 54.39 4.00 143.62 3268.90
   10:11:18.045.15-Aug-2021 3416.50 5186.11 54.39 4.00 143.82 3268.90
   10:11:18.245.15-Aug-2021 3416.50 5186.40 54.39 4.00 144.02 3268.90
   10:11:18.445.15-Aug-2021 3416.50 5186.40 54.39 4.00 144.22 3268.90
   10:11:18.645.15-Aug-2021 3416.50 5185.64 54.39 4.00 144.42 3268.90
   10:11:18.845.15-Aug-2021 3416.50 5185.97 54.39 4.00 144.62 3268.90
   10:11:19.045.15-Aug-2021 3416.50 5186.00 54.39 4.00 144.82 3268.90
   10:11:19.245.15-Aug-2021 3416.50 5185.76 54.39 4.00 145.02 3268.90
   10:11:19.445.15-Aug-2021 3416.50 5185.76 54.39 4.00 145.22 3268.90
   10:11:19.645.15-Aug-2021 3416.50 5186.11 54.39 4.00 145.42 3268.90
   10:11:19.845.15-Aug-2021 3416.50 5185.33 54.39 4.00 145.62 3268.90
   10:11:20.045.15-Aug-2021 3416.50 5186.37 54.39 4.00 145.82 3268.90
   10:11:20.245.15-Aug-2021 3416.50 5185.97 54.39 4.00 146.02 3268.90
   10:11:20.445.15-Aug-2021 3416.50 5185.97 54.39 4.00 146.22 3268.90
   10:11:20.645.15-Aug-2021 3416.50 5185.76 54.39 4.00 146.42 3268.90
   10:11:20.845.15-Aug-2021 3416.50 5185.70 54.39 4.00 146.62 3268.90
   10:11:21.045.15-Aug-2021 3416.50 5186.25 54.39 4.00 146.82 3268.90
   10:11:21.245.15-Aug-2021 3416.50 5185.41 54.39 4.00 147.02 3268.90
   10:11:21.445.15-Aug-2021 3416.50 5185.41 54.39 4.00 147.22 3268.90
   10:11:21.645.15-Aug-2021 3416.50 5185.60 54.39 4.00 147.42 3268.90
   10:11:21.845.15-Aug-2021 3416.50 5185.96 54.39 4.00 147.62 3268.90
   10:11:22.045.15-Aug-2021 3416.50 5185.51 54.39 4.00 147.82 3268.90
   10:11:22.245.15-Aug-2021 3416.50 5186.75 54.39 4.00 148.02 3268.90
   10:11:22.445.15-Aug-2021 3416.50 5186.75 54.39 4.00 148.22 3268.90
   10:11:22.646.15-Aug-2021 3416.50 5185.80 54.39 4.00 148.42 3268.90
   10:11:22.846.15-Aug-2021 3416.50 5185.76 54.39 4.00 148.62 3268.90
   10:11:23.046.15-Aug-2021 3416.50 5185.70 54.39 4.00 148.82 3268.90
   10:11:23.246.15-Aug-2021 3416.50 5185.51 54.39 4.00 149.02 3268.90
   10:11:23.446.15-Aug-2021 3416.50 5185.51 54.39 4.00 149.22 3268.90
   10:11:23.646.15-Aug-2021 3416.50 5185.87 54.39 4.00 149.42 3268.90
   10:11:23.846.15-Aug-2021 3416.50 5185.76 54.39 4.00 149.62 3268.90
   10:11:24.046.15-Aug-2021 3416.50 5186.75 54.39 4.00 149.82 3268.90
   10:11:24.246.15-Aug-2021 3416.50 5184.86 54.39 4.00 150.02 3268.90
   10:11:24.446.15-Aug-2021 3416.50 5184.86 54.39 4.00 150.22 3268.90
   10:11:24.646.15-Aug-2021 3416.50 5186.01 54.39 4.00 150.42 3268.90
   10:11:24.846.15-Aug-2021 3416.50 5186.50 54.39 4.00 150.62 3268.90
   10:11:25.046.15-Aug-2021 3416.50 5184.92 54.39 4.00 150.82 3268.90
   10:11:25.246.15-Aug-2021 3416.50 5185.75 54.39 4.00 151.02 3268.90
   10:11:25.446.15-Aug-2021 3416.50 5185.75 54.39 4.00 151.22 3268.90
   10:11:25.646.15-Aug-2021 3416.50 5186.46 54.39 4.00 151.42 3268.90
   10:11:25.846.15-Aug-2021 3416.50 5185.03 54.39 4.00 151.62 3268.90
   10:11:26.046.15-Aug-2021 3416.50 5185.56 54.39 4.00 151.82 3268.90
   10:11:26.246.15-Aug-2021 3416.50 5186.01 54.39 4.00 152.02 3268.90
   10:11:26.446.15-Aug-2021 3416.50 5186.01 54.39 4.00 152.22 3268.90
   10:11:26.646.15-Aug-2021 3416.50 5185.67 54.39 4.00 152.42 3268.90
   10:11:26.846.15-Aug-2021 3416.50 5185.57 54.39 4.00 152.62 3268.90
   10:11:27.046.15-Aug-2021 3416.50 5186.08 54.39 4.00 152.83 3268.90
   10:11:27.246.15-Aug-2021 3416.50 5185.18 54.39 4.00 153.03 3268.90
   10:11:27.446.15-Aug-2021 3416.50 5185.18 54.39 4.00 153.23 3268.90
   10:11:27.646.15-Aug-2021 3416.50 5185.88 54.39 4.00 153.43 3268.90
   10:11:27.846.15-Aug-2021 3416.50 5185.58 54.39 4.00 153.63 3268.90
   10:11:28.046.15-Aug-2021 3416.50 5185.72 54.39 4.00 153.83 3268.90
   10:11:28.246.15-Aug-2021 3416.50 5185.70 54.39 4.00 154.03 3268.90
   10:11:28.446.15-Aug-2021 3416.50 5185.70 54.39 4.00 154.23 3268.90
   10:11:28.646.15-Aug-2021 3416.50 5185.54 54.39 4.00 154.43 3268.90
   10:11:28.847.15-Aug-2021 3416.50 5185.87 54.39 4.00 154.63 3268.90
   10:11:29.047.15-Aug-2021 3416.50 5185.37 54.39 4.00 154.83 3268.90
   10:11:29.247.15-Aug-2021 3416.50 5185.78 54.39 4.00 155.03 3268.90
   10:11:29.447.15-Aug-2021 3416.50 5185.78 54.39 4.00 155.23 3268.90
   10:11:29.647.15-Aug-2021 3416.50 5186.31 54.39 4.00 155.43 3268.90
   10:11:29.847.15-Aug-2021 3416.50 5185.65 54.39 4.00 155.63 3268.90
   10:11:30.047.15-Aug-2021 3416.50 5185.86 54.39 4.00 155.83 3268.90
   10:11:30.247.15-Aug-2021 3416.50 5185.48 54.39 4.00 156.03 3268.90
   10:11:30.447.15-Aug-2021 3416.50 5185.48 54.39 4.00 156.23 3268.90
   10:11:30.647.15-Aug-2021 3416.50 5185.57 54.39 4.00 156.43 3268.90
   10:11:30.847.15-Aug-2021 3416.50 5185.66 54.39 4.00 156.63 3268.90
   10:11:31.047.15-Aug-2021 3416.50 5185.70 54.39 4.00 156.83 3268.90
   10:11:31.247.15-Aug-2021 3416.50 5185.61 54.39 4.00 157.03 3268.90
   10:11:31.447.15-Aug-2021 3416.50 5185.61 54.39 4.00 157.23 3268.90
   10:11:31.647.15-Aug-2021 3416.50 5185.11 54.39 4.00 157.43 3268.90
   10:11:31.847.15-Aug-2021 3416.50 5185.71 54.39 4.00 157.63 3268.90
   10:11:32.047.15-Aug-2021 3416.50 5185.80 54.39 4.00 157.83 3268.90
   10:11:32.247.15-Aug-2021 3416.50 5185.77 54.39 4.00 158.03 3268.90
   10:11:32.447.15-Aug-2021 3416.50 5185.77 54.39 4.00 158.23 3268.90
   10:11:32.647.15-Aug-2021 3416.50 5185.15 54.39 4.00 158.43 3268.90
   10:11:32.847.15-Aug-2021 3416.50 5185.79 54.39 4.00 158.63 3268.90
   10:11:33.047.15-Aug-2021 3416.50 5185.74 54.39 4.00 158.83 3268.90
   10:11:33.247.15-Aug-2021 3416.50 5186.63 54.39 4.00 159.03 3268.90
   10:11:33.447.15-Aug-2021 3416.50 5186.63 54.39 4.00 159.23 3268.90
   10:11:33.647.15-Aug-2021 3416.50 5185.79 54.39 4.00 159.43 3268.90
   10:11:33.847.15-Aug-2021 3416.50 5185.86 54.39 4.00 159.63 3268.90
   10:11:34.047.15-Aug-2021 3416.50 5186.76 54.39 4.00 159.83 3268.90
   10:11:34.247.15-Aug-2021 3416.50 5184.84 54.39 4.00 160.03 3268.90
   10:11:34.447.15-Aug-2021 3416.50 5184.84 54.39 4.00 160.23 3268.90
   10:11:34.647.15-Aug-2021 3416.50 5185.99 54.39 4.00 160.43 3268.90
   10:11:34.848.15-Aug-2021 3416.50 5185.54 54.39 4.00 160.63 3268.90
   10:11:35.048.15-Aug-2021 3416.50 5186.41 54.39 4.00 160.83 3268.90
