~Version Information
 VERS.                  2.0:   CWLS log ASCII Standard -VERSION 2.0
 WRAP.                   NO:   One line per depth step
~Well Information Block
#MNEM.UNIT     VALUE/NAME     DESCRIPTION
#---------     -----------    ---------------------------
 STRT.S             10:08:54 15-Aug-21: START TIME 10:08:54 15-Aug-21
 STOP.S             10:17:25 15-Aug-21: STOP TIME  10:17:25 15-Aug-21
 STEP.S                   0.00: STEP TIME
 NULL.                 -999.25: NULL VALUE
 DFWT.                        :  DIST FWL TEXT
 DFST.                        :  DIST FSL TEXT
 DMF .             Drill Floor:  DRILL MEAS FROM
 STIM.      17.18.56 20-Jun-21:  START TIME
 DATE.      17.18.56 20-Aug-21:  END TIME
 SPUD.               20-Jun-21:  SPUD DATE
 NREF.                    Grid:  NORTH REFERENCE
 HPTY.       Minimum Curvature:  HOLE POS TYPE
 DMOD.             Drill Model:  DRILL MOD DESC
 SVYD.                  Survey:  SURVEY DESC
 ILTD.               Lithology:  INTERP LTH DESC
 FTOP.          Formation Tops:  FORM TOPS DESC
 SON .        AZ-XX-0907056190:  JOB NUMBER
 PDAT.       Caspian Sea Level:  PERMANENT DATUM
 WTYP.                Deviated:  WELL TYPE
 MDS .        Operator Entered:  MAG DATA SOURCE
 COMP.     BP Exploration (Caspian Sea) Ltd.:  COMPANY
 UWI .            /AZE20000092:  UNIQUE WELL IDENTIFIER
 API .            /AZE20000092:  API NUMBER
 BASE.              Azerbaijan:  LOGGING EQUIPMENT BASE LOCATION
 REGN.                   EESSA:  REGION
 PROV.                    baku:  PROVINCE
 STAT.                    baku:  STATE NAME
 CTRY.              Azerbaijan:  COUNTRY NAME
 FLD .                     ACG:  FIELD NAME
 SRVC.          Turan Drilling:  CONTRACTOR
 MWDS.                    Baku:  MWD SHOP
 WELL.                     J26:  WELL NAME
 JOBN.        AZ-XX-0907056190:  JOB TICKET NUMB
 RIG .             West Chirag:  RIG NAME
 DOE .                     N/A:  DOE NUMBER
 DCON.         Sperry Drilling:  DIRECTNL CONTR
 UNIT.                     N/A:  LOGGING EQUIPMENT ID
 CNTY.                        :  COUNTY
 LOC .                        :  LOCATION
 LMF .             Drill Floor:  LOG MEASURED FROM
 TVDS.m                  43.00:  TVDSS CORRECTN
 LATI.deg                40.13:  LATITUDE
 LONG.deg                51.22:  LONGITUDE
 WHNS.m                  -7.12:  WELL HEAD N/S
 WHEW.m                  -9.46:  WELL HEAD E/W
 UTMX.m              519004.02:  UTM X
 UTMY.m             4443784.96:  UTM Y
 DFWL.m                   0.00:  DISTANCE FWL
 DFSL.m                   0.00:  DISTANCE FSL
 SDEP.m                 464.00:  START DEPTH
 TDD .m                3500.00:  TOTAL DEPTH (DRILLER)
 VSDR.deg               114.35:  VERT SEC DIRECT
 GVFD.g                   1.00:  GRAVITY FIELD
 MFLD.nT              50386.00:  MAGNETIC FIELD
 MDIP.deg                59.63:  MAGNETIC DIP
 MDEC.deg                 6.43:  MAGNETIC DECL
 GRDC.deg                 0.15:  GRID CORRECTION
 AZTC.deg                 6.29:  AZM TOTAL CORR
 EPD .m                   0.00:  ELEVATION
 EGL .m                   0.00:  GROUND ELEVATION
 WDMS.m                 169.80:  WD ELEV
 APD .m                  43.00:  DEPTH ABOVE PD
 VSEW.m                  -9.46:  VERT SEC E/W
 VSNS.m                  -7.12:  VERT SEC N/S
 AGAP.m                  43.00:  AIR GAP
 DEP .m                 356.16:  DEPTH
 EKB .m                  43.00:  KB ELEVATION
 EDF .m                  43.00:  DF ELEVATION
 TDL .m                 699.00:  TOTAL DEPTH (LOGGER)
 VSC .                       0:  VS TO CLOSURE
 MAGU.                 1853727:  MAGUTM CHECKSUM
~Parameter Information Block
#MNEM.UNIT       Value        Description
#---------     -----------    ---------------------------
 AV  .mps                 1.30:  Ann Velocity 
 AVMX.mps                 1.67:  Max Ann Veloc 
 AZIF.deg               280.40:  Azm, Final 
 BHAT.        Rotary Steerable:  BHA Type 
 BREV.rev            528970.00:  Rev Bit Total 
 BROT.°/30m               1.00:  Build Rotating 
 BS  .in                 12.25:  Bit Size 
 BSZ .in                 12.25:  Bit Size 
 BTPL.psig              738.00:  Bit Press Loss 
 CABU.                     Yes:  Customer Abuse 
 CGEO.        Elvin Suleymanov:  Customer Geo 
 COMM.                     ´½}:  Run Comments 1 
 TCS .hr                 66.05:  Time Ciculation Ended 
 CV  .mps                 2.20:  Crit Velocity 
 CVMX.mps                 2.56:  Max Crit Veloc 
 DD1 .          Rashad Habibov:  Direct Drillr 1 
 DD2 .            Azer ravanov:  Direct Drillr 2 
 DD3 .           Teymur Agayev:  Direct Drillr 3 
 DDSV.               Geo-Pilot:  DD Service 
 DEFF.%                  90.00:  % Det Eff 
 DLRX.°/30m               2.95:  Dogleg Rot Max 
 DLSO.°/30m               1.00:  Dogleg Oriented 
 DLSX.°/30m               2.95:  Dogleg Str Max 
 DRET.      11.42.20 11-Aug-21:  Drill End Time 
 DRST.      23.03.20 08-Aug-21:  Drill Start Tim 
 DTIM.hr                 45.50:  Time Drilling 
 EDEP.m                3488.00:  End Depth 
 ENG1.         Marcelo Marcari:  Engineer 1 
 ENG2.         Dair Mahammadov:  Engineer 2 
 ENG3.       Davud Huseyn-zada:  Engineer 3 
 ENG4.         Yevgeniy Ulikov:  Engineer 4 
 ETIM.      17.45.20 17-Aug-21:  End Time 
 FLOI.gpm              1197.70:  Flow In 
 FLON.gpm              1100.00:  Flow In Min 
 FLOS.cptm                0.00:  Fluid Loss 
 FLOX.gpm              1200.00:  Flow In Max 
 DFT .        Mineral Oil Base:  Mud Type 
 FTRO.       Formation Presure:  FTWD Run Obj 
 HFLO.                      No:  High Flow 
 HPRE.                      No:  High Pressure 
 HTEM.                      No:  High Temp 
 HYDO.m                   1.80:  Hydro Offset 
 IFIN.deg                 9.87:  Inc, Final 
 IMAX.deg                19.96:  Inc Max 
 IMIN.deg                 3.82:  Inc Min 
 IMND.m                3257.42:  Inc Min Depth 
 IMXD.m                2945.53:  Inc Max Depth 
 JARR.                      No:  Jarring 
 LETM.      11.42.20 11-Aug-21:  Log End Time 
 LOST.hr                     0:  Lost Rig Time 
 LSTM.      23.03.20 08-Aug-21:  Log Start Time 
 MDCL.ppm             42500.00:  Mud Chlorides 
 MDES.     Inversion Oil/Synthetic:  Mud Desc 
 DFD .sg                  1.45:  Mud Density 
 MDMN.sg                  1.39:  Dens Mud Min 
 MDMX.sg                  1.57:  Dens Mud Max 
 MOIL.                   53.20:  Run Mud Oil % 
 MOWR.                   70:30:  Run Mud OWR 
 MSND.                       0:  Run Mud Sand % 
 MSOL.                   24.30:  Run Mud Solids% 
 DFV .spqt               79.00:  Mud Viscosity 
 MWOD.in                  8.00:  MWD Tool OD 
 MWSI.                      No:  Serv Intrp, MWD 
 OTIM.hr                253.06:  Time Operating 
 PCON.           Look Like New:  Pad Condition 
 PMAX.psia            11068.93:  Press Op, Max 
 PV  .cP                 36.00:  Mud PV 
 RUN .                    1000:  Run Number 
 ROPA.m/hr               15.34:  ROP Avg 
 ROPN.m/hr                4.00:  ROP Min 
 ROPX.m/hr               31.00:  ROP Max 
 RPMA.rpm               151.40:  RPM Surface Avg 
 RPMN.rpm               120.00:  RPM Surface Min 
 RPMX.rpm               160.00:  RPM Surface Max 
 RRUN.                    L505:  Rig Run Number 
 RTIM.hr                 10.00:  Time Reaming 
 SAZI.deg                88.92:  Azm, Start 
 SDEP.m                2789.00:  Start Depth 
 SIDD.                      No:  Serv Intrp, DD 
 SINC.deg                19.84:  Inc, Start 
 SPPA.psig             4421.39:  SPP Avg 
 SPPN.psig             4130.00:  SPP Min 
 SPPX.psig             4800.00:  SPP Max 
 STIM.      01.25.20 07-Aug-21:  Start Time 
 SVCS.                 DD, MWD:  Services 
 SVER.                    9.20:  Sperry Version 
 TDAT.m                 699.00:  Tot Depth Attmp 
 TDDF.                      No:  Trip for DD 
 TDLG.m                 699.00:  Tot Depth Loggd 
 TFF .                      No:  Trip for Fail 
 TQAA.f-kp               20.55:  Torque Abs Avg 
 TQAN.f-kp               15.00:  Torque Abs Min 
 TQAX.f-kp               24.00:  Torque Abs Max 
 TRRT.°/30m               0.50:  Turn Rotating 
 MRT .                    HCIM:  Maximum Recorded Temperature 
 TTMX.degC               82.35:  Max Tool Temp 
 VS01.                90654677:  Virtual Str1 SN 
 VS02.                90636294:  Virtual Str2 SN 
 VS03.                90653866:  Virtual Str3 SN 
 VS04.                90654674:  Virtual Str4 SN 
 WBMN.klb                10.00:  WOB Min 
 WITN.         Haytham Mostafa:  Customer Rep 
 WITN.           Rufat Babayev:  Customer Rep 2 
 WOBA.klb                22.43:  WOB Avg 
 WOBX.klb                35.00:  WOB Max 
 YP  .lhf2               32.00:  Yield Point 
~Curve Information Block
#MNEM.UNIT                 API CODE     Curve Description
#---------               -----------    ---------------------------
 TIME.HHMMSS            00 000 000 000:  GT Time & Date
 GTDEPTH.m              00 000 000 000:  GT Depth
 GTPQH.psia             00 000 000 000:  GT HR Quartz Pressure
 GTTQ.degC              00 000 000 000:  GT Quartz Temperature
 GTTN.NONE              00 000 000 000:  GT Test Number
 GTET.sec               00 000 000 000:  GT Elapsed Test Time
 GTTVD.m                00 000 000 000:  GT True Vertical Depth
#Other Information
#
#WARRANTY: Halliburton will use its best efforts to furnish customers with 
#accurate information and interpretations that are part of, and incident to, the services 
#provided.  However, Halliburton cannot and does not warrant the accuracy 
#or correctness of such information and interpretations.  Under no circumstances should any 
#such information or interpretation be relied upon as the sole basis for any drilling, 
#completion, production, or financial decision or any procedure involving any risk to the 
#safety of any drilling venture, drilling rig or its crew or any other third party.  The 
#Customer has full responsibility for all drilling, completion and production operation.  
#Halliburton makes no representations or warranties, either expressed or 
#implied, including, but not limited to, the implied warranties of merchantability or fitness 
#for a particular purpose, with respect to the services rendered.  In no event will 
#Halliburton be liable for failure to obtain any particular results or for 
#any damages, including, but not limited to, indirect, special or consequential damages, 
#resulting from the use of any information or interpretation provided by Halliburton.
#
~A           TIME           GTDEPTH  GTPQH  GTTQ  GTTN  GTET   GTTVD  
# ...
   10:16:34.297.15-Aug-2021 3416.50 5184.79 54.30 4.00 460.08 3268.90
   10:16:34.497.15-Aug-2021 3416.50 5184.79 54.30 4.00 460.28 3268.90
   10:16:34.697.15-Aug-2021 3416.50 5184.87 54.30 4.00 460.48 3268.90
   10:16:34.897.15-Aug-2021 3416.50 5184.74 54.30 4.00 460.68 3268.90
   10:16:35.097.15-Aug-2021 3416.50 5185.09 54.30 4.00 460.88 3268.90
   10:16:35.297.15-Aug-2021 3416.50 5184.65 54.30 4.00 461.08 3268.90
   10:16:35.497.15-Aug-2021 3416.50 5184.65 54.30 4.00 461.28 3268.90
   10:16:35.697.15-Aug-2021 3416.50 5184.65 54.30 4.00 461.48 3268.90
   10:16:35.897.15-Aug-2021 3416.50 5184.93 54.30 4.00 461.68 3268.90
   10:16:36.097.15-Aug-2021 3416.50 5184.77 54.30 4.00 461.88 3268.90
   10:16:36.297.15-Aug-2021 3416.50 5185.35 54.30 4.00 462.08 3268.90
   10:16:36.497.15-Aug-2021 3416.50 5185.35 54.30 4.00 462.28 3268.90
   10:16:36.697.15-Aug-2021 3416.50 5184.87 54.30 4.00 462.48 3268.90
   10:16:36.897.15-Aug-2021 3416.50 5184.69 54.30 4.00 462.68 3268.90
   10:16:37.097.15-Aug-2021 3416.50 5185.04 54.30 4.00 462.88 3268.90
   10:16:37.297.15-Aug-2021 3416.50 5184.75 54.30 4.00 463.08 3268.90
   10:16:37.497.15-Aug-2021 3416.50 5184.75 54.30 4.00 463.28 3268.90
   10:16:37.697.15-Aug-2021 3416.50 5184.86 54.30 4.00 463.48 3268.90
   10:16:37.897.15-Aug-2021 3416.50 5184.82 54.30 4.00 463.68 3268.90
   10:16:38.097.15-Aug-2021 3416.50 5185.54 54.30 4.00 463.88 3268.90
   10:16:38.297.15-Aug-2021 3416.50 5184.32 54.30 4.00 464.08 3268.90
   10:16:38.497.15-Aug-2021 3416.50 5184.32 54.30 4.00 464.28 3268.90
   10:16:38.697.15-Aug-2021 3416.50 5184.85 54.30 4.00 464.48 3268.90
   10:16:38.897.15-Aug-2021 3416.50 5185.68 54.30 4.00 464.68 3268.90
   10:16:39.097.15-Aug-2021 3416.50 5184.10 54.30 4.00 464.88 3268.90
   10:16:39.297.15-Aug-2021 3416.50 5184.90 54.30 4.00 465.08 3268.90
   10:16:39.497.15-Aug-2021 3416.50 5184.90 54.30 4.00 465.28 3268.90
   10:16:39.697.15-Aug-2021 3416.50 5185.67 54.30 4.00 465.48 3268.90
   10:16:39.897.15-Aug-2021 3416.50 5184.18 54.30 4.00 465.68 3268.90
   10:16:40.097.15-Aug-2021 3416.50 5184.85 54.30 4.00 465.88 3268.90
   10:16:40.298.15-Aug-2021 3416.50 5184.81 54.30 4.00 466.08 3268.90
   10:16:40.498.15-Aug-2021 3416.50 5184.81 54.30 4.00 466.28 3268.90
   10:16:40.698.15-Aug-2021 3416.50 5184.21 54.30 4.00 466.48 3268.90
   10:16:40.898.15-Aug-2021 3416.50 5184.90 54.30 4.00 466.68 3268.90
   10:16:41.098.15-Aug-2021 3416.50 5184.93 54.30 4.00 466.88 3268.90
   10:16:41.298.15-Aug-2021 3416.50 5184.60 54.30 4.00 467.08 3268.90
   10:16:41.498.15-Aug-2021 3416.50 5184.60 54.30 4.00 467.28 3268.90
   10:16:41.698.15-Aug-2021 3416.50 5184.46 54.30 4.00 467.48 3268.90
   10:16:41.898.15-Aug-2021 3416.50 5184.81 54.30 4.00 467.68 3268.90
   10:16:42.098.15-Aug-2021 3416.50 5184.93 54.30 4.00 467.88 3268.90
   10:16:42.298.15-Aug-2021 3416.50 5185.18 54.30 4.00 468.08 3268.90
   10:16:42.498.15-Aug-2021 3416.50 5185.18 54.30 4.00 468.28 3268.90
   10:16:42.698.15-Aug-2021 3416.50 5184.86 54.30 4.00 468.48 3268.90
   10:16:42.898.15-Aug-2021 3416.50 5185.06 54.30 4.00 468.68 3268.90
   10:16:43.098.15-Aug-2021 3416.50 5184.47 54.30 4.00 468.88 3268.90
   10:16:43.298.15-Aug-2021 3416.50 5185.00 54.30 4.00 469.08 3268.90
   10:16:43.498.15-Aug-2021 3416.50 5185.00 54.30 4.00 469.28 3268.90
   10:16:43.698.15-Aug-2021 3416.50 5184.68 54.30 4.00 469.48 3268.90
   10:16:43.898.15-Aug-2021 3416.50 5184.89 54.30 4.00 469.68 3268.90
   10:16:44.098.15-Aug-2021 3416.50 5185.14 54.30 4.00 469.88 3268.90
   10:16:44.298.15-Aug-2021 3416.50 5184.48 54.30 4.00 470.08 3268.90
   10:16:44.498.15-Aug-2021 3416.50 5184.48 54.30 4.00 470.28 3268.90
   10:16:44.698.15-Aug-2021 3416.50 5184.74 54.30 4.00 470.48 3268.90
   10:16:44.898.15-Aug-2021 3416.50 5184.82 54.30 4.00 470.68 3268.90
   10:16:45.098.15-Aug-2021 3416.50 5184.82 54.30 4.00 470.88 3268.90
   10:16:45.298.15-Aug-2021 3416.50 5185.02 54.30 4.00 471.08 3268.90
   10:16:45.498.15-Aug-2021 3416.50 5185.02 54.30 4.00 471.28 3268.90
   10:16:45.698.15-Aug-2021 3416.50 5184.69 54.30 4.00 471.48 3268.90
   10:16:45.898.15-Aug-2021 3416.50 5184.87 54.30 4.00 471.68 3268.90
   10:16:46.098.15-Aug-2021 3416.50 5184.78 54.30 4.00 471.88 3268.90
   10:16:46.299.15-Aug-2021 3416.50 5185.36 54.30 4.00 472.08 3268.90
   10:16:46.499.15-Aug-2021 3416.50 5185.36 54.30 4.00 472.28 3268.90
   10:16:46.699.15-Aug-2021 3416.50 5184.91 54.30 4.00 472.48 3268.90
   10:16:46.899.15-Aug-2021 3416.50 5184.84 54.30 4.00 472.68 3268.90
   10:16:47.099.15-Aug-2021 3416.50 5185.32 54.30 4.00 472.88 3268.90
   10:16:47.299.15-Aug-2021 3416.50 5184.46 54.30 4.00 473.08 3268.90
   10:16:47.499.15-Aug-2021 3416.50 5184.46 54.30 4.00 473.28 3268.90
   10:16:47.699.15-Aug-2021 3416.50 5184.70 54.30 4.00 473.48 3268.90
   10:16:47.899.15-Aug-2021 3416.50 5185.75 54.30 4.00 473.68 3268.90
   10:16:48.099.15-Aug-2021 3416.50 5184.28 54.30 4.00 473.88 3268.90
   10:16:48.299.15-Aug-2021 3416.50 5184.90 54.30 4.00 474.08 3268.90
   10:16:48.499.15-Aug-2021 3416.50 5184.90 54.30 4.00 474.28 3268.90
   10:16:48.699.15-Aug-2021 3416.50 5184.88 54.30 4.00 474.48 3268.90
   10:16:48.899.15-Aug-2021 3416.50 5232.64 54.30 4.00 474.68 3268.90
   10:16:49.099.15-Aug-2021 3416.50 5338.05 54.30 4.00 474.88 3268.90
   10:16:49.299.15-Aug-2021 3416.50 5249.31 54.30 4.00 475.08 3268.90
   10:16:49.499.15-Aug-2021 3416.50 5249.31 54.30 4.00 475.28 3268.90
   10:16:49.699.15-Aug-2021 3416.50 5118.38 54.30 4.00 475.48 3268.90
   10:16:49.899.15-Aug-2021 3416.50 4911.10 54.30 4.00 475.68 3268.90
   10:16:50.099.15-Aug-2021 3416.50 4889.82 54.30 4.00 475.88 3268.90
   10:16:50.299.15-Aug-2021 3416.50 5111.91 54.30 4.00 476.08 3268.90
   10:16:50.499.15-Aug-2021 3416.50 5111.91 54.30 4.00 476.28 3268.90
   10:16:50.699.15-Aug-2021 3416.50 5424.66 54.30 4.00 476.48 3268.90
   10:16:50.899.15-Aug-2021 3416.50 5542.07 54.30 4.00 476.68 3268.90
   10:16:51.099.15-Aug-2021 3416.50 5658.81 54.30 4.00 476.88 3268.90
   10:16:51.299.15-Aug-2021 3416.50 5786.18 54.30 4.00 477.08 3268.90
   10:16:51.499.15-Aug-2021 3416.50 5786.18 54.30 4.00 477.28 3268.90
   10:16:51.699.15-Aug-2021 3416.50 7476.41 54.30 4.00 477.48 3268.90
   10:16:51.899.15-Aug-2021 3416.50 7475.36 54.30 4.00 477.68 3268.90
   10:16:52.099.15-Aug-2021 3416.50 7474.59 54.30 4.00 477.88 3268.90
   10:16:52.299.15-Aug-2021 3416.50 7474.29 54.30 4.00 478.08 3268.90
   10:16:52.500.15-Aug-2021 3416.50 7474.29 54.30 4.00 478.28 3268.90
   10:16:52.700.15-Aug-2021 3416.50 7479.73 54.30 4.00 478.48 3268.90
   10:16:52.900.15-Aug-2021 3416.50 7476.42 54.30 4.00 478.68 3268.90
   10:16:53.100.15-Aug-2021 3416.50 7476.56 54.30 4.00 478.88 3268.90
   10:16:53.300.15-Aug-2021 3416.50 7476.84 54.31 4.00 479.08 3268.90
   10:16:53.500.15-Aug-2021 3416.50 7476.84 54.31 4.00 479.28 3268.90
   10:16:53.700.15-Aug-2021 3416.50 7477.41 54.31 4.00 479.48 3268.90
   10:16:53.900.15-Aug-2021 3416.50 7477.13 54.31 4.00 479.68 3268.90
   10:16:54.100.15-Aug-2021 3416.50 7478.14 54.31 4.00 479.88 3268.90
   10:16:54.300.15-Aug-2021 3416.50 7483.01 54.31 4.00 480.08 3268.90
   10:16:54.500.15-Aug-2021 3416.50 7483.01 54.31 4.00 480.28 3268.90
   10:16:54.700.15-Aug-2021 3416.50 7478.23 54.32 4.00 480.48 3268.90
   10:16:54.900.15-Aug-2021 3416.50 7478.15 54.32 4.00 480.68 3268.90
   10:16:55.100.15-Aug-2021 3416.50 7481.98 54.32 4.00 480.88 3268.90
   10:16:55.300.15-Aug-2021 3416.50 7480.28 54.32 4.00 481.08 3268.90
   10:16:55.500.15-Aug-2021 3416.50 7480.28 54.32 4.00 481.28 3268.90
   10:16:55.700.15-Aug-2021 3416.50 7478.76 54.32 4.00 481.48 3268.90
   10:16:55.900.15-Aug-2021 3416.50 7479.11 54.33 4.00 481.68 3268.90
   10:16:56.100.15-Aug-2021 3416.50 7479.52 54.33 4.00 481.88 3268.90
   10:16:56.300.15-Aug-2021 3416.50 7481.78 54.33 4.00 482.08 3268.90
   10:16:56.500.15-Aug-2021 3416.50 7481.78 54.33 4.00 482.28 3268.90
   10:16:56.700.15-Aug-2021 3416.50 7478.95 54.33 4.00 482.48 3268.90
   10:16:56.900.15-Aug-2021 3416.50 7479.71 54.33 4.00 482.68 3268.90
   10:16:57.100.15-Aug-2021 3416.50 7481.56 54.33 4.00 482.88 3268.90
