~Version Information
 VERS.                  2.0:   CWLS log ASCII Standard -VERSION 2.0
 WRAP.                   NO:   One line per depth step
~Well Information Block
#MNEM.UNIT     VALUE/NAME     DESCRIPTION
#---------     -----------    ---------------------------
 STRT.S             06:52:24 15-Aug-21: START TIME 06:52:24 15-Aug-21
 STOP.S             06:59:28 15-Aug-21: STOP TIME  06:59:28 15-Aug-21
 STEP.S                   0.00: STEP TIME
 NULL.                 -999.25: NULL VALUE
 DFWT.                        :  DIST FWL TEXT
 DFST.                        :  DIST FSL TEXT
 DMF .             Drill Floor:  DRILL MEAS FROM
 STIM.      17.18.56 20-Jun-21:  START TIME
 DATE.      17.18.56 20-Aug-21:  END TIME
 SPUD.               20-Jun-21:  SPUD DATE
 NREF.                    Grid:  NORTH REFERENCE
 HPTY.       Minimum Curvature:  HOLE POS TYPE
 DMOD.             Drill Model:  DRILL MOD DESC
 SVYD.                  Survey:  SURVEY DESC
 ILTD.               Lithology:  INTERP LTH DESC
 FTOP.          Formation Tops:  FORM TOPS DESC
 SON .        AZ-XX-0907056190:  JOB NUMBER
 PDAT.       Caspian Sea Level:  PERMANENT DATUM
 WTYP.                Deviated:  WELL TYPE
 MDS .        Operator Entered:  MAG DATA SOURCE
 COMP.     BP Exploration (Caspian Sea) Ltd.:  COMPANY
 UWI .            /AZE20000092:  UNIQUE WELL IDENTIFIER
 API .            /AZE20000092:  API NUMBER
 BASE.              Azerbaijan:  LOGGING EQUIPMENT BASE LOCATION
 REGN.                   EESSA:  REGION
 PROV.                    baku:  PROVINCE
 STAT.                    baku:  STATE NAME
 CTRY.              Azerbaijan:  COUNTRY NAME
 FLD .                     ACG:  FIELD NAME
 SRVC.          Turan Drilling:  CONTRACTOR
 MWDS.                    Baku:  MWD SHOP
 WELL.                     J26:  WELL NAME
 JOBN.        AZ-XX-0907056190:  JOB TICKET NUMB
 RIG .             West Chirag:  RIG NAME
 DOE .                     N/A:  DOE NUMBER
 DCON.         Sperry Drilling:  DIRECTNL CONTR
 UNIT.                     N/A:  LOGGING EQUIPMENT ID
 CNTY.                        :  COUNTY
 LOC .                        :  LOCATION
 LMF .             Drill Floor:  LOG MEASURED FROM
 TVDS.m                  43.00:  TVDSS CORRECTN
 LATI.deg                40.13:  LATITUDE
 LONG.deg                51.22:  LONGITUDE
 WHNS.m                  -7.12:  WELL HEAD N/S
 WHEW.m                  -9.46:  WELL HEAD E/W
 UTMX.m              519004.02:  UTM X
 UTMY.m             4443784.96:  UTM Y
 DFWL.m                   0.00:  DISTANCE FWL
 DFSL.m                   0.00:  DISTANCE FSL
 SDEP.m                 464.00:  START DEPTH
 TDD .m                3500.00:  TOTAL DEPTH (DRILLER)
 VSDR.deg               114.35:  VERT SEC DIRECT
 GVFD.g                   1.00:  GRAVITY FIELD
 MFLD.nT              50386.00:  MAGNETIC FIELD
 MDIP.deg                59.63:  MAGNETIC DIP
 MDEC.deg                 6.43:  MAGNETIC DECL
 GRDC.deg                 0.15:  GRID CORRECTION
 AZTC.deg                 6.29:  AZM TOTAL CORR
 EPD .m                   0.00:  ELEVATION
 EGL .m                   0.00:  GROUND ELEVATION
 WDMS.m                 169.80:  WD ELEV
 APD .m                  43.00:  DEPTH ABOVE PD
 VSEW.m                  -9.46:  VERT SEC E/W
 VSNS.m                  -7.12:  VERT SEC N/S
 AGAP.m                  43.00:  AIR GAP
 DEP .m                 356.16:  DEPTH
 EKB .m                  43.00:  KB ELEVATION
 EDF .m                  43.00:  DF ELEVATION
 TDL .m                 699.00:  TOTAL DEPTH (LOGGER)
 VSC .                       0:  VS TO CLOSURE
 MAGU.                 1853727:  MAGUTM CHECKSUM
~Parameter Information Block
#MNEM.UNIT       Value        Description
#---------     -----------    ---------------------------
 AV  .mps                 1.30:  Ann Velocity 
 AVMX.mps                 1.67:  Max Ann Veloc 
 AZIF.deg               280.40:  Azm, Final 
 BHAT.        Rotary Steerable:  BHA Type 
 BREV.rev            528970.00:  Rev Bit Total 
 BROT.°/30m               1.00:  Build Rotating 
 BS  .in                 12.25:  Bit Size 
 BSZ .in                 12.25:  Bit Size 
 BTPL.psig              738.00:  Bit Press Loss 
 CABU.                     Yes:  Customer Abuse 
 CGEO.        Elvin Suleymanov:  Customer Geo 
 COMM.                     ¬kS:  Run Comments 1 
 TCS .hr                 66.05:  Time Ciculation Ended 
 CV  .mps                 2.20:  Crit Velocity 
 CVMX.mps                 2.56:  Max Crit Veloc 
 DD1 .          Rashad Habibov:  Direct Drillr 1 
 DD2 .            Azer ravanov:  Direct Drillr 2 
 DD3 .           Teymur Agayev:  Direct Drillr 3 
 DDSV.               Geo-Pilot:  DD Service 
 DEFF.%                  90.00:  % Det Eff 
 DLRX.°/30m               2.95:  Dogleg Rot Max 
 DLSO.°/30m               1.00:  Dogleg Oriented 
 DLSX.°/30m               2.95:  Dogleg Str Max 
 DRET.      11.42.20 11-Aug-21:  Drill End Time 
 DRST.      23.03.20 08-Aug-21:  Drill Start Tim 
 DTIM.hr                 45.50:  Time Drilling 
 EDEP.m                3488.00:  End Depth 
 ENG1.         Marcelo Marcari:  Engineer 1 
 ENG2.         Dair Mahammadov:  Engineer 2 
 ENG3.       Davud Huseyn-zada:  Engineer 3 
 ENG4.         Yevgeniy Ulikov:  Engineer 4 
 ETIM.      17.45.20 17-Aug-21:  End Time 
 FLOI.gpm              1197.70:  Flow In 
 FLON.gpm              1100.00:  Flow In Min 
 FLOS.cptm                0.00:  Fluid Loss 
 FLOX.gpm              1200.00:  Flow In Max 
 DFT .        Mineral Oil Base:  Mud Type 
 FTRO.       Formation Presure:  FTWD Run Obj 
 HFLO.                      No:  High Flow 
 HPRE.                      No:  High Pressure 
 HTEM.                      No:  High Temp 
 HYDO.m                   1.80:  Hydro Offset 
 IFIN.deg                 9.87:  Inc, Final 
 IMAX.deg                19.96:  Inc Max 
 IMIN.deg                 3.82:  Inc Min 
 IMND.m                3257.42:  Inc Min Depth 
 IMXD.m                2945.53:  Inc Max Depth 
 JARR.                      No:  Jarring 
 LETM.      11.42.20 11-Aug-21:  Log End Time 
 LOST.hr                     0:  Lost Rig Time 
 LSTM.      23.03.20 08-Aug-21:  Log Start Time 
 MDCL.ppm             42500.00:  Mud Chlorides 
 MDES.     Inversion Oil/Synthetic:  Mud Desc 
 DFD .sg                  1.45:  Mud Density 
 MDMN.sg                  1.39:  Dens Mud Min 
 MDMX.sg                  1.57:  Dens Mud Max 
 MOIL.                   53.20:  Run Mud Oil % 
 MOWR.                   70:30:  Run Mud OWR 
 MSND.                       0:  Run Mud Sand % 
 MSOL.                   24.30:  Run Mud Solids% 
 DFV .spqt               79.00:  Mud Viscosity 
 MWOD.in                  8.00:  MWD Tool OD 
 MWSI.                      No:  Serv Intrp, MWD 
 OTIM.hr                253.06:  Time Operating 
 PCON.           Look Like New:  Pad Condition 
 PMAX.psia            11068.93:  Press Op, Max 
 PV  .cP                 36.00:  Mud PV 
 RUN .                    1000:  Run Number 
 ROPA.m/hr               15.34:  ROP Avg 
 ROPN.m/hr                4.00:  ROP Min 
 ROPX.m/hr               31.00:  ROP Max 
 RPMA.rpm               151.40:  RPM Surface Avg 
 RPMN.rpm               120.00:  RPM Surface Min 
 RPMX.rpm               160.00:  RPM Surface Max 
 RRUN.                    L505:  Rig Run Number 
 RTIM.hr                 10.00:  Time Reaming 
 SAZI.deg                88.92:  Azm, Start 
 SDEP.m                2789.00:  Start Depth 
 SIDD.                      No:  Serv Intrp, DD 
 SINC.deg                19.84:  Inc, Start 
 SPPA.psig             4421.39:  SPP Avg 
 SPPN.psig             4130.00:  SPP Min 
 SPPX.psig             4800.00:  SPP Max 
 STIM.      01.25.20 07-Aug-21:  Start Time 
 SVCS.                 DD, MWD:  Services 
 SVER.                    9.20:  Sperry Version 
 TDAT.m                 699.00:  Tot Depth Attmp 
 TDDF.                      No:  Trip for DD 
 TDLG.m                 699.00:  Tot Depth Loggd 
 TFF .                      No:  Trip for Fail 
 TQAA.f-kp               20.55:  Torque Abs Avg 
 TQAN.f-kp               15.00:  Torque Abs Min 
 TQAX.f-kp               24.00:  Torque Abs Max 
 TRRT.°/30m               0.50:  Turn Rotating 
 MRT .                    HCIM:  Maximum Recorded Temperature 
 TTMX.degC               82.35:  Max Tool Temp 
 VS01.                90654677:  Virtual Str1 SN 
 VS02.                90636294:  Virtual Str2 SN 
 VS03.                90653866:  Virtual Str3 SN 
 VS04.                90654674:  Virtual Str4 SN 
 WBMN.klb                10.00:  WOB Min 
 WITN.         Haytham Mostafa:  Customer Rep 
 WITN.           Rufat Babayev:  Customer Rep 2 
 WOBA.klb                22.43:  WOB Avg 
 WOBX.klb                35.00:  WOB Max 
 YP  .lhf2               32.00:  Yield Point 
~Curve Information Block
#MNEM.UNIT                 API CODE     Curve Description
#---------               -----------    ---------------------------
 TIME.HHMMSS            00 000 000 000:  GT Time & Date
 GTDEPTH.m              00 000 000 000:  GT Depth
 GTPQH.psia             00 000 000 000:  GT HR Quartz Pressure
 GTTQ.degC              00 000 000 000:  GT Quartz Temperature
 GTTN.NONE              00 000 000 000:  GT Test Number
 GTET.sec               00 000 000 000:  GT Elapsed Test Time
 GTTVD.m                00 000 000 000:  GT True Vertical Depth
#Other Information
#
#WARRANTY: Halliburton will use its best efforts to furnish customers with 
#accurate information and interpretations that are part of, and incident to, the services 
#provided.  However, Halliburton cannot and does not warrant the accuracy 
#or correctness of such information and interpretations.  Under no circumstances should any 
#such information or interpretation be relied upon as the sole basis for any drilling, 
#completion, production, or financial decision or any procedure involving any risk to the 
#safety of any drilling venture, drilling rig or its crew or any other third party.  The 
#Customer has full responsibility for all drilling, completion and production operation.  
#Halliburton makes no representations or warranties, either expressed or 
#implied, including, but not limited to, the implied warranties of merchantability or fitness 
#for a particular purpose, with respect to the services rendered.  In no event will 
#Halliburton be liable for failure to obtain any particular results or for 
#any damages, including, but not limited to, indirect, special or consequential damages, 
#resulting from the use of any information or interpretation provided by Halliburton.
#
~A           TIME           GTDEPTH  GTPQH  GTTQ  GTTN  GTET   GTTVD  
# ...
   06:57:46.716.15-Aug-2021 3437.50 5216.44 57.98 1.00 322.02 3289.56
   06:57:46.916.15-Aug-2021 3437.50 5216.44 57.98 1.00 322.22 3289.56
   06:57:47.116.15-Aug-2021 3437.50 5216.86 57.98 1.00 322.42 3289.56
   06:57:47.316.15-Aug-2021 3437.50 5216.21 57.98 1.00 322.62 3289.56
   06:57:47.516.15-Aug-2021 3437.50 5216.53 57.98 1.00 322.82 3289.56
   06:57:47.716.15-Aug-2021 3437.50 5216.36 57.98 1.00 323.02 3289.56
   06:57:47.916.15-Aug-2021 3437.50 5216.36 57.98 1.00 323.22 3289.56
   06:57:48.116.15-Aug-2021 3437.50 5216.53 57.98 1.00 323.42 3289.56
   06:57:48.316.15-Aug-2021 3437.50 5216.63 57.98 1.00 323.62 3289.56
   06:57:48.516.15-Aug-2021 3437.50 5216.59 57.98 1.00 323.82 3289.56
   06:57:48.716.15-Aug-2021 3437.50 5216.53 57.98 1.00 324.02 3289.56
   06:57:48.916.15-Aug-2021 3437.50 5216.53 57.98 1.00 324.22 3289.56
   06:57:49.116.15-Aug-2021 3437.50 5216.10 57.98 1.00 324.42 3289.56
   06:57:49.316.15-Aug-2021 3437.50 5216.58 57.98 1.00 324.62 3289.56
   06:57:49.516.15-Aug-2021 3437.50 5216.60 57.98 1.00 324.82 3289.56
   06:57:49.717.15-Aug-2021 3437.50 5217.16 57.98 1.00 325.02 3289.56
   06:57:49.917.15-Aug-2021 3437.50 5217.16 57.98 1.00 325.22 3289.56
   06:57:50.117.15-Aug-2021 3437.50 5216.39 57.98 1.00 325.42 3289.56
   06:57:50.317.15-Aug-2021 3437.50 5216.45 57.98 1.00 325.62 3289.56
   06:57:50.517.15-Aug-2021 3437.50 5216.53 57.98 1.00 325.82 3289.56
   06:57:50.717.15-Aug-2021 3437.50 5216.60 57.98 1.00 326.02 3289.56
   06:57:50.917.15-Aug-2021 3437.50 5216.60 57.98 1.00 326.22 3289.56
   06:57:51.117.15-Aug-2021 3437.50 5216.26 57.98 1.00 326.42 3289.56
   06:57:51.317.15-Aug-2021 3437.50 5216.58 57.98 1.00 326.62 3289.56
   06:57:51.517.15-Aug-2021 3437.50 5216.66 57.98 1.00 326.82 3289.56
   06:57:51.717.15-Aug-2021 3437.50 5217.16 57.98 1.00 327.02 3289.56
   06:57:51.917.15-Aug-2021 3437.50 5217.16 57.98 1.00 327.22 3289.56
   06:57:52.117.15-Aug-2021 3437.50 5216.32 57.98 1.00 327.42 3289.56
   06:57:52.317.15-Aug-2021 3437.50 5216.76 57.98 1.00 327.62 3289.56
   06:57:52.517.15-Aug-2021 3437.50 5216.56 57.98 1.00 327.82 3289.56
   06:57:52.717.15-Aug-2021 3437.50 5216.99 57.98 1.00 328.02 3289.56
   06:57:52.917.15-Aug-2021 3437.50 5216.99 57.98 1.00 328.22 3289.56
   06:57:53.117.15-Aug-2021 3437.50 5216.35 57.98 1.00 328.42 3289.56
   06:57:53.317.15-Aug-2021 3437.50 5216.95 57.98 1.00 328.62 3289.56
   06:57:53.517.15-Aug-2021 3437.50 5216.89 57.98 1.00 328.82 3289.56
   06:57:53.717.15-Aug-2021 3437.50 5216.86 57.98 1.00 329.02 3289.56
   06:57:53.917.15-Aug-2021 3437.50 5216.86 57.98 1.00 329.22 3289.56
   06:57:54.117.15-Aug-2021 3437.50 5216.87 57.98 1.00 329.42 3289.56
   06:57:54.317.15-Aug-2021 3437.50 5216.80 57.98 1.00 329.62 3289.56
   06:57:54.517.15-Aug-2021 3437.50 5216.88 57.98 1.00 329.82 3289.56
   06:57:54.717.15-Aug-2021 3437.50 5216.22 57.98 1.00 330.02 3289.56
   06:57:54.917.15-Aug-2021 3437.50 5216.22 57.98 1.00 330.22 3289.56
   06:57:55.117.15-Aug-2021 3437.50 5216.41 57.98 1.00 330.42 3289.56
   06:57:55.317.15-Aug-2021 3437.50 5216.81 57.98 1.00 330.62 3289.56
   06:57:55.517.15-Aug-2021 3437.50 5216.49 57.98 1.00 330.82 3289.56
   06:57:55.717.15-Aug-2021 3437.50 5216.57 57.98 1.00 331.02 3289.56
   06:57:55.917.15-Aug-2021 3437.50 5216.57 57.98 1.00 331.22 3289.56
   06:57:56.117.15-Aug-2021 3437.50 5216.71 57.98 1.00 331.42 3289.56
   06:57:56.317.15-Aug-2021 3437.50 5217.18 57.98 1.00 331.62 3289.56
   06:57:56.517.15-Aug-2021 3437.50 5216.19 57.98 1.00 331.82 3289.56
   06:57:56.717.15-Aug-2021 3437.50 5216.78 57.98 1.00 332.02 3289.56
   06:57:56.917.15-Aug-2021 3437.50 5216.78 57.98 1.00 332.22 3289.56
   06:57:57.117.15-Aug-2021 3437.50 5216.80 57.98 1.00 332.42 3289.56
   06:57:57.317.15-Aug-2021 3437.50 5217.12 57.98 1.00 332.62 3289.56
   06:57:57.517.15-Aug-2021 3437.50 5216.29 57.98 1.00 332.82 3289.56
   06:57:57.717.15-Aug-2021 3437.50 5216.67 57.98 1.00 333.02 3289.56
   06:57:57.917.15-Aug-2021 3437.50 5216.67 57.98 1.00 333.22 3289.56
   06:57:58.117.15-Aug-2021 3437.50 5216.65 57.98 1.00 333.42 3289.56
   06:57:58.317.15-Aug-2021 3437.50 5216.71 57.98 1.00 333.62 3289.56
   06:57:58.517.15-Aug-2021 3437.50 5217.12 57.98 1.00 333.82 3289.56
   06:57:58.717.15-Aug-2021 3437.50 5216.04 57.98 1.00 334.02 3289.56
   06:57:58.917.15-Aug-2021 3437.50 5216.04 57.98 1.00 334.22 3289.56
   06:57:59.117.15-Aug-2021 3437.50 5216.55 57.98 1.00 334.42 3289.56
   06:57:59.317.15-Aug-2021 3437.50 5217.31 57.98 1.00 334.62 3289.56
   06:57:59.517.15-Aug-2021 3437.50 5216.23 57.98 1.00 334.82 3289.56
   06:57:59.717.15-Aug-2021 3437.50 5216.63 57.98 1.00 335.02 3289.56
   06:57:59.917.15-Aug-2021 3437.50 5216.63 57.98 1.00 335.22 3289.56
   06:58:00.117.15-Aug-2021 3437.50 5216.78 57.98 1.00 335.42 3289.56
   06:58:00.317.15-Aug-2021 3437.50 5217.16 57.98 1.00 335.62 3289.56
   06:58:00.517.15-Aug-2021 3437.50 5216.28 57.98 1.00 335.82 3289.56
   06:58:00.717.15-Aug-2021 3437.50 5216.66 57.98 1.00 336.02 3289.56
   06:58:00.917.15-Aug-2021 3437.50 5216.66 57.98 1.00 336.22 3289.56
   06:58:01.117.15-Aug-2021 3437.50 5217.17 57.98 1.00 336.42 3289.56
   06:58:01.317.15-Aug-2021 3437.50 5216.42 57.98 1.00 336.62 3289.56
   06:58:01.517.15-Aug-2021 3437.50 5216.56 57.98 1.00 336.82 3289.56
   06:58:01.717.15-Aug-2021 3437.50 5216.91 57.98 1.00 337.02 3289.56
   06:58:01.917.15-Aug-2021 3437.50 5216.91 57.98 1.00 337.22 3289.56
   06:58:02.117.15-Aug-2021 3437.50 5216.78 57.98 1.00 337.42 3289.56
   06:58:02.317.15-Aug-2021 3437.50 5217.15 57.98 1.00 337.62 3289.56
   06:58:02.517.15-Aug-2021 3437.50 5216.49 57.98 1.00 337.82 3289.56
   06:58:02.717.15-Aug-2021 3437.50 5216.58 57.98 1.00 338.02 3289.56
   06:58:02.917.15-Aug-2021 3437.50 5216.58 57.98 1.00 338.22 3289.56
   06:58:03.117.15-Aug-2021 3437.50 5216.45 57.98 1.00 338.42 3289.56
   06:58:03.317.15-Aug-2021 3437.50 5216.75 57.98 1.00 338.62 3289.56
   06:58:03.517.15-Aug-2021 3437.50 5216.67 57.98 1.00 338.82 3289.56
   06:58:03.718.15-Aug-2021 3437.50 5216.85 57.98 1.00 339.02 3289.56
   06:58:03.918.15-Aug-2021 3437.50 5216.85 57.98 1.00 339.22 3289.56
   06:58:04.118.15-Aug-2021 3437.50 5216.92 57.98 1.00 339.42 3289.56
   06:58:04.318.15-Aug-2021 3437.50 5216.65 57.98 1.00 339.62 3289.56
   06:58:04.518.15-Aug-2021 3437.50 5216.41 57.98 1.00 339.82 3289.56
   06:58:04.718.15-Aug-2021 3437.50 5217.06 57.98 1.00 340.02 3289.56
   06:58:04.918.15-Aug-2021 3437.50 5217.06 57.98 1.00 340.22 3289.56
   06:58:05.118.15-Aug-2021 3437.50 5216.90 57.98 1.00 340.42 3289.56
   06:58:05.318.15-Aug-2021 3437.50 5216.08 57.98 1.00 340.62 3289.56
   06:58:05.518.15-Aug-2021 3437.50 5217.06 57.98 1.00 340.82 3289.56
   06:58:05.718.15-Aug-2021 3437.50 5216.43 57.98 1.00 341.02 3289.56
   06:58:05.918.15-Aug-2021 3437.50 5216.43 57.98 1.00 341.22 3289.56
   06:58:06.118.15-Aug-2021 3437.50 5216.79 57.98 1.00 341.42 3289.56
   06:58:06.318.15-Aug-2021 3437.50 5216.69 57.98 1.00 341.62 3289.56
   06:58:06.518.15-Aug-2021 3437.50 5216.29 57.98 1.00 341.82 3289.56
   06:58:06.718.15-Aug-2021 3437.50 5217.11 57.98 1.00 342.02 3289.56
   06:58:06.918.15-Aug-2021 3437.50 5217.11 57.98 1.00 342.22 3289.56
   06:58:07.118.15-Aug-2021 3437.50 5217.29 57.98 1.00 342.42 3289.56
   06:58:07.318.15-Aug-2021 3437.50 5215.95 57.98 1.00 342.62 3289.56
   06:58:07.518.15-Aug-2021 3437.50 5217.02 57.98 1.00 342.82 3289.56
   06:58:07.718.15-Aug-2021 3437.50 5216.65 57.98 1.00 343.02 3289.56
   06:58:07.918.15-Aug-2021 3437.50 5216.65 57.98 1.00 343.22 3289.56
   06:58:08.118.15-Aug-2021 3437.50 5216.97 57.98 1.00 343.42 3289.56
   06:58:08.318.15-Aug-2021 3437.50 5216.47 57.98 1.00 343.62 3289.56
   06:58:08.518.15-Aug-2021 3437.50 5216.92 57.98 1.00 343.82 3289.56
   06:58:08.718.15-Aug-2021 3437.50 5216.78 57.98 1.00 344.02 3289.56
   06:58:08.918.15-Aug-2021 3437.50 5216.78 57.98 1.00 344.22 3289.56
   06:58:09.118.15-Aug-2021 3437.50 5216.29 57.98 1.00 344.42 3289.56
   06:58:09.318.15-Aug-2021 3437.50 5216.61 57.98 1.00 344.62 3289.56
   06:58:09.518.15-Aug-2021 3437.50 5216.74 57.98 1.00 344.82 3289.56
