~Version Information
 VERS.                  2.0:   CWLS log ASCII Standard -VERSION 2.0
 WRAP.                   NO:   One line per depth step
~Well Information Block
#MNEM.UNIT     VALUE/NAME     DESCRIPTION
#---------     -----------    ---------------------------
 STRT.S             12:25:56 15-Aug-21: START TIME 12:25:56 15-Aug-21
 STOP.S             12:39:05 15-Aug-21: STOP TIME  12:39:05 15-Aug-21
 STEP.S                   0.00: STEP TIME
 NULL.                 -999.25: NULL VALUE
 DFWT.                        :  DIST FWL TEXT
 DFST.                        :  DIST FSL TEXT
 DMF .             Drill Floor:  DRILL MEAS FROM
 STIM.      17.18.56 20-Jun-21:  START TIME
 DATE.      17.18.56 20-Aug-21:  END TIME
 SPUD.               20-Jun-21:  SPUD DATE
 NREF.                    Grid:  NORTH REFERENCE
 HPTY.       Minimum Curvature:  HOLE POS TYPE
 DMOD.             Drill Model:  DRILL MOD DESC
 SVYD.                  Survey:  SURVEY DESC
 ILTD.               Lithology:  INTERP LTH DESC
 FTOP.          Formation Tops:  FORM TOPS DESC
 SON .        AZ-XX-0907056190:  JOB NUMBER
 PDAT.       Caspian Sea Level:  PERMANENT DATUM
 WTYP.                Deviated:  WELL TYPE
 MDS .        Operator Entered:  MAG DATA SOURCE
 COMP.     BP Exploration (Caspian Sea) Ltd.:  COMPANY
 UWI .            /AZE20000092:  UNIQUE WELL IDENTIFIER
 API .            /AZE20000092:  API NUMBER
 BASE.              Azerbaijan:  LOGGING EQUIPMENT BASE LOCATION
 REGN.                   EESSA:  REGION
 PROV.                    baku:  PROVINCE
 STAT.                    baku:  STATE NAME
 CTRY.              Azerbaijan:  COUNTRY NAME
 FLD .                     ACG:  FIELD NAME
 SRVC.          Turan Drilling:  CONTRACTOR
 MWDS.                    Baku:  MWD SHOP
 WELL.                     J26:  WELL NAME
 JOBN.        AZ-XX-0907056190:  JOB TICKET NUMB
 RIG .             West Chirag:  RIG NAME
 DOE .                     N/A:  DOE NUMBER
 DCON.         Sperry Drilling:  DIRECTNL CONTR
 UNIT.                     N/A:  LOGGING EQUIPMENT ID
 CNTY.                        :  COUNTY
 LOC .                        :  LOCATION
 LMF .             Drill Floor:  LOG MEASURED FROM
 TVDS.m                  43.00:  TVDSS CORRECTN
 LATI.deg                40.13:  LATITUDE
 LONG.deg                51.22:  LONGITUDE
 WHNS.m                  -7.12:  WELL HEAD N/S
 WHEW.m                  -9.46:  WELL HEAD E/W
 UTMX.m              519004.02:  UTM X
 UTMY.m             4443784.96:  UTM Y
 DFWL.m                   0.00:  DISTANCE FWL
 DFSL.m                   0.00:  DISTANCE FSL
 SDEP.m                 464.00:  START DEPTH
 TDD .m                3500.00:  TOTAL DEPTH (DRILLER)
 VSDR.deg               114.35:  VERT SEC DIRECT
 GVFD.g                   1.00:  GRAVITY FIELD
 MFLD.nT              50386.00:  MAGNETIC FIELD
 MDIP.deg                59.63:  MAGNETIC DIP
 MDEC.deg                 6.43:  MAGNETIC DECL
 GRDC.deg                 0.15:  GRID CORRECTION
 AZTC.deg                 6.29:  AZM TOTAL CORR
 EPD .m                   0.00:  ELEVATION
 EGL .m                   0.00:  GROUND ELEVATION
 WDMS.m                 169.80:  WD ELEV
 APD .m                  43.00:  DEPTH ABOVE PD
 VSEW.m                  -9.46:  VERT SEC E/W
 VSNS.m                  -7.12:  VERT SEC N/S
 AGAP.m                  43.00:  AIR GAP
 DEP .m                 356.16:  DEPTH
 EKB .m                  43.00:  KB ELEVATION
 EDF .m                  43.00:  DF ELEVATION
 TDL .m                 699.00:  TOTAL DEPTH (LOGGER)
 VSC .                       0:  VS TO CLOSURE
 MAGU.                 1853727:  MAGUTM CHECKSUM
~Parameter Information Block
#MNEM.UNIT       Value        Description
#---------     -----------    ---------------------------
 AV  .mps                 1.30:  Ann Velocity 
 AVMX.mps                 1.67:  Max Ann Veloc 
 AZIF.deg               280.40:  Azm, Final 
 BHAT.        Rotary Steerable:  BHA Type 
 BREV.rev            528970.00:  Rev Bit Total 
 BROT.°/30m               1.00:  Build Rotating 
 BS  .in                 12.25:  Bit Size 
 BSZ .in                 12.25:  Bit Size 
 BTPL.psig              738.00:  Bit Press Loss 
 CABU.                     Yes:  Customer Abuse 
 CGEO.        Elvin Suleymanov:  Customer Geo 
 COMM.                     ´3x:  Run Comments 1 
 TCS .hr                 66.05:  Time Ciculation Ended 
 CV  .mps                 2.20:  Crit Velocity 
 CVMX.mps                 2.56:  Max Crit Veloc 
 DD1 .          Rashad Habibov:  Direct Drillr 1 
 DD2 .            Azer ravanov:  Direct Drillr 2 
 DD3 .           Teymur Agayev:  Direct Drillr 3 
 DDSV.               Geo-Pilot:  DD Service 
 DEFF.%                  90.00:  % Det Eff 
 DLRX.°/30m               2.95:  Dogleg Rot Max 
 DLSO.°/30m               1.00:  Dogleg Oriented 
 DLSX.°/30m               2.95:  Dogleg Str Max 
 DRET.      11.42.20 11-Aug-21:  Drill End Time 
 DRST.      23.03.20 08-Aug-21:  Drill Start Tim 
 DTIM.hr                 45.50:  Time Drilling 
 EDEP.m                3488.00:  End Depth 
 ENG1.         Marcelo Marcari:  Engineer 1 
 ENG2.         Dair Mahammadov:  Engineer 2 
 ENG3.       Davud Huseyn-zada:  Engineer 3 
 ENG4.         Yevgeniy Ulikov:  Engineer 4 
 ETIM.      17.45.20 17-Aug-21:  End Time 
 FLOI.gpm              1197.70:  Flow In 
 FLON.gpm              1100.00:  Flow In Min 
 FLOS.cptm                0.00:  Fluid Loss 
 FLOX.gpm              1200.00:  Flow In Max 
 DFT .        Mineral Oil Base:  Mud Type 
 FTRO.       Formation Presure:  FTWD Run Obj 
 HFLO.                      No:  High Flow 
 HPRE.                      No:  High Pressure 
 HTEM.                      No:  High Temp 
 HYDO.m                   1.80:  Hydro Offset 
 IFIN.deg                 9.87:  Inc, Final 
 IMAX.deg                19.96:  Inc Max 
 IMIN.deg                 3.82:  Inc Min 
 IMND.m                3257.42:  Inc Min Depth 
 IMXD.m                2945.53:  Inc Max Depth 
 JARR.                      No:  Jarring 
 LETM.      11.42.20 11-Aug-21:  Log End Time 
 LOST.hr                     0:  Lost Rig Time 
 LSTM.      23.03.20 08-Aug-21:  Log Start Time 
 MDCL.ppm             42500.00:  Mud Chlorides 
 MDES.     Inversion Oil/Synthetic:  Mud Desc 
 DFD .sg                  1.45:  Mud Density 
 MDMN.sg                  1.39:  Dens Mud Min 
 MDMX.sg                  1.57:  Dens Mud Max 
 MOIL.                   53.20:  Run Mud Oil % 
 MOWR.                   70:30:  Run Mud OWR 
 MSND.                       0:  Run Mud Sand % 
 MSOL.                   24.30:  Run Mud Solids% 
 DFV .spqt               79.00:  Mud Viscosity 
 MWOD.in                  8.00:  MWD Tool OD 
 MWSI.                      No:  Serv Intrp, MWD 
 OTIM.hr                253.06:  Time Operating 
 PCON.           Look Like New:  Pad Condition 
 PMAX.psia            11068.93:  Press Op, Max 
 PV  .cP                 36.00:  Mud PV 
 RUN .                    1000:  Run Number 
 ROPA.m/hr               15.34:  ROP Avg 
 ROPN.m/hr                4.00:  ROP Min 
 ROPX.m/hr               31.00:  ROP Max 
 RPMA.rpm               151.40:  RPM Surface Avg 
 RPMN.rpm               120.00:  RPM Surface Min 
 RPMX.rpm               160.00:  RPM Surface Max 
 RRUN.                    L505:  Rig Run Number 
 RTIM.hr                 10.00:  Time Reaming 
 SAZI.deg                88.92:  Azm, Start 
 SDEP.m                2789.00:  Start Depth 
 SIDD.                      No:  Serv Intrp, DD 
 SINC.deg                19.84:  Inc, Start 
 SPPA.psig             4421.39:  SPP Avg 
 SPPN.psig             4130.00:  SPP Min 
 SPPX.psig             4800.00:  SPP Max 
 STIM.      01.25.20 07-Aug-21:  Start Time 
 SVCS.                 DD, MWD:  Services 
 SVER.                    9.20:  Sperry Version 
 TDAT.m                 699.00:  Tot Depth Attmp 
 TDDF.                      No:  Trip for DD 
 TDLG.m                 699.00:  Tot Depth Loggd 
 TFF .                      No:  Trip for Fail 
 TQAA.f-kp               20.55:  Torque Abs Avg 
 TQAN.f-kp               15.00:  Torque Abs Min 
 TQAX.f-kp               24.00:  Torque Abs Max 
 TRRT.°/30m               0.50:  Turn Rotating 
 MRT .                    HCIM:  Maximum Recorded Temperature 
 TTMX.degC               82.35:  Max Tool Temp 
 VS01.                90654677:  Virtual Str1 SN 
 VS02.                90636294:  Virtual Str2 SN 
 VS03.                90653866:  Virtual Str3 SN 
 VS04.                90654674:  Virtual Str4 SN 
 WBMN.klb                10.00:  WOB Min 
 WITN.         Haytham Mostafa:  Customer Rep 
 WITN.           Rufat Babayev:  Customer Rep 2 
 WOBA.klb                22.43:  WOB Avg 
 WOBX.klb                35.00:  WOB Max 
 YP  .lhf2               32.00:  Yield Point 
~Curve Information Block
#MNEM.UNIT                 API CODE     Curve Description
#---------               -----------    ---------------------------
 TIME.HHMMSS            00 000 000 000:  GT Time & Date
 GTDEPTH.m              00 000 000 000:  GT Depth
 GTPQH.psia             00 000 000 000:  GT HR Quartz Pressure
 GTTQ.degC              00 000 000 000:  GT Quartz Temperature
 GTTN.NONE              00 000 000 000:  GT Test Number
 GTET.sec               00 000 000 000:  GT Elapsed Test Time
 GTTVD.m                00 000 000 000:  GT True Vertical Depth
#Other Information
#
#WARRANTY: Halliburton will use its best efforts to furnish customers with 
#accurate information and interpretations that are part of, and incident to, the services 
#provided.  However, Halliburton cannot and does not warrant the accuracy 
#or correctness of such information and interpretations.  Under no circumstances should any 
#such information or interpretation be relied upon as the sole basis for any drilling, 
#completion, production, or financial decision or any procedure involving any risk to the 
#safety of any drilling venture, drilling rig or its crew or any other third party.  The 
#Customer has full responsibility for all drilling, completion and production operation.  
#Halliburton makes no representations or warranties, either expressed or 
#implied, including, but not limited to, the implied warranties of merchantability or fitness 
#for a particular purpose, with respect to the services rendered.  In no event will 
#Halliburton be liable for failure to obtain any particular results or for 
#any damages, including, but not limited to, indirect, special or consequential damages, 
#resulting from the use of any information or interpretation provided by Halliburton.
#
~A           TIME           GTDEPTH  GTPQH  GTTQ  GTTN  GTET   GTTVD  
# ...
   12:30:09.760.15-Aug-2021 3405.50 5845.80 52.43 6.00 252.85 3258.07
   12:30:09.960.15-Aug-2021 3405.50 5845.80 52.43 6.00 253.05 3258.07
   12:30:10.160.15-Aug-2021 3405.50 5847.44 52.43 6.00 253.25 3258.07
   12:30:10.360.15-Aug-2021 3405.50 5848.27 52.43 6.00 253.45 3258.07
   12:30:10.560.15-Aug-2021 3405.50 5849.19 52.43 6.00 253.65 3258.07
   12:30:10.760.15-Aug-2021 3405.50 5850.33 52.43 6.00 253.85 3258.07
   12:30:10.960.15-Aug-2021 3405.50 5850.33 52.43 6.00 254.05 3258.07
   12:30:11.159.15-Aug-2021 3405.50 5851.49 52.43 6.00 254.25 3258.07
   12:30:11.359.15-Aug-2021 3405.50 5852.26 52.43 6.00 254.45 3258.07
   12:30:11.559.15-Aug-2021 3405.50 5853.00 52.43 6.00 254.65 3258.07
   12:30:11.759.15-Aug-2021 3405.50 5853.73 52.43 6.00 254.85 3258.07
   12:30:11.959.15-Aug-2021 3405.50 5853.73 52.43 6.00 255.05 3258.07
   12:30:12.159.15-Aug-2021 3405.50 5855.72 52.43 6.00 255.25 3258.07
   12:30:12.359.15-Aug-2021 3405.50 5856.76 52.43 6.00 255.45 3258.07
   12:30:12.559.15-Aug-2021 3405.50 5857.51 52.43 6.00 255.65 3258.07
   12:30:12.758.15-Aug-2021 3405.50 5858.34 52.43 6.00 255.85 3258.07
   12:30:12.958.15-Aug-2021 3405.50 5858.34 52.43 6.00 256.05 3258.07
   12:30:13.158.15-Aug-2021 3405.50 5860.22 52.43 6.00 256.25 3258.07
   12:30:13.358.15-Aug-2021 3405.50 5860.86 52.43 6.00 256.45 3258.07
   12:30:13.558.15-Aug-2021 3405.50 5861.78 52.43 6.00 256.65 3258.07
   12:30:13.758.15-Aug-2021 3405.50 5862.70 52.43 6.00 256.85 3258.07
   12:30:13.958.15-Aug-2021 3405.50 5862.70 52.43 6.00 257.05 3258.07
   12:30:14.158.15-Aug-2021 3405.50 5864.54 52.43 6.00 257.25 3258.07
   12:30:14.358.15-Aug-2021 3405.50 5865.38 52.43 6.00 257.45 3258.07
   12:30:14.557.15-Aug-2021 3405.50 5866.23 52.43 6.00 257.64 3258.07
   12:30:14.757.15-Aug-2021 3405.50 5867.12 52.43 6.00 257.84 3258.07
   12:30:14.957.15-Aug-2021 3405.50 5867.12 52.43 6.00 258.04 3258.07
   12:30:15.157.15-Aug-2021 3405.50 5868.72 52.43 6.00 258.24 3258.07
   12:30:15.357.15-Aug-2021 3405.50 5869.63 52.43 6.00 258.44 3258.07
   12:30:15.557.15-Aug-2021 3405.50 5870.84 52.43 6.00 258.64 3258.07
   12:30:15.757.15-Aug-2021 3405.50 5871.92 52.43 6.00 258.84 3258.07
   12:30:15.957.15-Aug-2021 3405.50 5871.92 52.43 6.00 259.04 3258.07
   12:30:16.156.15-Aug-2021 3405.50 5873.36 52.43 6.00 259.24 3258.07
   12:30:16.356.15-Aug-2021 3405.50 5874.06 52.43 6.00 259.44 3258.07
   12:30:16.556.15-Aug-2021 3405.50 5874.86 52.43 6.00 259.64 3258.07
   12:30:16.756.15-Aug-2021 3405.50 5875.83 52.43 6.00 259.84 3258.07
   12:30:16.956.15-Aug-2021 3405.50 5875.83 52.43 6.00 260.04 3258.07
   12:30:17.156.15-Aug-2021 3405.50 5877.66 52.43 6.00 260.24 3258.07
   12:30:17.356.15-Aug-2021 3405.50 5878.89 52.43 6.00 260.44 3258.07
   12:30:17.556.15-Aug-2021 3405.50 5879.42 52.43 6.00 260.64 3258.07
   12:30:17.755.15-Aug-2021 3405.50 5880.15 52.43 6.00 260.84 3258.07
   12:30:17.955.15-Aug-2021 3405.50 5880.15 52.43 6.00 261.04 3258.07
   12:30:18.155.15-Aug-2021 3405.50 5881.52 52.43 6.00 261.24 3258.07
   12:30:18.355.15-Aug-2021 3405.50 5882.18 52.43 6.00 261.44 3258.07
   12:30:18.555.15-Aug-2021 3405.50 5883.35 52.43 6.00 261.64 3258.07
   12:30:18.755.15-Aug-2021 3405.50 5883.89 52.43 6.00 261.84 3258.07
   12:30:18.955.15-Aug-2021 3405.50 5883.89 52.43 6.00 262.04 3258.07
   12:30:19.155.15-Aug-2021 3405.50 5885.40 52.43 6.00 262.24 3258.07
   12:30:19.355.15-Aug-2021 3405.50 5886.34 52.43 6.00 262.44 3258.07
   12:30:19.554.15-Aug-2021 3405.50 5887.20 52.43 6.00 262.64 3258.07
   12:30:19.754.15-Aug-2021 3405.50 5888.15 52.43 6.00 262.84 3258.07
   12:30:19.954.15-Aug-2021 3405.50 5888.15 52.43 6.00 263.04 3258.07
   12:30:20.154.15-Aug-2021 3405.50 5889.83 52.43 6.00 263.24 3258.07
   12:30:20.354.15-Aug-2021 3405.50 5890.77 52.43 6.00 263.44 3258.07
   12:30:20.554.15-Aug-2021 3405.50 5891.44 52.43 6.00 263.64 3258.07
   12:30:20.754.15-Aug-2021 3405.50 5892.19 52.43 6.00 263.84 3258.07
   12:30:20.954.15-Aug-2021 3405.50 5892.19 52.43 6.00 264.04 3258.07
   12:30:21.153.15-Aug-2021 3405.50 5893.96 52.43 6.00 264.24 3258.07
   12:30:21.353.15-Aug-2021 3405.50 5894.81 52.43 6.00 264.44 3258.07
   12:30:21.553.15-Aug-2021 3405.50 5895.70 52.43 6.00 264.64 3258.07
   12:30:21.753.15-Aug-2021 3405.50 5896.56 52.43 6.00 264.84 3258.07
   12:30:21.953.15-Aug-2021 3405.50 5896.56 52.43 6.00 265.04 3258.07
   12:30:22.153.15-Aug-2021 3405.50 5898.15 52.43 6.00 265.24 3258.07
   12:30:22.353.15-Aug-2021 3405.50 5899.14 52.43 6.00 265.44 3258.07
   12:30:22.553.15-Aug-2021 3405.50 5899.90 52.43 6.00 265.64 3258.07
   12:30:22.752.15-Aug-2021 3405.50 5900.75 52.43 6.00 265.84 3258.07
   12:30:22.952.15-Aug-2021 3405.50 5900.75 52.43 6.00 266.04 3258.07
   12:30:23.152.15-Aug-2021 3405.50 5902.58 52.43 6.00 266.24 3258.07
   12:30:23.352.15-Aug-2021 3405.50 5903.35 52.43 6.00 266.44 3258.07
   12:30:23.552.15-Aug-2021 3405.50 5904.18 52.43 6.00 266.64 3258.07
   12:30:23.752.15-Aug-2021 3405.50 5904.85 52.43 6.00 266.84 3258.07
   12:30:23.952.15-Aug-2021 3405.50 5904.85 52.43 6.00 267.04 3258.07
   12:30:24.152.15-Aug-2021 3405.50 5906.78 52.43 6.00 267.24 3258.07
   12:30:24.352.15-Aug-2021 3405.50 5907.26 52.43 6.00 267.44 3258.07
   12:30:24.551.15-Aug-2021 3405.50 5908.08 52.43 6.00 267.64 3258.07
   12:30:24.751.15-Aug-2021 3405.50 5908.93 52.43 6.00 267.84 3258.07
   12:30:24.951.15-Aug-2021 3405.50 5908.93 52.43 6.00 268.04 3258.07
   12:30:25.151.15-Aug-2021 3405.50 5910.44 52.43 6.00 268.24 3258.07
   12:30:25.351.15-Aug-2021 3405.50 5911.18 52.43 6.00 268.44 3258.07
   12:30:25.551.15-Aug-2021 3405.50 5911.84 52.43 6.00 268.64 3258.07
   12:30:25.751.15-Aug-2021 3405.50 5912.50 52.43 6.00 268.84 3258.07
   12:30:25.951.15-Aug-2021 3405.50 5912.50 52.43 6.00 269.04 3258.07
   12:30:26.150.15-Aug-2021 3405.50 5914.06 52.43 6.00 269.24 3258.07
   12:30:26.350.15-Aug-2021 3405.50 5914.80 52.43 6.00 269.44 3258.07
   12:30:26.550.15-Aug-2021 3405.50 5915.58 52.43 6.00 269.64 3258.07
   12:30:26.750.15-Aug-2021 3405.50 5916.40 52.43 6.00 269.84 3258.07
   12:30:26.950.15-Aug-2021 3405.50 5916.40 52.43 6.00 270.04 3258.07
   12:30:27.150.15-Aug-2021 3405.50 5918.05 52.43 6.00 270.24 3258.07
   12:30:27.350.15-Aug-2021 3405.50 5919.18 52.43 6.00 270.44 3258.07
   12:30:27.550.15-Aug-2021 3405.50 5919.87 52.43 6.00 270.64 3258.07
   12:30:27.749.15-Aug-2021 3405.50 5920.56 52.43 6.00 270.84 3258.07
   12:30:27.949.15-Aug-2021 3405.50 5920.56 52.43 6.00 271.04 3258.07
   12:30:28.149.15-Aug-2021 3405.50 5922.21 52.43 6.00 271.24 3258.07
   12:30:28.349.15-Aug-2021 3405.50 5923.02 52.43 6.00 271.44 3258.07
   12:30:28.549.15-Aug-2021 3405.50 5923.84 52.43 6.00 271.64 3258.07
   12:30:28.749.15-Aug-2021 3405.50 5924.54 52.43 6.00 271.84 3258.07
   12:30:28.949.15-Aug-2021 3405.50 5924.54 52.43 6.00 272.04 3258.07
   12:30:29.149.15-Aug-2021 3405.50 5926.50 52.43 6.00 272.24 3258.07
   12:30:29.349.15-Aug-2021 3405.50 5927.23 52.43 6.00 272.44 3258.07
   12:30:29.548.15-Aug-2021 3405.50 5927.96 52.43 6.00 272.64 3258.07
   12:30:29.748.15-Aug-2021 3405.50 5928.61 52.43 6.00 272.84 3258.07
   12:30:29.948.15-Aug-2021 3405.50 5928.61 52.43 6.00 273.04 3258.07
   12:30:30.148.15-Aug-2021 3405.50 5930.25 52.43 6.00 273.24 3258.07
   12:30:30.348.15-Aug-2021 3405.50 5931.19 52.43 6.00 273.44 3258.07
   12:30:30.548.15-Aug-2021 3405.50 5932.15 52.43 6.00 273.64 3258.07
   12:30:30.748.15-Aug-2021 3405.50 5932.81 52.43 6.00 273.84 3258.07
   12:30:30.948.15-Aug-2021 3405.50 5932.81 52.43 6.00 274.04 3258.07
   12:30:31.147.15-Aug-2021 3405.50 5934.15 52.43 6.00 274.24 3258.07
   12:30:31.347.15-Aug-2021 3405.50 5935.13 52.43 6.00 274.43 3258.07
   12:30:31.547.15-Aug-2021 3405.50 5936.18 52.43 6.00 274.63 3258.07
   12:30:31.747.15-Aug-2021 3405.50 5936.85 52.43 6.00 274.83 3258.07
   12:30:31.947.15-Aug-2021 3405.50 5936.85 52.43 6.00 275.03 3258.07
   12:30:32.147.15-Aug-2021 3405.50 5938.35 52.43 6.00 275.23 3258.07
   12:30:32.347.15-Aug-2021 3405.50 5939.22 52.43 6.00 275.43 3258.07
   12:30:32.547.15-Aug-2021 3405.50 5939.81 52.43 6.00 275.63 3258.07
