~Version Information
 VERS.                  2.0:   CWLS log ASCII Standard -VERSION 2.0
 WRAP.                   NO:   One line per depth step
~Well Information Block
#MNEM.UNIT     VALUE/NAME     DESCRIPTION
#---------     -----------    ---------------------------
 STRT.S             06:52:24 15-Aug-21: START TIME 06:52:24 15-Aug-21
 STOP.S             06:59:28 15-Aug-21: STOP TIME  06:59:28 15-Aug-21
 STEP.S                   0.00: STEP TIME
 NULL.                 -999.25: NULL VALUE
 DFWT.                        :  DIST FWL TEXT
 DFST.                        :  DIST FSL TEXT
 DMF .             Drill Floor:  DRILL MEAS FROM
 STIM.      17.18.56 20-Jun-21:  START TIME
 DATE.      17.18.56 20-Aug-21:  END TIME
 SPUD.               20-Jun-21:  SPUD DATE
 NREF.                    Grid:  NORTH REFERENCE
 HPTY.       Minimum Curvature:  HOLE POS TYPE
 DMOD.             Drill Model:  DRILL MOD DESC
 SVYD.                  Survey:  SURVEY DESC
 ILTD.               Lithology:  INTERP LTH DESC
 FTOP.          Formation Tops:  FORM TOPS DESC
 SON .        AZ-XX-0907056190:  JOB NUMBER
 PDAT.       Caspian Sea Level:  PERMANENT DATUM
 WTYP.                Deviated:  WELL TYPE
 MDS .        Operator Entered:  MAG DATA SOURCE
 COMP.     BP Exploration (Caspian Sea) Ltd.:  COMPANY
 UWI .            /AZE20000092:  UNIQUE WELL IDENTIFIER
 API .            /AZE20000092:  API NUMBER
 BASE.              Azerbaijan:  LOGGING EQUIPMENT BASE LOCATION
 REGN.                   EESSA:  REGION
 PROV.                    baku:  PROVINCE
 STAT.                    baku:  STATE NAME
 CTRY.              Azerbaijan:  COUNTRY NAME
 FLD .                     ACG:  FIELD NAME
 SRVC.          Turan Drilling:  CONTRACTOR
 MWDS.                    Baku:  MWD SHOP
 WELL.                     J26:  WELL NAME
 JOBN.        AZ-XX-0907056190:  JOB TICKET NUMB
 RIG .             West Chirag:  RIG NAME
 DOE .                     N/A:  DOE NUMBER
 DCON.         Sperry Drilling:  DIRECTNL CONTR
 UNIT.                     N/A:  LOGGING EQUIPMENT ID
 CNTY.                        :  COUNTY
 LOC .                        :  LOCATION
 LMF .             Drill Floor:  LOG MEASURED FROM
 TVDS.m                  43.00:  TVDSS CORRECTN
 LATI.deg                40.13:  LATITUDE
 LONG.deg                51.22:  LONGITUDE
 WHNS.m                  -7.12:  WELL HEAD N/S
 WHEW.m                  -9.46:  WELL HEAD E/W
 UTMX.m              519004.02:  UTM X
 UTMY.m             4443784.96:  UTM Y
 DFWL.m                   0.00:  DISTANCE FWL
 DFSL.m                   0.00:  DISTANCE FSL
 SDEP.m                 464.00:  START DEPTH
 TDD .m                3500.00:  TOTAL DEPTH (DRILLER)
 VSDR.deg               114.35:  VERT SEC DIRECT
 GVFD.g                   1.00:  GRAVITY FIELD
 MFLD.nT              50386.00:  MAGNETIC FIELD
 MDIP.deg                59.63:  MAGNETIC DIP
 MDEC.deg                 6.43:  MAGNETIC DECL
 GRDC.deg                 0.15:  GRID CORRECTION
 AZTC.deg                 6.29:  AZM TOTAL CORR
 EPD .m                   0.00:  ELEVATION
 EGL .m                   0.00:  GROUND ELEVATION
 WDMS.m                 169.80:  WD ELEV
 APD .m                  43.00:  DEPTH ABOVE PD
 VSEW.m                  -9.46:  VERT SEC E/W
 VSNS.m                  -7.12:  VERT SEC N/S
 AGAP.m                  43.00:  AIR GAP
 DEP .m                 356.16:  DEPTH
 EKB .m                  43.00:  KB ELEVATION
 EDF .m                  43.00:  DF ELEVATION
 TDL .m                 699.00:  TOTAL DEPTH (LOGGER)
 VSC .                       0:  VS TO CLOSURE
 MAGU.                 1853727:  MAGUTM CHECKSUM
~Parameter Information Block
#MNEM.UNIT       Value        Description
#---------     -----------    ---------------------------
 AV  .mps                 1.30:  Ann Velocity 
 AVMX.mps                 1.67:  Max Ann Veloc 
 AZIF.deg               280.40:  Azm, Final 
 BHAT.        Rotary Steerable:  BHA Type 
 BREV.rev            528970.00:  Rev Bit Total 
 BROT.°/30m               1.00:  Build Rotating 
 BS  .in                 12.25:  Bit Size 
 BSZ .in                 12.25:  Bit Size 
 BTPL.psig              738.00:  Bit Press Loss 
 CABU.                     Yes:  Customer Abuse 
 CGEO.        Elvin Suleymanov:  Customer Geo 
 COMM.                     ¬kS:  Run Comments 1 
 TCS .hr                 66.05:  Time Ciculation Ended 
 CV  .mps                 2.20:  Crit Velocity 
 CVMX.mps                 2.56:  Max Crit Veloc 
 DD1 .          Rashad Habibov:  Direct Drillr 1 
 DD2 .            Azer ravanov:  Direct Drillr 2 
 DD3 .           Teymur Agayev:  Direct Drillr 3 
 DDSV.               Geo-Pilot:  DD Service 
 DEFF.%                  90.00:  % Det Eff 
 DLRX.°/30m               2.95:  Dogleg Rot Max 
 DLSO.°/30m               1.00:  Dogleg Oriented 
 DLSX.°/30m               2.95:  Dogleg Str Max 
 DRET.      11.42.20 11-Aug-21:  Drill End Time 
 DRST.      23.03.20 08-Aug-21:  Drill Start Tim 
 DTIM.hr                 45.50:  Time Drilling 
 EDEP.m                3488.00:  End Depth 
 ENG1.         Marcelo Marcari:  Engineer 1 
 ENG2.         Dair Mahammadov:  Engineer 2 
 ENG3.       Davud Huseyn-zada:  Engineer 3 
 ENG4.         Yevgeniy Ulikov:  Engineer 4 
 ETIM.      17.45.20 17-Aug-21:  End Time 
 FLOI.gpm              1197.70:  Flow In 
 FLON.gpm              1100.00:  Flow In Min 
 FLOS.cptm                0.00:  Fluid Loss 
 FLOX.gpm              1200.00:  Flow In Max 
 DFT .        Mineral Oil Base:  Mud Type 
 FTRO.       Formation Presure:  FTWD Run Obj 
 HFLO.                      No:  High Flow 
 HPRE.                      No:  High Pressure 
 HTEM.                      No:  High Temp 
 HYDO.m                   1.80:  Hydro Offset 
 IFIN.deg                 9.87:  Inc, Final 
 IMAX.deg                19.96:  Inc Max 
 IMIN.deg                 3.82:  Inc Min 
 IMND.m                3257.42:  Inc Min Depth 
 IMXD.m                2945.53:  Inc Max Depth 
 JARR.                      No:  Jarring 
 LETM.      11.42.20 11-Aug-21:  Log End Time 
 LOST.hr                     0:  Lost Rig Time 
 LSTM.      23.03.20 08-Aug-21:  Log Start Time 
 MDCL.ppm             42500.00:  Mud Chlorides 
 MDES.     Inversion Oil/Synthetic:  Mud Desc 
 DFD .sg                  1.45:  Mud Density 
 MDMN.sg                  1.39:  Dens Mud Min 
 MDMX.sg                  1.57:  Dens Mud Max 
 MOIL.                   53.20:  Run Mud Oil % 
 MOWR.                   70:30:  Run Mud OWR 
 MSND.                       0:  Run Mud Sand % 
 MSOL.                   24.30:  Run Mud Solids% 
 DFV .spqt               79.00:  Mud Viscosity 
 MWOD.in                  8.00:  MWD Tool OD 
 MWSI.                      No:  Serv Intrp, MWD 
 OTIM.hr                253.06:  Time Operating 
 PCON.           Look Like New:  Pad Condition 
 PMAX.psia            11068.93:  Press Op, Max 
 PV  .cP                 36.00:  Mud PV 
 RUN .                    1000:  Run Number 
 ROPA.m/hr               15.34:  ROP Avg 
 ROPN.m/hr                4.00:  ROP Min 
 ROPX.m/hr               31.00:  ROP Max 
 RPMA.rpm               151.40:  RPM Surface Avg 
 RPMN.rpm               120.00:  RPM Surface Min 
 RPMX.rpm               160.00:  RPM Surface Max 
 RRUN.                    L505:  Rig Run Number 
 RTIM.hr                 10.00:  Time Reaming 
 SAZI.deg                88.92:  Azm, Start 
 SDEP.m                2789.00:  Start Depth 
 SIDD.                      No:  Serv Intrp, DD 
 SINC.deg                19.84:  Inc, Start 
 SPPA.psig             4421.39:  SPP Avg 
 SPPN.psig             4130.00:  SPP Min 
 SPPX.psig             4800.00:  SPP Max 
 STIM.      01.25.20 07-Aug-21:  Start Time 
 SVCS.                 DD, MWD:  Services 
 SVER.                    9.20:  Sperry Version 
 TDAT.m                 699.00:  Tot Depth Attmp 
 TDDF.                      No:  Trip for DD 
 TDLG.m                 699.00:  Tot Depth Loggd 
 TFF .                      No:  Trip for Fail 
 TQAA.f-kp               20.55:  Torque Abs Avg 
 TQAN.f-kp               15.00:  Torque Abs Min 
 TQAX.f-kp               24.00:  Torque Abs Max 
 TRRT.°/30m               0.50:  Turn Rotating 
 MRT .                    HCIM:  Maximum Recorded Temperature 
 TTMX.degC               82.35:  Max Tool Temp 
 VS01.                90654677:  Virtual Str1 SN 
 VS02.                90636294:  Virtual Str2 SN 
 VS03.                90653866:  Virtual Str3 SN 
 VS04.                90654674:  Virtual Str4 SN 
 WBMN.klb                10.00:  WOB Min 
 WITN.         Haytham Mostafa:  Customer Rep 
 WITN.           Rufat Babayev:  Customer Rep 2 
 WOBA.klb                22.43:  WOB Avg 
 WOBX.klb                35.00:  WOB Max 
 YP  .lhf2               32.00:  Yield Point 
~Curve Information Block
#MNEM.UNIT                 API CODE     Curve Description
#---------               -----------    ---------------------------
 TIME.HHMMSS            00 000 000 000:  GT Time & Date
 GTDEPTH.m              00 000 000 000:  GT Depth
 GTPQH.psia             00 000 000 000:  GT HR Quartz Pressure
 GTTQ.degC              00 000 000 000:  GT Quartz Temperature
 GTTN.NONE              00 000 000 000:  GT Test Number
 GTET.sec               00 000 000 000:  GT Elapsed Test Time
 GTTVD.m                00 000 000 000:  GT True Vertical Depth
#Other Information
#
#WARRANTY: Halliburton will use its best efforts to furnish customers with 
#accurate information and interpretations that are part of, and incident to, the services 
#provided.  However, Halliburton cannot and does not warrant the accuracy 
#or correctness of such information and interpretations.  Under no circumstances should any 
#such information or interpretation be relied upon as the sole basis for any drilling, 
#completion, production, or financial decision or any procedure involving any risk to the 
#safety of any drilling venture, drilling rig or its crew or any other third party.  The 
#Customer has full responsibility for all drilling, completion and production operation.  
#Halliburton makes no representations or warranties, either expressed or 
#implied, including, but not limited to, the implied warranties of merchantability or fitness 
#for a particular purpose, with respect to the services rendered.  In no event will 
#Halliburton be liable for failure to obtain any particular results or for 
#any damages, including, but not limited to, indirect, special or consequential damages, 
#resulting from the use of any information or interpretation provided by Halliburton.
#
~A           TIME           GTDEPTH  GTPQH  GTTQ  GTTN  GTET   GTTVD  
# ...
   06:54:19.702.15-Aug-2021 3437.50 5219.48 57.96 1.00 115.01 3289.56
   06:54:19.902.15-Aug-2021 3437.50 5219.48 57.96 1.00 115.21 3289.56
   06:54:20.102.15-Aug-2021 3437.50 5219.91 57.96 1.00 115.41 3289.56
   06:54:20.302.15-Aug-2021 3437.50 5220.53 57.96 1.00 115.61 3289.56
   06:54:20.502.15-Aug-2021 3437.50 5219.40 57.96 1.00 115.81 3289.56
   06:54:20.702.15-Aug-2021 3437.50 5219.68 57.96 1.00 116.01 3289.56
   06:54:20.902.15-Aug-2021 3437.50 5219.68 57.96 1.00 116.21 3289.56
   06:54:21.102.15-Aug-2021 3437.50 5219.60 57.96 1.00 116.41 3289.56
   06:54:21.302.15-Aug-2021 3437.50 5220.09 57.96 1.00 116.61 3289.56
   06:54:21.502.15-Aug-2021 3437.50 5219.36 57.96 1.00 116.81 3289.56
   06:54:21.702.15-Aug-2021 3437.50 5219.55 57.96 1.00 117.01 3289.56
   06:54:21.902.15-Aug-2021 3437.50 5219.55 57.96 1.00 117.21 3289.56
   06:54:22.102.15-Aug-2021 3437.50 5219.55 57.96 1.00 117.41 3289.56
   06:54:22.302.15-Aug-2021 3437.50 5219.67 57.96 1.00 117.61 3289.56
   06:54:22.502.15-Aug-2021 3437.50 5219.09 57.96 1.00 117.81 3289.56
   06:54:22.702.15-Aug-2021 3437.50 5219.87 57.96 1.00 118.01 3289.56
   06:54:22.902.15-Aug-2021 3437.50 5219.87 57.96 1.00 118.21 3289.56
   06:54:23.102.15-Aug-2021 3437.50 5219.70 57.96 1.00 118.41 3289.56
   06:54:23.302.15-Aug-2021 3437.50 5219.37 57.96 1.00 118.61 3289.56
   06:54:23.502.15-Aug-2021 3437.50 5220.06 57.96 1.00 118.81 3289.56
   06:54:23.702.15-Aug-2021 3437.50 5219.12 57.96 1.00 119.01 3289.56
   06:54:23.902.15-Aug-2021 3437.50 5219.12 57.96 1.00 119.21 3289.56
   06:54:24.102.15-Aug-2021 3437.50 5219.11 57.96 1.00 119.41 3289.56
   06:54:24.302.15-Aug-2021 3437.50 5219.44 57.96 1.00 119.61 3289.56
   06:54:24.502.15-Aug-2021 3437.50 5219.22 57.96 1.00 119.81 3289.56
   06:54:24.702.15-Aug-2021 3437.50 5219.61 57.96 1.00 120.01 3289.56
   06:54:24.902.15-Aug-2021 3437.50 5219.61 57.96 1.00 120.21 3289.56
   06:54:25.102.15-Aug-2021 3437.50 5219.37 57.96 1.00 120.41 3289.56
   06:54:25.302.15-Aug-2021 3437.50 5219.75 57.96 1.00 120.61 3289.56
   06:54:25.502.15-Aug-2021 3437.50 5219.10 57.96 1.00 120.81 3289.56
   06:54:25.702.15-Aug-2021 3437.50 5219.52 57.96 1.00 121.01 3289.56
   06:54:25.902.15-Aug-2021 3437.50 5219.52 57.96 1.00 121.21 3289.56
   06:54:26.102.15-Aug-2021 3437.50 5219.89 57.96 1.00 121.41 3289.56
   06:54:26.302.15-Aug-2021 3437.50 5218.94 57.96 1.00 121.61 3289.56
   06:54:26.502.15-Aug-2021 3437.50 5219.23 57.96 1.00 121.81 3289.56
   06:54:26.702.15-Aug-2021 3437.50 5219.24 57.96 1.00 122.01 3289.56
   06:54:26.902.15-Aug-2021 3437.50 5219.24 57.96 1.00 122.21 3289.56
   06:54:27.102.15-Aug-2021 3437.50 5219.20 57.96 1.00 122.41 3289.56
   06:54:27.302.15-Aug-2021 3437.50 5219.68 57.96 1.00 122.61 3289.56
   06:54:27.502.15-Aug-2021 3437.50 5218.96 57.96 1.00 122.81 3289.56
   06:54:27.702.15-Aug-2021 3437.50 5219.29 57.96 1.00 123.01 3289.56
   06:54:27.902.15-Aug-2021 3437.50 5219.29 57.96 1.00 123.21 3289.56
   06:54:28.102.15-Aug-2021 3437.50 5219.41 57.96 1.00 123.41 3289.56
   06:54:28.302.15-Aug-2021 3437.50 5219.37 57.96 1.00 123.61 3289.56
   06:54:28.502.15-Aug-2021 3437.50 5218.66 57.96 1.00 123.81 3289.56
   06:54:28.702.15-Aug-2021 3437.50 5219.62 57.96 1.00 124.01 3289.56
   06:54:28.902.15-Aug-2021 3437.50 5219.62 57.96 1.00 124.21 3289.56
   06:54:29.102.15-Aug-2021 3437.50 5219.28 57.96 1.00 124.41 3289.56
   06:54:29.302.15-Aug-2021 3437.50 5219.28 57.96 1.00 124.61 3289.56
   06:54:29.502.15-Aug-2021 3437.50 5218.86 57.96 1.00 124.81 3289.56
   06:54:29.702.15-Aug-2021 3437.50 5219.30 57.96 1.00 125.01 3289.56
   06:54:29.902.15-Aug-2021 3437.50 5219.30 57.96 1.00 125.21 3289.56
   06:54:30.102.15-Aug-2021 3437.50 5219.62 57.96 1.00 125.41 3289.56
   06:54:30.302.15-Aug-2021 3437.50 5218.67 57.96 1.00 125.61 3289.56
   06:54:30.502.15-Aug-2021 3437.50 5219.34 57.96 1.00 125.81 3289.56
   06:54:30.702.15-Aug-2021 3437.50 5219.01 57.96 1.00 126.01 3289.56
   06:54:30.902.15-Aug-2021 3437.50 5219.01 57.96 1.00 126.21 3289.56
   06:54:31.102.15-Aug-2021 3437.50 5218.73 57.96 1.00 126.41 3289.56
   06:54:31.302.15-Aug-2021 3437.50 5219.30 57.96 1.00 126.61 3289.56
   06:54:31.502.15-Aug-2021 3437.50 5218.86 57.96 1.00 126.81 3289.56
   06:54:31.703.15-Aug-2021 3437.50 5219.09 57.96 1.00 127.01 3289.56
   06:54:31.903.15-Aug-2021 3437.50 5219.09 57.96 1.00 127.21 3289.56
   06:54:32.103.15-Aug-2021 3437.50 5218.84 57.96 1.00 127.41 3289.56
   06:54:32.303.15-Aug-2021 3437.50 5218.97 57.96 1.00 127.61 3289.56
   06:54:32.503.15-Aug-2021 3437.50 5218.94 57.96 1.00 127.81 3289.56
   06:54:32.703.15-Aug-2021 3437.50 5219.60 57.97 1.00 128.01 3289.56
   06:54:32.903.15-Aug-2021 3437.50 5219.60 57.97 1.00 128.21 3289.56
   06:54:33.103.15-Aug-2021 3437.50 5218.98 57.96 1.00 128.41 3289.56
   06:54:33.303.15-Aug-2021 3437.50 5218.98 57.97 1.00 128.61 3289.56
   06:54:33.503.15-Aug-2021 3437.50 5218.94 57.97 1.00 128.81 3289.56
   06:54:33.703.15-Aug-2021 3437.50 5219.10 57.97 1.00 129.01 3289.56
   06:54:33.903.15-Aug-2021 3437.50 5219.10 57.97 1.00 129.21 3289.56
   06:54:34.103.15-Aug-2021 3437.50 5219.40 57.97 1.00 129.41 3289.56
   06:54:34.303.15-Aug-2021 3437.50 5218.54 57.97 1.00 129.61 3289.56
   06:54:34.503.15-Aug-2021 3437.50 5218.96 57.97 1.00 129.81 3289.56
   06:54:34.703.15-Aug-2021 3437.50 5218.97 57.97 1.00 130.01 3289.56
   06:54:34.903.15-Aug-2021 3437.50 5218.97 57.97 1.00 130.21 3289.56
   06:54:35.103.15-Aug-2021 3437.50 5218.89 57.97 1.00 130.41 3289.56
   06:54:35.303.15-Aug-2021 3437.50 5219.34 57.97 1.00 130.61 3289.56
   06:54:35.503.15-Aug-2021 3437.50 5218.73 57.97 1.00 130.81 3289.56
   06:54:35.703.15-Aug-2021 3437.50 5219.00 57.97 1.00 131.01 3289.56
   06:54:35.903.15-Aug-2021 3437.50 5219.00 57.97 1.00 131.21 3289.56
   06:54:36.103.15-Aug-2021 3437.50 5219.01 57.97 1.00 131.41 3289.56
   06:54:36.303.15-Aug-2021 3437.50 5219.04 57.97 1.00 131.61 3289.56
   06:54:36.503.15-Aug-2021 3437.50 5218.45 57.97 1.00 131.81 3289.56
   06:54:36.703.15-Aug-2021 3437.50 5219.19 57.97 1.00 132.01 3289.56
   06:54:36.903.15-Aug-2021 3437.50 5219.19 57.97 1.00 132.21 3289.56
   06:54:37.103.15-Aug-2021 3437.50 5218.97 57.97 1.00 132.41 3289.56
   06:54:37.303.15-Aug-2021 3437.50 5219.04 57.97 1.00 132.61 3289.56
   06:54:37.503.15-Aug-2021 3437.50 5218.59 57.97 1.00 132.81 3289.56
   06:54:37.703.15-Aug-2021 3437.50 5218.85 57.97 1.00 133.01 3289.56
   06:54:37.903.15-Aug-2021 3437.50 5218.85 57.97 1.00 133.21 3289.56
   06:54:38.103.15-Aug-2021 3437.50 5219.28 57.97 1.00 133.41 3289.56
   06:54:38.303.15-Aug-2021 3437.50 5218.44 57.97 1.00 133.61 3289.56
   06:54:38.503.15-Aug-2021 3437.50 5219.04 57.97 1.00 133.81 3289.56
   06:54:38.703.15-Aug-2021 3437.50 5218.64 57.97 1.00 134.01 3289.56
   06:54:38.903.15-Aug-2021 3437.50 5218.64 57.97 1.00 134.21 3289.56
   06:54:39.103.15-Aug-2021 3437.50 5218.66 57.97 1.00 134.41 3289.56
   06:54:39.303.15-Aug-2021 3437.50 5219.37 57.97 1.00 134.61 3289.56
   06:54:39.503.15-Aug-2021 3437.50 5218.48 57.97 1.00 134.81 3289.56
   06:54:39.703.15-Aug-2021 3437.50 5218.76 57.97 1.00 135.01 3289.56
   06:54:39.903.15-Aug-2021 3437.50 5218.76 57.97 1.00 135.21 3289.56
   06:54:40.103.15-Aug-2021 3437.50 5218.85 57.97 1.00 135.41 3289.56
   06:54:40.303.15-Aug-2021 3437.50 5218.77 57.97 1.00 135.61 3289.56
   06:54:40.503.15-Aug-2021 3437.50 5218.82 57.97 1.00 135.81 3289.56
   06:54:40.703.15-Aug-2021 3437.50 5218.83 57.97 1.00 136.01 3289.56
   06:54:40.903.15-Aug-2021 3437.50 5218.83 57.97 1.00 136.21 3289.56
   06:54:41.103.15-Aug-2021 3437.50 5219.15 57.97 1.00 136.41 3289.56
   06:54:41.303.15-Aug-2021 3437.50 5218.43 57.97 1.00 136.61 3289.56
   06:54:41.503.15-Aug-2021 3437.50 5218.87 57.97 1.00 136.81 3289.56
   06:54:41.703.15-Aug-2021 3437.50 5218.82 57.97 1.00 137.01 3289.56
   06:54:41.903.15-Aug-2021 3437.50 5218.82 57.97 1.00 137.21 3289.56
   06:54:42.103.15-Aug-2021 3437.50 5218.74 57.97 1.00 137.41 3289.56
   06:54:42.303.15-Aug-2021 3437.50 5219.03 57.97 1.00 137.61 3289.56
   06:54:42.503.15-Aug-2021 3437.50 5218.50 57.97 1.00 137.81 3289.56
