~Version Information
 VERS.                  2.0:   CWLS log ASCII Standard -VERSION 2.0
 WRAP.                   NO:   One line per depth step
~Well Information Block
#MNEM.UNIT     VALUE/NAME     DESCRIPTION
#---------     -----------    ---------------------------
 STRT.S             12:25:56 15-Aug-21: START TIME 12:25:56 15-Aug-21
 STOP.S             12:39:05 15-Aug-21: STOP TIME  12:39:05 15-Aug-21
 STEP.S                   0.00: STEP TIME
 NULL.                 -999.25: NULL VALUE
 DFWT.                        :  DIST FWL TEXT
 DFST.                        :  DIST FSL TEXT
 DMF .             Drill Floor:  DRILL MEAS FROM
 STIM.      17.18.56 20-Jun-21:  START TIME
 DATE.      17.18.56 20-Aug-21:  END TIME
 SPUD.               20-Jun-21:  SPUD DATE
 NREF.                    Grid:  NORTH REFERENCE
 HPTY.       Minimum Curvature:  HOLE POS TYPE
 DMOD.             Drill Model:  DRILL MOD DESC
 SVYD.                  Survey:  SURVEY DESC
 ILTD.               Lithology:  INTERP LTH DESC
 FTOP.          Formation Tops:  FORM TOPS DESC
 SON .        AZ-XX-0907056190:  JOB NUMBER
 PDAT.       Caspian Sea Level:  PERMANENT DATUM
 WTYP.                Deviated:  WELL TYPE
 MDS .        Operator Entered:  MAG DATA SOURCE
 COMP.     BP Exploration (Caspian Sea) Ltd.:  COMPANY
 UWI .            /AZE20000092:  UNIQUE WELL IDENTIFIER
 API .            /AZE20000092:  API NUMBER
 BASE.              Azerbaijan:  LOGGING EQUIPMENT BASE LOCATION
 REGN.                   EESSA:  REGION
 PROV.                    baku:  PROVINCE
 STAT.                    baku:  STATE NAME
 CTRY.              Azerbaijan:  COUNTRY NAME
 FLD .                     ACG:  FIELD NAME
 SRVC.          Turan Drilling:  CONTRACTOR
 MWDS.                    Baku:  MWD SHOP
 WELL.                     J26:  WELL NAME
 JOBN.        AZ-XX-0907056190:  JOB TICKET NUMB
 RIG .             West Chirag:  RIG NAME
 DOE .                     N/A:  DOE NUMBER
 DCON.         Sperry Drilling:  DIRECTNL CONTR
 UNIT.                     N/A:  LOGGING EQUIPMENT ID
 CNTY.                        :  COUNTY
 LOC .                        :  LOCATION
 LMF .             Drill Floor:  LOG MEASURED FROM
 TVDS.m                  43.00:  TVDSS CORRECTN
 LATI.deg                40.13:  LATITUDE
 LONG.deg                51.22:  LONGITUDE
 WHNS.m                  -7.12:  WELL HEAD N/S
 WHEW.m                  -9.46:  WELL HEAD E/W
 UTMX.m              519004.02:  UTM X
 UTMY.m             4443784.96:  UTM Y
 DFWL.m                   0.00:  DISTANCE FWL
 DFSL.m                   0.00:  DISTANCE FSL
 SDEP.m                 464.00:  START DEPTH
 TDD .m                3500.00:  TOTAL DEPTH (DRILLER)
 VSDR.deg               114.35:  VERT SEC DIRECT
 GVFD.g                   1.00:  GRAVITY FIELD
 MFLD.nT              50386.00:  MAGNETIC FIELD
 MDIP.deg                59.63:  MAGNETIC DIP
 MDEC.deg                 6.43:  MAGNETIC DECL
 GRDC.deg                 0.15:  GRID CORRECTION
 AZTC.deg                 6.29:  AZM TOTAL CORR
 EPD .m                   0.00:  ELEVATION
 EGL .m                   0.00:  GROUND ELEVATION
 WDMS.m                 169.80:  WD ELEV
 APD .m                  43.00:  DEPTH ABOVE PD
 VSEW.m                  -9.46:  VERT SEC E/W
 VSNS.m                  -7.12:  VERT SEC N/S
 AGAP.m                  43.00:  AIR GAP
 DEP .m                 356.16:  DEPTH
 EKB .m                  43.00:  KB ELEVATION
 EDF .m                  43.00:  DF ELEVATION
 TDL .m                 699.00:  TOTAL DEPTH (LOGGER)
 VSC .                       0:  VS TO CLOSURE
 MAGU.                 1853727:  MAGUTM CHECKSUM
~Parameter Information Block
#MNEM.UNIT       Value        Description
#---------     -----------    ---------------------------
 AV  .mps                 1.30:  Ann Velocity 
 AVMX.mps                 1.67:  Max Ann Veloc 
 AZIF.deg               280.40:  Azm, Final 
 BHAT.        Rotary Steerable:  BHA Type 
 BREV.rev            528970.00:  Rev Bit Total 
 BROT.°/30m               1.00:  Build Rotating 
 BS  .in                 12.25:  Bit Size 
 BSZ .in                 12.25:  Bit Size 
 BTPL.psig              738.00:  Bit Press Loss 
 CABU.                     Yes:  Customer Abuse 
 CGEO.        Elvin Suleymanov:  Customer Geo 
 COMM.                     ´3x:  Run Comments 1 
 TCS .hr                 66.05:  Time Ciculation Ended 
 CV  .mps                 2.20:  Crit Velocity 
 CVMX.mps                 2.56:  Max Crit Veloc 
 DD1 .          Rashad Habibov:  Direct Drillr 1 
 DD2 .            Azer ravanov:  Direct Drillr 2 
 DD3 .           Teymur Agayev:  Direct Drillr 3 
 DDSV.               Geo-Pilot:  DD Service 
 DEFF.%                  90.00:  % Det Eff 
 DLRX.°/30m               2.95:  Dogleg Rot Max 
 DLSO.°/30m               1.00:  Dogleg Oriented 
 DLSX.°/30m               2.95:  Dogleg Str Max 
 DRET.      11.42.20 11-Aug-21:  Drill End Time 
 DRST.      23.03.20 08-Aug-21:  Drill Start Tim 
 DTIM.hr                 45.50:  Time Drilling 
 EDEP.m                3488.00:  End Depth 
 ENG1.         Marcelo Marcari:  Engineer 1 
 ENG2.         Dair Mahammadov:  Engineer 2 
 ENG3.       Davud Huseyn-zada:  Engineer 3 
 ENG4.         Yevgeniy Ulikov:  Engineer 4 
 ETIM.      17.45.20 17-Aug-21:  End Time 
 FLOI.gpm              1197.70:  Flow In 
 FLON.gpm              1100.00:  Flow In Min 
 FLOS.cptm                0.00:  Fluid Loss 
 FLOX.gpm              1200.00:  Flow In Max 
 DFT .        Mineral Oil Base:  Mud Type 
 FTRO.       Formation Presure:  FTWD Run Obj 
 HFLO.                      No:  High Flow 
 HPRE.                      No:  High Pressure 
 HTEM.                      No:  High Temp 
 HYDO.m                   1.80:  Hydro Offset 
 IFIN.deg                 9.87:  Inc, Final 
 IMAX.deg                19.96:  Inc Max 
 IMIN.deg                 3.82:  Inc Min 
 IMND.m                3257.42:  Inc Min Depth 
 IMXD.m                2945.53:  Inc Max Depth 
 JARR.                      No:  Jarring 
 LETM.      11.42.20 11-Aug-21:  Log End Time 
 LOST.hr                     0:  Lost Rig Time 
 LSTM.      23.03.20 08-Aug-21:  Log Start Time 
 MDCL.ppm             42500.00:  Mud Chlorides 
 MDES.     Inversion Oil/Synthetic:  Mud Desc 
 DFD .sg                  1.45:  Mud Density 
 MDMN.sg                  1.39:  Dens Mud Min 
 MDMX.sg                  1.57:  Dens Mud Max 
 MOIL.                   53.20:  Run Mud Oil % 
 MOWR.                   70:30:  Run Mud OWR 
 MSND.                       0:  Run Mud Sand % 
 MSOL.                   24.30:  Run Mud Solids% 
 DFV .spqt               79.00:  Mud Viscosity 
 MWOD.in                  8.00:  MWD Tool OD 
 MWSI.                      No:  Serv Intrp, MWD 
 OTIM.hr                253.06:  Time Operating 
 PCON.           Look Like New:  Pad Condition 
 PMAX.psia            11068.93:  Press Op, Max 
 PV  .cP                 36.00:  Mud PV 
 RUN .                    1000:  Run Number 
 ROPA.m/hr               15.34:  ROP Avg 
 ROPN.m/hr                4.00:  ROP Min 
 ROPX.m/hr               31.00:  ROP Max 
 RPMA.rpm               151.40:  RPM Surface Avg 
 RPMN.rpm               120.00:  RPM Surface Min 
 RPMX.rpm               160.00:  RPM Surface Max 
 RRUN.                    L505:  Rig Run Number 
 RTIM.hr                 10.00:  Time Reaming 
 SAZI.deg                88.92:  Azm, Start 
 SDEP.m                2789.00:  Start Depth 
 SIDD.                      No:  Serv Intrp, DD 
 SINC.deg                19.84:  Inc, Start 
 SPPA.psig             4421.39:  SPP Avg 
 SPPN.psig             4130.00:  SPP Min 
 SPPX.psig             4800.00:  SPP Max 
 STIM.      01.25.20 07-Aug-21:  Start Time 
 SVCS.                 DD, MWD:  Services 
 SVER.                    9.20:  Sperry Version 
 TDAT.m                 699.00:  Tot Depth Attmp 
 TDDF.                      No:  Trip for DD 
 TDLG.m                 699.00:  Tot Depth Loggd 
 TFF .                      No:  Trip for Fail 
 TQAA.f-kp               20.55:  Torque Abs Avg 
 TQAN.f-kp               15.00:  Torque Abs Min 
 TQAX.f-kp               24.00:  Torque Abs Max 
 TRRT.°/30m               0.50:  Turn Rotating 
 MRT .                    HCIM:  Maximum Recorded Temperature 
 TTMX.degC               82.35:  Max Tool Temp 
 VS01.                90654677:  Virtual Str1 SN 
 VS02.                90636294:  Virtual Str2 SN 
 VS03.                90653866:  Virtual Str3 SN 
 VS04.                90654674:  Virtual Str4 SN 
 WBMN.klb                10.00:  WOB Min 
 WITN.         Haytham Mostafa:  Customer Rep 
 WITN.           Rufat Babayev:  Customer Rep 2 
 WOBA.klb                22.43:  WOB Avg 
 WOBX.klb                35.00:  WOB Max 
 YP  .lhf2               32.00:  Yield Point 
~Curve Information Block
#MNEM.UNIT                 API CODE     Curve Description
#---------               -----------    ---------------------------
 TIME.HHMMSS            00 000 000 000:  GT Time & Date
 GTDEPTH.m              00 000 000 000:  GT Depth
 GTPQH.psia             00 000 000 000:  GT HR Quartz Pressure
 GTTQ.degC              00 000 000 000:  GT Quartz Temperature
 GTTN.NONE              00 000 000 000:  GT Test Number
 GTET.sec               00 000 000 000:  GT Elapsed Test Time
 GTTVD.m                00 000 000 000:  GT True Vertical Depth
#Other Information
#
#WARRANTY: Halliburton will use its best efforts to furnish customers with 
#accurate information and interpretations that are part of, and incident to, the services 
#provided.  However, Halliburton cannot and does not warrant the accuracy 
#or correctness of such information and interpretations.  Under no circumstances should any 
#such information or interpretation be relied upon as the sole basis for any drilling, 
#completion, production, or financial decision or any procedure involving any risk to the 
#safety of any drilling venture, drilling rig or its crew or any other third party.  The 
#Customer has full responsibility for all drilling, completion and production operation.  
#Halliburton makes no representations or warranties, either expressed or 
#implied, including, but not limited to, the implied warranties of merchantability or fitness 
#for a particular purpose, with respect to the services rendered.  In no event will 
#Halliburton be liable for failure to obtain any particular results or for 
#any damages, including, but not limited to, indirect, special or consequential damages, 
#resulting from the use of any information or interpretation provided by Halliburton.
#
~A           TIME           GTDEPTH  GTPQH  GTTQ  GTTN  GTET   GTTVD  
# ...
   12:38:35.456.15-Aug-2021 3405.50 7454.43 52.33 6.00 758.54 3258.07
   12:38:35.656.15-Aug-2021 3405.50 7454.43 52.33 6.00 758.74 3258.07
   12:38:35.856.15-Aug-2021 3405.50 7457.28 52.33 6.00 758.94 3258.07
   12:38:36.056.15-Aug-2021 3405.50 7458.37 52.33 6.00 759.14 3258.07
   12:38:36.256.15-Aug-2021 3405.50 7457.38 52.34 6.00 759.34 3258.07
   12:38:36.455.15-Aug-2021 3405.50 7456.28 52.34 6.00 759.54 3258.07
   12:38:36.655.15-Aug-2021 3405.50 7456.28 52.34 6.00 759.74 3258.07
   12:38:36.855.15-Aug-2021 3405.50 7457.82 52.35 6.00 759.94 3258.07
   12:38:37.055.15-Aug-2021 3405.50 7457.93 52.35 6.00 760.14 3258.07
   12:38:37.255.15-Aug-2021 3405.50 7458.78 52.35 6.00 760.34 3258.07
   12:38:37.455.15-Aug-2021 3405.50 7458.57 52.36 6.00 760.54 3258.07
   12:38:37.655.15-Aug-2021 3405.50 7458.57 52.36 6.00 760.74 3258.07
   12:38:37.855.15-Aug-2021 3405.50 7461.35 52.36 6.00 760.94 3258.07
   12:38:38.054.15-Aug-2021 3405.50 7458.59 52.36 6.00 761.14 3258.07
   12:38:38.254.15-Aug-2021 3405.50 7457.70 52.37 6.00 761.34 3258.07
   12:38:38.454.15-Aug-2021 3405.50 7457.38 52.37 6.00 761.54 3258.07
   12:38:38.654.15-Aug-2021 3405.50 7457.38 52.37 6.00 761.74 3258.07
   12:38:38.854.15-Aug-2021 3405.50 7458.81 52.37 6.00 761.94 3258.07
   12:38:39.054.15-Aug-2021 3405.50 7459.18 52.38 6.00 762.14 3258.07
   12:38:39.254.15-Aug-2021 3405.50 7459.54 52.38 6.00 762.34 3258.07
   12:38:39.454.15-Aug-2021 3405.50 7459.36 52.38 6.00 762.54 3258.07
   12:38:39.654.15-Aug-2021 3405.50 7459.36 52.38 6.00 762.74 3258.07
   12:38:39.853.15-Aug-2021 3405.50 7457.62 52.39 6.00 762.94 3258.07
   12:38:40.053.15-Aug-2021 3405.50 7458.80 52.39 6.00 763.14 3258.07
   12:38:40.253.15-Aug-2021 3405.50 7459.63 52.39 6.00 763.34 3258.07
   12:38:40.453.15-Aug-2021 3405.50 7460.34 52.39 6.00 763.54 3258.07
   12:38:40.653.15-Aug-2021 3405.50 7460.34 52.39 6.00 763.74 3258.07
   12:38:40.853.15-Aug-2021 3405.50 7459.88 52.39 6.00 763.94 3258.07
   12:38:41.053.15-Aug-2021 3405.50 7459.19 52.40 6.00 764.14 3258.07
   12:38:41.253.15-Aug-2021 3405.50 7460.72 52.40 6.00 764.34 3258.07
   12:38:41.452.15-Aug-2021 3405.50 7459.76 52.40 6.00 764.54 3258.07
   12:38:41.652.15-Aug-2021 3405.50 7459.76 52.40 6.00 764.74 3258.07
   12:38:41.852.15-Aug-2021 3405.50 7457.83 52.40 6.00 764.94 3258.07
   12:38:42.052.15-Aug-2021 3405.50 7458.58 52.40 6.00 765.14 3258.07
   12:38:42.252.15-Aug-2021 3405.50 7459.97 52.40 6.00 765.34 3258.07
   12:38:42.452.15-Aug-2021 3405.50 7461.55 52.40 6.00 765.54 3258.07
   12:38:42.652.15-Aug-2021 3405.50 7461.55 52.40 6.00 765.74 3258.07
   12:38:42.852.15-Aug-2021 3405.50 7458.42 52.41 6.00 765.94 3258.07
   12:38:43.051.15-Aug-2021 3405.50 7459.59 52.41 6.00 766.14 3258.07
   12:38:43.251.15-Aug-2021 3405.50 7459.63 52.41 6.00 766.34 3258.07
   12:38:43.451.15-Aug-2021 3405.50 7461.16 52.41 6.00 766.54 3258.07
   12:38:43.651.15-Aug-2021 3405.50 7461.16 52.41 6.00 766.74 3258.07
   12:38:43.851.15-Aug-2021 3405.50 7459.38 52.41 6.00 766.94 3258.07
   12:38:44.051.15-Aug-2021 3405.50 7460.02 52.41 6.00 767.14 3258.07
   12:38:44.251.15-Aug-2021 3405.50 7460.33 52.41 6.00 767.34 3258.07
   12:38:44.451.15-Aug-2021 3405.50 7460.62 52.41 6.00 767.54 3258.07
   12:38:44.651.15-Aug-2021 3405.50 7460.62 52.41 6.00 767.74 3258.07
   12:38:44.850.15-Aug-2021 3405.50 7457.95 52.41 6.00 767.94 3258.07
   12:38:45.050.15-Aug-2021 3405.50 7458.90 52.41 6.00 768.14 3258.07
   12:38:45.250.15-Aug-2021 3405.50 7461.06 52.41 6.00 768.34 3258.07
   12:38:45.450.15-Aug-2021 3405.50 7460.96 52.41 6.00 768.54 3258.07
   12:38:45.650.15-Aug-2021 3405.50 7460.96 52.41 6.00 768.74 3258.07
   12:38:45.850.15-Aug-2021 3405.50 7460.10 52.41 6.00 768.94 3258.07
   12:38:46.050.15-Aug-2021 3405.50 7460.13 52.41 6.00 769.14 3258.07
   12:38:46.250.15-Aug-2021 3405.50 7459.47 52.41 6.00 769.34 3258.07
   12:38:46.449.15-Aug-2021 3405.50 7458.79 52.41 6.00 769.54 3258.07
   12:38:46.649.15-Aug-2021 3405.50 7458.79 52.41 6.00 769.74 3258.07
   12:38:46.849.15-Aug-2021 3405.50 7459.13 52.41 6.00 769.94 3258.07
   12:38:47.049.15-Aug-2021 3405.50 7459.57 52.41 6.00 770.14 3258.07
   12:38:47.249.15-Aug-2021 3405.50 7460.74 52.41 6.00 770.34 3258.07
   12:38:47.449.15-Aug-2021 3405.50 7460.81 52.41 6.00 770.54 3258.07
   12:38:47.649.15-Aug-2021 3405.50 7460.81 52.41 6.00 770.74 3258.07
   12:38:47.849.15-Aug-2021 3405.50 7457.97 52.41 6.00 770.94 3258.07
   12:38:48.048.15-Aug-2021 3405.50 7458.57 52.41 6.00 771.14 3258.07
   12:38:48.248.15-Aug-2021 3405.50 7459.22 52.41 6.00 771.34 3258.07
   12:38:48.448.15-Aug-2021 3405.50 7462.20 52.41 6.00 771.54 3258.07
   12:38:48.648.15-Aug-2021 3405.50 7462.20 52.41 6.00 771.74 3258.07
   12:38:48.848.15-Aug-2021 3405.50 7459.93 52.41 6.00 771.94 3258.07
   12:38:49.048.15-Aug-2021 3405.50 7459.63 52.41 6.00 772.14 3258.07
   12:38:49.248.15-Aug-2021 3405.50 7458.67 52.41 6.00 772.34 3258.07
   12:38:49.448.15-Aug-2021 3405.50 7460.63 52.41 6.00 772.54 3258.07
   12:38:49.647.15-Aug-2021 3405.50 7460.63 52.41 6.00 772.74 3258.07
   12:38:49.847.15-Aug-2021 3405.50 7460.40 52.41 6.00 772.93 3258.07
   12:38:50.047.15-Aug-2021 3405.50 7460.63 52.41 6.00 773.13 3258.07
   12:38:50.247.15-Aug-2021 3405.50 7459.45 52.41 6.00 773.33 3258.07
   12:38:50.447.15-Aug-2021 3405.50 7458.17 52.41 6.00 773.53 3258.07
   12:38:50.647.15-Aug-2021 3405.50 7458.17 52.41 6.00 773.73 3258.07
   12:38:50.847.15-Aug-2021 3405.50 7459.60 52.41 6.00 773.93 3258.07
   12:38:51.047.15-Aug-2021 3405.50 7459.96 52.41 6.00 774.13 3258.07
   12:38:51.247.15-Aug-2021 3405.50 7458.55 52.41 6.00 774.33 3258.07
   12:38:51.446.15-Aug-2021 3405.50 7458.67 52.41 6.00 774.53 3258.07
   12:38:51.646.15-Aug-2021 3405.50 7458.67 52.41 6.00 774.73 3258.07
   12:38:51.846.15-Aug-2021 3405.50 7459.14 52.41 6.00 774.93 3258.07
   12:38:52.046.15-Aug-2021 3405.50 7459.21 52.41 6.00 775.13 3258.07
   12:38:52.246.15-Aug-2021 3405.50 7458.94 52.41 6.00 775.33 3258.07
   12:38:52.446.15-Aug-2021 3405.50 7459.40 52.41 6.00 775.53 3258.07
   12:38:52.646.15-Aug-2021 3405.50 7459.40 52.41 6.00 775.73 3258.07
   12:38:52.846.15-Aug-2021 3405.50 7460.79 52.41 6.00 775.93 3258.07
   12:38:53.045.15-Aug-2021 3405.50 7460.76 52.41 6.00 776.13 3258.07
   12:38:53.245.15-Aug-2021 3405.50 7459.32 52.41 6.00 776.33 3258.07
   12:38:53.445.15-Aug-2021 3405.50 7458.27 52.41 6.00 776.53 3258.07
   12:38:53.645.15-Aug-2021 3405.50 7458.27 52.41 6.00 776.73 3258.07
   12:38:53.845.15-Aug-2021 3405.50 7459.50 52.41 6.00 776.93 3258.07
   12:38:54.045.15-Aug-2021 3405.50 7459.86 52.41 6.00 777.13 3258.07
   12:38:54.245.15-Aug-2021 3405.50 7460.38 52.41 6.00 777.33 3258.07
   12:38:54.445.15-Aug-2021 3405.50 7459.52 52.41 6.00 777.53 3258.07
   12:38:54.644.15-Aug-2021 3405.50 7459.52 52.41 6.00 777.73 3258.07
   12:38:54.844.15-Aug-2021 3405.50 7461.71 52.41 6.00 777.93 3258.07
   12:38:55.044.15-Aug-2021 3405.50 7459.88 52.41 6.00 778.13 3258.07
   12:38:55.244.15-Aug-2021 3405.50 7458.92 52.40 6.00 778.33 3258.07
   12:38:55.444.15-Aug-2021 3405.50 7457.50 52.40 6.00 778.53 3258.07
   12:38:55.644.15-Aug-2021 3405.50 7457.50 52.40 6.00 778.73 3258.07
   12:38:55.844.15-Aug-2021 3405.50 7459.59 52.40 6.00 778.93 3258.07
   12:38:56.044.15-Aug-2021 3405.50 7459.81 52.40 6.00 779.13 3258.07
   12:38:56.244.15-Aug-2021 3405.50 7459.04 52.40 6.00 779.33 3258.07
   12:38:56.443.15-Aug-2021 3405.50 7458.31 52.40 6.00 779.53 3258.07
   12:38:56.643.15-Aug-2021 3405.50 7458.31 52.40 6.00 779.73 3258.07
   12:38:56.843.15-Aug-2021 3405.50 7460.79 52.40 6.00 779.93 3258.07
   12:38:57.043.15-Aug-2021 3405.50 7461.10 52.40 6.00 780.13 3258.07
   12:38:57.243.15-Aug-2021 3405.50 7459.72 52.40 6.00 780.33 3258.07
   12:38:57.443.15-Aug-2021 3405.50 7458.51 52.40 6.00 780.53 3258.07
   12:38:57.643.15-Aug-2021 3405.50 7458.51 52.40 6.00 780.73 3258.07
   12:38:57.843.15-Aug-2021 3405.50 7459.19 52.40 6.00 780.93 3258.07
   12:38:58.042.15-Aug-2021 3405.50 7460.14 52.40 6.00 781.13 3258.07
   12:38:58.242.15-Aug-2021 3405.50 7460.66 52.40 6.00 781.33 3258.07
