~Version Information
 VERS.                  2.0:   CWLS log ASCII Standard -VERSION 2.0
 WRAP.                   NO:   One line per depth step
~Well Information Block
#MNEM.UNIT     VALUE/NAME     DESCRIPTION
#---------     -----------    ---------------------------
 STRT.S             08:47:11 15-Aug-21: START TIME 08:47:11 15-Aug-21
 STOP.S             08:54:08 15-Aug-21: STOP TIME  08:54:08 15-Aug-21
 STEP.S                   0.00: STEP TIME
 NULL.                 -999.25: NULL VALUE
 DFWT.                        :  DIST FWL TEXT
 DFST.                        :  DIST FSL TEXT
 DMF .             Drill Floor:  DRILL MEAS FROM
 STIM.      17.18.56 20-Jun-21:  START TIME
 DATE.      17.18.56 20-Aug-21:  END TIME
 SPUD.               20-Jun-21:  SPUD DATE
 NREF.                    Grid:  NORTH REFERENCE
 HPTY.       Minimum Curvature:  HOLE POS TYPE
 DMOD.             Drill Model:  DRILL MOD DESC
 SVYD.                  Survey:  SURVEY DESC
 ILTD.               Lithology:  INTERP LTH DESC
 FTOP.          Formation Tops:  FORM TOPS DESC
 SON .        AZ-XX-0907056190:  JOB NUMBER
 PDAT.       Caspian Sea Level:  PERMANENT DATUM
 WTYP.                Deviated:  WELL TYPE
 MDS .        Operator Entered:  MAG DATA SOURCE
 COMP.     BP Exploration (Caspian Sea) Ltd.:  COMPANY
 UWI .            /AZE20000092:  UNIQUE WELL IDENTIFIER
 API .            /AZE20000092:  API NUMBER
 BASE.              Azerbaijan:  LOGGING EQUIPMENT BASE LOCATION
 REGN.                   EESSA:  REGION
 PROV.                    baku:  PROVINCE
 STAT.                    baku:  STATE NAME
 CTRY.              Azerbaijan:  COUNTRY NAME
 FLD .                     ACG:  FIELD NAME
 SRVC.          Turan Drilling:  CONTRACTOR
 MWDS.                    Baku:  MWD SHOP
 WELL.                     J26:  WELL NAME
 JOBN.        AZ-XX-0907056190:  JOB TICKET NUMB
 RIG .             West Chirag:  RIG NAME
 DOE .                     N/A:  DOE NUMBER
 DCON.         Sperry Drilling:  DIRECTNL CONTR
 UNIT.                     N/A:  LOGGING EQUIPMENT ID
 CNTY.                        :  COUNTY
 LOC .                        :  LOCATION
 LMF .             Drill Floor:  LOG MEASURED FROM
 TVDS.m                  43.00:  TVDSS CORRECTN
 LATI.deg                40.13:  LATITUDE
 LONG.deg                51.22:  LONGITUDE
 WHNS.m                  -7.12:  WELL HEAD N/S
 WHEW.m                  -9.46:  WELL HEAD E/W
 UTMX.m              519004.02:  UTM X
 UTMY.m             4443784.96:  UTM Y
 DFWL.m                   0.00:  DISTANCE FWL
 DFSL.m                   0.00:  DISTANCE FSL
 SDEP.m                 464.00:  START DEPTH
 TDD .m                3500.00:  TOTAL DEPTH (DRILLER)
 VSDR.deg               114.35:  VERT SEC DIRECT
 GVFD.g                   1.00:  GRAVITY FIELD
 MFLD.nT              50386.00:  MAGNETIC FIELD
 MDIP.deg                59.63:  MAGNETIC DIP
 MDEC.deg                 6.43:  MAGNETIC DECL
 GRDC.deg                 0.15:  GRID CORRECTION
 AZTC.deg                 6.29:  AZM TOTAL CORR
 EPD .m                   0.00:  ELEVATION
 EGL .m                   0.00:  GROUND ELEVATION
 WDMS.m                 169.80:  WD ELEV
 APD .m                  43.00:  DEPTH ABOVE PD
 VSEW.m                  -9.46:  VERT SEC E/W
 VSNS.m                  -7.12:  VERT SEC N/S
 AGAP.m                  43.00:  AIR GAP
 DEP .m                 356.16:  DEPTH
 EKB .m                  43.00:  KB ELEVATION
 EDF .m                  43.00:  DF ELEVATION
 TDL .m                 699.00:  TOTAL DEPTH (LOGGER)
 VSC .                       0:  VS TO CLOSURE
 MAGU.                 1853727:  MAGUTM CHECKSUM
~Parameter Information Block
#MNEM.UNIT       Value        Description
#---------     -----------    ---------------------------
 AV  .mps                 1.30:  Ann Velocity 
 AVMX.mps                 1.67:  Max Ann Veloc 
 AZIF.deg               280.40:  Azm, Final 
 BHAT.        Rotary Steerable:  BHA Type 
 BREV.rev            528970.00:  Rev Bit Total 
 BROT.°/30m               1.00:  Build Rotating 
 BS  .in                 12.25:  Bit Size 
 BSZ .in                 12.25:  Bit Size 
 BTPL.psig              738.00:  Bit Press Loss 
 CABU.                     Yes:  Customer Abuse 
 CGEO.        Elvin Suleymanov:  Customer Geo 
 COMM.                     äji:  Run Comments 1 
 TCS .hr                 66.05:  Time Ciculation Ended 
 CV  .mps                 2.20:  Crit Velocity 
 CVMX.mps                 2.56:  Max Crit Veloc 
 DD1 .          Rashad Habibov:  Direct Drillr 1 
 DD2 .            Azer ravanov:  Direct Drillr 2 
 DD3 .           Teymur Agayev:  Direct Drillr 3 
 DDSV.               Geo-Pilot:  DD Service 
 DEFF.%                  90.00:  % Det Eff 
 DLRX.°/30m               2.95:  Dogleg Rot Max 
 DLSO.°/30m               1.00:  Dogleg Oriented 
 DLSX.°/30m               2.95:  Dogleg Str Max 
 DRET.      11.42.20 11-Aug-21:  Drill End Time 
 DRST.      23.03.20 08-Aug-21:  Drill Start Tim 
 DTIM.hr                 45.50:  Time Drilling 
 EDEP.m                3488.00:  End Depth 
 ENG1.         Marcelo Marcari:  Engineer 1 
 ENG2.         Dair Mahammadov:  Engineer 2 
 ENG3.       Davud Huseyn-zada:  Engineer 3 
 ENG4.         Yevgeniy Ulikov:  Engineer 4 
 ETIM.      17.45.20 17-Aug-21:  End Time 
 FLOI.gpm              1197.70:  Flow In 
 FLON.gpm              1100.00:  Flow In Min 
 FLOS.cptm                0.00:  Fluid Loss 
 FLOX.gpm              1200.00:  Flow In Max 
 DFT .        Mineral Oil Base:  Mud Type 
 FTRO.       Formation Presure:  FTWD Run Obj 
 HFLO.                      No:  High Flow 
 HPRE.                      No:  High Pressure 
 HTEM.                      No:  High Temp 
 HYDO.m                   1.80:  Hydro Offset 
 IFIN.deg                 9.87:  Inc, Final 
 IMAX.deg                19.96:  Inc Max 
 IMIN.deg                 3.82:  Inc Min 
 IMND.m                3257.42:  Inc Min Depth 
 IMXD.m                2945.53:  Inc Max Depth 
 JARR.                      No:  Jarring 
 LETM.      11.42.20 11-Aug-21:  Log End Time 
 LOST.hr                     0:  Lost Rig Time 
 LSTM.      23.03.20 08-Aug-21:  Log Start Time 
 MDCL.ppm             42500.00:  Mud Chlorides 
 MDES.     Inversion Oil/Synthetic:  Mud Desc 
 DFD .sg                  1.45:  Mud Density 
 MDMN.sg                  1.39:  Dens Mud Min 
 MDMX.sg                  1.57:  Dens Mud Max 
 MOIL.                   53.20:  Run Mud Oil % 
 MOWR.                   70:30:  Run Mud OWR 
 MSND.                       0:  Run Mud Sand % 
 MSOL.                   24.30:  Run Mud Solids% 
 DFV .spqt               79.00:  Mud Viscosity 
 MWOD.in                  8.00:  MWD Tool OD 
 MWSI.                      No:  Serv Intrp, MWD 
 OTIM.hr                253.06:  Time Operating 
 PCON.           Look Like New:  Pad Condition 
 PMAX.psia            11068.93:  Press Op, Max 
 PV  .cP                 36.00:  Mud PV 
 RUN .                    1000:  Run Number 
 ROPA.m/hr               15.34:  ROP Avg 
 ROPN.m/hr                4.00:  ROP Min 
 ROPX.m/hr               31.00:  ROP Max 
 RPMA.rpm               151.40:  RPM Surface Avg 
 RPMN.rpm               120.00:  RPM Surface Min 
 RPMX.rpm               160.00:  RPM Surface Max 
 RRUN.                    L505:  Rig Run Number 
 RTIM.hr                 10.00:  Time Reaming 
 SAZI.deg                88.92:  Azm, Start 
 SDEP.m                2789.00:  Start Depth 
 SIDD.                      No:  Serv Intrp, DD 
 SINC.deg                19.84:  Inc, Start 
 SPPA.psig             4421.39:  SPP Avg 
 SPPN.psig             4130.00:  SPP Min 
 SPPX.psig             4800.00:  SPP Max 
 STIM.      01.25.20 07-Aug-21:  Start Time 
 SVCS.                 DD, MWD:  Services 
 SVER.                    9.20:  Sperry Version 
 TDAT.m                 699.00:  Tot Depth Attmp 
 TDDF.                      No:  Trip for DD 
 TDLG.m                 699.00:  Tot Depth Loggd 
 TFF .                      No:  Trip for Fail 
 TQAA.f-kp               20.55:  Torque Abs Avg 
 TQAN.f-kp               15.00:  Torque Abs Min 
 TQAX.f-kp               24.00:  Torque Abs Max 
 TRRT.°/30m               0.50:  Turn Rotating 
 MRT .                    HCIM:  Maximum Recorded Temperature 
 TTMX.degC               82.35:  Max Tool Temp 
 VS01.                90654677:  Virtual Str1 SN 
 VS02.                90636294:  Virtual Str2 SN 
 VS03.                90653866:  Virtual Str3 SN 
 VS04.                90654674:  Virtual Str4 SN 
 WBMN.klb                10.00:  WOB Min 
 WITN.         Haytham Mostafa:  Customer Rep 
 WITN.           Rufat Babayev:  Customer Rep 2 
 WOBA.klb                22.43:  WOB Avg 
 WOBX.klb                35.00:  WOB Max 
 YP  .lhf2               32.00:  Yield Point 
~Curve Information Block
#MNEM.UNIT                 API CODE     Curve Description
#---------               -----------    ---------------------------
 TIME.HHMMSS            00 000 000 000:  GT Time & Date
 GTDEPTH.m              00 000 000 000:  GT Depth
 GTPQH.psia             00 000 000 000:  GT HR Quartz Pressure
 GTTQ.degC              00 000 000 000:  GT Quartz Temperature
 GTTN.NONE              00 000 000 000:  GT Test Number
 GTET.sec               00 000 000 000:  GT Elapsed Test Time
 GTTVD.m                00 000 000 000:  GT True Vertical Depth
#Other Information
#
#WARRANTY: Halliburton will use its best efforts to furnish customers with 
#accurate information and interpretations that are part of, and incident to, the services 
#provided.  However, Halliburton cannot and does not warrant the accuracy 
#or correctness of such information and interpretations.  Under no circumstances should any 
#such information or interpretation be relied upon as the sole basis for any drilling, 
#completion, production, or financial decision or any procedure involving any risk to the 
#safety of any drilling venture, drilling rig or its crew or any other third party.  The 
#Customer has full responsibility for all drilling, completion and production operation.  
#Halliburton makes no representations or warranties, either expressed or 
#implied, including, but not limited to, the implied warranties of merchantability or fitness 
#for a particular purpose, with respect to the services rendered.  In no event will 
#Halliburton be liable for failure to obtain any particular results or for 
#any damages, including, but not limited to, indirect, special or consequential damages, 
#resulting from the use of any information or interpretation provided by Halliburton.
#
~A           TIME           GTDEPTH  GTPQH  GTTQ  GTTN  GTET   GTTVD  
# ...
   08:48:20.430.15-Aug-2021 3421.80 3510.15 56.38 2.00  69.01 3274.11
   08:48:20.630.15-Aug-2021 3421.80 3510.15 56.38 2.00  69.21 3274.11
   08:48:20.830.15-Aug-2021 3421.80 3282.50 56.37 2.00  69.41 3274.11
   08:48:21.030.15-Aug-2021 3421.80 3184.40 56.37 2.00  69.61 3274.11
   08:48:21.230.15-Aug-2021 3421.80 3096.23 56.37 2.00  69.81 3274.11
   08:48:21.430.15-Aug-2021 3421.80 3015.60 56.37 2.00  70.01 3274.11
   08:48:21.630.15-Aug-2021 3421.80 3015.60 56.37 2.00  70.21 3274.11
   08:48:21.830.15-Aug-2021 3421.80 2901.26 56.36 2.00  70.41 3274.11
   08:48:22.030.15-Aug-2021 3421.80 2833.24 56.35 2.00  70.61 3274.11
   08:48:22.230.15-Aug-2021 3421.80 2783.55 56.35 2.00  70.81 3274.11
   08:48:22.430.15-Aug-2021 3421.80 2678.98 56.35 2.00  71.01 3274.11
   08:48:22.630.15-Aug-2021 3421.80 2678.98 56.35 2.00  71.21 3274.11
   08:48:22.830.15-Aug-2021 3421.80 2382.95 56.34 2.00  71.41 3274.11
   08:48:23.030.15-Aug-2021 3421.80 2235.12 56.34 2.00  71.61 3274.11
   08:48:23.230.15-Aug-2021 3421.80 2085.72 56.33 2.00  71.81 3274.11
   08:48:23.430.15-Aug-2021 3421.80 1946.33 56.33 2.00  72.01 3274.11
   08:48:23.630.15-Aug-2021 3421.80 1946.33 56.33 2.00  72.21 3274.11
   08:48:23.830.15-Aug-2021 3421.80 1727.85 56.32 2.00  72.41 3274.11
   08:48:24.030.15-Aug-2021 3421.80 1692.71 56.31 2.00  72.61 3274.11
   08:48:24.230.15-Aug-2021 3421.80 1690.86 56.31 2.00  72.81 3274.11
   08:48:24.430.15-Aug-2021 3421.80 1698.75 56.31 2.00  73.01 3274.11
   08:48:24.631.15-Aug-2021 3421.80 1698.75 56.31 2.00  73.21 3274.11
   08:48:24.831.15-Aug-2021 3421.80 1687.98 56.30 2.00  73.41 3274.11
   08:48:25.031.15-Aug-2021 3421.80 1696.79 56.29 2.00  73.61 3274.11
   08:48:25.231.15-Aug-2021 3421.80 1695.69 56.29 2.00  73.81 3274.11
   08:48:25.431.15-Aug-2021 3421.80 1701.26 56.29 2.00  74.01 3274.11
   08:48:25.631.15-Aug-2021 3421.80 1701.26 56.29 2.00  74.21 3274.11
   08:48:25.831.15-Aug-2021 3421.80 1686.90 56.28 2.00  74.41 3274.11
   08:48:26.031.15-Aug-2021 3421.80 1685.78 56.28 2.00  74.61 3274.11
   08:48:26.231.15-Aug-2021 3421.80 1678.80 56.27 2.00  74.81 3274.11
   08:48:26.431.15-Aug-2021 3421.80 1677.09 56.27 2.00  75.01 3274.11
   08:48:26.631.15-Aug-2021 3421.80 1677.09 56.27 2.00  75.21 3274.11
   08:48:26.831.15-Aug-2021 3421.80 1673.41 56.26 2.00  75.41 3274.11
   08:48:27.031.15-Aug-2021 3421.80 1670.89 56.26 2.00  75.61 3274.11
   08:48:27.231.15-Aug-2021 3421.80 1731.36 56.26 2.00  75.81 3274.11
   08:48:27.431.15-Aug-2021 3421.80 1872.27 56.25 2.00  76.01 3274.11
   08:48:27.631.15-Aug-2021 3421.80 1872.27 56.25 2.00  76.21 3274.11
   08:48:27.831.15-Aug-2021 3421.80 2105.11 56.25 2.00  76.41 3274.11
   08:48:28.031.15-Aug-2021 3421.80 2206.81 56.25 2.00  76.61 3274.11
   08:48:28.231.15-Aug-2021 3421.80 2301.63 56.24 2.00  76.81 3274.11
   08:48:28.431.15-Aug-2021 3421.80 2391.02 56.24 2.00  77.01 3274.11
   08:48:28.631.15-Aug-2021 3421.80 2391.02 56.24 2.00  77.21 3274.11
   08:48:28.831.15-Aug-2021 3421.80 2556.97 56.24 2.00  77.41 3274.11
   08:48:29.031.15-Aug-2021 3421.80 2634.22 56.23 2.00  77.61 3274.11
   08:48:29.231.15-Aug-2021 3421.80 2708.01 56.23 2.00  77.81 3274.11
   08:48:29.431.15-Aug-2021 3421.80 2778.71 56.23 2.00  78.01 3274.11
   08:48:29.631.15-Aug-2021 3421.80 2778.71 56.23 2.00  78.21 3274.11
   08:48:29.831.15-Aug-2021 3421.80 2911.21 56.23 2.00  78.41 3274.11
   08:48:30.031.15-Aug-2021 3421.80 2973.16 56.23 2.00  78.61 3274.11
   08:48:30.231.15-Aug-2021 3421.80 3033.60 56.23 2.00  78.81 3274.11
   08:48:30.431.15-Aug-2021 3421.80 3091.84 56.23 2.00  79.01 3274.11
   08:48:30.631.15-Aug-2021 3421.80 3091.84 56.23 2.00  79.21 3274.11
   08:48:30.832.15-Aug-2021 3421.80 3200.64 56.22 2.00  79.41 3274.11
   08:48:31.032.15-Aug-2021 3421.80 3252.90 56.22 2.00  79.61 3274.11
   08:48:31.232.15-Aug-2021 3421.80 3303.20 56.22 2.00  79.81 3274.11
   08:48:31.432.15-Aug-2021 3421.80 3352.18 56.22 2.00  80.01 3274.11
   08:48:31.632.15-Aug-2021 3421.80 3352.18 56.22 2.00  80.21 3274.11
   08:48:31.832.15-Aug-2021 3421.80 3444.26 56.22 2.00  80.41 3274.11
   08:48:32.032.15-Aug-2021 3421.80 3488.06 56.22 2.00  80.61 3274.11
   08:48:32.232.15-Aug-2021 3421.80 3530.26 56.22 2.00  80.81 3274.11
   08:48:32.432.15-Aug-2021 3421.80 3570.30 56.23 2.00  81.01 3274.11
   08:48:32.632.15-Aug-2021 3421.80 3570.30 56.23 2.00  81.21 3274.11
   08:48:32.832.15-Aug-2021 3421.80 3648.30 56.23 2.00  81.41 3274.11
   08:48:33.032.15-Aug-2021 3421.80 3685.80 56.23 2.00  81.61 3274.11
   08:48:33.232.15-Aug-2021 3421.80 3720.37 56.23 2.00  81.81 3274.11
   08:48:33.432.15-Aug-2021 3421.80 3754.74 56.23 2.00  82.01 3274.11
   08:48:33.632.15-Aug-2021 3421.80 3754.74 56.23 2.00  82.21 3274.11
   08:48:33.832.15-Aug-2021 3421.80 3754.74 56.23 2.00  82.41 3274.11
   08:48:34.032.15-Aug-2021 3421.80 3851.79 56.23 2.00  82.61 3274.11
   08:48:34.232.15-Aug-2021 3421.80 3882.07 56.23 2.00  82.81 3274.11
   08:48:34.432.15-Aug-2021 3421.80 3911.97 56.23 2.00  83.01 3274.11
   08:48:34.632.15-Aug-2021 3421.80 3911.97 56.23 2.00  83.21 3274.11
   08:48:34.832.15-Aug-2021 3421.80 3968.68 56.23 2.00  83.41 3274.11
   08:48:35.032.15-Aug-2021 3421.80 3995.78 56.24 2.00  83.61 3274.11
   08:48:35.232.15-Aug-2021 3421.80 4022.41 56.24 2.00  83.81 3274.11
   08:48:35.432.15-Aug-2021 3421.80 4047.19 56.24 2.00  84.01 3274.11
   08:48:35.632.15-Aug-2021 3421.80 4047.19 56.24 2.00  84.21 3274.11
   08:48:35.832.15-Aug-2021 3421.80 4097.06 56.24 2.00  84.41 3274.11
   08:48:36.032.15-Aug-2021 3421.80 4121.35 56.24 2.00  84.61 3274.11
   08:48:36.232.15-Aug-2021 3421.80 4145.05 56.24 2.00  84.81 3274.11
   08:48:36.432.15-Aug-2021 3421.80 4168.41 56.24 2.00  85.01 3274.11
   08:48:36.632.15-Aug-2021 3421.80 4168.41 56.24 2.00  85.21 3274.11
   08:48:36.833.15-Aug-2021 3421.80 4214.10 56.25 2.00  85.41 3274.11
   08:48:37.033.15-Aug-2021 3421.80 4236.61 56.25 2.00  85.61 3274.11
   08:48:37.233.15-Aug-2021 3421.80 4256.07 56.25 2.00  85.81 3274.11
   08:48:37.433.15-Aug-2021 3421.80 4276.17 56.25 2.00  86.01 3274.11
   08:48:37.633.15-Aug-2021 3421.80 4276.17 56.25 2.00  86.21 3274.11
   08:48:37.833.15-Aug-2021 3421.80 4315.38 56.25 2.00  86.41 3274.11
   08:48:38.033.15-Aug-2021 3421.80 4334.17 56.25 2.00  86.61 3274.11
   08:48:38.233.15-Aug-2021 3421.80 4352.45 56.25 2.00  86.81 3274.11
   08:48:38.433.15-Aug-2021 3421.80 4370.81 56.25 2.00  87.01 3274.11
   08:48:38.633.15-Aug-2021 3421.80 4370.81 56.25 2.00  87.21 3274.11
   08:48:38.833.15-Aug-2021 3421.80 4403.62 56.26 2.00  87.41 3274.11
   08:48:39.033.15-Aug-2021 3421.80 4419.92 56.26 2.00  87.61 3274.11
   08:48:39.233.15-Aug-2021 3421.80 4436.11 56.26 2.00  87.81 3274.11
   08:48:39.433.15-Aug-2021 3421.80 4452.33 56.26 2.00  88.01 3274.11
   08:48:39.633.15-Aug-2021 3421.80 4452.33 56.26 2.00  88.21 3274.11
   08:48:39.833.15-Aug-2021 3421.80 4480.94 56.26 2.00  88.41 3274.11
   08:48:40.033.15-Aug-2021 3421.80 4495.38 56.26 2.00  88.61 3274.11
   08:48:40.233.15-Aug-2021 3421.80 4510.36 56.26 2.00  88.81 3274.11
   08:48:40.433.15-Aug-2021 3421.80 4522.93 56.27 2.00  89.01 3274.11
   08:48:40.633.15-Aug-2021 3421.80 4522.93 56.27 2.00  89.21 3274.11
   08:48:40.833.15-Aug-2021 3421.80 4549.39 56.27 2.00  89.41 3274.11
   08:48:41.033.15-Aug-2021 3421.80 4562.48 56.27 2.00  89.61 3274.11
   08:48:41.233.15-Aug-2021 3421.80 4575.35 56.27 2.00  89.81 3274.11
   08:48:41.433.15-Aug-2021 3421.80 4587.09 56.27 2.00  90.01 3274.11
   08:48:41.633.15-Aug-2021 3421.80 4587.09 56.27 2.00  90.21 3274.11
   08:48:41.833.15-Aug-2021 3421.80 4610.75 56.27 2.00  90.41 3274.11
   08:48:42.033.15-Aug-2021 3421.80 4622.46 56.27 2.00  90.61 3274.11
   08:48:42.233.15-Aug-2021 3421.80 4632.76 56.27 2.00  90.81 3274.11
   08:48:42.433.15-Aug-2021 3421.80 4643.71 56.27 2.00  91.01 3274.11
   08:48:42.633.15-Aug-2021 3421.80 4643.71 56.27 2.00  91.21 3274.11
   08:48:42.833.15-Aug-2021 3421.80 4665.02 56.28 2.00  91.41 3274.11
   08:48:43.034.15-Aug-2021 3421.80 4675.68 56.28 2.00  91.61 3274.11
   08:48:43.234.15-Aug-2021 3421.80 4685.01 56.28 2.00  91.82 3274.11
