~Version Information
 VERS.                  2.0:   CWLS log ASCII Standard -VERSION 2.0
 WRAP.                   NO:   One line per depth step
~Well Information Block
#MNEM.UNIT     VALUE/NAME     DESCRIPTION
#---------     -----------    ---------------------------
 STRT.S             12:25:56 15-Aug-21: START TIME 12:25:56 15-Aug-21
 STOP.S             12:39:05 15-Aug-21: STOP TIME  12:39:05 15-Aug-21
 STEP.S                   0.00: STEP TIME
 NULL.                 -999.25: NULL VALUE
 DFWT.                        :  DIST FWL TEXT
 DFST.                        :  DIST FSL TEXT
 DMF .             Drill Floor:  DRILL MEAS FROM
 STIM.      17.18.56 20-Jun-21:  START TIME
 DATE.      17.18.56 20-Aug-21:  END TIME
 SPUD.               20-Jun-21:  SPUD DATE
 NREF.                    Grid:  NORTH REFERENCE
 HPTY.       Minimum Curvature:  HOLE POS TYPE
 DMOD.             Drill Model:  DRILL MOD DESC
 SVYD.                  Survey:  SURVEY DESC
 ILTD.               Lithology:  INTERP LTH DESC
 FTOP.          Formation Tops:  FORM TOPS DESC
 SON .        AZ-XX-0907056190:  JOB NUMBER
 PDAT.       Caspian Sea Level:  PERMANENT DATUM
 WTYP.                Deviated:  WELL TYPE
 MDS .        Operator Entered:  MAG DATA SOURCE
 COMP.     BP Exploration (Caspian Sea) Ltd.:  COMPANY
 UWI .            /AZE20000092:  UNIQUE WELL IDENTIFIER
 API .            /AZE20000092:  API NUMBER
 BASE.              Azerbaijan:  LOGGING EQUIPMENT BASE LOCATION
 REGN.                   EESSA:  REGION
 PROV.                    baku:  PROVINCE
 STAT.                    baku:  STATE NAME
 CTRY.              Azerbaijan:  COUNTRY NAME
 FLD .                     ACG:  FIELD NAME
 SRVC.          Turan Drilling:  CONTRACTOR
 MWDS.                    Baku:  MWD SHOP
 WELL.                     J26:  WELL NAME
 JOBN.        AZ-XX-0907056190:  JOB TICKET NUMB
 RIG .             West Chirag:  RIG NAME
 DOE .                     N/A:  DOE NUMBER
 DCON.         Sperry Drilling:  DIRECTNL CONTR
 UNIT.                     N/A:  LOGGING EQUIPMENT ID
 CNTY.                        :  COUNTY
 LOC .                        :  LOCATION
 LMF .             Drill Floor:  LOG MEASURED FROM
 TVDS.m                  43.00:  TVDSS CORRECTN
 LATI.deg                40.13:  LATITUDE
 LONG.deg                51.22:  LONGITUDE
 WHNS.m                  -7.12:  WELL HEAD N/S
 WHEW.m                  -9.46:  WELL HEAD E/W
 UTMX.m              519004.02:  UTM X
 UTMY.m             4443784.96:  UTM Y
 DFWL.m                   0.00:  DISTANCE FWL
 DFSL.m                   0.00:  DISTANCE FSL
 SDEP.m                 464.00:  START DEPTH
 TDD .m                3500.00:  TOTAL DEPTH (DRILLER)
 VSDR.deg               114.35:  VERT SEC DIRECT
 GVFD.g                   1.00:  GRAVITY FIELD
 MFLD.nT              50386.00:  MAGNETIC FIELD
 MDIP.deg                59.63:  MAGNETIC DIP
 MDEC.deg                 6.43:  MAGNETIC DECL
 GRDC.deg                 0.15:  GRID CORRECTION
 AZTC.deg                 6.29:  AZM TOTAL CORR
 EPD .m                   0.00:  ELEVATION
 EGL .m                   0.00:  GROUND ELEVATION
 WDMS.m                 169.80:  WD ELEV
 APD .m                  43.00:  DEPTH ABOVE PD
 VSEW.m                  -9.46:  VERT SEC E/W
 VSNS.m                  -7.12:  VERT SEC N/S
 AGAP.m                  43.00:  AIR GAP
 DEP .m                 356.16:  DEPTH
 EKB .m                  43.00:  KB ELEVATION
 EDF .m                  43.00:  DF ELEVATION
 TDL .m                 699.00:  TOTAL DEPTH (LOGGER)
 VSC .                       0:  VS TO CLOSURE
 MAGU.                 1853727:  MAGUTM CHECKSUM
~Parameter Information Block
#MNEM.UNIT       Value        Description
#---------     -----------    ---------------------------
 AV  .mps                 1.30:  Ann Velocity 
 AVMX.mps                 1.67:  Max Ann Veloc 
 AZIF.deg               280.40:  Azm, Final 
 BHAT.        Rotary Steerable:  BHA Type 
 BREV.rev            528970.00:  Rev Bit Total 
 BROT.°/30m               1.00:  Build Rotating 
 BS  .in                 12.25:  Bit Size 
 BSZ .in                 12.25:  Bit Size 
 BTPL.psig              738.00:  Bit Press Loss 
 CABU.                     Yes:  Customer Abuse 
 CGEO.        Elvin Suleymanov:  Customer Geo 
 COMM.                     ´3x:  Run Comments 1 
 TCS .hr                 66.05:  Time Ciculation Ended 
 CV  .mps                 2.20:  Crit Velocity 
 CVMX.mps                 2.56:  Max Crit Veloc 
 DD1 .          Rashad Habibov:  Direct Drillr 1 
 DD2 .            Azer ravanov:  Direct Drillr 2 
 DD3 .           Teymur Agayev:  Direct Drillr 3 
 DDSV.               Geo-Pilot:  DD Service 
 DEFF.%                  90.00:  % Det Eff 
 DLRX.°/30m               2.95:  Dogleg Rot Max 
 DLSO.°/30m               1.00:  Dogleg Oriented 
 DLSX.°/30m               2.95:  Dogleg Str Max 
 DRET.      11.42.20 11-Aug-21:  Drill End Time 
 DRST.      23.03.20 08-Aug-21:  Drill Start Tim 
 DTIM.hr                 45.50:  Time Drilling 
 EDEP.m                3488.00:  End Depth 
 ENG1.         Marcelo Marcari:  Engineer 1 
 ENG2.         Dair Mahammadov:  Engineer 2 
 ENG3.       Davud Huseyn-zada:  Engineer 3 
 ENG4.         Yevgeniy Ulikov:  Engineer 4 
 ETIM.      17.45.20 17-Aug-21:  End Time 
 FLOI.gpm              1197.70:  Flow In 
 FLON.gpm              1100.00:  Flow In Min 
 FLOS.cptm                0.00:  Fluid Loss 
 FLOX.gpm              1200.00:  Flow In Max 
 DFT .        Mineral Oil Base:  Mud Type 
 FTRO.       Formation Presure:  FTWD Run Obj 
 HFLO.                      No:  High Flow 
 HPRE.                      No:  High Pressure 
 HTEM.                      No:  High Temp 
 HYDO.m                   1.80:  Hydro Offset 
 IFIN.deg                 9.87:  Inc, Final 
 IMAX.deg                19.96:  Inc Max 
 IMIN.deg                 3.82:  Inc Min 
 IMND.m                3257.42:  Inc Min Depth 
 IMXD.m                2945.53:  Inc Max Depth 
 JARR.                      No:  Jarring 
 LETM.      11.42.20 11-Aug-21:  Log End Time 
 LOST.hr                     0:  Lost Rig Time 
 LSTM.      23.03.20 08-Aug-21:  Log Start Time 
 MDCL.ppm             42500.00:  Mud Chlorides 
 MDES.     Inversion Oil/Synthetic:  Mud Desc 
 DFD .sg                  1.45:  Mud Density 
 MDMN.sg                  1.39:  Dens Mud Min 
 MDMX.sg                  1.57:  Dens Mud Max 
 MOIL.                   53.20:  Run Mud Oil % 
 MOWR.                   70:30:  Run Mud OWR 
 MSND.                       0:  Run Mud Sand % 
 MSOL.                   24.30:  Run Mud Solids% 
 DFV .spqt               79.00:  Mud Viscosity 
 MWOD.in                  8.00:  MWD Tool OD 
 MWSI.                      No:  Serv Intrp, MWD 
 OTIM.hr                253.06:  Time Operating 
 PCON.           Look Like New:  Pad Condition 
 PMAX.psia            11068.93:  Press Op, Max 
 PV  .cP                 36.00:  Mud PV 
 RUN .                    1000:  Run Number 
 ROPA.m/hr               15.34:  ROP Avg 
 ROPN.m/hr                4.00:  ROP Min 
 ROPX.m/hr               31.00:  ROP Max 
 RPMA.rpm               151.40:  RPM Surface Avg 
 RPMN.rpm               120.00:  RPM Surface Min 
 RPMX.rpm               160.00:  RPM Surface Max 
 RRUN.                    L505:  Rig Run Number 
 RTIM.hr                 10.00:  Time Reaming 
 SAZI.deg                88.92:  Azm, Start 
 SDEP.m                2789.00:  Start Depth 
 SIDD.                      No:  Serv Intrp, DD 
 SINC.deg                19.84:  Inc, Start 
 SPPA.psig             4421.39:  SPP Avg 
 SPPN.psig             4130.00:  SPP Min 
 SPPX.psig             4800.00:  SPP Max 
 STIM.      01.25.20 07-Aug-21:  Start Time 
 SVCS.                 DD, MWD:  Services 
 SVER.                    9.20:  Sperry Version 
 TDAT.m                 699.00:  Tot Depth Attmp 
 TDDF.                      No:  Trip for DD 
 TDLG.m                 699.00:  Tot Depth Loggd 
 TFF .                      No:  Trip for Fail 
 TQAA.f-kp               20.55:  Torque Abs Avg 
 TQAN.f-kp               15.00:  Torque Abs Min 
 TQAX.f-kp               24.00:  Torque Abs Max 
 TRRT.°/30m               0.50:  Turn Rotating 
 MRT .                    HCIM:  Maximum Recorded Temperature 
 TTMX.degC               82.35:  Max Tool Temp 
 VS01.                90654677:  Virtual Str1 SN 
 VS02.                90636294:  Virtual Str2 SN 
 VS03.                90653866:  Virtual Str3 SN 
 VS04.                90654674:  Virtual Str4 SN 
 WBMN.klb                10.00:  WOB Min 
 WITN.         Haytham Mostafa:  Customer Rep 
 WITN.           Rufat Babayev:  Customer Rep 2 
 WOBA.klb                22.43:  WOB Avg 
 WOBX.klb                35.00:  WOB Max 
 YP  .lhf2               32.00:  Yield Point 
~Curve Information Block
#MNEM.UNIT                 API CODE     Curve Description
#---------               -----------    ---------------------------
 TIME.HHMMSS            00 000 000 000:  GT Time & Date
 GTDEPTH.m              00 000 000 000:  GT Depth
 GTPQH.psia             00 000 000 000:  GT HR Quartz Pressure
 GTTQ.degC              00 000 000 000:  GT Quartz Temperature
 GTTN.NONE              00 000 000 000:  GT Test Number
 GTET.sec               00 000 000 000:  GT Elapsed Test Time
 GTTVD.m                00 000 000 000:  GT True Vertical Depth
#Other Information
#
#WARRANTY: Halliburton will use its best efforts to furnish customers with 
#accurate information and interpretations that are part of, and incident to, the services 
#provided.  However, Halliburton cannot and does not warrant the accuracy 
#or correctness of such information and interpretations.  Under no circumstances should any 
#such information or interpretation be relied upon as the sole basis for any drilling, 
#completion, production, or financial decision or any procedure involving any risk to the 
#safety of any drilling venture, drilling rig or its crew or any other third party.  The 
#Customer has full responsibility for all drilling, completion and production operation.  
#Halliburton makes no representations or warranties, either expressed or 
#implied, including, but not limited to, the implied warranties of merchantability or fitness 
#for a particular purpose, with respect to the services rendered.  In no event will 
#Halliburton be liable for failure to obtain any particular results or for 
#any damages, including, but not limited to, indirect, special or consequential damages, 
#resulting from the use of any information or interpretation provided by Halliburton.
#
~A           TIME           GTDEPTH  GTPQH  GTTQ  GTTN  GTET   GTTVD  
# ...
   12:35:54.553.15-Aug-2021 3405.50 2427.09 52.32 6.00 597.64 3258.07
   12:35:54.753.15-Aug-2021 3405.50 2427.09 52.32 6.00 597.84 3258.07
   12:35:54.953.15-Aug-2021 3405.50 2430.62 52.32 6.00 598.04 3258.07
   12:35:55.152.15-Aug-2021 3405.50 2432.43 52.32 6.00 598.24 3258.07
   12:35:55.352.15-Aug-2021 3405.50 2434.16 52.32 6.00 598.44 3258.07
   12:35:55.552.15-Aug-2021 3405.50 2436.01 52.32 6.00 598.64 3258.07
   12:35:55.752.15-Aug-2021 3405.50 2436.01 52.32 6.00 598.84 3258.07
   12:35:55.952.15-Aug-2021 3405.50 2439.73 52.32 6.00 599.04 3258.07
   12:35:56.152.15-Aug-2021 3405.50 2441.42 52.32 6.00 599.24 3258.07
   12:35:56.352.15-Aug-2021 3405.50 2443.07 52.32 6.00 599.44 3258.07
   12:35:56.552.15-Aug-2021 3405.50 2444.77 52.32 6.00 599.64 3258.07
   12:35:56.752.15-Aug-2021 3405.50 2444.77 52.32 6.00 599.84 3258.07
   12:35:56.951.15-Aug-2021 3405.50 2446.51 52.32 6.00 600.04 3258.07
   12:35:57.151.15-Aug-2021 3405.50 2450.14 52.32 6.00 600.24 3258.07
   12:35:57.351.15-Aug-2021 3405.50 2451.93 52.32 6.00 600.44 3258.07
   12:35:57.551.15-Aug-2021 3405.50 2453.71 52.32 6.00 600.64 3258.07
   12:35:57.751.15-Aug-2021 3405.50 2453.71 52.32 6.00 600.84 3258.07
   12:35:57.951.15-Aug-2021 3405.50 2455.56 52.32 6.00 601.04 3258.07
   12:35:58.151.15-Aug-2021 3405.50 2458.46 52.32 6.00 601.24 3258.07
   12:35:58.351.15-Aug-2021 3405.50 2459.49 52.32 6.00 601.44 3258.07
   12:35:58.550.15-Aug-2021 3405.50 2461.04 52.32 6.00 601.64 3258.07
   12:35:58.750.15-Aug-2021 3405.50 2461.04 52.32 6.00 601.84 3258.07
   12:35:58.950.15-Aug-2021 3405.50 2464.55 52.32 6.00 602.04 3258.07
   12:35:59.150.15-Aug-2021 3405.50 2466.19 52.32 6.00 602.24 3258.07
   12:35:59.350.15-Aug-2021 3405.50 2468.00 52.32 6.00 602.44 3258.07
   12:35:59.550.15-Aug-2021 3405.50 2469.77 52.32 6.00 602.64 3258.07
   12:35:59.750.15-Aug-2021 3405.50 2469.77 52.32 6.00 602.84 3258.07
   12:35:59.950.15-Aug-2021 3405.50 2473.28 52.32 6.00 603.04 3258.07
   12:36:00.149.15-Aug-2021 3405.50 2475.08 52.32 6.00 603.24 3258.07
   12:36:00.349.15-Aug-2021 3405.50 2476.72 52.32 6.00 603.44 3258.07
   12:36:00.549.15-Aug-2021 3405.50 2478.50 52.32 6.00 603.64 3258.07
   12:36:00.749.15-Aug-2021 3405.50 2478.50 52.32 6.00 603.84 3258.07
   12:36:00.949.15-Aug-2021 3405.50 2482.04 52.32 6.00 604.04 3258.07
   12:36:01.149.15-Aug-2021 3405.50 2483.65 52.32 6.00 604.24 3258.07
   12:36:01.349.15-Aug-2021 3405.50 2485.33 52.32 6.00 604.44 3258.07
   12:36:01.549.15-Aug-2021 3405.50 2487.03 52.32 6.00 604.64 3258.07
   12:36:01.749.15-Aug-2021 3405.50 2487.03 52.32 6.00 604.84 3258.07
   12:36:01.948.15-Aug-2021 3405.50 2490.51 52.32 6.00 605.04 3258.07
   12:36:02.148.15-Aug-2021 3405.50 2492.36 52.32 6.00 605.24 3258.07
   12:36:02.348.15-Aug-2021 3405.50 2494.02 52.32 6.00 605.44 3258.07
   12:36:02.548.15-Aug-2021 3405.50 2495.69 52.32 6.00 605.64 3258.07
   12:36:02.748.15-Aug-2021 3405.50 2495.69 52.32 6.00 605.84 3258.07
   12:36:02.948.15-Aug-2021 3405.50 2499.00 52.32 6.00 606.04 3258.07
   12:36:03.148.15-Aug-2021 3405.50 2500.73 52.32 6.00 606.24 3258.07
   12:36:03.348.15-Aug-2021 3405.50 2502.51 52.32 6.00 606.44 3258.07
   12:36:03.547.15-Aug-2021 3405.50 2504.12 52.32 6.00 606.64 3258.07
   12:36:03.747.15-Aug-2021 3405.50 2504.12 52.32 6.00 606.83 3258.07
   12:36:03.947.15-Aug-2021 3405.50 2507.68 52.32 6.00 607.03 3258.07
   12:36:04.147.15-Aug-2021 3405.50 2509.45 52.32 6.00 607.23 3258.07
   12:36:04.347.15-Aug-2021 3405.50 2510.92 52.32 6.00 607.43 3258.07
   12:36:04.547.15-Aug-2021 3405.50 2512.57 52.32 6.00 607.63 3258.07
   12:36:04.747.15-Aug-2021 3405.50 2512.57 52.32 6.00 607.83 3258.07
   12:36:04.947.15-Aug-2021 3405.50 2515.83 52.32 6.00 608.03 3258.07
   12:36:05.146.15-Aug-2021 3405.50 2517.34 52.32 6.00 608.23 3258.07
   12:36:05.346.15-Aug-2021 3405.50 2518.25 52.32 6.00 608.43 3258.07
   12:36:05.546.15-Aug-2021 3405.50 2519.61 52.32 6.00 608.63 3258.07
   12:36:05.746.15-Aug-2021 3405.50 2519.61 52.32 6.00 608.83 3258.07
   12:36:05.946.15-Aug-2021 3405.50 2523.02 52.32 6.00 609.03 3258.07
   12:36:06.146.15-Aug-2021 3405.50 2524.67 52.32 6.00 609.23 3258.07
   12:36:06.346.15-Aug-2021 3405.50 2526.37 52.32 6.00 609.43 3258.07
   12:36:06.546.15-Aug-2021 3405.50 2528.29 52.32 6.00 609.63 3258.07
   12:36:06.746.15-Aug-2021 3405.50 2528.29 52.32 6.00 609.83 3258.07
   12:36:06.945.15-Aug-2021 3405.50 2529.70 52.32 6.00 610.03 3258.07
   12:36:07.145.15-Aug-2021 3405.50 2533.07 52.32 6.00 610.23 3258.07
   12:36:07.345.15-Aug-2021 3405.50 2534.78 52.32 6.00 610.43 3258.07
   12:36:07.545.15-Aug-2021 3405.50 2536.37 52.32 6.00 610.63 3258.07
   12:36:07.745.15-Aug-2021 3405.50 2536.37 52.32 6.00 610.83 3258.07
   12:36:07.945.15-Aug-2021 3405.50 2539.77 52.32 6.00 611.03 3258.07
   12:36:08.145.15-Aug-2021 3405.50 2541.39 52.32 6.00 611.23 3258.07
   12:36:08.345.15-Aug-2021 3405.50 2543.08 52.32 6.00 611.43 3258.07
   12:36:08.544.15-Aug-2021 3405.50 2544.70 52.32 6.00 611.63 3258.07
   12:36:08.744.15-Aug-2021 3405.50 2544.70 52.32 6.00 611.83 3258.07
   12:36:08.944.15-Aug-2021 3405.50 2548.13 52.32 6.00 612.03 3258.07
   12:36:09.144.15-Aug-2021 3405.50 2549.86 52.32 6.00 612.23 3258.07
   12:36:09.344.15-Aug-2021 3405.50 2551.38 52.32 6.00 612.43 3258.07
   12:36:09.544.15-Aug-2021 3405.50 2553.01 52.32 6.00 612.63 3258.07
   12:36:09.744.15-Aug-2021 3405.50 2553.01 52.32 6.00 612.83 3258.07
   12:36:09.944.15-Aug-2021 3405.50 2556.31 52.32 6.00 613.03 3258.07
   12:36:10.143.15-Aug-2021 3405.50 2557.95 52.32 6.00 613.23 3258.07
   12:36:10.343.15-Aug-2021 3405.50 2559.56 52.32 6.00 613.43 3258.07
   12:36:10.543.15-Aug-2021 3405.50 2561.38 52.32 6.00 613.63 3258.07
   12:36:10.743.15-Aug-2021 3405.50 2561.38 52.32 6.00 613.83 3258.07
   12:36:10.943.15-Aug-2021 3405.50 2564.33 52.32 6.00 614.03 3258.07
   12:36:11.143.15-Aug-2021 3405.50 2566.03 52.32 6.00 614.23 3258.07
   12:36:11.343.15-Aug-2021 3405.50 2567.71 52.32 6.00 614.43 3258.07
   12:36:11.543.15-Aug-2021 3405.50 2569.28 52.32 6.00 614.63 3258.07
   12:36:11.743.15-Aug-2021 3405.50 2569.28 52.32 6.00 614.83 3258.07
   12:36:11.942.15-Aug-2021 3405.50 2572.72 52.32 6.00 615.03 3258.07
   12:36:12.142.15-Aug-2021 3405.50 2574.19 52.32 6.00 615.23 3258.07
   12:36:12.342.15-Aug-2021 3405.50 2575.19 52.32 6.00 615.43 3258.07
   12:36:12.542.15-Aug-2021 3405.50 2576.00 52.32 6.00 615.63 3258.07
   12:36:12.742.15-Aug-2021 3405.50 2576.00 52.32 6.00 615.83 3258.07
   12:36:12.942.15-Aug-2021 3405.50 2579.22 52.32 6.00 616.03 3258.07
   12:36:13.142.15-Aug-2021 3405.50 2580.86 52.32 6.00 616.23 3258.07
   12:36:13.342.15-Aug-2021 3405.50 2582.42 52.32 6.00 616.43 3258.07
   12:36:13.541.15-Aug-2021 3405.50 2584.17 52.32 6.00 616.63 3258.07
   12:36:13.741.15-Aug-2021 3405.50 2584.17 52.32 6.00 616.83 3258.07
   12:36:13.941.15-Aug-2021 3405.50 2587.41 52.32 6.00 617.03 3258.07
   12:36:14.141.15-Aug-2021 3405.50 2589.07 52.32 6.00 617.23 3258.07
   12:36:14.341.15-Aug-2021 3405.50 2590.58 52.32 6.00 617.43 3258.07
   12:36:14.541.15-Aug-2021 3405.50 2592.09 52.32 6.00 617.63 3258.07
   12:36:14.741.15-Aug-2021 3405.50 2592.09 52.32 6.00 617.83 3258.07
   12:36:14.941.15-Aug-2021 3405.50 2595.55 52.32 6.00 618.03 3258.07
   12:36:15.140.15-Aug-2021 3405.50 2597.28 52.32 6.00 618.23 3258.07
   12:36:15.340.15-Aug-2021 3405.50 2598.73 52.32 6.00 618.43 3258.07
   12:36:15.540.15-Aug-2021 3405.50 2600.27 52.33 6.00 618.63 3258.07
   12:36:15.740.15-Aug-2021 3405.50 2600.27 52.33 6.00 618.83 3258.07
   12:36:15.940.15-Aug-2021 3405.50 2603.53 52.32 6.00 619.03 3258.07
   12:36:16.140.15-Aug-2021 3405.50 2605.31 52.33 6.00 619.23 3258.07
   12:36:16.340.15-Aug-2021 3405.50 2606.75 52.32 6.00 619.43 3258.07
   12:36:16.540.15-Aug-2021 3405.50 2608.28 52.33 6.00 619.63 3258.07
   12:36:16.739.15-Aug-2021 3405.50 2608.28 52.33 6.00 619.83 3258.07
   12:36:16.939.15-Aug-2021 3405.50 2611.40 52.32 6.00 620.03 3258.07
   12:36:17.139.15-Aug-2021 3405.50 2613.15 52.33 6.00 620.23 3258.07
   12:36:17.339.15-Aug-2021 3405.50 2614.72 52.33 6.00 620.43 3258.07
