~Version Information
 VERS.                  2.0:   CWLS log ASCII Standard -VERSION 2.0
 WRAP.                   NO:   One line per depth step
~Well Information Block
#MNEM.UNIT     VALUE/NAME     DESCRIPTION
#---------     -----------    ---------------------------
 STRT.S             12:25:56 15-Aug-21: START TIME 12:25:56 15-Aug-21
 STOP.S             12:39:05 15-Aug-21: STOP TIME  12:39:05 15-Aug-21
 STEP.S                   0.00: STEP TIME
 NULL.                 -999.25: NULL VALUE
 DFWT.                        :  DIST FWL TEXT
 DFST.                        :  DIST FSL TEXT
 DMF .             Drill Floor:  DRILL MEAS FROM
 STIM.      17.18.56 20-Jun-21:  START TIME
 DATE.      17.18.56 20-Aug-21:  END TIME
 SPUD.               20-Jun-21:  SPUD DATE
 NREF.                    Grid:  NORTH REFERENCE
 HPTY.       Minimum Curvature:  HOLE POS TYPE
 DMOD.             Drill Model:  DRILL MOD DESC
 SVYD.                  Survey:  SURVEY DESC
 ILTD.               Lithology:  INTERP LTH DESC
 FTOP.          Formation Tops:  FORM TOPS DESC
 SON .        AZ-XX-0907056190:  JOB NUMBER
 PDAT.       Caspian Sea Level:  PERMANENT DATUM
 WTYP.                Deviated:  WELL TYPE
 MDS .        Operator Entered:  MAG DATA SOURCE
 COMP.     BP Exploration (Caspian Sea) Ltd.:  COMPANY
 UWI .            /AZE20000092:  UNIQUE WELL IDENTIFIER
 API .            /AZE20000092:  API NUMBER
 BASE.              Azerbaijan:  LOGGING EQUIPMENT BASE LOCATION
 REGN.                   EESSA:  REGION
 PROV.                    baku:  PROVINCE
 STAT.                    baku:  STATE NAME
 CTRY.              Azerbaijan:  COUNTRY NAME
 FLD .                     ACG:  FIELD NAME
 SRVC.          Turan Drilling:  CONTRACTOR
 MWDS.                    Baku:  MWD SHOP
 WELL.                     J26:  WELL NAME
 JOBN.        AZ-XX-0907056190:  JOB TICKET NUMB
 RIG .             West Chirag:  RIG NAME
 DOE .                     N/A:  DOE NUMBER
 DCON.         Sperry Drilling:  DIRECTNL CONTR
 UNIT.                     N/A:  LOGGING EQUIPMENT ID
 CNTY.                        :  COUNTY
 LOC .                        :  LOCATION
 LMF .             Drill Floor:  LOG MEASURED FROM
 TVDS.m                  43.00:  TVDSS CORRECTN
 LATI.deg                40.13:  LATITUDE
 LONG.deg                51.22:  LONGITUDE
 WHNS.m                  -7.12:  WELL HEAD N/S
 WHEW.m                  -9.46:  WELL HEAD E/W
 UTMX.m              519004.02:  UTM X
 UTMY.m             4443784.96:  UTM Y
 DFWL.m                   0.00:  DISTANCE FWL
 DFSL.m                   0.00:  DISTANCE FSL
 SDEP.m                 464.00:  START DEPTH
 TDD .m                3500.00:  TOTAL DEPTH (DRILLER)
 VSDR.deg               114.35:  VERT SEC DIRECT
 GVFD.g                   1.00:  GRAVITY FIELD
 MFLD.nT              50386.00:  MAGNETIC FIELD
 MDIP.deg                59.63:  MAGNETIC DIP
 MDEC.deg                 6.43:  MAGNETIC DECL
 GRDC.deg                 0.15:  GRID CORRECTION
 AZTC.deg                 6.29:  AZM TOTAL CORR
 EPD .m                   0.00:  ELEVATION
 EGL .m                   0.00:  GROUND ELEVATION
 WDMS.m                 169.80:  WD ELEV
 APD .m                  43.00:  DEPTH ABOVE PD
 VSEW.m                  -9.46:  VERT SEC E/W
 VSNS.m                  -7.12:  VERT SEC N/S
 AGAP.m                  43.00:  AIR GAP
 DEP .m                 356.16:  DEPTH
 EKB .m                  43.00:  KB ELEVATION
 EDF .m                  43.00:  DF ELEVATION
 TDL .m                 699.00:  TOTAL DEPTH (LOGGER)
 VSC .                       0:  VS TO CLOSURE
 MAGU.                 1853727:  MAGUTM CHECKSUM
~Parameter Information Block
#MNEM.UNIT       Value        Description
#---------     -----------    ---------------------------
 AV  .mps                 1.30:  Ann Velocity 
 AVMX.mps                 1.67:  Max Ann Veloc 
 AZIF.deg               280.40:  Azm, Final 
 BHAT.        Rotary Steerable:  BHA Type 
 BREV.rev            528970.00:  Rev Bit Total 
 BROT.°/30m               1.00:  Build Rotating 
 BS  .in                 12.25:  Bit Size 
 BSZ .in                 12.25:  Bit Size 
 BTPL.psig              738.00:  Bit Press Loss 
 CABU.                     Yes:  Customer Abuse 
 CGEO.        Elvin Suleymanov:  Customer Geo 
 COMM.                     ´3x:  Run Comments 1 
 TCS .hr                 66.05:  Time Ciculation Ended 
 CV  .mps                 2.20:  Crit Velocity 
 CVMX.mps                 2.56:  Max Crit Veloc 
 DD1 .          Rashad Habibov:  Direct Drillr 1 
 DD2 .            Azer ravanov:  Direct Drillr 2 
 DD3 .           Teymur Agayev:  Direct Drillr 3 
 DDSV.               Geo-Pilot:  DD Service 
 DEFF.%                  90.00:  % Det Eff 
 DLRX.°/30m               2.95:  Dogleg Rot Max 
 DLSO.°/30m               1.00:  Dogleg Oriented 
 DLSX.°/30m               2.95:  Dogleg Str Max 
 DRET.      11.42.20 11-Aug-21:  Drill End Time 
 DRST.      23.03.20 08-Aug-21:  Drill Start Tim 
 DTIM.hr                 45.50:  Time Drilling 
 EDEP.m                3488.00:  End Depth 
 ENG1.         Marcelo Marcari:  Engineer 1 
 ENG2.         Dair Mahammadov:  Engineer 2 
 ENG3.       Davud Huseyn-zada:  Engineer 3 
 ENG4.         Yevgeniy Ulikov:  Engineer 4 
 ETIM.      17.45.20 17-Aug-21:  End Time 
 FLOI.gpm              1197.70:  Flow In 
 FLON.gpm              1100.00:  Flow In Min 
 FLOS.cptm                0.00:  Fluid Loss 
 FLOX.gpm              1200.00:  Flow In Max 
 DFT .        Mineral Oil Base:  Mud Type 
 FTRO.       Formation Presure:  FTWD Run Obj 
 HFLO.                      No:  High Flow 
 HPRE.                      No:  High Pressure 
 HTEM.                      No:  High Temp 
 HYDO.m                   1.80:  Hydro Offset 
 IFIN.deg                 9.87:  Inc, Final 
 IMAX.deg                19.96:  Inc Max 
 IMIN.deg                 3.82:  Inc Min 
 IMND.m                3257.42:  Inc Min Depth 
 IMXD.m                2945.53:  Inc Max Depth 
 JARR.                      No:  Jarring 
 LETM.      11.42.20 11-Aug-21:  Log End Time 
 LOST.hr                     0:  Lost Rig Time 
 LSTM.      23.03.20 08-Aug-21:  Log Start Time 
 MDCL.ppm             42500.00:  Mud Chlorides 
 MDES.     Inversion Oil/Synthetic:  Mud Desc 
 DFD .sg                  1.45:  Mud Density 
 MDMN.sg                  1.39:  Dens Mud Min 
 MDMX.sg                  1.57:  Dens Mud Max 
 MOIL.                   53.20:  Run Mud Oil % 
 MOWR.                   70:30:  Run Mud OWR 
 MSND.                       0:  Run Mud Sand % 
 MSOL.                   24.30:  Run Mud Solids% 
 DFV .spqt               79.00:  Mud Viscosity 
 MWOD.in                  8.00:  MWD Tool OD 
 MWSI.                      No:  Serv Intrp, MWD 
 OTIM.hr                253.06:  Time Operating 
 PCON.           Look Like New:  Pad Condition 
 PMAX.psia            11068.93:  Press Op, Max 
 PV  .cP                 36.00:  Mud PV 
 RUN .                    1000:  Run Number 
 ROPA.m/hr               15.34:  ROP Avg 
 ROPN.m/hr                4.00:  ROP Min 
 ROPX.m/hr               31.00:  ROP Max 
 RPMA.rpm               151.40:  RPM Surface Avg 
 RPMN.rpm               120.00:  RPM Surface Min 
 RPMX.rpm               160.00:  RPM Surface Max 
 RRUN.                    L505:  Rig Run Number 
 RTIM.hr                 10.00:  Time Reaming 
 SAZI.deg                88.92:  Azm, Start 
 SDEP.m                2789.00:  Start Depth 
 SIDD.                      No:  Serv Intrp, DD 
 SINC.deg                19.84:  Inc, Start 
 SPPA.psig             4421.39:  SPP Avg 
 SPPN.psig             4130.00:  SPP Min 
 SPPX.psig             4800.00:  SPP Max 
 STIM.      01.25.20 07-Aug-21:  Start Time 
 SVCS.                 DD, MWD:  Services 
 SVER.                    9.20:  Sperry Version 
 TDAT.m                 699.00:  Tot Depth Attmp 
 TDDF.                      No:  Trip for DD 
 TDLG.m                 699.00:  Tot Depth Loggd 
 TFF .                      No:  Trip for Fail 
 TQAA.f-kp               20.55:  Torque Abs Avg 
 TQAN.f-kp               15.00:  Torque Abs Min 
 TQAX.f-kp               24.00:  Torque Abs Max 
 TRRT.°/30m               0.50:  Turn Rotating 
 MRT .                    HCIM:  Maximum Recorded Temperature 
 TTMX.degC               82.35:  Max Tool Temp 
 VS01.                90654677:  Virtual Str1 SN 
 VS02.                90636294:  Virtual Str2 SN 
 VS03.                90653866:  Virtual Str3 SN 
 VS04.                90654674:  Virtual Str4 SN 
 WBMN.klb                10.00:  WOB Min 
 WITN.         Haytham Mostafa:  Customer Rep 
 WITN.           Rufat Babayev:  Customer Rep 2 
 WOBA.klb                22.43:  WOB Avg 
 WOBX.klb                35.00:  WOB Max 
 YP  .lhf2               32.00:  Yield Point 
~Curve Information Block
#MNEM.UNIT                 API CODE     Curve Description
#---------               -----------    ---------------------------
 TIME.HHMMSS            00 000 000 000:  GT Time & Date
 GTDEPTH.m              00 000 000 000:  GT Depth
 GTPQH.psia             00 000 000 000:  GT HR Quartz Pressure
 GTTQ.degC              00 000 000 000:  GT Quartz Temperature
 GTTN.NONE              00 000 000 000:  GT Test Number
 GTET.sec               00 000 000 000:  GT Elapsed Test Time
 GTTVD.m                00 000 000 000:  GT True Vertical Depth
#Other Information
#
#WARRANTY: Halliburton will use its best efforts to furnish customers with 
#accurate information and interpretations that are part of, and incident to, the services 
#provided.  However, Halliburton cannot and does not warrant the accuracy 
#or correctness of such information and interpretations.  Under no circumstances should any 
#such information or interpretation be relied upon as the sole basis for any drilling, 
#completion, production, or financial decision or any procedure involving any risk to the 
#safety of any drilling venture, drilling rig or its crew or any other third party.  The 
#Customer has full responsibility for all drilling, completion and production operation.  
#Halliburton makes no representations or warranties, either expressed or 
#implied, including, but not limited to, the implied warranties of merchantability or fitness 
#for a particular purpose, with respect to the services rendered.  In no event will 
#Halliburton be liable for failure to obtain any particular results or for 
#any damages, including, but not limited to, indirect, special or consequential damages, 
#resulting from the use of any information or interpretation provided by Halliburton.
#
~A           TIME           GTDEPTH  GTPQH  GTTQ  GTTN  GTET   GTTVD  
# ...
   12:37:03.511.15-Aug-2021 3405.50 2940.60 52.32 6.00 666.60 3258.07
   12:37:03.711.15-Aug-2021 3405.50 2940.60 52.32 6.00 666.80 3258.07
   12:37:03.911.15-Aug-2021 3405.50 2943.14 52.32 6.00 667.00 3258.07
   12:37:04.111.15-Aug-2021 3405.50 2944.72 52.32 6.00 667.20 3258.07
   12:37:04.311.15-Aug-2021 3405.50 2946.07 52.32 6.00 667.40 3258.07
   12:37:04.511.15-Aug-2021 3405.50 2947.26 52.32 6.00 667.60 3258.07
   12:37:04.711.15-Aug-2021 3405.50 2947.26 52.32 6.00 667.80 3258.07
   12:37:04.911.15-Aug-2021 3405.50 2949.83 52.32 6.00 668.00 3258.07
   12:37:05.110.15-Aug-2021 3405.50 2951.11 52.32 6.00 668.20 3258.07
   12:37:05.310.15-Aug-2021 3405.50 2952.23 52.32 6.00 668.40 3258.07
   12:37:05.510.15-Aug-2021 3405.50 2953.20 52.32 6.00 668.60 3258.07
   12:37:05.710.15-Aug-2021 3405.50 2953.20 52.32 6.00 668.80 3258.07
   12:37:05.910.15-Aug-2021 3405.50 2954.12 52.32 6.00 669.00 3258.07
   12:37:06.110.15-Aug-2021 3405.50 2956.54 52.32 6.00 669.20 3258.07
   12:37:06.310.15-Aug-2021 3405.50 2957.80 52.32 6.00 669.40 3258.07
   12:37:06.510.15-Aug-2021 3405.50 2959.17 52.32 6.00 669.60 3258.07
   12:37:06.709.15-Aug-2021 3405.50 2959.17 52.32 6.00 669.80 3258.07
   12:37:06.909.15-Aug-2021 3405.50 2961.64 52.32 6.00 670.00 3258.07
   12:37:07.109.15-Aug-2021 3405.50 2963.00 52.32 6.00 670.20 3258.07
   12:37:07.309.15-Aug-2021 3405.50 2964.42 52.32 6.00 670.40 3258.07
   12:37:07.509.15-Aug-2021 3405.50 2965.74 52.32 6.00 670.60 3258.07
   12:37:07.709.15-Aug-2021 3405.50 2965.74 52.32 6.00 670.80 3258.07
   12:37:07.909.15-Aug-2021 3405.50 2968.28 52.32 6.00 671.00 3258.07
   12:37:08.109.15-Aug-2021 3405.50 2969.54 52.32 6.00 671.20 3258.07
   12:37:08.308.15-Aug-2021 3405.50 2970.74 52.32 6.00 671.40 3258.07
   12:37:08.508.15-Aug-2021 3405.50 2972.05 52.32 6.00 671.60 3258.07
   12:37:08.708.15-Aug-2021 3405.50 2972.05 52.32 6.00 671.80 3258.07
   12:37:08.908.15-Aug-2021 3405.50 2974.92 52.32 6.00 672.00 3258.07
   12:37:09.108.15-Aug-2021 3405.50 2976.18 52.32 6.00 672.20 3258.07
   12:37:09.308.15-Aug-2021 3405.50 2977.47 52.32 6.00 672.40 3258.07
   12:37:09.508.15-Aug-2021 3405.50 2978.70 52.32 6.00 672.60 3258.07
   12:37:09.708.15-Aug-2021 3405.50 2978.70 52.32 6.00 672.80 3258.07
   12:37:09.908.15-Aug-2021 3405.50 2981.27 52.32 6.00 673.00 3258.07
   12:37:10.107.15-Aug-2021 3405.50 2982.65 52.32 6.00 673.19 3258.07
   12:37:10.307.15-Aug-2021 3405.50 2983.95 52.32 6.00 673.39 3258.07
   12:37:10.507.15-Aug-2021 3405.50 2985.23 52.32 6.00 673.59 3258.07
   12:37:10.707.15-Aug-2021 3405.50 2985.23 52.32 6.00 673.79 3258.07
   12:37:10.907.15-Aug-2021 3405.50 2987.92 52.32 6.00 673.99 3258.07
   12:37:11.107.15-Aug-2021 3405.50 2989.11 52.32 6.00 674.19 3258.07
   12:37:11.307.15-Aug-2021 3405.50 2990.46 52.32 6.00 674.39 3258.07
   12:37:11.507.15-Aug-2021 3405.50 2991.71 52.32 6.00 674.59 3258.07
   12:37:11.706.15-Aug-2021 3405.50 2991.71 52.32 6.00 674.79 3258.07
   12:37:11.906.15-Aug-2021 3405.50 2994.56 52.32 6.00 674.99 3258.07
   12:37:12.106.15-Aug-2021 3405.50 2995.71 52.32 6.00 675.19 3258.07
   12:37:12.306.15-Aug-2021 3405.50 2996.93 52.32 6.00 675.39 3258.07
   12:37:12.506.15-Aug-2021 3405.50 2998.08 52.32 6.00 675.59 3258.07
   12:37:12.706.15-Aug-2021 3405.50 2998.08 52.32 6.00 675.79 3258.07
   12:37:12.906.15-Aug-2021 3405.50 3000.75 52.32 6.00 675.99 3258.07
   12:37:13.106.15-Aug-2021 3405.50 3002.20 52.32 6.00 676.19 3258.07
   12:37:13.305.15-Aug-2021 3405.50 3003.46 52.32 6.00 676.39 3258.07
   12:37:13.505.15-Aug-2021 3405.50 3004.44 52.32 6.00 676.59 3258.07
   12:37:13.705.15-Aug-2021 3405.50 3004.44 52.32 6.00 676.79 3258.07
   12:37:13.905.15-Aug-2021 3405.50 3005.94 52.32 6.00 676.99 3258.07
   12:37:14.105.15-Aug-2021 3405.50 3007.01 52.32 6.00 677.19 3258.07
   12:37:14.305.15-Aug-2021 3405.50 3008.31 52.32 6.00 677.39 3258.07
   12:37:14.505.15-Aug-2021 3405.50 3009.94 52.32 6.00 677.59 3258.07
   12:37:14.705.15-Aug-2021 3405.50 3009.94 52.32 6.00 677.79 3258.07
   12:37:14.905.15-Aug-2021 3405.50 3012.27 52.32 6.00 677.99 3258.07
   12:37:15.104.15-Aug-2021 3405.50 3013.56 52.32 6.00 678.19 3258.07
   12:37:15.304.15-Aug-2021 3405.50 3014.82 52.32 6.00 678.39 3258.07
   12:37:15.504.15-Aug-2021 3405.50 3016.11 52.32 6.00 678.59 3258.07
   12:37:15.704.15-Aug-2021 3405.50 3016.11 52.32 6.00 678.79 3258.07
   12:37:15.904.15-Aug-2021 3405.50 3018.65 52.32 6.00 678.99 3258.07
   12:37:16.104.15-Aug-2021 3405.50 3019.98 52.32 6.00 679.19 3258.07
   12:37:16.304.15-Aug-2021 3405.50 3021.30 52.32 6.00 679.39 3258.07
   12:37:16.504.15-Aug-2021 3405.50 3022.58 52.32 6.00 679.59 3258.07
   12:37:16.703.15-Aug-2021 3405.50 3022.58 52.32 6.00 679.79 3258.07
   12:37:16.903.15-Aug-2021 3405.50 3025.08 52.32 6.00 679.99 3258.07
   12:37:17.103.15-Aug-2021 3405.50 3026.24 52.32 6.00 680.19 3258.07
   12:37:17.303.15-Aug-2021 3405.50 3027.73 52.32 6.00 680.39 3258.07
   12:37:17.503.15-Aug-2021 3405.50 3028.83 52.32 6.00 680.59 3258.07
   12:37:17.703.15-Aug-2021 3405.50 3028.83 52.32 6.00 680.79 3258.07
   12:37:17.903.15-Aug-2021 3405.50 3031.36 52.32 6.00 680.99 3258.07
   12:37:18.103.15-Aug-2021 3405.50 3032.67 52.32 6.00 681.19 3258.07
   12:37:18.302.15-Aug-2021 3405.50 3033.84 52.32 6.00 681.39 3258.07
   12:37:18.502.15-Aug-2021 3405.50 3035.07 52.32 6.00 681.59 3258.07
   12:37:18.702.15-Aug-2021 3405.50 3035.07 52.32 6.00 681.79 3258.07
   12:37:18.902.15-Aug-2021 3405.50 3037.68 52.32 6.00 681.99 3258.07
   12:37:19.102.15-Aug-2021 3405.50 3039.15 52.32 6.00 682.19 3258.07
   12:37:19.302.15-Aug-2021 3405.50 3040.42 52.32 6.00 682.39 3258.07
   12:37:19.502.15-Aug-2021 3405.50 3041.56 52.32 6.00 682.59 3258.07
   12:37:19.702.15-Aug-2021 3405.50 3041.56 52.32 6.00 682.79 3258.07
   12:37:19.901.15-Aug-2021 3405.50 3043.99 52.32 6.00 682.99 3258.07
   12:37:20.101.15-Aug-2021 3405.50 3045.20 52.32 6.00 683.19 3258.07
   12:37:20.301.15-Aug-2021 3405.50 3046.71 52.32 6.00 683.39 3258.07
   12:37:20.501.15-Aug-2021 3405.50 3048.02 52.32 6.00 683.59 3258.07
   12:37:20.701.15-Aug-2021 3405.50 3048.02 52.32 6.00 683.79 3258.07
   12:37:20.901.15-Aug-2021 3405.50 3050.42 52.32 6.00 683.99 3258.07
   12:37:21.101.15-Aug-2021 3405.50 3051.59 52.32 6.00 684.19 3258.07
   12:37:21.301.15-Aug-2021 3405.50 3052.73 52.32 6.00 684.39 3258.07
   12:37:21.501.15-Aug-2021 3405.50 3053.97 52.32 6.00 684.59 3258.07
   12:37:21.700.15-Aug-2021 3405.50 3053.97 52.32 6.00 684.79 3258.07
   12:37:21.900.15-Aug-2021 3405.50 3056.78 52.32 6.00 684.99 3258.07
   12:37:22.100.15-Aug-2021 3405.50 3057.97 52.32 6.00 685.19 3258.07
   12:37:22.300.15-Aug-2021 3405.50 3058.97 52.32 6.00 685.39 3258.07
   12:37:22.500.15-Aug-2021 3405.50 3059.54 52.32 6.00 685.59 3258.07
   12:37:22.700.15-Aug-2021 3405.50 3059.54 52.32 6.00 685.79 3258.07
   12:37:22.900.15-Aug-2021 3405.50 3061.37 52.32 6.00 685.99 3258.07
   12:37:23.100.15-Aug-2021 3405.50 3062.59 52.32 6.00 686.19 3258.07
   12:37:23.299.15-Aug-2021 3405.50 3064.18 52.32 6.00 686.39 3258.07
   12:37:23.499.15-Aug-2021 3405.50 3065.30 52.32 6.00 686.59 3258.07
   12:37:23.699.15-Aug-2021 3405.50 3065.30 52.32 6.00 686.79 3258.07
   12:37:23.899.15-Aug-2021 3405.50 3067.66 52.32 6.00 686.99 3258.07
   12:37:24.099.15-Aug-2021 3405.50 3068.84 52.32 6.00 687.19 3258.07
   12:37:24.299.15-Aug-2021 3405.50 3070.16 52.32 6.00 687.39 3258.07
   12:37:24.499.15-Aug-2021 3405.50 3071.48 52.32 6.00 687.59 3258.07
   12:37:24.699.15-Aug-2021 3405.50 3071.48 52.32 6.00 687.79 3258.07
   12:37:24.898.15-Aug-2021 3405.50 3073.92 52.32 6.00 687.99 3258.07
   12:37:25.098.15-Aug-2021 3405.50 3075.18 52.32 6.00 688.19 3258.07
   12:37:25.298.15-Aug-2021 3405.50 3076.44 52.32 6.00 688.39 3258.07
   12:37:25.498.15-Aug-2021 3405.50 3077.61 52.32 6.00 688.59 3258.07
   12:37:25.698.15-Aug-2021 3405.50 3077.61 52.32 6.00 688.79 3258.07
   12:37:25.898.15-Aug-2021 3405.50 3079.92 52.32 6.00 688.99 3258.07
   12:37:26.098.15-Aug-2021 3405.50 3081.41 52.32 6.00 689.19 3258.07
   12:37:26.298.15-Aug-2021 3405.50 3082.59 52.32 6.00 689.39 3258.07
