~Version Information
 VERS.                  2.0:   CWLS log ASCII Standard -VERSION 2.0
 WRAP.                   NO:   One line per depth step
~Well Information Block
#MNEM.UNIT     VALUE/NAME     DESCRIPTION
#---------     -----------    ---------------------------
 STRT.S             06:52:24 15-Aug-21: START TIME 06:52:24 15-Aug-21
 STOP.S             06:59:28 15-Aug-21: STOP TIME  06:59:28 15-Aug-21
 STEP.S                   0.00: STEP TIME
 NULL.                 -999.25: NULL VALUE
 DFWT.                        :  DIST FWL TEXT
 DFST.                        :  DIST FSL TEXT
 DMF .             Drill Floor:  DRILL MEAS FROM
 STIM.      17.18.56 20-Jun-21:  START TIME
 DATE.      17.18.56 20-Aug-21:  END TIME
 SPUD.               20-Jun-21:  SPUD DATE
 NREF.                    Grid:  NORTH REFERENCE
 HPTY.       Minimum Curvature:  HOLE POS TYPE
 DMOD.             Drill Model:  DRILL MOD DESC
 SVYD.                  Survey:  SURVEY DESC
 ILTD.               Lithology:  INTERP LTH DESC
 FTOP.          Formation Tops:  FORM TOPS DESC
 SON .        AZ-XX-0907056190:  JOB NUMBER
 PDAT.       Caspian Sea Level:  PERMANENT DATUM
 WTYP.                Deviated:  WELL TYPE
 MDS .        Operator Entered:  MAG DATA SOURCE
 COMP.     BP Exploration (Caspian Sea) Ltd.:  COMPANY
 UWI .            /AZE20000092:  UNIQUE WELL IDENTIFIER
 API .            /AZE20000092:  API NUMBER
 BASE.              Azerbaijan:  LOGGING EQUIPMENT BASE LOCATION
 REGN.                   EESSA:  REGION
 PROV.                    baku:  PROVINCE
 STAT.                    baku:  STATE NAME
 CTRY.              Azerbaijan:  COUNTRY NAME
 FLD .                     ACG:  FIELD NAME
 SRVC.          Turan Drilling:  CONTRACTOR
 MWDS.                    Baku:  MWD SHOP
 WELL.                     J26:  WELL NAME
 JOBN.        AZ-XX-0907056190:  JOB TICKET NUMB
 RIG .             West Chirag:  RIG NAME
 DOE .                     N/A:  DOE NUMBER
 DCON.         Sperry Drilling:  DIRECTNL CONTR
 UNIT.                     N/A:  LOGGING EQUIPMENT ID
 CNTY.                        :  COUNTY
 LOC .                        :  LOCATION
 LMF .             Drill Floor:  LOG MEASURED FROM
 TVDS.m                  43.00:  TVDSS CORRECTN
 LATI.deg                40.13:  LATITUDE
 LONG.deg                51.22:  LONGITUDE
 WHNS.m                  -7.12:  WELL HEAD N/S
 WHEW.m                  -9.46:  WELL HEAD E/W
 UTMX.m              519004.02:  UTM X
 UTMY.m             4443784.96:  UTM Y
 DFWL.m                   0.00:  DISTANCE FWL
 DFSL.m                   0.00:  DISTANCE FSL
 SDEP.m                 464.00:  START DEPTH
 TDD .m                3500.00:  TOTAL DEPTH (DRILLER)
 VSDR.deg               114.35:  VERT SEC DIRECT
 GVFD.g                   1.00:  GRAVITY FIELD
 MFLD.nT              50386.00:  MAGNETIC FIELD
 MDIP.deg                59.63:  MAGNETIC DIP
 MDEC.deg                 6.43:  MAGNETIC DECL
 GRDC.deg                 0.15:  GRID CORRECTION
 AZTC.deg                 6.29:  AZM TOTAL CORR
 EPD .m                   0.00:  ELEVATION
 EGL .m                   0.00:  GROUND ELEVATION
 WDMS.m                 169.80:  WD ELEV
 APD .m                  43.00:  DEPTH ABOVE PD
 VSEW.m                  -9.46:  VERT SEC E/W
 VSNS.m                  -7.12:  VERT SEC N/S
 AGAP.m                  43.00:  AIR GAP
 DEP .m                 356.16:  DEPTH
 EKB .m                  43.00:  KB ELEVATION
 EDF .m                  43.00:  DF ELEVATION
 TDL .m                 699.00:  TOTAL DEPTH (LOGGER)
 VSC .                       0:  VS TO CLOSURE
 MAGU.                 1853727:  MAGUTM CHECKSUM
~Parameter Information Block
#MNEM.UNIT       Value        Description
#---------     -----------    ---------------------------
 AV  .mps                 1.30:  Ann Velocity 
 AVMX.mps                 1.67:  Max Ann Veloc 
 AZIF.deg               280.40:  Azm, Final 
 BHAT.        Rotary Steerable:  BHA Type 
 BREV.rev            528970.00:  Rev Bit Total 
 BROT.°/30m               1.00:  Build Rotating 
 BS  .in                 12.25:  Bit Size 
 BSZ .in                 12.25:  Bit Size 
 BTPL.psig              738.00:  Bit Press Loss 
 CABU.                     Yes:  Customer Abuse 
 CGEO.        Elvin Suleymanov:  Customer Geo 
 COMM.                     ¬kS:  Run Comments 1 
 TCS .hr                 66.05:  Time Ciculation Ended 
 CV  .mps                 2.20:  Crit Velocity 
 CVMX.mps                 2.56:  Max Crit Veloc 
 DD1 .          Rashad Habibov:  Direct Drillr 1 
 DD2 .            Azer ravanov:  Direct Drillr 2 
 DD3 .           Teymur Agayev:  Direct Drillr 3 
 DDSV.               Geo-Pilot:  DD Service 
 DEFF.%                  90.00:  % Det Eff 
 DLRX.°/30m               2.95:  Dogleg Rot Max 
 DLSO.°/30m               1.00:  Dogleg Oriented 
 DLSX.°/30m               2.95:  Dogleg Str Max 
 DRET.      11.42.20 11-Aug-21:  Drill End Time 
 DRST.      23.03.20 08-Aug-21:  Drill Start Tim 
 DTIM.hr                 45.50:  Time Drilling 
 EDEP.m                3488.00:  End Depth 
 ENG1.         Marcelo Marcari:  Engineer 1 
 ENG2.         Dair Mahammadov:  Engineer 2 
 ENG3.       Davud Huseyn-zada:  Engineer 3 
 ENG4.         Yevgeniy Ulikov:  Engineer 4 
 ETIM.      17.45.20 17-Aug-21:  End Time 
 FLOI.gpm              1197.70:  Flow In 
 FLON.gpm              1100.00:  Flow In Min 
 FLOS.cptm                0.00:  Fluid Loss 
 FLOX.gpm              1200.00:  Flow In Max 
 DFT .        Mineral Oil Base:  Mud Type 
 FTRO.       Formation Presure:  FTWD Run Obj 
 HFLO.                      No:  High Flow 
 HPRE.                      No:  High Pressure 
 HTEM.                      No:  High Temp 
 HYDO.m                   1.80:  Hydro Offset 
 IFIN.deg                 9.87:  Inc, Final 
 IMAX.deg                19.96:  Inc Max 
 IMIN.deg                 3.82:  Inc Min 
 IMND.m                3257.42:  Inc Min Depth 
 IMXD.m                2945.53:  Inc Max Depth 
 JARR.                      No:  Jarring 
 LETM.      11.42.20 11-Aug-21:  Log End Time 
 LOST.hr                     0:  Lost Rig Time 
 LSTM.      23.03.20 08-Aug-21:  Log Start Time 
 MDCL.ppm             42500.00:  Mud Chlorides 
 MDES.     Inversion Oil/Synthetic:  Mud Desc 
 DFD .sg                  1.45:  Mud Density 
 MDMN.sg                  1.39:  Dens Mud Min 
 MDMX.sg                  1.57:  Dens Mud Max 
 MOIL.                   53.20:  Run Mud Oil % 
 MOWR.                   70:30:  Run Mud OWR 
 MSND.                       0:  Run Mud Sand % 
 MSOL.                   24.30:  Run Mud Solids% 
 DFV .spqt               79.00:  Mud Viscosity 
 MWOD.in                  8.00:  MWD Tool OD 
 MWSI.                      No:  Serv Intrp, MWD 
 OTIM.hr                253.06:  Time Operating 
 PCON.           Look Like New:  Pad Condition 
 PMAX.psia            11068.93:  Press Op, Max 
 PV  .cP                 36.00:  Mud PV 
 RUN .                    1000:  Run Number 
 ROPA.m/hr               15.34:  ROP Avg 
 ROPN.m/hr                4.00:  ROP Min 
 ROPX.m/hr               31.00:  ROP Max 
 RPMA.rpm               151.40:  RPM Surface Avg 
 RPMN.rpm               120.00:  RPM Surface Min 
 RPMX.rpm               160.00:  RPM Surface Max 
 RRUN.                    L505:  Rig Run Number 
 RTIM.hr                 10.00:  Time Reaming 
 SAZI.deg                88.92:  Azm, Start 
 SDEP.m                2789.00:  Start Depth 
 SIDD.                      No:  Serv Intrp, DD 
 SINC.deg                19.84:  Inc, Start 
 SPPA.psig             4421.39:  SPP Avg 
 SPPN.psig             4130.00:  SPP Min 
 SPPX.psig             4800.00:  SPP Max 
 STIM.      01.25.20 07-Aug-21:  Start Time 
 SVCS.                 DD, MWD:  Services 
 SVER.                    9.20:  Sperry Version 
 TDAT.m                 699.00:  Tot Depth Attmp 
 TDDF.                      No:  Trip for DD 
 TDLG.m                 699.00:  Tot Depth Loggd 
 TFF .                      No:  Trip for Fail 
 TQAA.f-kp               20.55:  Torque Abs Avg 
 TQAN.f-kp               15.00:  Torque Abs Min 
 TQAX.f-kp               24.00:  Torque Abs Max 
 TRRT.°/30m               0.50:  Turn Rotating 
 MRT .                    HCIM:  Maximum Recorded Temperature 
 TTMX.degC               82.35:  Max Tool Temp 
 VS01.                90654677:  Virtual Str1 SN 
 VS02.                90636294:  Virtual Str2 SN 
 VS03.                90653866:  Virtual Str3 SN 
 VS04.                90654674:  Virtual Str4 SN 
 WBMN.klb                10.00:  WOB Min 
 WITN.         Haytham Mostafa:  Customer Rep 
 WITN.           Rufat Babayev:  Customer Rep 2 
 WOBA.klb                22.43:  WOB Avg 
 WOBX.klb                35.00:  WOB Max 
 YP  .lhf2               32.00:  Yield Point 
~Curve Information Block
#MNEM.UNIT                 API CODE     Curve Description
#---------               -----------    ---------------------------
 TIME.HHMMSS            00 000 000 000:  GT Time & Date
 GTDEPTH.m              00 000 000 000:  GT Depth
 GTPQH.psia             00 000 000 000:  GT HR Quartz Pressure
 GTTQ.degC              00 000 000 000:  GT Quartz Temperature
 GTTN.NONE              00 000 000 000:  GT Test Number
 GTET.sec               00 000 000 000:  GT Elapsed Test Time
 GTTVD.m                00 000 000 000:  GT True Vertical Depth
#Other Information
#
#WARRANTY: Halliburton will use its best efforts to furnish customers with 
#accurate information and interpretations that are part of, and incident to, the services 
#provided.  However, Halliburton cannot and does not warrant the accuracy 
#or correctness of such information and interpretations.  Under no circumstances should any 
#such information or interpretation be relied upon as the sole basis for any drilling, 
#completion, production, or financial decision or any procedure involving any risk to the 
#safety of any drilling venture, drilling rig or its crew or any other third party.  The 
#Customer has full responsibility for all drilling, completion and production operation.  
#Halliburton makes no representations or warranties, either expressed or 
#implied, including, but not limited to, the implied warranties of merchantability or fitness 
#for a particular purpose, with respect to the services rendered.  In no event will 
#Halliburton be liable for failure to obtain any particular results or for 
#any damages, including, but not limited to, indirect, special or consequential damages, 
#resulting from the use of any information or interpretation provided by Halliburton.
#
~A           TIME           GTDEPTH  GTPQH  GTTQ  GTTN  GTET   GTTVD  
# ...
   06:58:55.721.15-Aug-2021 3437.50 7507.87 58.00 1.00 391.03 3289.56
   06:58:55.921.15-Aug-2021 3437.50 7507.87 58.00 1.00 391.23 3289.56
   06:58:56.121.15-Aug-2021 3437.50 7508.99 58.01 1.00 391.43 3289.56
   06:58:56.321.15-Aug-2021 3437.50 7510.05 58.01 1.00 391.63 3289.56
   06:58:56.521.15-Aug-2021 3437.50 7509.35 58.01 1.00 391.83 3289.56
   06:58:56.721.15-Aug-2021 3437.50 7508.83 58.01 1.00 392.03 3289.56
   06:58:56.921.15-Aug-2021 3437.50 7508.83 58.01 1.00 392.23 3289.56
   06:58:57.121.15-Aug-2021 3437.50 7509.77 58.01 1.00 392.43 3289.56
   06:58:57.321.15-Aug-2021 3437.50 7509.89 58.02 1.00 392.63 3289.56
   06:58:57.521.15-Aug-2021 3437.50 7510.89 58.02 1.00 392.83 3289.56
   06:58:57.721.15-Aug-2021 3437.50 7509.28 58.02 1.00 393.03 3289.56
   06:58:57.921.15-Aug-2021 3437.50 7509.28 58.02 1.00 393.23 3289.56
   06:58:58.121.15-Aug-2021 3437.50 7509.76 58.02 1.00 393.43 3289.56
   06:58:58.321.15-Aug-2021 3437.50 7511.04 58.02 1.00 393.63 3289.56
   06:58:58.521.15-Aug-2021 3437.50 7509.18 58.02 1.00 393.83 3289.56
   06:58:58.721.15-Aug-2021 3437.50 7508.75 58.02 1.00 394.03 3289.56
   06:58:58.921.15-Aug-2021 3437.50 7508.75 58.02 1.00 394.23 3289.56
   06:58:59.121.15-Aug-2021 3437.50 7511.30 58.03 1.00 394.43 3289.56
   06:58:59.321.15-Aug-2021 3437.50 7511.17 58.03 1.00 394.63 3289.56
   06:58:59.521.15-Aug-2021 3437.50 7509.48 58.03 1.00 394.83 3289.56
   06:58:59.721.15-Aug-2021 3437.50 7509.51 58.03 1.00 395.03 3289.56
   06:58:59.921.15-Aug-2021 3437.50 7509.51 58.03 1.00 395.23 3289.56
   06:59:00.121.15-Aug-2021 3437.50 7509.34 58.03 1.00 395.43 3289.56
   06:59:00.322.15-Aug-2021 3437.50 7509.98 58.03 1.00 395.63 3289.56
   06:59:00.522.15-Aug-2021 3437.50 7509.48 58.03 1.00 395.83 3289.56
   06:59:00.722.15-Aug-2021 3437.50 7510.00 58.03 1.00 396.03 3289.56
   06:59:00.922.15-Aug-2021 3437.50 7510.00 58.03 1.00 396.23 3289.56
   06:59:01.122.15-Aug-2021 3437.50 7509.91 58.03 1.00 396.43 3289.56
   06:59:01.322.15-Aug-2021 3437.50 7509.28 58.03 1.00 396.63 3289.56
   06:59:01.522.15-Aug-2021 3437.50 7509.41 58.03 1.00 396.83 3289.56
   06:59:01.722.15-Aug-2021 3437.50 7512.26 58.03 1.00 397.03 3289.56
   06:59:01.922.15-Aug-2021 3437.50 7512.26 58.03 1.00 397.23 3289.56
   06:59:02.122.15-Aug-2021 3437.50 7509.94 58.04 1.00 397.43 3289.56
   06:59:02.322.15-Aug-2021 3437.50 7510.12 58.04 1.00 397.63 3289.56
   06:59:02.522.15-Aug-2021 3437.50 7511.18 58.04 1.00 397.83 3289.56
   06:59:02.722.15-Aug-2021 3437.50 7510.25 58.04 1.00 398.03 3289.56
   06:59:02.922.15-Aug-2021 3437.50 7510.25 58.04 1.00 398.23 3289.56
   06:59:03.122.15-Aug-2021 3437.50 7509.57 58.04 1.00 398.43 3289.56
   06:59:03.322.15-Aug-2021 3437.50 7509.34 58.04 1.00 398.63 3289.56
   06:59:03.522.15-Aug-2021 3437.50 7510.54 58.04 1.00 398.83 3289.56
   06:59:03.722.15-Aug-2021 3437.50 7510.35 58.04 1.00 399.03 3289.56
   06:59:03.922.15-Aug-2021 3437.50 7510.35 58.04 1.00 399.23 3289.56
   06:59:04.122.15-Aug-2021 3437.50 7510.35 58.04 1.00 399.43 3289.56
   06:59:04.322.15-Aug-2021 3437.50 7510.66 58.04 1.00 399.63 3289.56
   06:59:04.522.15-Aug-2021 3437.50 7508.74 58.04 1.00 399.83 3289.56
   06:59:04.722.15-Aug-2021 3437.50 7509.91 58.04 1.00 400.03 3289.56
   06:59:04.922.15-Aug-2021 3437.50 7509.91 58.04 1.00 400.23 3289.56
   06:59:05.122.15-Aug-2021 3437.50 7510.37 58.04 1.00 400.43 3289.56
   06:59:05.322.15-Aug-2021 3437.50 7511.01 58.04 1.00 400.63 3289.56
   06:59:05.522.15-Aug-2021 3437.50 7511.01 58.04 1.00 400.83 3289.56
   06:59:05.722.15-Aug-2021 3437.50 7511.50 58.04 1.00 401.03 3289.56
   06:59:05.922.15-Aug-2021 3437.50 7511.50 58.04 1.00 401.23 3289.56
   06:59:06.122.15-Aug-2021 3437.50 7509.09 58.04 1.00 401.43 3289.56
   06:59:06.322.15-Aug-2021 3437.50 7510.27 58.04 1.00 401.63 3289.56
   06:59:06.522.15-Aug-2021 3437.50 7511.02 58.04 1.00 401.83 3289.56
   06:59:06.722.15-Aug-2021 3437.50 7512.85 58.04 1.00 402.03 3289.56
   06:59:06.922.15-Aug-2021 3437.50 7512.85 58.04 1.00 402.23 3289.56
   06:59:07.122.15-Aug-2021 3437.50 7509.37 58.04 1.00 402.43 3289.56
   06:59:07.322.15-Aug-2021 3437.50 7510.51 58.04 1.00 402.63 3289.56
   06:59:07.522.15-Aug-2021 3437.50 7511.40 58.04 1.00 402.83 3289.56
   06:59:07.722.15-Aug-2021 3437.50 7511.66 58.04 1.00 403.03 3289.56
   06:59:07.922.15-Aug-2021 3437.50 7511.66 58.04 1.00 403.23 3289.56
   06:59:08.122.15-Aug-2021 3437.50 7509.18 58.04 1.00 403.43 3289.56
   06:59:08.322.15-Aug-2021 3437.50 7510.65 58.04 1.00 403.63 3289.56
   06:59:08.522.15-Aug-2021 3437.50 7511.30 58.04 1.00 403.83 3289.56
   06:59:08.722.15-Aug-2021 3437.50 7508.57 58.04 1.00 404.03 3289.56
   06:59:08.922.15-Aug-2021 3437.50 7508.57 58.04 1.00 404.23 3289.56
   06:59:09.122.15-Aug-2021 3437.50 7508.68 58.04 1.00 404.43 3289.56
   06:59:09.322.15-Aug-2021 3437.50 7511.25 58.04 1.00 404.63 3289.56
   06:59:09.522.15-Aug-2021 3437.50 7510.47 58.04 1.00 404.83 3289.56
   06:59:09.722.15-Aug-2021 3437.50 7512.10 58.04 1.00 405.03 3289.56
   06:59:09.922.15-Aug-2021 3437.50 7512.10 58.04 1.00 405.23 3289.56
   06:59:10.122.15-Aug-2021 3437.50 7508.82 58.04 1.00 405.43 3289.56
   06:59:10.322.15-Aug-2021 3437.50 7511.03 58.04 1.00 405.63 3289.56
   06:59:10.522.15-Aug-2021 3437.50 7511.42 58.04 1.00 405.83 3289.56
   06:59:10.722.15-Aug-2021 3437.50 7509.98 58.04 1.00 406.03 3289.56
   06:59:10.922.15-Aug-2021 3437.50 7509.98 58.04 1.00 406.23 3289.56
   06:59:11.122.15-Aug-2021 3437.50 7510.59 58.04 1.00 406.43 3289.56
   06:59:11.322.15-Aug-2021 3437.50 7511.74 58.04 1.00 406.63 3289.56
   06:59:11.522.15-Aug-2021 3437.50 7509.74 58.04 1.00 406.83 3289.56
   06:59:11.722.15-Aug-2021 3437.50 7508.03 58.04 1.00 407.03 3289.56
   06:59:11.922.15-Aug-2021 3437.50 7508.03 58.04 1.00 407.23 3289.56
   06:59:12.122.15-Aug-2021 3437.50 7510.98 58.04 1.00 407.43 3289.56
   06:59:12.322.15-Aug-2021 3437.50 7511.12 58.04 1.00 407.63 3289.56
   06:59:12.522.15-Aug-2021 3437.50 7509.75 58.04 1.00 407.83 3289.56
   06:59:12.722.15-Aug-2021 3437.50 7508.86 58.03 1.00 408.03 3289.56
   06:59:12.922.15-Aug-2021 3437.50 7508.86 58.03 1.00 408.23 3289.56
   06:59:13.122.15-Aug-2021 3437.50 7512.85 58.03 1.00 408.43 3289.56
   06:59:13.322.15-Aug-2021 3437.50 7509.52 58.03 1.00 408.63 3289.56
   06:59:13.522.15-Aug-2021 3437.50 7510.22 58.03 1.00 408.83 3289.56
   06:59:13.722.15-Aug-2021 3437.50 7508.39 58.03 1.00 409.03 3289.56
   06:59:13.922.15-Aug-2021 3437.50 7508.39 58.03 1.00 409.23 3289.56
   06:59:14.122.15-Aug-2021 3437.50 7509.79 58.03 1.00 409.43 3289.56
   06:59:14.322.15-Aug-2021 3437.50 7510.90 58.03 1.00 409.63 3289.56
   06:59:14.523.15-Aug-2021 3437.50 7513.95 58.03 1.00 409.83 3289.56
   06:59:14.723.15-Aug-2021 3437.50 7507.35 58.03 1.00 410.03 3289.56
   06:59:14.923.15-Aug-2021 3437.50 7507.35 58.03 1.00 410.23 3289.56
   06:59:15.123.15-Aug-2021 3437.50 7509.58 58.03 1.00 410.43 3289.56
   06:59:15.323.15-Aug-2021 3437.50 7511.26 58.03 1.00 410.63 3289.56
   06:59:15.523.15-Aug-2021 3437.50 7513.69 58.03 1.00 410.83 3289.56
   06:59:15.723.15-Aug-2021 3437.50 7509.81 58.03 1.00 411.03 3289.56
   06:59:15.923.15-Aug-2021 3437.50 7509.81 58.03 1.00 411.23 3289.56
   06:59:16.123.15-Aug-2021 3437.50 7509.93 58.03 1.00 411.43 3289.56
   06:59:16.323.15-Aug-2021 3437.50 7511.37 58.03 1.00 411.63 3289.56
   06:59:16.523.15-Aug-2021 3437.50 7510.55 58.03 1.00 411.83 3289.56
   06:59:16.723.15-Aug-2021 3437.50 7510.42 58.03 1.00 412.03 3289.56
   06:59:16.923.15-Aug-2021 3437.50 7510.42 58.03 1.00 412.23 3289.56
   06:59:17.123.15-Aug-2021 3437.50 7510.76 58.03 1.00 412.43 3289.56
   06:59:17.323.15-Aug-2021 3437.50 7511.48 58.03 1.00 412.63 3289.56
   06:59:17.523.15-Aug-2021 3437.50 7510.88 58.03 1.00 412.83 3289.56
   06:59:17.723.15-Aug-2021 3437.50 7512.10 58.03 1.00 413.03 3289.56
   06:59:17.923.15-Aug-2021 3437.50 7512.10 58.03 1.00 413.23 3289.56
   06:59:18.123.15-Aug-2021 3437.50 7509.68 58.03 1.00 413.43 3289.56
   06:59:18.323.15-Aug-2021 3437.50 7508.44 58.03 1.00 413.63 3289.56
   06:59:18.523.15-Aug-2021 3437.50 7512.19 58.03 1.00 413.83 3289.56
