~Version Information
 VERS.                  2.0:   CWLS log ASCII Standard -VERSION 2.0
 WRAP.                   NO:   One line per depth step
~Well Information Block
#MNEM.UNIT     VALUE/NAME     DESCRIPTION
#---------     -----------    ---------------------------
 STRT.S             09:29:08 15-Aug-21: START TIME 09:29:08 15-Aug-21
 STOP.S             09:37:37 15-Aug-21: STOP TIME  09:37:37 15-Aug-21
 STEP.S                   0.00: STEP TIME
 NULL.                 -999.25: NULL VALUE
 DFWT.                        :  DIST FWL TEXT
 DFST.                        :  DIST FSL TEXT
 DMF .             Drill Floor:  DRILL MEAS FROM
 STIM.      17.18.56 20-Jun-21:  START TIME
 DATE.      17.18.56 20-Aug-21:  END TIME
 SPUD.               20-Jun-21:  SPUD DATE
 NREF.                    Grid:  NORTH REFERENCE
 HPTY.       Minimum Curvature:  HOLE POS TYPE
 DMOD.             Drill Model:  DRILL MOD DESC
 SVYD.                  Survey:  SURVEY DESC
 ILTD.               Lithology:  INTERP LTH DESC
 FTOP.          Formation Tops:  FORM TOPS DESC
 SON .        AZ-XX-0907056190:  JOB NUMBER
 PDAT.       Caspian Sea Level:  PERMANENT DATUM
 WTYP.                Deviated:  WELL TYPE
 MDS .        Operator Entered:  MAG DATA SOURCE
 COMP.     BP Exploration (Caspian Sea) Ltd.:  COMPANY
 UWI .            /AZE20000092:  UNIQUE WELL IDENTIFIER
 API .            /AZE20000092:  API NUMBER
 BASE.              Azerbaijan:  LOGGING EQUIPMENT BASE LOCATION
 REGN.                   EESSA:  REGION
 PROV.                    baku:  PROVINCE
 STAT.                    baku:  STATE NAME
 CTRY.              Azerbaijan:  COUNTRY NAME
 FLD .                     ACG:  FIELD NAME
 SRVC.          Turan Drilling:  CONTRACTOR
 MWDS.                    Baku:  MWD SHOP
 WELL.                     J26:  WELL NAME
 JOBN.        AZ-XX-0907056190:  JOB TICKET NUMB
 RIG .             West Chirag:  RIG NAME
 DOE .                     N/A:  DOE NUMBER
 DCON.         Sperry Drilling:  DIRECTNL CONTR
 UNIT.                     N/A:  LOGGING EQUIPMENT ID
 CNTY.                        :  COUNTY
 LOC .                        :  LOCATION
 LMF .             Drill Floor:  LOG MEASURED FROM
 TVDS.m                  43.00:  TVDSS CORRECTN
 LATI.deg                40.13:  LATITUDE
 LONG.deg                51.22:  LONGITUDE
 WHNS.m                  -7.12:  WELL HEAD N/S
 WHEW.m                  -9.46:  WELL HEAD E/W
 UTMX.m              519004.02:  UTM X
 UTMY.m             4443784.96:  UTM Y
 DFWL.m                   0.00:  DISTANCE FWL
 DFSL.m                   0.00:  DISTANCE FSL
 SDEP.m                 464.00:  START DEPTH
 TDD .m                3500.00:  TOTAL DEPTH (DRILLER)
 VSDR.deg               114.35:  VERT SEC DIRECT
 GVFD.g                   1.00:  GRAVITY FIELD
 MFLD.nT              50386.00:  MAGNETIC FIELD
 MDIP.deg                59.63:  MAGNETIC DIP
 MDEC.deg                 6.43:  MAGNETIC DECL
 GRDC.deg                 0.15:  GRID CORRECTION
 AZTC.deg                 6.29:  AZM TOTAL CORR
 EPD .m                   0.00:  ELEVATION
 EGL .m                   0.00:  GROUND ELEVATION
 WDMS.m                 169.80:  WD ELEV
 APD .m                  43.00:  DEPTH ABOVE PD
 VSEW.m                  -9.46:  VERT SEC E/W
 VSNS.m                  -7.12:  VERT SEC N/S
 AGAP.m                  43.00:  AIR GAP
 DEP .m                 356.16:  DEPTH
 EKB .m                  43.00:  KB ELEVATION
 EDF .m                  43.00:  DF ELEVATION
 TDL .m                 699.00:  TOTAL DEPTH (LOGGER)
 VSC .                       0:  VS TO CLOSURE
 MAGU.                 1853727:  MAGUTM CHECKSUM
~Parameter Information Block
#MNEM.UNIT       Value        Description
#---------     -----------    ---------------------------
 AV  .mps                 1.30:  Ann Velocity 
 AVMX.mps                 1.67:  Max Ann Veloc 
 AZIF.deg               280.40:  Azm, Final 
 BHAT.        Rotary Steerable:  BHA Type 
 BREV.rev            528970.00:  Rev Bit Total 
 BROT.°/30m               1.00:  Build Rotating 
 BS  .in                 12.25:  Bit Size 
 BSZ .in                 12.25:  Bit Size 
 BTPL.psig              738.00:  Bit Press Loss 
 CABU.                     Yes:  Customer Abuse 
 CGEO.        Elvin Suleymanov:  Customer Geo 
 COMM.                     œR:  Run Comments 1 
 TCS .hr                 66.05:  Time Ciculation Ended 
 CV  .mps                 2.20:  Crit Velocity 
 CVMX.mps                 2.56:  Max Crit Veloc 
 DD1 .          Rashad Habibov:  Direct Drillr 1 
 DD2 .            Azer ravanov:  Direct Drillr 2 
 DD3 .           Teymur Agayev:  Direct Drillr 3 
 DDSV.               Geo-Pilot:  DD Service 
 DEFF.%                  90.00:  % Det Eff 
 DLRX.°/30m               2.95:  Dogleg Rot Max 
 DLSO.°/30m               1.00:  Dogleg Oriented 
 DLSX.°/30m               2.95:  Dogleg Str Max 
 DRET.      11.42.20 11-Aug-21:  Drill End Time 
 DRST.      23.03.20 08-Aug-21:  Drill Start Tim 
 DTIM.hr                 45.50:  Time Drilling 
 EDEP.m                3488.00:  End Depth 
 ENG1.         Marcelo Marcari:  Engineer 1 
 ENG2.         Dair Mahammadov:  Engineer 2 
 ENG3.       Davud Huseyn-zada:  Engineer 3 
 ENG4.         Yevgeniy Ulikov:  Engineer 4 
 ETIM.      17.45.20 17-Aug-21:  End Time 
 FLOI.gpm              1197.70:  Flow In 
 FLON.gpm              1100.00:  Flow In Min 
 FLOS.cptm                0.00:  Fluid Loss 
 FLOX.gpm              1200.00:  Flow In Max 
 DFT .        Mineral Oil Base:  Mud Type 
 FTRO.       Formation Presure:  FTWD Run Obj 
 HFLO.                      No:  High Flow 
 HPRE.                      No:  High Pressure 
 HTEM.                      No:  High Temp 
 HYDO.m                   1.80:  Hydro Offset 
 IFIN.deg                 9.87:  Inc, Final 
 IMAX.deg                19.96:  Inc Max 
 IMIN.deg                 3.82:  Inc Min 
 IMND.m                3257.42:  Inc Min Depth 
 IMXD.m                2945.53:  Inc Max Depth 
 JARR.                      No:  Jarring 
 LETM.      11.42.20 11-Aug-21:  Log End Time 
 LOST.hr                     0:  Lost Rig Time 
 LSTM.      23.03.20 08-Aug-21:  Log Start Time 
 MDCL.ppm             42500.00:  Mud Chlorides 
 MDES.     Inversion Oil/Synthetic:  Mud Desc 
 DFD .sg                  1.45:  Mud Density 
 MDMN.sg                  1.39:  Dens Mud Min 
 MDMX.sg                  1.57:  Dens Mud Max 
 MOIL.                   53.20:  Run Mud Oil % 
 MOWR.                   70:30:  Run Mud OWR 
 MSND.                       0:  Run Mud Sand % 
 MSOL.                   24.30:  Run Mud Solids% 
 DFV .spqt               79.00:  Mud Viscosity 
 MWOD.in                  8.00:  MWD Tool OD 
 MWSI.                      No:  Serv Intrp, MWD 
 OTIM.hr                253.06:  Time Operating 
 PCON.           Look Like New:  Pad Condition 
 PMAX.psia            11068.93:  Press Op, Max 
 PV  .cP                 36.00:  Mud PV 
 RUN .                    1000:  Run Number 
 ROPA.m/hr               15.34:  ROP Avg 
 ROPN.m/hr                4.00:  ROP Min 
 ROPX.m/hr               31.00:  ROP Max 
 RPMA.rpm               151.40:  RPM Surface Avg 
 RPMN.rpm               120.00:  RPM Surface Min 
 RPMX.rpm               160.00:  RPM Surface Max 
 RRUN.                    L505:  Rig Run Number 
 RTIM.hr                 10.00:  Time Reaming 
 SAZI.deg                88.92:  Azm, Start 
 SDEP.m                2789.00:  Start Depth 
 SIDD.                      No:  Serv Intrp, DD 
 SINC.deg                19.84:  Inc, Start 
 SPPA.psig             4421.39:  SPP Avg 
 SPPN.psig             4130.00:  SPP Min 
 SPPX.psig             4800.00:  SPP Max 
 STIM.      01.25.20 07-Aug-21:  Start Time 
 SVCS.                 DD, MWD:  Services 
 SVER.                    9.20:  Sperry Version 
 TDAT.m                 699.00:  Tot Depth Attmp 
 TDDF.                      No:  Trip for DD 
 TDLG.m                 699.00:  Tot Depth Loggd 
 TFF .                      No:  Trip for Fail 
 TQAA.f-kp               20.55:  Torque Abs Avg 
 TQAN.f-kp               15.00:  Torque Abs Min 
 TQAX.f-kp               24.00:  Torque Abs Max 
 TRRT.°/30m               0.50:  Turn Rotating 
 MRT .                    HCIM:  Maximum Recorded Temperature 
 TTMX.degC               82.35:  Max Tool Temp 
 VS01.                90654677:  Virtual Str1 SN 
 VS02.                90636294:  Virtual Str2 SN 
 VS03.                90653866:  Virtual Str3 SN 
 VS04.                90654674:  Virtual Str4 SN 
 WBMN.klb                10.00:  WOB Min 
 WITN.         Haytham Mostafa:  Customer Rep 
 WITN.           Rufat Babayev:  Customer Rep 2 
 WOBA.klb                22.43:  WOB Avg 
 WOBX.klb                35.00:  WOB Max 
 YP  .lhf2               32.00:  Yield Point 
~Curve Information Block
#MNEM.UNIT                 API CODE     Curve Description
#---------               -----------    ---------------------------
 TIME.HHMMSS            00 000 000 000:  GT Time & Date
 GTDEPTH.m              00 000 000 000:  GT Depth
 GTPQH.psia             00 000 000 000:  GT HR Quartz Pressure
 GTTQ.degC              00 000 000 000:  GT Quartz Temperature
 GTTN.NONE              00 000 000 000:  GT Test Number
 GTET.sec               00 000 000 000:  GT Elapsed Test Time
 GTTVD.m                00 000 000 000:  GT True Vertical Depth
#Other Information
#
#WARRANTY: Halliburton will use its best efforts to furnish customers with 
#accurate information and interpretations that are part of, and incident to, the services 
#provided.  However, Halliburton cannot and does not warrant the accuracy 
#or correctness of such information and interpretations.  Under no circumstances should any 
#such information or interpretation be relied upon as the sole basis for any drilling, 
#completion, production, or financial decision or any procedure involving any risk to the 
#safety of any drilling venture, drilling rig or its crew or any other third party.  The 
#Customer has full responsibility for all drilling, completion and production operation.  
#Halliburton makes no representations or warranties, either expressed or 
#implied, including, but not limited to, the implied warranties of merchantability or fitness 
#for a particular purpose, with respect to the services rendered.  In no event will 
#Halliburton be liable for failure to obtain any particular results or for 
#any damages, including, but not limited to, indirect, special or consequential damages, 
#resulting from the use of any information or interpretation provided by Halliburton.
#
~A           TIME           GTDEPTH  GTPQH  GTTQ  GTTN  GTET   GTTVD  
# ...
   09:37:11.910.15-Aug-2021 3421.80 7491.37 55.01 3.00 483.08 3274.11
   09:37:12.110.15-Aug-2021 3421.80 7491.37 55.01 3.00 483.28 3274.11
   09:37:12.310.15-Aug-2021 3421.80 7488.33 55.01 3.00 483.48 3274.11
   09:37:12.510.15-Aug-2021 3421.80 7486.39 55.01 3.00 483.68 3274.11
   09:37:12.710.15-Aug-2021 3421.80 7487.20 55.01 3.00 483.88 3274.11
   09:37:12.910.15-Aug-2021 3421.80 7487.79 55.01 3.00 484.08 3274.11
   09:37:13.110.15-Aug-2021 3421.80 7487.79 55.01 3.00 484.28 3274.11
   09:37:13.310.15-Aug-2021 3421.80 7490.94 55.01 3.00 484.48 3274.11
   09:37:13.510.15-Aug-2021 3421.80 7486.87 55.01 3.00 484.68 3274.11
   09:37:13.710.15-Aug-2021 3421.80 7487.53 55.01 3.00 484.88 3274.11
   09:37:13.910.15-Aug-2021 3421.80 7488.88 55.02 3.00 485.08 3274.11
   09:37:14.110.15-Aug-2021 3421.80 7488.88 55.02 3.00 485.28 3274.11
   09:37:14.310.15-Aug-2021 3421.80 7486.75 55.02 3.00 485.48 3274.11
   09:37:14.510.15-Aug-2021 3421.80 7486.98 55.02 3.00 485.68 3274.11
   09:37:14.710.15-Aug-2021 3421.80 7489.88 55.02 3.00 485.88 3274.11
   09:37:14.910.15-Aug-2021 3421.80 7490.80 55.02 3.00 486.08 3274.11
   09:37:15.110.15-Aug-2021 3421.80 7490.80 55.02 3.00 486.28 3274.11
   09:37:15.310.15-Aug-2021 3421.80 7487.48 55.02 3.00 486.48 3274.11
   09:37:15.510.15-Aug-2021 3421.80 7487.14 55.02 3.00 486.68 3274.11
   09:37:15.710.15-Aug-2021 3421.80 7487.84 55.02 3.00 486.88 3274.11
   09:37:15.910.15-Aug-2021 3421.80 7488.79 55.02 3.00 487.08 3274.11
   09:37:16.110.15-Aug-2021 3421.80 7488.79 55.02 3.00 487.28 3274.11
   09:37:16.310.15-Aug-2021 3421.80 7486.98 55.02 3.00 487.48 3274.11
   09:37:16.511.15-Aug-2021 3421.80 7488.10 55.02 3.00 487.68 3274.11
   09:37:16.711.15-Aug-2021 3421.80 7488.78 55.02 3.00 487.88 3274.11
   09:37:16.911.15-Aug-2021 3421.80 7488.25 55.02 3.00 488.08 3274.11
   09:37:17.111.15-Aug-2021 3421.80 7488.25 55.02 3.00 488.28 3274.11
   09:37:17.311.15-Aug-2021 3421.80 7487.03 55.02 3.00 488.48 3274.11
   09:37:17.511.15-Aug-2021 3421.80 7488.63 55.02 3.00 488.68 3274.11
   09:37:17.711.15-Aug-2021 3421.80 7488.41 55.02 3.00 488.88 3274.11
   09:37:17.911.15-Aug-2021 3421.80 7490.97 55.02 3.00 489.08 3274.11
   09:37:18.111.15-Aug-2021 3421.80 7490.97 55.02 3.00 489.28 3274.11
   09:37:18.311.15-Aug-2021 3421.80 7488.42 55.02 3.00 489.48 3274.11
   09:37:18.511.15-Aug-2021 3421.80 7489.21 55.02 3.00 489.68 3274.11
   09:37:18.711.15-Aug-2021 3421.80 7487.85 55.02 3.00 489.88 3274.11
   09:37:18.911.15-Aug-2021 3421.80 7486.83 55.02 3.00 490.08 3274.11
   09:37:19.111.15-Aug-2021 3421.80 7486.83 55.02 3.00 490.28 3274.11
   09:37:19.311.15-Aug-2021 3421.80 7488.12 55.02 3.00 490.48 3274.11
   09:37:19.511.15-Aug-2021 3421.80 7488.93 55.02 3.00 490.68 3274.11
   09:37:19.711.15-Aug-2021 3421.80 7488.78 55.02 3.00 490.88 3274.11
   09:37:19.911.15-Aug-2021 3421.80 7489.73 55.02 3.00 491.08 3274.11
   09:37:20.111.15-Aug-2021 3421.80 7489.73 55.02 3.00 491.28 3274.11
   09:37:20.311.15-Aug-2021 3421.80 7486.35 55.02 3.00 491.48 3274.11
   09:37:20.511.15-Aug-2021 3421.80 7487.45 55.02 3.00 491.68 3274.11
   09:37:20.711.15-Aug-2021 3421.80 7488.55 55.02 3.00 491.88 3274.11
   09:37:20.911.15-Aug-2021 3421.80 7490.27 55.02 3.00 492.08 3274.11
   09:37:21.111.15-Aug-2021 3421.80 7490.27 55.02 3.00 492.28 3274.11
   09:37:21.311.15-Aug-2021 3421.80 7488.59 55.02 3.00 492.48 3274.11
   09:37:21.511.15-Aug-2021 3421.80 7486.96 55.02 3.00 492.68 3274.11
   09:37:21.711.15-Aug-2021 3421.80 7487.50 55.02 3.00 492.88 3274.11
   09:37:21.911.15-Aug-2021 3421.80 7487.56 55.02 3.00 493.08 3274.11
   09:37:22.111.15-Aug-2021 3421.80 7487.56 55.02 3.00 493.28 3274.11
   09:37:22.311.15-Aug-2021 3421.80 7489.68 55.02 3.00 493.48 3274.11
   09:37:22.512.15-Aug-2021 3421.80 7489.97 55.02 3.00 493.68 3274.11
   09:37:22.712.15-Aug-2021 3421.80 7488.37 55.02 3.00 493.88 3274.11
   09:37:22.912.15-Aug-2021 3421.80 7489.24 55.02 3.00 494.08 3274.11
   09:37:23.112.15-Aug-2021 3421.80 7489.24 55.02 3.00 494.28 3274.11
   09:37:23.312.15-Aug-2021 3421.80 7487.38 55.02 3.00 494.48 3274.11
   09:37:23.512.15-Aug-2021 3421.80 7489.34 55.02 3.00 494.68 3274.11
   09:37:23.712.15-Aug-2021 3421.80 7490.43 55.02 3.00 494.88 3274.11
   09:37:23.912.15-Aug-2021 3421.80 7487.47 55.02 3.00 495.08 3274.11
   09:37:24.112.15-Aug-2021 3421.80 7487.47 55.02 3.00 495.28 3274.11
   09:37:24.312.15-Aug-2021 3421.80 7488.89 55.02 3.00 495.48 3274.11
   09:37:24.512.15-Aug-2021 3421.80 7489.29 55.02 3.00 495.68 3274.11
   09:37:24.712.15-Aug-2021 3421.80 7487.95 55.02 3.00 495.88 3274.11
   09:37:24.912.15-Aug-2021 3421.80 7486.94 55.02 3.00 496.08 3274.11
   09:37:25.112.15-Aug-2021 3421.80 7486.94 55.02 3.00 496.28 3274.11
   09:37:25.312.15-Aug-2021 3421.80 7489.01 55.02 3.00 496.48 3274.11
   09:37:25.512.15-Aug-2021 3421.80 7489.71 55.02 3.00 496.68 3274.11
   09:37:25.712.15-Aug-2021 3421.80 7488.53 55.02 3.00 496.88 3274.11
   09:37:25.912.15-Aug-2021 3421.80 7489.38 55.02 3.00 497.08 3274.11
   09:37:26.112.15-Aug-2021 3421.80 7489.38 55.02 3.00 497.28 3274.11
   09:37:26.312.15-Aug-2021 3421.80 7487.18 55.02 3.00 497.48 3274.11
   09:37:26.512.15-Aug-2021 3421.80 7488.35 55.02 3.00 497.68 3274.11
   09:37:26.712.15-Aug-2021 3421.80 7489.71 55.02 3.00 497.88 3274.11
   09:37:26.912.15-Aug-2021 3421.80 7490.91 55.01 3.00 498.08 3274.11
   09:37:27.112.15-Aug-2021 3421.80 7490.91 55.01 3.00 498.28 3274.11
   09:37:27.312.15-Aug-2021 3421.80 7488.27 55.01 3.00 498.48 3274.11
   09:37:27.512.15-Aug-2021 3421.80 7489.18 55.01 3.00 498.68 3274.11
   09:37:27.712.15-Aug-2021 3421.80 7488.60 55.01 3.00 498.88 3274.11
   09:37:27.912.15-Aug-2021 3421.80 7486.26 55.01 3.00 499.08 3274.11
   09:37:28.112.15-Aug-2021 3421.80 7486.26 55.01 3.00 499.28 3274.11
   09:37:28.312.15-Aug-2021 3421.80 7488.11 55.01 3.00 499.48 3274.11
   09:37:28.512.15-Aug-2021 3421.80 7489.48 55.01 3.00 499.68 3274.11
   09:37:28.713.15-Aug-2021 3421.80 7490.40 55.01 3.00 499.88 3274.11
   09:37:28.913.15-Aug-2021 3421.80 7488.79 55.01 3.00 500.08 3274.11
   09:37:29.113.15-Aug-2021 3421.80 7488.79 55.01 3.00 500.28 3274.11
   09:37:29.313.15-Aug-2021 3421.80 7486.52 55.01 3.00 500.48 3274.11
   09:37:29.513.15-Aug-2021 3421.80 7490.16 55.01 3.00 500.68 3274.11
   09:37:29.713.15-Aug-2021 3421.80 7488.96 55.01 3.00 500.88 3274.11
   09:37:29.913.15-Aug-2021 3421.80 7487.43 55.01 3.00 501.08 3274.11
   09:37:30.113.15-Aug-2021 3421.80 7487.43 55.01 3.00 501.28 3274.11
   09:37:30.313.15-Aug-2021 3421.80 7490.22 55.01 3.00 501.48 3274.11
   09:37:30.513.15-Aug-2021 3421.80 7489.78 55.01 3.00 501.68 3274.11
   09:37:30.713.15-Aug-2021 3421.80 7488.81 55.01 3.00 501.88 3274.11
   09:37:30.913.15-Aug-2021 3421.80 7486.55 55.01 3.00 502.08 3274.11
   09:37:31.113.15-Aug-2021 3421.80 7486.55 55.01 3.00 502.28 3274.11
   09:37:31.313.15-Aug-2021 3421.80 7486.95 55.01 3.00 502.48 3274.11
   09:37:31.513.15-Aug-2021 3421.80 7490.06 55.01 3.00 502.68 3274.11
   09:37:31.713.15-Aug-2021 3421.80 7490.56 55.01 3.00 502.88 3274.11
   09:37:31.913.15-Aug-2021 3421.80 7489.37 55.01 3.00 503.08 3274.11
   09:37:32.113.15-Aug-2021 3421.80 7489.37 55.01 3.00 503.28 3274.11
   09:37:32.313.15-Aug-2021 3421.80 7487.64 55.01 3.00 503.48 3274.11
   09:37:32.513.15-Aug-2021 3421.80 7490.08 55.01 3.00 503.68 3274.11
   09:37:32.713.15-Aug-2021 3421.80 7490.21 55.01 3.00 503.88 3274.11
   09:37:32.913.15-Aug-2021 3421.80 7488.48 55.01 3.00 504.08 3274.11
   09:37:33.113.15-Aug-2021 3421.80 7488.48 55.01 3.00 504.28 3274.11
   09:37:33.313.15-Aug-2021 3421.80 7491.05 55.01 3.00 504.48 3274.11
   09:37:33.513.15-Aug-2021 3421.80 7490.65 55.01 3.00 504.68 3274.11
   09:37:33.713.15-Aug-2021 3421.80 7489.39 55.01 3.00 504.88 3274.11
   09:37:33.913.15-Aug-2021 3421.80 7487.53 55.01 3.00 505.08 3274.11
   09:37:34.113.15-Aug-2021 3421.80 7487.53 55.01 3.00 505.28 3274.11
   09:37:34.313.15-Aug-2021 3421.80 7487.53 55.01 3.00 505.48 3274.11
   09:37:34.513.15-Aug-2021 3421.80 7489.49 55.00 3.00 505.68 3274.11
   09:37:34.714.15-Aug-2021 3421.80 7490.17 55.00 3.00 505.88 3274.11
