~Version Information
 VERS.                  2.0:   CWLS log ASCII Standard -VERSION 2.0
 WRAP.                   NO:   One line per depth step
~Well Information Block
#MNEM.UNIT     VALUE/NAME     DESCRIPTION
#---------     -----------    ---------------------------
 STRT.S             11:47:36 15-Aug-21: START TIME 11:47:36 15-Aug-21
 STOP.S             11:55:59 15-Aug-21: STOP TIME  11:55:59 15-Aug-21
 STEP.S                   0.00: STEP TIME
 NULL.                 -999.25: NULL VALUE
 DFWT.                        :  DIST FWL TEXT
 DFST.                        :  DIST FSL TEXT
 DMF .             Drill Floor:  DRILL MEAS FROM
 STIM.      17.18.56 20-Jun-21:  START TIME
 DATE.      17.18.56 20-Aug-21:  END TIME
 SPUD.               20-Jun-21:  SPUD DATE
 NREF.                    Grid:  NORTH REFERENCE
 HPTY.       Minimum Curvature:  HOLE POS TYPE
 DMOD.             Drill Model:  DRILL MOD DESC
 SVYD.                  Survey:  SURVEY DESC
 ILTD.               Lithology:  INTERP LTH DESC
 FTOP.          Formation Tops:  FORM TOPS DESC
 SON .        AZ-XX-0907056190:  JOB NUMBER
 PDAT.       Caspian Sea Level:  PERMANENT DATUM
 WTYP.                Deviated:  WELL TYPE
 MDS .        Operator Entered:  MAG DATA SOURCE
 COMP.     BP Exploration (Caspian Sea) Ltd.:  COMPANY
 UWI .            /AZE20000092:  UNIQUE WELL IDENTIFIER
 API .            /AZE20000092:  API NUMBER
 BASE.              Azerbaijan:  LOGGING EQUIPMENT BASE LOCATION
 REGN.                   EESSA:  REGION
 PROV.                    baku:  PROVINCE
 STAT.                    baku:  STATE NAME
 CTRY.              Azerbaijan:  COUNTRY NAME
 FLD .                     ACG:  FIELD NAME
 SRVC.          Turan Drilling:  CONTRACTOR
 MWDS.                    Baku:  MWD SHOP
 WELL.                     J26:  WELL NAME
 JOBN.        AZ-XX-0907056190:  JOB TICKET NUMB
 RIG .             West Chirag:  RIG NAME
 DOE .                     N/A:  DOE NUMBER
 DCON.         Sperry Drilling:  DIRECTNL CONTR
 UNIT.                     N/A:  LOGGING EQUIPMENT ID
 CNTY.                        :  COUNTY
 LOC .                        :  LOCATION
 LMF .             Drill Floor:  LOG MEASURED FROM
 TVDS.m                  43.00:  TVDSS CORRECTN
 LATI.deg                40.13:  LATITUDE
 LONG.deg                51.22:  LONGITUDE
 WHNS.m                  -7.12:  WELL HEAD N/S
 WHEW.m                  -9.46:  WELL HEAD E/W
 UTMX.m              519004.02:  UTM X
 UTMY.m             4443784.96:  UTM Y
 DFWL.m                   0.00:  DISTANCE FWL
 DFSL.m                   0.00:  DISTANCE FSL
 SDEP.m                 464.00:  START DEPTH
 TDD .m                3500.00:  TOTAL DEPTH (DRILLER)
 VSDR.deg               114.35:  VERT SEC DIRECT
 GVFD.g                   1.00:  GRAVITY FIELD
 MFLD.nT              50386.00:  MAGNETIC FIELD
 MDIP.deg                59.63:  MAGNETIC DIP
 MDEC.deg                 6.43:  MAGNETIC DECL
 GRDC.deg                 0.15:  GRID CORRECTION
 AZTC.deg                 6.29:  AZM TOTAL CORR
 EPD .m                   0.00:  ELEVATION
 EGL .m                   0.00:  GROUND ELEVATION
 WDMS.m                 169.80:  WD ELEV
 APD .m                  43.00:  DEPTH ABOVE PD
 VSEW.m                  -9.46:  VERT SEC E/W
 VSNS.m                  -7.12:  VERT SEC N/S
 AGAP.m                  43.00:  AIR GAP
 DEP .m                 356.16:  DEPTH
 EKB .m                  43.00:  KB ELEVATION
 EDF .m                  43.00:  DF ELEVATION
 TDL .m                 699.00:  TOTAL DEPTH (LOGGER)
 VSC .                       0:  VS TO CLOSURE
 MAGU.                 1853727:  MAGUTM CHECKSUM
~Parameter Information Block
#MNEM.UNIT       Value        Description
#---------     -----------    ---------------------------
 AV  .mps                 1.30:  Ann Velocity 
 AVMX.mps                 1.67:  Max Ann Veloc 
 AZIF.deg               280.40:  Azm, Final 
 BHAT.        Rotary Steerable:  BHA Type 
 BREV.rev            528970.00:  Rev Bit Total 
 BROT.°/30m               1.00:  Build Rotating 
 BS  .in                 12.25:  Bit Size 
 BSZ .in                 12.25:  Bit Size 
 BTPL.psig              738.00:  Bit Press Loss 
 CABU.                     Yes:  Customer Abuse 
 CGEO.        Elvin Suleymanov:  Customer Geo 
 COMM.                     lþe:  Run Comments 1 
 TCS .hr                 66.05:  Time Ciculation Ended 
 CV  .mps                 2.20:  Crit Velocity 
 CVMX.mps                 2.56:  Max Crit Veloc 
 DD1 .          Rashad Habibov:  Direct Drillr 1 
 DD2 .            Azer ravanov:  Direct Drillr 2 
 DD3 .           Teymur Agayev:  Direct Drillr 3 
 DDSV.               Geo-Pilot:  DD Service 
 DEFF.%                  90.00:  % Det Eff 
 DLRX.°/30m               2.95:  Dogleg Rot Max 
 DLSO.°/30m               1.00:  Dogleg Oriented 
 DLSX.°/30m               2.95:  Dogleg Str Max 
 DRET.      11.42.20 11-Aug-21:  Drill End Time 
 DRST.      23.03.20 08-Aug-21:  Drill Start Tim 
 DTIM.hr                 45.50:  Time Drilling 
 EDEP.m                3488.00:  End Depth 
 ENG1.         Marcelo Marcari:  Engineer 1 
 ENG2.         Dair Mahammadov:  Engineer 2 
 ENG3.       Davud Huseyn-zada:  Engineer 3 
 ENG4.         Yevgeniy Ulikov:  Engineer 4 
 ETIM.      17.45.20 17-Aug-21:  End Time 
 FLOI.gpm              1197.70:  Flow In 
 FLON.gpm              1100.00:  Flow In Min 
 FLOS.cptm                0.00:  Fluid Loss 
 FLOX.gpm              1200.00:  Flow In Max 
 DFT .        Mineral Oil Base:  Mud Type 
 FTRO.       Formation Presure:  FTWD Run Obj 
 HFLO.                      No:  High Flow 
 HPRE.                      No:  High Pressure 
 HTEM.                      No:  High Temp 
 HYDO.m                   1.80:  Hydro Offset 
 IFIN.deg                 9.87:  Inc, Final 
 IMAX.deg                19.96:  Inc Max 
 IMIN.deg                 3.82:  Inc Min 
 IMND.m                3257.42:  Inc Min Depth 
 IMXD.m                2945.53:  Inc Max Depth 
 JARR.                      No:  Jarring 
 LETM.      11.42.20 11-Aug-21:  Log End Time 
 LOST.hr                     0:  Lost Rig Time 
 LSTM.      23.03.20 08-Aug-21:  Log Start Time 
 MDCL.ppm             42500.00:  Mud Chlorides 
 MDES.     Inversion Oil/Synthetic:  Mud Desc 
 DFD .sg                  1.45:  Mud Density 
 MDMN.sg                  1.39:  Dens Mud Min 
 MDMX.sg                  1.57:  Dens Mud Max 
 MOIL.                   53.20:  Run Mud Oil % 
 MOWR.                   70:30:  Run Mud OWR 
 MSND.                       0:  Run Mud Sand % 
 MSOL.                   24.30:  Run Mud Solids% 
 DFV .spqt               79.00:  Mud Viscosity 
 MWOD.in                  8.00:  MWD Tool OD 
 MWSI.                      No:  Serv Intrp, MWD 
 OTIM.hr                253.06:  Time Operating 
 PCON.           Look Like New:  Pad Condition 
 PMAX.psia            11068.93:  Press Op, Max 
 PV  .cP                 36.00:  Mud PV 
 RUN .                    1000:  Run Number 
 ROPA.m/hr               15.34:  ROP Avg 
 ROPN.m/hr                4.00:  ROP Min 
 ROPX.m/hr               31.00:  ROP Max 
 RPMA.rpm               151.40:  RPM Surface Avg 
 RPMN.rpm               120.00:  RPM Surface Min 
 RPMX.rpm               160.00:  RPM Surface Max 
 RRUN.                    L505:  Rig Run Number 
 RTIM.hr                 10.00:  Time Reaming 
 SAZI.deg                88.92:  Azm, Start 
 SDEP.m                2789.00:  Start Depth 
 SIDD.                      No:  Serv Intrp, DD 
 SINC.deg                19.84:  Inc, Start 
 SPPA.psig             4421.39:  SPP Avg 
 SPPN.psig             4130.00:  SPP Min 
 SPPX.psig             4800.00:  SPP Max 
 STIM.      01.25.20 07-Aug-21:  Start Time 
 SVCS.                 DD, MWD:  Services 
 SVER.                    9.20:  Sperry Version 
 TDAT.m                 699.00:  Tot Depth Attmp 
 TDDF.                      No:  Trip for DD 
 TDLG.m                 699.00:  Tot Depth Loggd 
 TFF .                      No:  Trip for Fail 
 TQAA.f-kp               20.55:  Torque Abs Avg 
 TQAN.f-kp               15.00:  Torque Abs Min 
 TQAX.f-kp               24.00:  Torque Abs Max 
 TRRT.°/30m               0.50:  Turn Rotating 
 MRT .                    HCIM:  Maximum Recorded Temperature 
 TTMX.degC               82.35:  Max Tool Temp 
 VS01.                90654677:  Virtual Str1 SN 
 VS02.                90636294:  Virtual Str2 SN 
 VS03.                90653866:  Virtual Str3 SN 
 VS04.                90654674:  Virtual Str4 SN 
 WBMN.klb                10.00:  WOB Min 
 WITN.         Haytham Mostafa:  Customer Rep 
 WITN.           Rufat Babayev:  Customer Rep 2 
 WOBA.klb                22.43:  WOB Avg 
 WOBX.klb                35.00:  WOB Max 
 YP  .lhf2               32.00:  Yield Point 
~Curve Information Block
#MNEM.UNIT                 API CODE     Curve Description
#---------               -----------    ---------------------------
 TIME.HHMMSS            00 000 000 000:  GT Time & Date
 GTDEPTH.m              00 000 000 000:  GT Depth
 GTPQH.psia             00 000 000 000:  GT HR Quartz Pressure
 GTTQ.degC              00 000 000 000:  GT Quartz Temperature
 GTTN.NONE              00 000 000 000:  GT Test Number
 GTET.sec               00 000 000 000:  GT Elapsed Test Time
 GTTVD.m                00 000 000 000:  GT True Vertical Depth
#Other Information
#
#WARRANTY: Halliburton will use its best efforts to furnish customers with 
#accurate information and interpretations that are part of, and incident to, the services 
#provided.  However, Halliburton cannot and does not warrant the accuracy 
#or correctness of such information and interpretations.  Under no circumstances should any 
#such information or interpretation be relied upon as the sole basis for any drilling, 
#completion, production, or financial decision or any procedure involving any risk to the 
#safety of any drilling venture, drilling rig or its crew or any other third party.  The 
#Customer has full responsibility for all drilling, completion and production operation.  
#Halliburton makes no representations or warranties, either expressed or 
#implied, including, but not limited to, the implied warranties of merchantability or fitness 
#for a particular purpose, with respect to the services rendered.  In no event will 
#Halliburton be liable for failure to obtain any particular results or for 
#any damages, including, but not limited to, indirect, special or consequential damages, 
#resulting from the use of any information or interpretation provided by Halliburton.
#
~A           TIME           GTDEPTH  GTPQH  GTTQ  GTTN  GTET   GTTVD  
# ...
   11:47:59.283.15-Aug-2021 3405.50 7460.99 54.16 5.00  22.99 3258.07
   11:47:59.483.15-Aug-2021 3405.50 7460.99 54.16 5.00  23.19 3258.07
   11:47:59.683.15-Aug-2021 3405.50 7459.46 54.16 5.00  23.39 3258.07
   11:47:59.882.15-Aug-2021 3405.50 7457.48 54.15 5.00  23.59 3258.07
   11:48:00.082.15-Aug-2021 3405.50 7460.00 54.15 5.00  23.79 3258.07
   11:48:00.282.15-Aug-2021 3405.50 7460.29 54.15 5.00  23.99 3258.07
   11:48:00.482.15-Aug-2021 3405.50 7460.29 54.15 5.00  24.19 3258.07
   11:48:00.682.15-Aug-2021 3405.50 7459.60 54.15 5.00  24.39 3258.07
   11:48:00.882.15-Aug-2021 3405.50 7459.94 54.15 5.00  24.59 3258.07
   11:48:01.082.15-Aug-2021 3405.50 7461.70 54.15 5.00  24.79 3258.07
   11:48:01.282.15-Aug-2021 3405.50 7459.30 54.15 5.00  24.98 3258.07
   11:48:01.481.15-Aug-2021 3405.50 7459.30 54.15 5.00  25.18 3258.07
   11:48:01.681.15-Aug-2021 3405.50 7458.07 54.15 5.00  25.38 3258.07
   11:48:01.881.15-Aug-2021 3405.50 7458.36 54.15 5.00  25.58 3258.07
   11:48:02.081.15-Aug-2021 3405.50 7459.54 54.15 5.00  25.78 3258.07
   11:48:02.281.15-Aug-2021 3405.50 7460.79 54.15 5.00  25.98 3258.07
   11:48:02.481.15-Aug-2021 3405.50 7460.79 54.15 5.00  26.18 3258.07
   11:48:02.681.15-Aug-2021 3405.50 7459.25 54.15 5.00  26.38 3258.07
   11:48:02.881.15-Aug-2021 3405.50 7460.66 54.15 5.00  26.58 3258.07
   11:48:03.080.15-Aug-2021 3405.50 7458.09 54.15 5.00  26.78 3258.07
   11:48:03.280.15-Aug-2021 3405.50 7459.80 54.15 5.00  26.98 3258.07
   11:48:03.480.15-Aug-2021 3405.50 7459.80 54.15 5.00  27.18 3258.07
   11:48:03.680.15-Aug-2021 3405.50 7461.82 54.15 5.00  27.38 3258.07
   11:48:03.880.15-Aug-2021 3405.50 7462.42 54.15 5.00  27.58 3258.07
   11:48:04.080.15-Aug-2021 3405.50 7458.27 54.15 5.00  27.78 3258.07
   11:48:04.280.15-Aug-2021 3405.50 7458.81 54.15 5.00  27.98 3258.07
   11:48:04.480.15-Aug-2021 3405.50 7458.81 54.15 5.00  28.18 3258.07
   11:48:04.680.15-Aug-2021 3405.50 7461.74 54.15 5.00  28.38 3258.07
   11:48:04.879.15-Aug-2021 3405.50 7460.27 54.15 5.00  28.58 3258.07
   11:48:05.079.15-Aug-2021 3405.50 7460.39 54.15 5.00  28.78 3258.07
   11:48:05.279.15-Aug-2021 3405.50 7460.20 54.15 5.00  28.98 3258.07
   11:48:05.479.15-Aug-2021 3405.50 7460.20 54.15 5.00  29.18 3258.07
   11:48:05.679.15-Aug-2021 3405.50 7460.73 54.15 5.00  29.38 3258.07
   11:48:05.879.15-Aug-2021 3405.50 7461.40 54.15 5.00  29.58 3258.07
   11:48:06.079.15-Aug-2021 3405.50 7460.93 54.15 5.00  29.78 3258.07
   11:48:06.279.15-Aug-2021 3405.50 7459.57 54.15 5.00  29.98 3258.07
   11:48:06.478.15-Aug-2021 3405.50 7459.57 54.15 5.00  30.18 3258.07
   11:48:06.678.15-Aug-2021 3405.50 7461.24 54.15 5.00  30.38 3258.07
   11:48:06.878.15-Aug-2021 3405.50 7460.93 54.15 5.00  30.58 3258.07
   11:48:07.078.15-Aug-2021 3405.50 7459.30 54.15 5.00  30.78 3258.07
   11:48:07.278.15-Aug-2021 3405.50 7462.34 54.15 5.00  30.98 3258.07
   11:48:07.478.15-Aug-2021 3405.50 7462.34 54.15 5.00  31.18 3258.07
   11:48:07.678.15-Aug-2021 3405.50 7461.18 54.15 5.00  31.38 3258.07
   11:48:07.878.15-Aug-2021 3405.50 7459.35 54.15 5.00  31.58 3258.07
   11:48:08.077.15-Aug-2021 3405.50 7462.00 54.15 5.00  31.78 3258.07
   11:48:08.277.15-Aug-2021 3405.50 7459.47 54.15 5.00  31.98 3258.07
   11:48:08.477.15-Aug-2021 3405.50 7459.47 54.15 5.00  32.18 3258.07
   11:48:08.677.15-Aug-2021 3405.50 7461.10 54.15 5.00  32.38 3258.07
   11:48:08.877.15-Aug-2021 3405.50 7461.95 54.15 5.00  32.58 3258.07
   11:48:09.077.15-Aug-2021 3405.50 7460.30 54.15 5.00  32.78 3258.07
   11:48:09.277.15-Aug-2021 3405.50 7461.12 54.15 5.00  32.98 3258.07
   11:48:09.477.15-Aug-2021 3405.50 7461.12 54.15 5.00  33.18 3258.07
   11:48:09.677.15-Aug-2021 3405.50 7460.22 54.14 5.00  33.38 3258.07
   11:48:09.876.15-Aug-2021 3405.50 7459.23 54.14 5.00  33.58 3258.07
   11:48:10.076.15-Aug-2021 3405.50 7459.72 54.14 5.00  33.78 3258.07
   11:48:10.276.15-Aug-2021 3405.50 7461.87 54.14 5.00  33.98 3258.07
   11:48:10.476.15-Aug-2021 3405.50 7461.87 54.14 5.00  34.18 3258.07
   11:48:10.676.15-Aug-2021 3405.50 7460.08 54.14 5.00  34.38 3258.07
   11:48:10.876.15-Aug-2021 3405.50 7459.60 54.14 5.00  34.58 3258.07
   11:48:11.076.15-Aug-2021 3405.50 7459.59 54.14 5.00  34.78 3258.07
   11:48:11.276.15-Aug-2021 3405.50 7460.63 54.14 5.00  34.98 3258.07
   11:48:11.475.15-Aug-2021 3405.50 7460.63 54.14 5.00  35.18 3258.07
   11:48:11.675.15-Aug-2021 3405.50 7461.05 54.14 5.00  35.38 3258.07
   11:48:11.875.15-Aug-2021 3405.50 7461.39 54.14 5.00  35.58 3258.07
   11:48:12.075.15-Aug-2021 3405.50 7459.37 54.14 5.00  35.78 3258.07
   11:48:12.275.15-Aug-2021 3405.50 7458.96 54.14 5.00  35.98 3258.07
   11:48:12.475.15-Aug-2021 3405.50 7458.96 54.14 5.00  36.18 3258.07
   11:48:12.675.15-Aug-2021 3405.50 7461.56 54.14 5.00  36.38 3258.07
   11:48:12.875.15-Aug-2021 3405.50 7460.09 54.14 5.00  36.58 3258.07
   11:48:13.074.15-Aug-2021 3405.50 7458.73 54.14 5.00  36.78 3258.07
   11:48:13.274.15-Aug-2021 3405.50 7460.77 54.14 5.00  36.98 3258.07
   11:48:13.474.15-Aug-2021 3405.50 7460.77 54.14 5.00  37.18 3258.07
   11:48:13.674.15-Aug-2021 3405.50 7460.79 54.14 5.00  37.38 3258.07
   11:48:13.874.15-Aug-2021 3405.50 7461.25 54.14 5.00  37.58 3258.07
   11:48:14.074.15-Aug-2021 3405.50 7460.59 54.14 5.00  37.78 3258.07
   11:48:14.274.15-Aug-2021 3405.50 7459.31 54.14 5.00  37.98 3258.07
   11:48:14.474.15-Aug-2021 3405.50 7459.31 54.14 5.00  38.18 3258.07
   11:48:14.674.15-Aug-2021 3405.50 7461.01 54.14 5.00  38.38 3258.07
   11:48:14.873.15-Aug-2021 3405.50 7462.31 54.14 5.00  38.58 3258.07
   11:48:15.073.15-Aug-2021 3405.50 7458.72 54.14 5.00  38.78 3258.07
   11:48:15.273.15-Aug-2021 3405.50 7459.59 54.14 5.00  38.98 3258.07
   11:48:15.473.15-Aug-2021 3405.50 7459.59 54.14 5.00  39.18 3258.07
   11:48:15.673.15-Aug-2021 3405.50 7460.58 54.14 5.00  39.38 3258.07
   11:48:15.873.15-Aug-2021 3405.50 7460.31 54.14 5.00  39.58 3258.07
   11:48:16.073.15-Aug-2021 3405.50 7459.50 54.14 5.00  39.78 3258.07
   11:48:16.273.15-Aug-2021 3405.50 7460.95 54.14 5.00  39.98 3258.07
   11:48:16.472.15-Aug-2021 3405.50 7460.95 54.14 5.00  40.18 3258.07
   11:48:16.672.15-Aug-2021 3405.50 7458.58 54.14 5.00  40.38 3258.07
   11:48:16.872.15-Aug-2021 3405.50 7460.37 54.14 5.00  40.58 3258.07
   11:48:17.072.15-Aug-2021 3405.50 7460.72 54.14 5.00  40.78 3258.07
   11:48:17.272.15-Aug-2021 3405.50 7462.22 54.14 5.00  40.98 3258.07
   11:48:17.472.15-Aug-2021 3405.50 7462.22 54.14 5.00  41.18 3258.07
   11:48:17.672.15-Aug-2021 3405.50 7459.74 54.14 5.00  41.38 3258.07
   11:48:17.872.15-Aug-2021 3405.50 7460.06 54.14 5.00  41.57 3258.07
   11:48:18.071.15-Aug-2021 3405.50 7460.04 54.14 5.00  41.77 3258.07
   11:48:18.271.15-Aug-2021 3405.50 7462.84 54.14 5.00  41.97 3258.07
   11:48:18.471.15-Aug-2021 3405.50 7462.84 54.14 5.00  42.17 3258.07
   11:48:18.671.15-Aug-2021 3405.50 7458.57 54.13 5.00  42.37 3258.07
   11:48:18.871.15-Aug-2021 3405.50 7458.44 54.13 5.00  42.57 3258.07
   11:48:19.071.15-Aug-2021 3405.50 7459.85 54.13 5.00  42.77 3258.07
   11:48:19.271.15-Aug-2021 3405.50 7460.07 54.13 5.00  42.97 3258.07
   11:48:19.471.15-Aug-2021 3405.50 7460.07 54.13 5.00  43.17 3258.07
   11:48:19.670.15-Aug-2021 3405.50 7460.75 54.13 5.00  43.37 3258.07
   11:48:19.870.15-Aug-2021 3405.50 7460.27 54.13 5.00  43.57 3258.07
   11:48:20.070.15-Aug-2021 3405.50 7459.55 54.13 5.00  43.77 3258.07
   11:48:20.270.15-Aug-2021 3405.50 7459.16 54.13 5.00  43.97 3258.07
   11:48:20.470.15-Aug-2021 3405.50 7459.16 54.13 5.00  44.17 3258.07
   11:48:20.670.15-Aug-2021 3405.50 7460.68 54.13 5.00  44.37 3258.07
   11:48:20.870.15-Aug-2021 3405.50 7459.51 54.13 5.00  44.57 3258.07
   11:48:21.070.15-Aug-2021 3405.50 7459.88 54.13 5.00  44.77 3258.07
   11:48:21.270.15-Aug-2021 3405.50 7460.46 54.13 5.00  44.97 3258.07
   11:48:21.469.15-Aug-2021 3405.50 7460.46 54.13 5.00  45.17 3258.07
   11:48:21.669.15-Aug-2021 3405.50 7459.25 54.13 5.00  45.37 3258.07
   11:48:21.869.15-Aug-2021 3405.50 7459.27 54.13 5.00  45.57 3258.07
   11:48:22.069.15-Aug-2021 3405.50 7459.23 54.13 5.00  45.77 3258.07
