~Version Information
 VERS.                  2.0:   CWLS log ASCII Standard -VERSION 2.0
 WRAP.                   NO:   One line per depth step
~Well Information Block
#MNEM.UNIT     VALUE/NAME     DESCRIPTION
#---------     -----------    ---------------------------
 STRT.S             10:08:54 15-Aug-21: START TIME 10:08:54 15-Aug-21
 STOP.S             10:17:25 15-Aug-21: STOP TIME  10:17:25 15-Aug-21
 STEP.S                   0.00: STEP TIME
 NULL.                 -999.25: NULL VALUE
 DFWT.                        :  DIST FWL TEXT
 DFST.                        :  DIST FSL TEXT
 DMF .             Drill Floor:  DRILL MEAS FROM
 STIM.      17.18.56 20-Jun-21:  START TIME
 DATE.      17.18.56 20-Aug-21:  END TIME
 SPUD.               20-Jun-21:  SPUD DATE
 NREF.                    Grid:  NORTH REFERENCE
 HPTY.       Minimum Curvature:  HOLE POS TYPE
 DMOD.             Drill Model:  DRILL MOD DESC
 SVYD.                  Survey:  SURVEY DESC
 ILTD.               Lithology:  INTERP LTH DESC
 FTOP.          Formation Tops:  FORM TOPS DESC
 SON .        AZ-XX-0907056190:  JOB NUMBER
 PDAT.       Caspian Sea Level:  PERMANENT DATUM
 WTYP.                Deviated:  WELL TYPE
 MDS .        Operator Entered:  MAG DATA SOURCE
 COMP.     BP Exploration (Caspian Sea) Ltd.:  COMPANY
 UWI .            /AZE20000092:  UNIQUE WELL IDENTIFIER
 API .            /AZE20000092:  API NUMBER
 BASE.              Azerbaijan:  LOGGING EQUIPMENT BASE LOCATION
 REGN.                   EESSA:  REGION
 PROV.                    baku:  PROVINCE
 STAT.                    baku:  STATE NAME
 CTRY.              Azerbaijan:  COUNTRY NAME
 FLD .                     ACG:  FIELD NAME
 SRVC.          Turan Drilling:  CONTRACTOR
 MWDS.                    Baku:  MWD SHOP
 WELL.                     J26:  WELL NAME
 JOBN.        AZ-XX-0907056190:  JOB TICKET NUMB
 RIG .             West Chirag:  RIG NAME
 DOE .                     N/A:  DOE NUMBER
 DCON.         Sperry Drilling:  DIRECTNL CONTR
 UNIT.                     N/A:  LOGGING EQUIPMENT ID
 CNTY.                        :  COUNTY
 LOC .                        :  LOCATION
 LMF .             Drill Floor:  LOG MEASURED FROM
 TVDS.m                  43.00:  TVDSS CORRECTN
 LATI.deg                40.13:  LATITUDE
 LONG.deg                51.22:  LONGITUDE
 WHNS.m                  -7.12:  WELL HEAD N/S
 WHEW.m                  -9.46:  WELL HEAD E/W
 UTMX.m              519004.02:  UTM X
 UTMY.m             4443784.96:  UTM Y
 DFWL.m                   0.00:  DISTANCE FWL
 DFSL.m                   0.00:  DISTANCE FSL
 SDEP.m                 464.00:  START DEPTH
 TDD .m                3500.00:  TOTAL DEPTH (DRILLER)
 VSDR.deg               114.35:  VERT SEC DIRECT
 GVFD.g                   1.00:  GRAVITY FIELD
 MFLD.nT              50386.00:  MAGNETIC FIELD
 MDIP.deg                59.63:  MAGNETIC DIP
 MDEC.deg                 6.43:  MAGNETIC DECL
 GRDC.deg                 0.15:  GRID CORRECTION
 AZTC.deg                 6.29:  AZM TOTAL CORR
 EPD .m                   0.00:  ELEVATION
 EGL .m                   0.00:  GROUND ELEVATION
 WDMS.m                 169.80:  WD ELEV
 APD .m                  43.00:  DEPTH ABOVE PD
 VSEW.m                  -9.46:  VERT SEC E/W
 VSNS.m                  -7.12:  VERT SEC N/S
 AGAP.m                  43.00:  AIR GAP
 DEP .m                 356.16:  DEPTH
 EKB .m                  43.00:  KB ELEVATION
 EDF .m                  43.00:  DF ELEVATION
 TDL .m                 699.00:  TOTAL DEPTH (LOGGER)
 VSC .                       0:  VS TO CLOSURE
 MAGU.                 1853727:  MAGUTM CHECKSUM
~Parameter Information Block
#MNEM.UNIT       Value        Description
#---------     -----------    ---------------------------
 AV  .mps                 1.30:  Ann Velocity 
 AVMX.mps                 1.67:  Max Ann Veloc 
 AZIF.deg               280.40:  Azm, Final 
 BHAT.        Rotary Steerable:  BHA Type 
 BREV.rev            528970.00:  Rev Bit Total 
 BROT.°/30m               1.00:  Build Rotating 
 BS  .in                 12.25:  Bit Size 
 BSZ .in                 12.25:  Bit Size 
 BTPL.psig              738.00:  Bit Press Loss 
 CABU.                     Yes:  Customer Abuse 
 CGEO.        Elvin Suleymanov:  Customer Geo 
 COMM.                     ´½}:  Run Comments 1 
 TCS .hr                 66.05:  Time Ciculation Ended 
 CV  .mps                 2.20:  Crit Velocity 
 CVMX.mps                 2.56:  Max Crit Veloc 
 DD1 .          Rashad Habibov:  Direct Drillr 1 
 DD2 .            Azer ravanov:  Direct Drillr 2 
 DD3 .           Teymur Agayev:  Direct Drillr 3 
 DDSV.               Geo-Pilot:  DD Service 
 DEFF.%                  90.00:  % Det Eff 
 DLRX.°/30m               2.95:  Dogleg Rot Max 
 DLSO.°/30m               1.00:  Dogleg Oriented 
 DLSX.°/30m               2.95:  Dogleg Str Max 
 DRET.      11.42.20 11-Aug-21:  Drill End Time 
 DRST.      23.03.20 08-Aug-21:  Drill Start Tim 
 DTIM.hr                 45.50:  Time Drilling 
 EDEP.m                3488.00:  End Depth 
 ENG1.         Marcelo Marcari:  Engineer 1 
 ENG2.         Dair Mahammadov:  Engineer 2 
 ENG3.       Davud Huseyn-zada:  Engineer 3 
 ENG4.         Yevgeniy Ulikov:  Engineer 4 
 ETIM.      17.45.20 17-Aug-21:  End Time 
 FLOI.gpm              1197.70:  Flow In 
 FLON.gpm              1100.00:  Flow In Min 
 FLOS.cptm                0.00:  Fluid Loss 
 FLOX.gpm              1200.00:  Flow In Max 
 DFT .        Mineral Oil Base:  Mud Type 
 FTRO.       Formation Presure:  FTWD Run Obj 
 HFLO.                      No:  High Flow 
 HPRE.                      No:  High Pressure 
 HTEM.                      No:  High Temp 
 HYDO.m                   1.80:  Hydro Offset 
 IFIN.deg                 9.87:  Inc, Final 
 IMAX.deg                19.96:  Inc Max 
 IMIN.deg                 3.82:  Inc Min 
 IMND.m                3257.42:  Inc Min Depth 
 IMXD.m                2945.53:  Inc Max Depth 
 JARR.                      No:  Jarring 
 LETM.      11.42.20 11-Aug-21:  Log End Time 
 LOST.hr                     0:  Lost Rig Time 
 LSTM.      23.03.20 08-Aug-21:  Log Start Time 
 MDCL.ppm             42500.00:  Mud Chlorides 
 MDES.     Inversion Oil/Synthetic:  Mud Desc 
 DFD .sg                  1.45:  Mud Density 
 MDMN.sg                  1.39:  Dens Mud Min 
 MDMX.sg                  1.57:  Dens Mud Max 
 MOIL.                   53.20:  Run Mud Oil % 
 MOWR.                   70:30:  Run Mud OWR 
 MSND.                       0:  Run Mud Sand % 
 MSOL.                   24.30:  Run Mud Solids% 
 DFV .spqt               79.00:  Mud Viscosity 
 MWOD.in                  8.00:  MWD Tool OD 
 MWSI.                      No:  Serv Intrp, MWD 
 OTIM.hr                253.06:  Time Operating 
 PCON.           Look Like New:  Pad Condition 
 PMAX.psia            11068.93:  Press Op, Max 
 PV  .cP                 36.00:  Mud PV 
 RUN .                    1000:  Run Number 
 ROPA.m/hr               15.34:  ROP Avg 
 ROPN.m/hr                4.00:  ROP Min 
 ROPX.m/hr               31.00:  ROP Max 
 RPMA.rpm               151.40:  RPM Surface Avg 
 RPMN.rpm               120.00:  RPM Surface Min 
 RPMX.rpm               160.00:  RPM Surface Max 
 RRUN.                    L505:  Rig Run Number 
 RTIM.hr                 10.00:  Time Reaming 
 SAZI.deg                88.92:  Azm, Start 
 SDEP.m                2789.00:  Start Depth 
 SIDD.                      No:  Serv Intrp, DD 
 SINC.deg                19.84:  Inc, Start 
 SPPA.psig             4421.39:  SPP Avg 
 SPPN.psig             4130.00:  SPP Min 
 SPPX.psig             4800.00:  SPP Max 
 STIM.      01.25.20 07-Aug-21:  Start Time 
 SVCS.                 DD, MWD:  Services 
 SVER.                    9.20:  Sperry Version 
 TDAT.m                 699.00:  Tot Depth Attmp 
 TDDF.                      No:  Trip for DD 
 TDLG.m                 699.00:  Tot Depth Loggd 
 TFF .                      No:  Trip for Fail 
 TQAA.f-kp               20.55:  Torque Abs Avg 
 TQAN.f-kp               15.00:  Torque Abs Min 
 TQAX.f-kp               24.00:  Torque Abs Max 
 TRRT.°/30m               0.50:  Turn Rotating 
 MRT .                    HCIM:  Maximum Recorded Temperature 
 TTMX.degC               82.35:  Max Tool Temp 
 VS01.                90654677:  Virtual Str1 SN 
 VS02.                90636294:  Virtual Str2 SN 
 VS03.                90653866:  Virtual Str3 SN 
 VS04.                90654674:  Virtual Str4 SN 
 WBMN.klb                10.00:  WOB Min 
 WITN.         Haytham Mostafa:  Customer Rep 
 WITN.           Rufat Babayev:  Customer Rep 2 
 WOBA.klb                22.43:  WOB Avg 
 WOBX.klb                35.00:  WOB Max 
 YP  .lhf2               32.00:  Yield Point 
~Curve Information Block
#MNEM.UNIT                 API CODE     Curve Description
#---------               -----------    ---------------------------
 TIME.HHMMSS            00 000 000 000:  GT Time & Date
 GTDEPTH.m              00 000 000 000:  GT Depth
 GTPQH.psia             00 000 000 000:  GT HR Quartz Pressure
 GTTQ.degC              00 000 000 000:  GT Quartz Temperature
 GTTN.NONE              00 000 000 000:  GT Test Number
 GTET.sec               00 000 000 000:  GT Elapsed Test Time
 GTTVD.m                00 000 000 000:  GT True Vertical Depth
#Other Information
#
#WARRANTY: Halliburton will use its best efforts to furnish customers with 
#accurate information and interpretations that are part of, and incident to, the services 
#provided.  However, Halliburton cannot and does not warrant the accuracy 
#or correctness of such information and interpretations.  Under no circumstances should any 
#such information or interpretation be relied upon as the sole basis for any drilling, 
#completion, production, or financial decision or any procedure involving any risk to the 
#safety of any drilling venture, drilling rig or its crew or any other third party.  The 
#Customer has full responsibility for all drilling, completion and production operation.  
#Halliburton makes no representations or warranties, either expressed or 
#implied, including, but not limited to, the implied warranties of merchantability or fitness 
#for a particular purpose, with respect to the services rendered.  In no event will 
#Halliburton be liable for failure to obtain any particular results or for 
#any damages, including, but not limited to, indirect, special or consequential damages, 
#resulting from the use of any information or interpretation provided by Halliburton.
#
~A           TIME           GTDEPTH  GTPQH  GTTQ  GTTN  GTET   GTTVD  
# ...
   10:10:03.233.15-Aug-2021 3416.50 4632.06 54.45 4.00  69.01 3268.90
   10:10:03.433.15-Aug-2021 3416.50 4632.06 54.45 4.00  69.21 3268.90
   10:10:03.633.15-Aug-2021 3416.50 4679.42 54.44 4.00  69.41 3268.90
   10:10:03.833.15-Aug-2021 3416.50 4695.92 54.44 4.00  69.61 3268.90
   10:10:04.033.15-Aug-2021 3416.50 4723.13 54.44 4.00  69.81 3268.90
   10:10:04.233.15-Aug-2021 3416.50 4742.75 54.44 4.00  70.01 3268.90
   10:10:04.433.15-Aug-2021 3416.50 4742.75 54.44 4.00  70.21 3268.90
   10:10:04.633.15-Aug-2021 3416.50 4769.40 54.43 4.00  70.41 3268.90
   10:10:04.833.15-Aug-2021 3416.50 4774.79 54.43 4.00  70.61 3268.90
   10:10:05.033.15-Aug-2021 3416.50 4786.15 54.43 4.00  70.81 3268.90
   10:10:05.233.15-Aug-2021 3416.50 4798.06 54.42 4.00  71.01 3268.90
   10:10:05.433.15-Aug-2021 3416.50 4798.06 54.42 4.00  71.21 3268.90
   10:10:05.633.15-Aug-2021 3416.50 4823.55 54.42 4.00  71.41 3268.90
   10:10:05.833.15-Aug-2021 3416.50 4966.19 54.42 4.00  71.61 3268.90
   10:10:06.033.15-Aug-2021 3416.50 5116.04 54.42 4.00  71.81 3268.90
   10:10:06.233.15-Aug-2021 3416.50 5176.29 54.41 4.00  72.01 3268.90
   10:10:06.433.15-Aug-2021 3416.50 5176.29 54.41 4.00  72.21 3268.90
   10:10:06.633.15-Aug-2021 3416.50 5209.15 54.41 4.00  72.41 3268.90
   10:10:06.833.15-Aug-2021 3416.50 5209.04 54.41 4.00  72.61 3268.90
   10:10:07.033.15-Aug-2021 3416.50 5209.60 54.41 4.00  72.81 3268.90
   10:10:07.233.15-Aug-2021 3416.50 5210.26 54.40 4.00  73.01 3268.90
   10:10:07.433.15-Aug-2021 3416.50 5210.26 54.40 4.00  73.21 3268.90
   10:10:07.633.15-Aug-2021 3416.50 5211.42 54.40 4.00  73.41 3268.90
   10:10:07.833.15-Aug-2021 3416.50 5215.36 54.40 4.00  73.61 3268.90
   10:10:08.033.15-Aug-2021 3416.50 5213.84 54.40 4.00  73.81 3268.90
   10:10:08.233.15-Aug-2021 3416.50 5214.21 54.40 4.00  74.01 3268.90
   10:10:08.433.15-Aug-2021 3416.50 5214.21 54.40 4.00  74.21 3268.90
   10:10:08.633.15-Aug-2021 3416.50 5215.42 54.39 4.00  74.41 3268.90
   10:10:08.833.15-Aug-2021 3416.50 5215.19 54.39 4.00  74.61 3268.90
   10:10:09.033.15-Aug-2021 3416.50 5215.50 54.39 4.00  74.81 3268.90
   10:10:09.233.15-Aug-2021 3416.50 5215.59 54.39 4.00  75.01 3268.90
   10:10:09.434.15-Aug-2021 3416.50 5215.59 54.39 4.00  75.21 3268.90
   10:10:09.634.15-Aug-2021 3416.50 5217.94 54.39 4.00  75.41 3268.90
   10:10:09.834.15-Aug-2021 3416.50 5215.19 54.39 4.00  75.61 3268.90
   10:10:10.034.15-Aug-2021 3416.50 5215.50 54.39 4.00  75.81 3268.90
   10:10:10.234.15-Aug-2021 3416.50 5214.99 54.39 4.00  76.01 3268.90
   10:10:10.434.15-Aug-2021 3416.50 5214.99 54.39 4.00  76.21 3268.90
   10:10:10.634.15-Aug-2021 3416.50 5211.74 54.39 4.00  76.41 3268.90
   10:10:10.834.15-Aug-2021 3416.50 5210.28 54.39 4.00  76.61 3268.90
   10:10:11.034.15-Aug-2021 3416.50 5202.37 54.39 4.00  76.81 3268.90
   10:10:11.234.15-Aug-2021 3416.50 5194.10 54.39 4.00  77.01 3268.90
   10:10:11.434.15-Aug-2021 3416.50 5194.10 54.39 4.00  77.21 3268.90
   10:10:11.634.15-Aug-2021 3416.50 5192.68 54.38 4.00  77.41 3268.90
   10:10:11.834.15-Aug-2021 3416.50 5188.53 54.38 4.00  77.61 3268.90
   10:10:12.034.15-Aug-2021 3416.50 5187.93 54.38 4.00  77.81 3268.90
   10:10:12.234.15-Aug-2021 3416.50 5187.64 54.38 4.00  78.01 3268.90
   10:10:12.434.15-Aug-2021 3416.50 5187.64 54.38 4.00  78.21 3268.90
   10:10:12.634.15-Aug-2021 3416.50 5187.02 54.38 4.00  78.41 3268.90
   10:10:12.834.15-Aug-2021 3416.50 5187.41 54.38 4.00  78.61 3268.90
   10:10:13.034.15-Aug-2021 3416.50 5187.14 54.38 4.00  78.81 3268.90
   10:10:13.234.15-Aug-2021 3416.50 5187.06 54.38 4.00  79.01 3268.90
   10:10:13.434.15-Aug-2021 3416.50 5187.06 54.38 4.00  79.21 3268.90
   10:10:13.634.15-Aug-2021 3416.50 5186.13 54.38 4.00  79.41 3268.90
   10:10:13.834.15-Aug-2021 3416.50 5186.84 54.38 4.00  79.61 3268.90
   10:10:14.034.15-Aug-2021 3416.50 5187.47 54.38 4.00  79.81 3268.90
   10:10:14.234.15-Aug-2021 3416.50 5186.57 54.38 4.00  80.01 3268.90
   10:10:14.434.15-Aug-2021 3416.50 5186.57 54.38 4.00  80.21 3268.90
   10:10:14.634.15-Aug-2021 3416.50 5186.12 54.38 4.00  80.41 3268.90
   10:10:14.834.15-Aug-2021 3416.50 5187.23 54.38 4.00  80.61 3268.90
   10:10:15.034.15-Aug-2021 3416.50 5186.29 54.38 4.00  80.81 3268.90
   10:10:15.234.15-Aug-2021 3416.50 5186.82 54.38 4.00  81.01 3268.90
   10:10:15.435.15-Aug-2021 3416.50 5186.82 54.38 4.00  81.21 3268.90
   10:10:15.635.15-Aug-2021 3416.50 5186.50 54.38 4.00  81.41 3268.90
   10:10:15.835.15-Aug-2021 3416.50 5187.04 54.38 4.00  81.61 3268.90
   10:10:16.035.15-Aug-2021 3416.50 5186.28 54.38 4.00  81.81 3268.90
   10:10:16.235.15-Aug-2021 3416.50 5186.56 54.38 4.00  82.01 3268.90
   10:10:16.435.15-Aug-2021 3416.50 5186.56 54.38 4.00  82.21 3268.90
   10:10:16.635.15-Aug-2021 3416.50 5186.12 54.38 4.00  82.41 3268.90
   10:10:16.835.15-Aug-2021 3416.50 5185.96 54.38 4.00  82.61 3268.90
   10:10:17.035.15-Aug-2021 3416.50 5186.09 54.38 4.00  82.81 3268.90
   10:10:17.235.15-Aug-2021 3416.50 5185.98 54.38 4.00  83.01 3268.90
   10:10:17.435.15-Aug-2021 3416.50 5185.98 54.38 4.00  83.21 3268.90
   10:10:17.635.15-Aug-2021 3416.50 5187.31 54.38 4.00  83.41 3268.90
   10:10:17.835.15-Aug-2021 3416.50 5185.89 54.38 4.00  83.61 3268.90
   10:10:18.035.15-Aug-2021 3416.50 5186.19 54.38 4.00  83.81 3268.90
   10:10:18.235.15-Aug-2021 3416.50 5186.05 54.38 4.00  84.01 3268.90
   10:10:18.435.15-Aug-2021 3416.50 5186.05 54.38 4.00  84.21 3268.90
   10:10:18.635.15-Aug-2021 3416.50 5187.17 54.38 4.00  84.41 3268.90
   10:10:18.835.15-Aug-2021 3416.50 5185.73 54.38 4.00  84.61 3268.90
   10:10:19.035.15-Aug-2021 3416.50 5186.22 54.38 4.00  84.81 3268.90
   10:10:19.235.15-Aug-2021 3416.50 5186.11 54.38 4.00  85.01 3268.90
   10:10:19.435.15-Aug-2021 3416.50 5186.11 54.38 4.00  85.21 3268.90
   10:10:19.635.15-Aug-2021 3416.50 5185.60 54.38 4.00  85.41 3268.90
   10:10:19.835.15-Aug-2021 3416.50 5187.12 54.38 4.00  85.61 3268.90
   10:10:20.035.15-Aug-2021 3416.50 5185.47 54.38 4.00  85.81 3268.90
   10:10:20.235.15-Aug-2021 3416.50 5186.17 54.38 4.00  86.01 3268.90
   10:10:20.435.15-Aug-2021 3416.50 5186.17 54.38 4.00  86.21 3268.90
   10:10:20.635.15-Aug-2021 3416.50 5187.14 54.38 4.00  86.41 3268.90
   10:10:20.835.15-Aug-2021 3416.50 5185.27 54.38 4.00  86.61 3268.90
   10:10:21.035.15-Aug-2021 3416.50 5186.03 54.38 4.00  86.81 3268.90
   10:10:21.235.15-Aug-2021 3416.50 5186.40 54.38 4.00  87.01 3268.90
   10:10:21.435.15-Aug-2021 3416.50 5186.40 54.38 4.00  87.21 3268.90
   10:10:21.636.15-Aug-2021 3416.50 5186.61 54.38 4.00  87.41 3268.90
   10:10:21.836.15-Aug-2021 3416.50 5185.70 54.38 4.00  87.61 3268.90
   10:10:22.036.15-Aug-2021 3416.50 5185.96 54.38 4.00  87.81 3268.90
   10:10:22.236.15-Aug-2021 3416.50 5186.32 54.38 4.00  88.01 3268.90
   10:10:22.436.15-Aug-2021 3416.50 5186.32 54.38 4.00  88.21 3268.90
   10:10:22.636.15-Aug-2021 3416.50 5185.67 54.38 4.00  88.41 3268.90
   10:10:22.836.15-Aug-2021 3416.50 5185.78 54.38 4.00  88.61 3268.90
   10:10:23.036.15-Aug-2021 3416.50 5186.37 54.38 4.00  88.81 3268.90
   10:10:23.236.15-Aug-2021 3416.50 5185.51 54.38 4.00  89.01 3268.90
   10:10:23.436.15-Aug-2021 3416.50 5185.51 54.38 4.00  89.21 3268.90
   10:10:23.636.15-Aug-2021 3416.50 5186.32 54.38 4.00  89.41 3268.90
   10:10:23.836.15-Aug-2021 3416.50 5185.91 54.38 4.00  89.61 3268.90
   10:10:24.036.15-Aug-2021 3416.50 5185.89 54.38 4.00  89.81 3268.90
   10:10:24.236.15-Aug-2021 3416.50 5186.42 54.38 4.00  90.01 3268.90
   10:10:24.436.15-Aug-2021 3416.50 5186.42 54.38 4.00  90.21 3268.90
   10:10:24.636.15-Aug-2021 3416.50 5186.06 54.38 4.00  90.41 3268.90
   10:10:24.836.15-Aug-2021 3416.50 5185.71 54.38 4.00  90.61 3268.90
   10:10:25.036.15-Aug-2021 3416.50 5185.95 54.38 4.00  90.81 3268.90
   10:10:25.236.15-Aug-2021 3416.50 5185.86 54.38 4.00  91.01 3268.90
   10:10:25.436.15-Aug-2021 3416.50 5185.86 54.38 4.00  91.21 3268.90
   10:10:25.636.15-Aug-2021 3416.50 5186.29 54.38 4.00  91.41 3268.90
   10:10:25.836.15-Aug-2021 3416.50 5185.71 54.38 4.00  91.61 3268.90
   10:10:26.036.15-Aug-2021 3416.50 5186.14 54.38 4.00  91.82 3268.90
