~Version Information
 VERS.                  2.0:   CWLS log ASCII Standard -VERSION 2.0
 WRAP.                   NO:   One line per depth step
~Well Information Block
#MNEM.UNIT     VALUE/NAME     DESCRIPTION
#---------     -----------    ---------------------------
 STRT.S             11:47:36 15-Aug-21: START TIME 11:47:36 15-Aug-21
 STOP.S             11:55:59 15-Aug-21: STOP TIME  11:55:59 15-Aug-21
 STEP.S                   0.00: STEP TIME
 NULL.                 -999.25: NULL VALUE
 DFWT.                        :  DIST FWL TEXT
 DFST.                        :  DIST FSL TEXT
 DMF .             Drill Floor:  DRILL MEAS FROM
 STIM.      17.18.56 20-Jun-21:  START TIME
 DATE.      17.18.56 20-Aug-21:  END TIME
 SPUD.               20-Jun-21:  SPUD DATE
 NREF.                    Grid:  NORTH REFERENCE
 HPTY.       Minimum Curvature:  HOLE POS TYPE
 DMOD.             Drill Model:  DRILL MOD DESC
 SVYD.                  Survey:  SURVEY DESC
 ILTD.               Lithology:  INTERP LTH DESC
 FTOP.          Formation Tops:  FORM TOPS DESC
 SON .        AZ-XX-0907056190:  JOB NUMBER
 PDAT.       Caspian Sea Level:  PERMANENT DATUM
 WTYP.                Deviated:  WELL TYPE
 MDS .        Operator Entered:  MAG DATA SOURCE
 COMP.     BP Exploration (Caspian Sea) Ltd.:  COMPANY
 UWI .            /AZE20000092:  UNIQUE WELL IDENTIFIER
 API .            /AZE20000092:  API NUMBER
 BASE.              Azerbaijan:  LOGGING EQUIPMENT BASE LOCATION
 REGN.                   EESSA:  REGION
 PROV.                    baku:  PROVINCE
 STAT.                    baku:  STATE NAME
 CTRY.              Azerbaijan:  COUNTRY NAME
 FLD .                     ACG:  FIELD NAME
 SRVC.          Turan Drilling:  CONTRACTOR
 MWDS.                    Baku:  MWD SHOP
 WELL.                     J26:  WELL NAME
 JOBN.        AZ-XX-0907056190:  JOB TICKET NUMB
 RIG .             West Chirag:  RIG NAME
 DOE .                     N/A:  DOE NUMBER
 DCON.         Sperry Drilling:  DIRECTNL CONTR
 UNIT.                     N/A:  LOGGING EQUIPMENT ID
 CNTY.                        :  COUNTY
 LOC .                        :  LOCATION
 LMF .             Drill Floor:  LOG MEASURED FROM
 TVDS.m                  43.00:  TVDSS CORRECTN
 LATI.deg                40.13:  LATITUDE
 LONG.deg                51.22:  LONGITUDE
 WHNS.m                  -7.12:  WELL HEAD N/S
 WHEW.m                  -9.46:  WELL HEAD E/W
 UTMX.m              519004.02:  UTM X
 UTMY.m             4443784.96:  UTM Y
 DFWL.m                   0.00:  DISTANCE FWL
 DFSL.m                   0.00:  DISTANCE FSL
 SDEP.m                 464.00:  START DEPTH
 TDD .m                3500.00:  TOTAL DEPTH (DRILLER)
 VSDR.deg               114.35:  VERT SEC DIRECT
 GVFD.g                   1.00:  GRAVITY FIELD
 MFLD.nT              50386.00:  MAGNETIC FIELD
 MDIP.deg                59.63:  MAGNETIC DIP
 MDEC.deg                 6.43:  MAGNETIC DECL
 GRDC.deg                 0.15:  GRID CORRECTION
 AZTC.deg                 6.29:  AZM TOTAL CORR
 EPD .m                   0.00:  ELEVATION
 EGL .m                   0.00:  GROUND ELEVATION
 WDMS.m                 169.80:  WD ELEV
 APD .m                  43.00:  DEPTH ABOVE PD
 VSEW.m                  -9.46:  VERT SEC E/W
 VSNS.m                  -7.12:  VERT SEC N/S
 AGAP.m                  43.00:  AIR GAP
 DEP .m                 356.16:  DEPTH
 EKB .m                  43.00:  KB ELEVATION
 EDF .m                  43.00:  DF ELEVATION
 TDL .m                 699.00:  TOTAL DEPTH (LOGGER)
 VSC .                       0:  VS TO CLOSURE
 MAGU.                 1853727:  MAGUTM CHECKSUM
~Parameter Information Block
#MNEM.UNIT       Value        Description
#---------     -----------    ---------------------------
 AV  .mps                 1.30:  Ann Velocity 
 AVMX.mps                 1.67:  Max Ann Veloc 
 AZIF.deg               280.40:  Azm, Final 
 BHAT.        Rotary Steerable:  BHA Type 
 BREV.rev            528970.00:  Rev Bit Total 
 BROT.°/30m               1.00:  Build Rotating 
 BS  .in                 12.25:  Bit Size 
 BSZ .in                 12.25:  Bit Size 
 BTPL.psig              738.00:  Bit Press Loss 
 CABU.                     Yes:  Customer Abuse 
 CGEO.        Elvin Suleymanov:  Customer Geo 
 COMM.                     lþe:  Run Comments 1 
 TCS .hr                 66.05:  Time Ciculation Ended 
 CV  .mps                 2.20:  Crit Velocity 
 CVMX.mps                 2.56:  Max Crit Veloc 
 DD1 .          Rashad Habibov:  Direct Drillr 1 
 DD2 .            Azer ravanov:  Direct Drillr 2 
 DD3 .           Teymur Agayev:  Direct Drillr 3 
 DDSV.               Geo-Pilot:  DD Service 
 DEFF.%                  90.00:  % Det Eff 
 DLRX.°/30m               2.95:  Dogleg Rot Max 
 DLSO.°/30m               1.00:  Dogleg Oriented 
 DLSX.°/30m               2.95:  Dogleg Str Max 
 DRET.      11.42.20 11-Aug-21:  Drill End Time 
 DRST.      23.03.20 08-Aug-21:  Drill Start Tim 
 DTIM.hr                 45.50:  Time Drilling 
 EDEP.m                3488.00:  End Depth 
 ENG1.         Marcelo Marcari:  Engineer 1 
 ENG2.         Dair Mahammadov:  Engineer 2 
 ENG3.       Davud Huseyn-zada:  Engineer 3 
 ENG4.         Yevgeniy Ulikov:  Engineer 4 
 ETIM.      17.45.20 17-Aug-21:  End Time 
 FLOI.gpm              1197.70:  Flow In 
 FLON.gpm              1100.00:  Flow In Min 
 FLOS.cptm                0.00:  Fluid Loss 
 FLOX.gpm              1200.00:  Flow In Max 
 DFT .        Mineral Oil Base:  Mud Type 
 FTRO.       Formation Presure:  FTWD Run Obj 
 HFLO.                      No:  High Flow 
 HPRE.                      No:  High Pressure 
 HTEM.                      No:  High Temp 
 HYDO.m                   1.80:  Hydro Offset 
 IFIN.deg                 9.87:  Inc, Final 
 IMAX.deg                19.96:  Inc Max 
 IMIN.deg                 3.82:  Inc Min 
 IMND.m                3257.42:  Inc Min Depth 
 IMXD.m                2945.53:  Inc Max Depth 
 JARR.                      No:  Jarring 
 LETM.      11.42.20 11-Aug-21:  Log End Time 
 LOST.hr                     0:  Lost Rig Time 
 LSTM.      23.03.20 08-Aug-21:  Log Start Time 
 MDCL.ppm             42500.00:  Mud Chlorides 
 MDES.     Inversion Oil/Synthetic:  Mud Desc 
 DFD .sg                  1.45:  Mud Density 
 MDMN.sg                  1.39:  Dens Mud Min 
 MDMX.sg                  1.57:  Dens Mud Max 
 MOIL.                   53.20:  Run Mud Oil % 
 MOWR.                   70:30:  Run Mud OWR 
 MSND.                       0:  Run Mud Sand % 
 MSOL.                   24.30:  Run Mud Solids% 
 DFV .spqt               79.00:  Mud Viscosity 
 MWOD.in                  8.00:  MWD Tool OD 
 MWSI.                      No:  Serv Intrp, MWD 
 OTIM.hr                253.06:  Time Operating 
 PCON.           Look Like New:  Pad Condition 
 PMAX.psia            11068.93:  Press Op, Max 
 PV  .cP                 36.00:  Mud PV 
 RUN .                    1000:  Run Number 
 ROPA.m/hr               15.34:  ROP Avg 
 ROPN.m/hr                4.00:  ROP Min 
 ROPX.m/hr               31.00:  ROP Max 
 RPMA.rpm               151.40:  RPM Surface Avg 
 RPMN.rpm               120.00:  RPM Surface Min 
 RPMX.rpm               160.00:  RPM Surface Max 
 RRUN.                    L505:  Rig Run Number 
 RTIM.hr                 10.00:  Time Reaming 
 SAZI.deg                88.92:  Azm, Start 
 SDEP.m                2789.00:  Start Depth 
 SIDD.                      No:  Serv Intrp, DD 
 SINC.deg                19.84:  Inc, Start 
 SPPA.psig             4421.39:  SPP Avg 
 SPPN.psig             4130.00:  SPP Min 
 SPPX.psig             4800.00:  SPP Max 
 STIM.      01.25.20 07-Aug-21:  Start Time 
 SVCS.                 DD, MWD:  Services 
 SVER.                    9.20:  Sperry Version 
 TDAT.m                 699.00:  Tot Depth Attmp 
 TDDF.                      No:  Trip for DD 
 TDLG.m                 699.00:  Tot Depth Loggd 
 TFF .                      No:  Trip for Fail 
 TQAA.f-kp               20.55:  Torque Abs Avg 
 TQAN.f-kp               15.00:  Torque Abs Min 
 TQAX.f-kp               24.00:  Torque Abs Max 
 TRRT.°/30m               0.50:  Turn Rotating 
 MRT .                    HCIM:  Maximum Recorded Temperature 
 TTMX.degC               82.35:  Max Tool Temp 
 VS01.                90654677:  Virtual Str1 SN 
 VS02.                90636294:  Virtual Str2 SN 
 VS03.                90653866:  Virtual Str3 SN 
 VS04.                90654674:  Virtual Str4 SN 
 WBMN.klb                10.00:  WOB Min 
 WITN.         Haytham Mostafa:  Customer Rep 
 WITN.           Rufat Babayev:  Customer Rep 2 
 WOBA.klb                22.43:  WOB Avg 
 WOBX.klb                35.00:  WOB Max 
 YP  .lhf2               32.00:  Yield Point 
~Curve Information Block
#MNEM.UNIT                 API CODE     Curve Description
#---------               -----------    ---------------------------
 TIME.HHMMSS            00 000 000 000:  GT Time & Date
 GTDEPTH.m              00 000 000 000:  GT Depth
 GTPQH.psia             00 000 000 000:  GT HR Quartz Pressure
 GTTQ.degC              00 000 000 000:  GT Quartz Temperature
 GTTN.NONE              00 000 000 000:  GT Test Number
 GTET.sec               00 000 000 000:  GT Elapsed Test Time
 GTTVD.m                00 000 000 000:  GT True Vertical Depth
#Other Information
#
#WARRANTY: Halliburton will use its best efforts to furnish customers with 
#accurate information and interpretations that are part of, and incident to, the services 
#provided.  However, Halliburton cannot and does not warrant the accuracy 
#or correctness of such information and interpretations.  Under no circumstances should any 
#such information or interpretation be relied upon as the sole basis for any drilling, 
#completion, production, or financial decision or any procedure involving any risk to the 
#safety of any drilling venture, drilling rig or its crew or any other third party.  The 
#Customer has full responsibility for all drilling, completion and production operation.  
#Halliburton makes no representations or warranties, either expressed or 
#implied, including, but not limited to, the implied warranties of merchantability or fitness 
#for a particular purpose, with respect to the services rendered.  In no event will 
#Halliburton be liable for failure to obtain any particular results or for 
#any damages, including, but not limited to, indirect, special or consequential damages, 
#resulting from the use of any information or interpretation provided by Halliburton.
#
~A           TIME           GTDEPTH  GTPQH  GTTQ  GTTN  GTET   GTTVD  
# ...
   11:55:16.020.15-Aug-2021 3405.50 1962.29 53.72 5.00 459.72 3258.07
   11:55:16.220.15-Aug-2021 3405.50 1962.29 53.72 5.00 459.92 3258.07
   11:55:16.420.15-Aug-2021 3405.50 1963.16 53.72 5.00 460.12 3258.07
   11:55:16.620.15-Aug-2021 3405.50 1963.62 53.72 5.00 460.32 3258.07
   11:55:16.820.15-Aug-2021 3405.50 1963.84 53.72 5.00 460.52 3258.07
   11:55:17.019.15-Aug-2021 3405.50 1964.57 53.72 5.00 460.72 3258.07
   11:55:17.219.15-Aug-2021 3405.50 1964.57 53.72 5.00 460.92 3258.07
   11:55:17.419.15-Aug-2021 3405.50 1964.91 53.72 5.00 461.12 3258.07
   11:55:17.619.15-Aug-2021 3405.50 1965.54 53.72 5.00 461.32 3258.07
   11:55:17.819.15-Aug-2021 3405.50 1965.83 53.72 5.00 461.52 3258.07
   11:55:18.019.15-Aug-2021 3405.50 1966.44 53.72 5.00 461.72 3258.07
   11:55:18.219.15-Aug-2021 3405.50 1966.44 53.72 5.00 461.92 3258.07
   11:55:18.419.15-Aug-2021 3405.50 1966.75 53.71 5.00 462.12 3258.07
   11:55:18.618.15-Aug-2021 3405.50 1967.17 53.71 5.00 462.32 3258.07
   11:55:18.818.15-Aug-2021 3405.50 1967.54 53.71 5.00 462.52 3258.07
   11:55:19.018.15-Aug-2021 3405.50 1967.88 53.71 5.00 462.72 3258.07
   11:55:19.218.15-Aug-2021 3405.50 1967.88 53.71 5.00 462.92 3258.07
   11:55:19.418.15-Aug-2021 3405.50 1968.41 53.71 5.00 463.12 3258.07
   11:55:19.618.15-Aug-2021 3405.50 1968.79 53.71 5.00 463.32 3258.07
   11:55:19.818.15-Aug-2021 3405.50 1969.35 53.71 5.00 463.52 3258.07
   11:55:20.018.15-Aug-2021 3405.50 1969.62 53.71 5.00 463.72 3258.07
   11:55:20.217.15-Aug-2021 3405.50 1969.62 53.71 5.00 463.92 3258.07
   11:55:20.417.15-Aug-2021 3405.50 1970.50 53.71 5.00 464.12 3258.07
   11:55:20.617.15-Aug-2021 3405.50 1970.97 53.71 5.00 464.32 3258.07
   11:55:20.817.15-Aug-2021 3405.50 1971.26 53.71 5.00 464.52 3258.07
   11:55:21.017.15-Aug-2021 3405.50 1972.00 53.71 5.00 464.72 3258.07
   11:55:21.217.15-Aug-2021 3405.50 1972.00 53.71 5.00 464.92 3258.07
   11:55:21.417.15-Aug-2021 3405.50 1972.73 53.71 5.00 465.12 3258.07
   11:55:21.617.15-Aug-2021 3405.50 1972.97 53.71 5.00 465.32 3258.07
   11:55:21.817.15-Aug-2021 3405.50 1973.17 53.71 5.00 465.52 3258.07
   11:55:22.016.15-Aug-2021 3405.50 1973.59 53.71 5.00 465.72 3258.07
   11:55:22.216.15-Aug-2021 3405.50 1973.59 53.71 5.00 465.92 3258.07
   11:55:22.416.15-Aug-2021 3405.50 1974.65 53.71 5.00 466.12 3258.07
   11:55:22.616.15-Aug-2021 3405.50 1974.97 53.71 5.00 466.32 3258.07
   11:55:22.816.15-Aug-2021 3405.50 1975.25 53.71 5.00 466.52 3258.07
   11:55:23.016.15-Aug-2021 3405.50 1975.55 53.71 5.00 466.72 3258.07
   11:55:23.216.15-Aug-2021 3405.50 1975.55 53.71 5.00 466.92 3258.07
   11:55:23.416.15-Aug-2021 3405.50 1976.69 53.71 5.00 467.12 3258.07
   11:55:23.615.15-Aug-2021 3405.50 1976.50 53.71 5.00 467.32 3258.07
   11:55:23.815.15-Aug-2021 3405.50 1977.17 53.71 5.00 467.52 3258.07
   11:55:24.015.15-Aug-2021 3405.50 1977.57 53.71 5.00 467.72 3258.07
   11:55:24.215.15-Aug-2021 3405.50 1977.57 53.71 5.00 467.92 3258.07
   11:55:24.415.15-Aug-2021 3405.50 1978.16 53.71 5.00 468.12 3258.07
   11:55:24.615.15-Aug-2021 3405.50 1978.82 53.71 5.00 468.32 3258.07
   11:55:24.815.15-Aug-2021 3405.50 1978.96 53.71 5.00 468.52 3258.07
   11:55:25.015.15-Aug-2021 3405.50 1979.40 53.71 5.00 468.72 3258.07
   11:55:25.214.15-Aug-2021 3405.50 1979.40 53.71 5.00 468.92 3258.07
   11:55:25.414.15-Aug-2021 3405.50 1979.60 53.71 5.00 469.12 3258.07
   11:55:25.614.15-Aug-2021 3405.50 1980.63 53.71 5.00 469.32 3258.07
   11:55:25.814.15-Aug-2021 3405.50 1980.98 53.71 5.00 469.52 3258.07
   11:55:26.014.15-Aug-2021 3405.50 1981.21 53.71 5.00 469.72 3258.07
   11:55:26.214.15-Aug-2021 3405.50 1981.21 53.71 5.00 469.92 3258.07
   11:55:26.414.15-Aug-2021 3405.50 1981.81 53.71 5.00 470.12 3258.07
   11:55:26.614.15-Aug-2021 3405.50 1982.38 53.71 5.00 470.32 3258.07
   11:55:26.814.15-Aug-2021 3405.50 1982.20 53.71 5.00 470.52 3258.07
   11:55:27.013.15-Aug-2021 3405.50 1982.88 53.71 5.00 470.72 3258.07
   11:55:27.213.15-Aug-2021 3405.50 1982.88 53.71 5.00 470.92 3258.07
   11:55:27.413.15-Aug-2021 3405.50 4789.28 53.71 5.00 471.12 3258.07
   11:55:27.613.15-Aug-2021 3405.50 7445.85 53.71 5.00 471.32 3258.07
   11:55:27.813.15-Aug-2021 3405.50 7444.81 53.71 5.00 471.52 3258.07
   11:55:28.013.15-Aug-2021 3405.50 7445.20 53.71 5.00 471.72 3258.07
   11:55:28.213.15-Aug-2021 3405.50 7445.20 53.71 5.00 471.92 3258.07
   11:55:28.413.15-Aug-2021 3405.50 7448.91 53.71 5.00 472.12 3258.07
   11:55:28.612.15-Aug-2021 3405.50 7445.73 53.71 5.00 472.32 3258.07
   11:55:28.812.15-Aug-2021 3405.50 7446.33 53.72 5.00 472.52 3258.07
   11:55:29.012.15-Aug-2021 3405.50 7449.05 53.72 5.00 472.72 3258.07
   11:55:29.212.15-Aug-2021 3405.50 7449.05 53.72 5.00 472.92 3258.07
   11:55:29.412.15-Aug-2021 3405.50 7452.76 53.72 5.00 473.12 3258.07
   11:55:29.612.15-Aug-2021 3405.50 7453.57 53.73 5.00 473.32 3258.07
   11:55:29.812.15-Aug-2021 3405.50 7457.10 53.73 5.00 473.52 3258.07
   11:55:30.012.15-Aug-2021 3405.50 7455.03 53.74 5.00 473.71 3258.07
   11:55:30.211.15-Aug-2021 3405.50 7455.03 53.74 5.00 473.91 3258.07
   11:55:30.411.15-Aug-2021 3405.50 7453.73 53.74 5.00 474.11 3258.07
   11:55:30.611.15-Aug-2021 3405.50 7456.14 53.75 5.00 474.31 3258.07
   11:55:30.811.15-Aug-2021 3405.50 7456.30 53.75 5.00 474.51 3258.07
   11:55:31.011.15-Aug-2021 3405.50 7456.03 53.76 5.00 474.71 3258.07
   11:55:31.211.15-Aug-2021 3405.50 7456.03 53.76 5.00 474.91 3258.07
   11:55:31.411.15-Aug-2021 3405.50 7456.34 53.76 5.00 475.11 3258.07
   11:55:31.611.15-Aug-2021 3405.50 7457.52 53.77 5.00 475.31 3258.07
   11:55:31.810.15-Aug-2021 3405.50 7456.31 53.77 5.00 475.51 3258.07
   11:55:32.010.15-Aug-2021 3405.50 7456.78 53.78 5.00 475.71 3258.07
   11:55:32.210.15-Aug-2021 3405.50 7456.78 53.78 5.00 475.91 3258.07
   11:55:32.410.15-Aug-2021 3405.50 7457.37 53.78 5.00 476.11 3258.07
   11:55:32.610.15-Aug-2021 3405.50 7458.11 53.79 5.00 476.31 3258.07
   11:55:32.810.15-Aug-2021 3405.50 7459.29 53.79 5.00 476.51 3258.07
   11:55:33.010.15-Aug-2021 3405.50 7459.20 53.79 5.00 476.71 3258.07
   11:55:33.210.15-Aug-2021 3405.50 7459.20 53.79 5.00 476.91 3258.07
   11:55:33.410.15-Aug-2021 3405.50 7456.68 53.80 5.00 477.11 3258.07
   11:55:33.609.15-Aug-2021 3405.50 7458.59 53.80 5.00 477.31 3258.07
   11:55:33.809.15-Aug-2021 3405.50 7456.92 53.81 5.00 477.51 3258.07
   11:55:34.009.15-Aug-2021 3405.50 7458.91 53.81 5.00 477.71 3258.07
   11:55:34.209.15-Aug-2021 3405.50 7458.91 53.81 5.00 477.91 3258.07
   11:55:34.409.15-Aug-2021 3405.50 7461.04 53.81 5.00 478.11 3258.07
   11:55:34.609.15-Aug-2021 3405.50 7458.44 53.82 5.00 478.31 3258.07
   11:55:34.809.15-Aug-2021 3405.50 7458.60 53.82 5.00 478.51 3258.07
   11:55:35.009.15-Aug-2021 3405.50 7459.07 53.82 5.00 478.71 3258.07
   11:55:35.208.15-Aug-2021 3405.50 7459.07 53.82 5.00 478.91 3258.07
   11:55:35.408.15-Aug-2021 3405.50 7457.72 53.82 5.00 479.11 3258.07
   11:55:35.608.15-Aug-2021 3405.50 7458.60 53.83 5.00 479.31 3258.07
   11:55:35.808.15-Aug-2021 3405.50 7459.00 53.83 5.00 479.51 3258.07
   11:55:36.008.15-Aug-2021 3405.50 7460.03 53.83 5.00 479.71 3258.07
   11:55:36.208.15-Aug-2021 3405.50 7460.03 53.83 5.00 479.91 3258.07
   11:55:36.408.15-Aug-2021 3405.50 7458.67 53.83 5.00 480.11 3258.07
   11:55:36.608.15-Aug-2021 3405.50 7457.76 53.83 5.00 480.31 3258.07
   11:55:36.807.15-Aug-2021 3405.50 7456.56 53.83 5.00 480.51 3258.07
   11:55:37.007.15-Aug-2021 3405.50 7456.79 53.83 5.00 480.71 3258.07
   11:55:37.207.15-Aug-2021 3405.50 7456.79 53.83 5.00 480.91 3258.07
   11:55:37.407.15-Aug-2021 3405.50 7459.26 53.84 5.00 481.11 3258.07
   11:55:37.607.15-Aug-2021 3405.50 7459.88 53.84 5.00 481.31 3258.07
   11:55:37.807.15-Aug-2021 3405.50 7459.14 53.84 5.00 481.51 3258.07
   11:55:38.007.15-Aug-2021 3405.50 7460.27 53.84 5.00 481.71 3258.07
   11:55:38.207.15-Aug-2021 3405.50 7460.27 53.84 5.00 481.91 3258.07
   11:55:38.407.15-Aug-2021 3405.50 7457.41 53.84 5.00 482.11 3258.07
   11:55:38.606.15-Aug-2021 3405.50 7459.34 53.84 5.00 482.31 3258.07
   11:55:38.806.15-Aug-2021 3405.50 7459.66 53.84 5.00 482.51 3258.07
