~Version Information
 VERS.                  2.0:   CWLS log ASCII Standard -VERSION 2.0
 WRAP.                   NO:   One line per depth step
~Well Information Block
#MNEM.UNIT     VALUE/NAME     DESCRIPTION
#---------     -----------    ---------------------------
 STRT.S             09:29:08 15-Aug-21: START TIME 09:29:08 15-Aug-21
 STOP.S             09:37:37 15-Aug-21: STOP TIME  09:37:37 15-Aug-21
 STEP.S                   0.00: STEP TIME
 NULL.                 -999.25: NULL VALUE
 DFWT.                        :  DIST FWL TEXT
 DFST.                        :  DIST FSL TEXT
 DMF .             Drill Floor:  DRILL MEAS FROM
 STIM.      17.18.56 20-Jun-21:  START TIME
 DATE.      17.18.56 20-Aug-21:  END TIME
 SPUD.               20-Jun-21:  SPUD DATE
 NREF.                    Grid:  NORTH REFERENCE
 HPTY.       Minimum Curvature:  HOLE POS TYPE
 DMOD.             Drill Model:  DRILL MOD DESC
 SVYD.                  Survey:  SURVEY DESC
 ILTD.               Lithology:  INTERP LTH DESC
 FTOP.          Formation Tops:  FORM TOPS DESC
 SON .        AZ-XX-0907056190:  JOB NUMBER
 PDAT.       Caspian Sea Level:  PERMANENT DATUM
 WTYP.                Deviated:  WELL TYPE
 MDS .        Operator Entered:  MAG DATA SOURCE
 COMP.     BP Exploration (Caspian Sea) Ltd.:  COMPANY
 UWI .            /AZE20000092:  UNIQUE WELL IDENTIFIER
 API .            /AZE20000092:  API NUMBER
 BASE.              Azerbaijan:  LOGGING EQUIPMENT BASE LOCATION
 REGN.                   EESSA:  REGION
 PROV.                    baku:  PROVINCE
 STAT.                    baku:  STATE NAME
 CTRY.              Azerbaijan:  COUNTRY NAME
 FLD .                     ACG:  FIELD NAME
 SRVC.          Turan Drilling:  CONTRACTOR
 MWDS.                    Baku:  MWD SHOP
 WELL.                     J26:  WELL NAME
 JOBN.        AZ-XX-0907056190:  JOB TICKET NUMB
 RIG .             West Chirag:  RIG NAME
 DOE .                     N/A:  DOE NUMBER
 DCON.         Sperry Drilling:  DIRECTNL CONTR
 UNIT.                     N/A:  LOGGING EQUIPMENT ID
 CNTY.                        :  COUNTY
 LOC .                        :  LOCATION
 LMF .             Drill Floor:  LOG MEASURED FROM
 TVDS.m                  43.00:  TVDSS CORRECTN
 LATI.deg                40.13:  LATITUDE
 LONG.deg                51.22:  LONGITUDE
 WHNS.m                  -7.12:  WELL HEAD N/S
 WHEW.m                  -9.46:  WELL HEAD E/W
 UTMX.m              519004.02:  UTM X
 UTMY.m             4443784.96:  UTM Y
 DFWL.m                   0.00:  DISTANCE FWL
 DFSL.m                   0.00:  DISTANCE FSL
 SDEP.m                 464.00:  START DEPTH
 TDD .m                3500.00:  TOTAL DEPTH (DRILLER)
 VSDR.deg               114.35:  VERT SEC DIRECT
 GVFD.g                   1.00:  GRAVITY FIELD
 MFLD.nT              50386.00:  MAGNETIC FIELD
 MDIP.deg                59.63:  MAGNETIC DIP
 MDEC.deg                 6.43:  MAGNETIC DECL
 GRDC.deg                 0.15:  GRID CORRECTION
 AZTC.deg                 6.29:  AZM TOTAL CORR
 EPD .m                   0.00:  ELEVATION
 EGL .m                   0.00:  GROUND ELEVATION
 WDMS.m                 169.80:  WD ELEV
 APD .m                  43.00:  DEPTH ABOVE PD
 VSEW.m                  -9.46:  VERT SEC E/W
 VSNS.m                  -7.12:  VERT SEC N/S
 AGAP.m                  43.00:  AIR GAP
 DEP .m                 356.16:  DEPTH
 EKB .m                  43.00:  KB ELEVATION
 EDF .m                  43.00:  DF ELEVATION
 TDL .m                 699.00:  TOTAL DEPTH (LOGGER)
 VSC .                       0:  VS TO CLOSURE
 MAGU.                 1853727:  MAGUTM CHECKSUM
~Parameter Information Block
#MNEM.UNIT       Value        Description
#---------     -----------    ---------------------------
 AV  .mps                 1.30:  Ann Velocity 
 AVMX.mps                 1.67:  Max Ann Veloc 
 AZIF.deg               280.40:  Azm, Final 
 BHAT.        Rotary Steerable:  BHA Type 
 BREV.rev            528970.00:  Rev Bit Total 
 BROT.°/30m               1.00:  Build Rotating 
 BS  .in                 12.25:  Bit Size 
 BSZ .in                 12.25:  Bit Size 
 BTPL.psig              738.00:  Bit Press Loss 
 CABU.                     Yes:  Customer Abuse 
 CGEO.        Elvin Suleymanov:  Customer Geo 
 COMM.                     œR:  Run Comments 1 
 TCS .hr                 66.05:  Time Ciculation Ended 
 CV  .mps                 2.20:  Crit Velocity 
 CVMX.mps                 2.56:  Max Crit Veloc 
 DD1 .          Rashad Habibov:  Direct Drillr 1 
 DD2 .            Azer ravanov:  Direct Drillr 2 
 DD3 .           Teymur Agayev:  Direct Drillr 3 
 DDSV.               Geo-Pilot:  DD Service 
 DEFF.%                  90.00:  % Det Eff 
 DLRX.°/30m               2.95:  Dogleg Rot Max 
 DLSO.°/30m               1.00:  Dogleg Oriented 
 DLSX.°/30m               2.95:  Dogleg Str Max 
 DRET.      11.42.20 11-Aug-21:  Drill End Time 
 DRST.      23.03.20 08-Aug-21:  Drill Start Tim 
 DTIM.hr                 45.50:  Time Drilling 
 EDEP.m                3488.00:  End Depth 
 ENG1.         Marcelo Marcari:  Engineer 1 
 ENG2.         Dair Mahammadov:  Engineer 2 
 ENG3.       Davud Huseyn-zada:  Engineer 3 
 ENG4.         Yevgeniy Ulikov:  Engineer 4 
 ETIM.      17.45.20 17-Aug-21:  End Time 
 FLOI.gpm              1197.70:  Flow In 
 FLON.gpm              1100.00:  Flow In Min 
 FLOS.cptm                0.00:  Fluid Loss 
 FLOX.gpm              1200.00:  Flow In Max 
 DFT .        Mineral Oil Base:  Mud Type 
 FTRO.       Formation Presure:  FTWD Run Obj 
 HFLO.                      No:  High Flow 
 HPRE.                      No:  High Pressure 
 HTEM.                      No:  High Temp 
 HYDO.m                   1.80:  Hydro Offset 
 IFIN.deg                 9.87:  Inc, Final 
 IMAX.deg                19.96:  Inc Max 
 IMIN.deg                 3.82:  Inc Min 
 IMND.m                3257.42:  Inc Min Depth 
 IMXD.m                2945.53:  Inc Max Depth 
 JARR.                      No:  Jarring 
 LETM.      11.42.20 11-Aug-21:  Log End Time 
 LOST.hr                     0:  Lost Rig Time 
 LSTM.      23.03.20 08-Aug-21:  Log Start Time 
 MDCL.ppm             42500.00:  Mud Chlorides 
 MDES.     Inversion Oil/Synthetic:  Mud Desc 
 DFD .sg                  1.45:  Mud Density 
 MDMN.sg                  1.39:  Dens Mud Min 
 MDMX.sg                  1.57:  Dens Mud Max 
 MOIL.                   53.20:  Run Mud Oil % 
 MOWR.                   70:30:  Run Mud OWR 
 MSND.                       0:  Run Mud Sand % 
 MSOL.                   24.30:  Run Mud Solids% 
 DFV .spqt               79.00:  Mud Viscosity 
 MWOD.in                  8.00:  MWD Tool OD 
 MWSI.                      No:  Serv Intrp, MWD 
 OTIM.hr                253.06:  Time Operating 
 PCON.           Look Like New:  Pad Condition 
 PMAX.psia            11068.93:  Press Op, Max 
 PV  .cP                 36.00:  Mud PV 
 RUN .                    1000:  Run Number 
 ROPA.m/hr               15.34:  ROP Avg 
 ROPN.m/hr                4.00:  ROP Min 
 ROPX.m/hr               31.00:  ROP Max 
 RPMA.rpm               151.40:  RPM Surface Avg 
 RPMN.rpm               120.00:  RPM Surface Min 
 RPMX.rpm               160.00:  RPM Surface Max 
 RRUN.                    L505:  Rig Run Number 
 RTIM.hr                 10.00:  Time Reaming 
 SAZI.deg                88.92:  Azm, Start 
 SDEP.m                2789.00:  Start Depth 
 SIDD.                      No:  Serv Intrp, DD 
 SINC.deg                19.84:  Inc, Start 
 SPPA.psig             4421.39:  SPP Avg 
 SPPN.psig             4130.00:  SPP Min 
 SPPX.psig             4800.00:  SPP Max 
 STIM.      01.25.20 07-Aug-21:  Start Time 
 SVCS.                 DD, MWD:  Services 
 SVER.                    9.20:  Sperry Version 
 TDAT.m                 699.00:  Tot Depth Attmp 
 TDDF.                      No:  Trip for DD 
 TDLG.m                 699.00:  Tot Depth Loggd 
 TFF .                      No:  Trip for Fail 
 TQAA.f-kp               20.55:  Torque Abs Avg 
 TQAN.f-kp               15.00:  Torque Abs Min 
 TQAX.f-kp               24.00:  Torque Abs Max 
 TRRT.°/30m               0.50:  Turn Rotating 
 MRT .                    HCIM:  Maximum Recorded Temperature 
 TTMX.degC               82.35:  Max Tool Temp 
 VS01.                90654677:  Virtual Str1 SN 
 VS02.                90636294:  Virtual Str2 SN 
 VS03.                90653866:  Virtual Str3 SN 
 VS04.                90654674:  Virtual Str4 SN 
 WBMN.klb                10.00:  WOB Min 
 WITN.         Haytham Mostafa:  Customer Rep 
 WITN.           Rufat Babayev:  Customer Rep 2 
 WOBA.klb                22.43:  WOB Avg 
 WOBX.klb                35.00:  WOB Max 
 YP  .lhf2               32.00:  Yield Point 
~Curve Information Block
#MNEM.UNIT                 API CODE     Curve Description
#---------               -----------    ---------------------------
 TIME.HHMMSS            00 000 000 000:  GT Time & Date
 GTDEPTH.m              00 000 000 000:  GT Depth
 GTPQH.psia             00 000 000 000:  GT HR Quartz Pressure
 GTTQ.degC              00 000 000 000:  GT Quartz Temperature
 GTTN.NONE              00 000 000 000:  GT Test Number
 GTET.sec               00 000 000 000:  GT Elapsed Test Time
 GTTVD.m                00 000 000 000:  GT True Vertical Depth
#Other Information
#
#WARRANTY: Halliburton will use its best efforts to furnish customers with 
#accurate information and interpretations that are part of, and incident to, the services 
#provided.  However, Halliburton cannot and does not warrant the accuracy 
#or correctness of such information and interpretations.  Under no circumstances should any 
#such information or interpretation be relied upon as the sole basis for any drilling, 
#completion, production, or financial decision or any procedure involving any risk to the 
#safety of any drilling venture, drilling rig or its crew or any other third party.  The 
#Customer has full responsibility for all drilling, completion and production operation.  
#Halliburton makes no representations or warranties, either expressed or 
#implied, including, but not limited to, the implied warranties of merchantability or fitness 
#for a particular purpose, with respect to the services rendered.  In no event will 
#Halliburton be liable for failure to obtain any particular results or for 
#any damages, including, but not limited to, indirect, special or consequential damages, 
#resulting from the use of any information or interpretation provided by Halliburton.
#
~A           TIME           GTDEPTH  GTPQH  GTTQ  GTTN  GTET   GTTVD  
# ...
   09:30:40.846.15-Aug-2021 3421.80 4096.04 55.07 3.00  92.02 3274.11
   09:30:41.046.15-Aug-2021 3421.80 4096.04 55.07 3.00  92.22 3274.11
   09:30:41.246.15-Aug-2021 3421.80 4114.50 55.07 3.00  92.42 3274.11
   09:30:41.446.15-Aug-2021 3421.80 4123.75 55.07 3.00  92.62 3274.11
   09:30:41.646.15-Aug-2021 3421.80 4132.72 55.07 3.00  92.82 3274.11
   09:30:41.846.15-Aug-2021 3421.80 4141.41 55.07 3.00  93.02 3274.11
   09:30:42.046.15-Aug-2021 3421.80 4141.41 55.07 3.00  93.22 3274.11
   09:30:42.246.15-Aug-2021 3421.80 4159.11 55.07 3.00  93.42 3274.11
   09:30:42.446.15-Aug-2021 3421.80 4167.87 55.07 3.00  93.62 3274.11
   09:30:42.646.15-Aug-2021 3421.80 4176.78 55.07 3.00  93.82 3274.11
   09:30:42.846.15-Aug-2021 3421.80 4185.84 55.07 3.00  94.02 3274.11
   09:30:43.046.15-Aug-2021 3421.80 4185.84 55.07 3.00  94.22 3274.11
   09:30:43.246.15-Aug-2021 3421.80 4202.02 55.07 3.00  94.42 3274.11
   09:30:43.446.15-Aug-2021 3421.80 4210.29 55.07 3.00  94.62 3274.11
   09:30:43.646.15-Aug-2021 3421.80 4218.53 55.07 3.00  94.82 3274.11
   09:30:43.846.15-Aug-2021 3421.80 4226.86 55.07 3.00  95.02 3274.11
   09:30:44.046.15-Aug-2021 3421.80 4226.86 55.07 3.00  95.22 3274.11
   09:30:44.246.15-Aug-2021 3421.80 4243.26 55.08 3.00  95.42 3274.11
   09:30:44.446.15-Aug-2021 3421.80 4251.17 55.08 3.00  95.62 3274.11
   09:30:44.646.15-Aug-2021 3421.80 4259.44 55.08 3.00  95.82 3274.11
   09:30:44.846.15-Aug-2021 3421.80 4266.03 55.08 3.00  96.02 3274.11
   09:30:45.046.15-Aug-2021 3421.80 4266.03 55.08 3.00  96.22 3274.11
   09:30:45.246.15-Aug-2021 3421.80 4281.80 55.08 3.00  96.42 3274.11
   09:30:45.446.15-Aug-2021 3421.80 4289.15 55.08 3.00  96.62 3274.11
   09:30:45.647.15-Aug-2021 3421.80 4296.65 55.08 3.00  96.82 3274.11
   09:30:45.847.15-Aug-2021 3421.80 4304.75 55.08 3.00  97.02 3274.11
   09:30:46.047.15-Aug-2021 3421.80 4304.75 55.08 3.00  97.22 3274.11
   09:30:46.247.15-Aug-2021 3421.80 4318.65 55.08 3.00  97.42 3274.11
   09:30:46.447.15-Aug-2021 3421.80 4325.88 55.08 3.00  97.62 3274.11
   09:30:46.647.15-Aug-2021 3421.80 4333.30 55.08 3.00  97.82 3274.11
   09:30:46.847.15-Aug-2021 3421.80 4339.67 55.08 3.00  98.02 3274.11
   09:30:47.047.15-Aug-2021 3421.80 4339.67 55.08 3.00  98.22 3274.11
   09:30:47.247.15-Aug-2021 3421.80 4354.20 55.08 3.00  98.42 3274.11
   09:30:47.447.15-Aug-2021 3421.80 4361.04 55.08 3.00  98.62 3274.11
   09:30:47.647.15-Aug-2021 3421.80 4367.61 55.08 3.00  98.82 3274.11
   09:30:47.847.15-Aug-2021 3421.80 4374.55 55.08 3.00  99.02 3274.11
   09:30:48.047.15-Aug-2021 3421.80 4374.55 55.08 3.00  99.22 3274.11
   09:30:48.247.15-Aug-2021 3421.80 4388.26 55.08 3.00  99.42 3274.11
   09:30:48.447.15-Aug-2021 3421.80 4394.14 55.08 3.00  99.62 3274.11
   09:30:48.647.15-Aug-2021 3421.80 4400.92 55.08 3.00  99.82 3274.11
   09:30:48.847.15-Aug-2021 3421.80 4407.33 55.09 3.00 100.02 3274.11
   09:30:49.047.15-Aug-2021 3421.80 4407.33 55.09 3.00 100.22 3274.11
   09:30:49.247.15-Aug-2021 3421.80 4420.10 55.09 3.00 100.42 3274.11
   09:30:49.447.15-Aug-2021 3421.80 4426.15 55.09 3.00 100.62 3274.11
   09:30:49.647.15-Aug-2021 3421.80 4432.72 55.09 3.00 100.82 3274.11
   09:30:49.847.15-Aug-2021 3421.80 4439.35 55.09 3.00 101.02 3274.11
   09:30:50.047.15-Aug-2021 3421.80 4439.35 55.09 3.00 101.22 3274.11
   09:30:50.247.15-Aug-2021 3421.80 4450.71 55.09 3.00 101.42 3274.11
   09:30:50.447.15-Aug-2021 3421.80 4457.16 55.09 3.00 101.62 3274.11
   09:30:50.647.15-Aug-2021 3421.80 4463.26 55.09 3.00 101.82 3274.11
   09:30:50.847.15-Aug-2021 3421.80 4469.24 55.09 3.00 102.02 3274.11
   09:30:51.047.15-Aug-2021 3421.80 4469.24 55.09 3.00 102.22 3274.11
   09:30:51.247.15-Aug-2021 3421.80 4480.49 55.09 3.00 102.42 3274.11
   09:30:51.447.15-Aug-2021 3421.80 4486.08 55.09 3.00 102.62 3274.11
   09:30:51.648.15-Aug-2021 3421.80 4492.06 55.09 3.00 102.82 3274.11
   09:30:51.848.15-Aug-2021 3421.80 4497.92 55.09 3.00 103.02 3274.11
   09:30:52.048.15-Aug-2021 3421.80 4497.92 55.09 3.00 103.22 3274.11
   09:30:52.248.15-Aug-2021 3421.80 4509.49 55.09 3.00 103.42 3274.11
   09:30:52.448.15-Aug-2021 3421.80 4514.94 55.09 3.00 103.62 3274.11
   09:30:52.648.15-Aug-2021 3421.80 4520.35 55.09 3.00 103.82 3274.11
   09:30:52.848.15-Aug-2021 3421.80 4526.40 55.09 3.00 104.02 3274.11
   09:30:53.048.15-Aug-2021 3421.80 4526.40 55.09 3.00 104.22 3274.11
   09:30:53.248.15-Aug-2021 3421.80 4536.32 55.09 3.00 104.42 3274.11
   09:30:53.448.15-Aug-2021 3421.80 4541.86 55.09 3.00 104.62 3274.11
   09:30:53.648.15-Aug-2021 3421.80 4547.00 55.09 3.00 104.82 3274.11
   09:30:53.848.15-Aug-2021 3421.80 4552.75 55.09 3.00 105.02 3274.11
   09:30:54.048.15-Aug-2021 3421.80 4552.75 55.09 3.00 105.22 3274.11
   09:30:54.248.15-Aug-2021 3421.80 4562.21 55.09 3.00 105.42 3274.11
   09:30:54.448.15-Aug-2021 3421.80 4567.74 55.09 3.00 105.62 3274.11
   09:30:54.648.15-Aug-2021 3421.80 4572.83 55.09 3.00 105.82 3274.11
   09:30:54.848.15-Aug-2021 3421.80 4577.77 55.09 3.00 106.02 3274.11
   09:30:55.048.15-Aug-2021 3421.80 4577.77 55.09 3.00 106.22 3274.11
   09:30:55.248.15-Aug-2021 3421.80 4587.60 55.09 3.00 106.42 3274.11
   09:30:55.448.15-Aug-2021 3421.80 4593.23 55.10 3.00 106.62 3274.11
   09:30:55.648.15-Aug-2021 3421.80 4597.33 55.10 3.00 106.82 3274.11
   09:30:55.848.15-Aug-2021 3421.80 4602.06 55.10 3.00 107.02 3274.11
   09:30:56.048.15-Aug-2021 3421.80 4602.06 55.10 3.00 107.22 3274.11
   09:30:56.248.15-Aug-2021 3421.80 4612.23 55.10 3.00 107.42 3274.11
   09:30:56.448.15-Aug-2021 3421.80 4616.28 55.10 3.00 107.62 3274.11
   09:30:56.648.15-Aug-2021 3421.80 4620.38 55.10 3.00 107.82 3274.11
   09:30:56.848.15-Aug-2021 3421.80 4625.28 55.10 3.00 108.02 3274.11
   09:30:57.048.15-Aug-2021 3421.80 4625.28 55.10 3.00 108.22 3274.11
   09:30:57.248.15-Aug-2021 3421.80 4635.30 55.10 3.00 108.42 3274.11
   09:30:57.448.15-Aug-2021 3421.80 4639.36 55.10 3.00 108.62 3274.11
   09:30:57.648.15-Aug-2021 3421.80 4643.44 55.10 3.00 108.82 3274.11
   09:30:57.849.15-Aug-2021 3421.80 4648.02 55.10 3.00 109.02 3274.11
   09:30:58.049.15-Aug-2021 3421.80 4648.02 55.10 3.00 109.22 3274.11
   09:30:58.249.15-Aug-2021 3421.80 4656.38 55.10 3.00 109.42 3274.11
   09:30:58.449.15-Aug-2021 3421.80 4660.58 55.10 3.00 109.62 3274.11
   09:30:58.649.15-Aug-2021 3421.80 4665.27 55.10 3.00 109.82 3274.11
   09:30:58.849.15-Aug-2021 3421.80 4669.63 55.10 3.00 110.02 3274.11
   09:30:59.049.15-Aug-2021 3421.80 4669.63 55.10 3.00 110.22 3274.11
   09:30:59.249.15-Aug-2021 3421.80 4678.24 55.10 3.00 110.42 3274.11
   09:30:59.449.15-Aug-2021 3421.80 4682.30 55.10 3.00 110.62 3274.11
   09:30:59.649.15-Aug-2021 3421.80 4686.55 55.10 3.00 110.82 3274.11
   09:30:59.849.15-Aug-2021 3421.80 4690.51 55.10 3.00 111.02 3274.11
   09:31:00.049.15-Aug-2021 3421.80 4690.51 55.10 3.00 111.22 3274.11
   09:31:00.249.15-Aug-2021 3421.80 4699.00 55.10 3.00 111.42 3274.11
   09:31:00.449.15-Aug-2021 3421.80 4703.15 55.10 3.00 111.62 3274.11
   09:31:00.649.15-Aug-2021 3421.80 4707.14 55.10 3.00 111.82 3274.11
   09:31:00.849.15-Aug-2021 3421.80 4711.59 55.10 3.00 112.02 3274.11
   09:31:01.049.15-Aug-2021 3421.80 4711.59 55.10 3.00 112.22 3274.11
   09:31:01.249.15-Aug-2021 3421.80 4718.35 55.10 3.00 112.42 3274.11
   09:31:01.449.15-Aug-2021 3421.80 4722.42 55.10 3.00 112.62 3274.11
   09:31:01.649.15-Aug-2021 3421.80 4726.72 55.10 3.00 112.82 3274.11
   09:31:01.849.15-Aug-2021 3421.80 4730.05 55.10 3.00 113.02 3274.11
   09:31:02.049.15-Aug-2021 3421.80 4730.05 55.10 3.00 113.22 3274.11
   09:31:02.249.15-Aug-2021 3421.80 4737.40 55.10 3.00 113.42 3274.11
   09:31:02.449.15-Aug-2021 3421.80 4741.18 55.10 3.00 113.62 3274.11
   09:31:02.649.15-Aug-2021 3421.80 4745.00 55.10 3.00 113.82 3274.11
   09:31:02.849.15-Aug-2021 3421.80 4748.73 55.10 3.00 114.02 3274.11
   09:31:03.049.15-Aug-2021 3421.80 4748.73 55.10 3.00 114.22 3274.11
   09:31:03.249.15-Aug-2021 3421.80 4756.21 55.10 3.00 114.42 3274.11
   09:31:03.449.15-Aug-2021 3421.80 4758.95 55.10 3.00 114.62 3274.11
   09:31:03.649.15-Aug-2021 3421.80 4762.50 55.10 3.00 114.82 3274.11
