~Version Information
 VERS.                  2.0:   CWLS log ASCII Standard -VERSION 2.0
 WRAP.                   NO:   One line per depth step
~Well Information Block
#MNEM.UNIT     VALUE/NAME     DESCRIPTION
#---------     -----------    ---------------------------
 STRT.S             06:52:24 15-Aug-21: START TIME 06:52:24 15-Aug-21
 STOP.S             06:59:28 15-Aug-21: STOP TIME  06:59:28 15-Aug-21
 STEP.S                   0.00: STEP TIME
 NULL.                 -999.25: NULL VALUE
 DFWT.                        :  DIST FWL TEXT
 DFST.                        :  DIST FSL TEXT
 DMF .             Drill Floor:  DRILL MEAS FROM
 STIM.      17.18.56 20-Jun-21:  START TIME
 DATE.      17.18.56 20-Aug-21:  END TIME
 SPUD.               20-Jun-21:  SPUD DATE
 NREF.                    Grid:  NORTH REFERENCE
 HPTY.       Minimum Curvature:  HOLE POS TYPE
 DMOD.             Drill Model:  DRILL MOD DESC
 SVYD.                  Survey:  SURVEY DESC
 ILTD.               Lithology:  INTERP LTH DESC
 FTOP.          Formation Tops:  FORM TOPS DESC
 SON .        AZ-XX-0907056190:  JOB NUMBER
 PDAT.       Caspian Sea Level:  PERMANENT DATUM
 WTYP.                Deviated:  WELL TYPE
 MDS .        Operator Entered:  MAG DATA SOURCE
 COMP.     BP Exploration (Caspian Sea) Ltd.:  COMPANY
 UWI .            /AZE20000092:  UNIQUE WELL IDENTIFIER
 API .            /AZE20000092:  API NUMBER
 BASE.              Azerbaijan:  LOGGING EQUIPMENT BASE LOCATION
 REGN.                   EESSA:  REGION
 PROV.                    baku:  PROVINCE
 STAT.                    baku:  STATE NAME
 CTRY.              Azerbaijan:  COUNTRY NAME
 FLD .                     ACG:  FIELD NAME
 SRVC.          Turan Drilling:  CONTRACTOR
 MWDS.                    Baku:  MWD SHOP
 WELL.                     J26:  WELL NAME
 JOBN.        AZ-XX-0907056190:  JOB TICKET NUMB
 RIG .             West Chirag:  RIG NAME
 DOE .                     N/A:  DOE NUMBER
 DCON.         Sperry Drilling:  DIRECTNL CONTR
 UNIT.                     N/A:  LOGGING EQUIPMENT ID
 CNTY.                        :  COUNTY
 LOC .                        :  LOCATION
 LMF .             Drill Floor:  LOG MEASURED FROM
 TVDS.m                  43.00:  TVDSS CORRECTN
 LATI.deg                40.13:  LATITUDE
 LONG.deg                51.22:  LONGITUDE
 WHNS.m                  -7.12:  WELL HEAD N/S
 WHEW.m                  -9.46:  WELL HEAD E/W
 UTMX.m              519004.02:  UTM X
 UTMY.m             4443784.96:  UTM Y
 DFWL.m                   0.00:  DISTANCE FWL
 DFSL.m                   0.00:  DISTANCE FSL
 SDEP.m                 464.00:  START DEPTH
 TDD .m                3500.00:  TOTAL DEPTH (DRILLER)
 VSDR.deg               114.35:  VERT SEC DIRECT
 GVFD.g                   1.00:  GRAVITY FIELD
 MFLD.nT              50386.00:  MAGNETIC FIELD
 MDIP.deg                59.63:  MAGNETIC DIP
 MDEC.deg                 6.43:  MAGNETIC DECL
 GRDC.deg                 0.15:  GRID CORRECTION
 AZTC.deg                 6.29:  AZM TOTAL CORR
 EPD .m                   0.00:  ELEVATION
 EGL .m                   0.00:  GROUND ELEVATION
 WDMS.m                 169.80:  WD ELEV
 APD .m                  43.00:  DEPTH ABOVE PD
 VSEW.m                  -9.46:  VERT SEC E/W
 VSNS.m                  -7.12:  VERT SEC N/S
 AGAP.m                  43.00:  AIR GAP
 DEP .m                 356.16:  DEPTH
 EKB .m                  43.00:  KB ELEVATION
 EDF .m                  43.00:  DF ELEVATION
 TDL .m                 699.00:  TOTAL DEPTH (LOGGER)
 VSC .                       0:  VS TO CLOSURE
 MAGU.                 1853727:  MAGUTM CHECKSUM
~Parameter Information Block
#MNEM.UNIT       Value        Description
#---------     -----------    ---------------------------
 AV  .mps                 1.30:  Ann Velocity 
 AVMX.mps                 1.67:  Max Ann Veloc 
 AZIF.deg               280.40:  Azm, Final 
 BHAT.        Rotary Steerable:  BHA Type 
 BREV.rev            528970.00:  Rev Bit Total 
 BROT.°/30m               1.00:  Build Rotating 
 BS  .in                 12.25:  Bit Size 
 BSZ .in                 12.25:  Bit Size 
 BTPL.psig              738.00:  Bit Press Loss 
 CABU.                     Yes:  Customer Abuse 
 CGEO.        Elvin Suleymanov:  Customer Geo 
 COMM.                     ¬kS:  Run Comments 1 
 TCS .hr                 66.05:  Time Ciculation Ended 
 CV  .mps                 2.20:  Crit Velocity 
 CVMX.mps                 2.56:  Max Crit Veloc 
 DD1 .          Rashad Habibov:  Direct Drillr 1 
 DD2 .            Azer ravanov:  Direct Drillr 2 
 DD3 .           Teymur Agayev:  Direct Drillr 3 
 DDSV.               Geo-Pilot:  DD Service 
 DEFF.%                  90.00:  % Det Eff 
 DLRX.°/30m               2.95:  Dogleg Rot Max 
 DLSO.°/30m               1.00:  Dogleg Oriented 
 DLSX.°/30m               2.95:  Dogleg Str Max 
 DRET.      11.42.20 11-Aug-21:  Drill End Time 
 DRST.      23.03.20 08-Aug-21:  Drill Start Tim 
 DTIM.hr                 45.50:  Time Drilling 
 EDEP.m                3488.00:  End Depth 
 ENG1.         Marcelo Marcari:  Engineer 1 
 ENG2.         Dair Mahammadov:  Engineer 2 
 ENG3.       Davud Huseyn-zada:  Engineer 3 
 ENG4.         Yevgeniy Ulikov:  Engineer 4 
 ETIM.      17.45.20 17-Aug-21:  End Time 
 FLOI.gpm              1197.70:  Flow In 
 FLON.gpm              1100.00:  Flow In Min 
 FLOS.cptm                0.00:  Fluid Loss 
 FLOX.gpm              1200.00:  Flow In Max 
 DFT .        Mineral Oil Base:  Mud Type 
 FTRO.       Formation Presure:  FTWD Run Obj 
 HFLO.                      No:  High Flow 
 HPRE.                      No:  High Pressure 
 HTEM.                      No:  High Temp 
 HYDO.m                   1.80:  Hydro Offset 
 IFIN.deg                 9.87:  Inc, Final 
 IMAX.deg                19.96:  Inc Max 
 IMIN.deg                 3.82:  Inc Min 
 IMND.m                3257.42:  Inc Min Depth 
 IMXD.m                2945.53:  Inc Max Depth 
 JARR.                      No:  Jarring 
 LETM.      11.42.20 11-Aug-21:  Log End Time 
 LOST.hr                     0:  Lost Rig Time 
 LSTM.      23.03.20 08-Aug-21:  Log Start Time 
 MDCL.ppm             42500.00:  Mud Chlorides 
 MDES.     Inversion Oil/Synthetic:  Mud Desc 
 DFD .sg                  1.45:  Mud Density 
 MDMN.sg                  1.39:  Dens Mud Min 
 MDMX.sg                  1.57:  Dens Mud Max 
 MOIL.                   53.20:  Run Mud Oil % 
 MOWR.                   70:30:  Run Mud OWR 
 MSND.                       0:  Run Mud Sand % 
 MSOL.                   24.30:  Run Mud Solids% 
 DFV .spqt               79.00:  Mud Viscosity 
 MWOD.in                  8.00:  MWD Tool OD 
 MWSI.                      No:  Serv Intrp, MWD 
 OTIM.hr                253.06:  Time Operating 
 PCON.           Look Like New:  Pad Condition 
 PMAX.psia            11068.93:  Press Op, Max 
 PV  .cP                 36.00:  Mud PV 
 RUN .                    1000:  Run Number 
 ROPA.m/hr               15.34:  ROP Avg 
 ROPN.m/hr                4.00:  ROP Min 
 ROPX.m/hr               31.00:  ROP Max 
 RPMA.rpm               151.40:  RPM Surface Avg 
 RPMN.rpm               120.00:  RPM Surface Min 
 RPMX.rpm               160.00:  RPM Surface Max 
 RRUN.                    L505:  Rig Run Number 
 RTIM.hr                 10.00:  Time Reaming 
 SAZI.deg                88.92:  Azm, Start 
 SDEP.m                2789.00:  Start Depth 
 SIDD.                      No:  Serv Intrp, DD 
 SINC.deg                19.84:  Inc, Start 
 SPPA.psig             4421.39:  SPP Avg 
 SPPN.psig             4130.00:  SPP Min 
 SPPX.psig             4800.00:  SPP Max 
 STIM.      01.25.20 07-Aug-21:  Start Time 
 SVCS.                 DD, MWD:  Services 
 SVER.                    9.20:  Sperry Version 
 TDAT.m                 699.00:  Tot Depth Attmp 
 TDDF.                      No:  Trip for DD 
 TDLG.m                 699.00:  Tot Depth Loggd 
 TFF .                      No:  Trip for Fail 
 TQAA.f-kp               20.55:  Torque Abs Avg 
 TQAN.f-kp               15.00:  Torque Abs Min 
 TQAX.f-kp               24.00:  Torque Abs Max 
 TRRT.°/30m               0.50:  Turn Rotating 
 MRT .                    HCIM:  Maximum Recorded Temperature 
 TTMX.degC               82.35:  Max Tool Temp 
 VS01.                90654677:  Virtual Str1 SN 
 VS02.                90636294:  Virtual Str2 SN 
 VS03.                90653866:  Virtual Str3 SN 
 VS04.                90654674:  Virtual Str4 SN 
 WBMN.klb                10.00:  WOB Min 
 WITN.         Haytham Mostafa:  Customer Rep 
 WITN.           Rufat Babayev:  Customer Rep 2 
 WOBA.klb                22.43:  WOB Avg 
 WOBX.klb                35.00:  WOB Max 
 YP  .lhf2               32.00:  Yield Point 
~Curve Information Block
#MNEM.UNIT                 API CODE     Curve Description
#---------               -----------    ---------------------------
 TIME.HHMMSS            00 000 000 000:  GT Time & Date
 GTDEPTH.m              00 000 000 000:  GT Depth
 GTPQH.psia             00 000 000 000:  GT HR Quartz Pressure
 GTTQ.degC              00 000 000 000:  GT Quartz Temperature
 GTTN.NONE              00 000 000 000:  GT Test Number
 GTET.sec               00 000 000 000:  GT Elapsed Test Time
 GTTVD.m                00 000 000 000:  GT True Vertical Depth
#Other Information
#
#WARRANTY: Halliburton will use its best efforts to furnish customers with 
#accurate information and interpretations that are part of, and incident to, the services 
#provided.  However, Halliburton cannot and does not warrant the accuracy 
#or correctness of such information and interpretations.  Under no circumstances should any 
#such information or interpretation be relied upon as the sole basis for any drilling, 
#completion, production, or financial decision or any procedure involving any risk to the 
#safety of any drilling venture, drilling rig or its crew or any other third party.  The 
#Customer has full responsibility for all drilling, completion and production operation.  
#Halliburton makes no representations or warranties, either expressed or 
#implied, including, but not limited to, the implied warranties of merchantability or fitness 
#for a particular purpose, with respect to the services rendered.  In no event will 
#Halliburton be liable for failure to obtain any particular results or for 
#any damages, including, but not limited to, indirect, special or consequential damages, 
#resulting from the use of any information or interpretation provided by Halliburton.
#
~A           TIME           GTDEPTH  GTPQH  GTTQ  GTTN  GTET   GTTVD  
# ...
   06:58:32.720.15-Aug-2021 3437.50 5216.72 57.98 1.00 368.03 3289.56
   06:58:32.920.15-Aug-2021 3437.50 5216.72 57.98 1.00 368.23 3289.56
   06:58:33.120.15-Aug-2021 3437.50 5216.54 57.98 1.00 368.43 3289.56
   06:58:33.320.15-Aug-2021 3437.50 5216.88 57.98 1.00 368.63 3289.56
   06:58:33.520.15-Aug-2021 3437.50 5216.75 57.98 1.00 368.83 3289.56
   06:58:33.720.15-Aug-2021 3437.50 5217.01 57.98 1.00 369.03 3289.56
   06:58:33.920.15-Aug-2021 3437.50 5217.01 57.98 1.00 369.23 3289.56
   06:58:34.120.15-Aug-2021 3437.50 5217.08 57.98 1.00 369.43 3289.56
   06:58:34.320.15-Aug-2021 3437.50 5216.78 57.98 1.00 369.63 3289.56
   06:58:34.520.15-Aug-2021 3437.50 5216.53 57.98 1.00 369.83 3289.56
   06:58:34.720.15-Aug-2021 3437.50 5217.25 57.98 1.00 370.03 3289.56
   06:58:34.920.15-Aug-2021 3437.50 5217.25 57.98 1.00 370.23 3289.56
   06:58:35.120.15-Aug-2021 3437.50 5217.03 57.98 1.00 370.43 3289.56
   06:58:35.320.15-Aug-2021 3437.50 5216.17 57.98 1.00 370.63 3289.56
   06:58:35.520.15-Aug-2021 3437.50 5217.18 57.98 1.00 370.83 3289.56
   06:58:35.720.15-Aug-2021 3437.50 5216.53 57.98 1.00 371.03 3289.56
   06:58:35.920.15-Aug-2021 3437.50 5216.53 57.98 1.00 371.23 3289.56
   06:58:36.120.15-Aug-2021 3437.50 5216.93 57.98 1.00 371.43 3289.56
   06:58:36.320.15-Aug-2021 3437.50 5216.81 57.98 1.00 371.63 3289.56
   06:58:36.520.15-Aug-2021 3437.50 5216.39 57.98 1.00 371.83 3289.56
   06:58:36.720.15-Aug-2021 3437.50 5217.22 57.98 1.00 372.03 3289.56
   06:58:36.920.15-Aug-2021 3437.50 5217.22 57.98 1.00 372.23 3289.56
   06:58:37.120.15-Aug-2021 3437.50 5217.35 57.98 1.00 372.43 3289.56
   06:58:37.320.15-Aug-2021 3437.50 5216.09 57.98 1.00 372.63 3289.56
   06:58:37.520.15-Aug-2021 3437.50 5217.12 57.98 1.00 372.83 3289.56
   06:58:37.720.15-Aug-2021 3437.50 5216.77 57.98 1.00 373.03 3289.56
   06:58:37.920.15-Aug-2021 3437.50 5216.77 57.98 1.00 373.23 3289.56
   06:58:38.120.15-Aug-2021 3437.50 5217.06 57.98 1.00 373.43 3289.56
   06:58:38.320.15-Aug-2021 3437.50 5216.62 57.98 1.00 373.63 3289.56
   06:58:38.520.15-Aug-2021 3437.50 5217.00 57.98 1.00 373.83 3289.56
   06:58:38.720.15-Aug-2021 3437.50 5216.92 57.98 1.00 374.03 3289.56
   06:58:38.920.15-Aug-2021 3437.50 5216.92 57.98 1.00 374.23 3289.56
   06:58:39.120.15-Aug-2021 3437.50 5216.38 57.98 1.00 374.43 3289.56
   06:58:39.320.15-Aug-2021 3437.50 5216.77 57.98 1.00 374.63 3289.56
   06:58:39.520.15-Aug-2021 3437.50 5216.85 57.98 1.00 374.83 3289.56
   06:58:39.720.15-Aug-2021 3437.50 5217.48 57.98 1.00 375.03 3289.56
   06:58:39.920.15-Aug-2021 3437.50 5217.48 57.98 1.00 375.23 3289.56
   06:58:40.120.15-Aug-2021 3437.50 5216.91 57.98 1.00 375.43 3289.56
   06:58:40.320.15-Aug-2021 3437.50 5216.85 57.98 1.00 375.63 3289.56
   06:58:40.520.15-Aug-2021 3437.50 5216.92 57.98 1.00 375.83 3289.56
   06:58:40.720.15-Aug-2021 3437.50 5216.83 57.98 1.00 376.03 3289.56
   06:58:40.920.15-Aug-2021 3437.50 5216.83 57.98 1.00 376.23 3289.56
   06:58:41.120.15-Aug-2021 3437.50 5216.77 57.98 1.00 376.43 3289.56
   06:58:41.320.15-Aug-2021 3437.50 5216.72 57.98 1.00 376.63 3289.56
   06:58:41.520.15-Aug-2021 3437.50 5217.51 57.98 1.00 376.83 3289.56
   06:58:41.720.15-Aug-2021 3437.50 5216.51 57.98 1.00 377.03 3289.56
   06:58:41.920.15-Aug-2021 3437.50 5216.51 57.98 1.00 377.23 3289.56
   06:58:42.120.15-Aug-2021 3437.50 5216.90 57.98 1.00 377.43 3289.56
   06:58:42.320.15-Aug-2021 3437.50 5217.33 57.98 1.00 377.63 3289.56
   06:58:42.520.15-Aug-2021 3437.50 5216.79 57.98 1.00 377.83 3289.56
   06:58:42.720.15-Aug-2021 3437.50 5216.70 57.98 1.00 378.03 3289.56
   06:58:42.920.15-Aug-2021 3437.50 5216.70 57.98 1.00 378.23 3289.56
   06:58:43.120.15-Aug-2021 3437.50 5216.52 57.98 1.00 378.43 3289.56
   06:58:43.320.15-Aug-2021 3437.50 5216.83 57.98 1.00 378.63 3289.56
   06:58:43.520.15-Aug-2021 3437.50 5217.33 57.98 1.00 378.83 3289.56
   06:58:43.720.15-Aug-2021 3437.50 5216.58 57.98 1.00 379.03 3289.56
   06:58:43.920.15-Aug-2021 3437.50 5216.58 57.98 1.00 379.23 3289.56
   06:58:44.120.15-Aug-2021 3437.50 5216.90 57.98 1.00 379.43 3289.56
   06:58:44.320.15-Aug-2021 3437.50 5217.07 57.98 1.00 379.63 3289.56
   06:58:44.520.15-Aug-2021 3437.50 5217.17 57.98 1.00 379.83 3289.56
   06:58:44.720.15-Aug-2021 3437.50 5216.33 57.98 1.00 380.03 3289.56
   06:58:44.920.15-Aug-2021 3437.50 5216.33 57.98 1.00 380.23 3289.56
   06:58:45.120.15-Aug-2021 3437.50 5216.49 57.98 1.00 380.43 3289.56
   06:58:45.320.15-Aug-2021 3437.50 5217.07 57.98 1.00 380.63 3289.56
   06:58:45.520.15-Aug-2021 3437.50 5217.38 57.98 1.00 380.83 3289.56
   06:58:45.720.15-Aug-2021 3437.50 5216.35 57.98 1.00 381.03 3289.56
   06:58:45.920.15-Aug-2021 3437.50 5216.35 57.98 1.00 381.23 3289.56
   06:58:46.121.15-Aug-2021 3437.50 5216.92 57.98 1.00 381.43 3289.56
   06:58:46.321.15-Aug-2021 3437.50 5217.45 57.98 1.00 381.63 3289.56
   06:58:46.521.15-Aug-2021 3437.50 5216.32 57.98 1.00 381.83 3289.56
   06:58:46.721.15-Aug-2021 3437.50 5216.99 57.98 1.00 382.03 3289.56
   06:58:46.921.15-Aug-2021 3437.50 5216.99 57.98 1.00 382.23 3289.56
   06:58:47.121.15-Aug-2021 3437.50 5217.50 57.98 1.00 382.43 3289.56
   06:58:47.321.15-Aug-2021 3437.50 5216.22 57.98 1.00 382.63 3289.56
   06:58:47.521.15-Aug-2021 3437.50 5217.17 57.98 1.00 382.83 3289.56
   06:58:47.721.15-Aug-2021 3437.50 5216.69 57.98 1.00 383.03 3289.56
   06:58:47.921.15-Aug-2021 3437.50 5216.69 57.98 1.00 383.23 3289.56
   06:58:48.121.15-Aug-2021 3437.50 5216.78 57.98 1.00 383.43 3289.56
   06:58:48.321.15-Aug-2021 3437.50 5216.77 57.98 1.00 383.63 3289.56
   06:58:48.521.15-Aug-2021 3437.50 5216.79 57.98 1.00 383.83 3289.56
   06:58:48.721.15-Aug-2021 3437.50 5216.85 57.98 1.00 384.03 3289.56
   06:58:48.921.15-Aug-2021 3437.50 5216.85 57.98 1.00 384.23 3289.56
   06:58:49.121.15-Aug-2021 3437.50 5216.57 57.98 1.00 384.43 3289.56
   06:58:49.321.15-Aug-2021 3437.50 5216.84 57.98 1.00 384.63 3289.56
   06:58:49.521.15-Aug-2021 3437.50 5219.77 57.98 1.00 384.83 3289.56
   06:58:49.721.15-Aug-2021 3437.50 5303.23 57.98 1.00 385.03 3289.56
   06:58:49.921.15-Aug-2021 3437.50 5303.23 57.98 1.00 385.23 3289.56
   06:58:50.121.15-Aug-2021 3437.50 5491.85 57.98 1.00 385.43 3289.56
   06:58:50.321.15-Aug-2021 3437.50 5590.43 57.98 1.00 385.63 3289.56
   06:58:50.521.15-Aug-2021 3437.50 5655.54 57.98 1.00 385.83 3289.56
   06:58:50.721.15-Aug-2021 3437.50 5688.54 57.98 1.00 386.03 3289.56
   06:58:50.921.15-Aug-2021 3437.50 5688.54 57.98 1.00 386.23 3289.56
   06:58:51.121.15-Aug-2021 3437.50 5740.09 57.98 1.00 386.43 3289.56
   06:58:51.321.15-Aug-2021 3437.50 5761.33 57.98 1.00 386.63 3289.56
   06:58:51.521.15-Aug-2021 3437.50 5776.35 57.98 1.00 386.83 3289.56
   06:58:51.721.15-Aug-2021 3437.50 5792.72 57.98 1.00 387.03 3289.56
   06:58:51.921.15-Aug-2021 3437.50 5792.72 57.98 1.00 387.23 3289.56
   06:58:52.121.15-Aug-2021 3437.50 6125.47 57.98 1.00 387.43 3289.56
   06:58:52.321.15-Aug-2021 3437.50 7482.43 57.98 1.00 387.63 3289.56
   06:58:52.521.15-Aug-2021 3437.50 7501.81 57.98 1.00 387.83 3289.56
   06:58:52.721.15-Aug-2021 3437.50 7509.24 57.98 1.00 388.03 3289.56
   06:58:52.921.15-Aug-2021 3437.50 7509.24 57.98 1.00 388.23 3289.56
   06:58:53.121.15-Aug-2021 3437.50 7506.01 57.98 1.00 388.43 3289.56
   06:58:53.321.15-Aug-2021 3437.50 7505.16 57.98 1.00 388.63 3289.56
   06:58:53.521.15-Aug-2021 3437.50 7509.74 57.99 1.00 388.83 3289.56
   06:58:53.721.15-Aug-2021 3437.50 7506.49 57.99 1.00 389.03 3289.56
   06:58:53.921.15-Aug-2021 3437.50 7506.49 57.99 1.00 389.23 3289.56
   06:58:54.121.15-Aug-2021 3437.50 7507.77 57.99 1.00 389.43 3289.56
   06:58:54.321.15-Aug-2021 3437.50 7510.69 57.99 1.00 389.63 3289.56
   06:58:54.521.15-Aug-2021 3437.50 7507.84 57.99 1.00 389.83 3289.56
   06:58:54.721.15-Aug-2021 3437.50 7508.77 57.99 1.00 390.03 3289.56
   06:58:54.921.15-Aug-2021 3437.50 7508.77 57.99 1.00 390.23 3289.56
   06:58:55.121.15-Aug-2021 3437.50 7509.60 58.00 1.00 390.43 3289.56
   06:58:55.321.15-Aug-2021 3437.50 7508.80 58.00 1.00 390.63 3289.56
   06:58:55.521.15-Aug-2021 3437.50 7508.56 58.00 1.00 390.83 3289.56
