~Version Information
 VERS.                  2.0:   CWLS log ASCII Standard -VERSION 2.0
 WRAP.                   NO:   One line per depth step
~Well Information Block
#MNEM.UNIT     VALUE/NAME     DESCRIPTION
#---------     -----------    ---------------------------
 STRT.S             09:29:08 15-Aug-21: START TIME 09:29:08 15-Aug-21
 STOP.S             09:37:37 15-Aug-21: STOP TIME  09:37:37 15-Aug-21
 STEP.S                   0.00: STEP TIME
 NULL.                 -999.25: NULL VALUE
 DFWT.                        :  DIST FWL TEXT
 DFST.                        :  DIST FSL TEXT
 DMF .             Drill Floor:  DRILL MEAS FROM
 STIM.      17.18.56 20-Jun-21:  START TIME
 DATE.      17.18.56 20-Aug-21:  END TIME
 SPUD.               20-Jun-21:  SPUD DATE
 NREF.                    Grid:  NORTH REFERENCE
 HPTY.       Minimum Curvature:  HOLE POS TYPE
 DMOD.             Drill Model:  DRILL MOD DESC
 SVYD.                  Survey:  SURVEY DESC
 ILTD.               Lithology:  INTERP LTH DESC
 FTOP.          Formation Tops:  FORM TOPS DESC
 SON .        AZ-XX-0907056190:  JOB NUMBER
 PDAT.       Caspian Sea Level:  PERMANENT DATUM
 WTYP.                Deviated:  WELL TYPE
 MDS .        Operator Entered:  MAG DATA SOURCE
 COMP.     BP Exploration (Caspian Sea) Ltd.:  COMPANY
 UWI .            /AZE20000092:  UNIQUE WELL IDENTIFIER
 API .            /AZE20000092:  API NUMBER
 BASE.              Azerbaijan:  LOGGING EQUIPMENT BASE LOCATION
 REGN.                   EESSA:  REGION
 PROV.                    baku:  PROVINCE
 STAT.                    baku:  STATE NAME
 CTRY.              Azerbaijan:  COUNTRY NAME
 FLD .                     ACG:  FIELD NAME
 SRVC.          Turan Drilling:  CONTRACTOR
 MWDS.                    Baku:  MWD SHOP
 WELL.                     J26:  WELL NAME
 JOBN.        AZ-XX-0907056190:  JOB TICKET NUMB
 RIG .             West Chirag:  RIG NAME
 DOE .                     N/A:  DOE NUMBER
 DCON.         Sperry Drilling:  DIRECTNL CONTR
 UNIT.                     N/A:  LOGGING EQUIPMENT ID
 CNTY.                        :  COUNTY
 LOC .                        :  LOCATION
 LMF .             Drill Floor:  LOG MEASURED FROM
 TVDS.m                  43.00:  TVDSS CORRECTN
 LATI.deg                40.13:  LATITUDE
 LONG.deg                51.22:  LONGITUDE
 WHNS.m                  -7.12:  WELL HEAD N/S
 WHEW.m                  -9.46:  WELL HEAD E/W
 UTMX.m              519004.02:  UTM X
 UTMY.m             4443784.96:  UTM Y
 DFWL.m                   0.00:  DISTANCE FWL
 DFSL.m                   0.00:  DISTANCE FSL
 SDEP.m                 464.00:  START DEPTH
 TDD .m                3500.00:  TOTAL DEPTH (DRILLER)
 VSDR.deg               114.35:  VERT SEC DIRECT
 GVFD.g                   1.00:  GRAVITY FIELD
 MFLD.nT              50386.00:  MAGNETIC FIELD
 MDIP.deg                59.63:  MAGNETIC DIP
 MDEC.deg                 6.43:  MAGNETIC DECL
 GRDC.deg                 0.15:  GRID CORRECTION
 AZTC.deg                 6.29:  AZM TOTAL CORR
 EPD .m                   0.00:  ELEVATION
 EGL .m                   0.00:  GROUND ELEVATION
 WDMS.m                 169.80:  WD ELEV
 APD .m                  43.00:  DEPTH ABOVE PD
 VSEW.m                  -9.46:  VERT SEC E/W
 VSNS.m                  -7.12:  VERT SEC N/S
 AGAP.m                  43.00:  AIR GAP
 DEP .m                 356.16:  DEPTH
 EKB .m                  43.00:  KB ELEVATION
 EDF .m                  43.00:  DF ELEVATION
 TDL .m                 699.00:  TOTAL DEPTH (LOGGER)
 VSC .                       0:  VS TO CLOSURE
 MAGU.                 1853727:  MAGUTM CHECKSUM
~Parameter Information Block
#MNEM.UNIT       Value        Description
#---------     -----------    ---------------------------
 AV  .mps                 1.30:  Ann Velocity 
 AVMX.mps                 1.67:  Max Ann Veloc 
 AZIF.deg               280.40:  Azm, Final 
 BHAT.        Rotary Steerable:  BHA Type 
 BREV.rev            528970.00:  Rev Bit Total 
 BROT.°/30m               1.00:  Build Rotating 
 BS  .in                 12.25:  Bit Size 
 BSZ .in                 12.25:  Bit Size 
 BTPL.psig              738.00:  Bit Press Loss 
 CABU.                     Yes:  Customer Abuse 
 CGEO.        Elvin Suleymanov:  Customer Geo 
 COMM.                     œR:  Run Comments 1 
 TCS .hr                 66.05:  Time Ciculation Ended 
 CV  .mps                 2.20:  Crit Velocity 
 CVMX.mps                 2.56:  Max Crit Veloc 
 DD1 .          Rashad Habibov:  Direct Drillr 1 
 DD2 .            Azer ravanov:  Direct Drillr 2 
 DD3 .           Teymur Agayev:  Direct Drillr 3 
 DDSV.               Geo-Pilot:  DD Service 
 DEFF.%                  90.00:  % Det Eff 
 DLRX.°/30m               2.95:  Dogleg Rot Max 
 DLSO.°/30m               1.00:  Dogleg Oriented 
 DLSX.°/30m               2.95:  Dogleg Str Max 
 DRET.      11.42.20 11-Aug-21:  Drill End Time 
 DRST.      23.03.20 08-Aug-21:  Drill Start Tim 
 DTIM.hr                 45.50:  Time Drilling 
 EDEP.m                3488.00:  End Depth 
 ENG1.         Marcelo Marcari:  Engineer 1 
 ENG2.         Dair Mahammadov:  Engineer 2 
 ENG3.       Davud Huseyn-zada:  Engineer 3 
 ENG4.         Yevgeniy Ulikov:  Engineer 4 
 ETIM.      17.45.20 17-Aug-21:  End Time 
 FLOI.gpm              1197.70:  Flow In 
 FLON.gpm              1100.00:  Flow In Min 
 FLOS.cptm                0.00:  Fluid Loss 
 FLOX.gpm              1200.00:  Flow In Max 
 DFT .        Mineral Oil Base:  Mud Type 
 FTRO.       Formation Presure:  FTWD Run Obj 
 HFLO.                      No:  High Flow 
 HPRE.                      No:  High Pressure 
 HTEM.                      No:  High Temp 
 HYDO.m                   1.80:  Hydro Offset 
 IFIN.deg                 9.87:  Inc, Final 
 IMAX.deg                19.96:  Inc Max 
 IMIN.deg                 3.82:  Inc Min 
 IMND.m                3257.42:  Inc Min Depth 
 IMXD.m                2945.53:  Inc Max Depth 
 JARR.                      No:  Jarring 
 LETM.      11.42.20 11-Aug-21:  Log End Time 
 LOST.hr                     0:  Lost Rig Time 
 LSTM.      23.03.20 08-Aug-21:  Log Start Time 
 MDCL.ppm             42500.00:  Mud Chlorides 
 MDES.     Inversion Oil/Synthetic:  Mud Desc 
 DFD .sg                  1.45:  Mud Density 
 MDMN.sg                  1.39:  Dens Mud Min 
 MDMX.sg                  1.57:  Dens Mud Max 
 MOIL.                   53.20:  Run Mud Oil % 
 MOWR.                   70:30:  Run Mud OWR 
 MSND.                       0:  Run Mud Sand % 
 MSOL.                   24.30:  Run Mud Solids% 
 DFV .spqt               79.00:  Mud Viscosity 
 MWOD.in                  8.00:  MWD Tool OD 
 MWSI.                      No:  Serv Intrp, MWD 
 OTIM.hr                253.06:  Time Operating 
 PCON.           Look Like New:  Pad Condition 
 PMAX.psia            11068.93:  Press Op, Max 
 PV  .cP                 36.00:  Mud PV 
 RUN .                    1000:  Run Number 
 ROPA.m/hr               15.34:  ROP Avg 
 ROPN.m/hr                4.00:  ROP Min 
 ROPX.m/hr               31.00:  ROP Max 
 RPMA.rpm               151.40:  RPM Surface Avg 
 RPMN.rpm               120.00:  RPM Surface Min 
 RPMX.rpm               160.00:  RPM Surface Max 
 RRUN.                    L505:  Rig Run Number 
 RTIM.hr                 10.00:  Time Reaming 
 SAZI.deg                88.92:  Azm, Start 
 SDEP.m                2789.00:  Start Depth 
 SIDD.                      No:  Serv Intrp, DD 
 SINC.deg                19.84:  Inc, Start 
 SPPA.psig             4421.39:  SPP Avg 
 SPPN.psig             4130.00:  SPP Min 
 SPPX.psig             4800.00:  SPP Max 
 STIM.      01.25.20 07-Aug-21:  Start Time 
 SVCS.                 DD, MWD:  Services 
 SVER.                    9.20:  Sperry Version 
 TDAT.m                 699.00:  Tot Depth Attmp 
 TDDF.                      No:  Trip for DD 
 TDLG.m                 699.00:  Tot Depth Loggd 
 TFF .                      No:  Trip for Fail 
 TQAA.f-kp               20.55:  Torque Abs Avg 
 TQAN.f-kp               15.00:  Torque Abs Min 
 TQAX.f-kp               24.00:  Torque Abs Max 
 TRRT.°/30m               0.50:  Turn Rotating 
 MRT .                    HCIM:  Maximum Recorded Temperature 
 TTMX.degC               82.35:  Max Tool Temp 
 VS01.                90654677:  Virtual Str1 SN 
 VS02.                90636294:  Virtual Str2 SN 
 VS03.                90653866:  Virtual Str3 SN 
 VS04.                90654674:  Virtual Str4 SN 
 WBMN.klb                10.00:  WOB Min 
 WITN.         Haytham Mostafa:  Customer Rep 
 WITN.           Rufat Babayev:  Customer Rep 2 
 WOBA.klb                22.43:  WOB Avg 
 WOBX.klb                35.00:  WOB Max 
 YP  .lhf2               32.00:  Yield Point 
~Curve Information Block
#MNEM.UNIT                 API CODE     Curve Description
#---------               -----------    ---------------------------
 TIME.HHMMSS            00 000 000 000:  GT Time & Date
 GTDEPTH.m              00 000 000 000:  GT Depth
 GTPQH.psia             00 000 000 000:  GT HR Quartz Pressure
 GTTQ.degC              00 000 000 000:  GT Quartz Temperature
 GTTN.NONE              00 000 000 000:  GT Test Number
 GTET.sec               00 000 000 000:  GT Elapsed Test Time
 GTTVD.m                00 000 000 000:  GT True Vertical Depth
#Other Information
#
#WARRANTY: Halliburton will use its best efforts to furnish customers with 
#accurate information and interpretations that are part of, and incident to, the services 
#provided.  However, Halliburton cannot and does not warrant the accuracy 
#or correctness of such information and interpretations.  Under no circumstances should any 
#such information or interpretation be relied upon as the sole basis for any drilling, 
#completion, production, or financial decision or any procedure involving any risk to the 
#safety of any drilling venture, drilling rig or its crew or any other third party.  The 
#Customer has full responsibility for all drilling, completion and production operation.  
#Halliburton makes no representations or warranties, either expressed or 
#implied, including, but not limited to, the implied warranties of merchantability or fitness 
#for a particular purpose, with respect to the services rendered.  In no event will 
#Halliburton be liable for failure to obtain any particular results or for 
#any damages, including, but not limited to, indirect, special or consequential damages, 
#resulting from the use of any information or interpretation provided by Halliburton.
#
~A           TIME           GTDEPTH  GTPQH  GTTQ  GTTN  GTET   GTTVD  
   09:29:08.831.15-Aug-2021 3421.80 7501.03 55.21 3.00   0.00 3274.11
   09:29:09.031.15-Aug-2021 3421.80 7501.03 55.21 3.00   0.20 3274.11
   09:29:09.231.15-Aug-2021 3421.80 7500.86 55.21 3.00   0.40 3274.11
   09:29:09.431.15-Aug-2021 3421.80 7499.18 55.21 3.00   0.60 3274.11
   09:29:09.631.15-Aug-2021 3421.80 7500.44 55.21 3.00   0.80 3274.11
   09:29:09.831.15-Aug-2021 3421.80 7502.64 55.21 3.00   1.00 3274.11
   09:29:10.031.15-Aug-2021 3421.80 7502.64 55.21 3.00   1.20 3274.11
   09:29:10.231.15-Aug-2021 3421.80 7499.54 55.21 3.00   1.40 3274.11
   09:29:10.431.15-Aug-2021 3421.80 7499.05 55.21 3.00   1.60 3274.11
   09:29:10.631.15-Aug-2021 3421.80 7500.64 55.21 3.00   1.80 3274.11
   09:29:10.831.15-Aug-2021 3421.80 7500.74 55.21 3.00   2.00 3274.11
   09:29:11.031.15-Aug-2021 3421.80 7500.74 55.21 3.00   2.20 3274.11
   09:29:11.231.15-Aug-2021 3421.80 7499.18 55.21 3.00   2.40 3274.11
   09:29:11.431.15-Aug-2021 3421.80 7498.26 55.21 3.00   2.60 3274.11
   09:29:11.631.15-Aug-2021 3421.80 7498.60 55.21 3.00   2.80 3274.11
   09:29:11.831.15-Aug-2021 3421.80 7500.65 55.21 3.00   3.00 3274.11
   09:29:12.031.15-Aug-2021 3421.80 7500.65 55.21 3.00   3.20 3274.11
   09:29:12.231.15-Aug-2021 3421.80 7493.15 55.21 3.00   3.40 3274.11
   09:29:12.431.15-Aug-2021 3421.80 7492.77 55.21 3.00   3.60 3274.11
   09:29:12.631.15-Aug-2021 3421.80 7493.24 55.21 3.00   3.80 3274.11
   09:29:12.831.15-Aug-2021 3421.80 7489.94 55.21 3.00   4.00 3274.11
   09:29:13.031.15-Aug-2021 3421.80 7488.06 55.21 3.00   4.20 3274.11
   09:29:13.231.15-Aug-2021 3421.80 7491.38 55.21 3.00   4.40 3274.11
   09:29:13.431.15-Aug-2021 3421.80 7487.96 55.21 3.00   4.60 3274.11
   09:29:13.631.15-Aug-2021 3421.80 7487.73 55.21 3.00   4.80 3274.11
   09:29:13.831.15-Aug-2021 3421.80 7485.94 55.20 3.00   5.00 3274.11
   09:29:14.032.15-Aug-2021 3421.80 7485.94 55.20 3.00   5.20 3274.11
   09:29:14.232.15-Aug-2021 3421.80 7485.91 55.20 3.00   5.40 3274.11
   09:29:14.432.15-Aug-2021 3421.80 7487.42 55.20 3.00   5.60 3274.11
   09:29:14.632.15-Aug-2021 3421.80 7488.65 55.20 3.00   5.80 3274.11
   09:29:14.832.15-Aug-2021 3421.80 7490.25 55.20 3.00   6.00 3274.11
   09:29:15.032.15-Aug-2021 3421.80 7490.25 55.20 3.00   6.20 3274.11
   09:29:15.232.15-Aug-2021 3421.80 7485.69 55.20 3.00   6.40 3274.11
   09:29:15.432.15-Aug-2021 3421.80 7487.04 55.20 3.00   6.60 3274.11
   09:29:15.632.15-Aug-2021 3421.80 7487.53 55.20 3.00   6.80 3274.11
   09:29:15.832.15-Aug-2021 3421.80 7486.42 55.20 3.00   7.00 3274.11
   09:29:16.032.15-Aug-2021 3421.80 7486.42 55.20 3.00   7.20 3274.11
   09:29:16.232.15-Aug-2021 3421.80 7489.29 55.20 3.00   7.40 3274.11
   09:29:16.432.15-Aug-2021 3421.80 7488.34 55.20 3.00   7.60 3274.11
   09:29:16.632.15-Aug-2021 3421.80 7487.34 55.20 3.00   7.80 3274.11
   09:29:16.832.15-Aug-2021 3421.80 7488.74 55.20 3.00   8.00 3274.11
   09:29:17.032.15-Aug-2021 3421.80 7488.74 55.20 3.00   8.20 3274.11
   09:29:17.232.15-Aug-2021 3421.80 7487.52 55.20 3.00   8.40 3274.11
   09:29:17.432.15-Aug-2021 3421.80 7488.29 55.20 3.00   8.60 3274.11
   09:29:17.632.15-Aug-2021 3421.80 7491.05 55.20 3.00   8.80 3274.11
   09:29:17.832.15-Aug-2021 3421.80 7486.66 55.20 3.00   9.00 3274.11
   09:29:18.032.15-Aug-2021 3421.80 7486.66 55.20 3.00   9.20 3274.11
   09:29:18.232.15-Aug-2021 3421.80 7487.72 55.20 3.00   9.40 3274.11
   09:29:18.432.15-Aug-2021 3421.80 7488.27 55.20 3.00   9.60 3274.11
   09:29:18.632.15-Aug-2021 3421.80 7487.59 55.20 3.00   9.80 3274.11
   09:29:18.832.15-Aug-2021 3421.80 7486.80 55.20 3.00  10.00 3274.11
   09:29:19.032.15-Aug-2021 3421.80 7486.80 55.20 3.00  10.20 3274.11
   09:29:19.232.15-Aug-2021 3421.80 7488.40 55.20 3.00  10.40 3274.11
   09:29:19.432.15-Aug-2021 3421.80 7491.40 55.20 3.00  10.60 3274.11
   09:29:19.632.15-Aug-2021 3421.80 7489.36 55.20 3.00  10.80 3274.11
   09:29:19.832.15-Aug-2021 3421.80 7489.99 55.20 3.00  11.00 3274.11
   09:29:20.033.15-Aug-2021 3421.80 7489.99 55.20 3.00  11.20 3274.11
   09:29:20.233.15-Aug-2021 3421.80 7488.40 55.20 3.00  11.40 3274.11
   09:29:20.433.15-Aug-2021 3421.80 7488.93 55.20 3.00  11.60 3274.11
   09:29:20.633.15-Aug-2021 3421.80 7490.71 55.20 3.00  11.80 3274.11
   09:29:20.833.15-Aug-2021 3421.80 7494.75 55.20 3.00  12.00 3274.11
   09:29:21.033.15-Aug-2021 3421.80 7494.75 55.20 3.00  12.20 3274.11
   09:29:21.233.15-Aug-2021 3421.80 7492.19 55.20 3.00  12.40 3274.11
   09:29:21.433.15-Aug-2021 3421.80 7492.61 55.20 3.00  12.60 3274.11
   09:29:21.633.15-Aug-2021 3421.80 7491.27 55.20 3.00  12.80 3274.11
   09:29:21.833.15-Aug-2021 3421.80 7490.44 55.20 3.00  13.00 3274.11
   09:29:22.033.15-Aug-2021 3421.80 7490.44 55.20 3.00  13.20 3274.11
   09:29:22.233.15-Aug-2021 3421.80 7493.28 55.20 3.00  13.40 3274.11
   09:29:22.433.15-Aug-2021 3421.80 7494.29 55.20 3.00  13.60 3274.11
   09:29:22.633.15-Aug-2021 3421.80 7493.17 55.20 3.00  13.80 3274.11
   09:29:22.833.15-Aug-2021 3421.80 7491.68 55.20 3.00  14.00 3274.11
   09:29:23.033.15-Aug-2021 3421.80 7491.68 55.20 3.00  14.20 3274.11
   09:29:23.233.15-Aug-2021 3421.80 7493.92 55.20 3.00  14.40 3274.11
   09:29:23.433.15-Aug-2021 3421.80 7494.54 55.20 3.00  14.60 3274.11
   09:29:23.633.15-Aug-2021 3421.80 7491.92 55.20 3.00  14.80 3274.11
   09:29:23.833.15-Aug-2021 3421.80 7491.99 55.20 3.00  15.00 3274.11
   09:29:24.033.15-Aug-2021 3421.80 7491.99 55.20 3.00  15.20 3274.11
   09:29:24.233.15-Aug-2021 3421.80 7493.41 55.20 3.00  15.40 3274.11
   09:29:24.433.15-Aug-2021 3421.80 7493.00 55.20 3.00  15.60 3274.11
   09:29:24.633.15-Aug-2021 3421.80 7493.22 55.20 3.00  15.80 3274.11
   09:29:24.833.15-Aug-2021 3421.80 7492.54 55.20 3.00  16.00 3274.11
   09:29:25.033.15-Aug-2021 3421.80 7492.54 55.20 3.00  16.20 3274.11
   09:29:25.233.15-Aug-2021 3421.80 7493.06 55.20 3.00  16.40 3274.11
   09:29:25.433.15-Aug-2021 3421.80 7493.30 55.20 3.00  16.60 3274.11
   09:29:25.633.15-Aug-2021 3421.80 7492.21 55.20 3.00  16.80 3274.11
   09:29:25.833.15-Aug-2021 3421.80 7492.98 55.20 3.00  17.00 3274.11
   09:29:26.033.15-Aug-2021 3421.80 7492.98 55.20 3.00  17.20 3274.11
   09:29:26.234.15-Aug-2021 3421.80 7494.51 55.20 3.00  17.40 3274.11
   09:29:26.434.15-Aug-2021 3421.80 7491.28 55.20 3.00  17.60 3274.11
   09:29:26.634.15-Aug-2021 3421.80 7491.59 55.20 3.00  17.80 3274.11
   09:29:26.834.15-Aug-2021 3421.80 7492.95 55.20 3.00  18.00 3274.11
   09:29:27.034.15-Aug-2021 3421.80 7492.95 55.20 3.00  18.20 3274.11
   09:29:27.234.15-Aug-2021 3421.80 7492.45 55.20 3.00  18.40 3274.11
   09:29:27.434.15-Aug-2021 3421.80 7492.92 55.20 3.00  18.60 3274.11
   09:29:27.634.15-Aug-2021 3421.80 7494.10 55.20 3.00  18.80 3274.11
   09:29:27.834.15-Aug-2021 3421.80 7490.18 55.20 3.00  19.00 3274.11
   09:29:28.034.15-Aug-2021 3421.80 7490.18 55.20 3.00  19.20 3274.11
   09:29:28.234.15-Aug-2021 3421.80 7491.35 55.20 3.00  19.40 3274.11
   09:29:28.434.15-Aug-2021 3421.80 7492.35 55.20 3.00  19.60 3274.11
   09:29:28.634.15-Aug-2021 3421.80 7493.83 55.20 3.00  19.80 3274.11
   09:29:28.834.15-Aug-2021 3421.80 7490.94 55.20 3.00  20.00 3274.11
   09:29:29.034.15-Aug-2021 3421.80 7490.94 55.20 3.00  20.20 3274.11
   09:29:29.234.15-Aug-2021 3421.80 7490.87 55.20 3.00  20.40 3274.11
   09:29:29.434.15-Aug-2021 3421.80 7491.36 55.20 3.00  20.60 3274.11
   09:29:29.634.15-Aug-2021 3421.80 7494.09 55.20 3.00  20.80 3274.11
   09:29:29.834.15-Aug-2021 3421.80 7489.74 55.20 3.00  21.00 3274.11
   09:29:30.034.15-Aug-2021 3421.80 7489.74 55.20 3.00  21.20 3274.11
   09:29:30.234.15-Aug-2021 3421.80 7488.96 55.19 3.00  21.40 3274.11
   09:29:30.434.15-Aug-2021 3421.80 7490.73 55.19 3.00  21.60 3274.11
   09:29:30.634.15-Aug-2021 3421.80 7490.71 55.19 3.00  21.80 3274.11
   09:29:30.834.15-Aug-2021 3421.80 7490.72 55.19 3.00  22.00 3274.11
   09:29:31.034.15-Aug-2021 3421.80 7490.72 55.19 3.00  22.20 3274.11
   09:29:31.234.15-Aug-2021 3421.80 7490.46 55.19 3.00  22.40 3274.11
   09:29:31.434.15-Aug-2021 3421.80 7490.18 55.19 3.00  22.60 3274.11
   09:29:31.634.15-Aug-2021 3421.80 7489.71 55.19 3.00  22.80 3274.11
