~Version Information
 VERS.                  2.0:   CWLS log ASCII Standard -VERSION 2.0
 WRAP.                   NO:   One line per depth step
~Well Information Block
#MNEM.UNIT     VALUE/NAME     DESCRIPTION
#---------     -----------    ---------------------------
 STRT.S             11:47:36 15-Aug-21: START TIME 11:47:36 15-Aug-21
 STOP.S             11:55:59 15-Aug-21: STOP TIME  11:55:59 15-Aug-21
 STEP.S                   0.00: STEP TIME
 NULL.                 -999.25: NULL VALUE
 DFWT.                        :  DIST FWL TEXT
 DFST.                        :  DIST FSL TEXT
 DMF .             Drill Floor:  DRILL MEAS FROM
 STIM.      17.18.56 20-Jun-21:  START TIME
 DATE.      17.18.56 20-Aug-21:  END TIME
 SPUD.               20-Jun-21:  SPUD DATE
 NREF.                    Grid:  NORTH REFERENCE
 HPTY.       Minimum Curvature:  HOLE POS TYPE
 DMOD.             Drill Model:  DRILL MOD DESC
 SVYD.                  Survey:  SURVEY DESC
 ILTD.               Lithology:  INTERP LTH DESC
 FTOP.          Formation Tops:  FORM TOPS DESC
 SON .        AZ-XX-0907056190:  JOB NUMBER
 PDAT.       Caspian Sea Level:  PERMANENT DATUM
 WTYP.                Deviated:  WELL TYPE
 MDS .        Operator Entered:  MAG DATA SOURCE
 COMP.     BP Exploration (Caspian Sea) Ltd.:  COMPANY
 UWI .            /AZE20000092:  UNIQUE WELL IDENTIFIER
 API .            /AZE20000092:  API NUMBER
 BASE.              Azerbaijan:  LOGGING EQUIPMENT BASE LOCATION
 REGN.                   EESSA:  REGION
 PROV.                    baku:  PROVINCE
 STAT.                    baku:  STATE NAME
 CTRY.              Azerbaijan:  COUNTRY NAME
 FLD .                     ACG:  FIELD NAME
 SRVC.          Turan Drilling:  CONTRACTOR
 MWDS.                    Baku:  MWD SHOP
 WELL.                     J26:  WELL NAME
 JOBN.        AZ-XX-0907056190:  JOB TICKET NUMB
 RIG .             West Chirag:  RIG NAME
 DOE .                     N/A:  DOE NUMBER
 DCON.         Sperry Drilling:  DIRECTNL CONTR
 UNIT.                     N/A:  LOGGING EQUIPMENT ID
 CNTY.                        :  COUNTY
 LOC .                        :  LOCATION
 LMF .             Drill Floor:  LOG MEASURED FROM
 TVDS.m                  43.00:  TVDSS CORRECTN
 LATI.deg                40.13:  LATITUDE
 LONG.deg                51.22:  LONGITUDE
 WHNS.m                  -7.12:  WELL HEAD N/S
 WHEW.m                  -9.46:  WELL HEAD E/W
 UTMX.m              519004.02:  UTM X
 UTMY.m             4443784.96:  UTM Y
 DFWL.m                   0.00:  DISTANCE FWL
 DFSL.m                   0.00:  DISTANCE FSL
 SDEP.m                 464.00:  START DEPTH
 TDD .m                3500.00:  TOTAL DEPTH (DRILLER)
 VSDR.deg               114.35:  VERT SEC DIRECT
 GVFD.g                   1.00:  GRAVITY FIELD
 MFLD.nT              50386.00:  MAGNETIC FIELD
 MDIP.deg                59.63:  MAGNETIC DIP
 MDEC.deg                 6.43:  MAGNETIC DECL
 GRDC.deg                 0.15:  GRID CORRECTION
 AZTC.deg                 6.29:  AZM TOTAL CORR
 EPD .m                   0.00:  ELEVATION
 EGL .m                   0.00:  GROUND ELEVATION
 WDMS.m                 169.80:  WD ELEV
 APD .m                  43.00:  DEPTH ABOVE PD
 VSEW.m                  -9.46:  VERT SEC E/W
 VSNS.m                  -7.12:  VERT SEC N/S
 AGAP.m                  43.00:  AIR GAP
 DEP .m                 356.16:  DEPTH
 EKB .m                  43.00:  KB ELEVATION
 EDF .m                  43.00:  DF ELEVATION
 TDL .m                 699.00:  TOTAL DEPTH (LOGGER)
 VSC .                       0:  VS TO CLOSURE
 MAGU.                 1853727:  MAGUTM CHECKSUM
~Parameter Information Block
#MNEM.UNIT       Value        Description
#---------     -----------    ---------------------------
 AV  .mps                 1.30:  Ann Velocity 
 AVMX.mps                 1.67:  Max Ann Veloc 
 AZIF.deg               280.40:  Azm, Final 
 BHAT.        Rotary Steerable:  BHA Type 
 BREV.rev            528970.00:  Rev Bit Total 
 BROT.°/30m               1.00:  Build Rotating 
 BS  .in                 12.25:  Bit Size 
 BSZ .in                 12.25:  Bit Size 
 BTPL.psig              738.00:  Bit Press Loss 
 CABU.                     Yes:  Customer Abuse 
 CGEO.        Elvin Suleymanov:  Customer Geo 
 COMM.                     lþe:  Run Comments 1 
 TCS .hr                 66.05:  Time Ciculation Ended 
 CV  .mps                 2.20:  Crit Velocity 
 CVMX.mps                 2.56:  Max Crit Veloc 
 DD1 .          Rashad Habibov:  Direct Drillr 1 
 DD2 .            Azer ravanov:  Direct Drillr 2 
 DD3 .           Teymur Agayev:  Direct Drillr 3 
 DDSV.               Geo-Pilot:  DD Service 
 DEFF.%                  90.00:  % Det Eff 
 DLRX.°/30m               2.95:  Dogleg Rot Max 
 DLSO.°/30m               1.00:  Dogleg Oriented 
 DLSX.°/30m               2.95:  Dogleg Str Max 
 DRET.      11.42.20 11-Aug-21:  Drill End Time 
 DRST.      23.03.20 08-Aug-21:  Drill Start Tim 
 DTIM.hr                 45.50:  Time Drilling 
 EDEP.m                3488.00:  End Depth 
 ENG1.         Marcelo Marcari:  Engineer 1 
 ENG2.         Dair Mahammadov:  Engineer 2 
 ENG3.       Davud Huseyn-zada:  Engineer 3 
 ENG4.         Yevgeniy Ulikov:  Engineer 4 
 ETIM.      17.45.20 17-Aug-21:  End Time 
 FLOI.gpm              1197.70:  Flow In 
 FLON.gpm              1100.00:  Flow In Min 
 FLOS.cptm                0.00:  Fluid Loss 
 FLOX.gpm              1200.00:  Flow In Max 
 DFT .        Mineral Oil Base:  Mud Type 
 FTRO.       Formation Presure:  FTWD Run Obj 
 HFLO.                      No:  High Flow 
 HPRE.                      No:  High Pressure 
 HTEM.                      No:  High Temp 
 HYDO.m                   1.80:  Hydro Offset 
 IFIN.deg                 9.87:  Inc, Final 
 IMAX.deg                19.96:  Inc Max 
 IMIN.deg                 3.82:  Inc Min 
 IMND.m                3257.42:  Inc Min Depth 
 IMXD.m                2945.53:  Inc Max Depth 
 JARR.                      No:  Jarring 
 LETM.      11.42.20 11-Aug-21:  Log End Time 
 LOST.hr                     0:  Lost Rig Time 
 LSTM.      23.03.20 08-Aug-21:  Log Start Time 
 MDCL.ppm             42500.00:  Mud Chlorides 
 MDES.     Inversion Oil/Synthetic:  Mud Desc 
 DFD .sg                  1.45:  Mud Density 
 MDMN.sg                  1.39:  Dens Mud Min 
 MDMX.sg                  1.57:  Dens Mud Max 
 MOIL.                   53.20:  Run Mud Oil % 
 MOWR.                   70:30:  Run Mud OWR 
 MSND.                       0:  Run Mud Sand % 
 MSOL.                   24.30:  Run Mud Solids% 
 DFV .spqt               79.00:  Mud Viscosity 
 MWOD.in                  8.00:  MWD Tool OD 
 MWSI.                      No:  Serv Intrp, MWD 
 OTIM.hr                253.06:  Time Operating 
 PCON.           Look Like New:  Pad Condition 
 PMAX.psia            11068.93:  Press Op, Max 
 PV  .cP                 36.00:  Mud PV 
 RUN .                    1000:  Run Number 
 ROPA.m/hr               15.34:  ROP Avg 
 ROPN.m/hr                4.00:  ROP Min 
 ROPX.m/hr               31.00:  ROP Max 
 RPMA.rpm               151.40:  RPM Surface Avg 
 RPMN.rpm               120.00:  RPM Surface Min 
 RPMX.rpm               160.00:  RPM Surface Max 
 RRUN.                    L505:  Rig Run Number 
 RTIM.hr                 10.00:  Time Reaming 
 SAZI.deg                88.92:  Azm, Start 
 SDEP.m                2789.00:  Start Depth 
 SIDD.                      No:  Serv Intrp, DD 
 SINC.deg                19.84:  Inc, Start 
 SPPA.psig             4421.39:  SPP Avg 
 SPPN.psig             4130.00:  SPP Min 
 SPPX.psig             4800.00:  SPP Max 
 STIM.      01.25.20 07-Aug-21:  Start Time 
 SVCS.                 DD, MWD:  Services 
 SVER.                    9.20:  Sperry Version 
 TDAT.m                 699.00:  Tot Depth Attmp 
 TDDF.                      No:  Trip for DD 
 TDLG.m                 699.00:  Tot Depth Loggd 
 TFF .                      No:  Trip for Fail 
 TQAA.f-kp               20.55:  Torque Abs Avg 
 TQAN.f-kp               15.00:  Torque Abs Min 
 TQAX.f-kp               24.00:  Torque Abs Max 
 TRRT.°/30m               0.50:  Turn Rotating 
 MRT .                    HCIM:  Maximum Recorded Temperature 
 TTMX.degC               82.35:  Max Tool Temp 
 VS01.                90654677:  Virtual Str1 SN 
 VS02.                90636294:  Virtual Str2 SN 
 VS03.                90653866:  Virtual Str3 SN 
 VS04.                90654674:  Virtual Str4 SN 
 WBMN.klb                10.00:  WOB Min 
 WITN.         Haytham Mostafa:  Customer Rep 
 WITN.           Rufat Babayev:  Customer Rep 2 
 WOBA.klb                22.43:  WOB Avg 
 WOBX.klb                35.00:  WOB Max 
 YP  .lhf2               32.00:  Yield Point 
~Curve Information Block
#MNEM.UNIT                 API CODE     Curve Description
#---------               -----------    ---------------------------
 TIME.HHMMSS            00 000 000 000:  GT Time & Date
 GTDEPTH.m              00 000 000 000:  GT Depth
 GTPQH.psia             00 000 000 000:  GT HR Quartz Pressure
 GTTQ.degC              00 000 000 000:  GT Quartz Temperature
 GTTN.NONE              00 000 000 000:  GT Test Number
 GTET.sec               00 000 000 000:  GT Elapsed Test Time
 GTTVD.m                00 000 000 000:  GT True Vertical Depth
#Other Information
#
#WARRANTY: Halliburton will use its best efforts to furnish customers with 
#accurate information and interpretations that are part of, and incident to, the services 
#provided.  However, Halliburton cannot and does not warrant the accuracy 
#or correctness of such information and interpretations.  Under no circumstances should any 
#such information or interpretation be relied upon as the sole basis for any drilling, 
#completion, production, or financial decision or any procedure involving any risk to the 
#safety of any drilling venture, drilling rig or its crew or any other third party.  The 
#Customer has full responsibility for all drilling, completion and production operation.  
#Halliburton makes no representations or warranties, either expressed or 
#implied, including, but not limited to, the implied warranties of merchantability or fitness 
#for a particular purpose, with respect to the services rendered.  In no event will 
#Halliburton be liable for failure to obtain any particular results or for 
#any damages, including, but not limited to, indirect, special or consequential damages, 
#resulting from the use of any information or interpretation provided by Halliburton.
#
~A           TIME           GTDEPTH  GTPQH  GTTQ  GTTN  GTET   GTTVD  
# ...
   11:51:49.144.15-Aug-2021 3405.50 2070.54 53.87 5.00 252.85 3258.07
   11:51:49.344.15-Aug-2021 3405.50 2070.54 53.87 5.00 253.05 3258.07
   11:51:49.544.15-Aug-2021 3405.50 2072.34 53.87 5.00 253.25 3258.07
   11:51:49.744.15-Aug-2021 3405.50 2073.06 53.87 5.00 253.45 3258.07
   11:51:49.944.15-Aug-2021 3405.50 2073.73 53.87 5.00 253.65 3258.07
   11:51:50.144.15-Aug-2021 3405.50 2074.63 53.87 5.00 253.85 3258.07
   11:51:50.344.15-Aug-2021 3405.50 2074.63 53.87 5.00 254.05 3258.07
   11:51:50.544.15-Aug-2021 3405.50 2076.67 53.87 5.00 254.25 3258.07
   11:51:50.744.15-Aug-2021 3405.50 2077.48 53.87 5.00 254.45 3258.07
   11:51:50.943.15-Aug-2021 3405.50 2078.31 53.87 5.00 254.65 3258.07
   11:51:51.143.15-Aug-2021 3405.50 2079.13 53.87 5.00 254.85 3258.07
   11:51:51.343.15-Aug-2021 3405.50 2079.13 53.87 5.00 255.05 3258.07
   11:51:51.543.15-Aug-2021 3405.50 2080.66 53.87 5.00 255.25 3258.07
   11:51:51.743.15-Aug-2021 3405.50 2081.47 53.87 5.00 255.45 3258.07
   11:51:51.943.15-Aug-2021 3405.50 2082.32 53.87 5.00 255.65 3258.07
   11:51:52.143.15-Aug-2021 3405.50 2083.07 53.87 5.00 255.85 3258.07
   11:51:52.343.15-Aug-2021 3405.50 2083.07 53.87 5.00 256.05 3258.07
   11:51:52.542.15-Aug-2021 3405.50 2084.66 53.87 5.00 256.25 3258.07
   11:51:52.742.15-Aug-2021 3405.50 2085.35 53.87 5.00 256.45 3258.07
   11:51:52.942.15-Aug-2021 3405.50 2086.09 53.87 5.00 256.65 3258.07
   11:51:53.142.15-Aug-2021 3405.50 2086.67 53.87 5.00 256.85 3258.07
   11:51:53.342.15-Aug-2021 3405.50 2086.67 53.87 5.00 257.05 3258.07
   11:51:53.542.15-Aug-2021 3405.50 2088.24 53.87 5.00 257.25 3258.07
   11:51:53.742.15-Aug-2021 3405.50 2089.17 53.87 5.00 257.45 3258.07
   11:51:53.942.15-Aug-2021 3405.50 2090.04 53.87 5.00 257.64 3258.07
   11:51:54.141.15-Aug-2021 3405.50 2090.90 53.87 5.00 257.84 3258.07
   11:51:54.341.15-Aug-2021 3405.50 2090.90 53.87 5.00 258.04 3258.07
   11:51:54.541.15-Aug-2021 3405.50 2092.33 53.87 5.00 258.24 3258.07
   11:51:54.741.15-Aug-2021 3405.50 2093.22 53.87 5.00 258.44 3258.07
   11:51:54.941.15-Aug-2021 3405.50 2094.04 53.87 5.00 258.64 3258.07
   11:51:55.141.15-Aug-2021 3405.50 2094.89 53.87 5.00 258.84 3258.07
   11:51:55.341.15-Aug-2021 3405.50 2094.89 53.87 5.00 259.04 3258.07
   11:51:55.541.15-Aug-2021 3405.50 2096.40 53.87 5.00 259.24 3258.07
   11:51:55.740.15-Aug-2021 3405.50 2097.50 53.87 5.00 259.44 3258.07
   11:51:55.940.15-Aug-2021 3405.50 2098.19 53.87 5.00 259.64 3258.07
   11:51:56.140.15-Aug-2021 3405.50 2099.18 53.87 5.00 259.84 3258.07
   11:51:56.340.15-Aug-2021 3405.50 2099.18 53.87 5.00 260.04 3258.07
   11:51:56.540.15-Aug-2021 3405.50 2100.82 53.87 5.00 260.24 3258.07
   11:51:56.740.15-Aug-2021 3405.50 2101.58 53.87 5.00 260.44 3258.07
   11:51:56.940.15-Aug-2021 3405.50 2102.18 53.87 5.00 260.64 3258.07
   11:51:57.140.15-Aug-2021 3405.50 2103.19 53.87 5.00 260.84 3258.07
   11:51:57.340.15-Aug-2021 3405.50 2103.19 53.87 5.00 261.04 3258.07
   11:51:57.539.15-Aug-2021 3405.50 2105.03 53.87 5.00 261.24 3258.07
   11:51:57.739.15-Aug-2021 3405.50 2105.68 53.87 5.00 261.44 3258.07
   11:51:57.939.15-Aug-2021 3405.50 2106.68 53.87 5.00 261.64 3258.07
   11:51:58.139.15-Aug-2021 3405.50 2107.70 53.87 5.00 261.84 3258.07
   11:51:58.339.15-Aug-2021 3405.50 2107.70 53.87 5.00 262.04 3258.07
   11:51:58.539.15-Aug-2021 3405.50 2109.25 53.87 5.00 262.24 3258.07
   11:51:58.739.15-Aug-2021 3405.50 2109.87 53.87 5.00 262.44 3258.07
   11:51:58.939.15-Aug-2021 3405.50 2110.88 53.87 5.00 262.64 3258.07
   11:51:59.138.15-Aug-2021 3405.50 2112.11 53.87 5.00 262.84 3258.07
   11:51:59.338.15-Aug-2021 3405.50 2112.11 53.87 5.00 263.04 3258.07
   11:51:59.538.15-Aug-2021 3405.50 2113.53 53.87 5.00 263.24 3258.07
   11:51:59.738.15-Aug-2021 3405.50 2114.27 53.87 5.00 263.44 3258.07
   11:51:59.938.15-Aug-2021 3405.50 2114.91 53.87 5.00 263.64 3258.07
   11:52:00.138.15-Aug-2021 3405.50 2115.61 53.87 5.00 263.84 3258.07
   11:52:00.338.15-Aug-2021 3405.50 2115.61 53.87 5.00 264.04 3258.07
   11:52:00.538.15-Aug-2021 3405.50 2116.92 53.87 5.00 264.24 3258.07
   11:52:00.737.15-Aug-2021 3405.50 2118.07 53.87 5.00 264.44 3258.07
   11:52:00.937.15-Aug-2021 3405.50 2118.96 53.87 5.00 264.64 3258.07
   11:52:01.137.15-Aug-2021 3405.50 2119.63 53.87 5.00 264.84 3258.07
   11:52:01.337.15-Aug-2021 3405.50 2119.63 53.87 5.00 265.04 3258.07
   11:52:01.537.15-Aug-2021 3405.50 2121.01 53.87 5.00 265.24 3258.07
   11:52:01.737.15-Aug-2021 3405.50 2121.77 53.87 5.00 265.44 3258.07
   11:52:01.937.15-Aug-2021 3405.50 2122.52 53.87 5.00 265.64 3258.07
   11:52:02.137.15-Aug-2021 3405.50 2123.40 53.86 5.00 265.84 3258.07
   11:52:02.337.15-Aug-2021 3405.50 2123.40 53.86 5.00 266.04 3258.07
   11:52:02.536.15-Aug-2021 3405.50 2124.96 53.86 5.00 266.24 3258.07
   11:52:02.736.15-Aug-2021 3405.50 2125.76 53.86 5.00 266.44 3258.07
   11:52:02.936.15-Aug-2021 3405.50 2126.33 53.86 5.00 266.64 3258.07
   11:52:03.136.15-Aug-2021 3405.50 2126.97 53.86 5.00 266.84 3258.07
   11:52:03.336.15-Aug-2021 3405.50 2126.97 53.86 5.00 267.04 3258.07
   11:52:03.536.15-Aug-2021 3405.50 2128.64 53.86 5.00 267.24 3258.07
   11:52:03.736.15-Aug-2021 3405.50 2129.57 53.86 5.00 267.44 3258.07
   11:52:03.936.15-Aug-2021 3405.50 2130.30 53.86 5.00 267.64 3258.07
   11:52:04.135.15-Aug-2021 3405.50 2131.42 53.86 5.00 267.84 3258.07
   11:52:04.335.15-Aug-2021 3405.50 2131.42 53.86 5.00 268.04 3258.07
   11:52:04.535.15-Aug-2021 3405.50 2132.86 53.86 5.00 268.24 3258.07
   11:52:04.735.15-Aug-2021 3405.50 2133.58 53.86 5.00 268.44 3258.07
   11:52:04.935.15-Aug-2021 3405.50 2134.21 53.86 5.00 268.64 3258.07
   11:52:05.135.15-Aug-2021 3405.50 2135.32 53.86 5.00 268.84 3258.07
   11:52:05.335.15-Aug-2021 3405.50 2135.32 53.86 5.00 269.04 3258.07
   11:52:05.535.15-Aug-2021 3405.50 2136.98 53.86 5.00 269.24 3258.07
   11:52:05.734.15-Aug-2021 3405.50 2137.63 53.86 5.00 269.44 3258.07
   11:52:05.934.15-Aug-2021 3405.50 2138.60 53.86 5.00 269.64 3258.07
   11:52:06.134.15-Aug-2021 3405.50 2139.60 53.86 5.00 269.84 3258.07
   11:52:06.334.15-Aug-2021 3405.50 2139.60 53.86 5.00 270.04 3258.07
   11:52:06.534.15-Aug-2021 3405.50 2141.18 53.86 5.00 270.24 3258.07
   11:52:06.734.15-Aug-2021 3405.50 2141.78 53.86 5.00 270.44 3258.07
   11:52:06.934.15-Aug-2021 3405.50 2142.44 53.86 5.00 270.64 3258.07
   11:52:07.134.15-Aug-2021 3405.50 2143.23 53.86 5.00 270.84 3258.07
   11:52:07.334.15-Aug-2021 3405.50 2143.23 53.86 5.00 271.04 3258.07
   11:52:07.533.15-Aug-2021 3405.50 2144.91 53.86 5.00 271.24 3258.07
   11:52:07.733.15-Aug-2021 3405.50 2145.73 53.86 5.00 271.44 3258.07
   11:52:07.933.15-Aug-2021 3405.50 2146.62 53.86 5.00 271.64 3258.07
   11:52:08.133.15-Aug-2021 3405.50 2147.32 53.86 5.00 271.84 3258.07
   11:52:08.333.15-Aug-2021 3405.50 2147.32 53.86 5.00 272.04 3258.07
   11:52:08.533.15-Aug-2021 3405.50 2148.75 53.86 5.00 272.24 3258.07
   11:52:08.733.15-Aug-2021 3405.50 2149.36 53.86 5.00 272.44 3258.07
   11:52:08.933.15-Aug-2021 3405.50 2149.93 53.86 5.00 272.64 3258.07
   11:52:09.132.15-Aug-2021 3405.50 2151.07 53.86 5.00 272.84 3258.07
   11:52:09.332.15-Aug-2021 3405.50 2151.07 53.86 5.00 273.04 3258.07
   11:52:09.532.15-Aug-2021 3405.50 2152.64 53.86 5.00 273.24 3258.07
   11:52:09.732.15-Aug-2021 3405.50 2153.44 53.86 5.00 273.44 3258.07
   11:52:09.932.15-Aug-2021 3405.50 2153.98 53.86 5.00 273.64 3258.07
   11:52:10.132.15-Aug-2021 3405.50 2154.62 53.86 5.00 273.84 3258.07
   11:52:10.332.15-Aug-2021 3405.50 2154.62 53.86 5.00 274.04 3258.07
   11:52:10.532.15-Aug-2021 3405.50 2156.48 53.86 5.00 274.24 3258.07
   11:52:10.731.15-Aug-2021 3405.50 2156.89 53.86 5.00 274.43 3258.07
   11:52:10.931.15-Aug-2021 3405.50 2157.76 53.86 5.00 274.63 3258.07
   11:52:11.131.15-Aug-2021 3405.50 2158.46 53.86 5.00 274.83 3258.07
   11:52:11.331.15-Aug-2021 3405.50 2158.46 53.86 5.00 275.03 3258.07
   11:52:11.531.15-Aug-2021 3405.50 2159.99 53.86 5.00 275.23 3258.07
   11:52:11.731.15-Aug-2021 3405.50 2160.96 53.86 5.00 275.43 3258.07
   11:52:11.931.15-Aug-2021 3405.50 2161.35 53.86 5.00 275.63 3258.07
