~Version Information
 VERS.                  2.0:   CWLS log ASCII Standard -VERSION 2.0
 WRAP.                   NO:   One line per depth step
~Well Information Block
#MNEM.UNIT     VALUE/NAME     DESCRIPTION
#---------     -----------    ---------------------------
 STRT.S             10:08:54 15-Aug-21: START TIME 10:08:54 15-Aug-21
 STOP.S             10:17:25 15-Aug-21: STOP TIME  10:17:25 15-Aug-21
 STEP.S                   0.00: STEP TIME
 NULL.                 -999.25: NULL VALUE
 DFWT.                        :  DIST FWL TEXT
 DFST.                        :  DIST FSL TEXT
 DMF .             Drill Floor:  DRILL MEAS FROM
 STIM.      17.18.56 20-Jun-21:  START TIME
 DATE.      17.18.56 20-Aug-21:  END TIME
 SPUD.               20-Jun-21:  SPUD DATE
 NREF.                    Grid:  NORTH REFERENCE
 HPTY.       Minimum Curvature:  HOLE POS TYPE
 DMOD.             Drill Model:  DRILL MOD DESC
 SVYD.                  Survey:  SURVEY DESC
 ILTD.               Lithology:  INTERP LTH DESC
 FTOP.          Formation Tops:  FORM TOPS DESC
 SON .        AZ-XX-0907056190:  JOB NUMBER
 PDAT.       Caspian Sea Level:  PERMANENT DATUM
 WTYP.                Deviated:  WELL TYPE
 MDS .        Operator Entered:  MAG DATA SOURCE
 COMP.     BP Exploration (Caspian Sea) Ltd.:  COMPANY
 UWI .            /AZE20000092:  UNIQUE WELL IDENTIFIER
 API .            /AZE20000092:  API NUMBER
 BASE.              Azerbaijan:  LOGGING EQUIPMENT BASE LOCATION
 REGN.                   EESSA:  REGION
 PROV.                    baku:  PROVINCE
 STAT.                    baku:  STATE NAME
 CTRY.              Azerbaijan:  COUNTRY NAME
 FLD .                     ACG:  FIELD NAME
 SRVC.          Turan Drilling:  CONTRACTOR
 MWDS.                    Baku:  MWD SHOP
 WELL.                     J26:  WELL NAME
 JOBN.        AZ-XX-0907056190:  JOB TICKET NUMB
 RIG .             West Chirag:  RIG NAME
 DOE .                     N/A:  DOE NUMBER
 DCON.         Sperry Drilling:  DIRECTNL CONTR
 UNIT.                     N/A:  LOGGING EQUIPMENT ID
 CNTY.                        :  COUNTY
 LOC .                        :  LOCATION
 LMF .             Drill Floor:  LOG MEASURED FROM
 TVDS.m                  43.00:  TVDSS CORRECTN
 LATI.deg                40.13:  LATITUDE
 LONG.deg                51.22:  LONGITUDE
 WHNS.m                  -7.12:  WELL HEAD N/S
 WHEW.m                  -9.46:  WELL HEAD E/W
 UTMX.m              519004.02:  UTM X
 UTMY.m             4443784.96:  UTM Y
 DFWL.m                   0.00:  DISTANCE FWL
 DFSL.m                   0.00:  DISTANCE FSL
 SDEP.m                 464.00:  START DEPTH
 TDD .m                3500.00:  TOTAL DEPTH (DRILLER)
 VSDR.deg               114.35:  VERT SEC DIRECT
 GVFD.g                   1.00:  GRAVITY FIELD
 MFLD.nT              50386.00:  MAGNETIC FIELD
 MDIP.deg                59.63:  MAGNETIC DIP
 MDEC.deg                 6.43:  MAGNETIC DECL
 GRDC.deg                 0.15:  GRID CORRECTION
 AZTC.deg                 6.29:  AZM TOTAL CORR
 EPD .m                   0.00:  ELEVATION
 EGL .m                   0.00:  GROUND ELEVATION
 WDMS.m                 169.80:  WD ELEV
 APD .m                  43.00:  DEPTH ABOVE PD
 VSEW.m                  -9.46:  VERT SEC E/W
 VSNS.m                  -7.12:  VERT SEC N/S
 AGAP.m                  43.00:  AIR GAP
 DEP .m                 356.16:  DEPTH
 EKB .m                  43.00:  KB ELEVATION
 EDF .m                  43.00:  DF ELEVATION
 TDL .m                 699.00:  TOTAL DEPTH (LOGGER)
 VSC .                       0:  VS TO CLOSURE
 MAGU.                 1853727:  MAGUTM CHECKSUM
~Parameter Information Block
#MNEM.UNIT       Value        Description
#---------     -----------    ---------------------------
 AV  .mps                 1.30:  Ann Velocity 
 AVMX.mps                 1.67:  Max Ann Veloc 
 AZIF.deg               280.40:  Azm, Final 
 BHAT.        Rotary Steerable:  BHA Type 
 BREV.rev            528970.00:  Rev Bit Total 
 BROT.°/30m               1.00:  Build Rotating 
 BS  .in                 12.25:  Bit Size 
 BSZ .in                 12.25:  Bit Size 
 BTPL.psig              738.00:  Bit Press Loss 
 CABU.                     Yes:  Customer Abuse 
 CGEO.        Elvin Suleymanov:  Customer Geo 
 COMM.                     ´½}:  Run Comments 1 
 TCS .hr                 66.05:  Time Ciculation Ended 
 CV  .mps                 2.20:  Crit Velocity 
 CVMX.mps                 2.56:  Max Crit Veloc 
 DD1 .          Rashad Habibov:  Direct Drillr 1 
 DD2 .            Azer ravanov:  Direct Drillr 2 
 DD3 .           Teymur Agayev:  Direct Drillr 3 
 DDSV.               Geo-Pilot:  DD Service 
 DEFF.%                  90.00:  % Det Eff 
 DLRX.°/30m               2.95:  Dogleg Rot Max 
 DLSO.°/30m               1.00:  Dogleg Oriented 
 DLSX.°/30m               2.95:  Dogleg Str Max 
 DRET.      11.42.20 11-Aug-21:  Drill End Time 
 DRST.      23.03.20 08-Aug-21:  Drill Start Tim 
 DTIM.hr                 45.50:  Time Drilling 
 EDEP.m                3488.00:  End Depth 
 ENG1.         Marcelo Marcari:  Engineer 1 
 ENG2.         Dair Mahammadov:  Engineer 2 
 ENG3.       Davud Huseyn-zada:  Engineer 3 
 ENG4.         Yevgeniy Ulikov:  Engineer 4 
 ETIM.      17.45.20 17-Aug-21:  End Time 
 FLOI.gpm              1197.70:  Flow In 
 FLON.gpm              1100.00:  Flow In Min 
 FLOS.cptm                0.00:  Fluid Loss 
 FLOX.gpm              1200.00:  Flow In Max 
 DFT .        Mineral Oil Base:  Mud Type 
 FTRO.       Formation Presure:  FTWD Run Obj 
 HFLO.                      No:  High Flow 
 HPRE.                      No:  High Pressure 
 HTEM.                      No:  High Temp 
 HYDO.m                   1.80:  Hydro Offset 
 IFIN.deg                 9.87:  Inc, Final 
 IMAX.deg                19.96:  Inc Max 
 IMIN.deg                 3.82:  Inc Min 
 IMND.m                3257.42:  Inc Min Depth 
 IMXD.m                2945.53:  Inc Max Depth 
 JARR.                      No:  Jarring 
 LETM.      11.42.20 11-Aug-21:  Log End Time 
 LOST.hr                     0:  Lost Rig Time 
 LSTM.      23.03.20 08-Aug-21:  Log Start Time 
 MDCL.ppm             42500.00:  Mud Chlorides 
 MDES.     Inversion Oil/Synthetic:  Mud Desc 
 DFD .sg                  1.45:  Mud Density 
 MDMN.sg                  1.39:  Dens Mud Min 
 MDMX.sg                  1.57:  Dens Mud Max 
 MOIL.                   53.20:  Run Mud Oil % 
 MOWR.                   70:30:  Run Mud OWR 
 MSND.                       0:  Run Mud Sand % 
 MSOL.                   24.30:  Run Mud Solids% 
 DFV .spqt               79.00:  Mud Viscosity 
 MWOD.in                  8.00:  MWD Tool OD 
 MWSI.                      No:  Serv Intrp, MWD 
 OTIM.hr                253.06:  Time Operating 
 PCON.           Look Like New:  Pad Condition 
 PMAX.psia            11068.93:  Press Op, Max 
 PV  .cP                 36.00:  Mud PV 
 RUN .                    1000:  Run Number 
 ROPA.m/hr               15.34:  ROP Avg 
 ROPN.m/hr                4.00:  ROP Min 
 ROPX.m/hr               31.00:  ROP Max 
 RPMA.rpm               151.40:  RPM Surface Avg 
 RPMN.rpm               120.00:  RPM Surface Min 
 RPMX.rpm               160.00:  RPM Surface Max 
 RRUN.                    L505:  Rig Run Number 
 RTIM.hr                 10.00:  Time Reaming 
 SAZI.deg                88.92:  Azm, Start 
 SDEP.m                2789.00:  Start Depth 
 SIDD.                      No:  Serv Intrp, DD 
 SINC.deg                19.84:  Inc, Start 
 SPPA.psig             4421.39:  SPP Avg 
 SPPN.psig             4130.00:  SPP Min 
 SPPX.psig             4800.00:  SPP Max 
 STIM.      01.25.20 07-Aug-21:  Start Time 
 SVCS.                 DD, MWD:  Services 
 SVER.                    9.20:  Sperry Version 
 TDAT.m                 699.00:  Tot Depth Attmp 
 TDDF.                      No:  Trip for DD 
 TDLG.m                 699.00:  Tot Depth Loggd 
 TFF .                      No:  Trip for Fail 
 TQAA.f-kp               20.55:  Torque Abs Avg 
 TQAN.f-kp               15.00:  Torque Abs Min 
 TQAX.f-kp               24.00:  Torque Abs Max 
 TRRT.°/30m               0.50:  Turn Rotating 
 MRT .                    HCIM:  Maximum Recorded Temperature 
 TTMX.degC               82.35:  Max Tool Temp 
 VS01.                90654677:  Virtual Str1 SN 
 VS02.                90636294:  Virtual Str2 SN 
 VS03.                90653866:  Virtual Str3 SN 
 VS04.                90654674:  Virtual Str4 SN 
 WBMN.klb                10.00:  WOB Min 
 WITN.         Haytham Mostafa:  Customer Rep 
 WITN.           Rufat Babayev:  Customer Rep 2 
 WOBA.klb                22.43:  WOB Avg 
 WOBX.klb                35.00:  WOB Max 
 YP  .lhf2               32.00:  Yield Point 
~Curve Information Block
#MNEM.UNIT                 API CODE     Curve Description
#---------               -----------    ---------------------------
 TIME.HHMMSS            00 000 000 000:  GT Time & Date
 GTDEPTH.m              00 000 000 000:  GT Depth
 GTPQH.psia             00 000 000 000:  GT HR Quartz Pressure
 GTTQ.degC              00 000 000 000:  GT Quartz Temperature
 GTTN.NONE              00 000 000 000:  GT Test Number
 GTET.sec               00 000 000 000:  GT Elapsed Test Time
 GTTVD.m                00 000 000 000:  GT True Vertical Depth
#Other Information
#
#WARRANTY: Halliburton will use its best efforts to furnish customers with 
#accurate information and interpretations that are part of, and incident to, the services 
#provided.  However, Halliburton cannot and does not warrant the accuracy 
#or correctness of such information and interpretations.  Under no circumstances should any 
#such information or interpretation be relied upon as the sole basis for any drilling, 
#completion, production, or financial decision or any procedure involving any risk to the 
#safety of any drilling venture, drilling rig or its crew or any other third party.  The 
#Customer has full responsibility for all drilling, completion and production operation.  
#Halliburton makes no representations or warranties, either expressed or 
#implied, including, but not limited to, the implied warranties of merchantability or fitness 
#for a particular purpose, with respect to the services rendered.  In no event will 
#Halliburton be liable for failure to obtain any particular results or for 
#any damages, including, but not limited to, indirect, special or consequential damages, 
#resulting from the use of any information or interpretation provided by Halliburton.
#
~A           TIME           GTDEPTH  GTPQH  GTTQ  GTTN  GTET   GTTVD  
# ...
   10:13:53.270.15-Aug-2021 3416.50 5185.05 54.36 4.00 299.05 3268.90
   10:13:53.470.15-Aug-2021 3416.50 5185.05 54.36 4.00 299.25 3268.90
   10:13:53.670.15-Aug-2021 3416.50 5185.02 54.36 4.00 299.45 3268.90
   10:13:53.870.15-Aug-2021 3416.50 5184.94 54.36 4.00 299.65 3268.90
   10:13:54.070.15-Aug-2021 3416.50 5185.99 54.35 4.00 299.85 3268.90
   10:13:54.270.15-Aug-2021 3416.50 5184.40 54.35 4.00 300.05 3268.90
   10:13:54.470.15-Aug-2021 3416.50 5184.40 54.35 4.00 300.25 3268.90
   10:13:54.670.15-Aug-2021 3416.50 5185.25 54.35 4.00 300.45 3268.90
   10:13:54.870.15-Aug-2021 3416.50 5184.84 54.35 4.00 300.65 3268.90
   10:13:55.070.15-Aug-2021 3416.50 5185.99 54.35 4.00 300.85 3268.90
   10:13:55.271.15-Aug-2021 3416.50 5184.41 54.35 4.00 301.05 3268.90
   10:13:55.471.15-Aug-2021 3416.50 5184.41 54.35 4.00 301.25 3268.90
   10:13:55.671.15-Aug-2021 3416.50 5185.20 54.35 4.00 301.45 3268.90
   10:13:55.871.15-Aug-2021 3416.50 5185.83 54.35 4.00 301.65 3268.90
   10:13:56.071.15-Aug-2021 3416.50 5184.35 54.35 4.00 301.85 3268.90
   10:13:56.271.15-Aug-2021 3416.50 5185.15 54.35 4.00 302.05 3268.90
   10:13:56.471.15-Aug-2021 3416.50 5185.15 54.35 4.00 302.25 3268.90
   10:13:56.671.15-Aug-2021 3416.50 5185.31 54.35 4.00 302.45 3268.90
   10:13:56.871.15-Aug-2021 3416.50 5184.96 54.35 4.00 302.65 3268.90
   10:13:57.071.15-Aug-2021 3416.50 5185.12 54.35 4.00 302.85 3268.90
   10:13:57.271.15-Aug-2021 3416.50 5185.41 54.35 4.00 303.05 3268.90
   10:13:57.471.15-Aug-2021 3416.50 5185.41 54.35 4.00 303.25 3268.90
   10:13:57.671.15-Aug-2021 3416.50 5185.43 54.35 4.00 303.45 3268.90
   10:13:57.871.15-Aug-2021 3416.50 5185.22 54.35 4.00 303.65 3268.90
   10:13:58.071.15-Aug-2021 3416.50 5185.09 54.35 4.00 303.85 3268.90
   10:13:58.271.15-Aug-2021 3416.50 5185.04 54.35 4.00 304.05 3268.90
   10:13:58.471.15-Aug-2021 3416.50 5185.04 54.35 4.00 304.25 3268.90
   10:13:58.671.15-Aug-2021 3416.50 5185.48 54.35 4.00 304.45 3268.90
   10:13:58.871.15-Aug-2021 3416.50 5184.84 54.35 4.00 304.65 3268.90
   10:13:59.071.15-Aug-2021 3416.50 5185.15 54.35 4.00 304.85 3268.90
   10:13:59.271.15-Aug-2021 3416.50 5184.97 54.35 4.00 305.05 3268.90
   10:13:59.471.15-Aug-2021 3416.50 5184.97 54.35 4.00 305.25 3268.90
   10:13:59.671.15-Aug-2021 3416.50 5184.77 54.35 4.00 305.45 3268.90
   10:13:59.871.15-Aug-2021 3416.50 5185.29 54.35 4.00 305.65 3268.90
   10:14:00.071.15-Aug-2021 3416.50 5184.93 54.35 4.00 305.85 3268.90
   10:14:00.271.15-Aug-2021 3416.50 5185.23 54.35 4.00 306.05 3268.90
   10:14:00.471.15-Aug-2021 3416.50 5185.23 54.35 4.00 306.25 3268.90
   10:14:00.671.15-Aug-2021 3416.50 5185.20 54.35 4.00 306.45 3268.90
   10:14:00.871.15-Aug-2021 3416.50 5185.07 54.35 4.00 306.65 3268.90
   10:14:01.071.15-Aug-2021 3416.50 5184.94 54.35 4.00 306.85 3268.90
   10:14:01.271.15-Aug-2021 3416.50 5185.86 54.35 4.00 307.05 3268.90
   10:14:01.472.15-Aug-2021 3416.50 5185.86 54.35 4.00 307.25 3268.90
   10:14:01.672.15-Aug-2021 3416.50 5185.22 54.35 4.00 307.45 3268.90
   10:14:01.872.15-Aug-2021 3416.50 5185.02 54.35 4.00 307.65 3268.90
   10:14:02.072.15-Aug-2021 3416.50 5185.08 54.35 4.00 307.85 3268.90
   10:14:02.272.15-Aug-2021 3416.50 5185.79 54.35 4.00 308.05 3268.90
   10:14:02.472.15-Aug-2021 3416.50 5185.79 54.35 4.00 308.25 3268.90
   10:14:02.672.15-Aug-2021 3416.50 5185.08 54.35 4.00 308.45 3268.90
   10:14:02.872.15-Aug-2021 3416.50 5185.01 54.35 4.00 308.65 3268.90
   10:14:03.072.15-Aug-2021 3416.50 5185.98 54.35 4.00 308.85 3268.90
   10:14:03.272.15-Aug-2021 3416.50 5184.44 54.35 4.00 309.05 3268.90
   10:14:03.472.15-Aug-2021 3416.50 5184.44 54.35 4.00 309.25 3268.90
   10:14:03.672.15-Aug-2021 3416.50 5185.04 54.35 4.00 309.45 3268.90
   10:14:03.872.15-Aug-2021 3416.50 5186.01 54.35 4.00 309.65 3268.90
   10:14:04.072.15-Aug-2021 3416.50 5184.30 54.35 4.00 309.85 3268.90
   10:14:04.272.15-Aug-2021 3416.50 5185.31 54.35 4.00 310.05 3268.90
   10:14:04.472.15-Aug-2021 3416.50 5185.31 54.35 4.00 310.25 3268.90
   10:14:04.672.15-Aug-2021 3416.50 5184.78 54.35 4.00 310.45 3268.90
   10:14:04.872.15-Aug-2021 3416.50 5185.74 54.35 4.00 310.65 3268.90
   10:14:05.072.15-Aug-2021 3416.50 5184.75 54.35 4.00 310.85 3268.90
   10:14:05.272.15-Aug-2021 3416.50 5185.10 54.35 4.00 311.05 3268.90
   10:14:05.472.15-Aug-2021 3416.50 5185.10 54.35 4.00 311.25 3268.90
   10:14:05.672.15-Aug-2021 3416.50 5185.39 54.35 4.00 311.45 3268.90
   10:14:05.872.15-Aug-2021 3416.50 5184.84 54.35 4.00 311.65 3268.90
   10:14:06.072.15-Aug-2021 3416.50 5185.04 54.35 4.00 311.85 3268.90
   10:14:06.272.15-Aug-2021 3416.50 5185.33 54.35 4.00 312.05 3268.90
   10:14:06.472.15-Aug-2021 3416.50 5185.33 54.35 4.00 312.25 3268.90
   10:14:06.672.15-Aug-2021 3416.50 5185.02 54.35 4.00 312.45 3268.90
   10:14:06.872.15-Aug-2021 3416.50 5184.94 54.35 4.00 312.65 3268.90
   10:14:07.072.15-Aug-2021 3416.50 5185.50 54.35 4.00 312.85 3268.90
   10:14:07.272.15-Aug-2021 3416.50 5184.73 54.35 4.00 313.05 3268.90
   10:14:07.472.15-Aug-2021 3416.50 5184.73 54.35 4.00 313.25 3268.90
   10:14:07.673.15-Aug-2021 3416.50 5184.95 54.35 4.00 313.45 3268.90
   10:14:07.873.15-Aug-2021 3416.50 5185.20 54.35 4.00 313.65 3268.90
   10:14:08.073.15-Aug-2021 3416.50 5185.02 54.35 4.00 313.85 3268.90
   10:14:08.273.15-Aug-2021 3416.50 5185.16 54.35 4.00 314.05 3268.90
   10:14:08.473.15-Aug-2021 3416.50 5185.16 54.35 4.00 314.25 3268.90
   10:14:08.673.15-Aug-2021 3416.50 5185.11 54.35 4.00 314.45 3268.90
   10:14:08.873.15-Aug-2021 3416.50 5185.21 54.35 4.00 314.65 3268.90
   10:14:09.073.15-Aug-2021 3416.50 5184.84 54.35 4.00 314.85 3268.90
   10:14:09.273.15-Aug-2021 3416.50 5185.28 54.35 4.00 315.05 3268.90
   10:14:09.473.15-Aug-2021 3416.50 5185.28 54.35 4.00 315.25 3268.90
   10:14:09.673.15-Aug-2021 3416.50 5185.05 54.35 4.00 315.45 3268.90
   10:14:09.873.15-Aug-2021 3416.50 5185.18 54.35 4.00 315.65 3268.90
   10:14:10.073.15-Aug-2021 3416.50 5184.91 54.35 4.00 315.85 3268.90
   10:14:10.273.15-Aug-2021 3416.50 5185.62 54.35 4.00 316.05 3268.90
   10:14:10.473.15-Aug-2021 3416.50 5185.62 54.35 4.00 316.25 3268.90
   10:14:10.673.15-Aug-2021 3416.50 5185.18 54.35 4.00 316.45 3268.90
   10:14:10.873.15-Aug-2021 3416.50 5184.83 54.35 4.00 316.65 3268.90
   10:14:11.073.15-Aug-2021 3416.50 5186.08 54.35 4.00 316.85 3268.90
   10:14:11.273.15-Aug-2021 3416.50 5184.42 54.35 4.00 317.05 3268.90
   10:14:11.473.15-Aug-2021 3416.50 5184.42 54.35 4.00 317.25 3268.90
   10:14:11.673.15-Aug-2021 3416.50 5185.14 54.35 4.00 317.45 3268.90
   10:14:11.873.15-Aug-2021 3416.50 5185.02 54.35 4.00 317.65 3268.90
   10:14:12.073.15-Aug-2021 3416.50 5185.83 54.35 4.00 317.85 3268.90
   10:14:12.273.15-Aug-2021 3416.50 5184.53 54.35 4.00 318.05 3268.90
   10:14:12.473.15-Aug-2021 3416.50 5184.53 54.35 4.00 318.25 3268.90
   10:14:12.673.15-Aug-2021 3416.50 5185.25 54.35 4.00 318.45 3268.90
   10:14:12.873.15-Aug-2021 3416.50 5185.86 54.35 4.00 318.65 3268.90
   10:14:13.073.15-Aug-2021 3416.50 5184.40 54.35 4.00 318.85 3268.90
   10:14:13.273.15-Aug-2021 3416.50 5185.18 54.35 4.00 319.05 3268.90
   10:14:13.473.15-Aug-2021 3416.50 5185.18 54.35 4.00 319.25 3268.90
   10:14:13.674.15-Aug-2021 3416.50 5185.74 54.35 4.00 319.45 3268.90
   10:14:13.874.15-Aug-2021 3416.50 5184.46 54.35 4.00 319.65 3268.90
   10:14:14.074.15-Aug-2021 3416.50 5185.20 54.35 4.00 319.85 3268.90
   10:14:14.274.15-Aug-2021 3416.50 5185.40 54.35 4.00 320.05 3268.90
   10:14:14.474.15-Aug-2021 3416.50 5185.40 54.35 4.00 320.25 3268.90
   10:14:14.674.15-Aug-2021 3416.50 5185.33 54.35 4.00 320.45 3268.90
   10:14:14.874.15-Aug-2021 3416.50 5185.08 54.35 4.00 320.65 3268.90
   10:14:15.074.15-Aug-2021 3416.50 5185.16 54.35 4.00 320.85 3268.90
   10:14:15.274.15-Aug-2021 3416.50 5184.99 54.35 4.00 321.05 3268.90
   10:14:15.474.15-Aug-2021 3416.50 5184.99 54.35 4.00 321.25 3268.90
   10:14:15.674.15-Aug-2021 3416.50 5184.72 54.35 4.00 321.45 3268.90
   10:14:15.874.15-Aug-2021 3416.50 5185.28 54.35 4.00 321.65 3268.90
   10:14:16.074.15-Aug-2021 3416.50 5185.39 54.35 4.00 321.85 3268.90
