~Version Information
 VERS.                  2.0:   CWLS log ASCII Standard -VERSION 2.0
 WRAP.                   NO:   One line per depth step
~Well Information Block
#MNEM.UNIT     VALUE/NAME     DESCRIPTION
#---------     -----------    ---------------------------
 STRT.S             10:08:54 15-Aug-21: START TIME 10:08:54 15-Aug-21
 STOP.S             10:17:25 15-Aug-21: STOP TIME  10:17:25 15-Aug-21
 STEP.S                   0.00: STEP TIME
 NULL.                 -999.25: NULL VALUE
 DFWT.                        :  DIST FWL TEXT
 DFST.                        :  DIST FSL TEXT
 DMF .             Drill Floor:  DRILL MEAS FROM
 STIM.      17.18.56 20-Jun-21:  START TIME
 DATE.      17.18.56 20-Aug-21:  END TIME
 SPUD.               20-Jun-21:  SPUD DATE
 NREF.                    Grid:  NORTH REFERENCE
 HPTY.       Minimum Curvature:  HOLE POS TYPE
 DMOD.             Drill Model:  DRILL MOD DESC
 SVYD.                  Survey:  SURVEY DESC
 ILTD.               Lithology:  INTERP LTH DESC
 FTOP.          Formation Tops:  FORM TOPS DESC
 SON .        AZ-XX-0907056190:  JOB NUMBER
 PDAT.       Caspian Sea Level:  PERMANENT DATUM
 WTYP.                Deviated:  WELL TYPE
 MDS .        Operator Entered:  MAG DATA SOURCE
 COMP.     BP Exploration (Caspian Sea) Ltd.:  COMPANY
 UWI .            /AZE20000092:  UNIQUE WELL IDENTIFIER
 API .            /AZE20000092:  API NUMBER
 BASE.              Azerbaijan:  LOGGING EQUIPMENT BASE LOCATION
 REGN.                   EESSA:  REGION
 PROV.                    baku:  PROVINCE
 STAT.                    baku:  STATE NAME
 CTRY.              Azerbaijan:  COUNTRY NAME
 FLD .                     ACG:  FIELD NAME
 SRVC.          Turan Drilling:  CONTRACTOR
 MWDS.                    Baku:  MWD SHOP
 WELL.                     J26:  WELL NAME
 JOBN.        AZ-XX-0907056190:  JOB TICKET NUMB
 RIG .             West Chirag:  RIG NAME
 DOE .                     N/A:  DOE NUMBER
 DCON.         Sperry Drilling:  DIRECTNL CONTR
 UNIT.                     N/A:  LOGGING EQUIPMENT ID
 CNTY.                        :  COUNTY
 LOC .                        :  LOCATION
 LMF .             Drill Floor:  LOG MEASURED FROM
 TVDS.m                  43.00:  TVDSS CORRECTN
 LATI.deg                40.13:  LATITUDE
 LONG.deg                51.22:  LONGITUDE
 WHNS.m                  -7.12:  WELL HEAD N/S
 WHEW.m                  -9.46:  WELL HEAD E/W
 UTMX.m              519004.02:  UTM X
 UTMY.m             4443784.96:  UTM Y
 DFWL.m                   0.00:  DISTANCE FWL
 DFSL.m                   0.00:  DISTANCE FSL
 SDEP.m                 464.00:  START DEPTH
 TDD .m                3500.00:  TOTAL DEPTH (DRILLER)
 VSDR.deg               114.35:  VERT SEC DIRECT
 GVFD.g                   1.00:  GRAVITY FIELD
 MFLD.nT              50386.00:  MAGNETIC FIELD
 MDIP.deg                59.63:  MAGNETIC DIP
 MDEC.deg                 6.43:  MAGNETIC DECL
 GRDC.deg                 0.15:  GRID CORRECTION
 AZTC.deg                 6.29:  AZM TOTAL CORR
 EPD .m                   0.00:  ELEVATION
 EGL .m                   0.00:  GROUND ELEVATION
 WDMS.m                 169.80:  WD ELEV
 APD .m                  43.00:  DEPTH ABOVE PD
 VSEW.m                  -9.46:  VERT SEC E/W
 VSNS.m                  -7.12:  VERT SEC N/S
 AGAP.m                  43.00:  AIR GAP
 DEP .m                 356.16:  DEPTH
 EKB .m                  43.00:  KB ELEVATION
 EDF .m                  43.00:  DF ELEVATION
 TDL .m                 699.00:  TOTAL DEPTH (LOGGER)
 VSC .                       0:  VS TO CLOSURE
 MAGU.                 1853727:  MAGUTM CHECKSUM
~Parameter Information Block
#MNEM.UNIT       Value        Description
#---------     -----------    ---------------------------
 AV  .mps                 1.30:  Ann Velocity 
 AVMX.mps                 1.67:  Max Ann Veloc 
 AZIF.deg               280.40:  Azm, Final 
 BHAT.        Rotary Steerable:  BHA Type 
 BREV.rev            528970.00:  Rev Bit Total 
 BROT.°/30m               1.00:  Build Rotating 
 BS  .in                 12.25:  Bit Size 
 BSZ .in                 12.25:  Bit Size 
 BTPL.psig              738.00:  Bit Press Loss 
 CABU.                     Yes:  Customer Abuse 
 CGEO.        Elvin Suleymanov:  Customer Geo 
 COMM.                     ´½}:  Run Comments 1 
 TCS .hr                 66.05:  Time Ciculation Ended 
 CV  .mps                 2.20:  Crit Velocity 
 CVMX.mps                 2.56:  Max Crit Veloc 
 DD1 .          Rashad Habibov:  Direct Drillr 1 
 DD2 .            Azer ravanov:  Direct Drillr 2 
 DD3 .           Teymur Agayev:  Direct Drillr 3 
 DDSV.               Geo-Pilot:  DD Service 
 DEFF.%                  90.00:  % Det Eff 
 DLRX.°/30m               2.95:  Dogleg Rot Max 
 DLSO.°/30m               1.00:  Dogleg Oriented 
 DLSX.°/30m               2.95:  Dogleg Str Max 
 DRET.      11.42.20 11-Aug-21:  Drill End Time 
 DRST.      23.03.20 08-Aug-21:  Drill Start Tim 
 DTIM.hr                 45.50:  Time Drilling 
 EDEP.m                3488.00:  End Depth 
 ENG1.         Marcelo Marcari:  Engineer 1 
 ENG2.         Dair Mahammadov:  Engineer 2 
 ENG3.       Davud Huseyn-zada:  Engineer 3 
 ENG4.         Yevgeniy Ulikov:  Engineer 4 
 ETIM.      17.45.20 17-Aug-21:  End Time 
 FLOI.gpm              1197.70:  Flow In 
 FLON.gpm              1100.00:  Flow In Min 
 FLOS.cptm                0.00:  Fluid Loss 
 FLOX.gpm              1200.00:  Flow In Max 
 DFT .        Mineral Oil Base:  Mud Type 
 FTRO.       Formation Presure:  FTWD Run Obj 
 HFLO.                      No:  High Flow 
 HPRE.                      No:  High Pressure 
 HTEM.                      No:  High Temp 
 HYDO.m                   1.80:  Hydro Offset 
 IFIN.deg                 9.87:  Inc, Final 
 IMAX.deg                19.96:  Inc Max 
 IMIN.deg                 3.82:  Inc Min 
 IMND.m                3257.42:  Inc Min Depth 
 IMXD.m                2945.53:  Inc Max Depth 
 JARR.                      No:  Jarring 
 LETM.      11.42.20 11-Aug-21:  Log End Time 
 LOST.hr                     0:  Lost Rig Time 
 LSTM.      23.03.20 08-Aug-21:  Log Start Time 
 MDCL.ppm             42500.00:  Mud Chlorides 
 MDES.     Inversion Oil/Synthetic:  Mud Desc 
 DFD .sg                  1.45:  Mud Density 
 MDMN.sg                  1.39:  Dens Mud Min 
 MDMX.sg                  1.57:  Dens Mud Max 
 MOIL.                   53.20:  Run Mud Oil % 
 MOWR.                   70:30:  Run Mud OWR 
 MSND.                       0:  Run Mud Sand % 
 MSOL.                   24.30:  Run Mud Solids% 
 DFV .spqt               79.00:  Mud Viscosity 
 MWOD.in                  8.00:  MWD Tool OD 
 MWSI.                      No:  Serv Intrp, MWD 
 OTIM.hr                253.06:  Time Operating 
 PCON.           Look Like New:  Pad Condition 
 PMAX.psia            11068.93:  Press Op, Max 
 PV  .cP                 36.00:  Mud PV 
 RUN .                    1000:  Run Number 
 ROPA.m/hr               15.34:  ROP Avg 
 ROPN.m/hr                4.00:  ROP Min 
 ROPX.m/hr               31.00:  ROP Max 
 RPMA.rpm               151.40:  RPM Surface Avg 
 RPMN.rpm               120.00:  RPM Surface Min 
 RPMX.rpm               160.00:  RPM Surface Max 
 RRUN.                    L505:  Rig Run Number 
 RTIM.hr                 10.00:  Time Reaming 
 SAZI.deg                88.92:  Azm, Start 
 SDEP.m                2789.00:  Start Depth 
 SIDD.                      No:  Serv Intrp, DD 
 SINC.deg                19.84:  Inc, Start 
 SPPA.psig             4421.39:  SPP Avg 
 SPPN.psig             4130.00:  SPP Min 
 SPPX.psig             4800.00:  SPP Max 
 STIM.      01.25.20 07-Aug-21:  Start Time 
 SVCS.                 DD, MWD:  Services 
 SVER.                    9.20:  Sperry Version 
 TDAT.m                 699.00:  Tot Depth Attmp 
 TDDF.                      No:  Trip for DD 
 TDLG.m                 699.00:  Tot Depth Loggd 
 TFF .                      No:  Trip for Fail 
 TQAA.f-kp               20.55:  Torque Abs Avg 
 TQAN.f-kp               15.00:  Torque Abs Min 
 TQAX.f-kp               24.00:  Torque Abs Max 
 TRRT.°/30m               0.50:  Turn Rotating 
 MRT .                    HCIM:  Maximum Recorded Temperature 
 TTMX.degC               82.35:  Max Tool Temp 
 VS01.                90654677:  Virtual Str1 SN 
 VS02.                90636294:  Virtual Str2 SN 
 VS03.                90653866:  Virtual Str3 SN 
 VS04.                90654674:  Virtual Str4 SN 
 WBMN.klb                10.00:  WOB Min 
 WITN.         Haytham Mostafa:  Customer Rep 
 WITN.           Rufat Babayev:  Customer Rep 2 
 WOBA.klb                22.43:  WOB Avg 
 WOBX.klb                35.00:  WOB Max 
 YP  .lhf2               32.00:  Yield Point 
~Curve Information Block
#MNEM.UNIT                 API CODE     Curve Description
#---------               -----------    ---------------------------
 TIME.HHMMSS            00 000 000 000:  GT Time & Date
 GTDEPTH.m              00 000 000 000:  GT Depth
 GTPQH.psia             00 000 000 000:  GT HR Quartz Pressure
 GTTQ.degC              00 000 000 000:  GT Quartz Temperature
 GTTN.NONE              00 000 000 000:  GT Test Number
 GTET.sec               00 000 000 000:  GT Elapsed Test Time
 GTTVD.m                00 000 000 000:  GT True Vertical Depth
#Other Information
#
#WARRANTY: Halliburton will use its best efforts to furnish customers with 
#accurate information and interpretations that are part of, and incident to, the services 
#provided.  However, Halliburton cannot and does not warrant the accuracy 
#or correctness of such information and interpretations.  Under no circumstances should any 
#such information or interpretation be relied upon as the sole basis for any drilling, 
#completion, production, or financial decision or any procedure involving any risk to the 
#safety of any drilling venture, drilling rig or its crew or any other third party.  The 
#Customer has full responsibility for all drilling, completion and production operation.  
#Halliburton makes no representations or warranties, either expressed or 
#implied, including, but not limited to, the implied warranties of merchantability or fitness 
#for a particular purpose, with respect to the services rendered.  In no event will 
#Halliburton be liable for failure to obtain any particular results or for 
#any damages, including, but not limited to, indirect, special or consequential damages, 
#resulting from the use of any information or interpretation provided by Halliburton.
#
~A           TIME           GTDEPTH  GTPQH  GTTQ  GTTN  GTET   GTTVD  
# ...
   10:15:25.285.15-Aug-2021 3416.50 5184.52 54.33 4.00 391.06 3268.90
   10:15:25.485.15-Aug-2021 3416.50 5184.52 54.33 4.00 391.26 3268.90
   10:15:25.685.15-Aug-2021 3416.50 5184.76 54.33 4.00 391.46 3268.90
   10:15:25.885.15-Aug-2021 3416.50 5184.38 54.33 4.00 391.66 3268.90
   10:15:26.085.15-Aug-2021 3416.50 5184.35 54.33 4.00 391.86 3268.90
   10:15:26.285.15-Aug-2021 3416.50 5184.83 54.33 4.00 392.06 3268.90
   10:15:26.485.15-Aug-2021 3416.50 5184.83 54.33 4.00 392.26 3268.90
   10:15:26.685.15-Aug-2021 3416.50 5184.55 54.33 4.00 392.46 3268.90
   10:15:26.886.15-Aug-2021 3416.50 5184.24 54.33 4.00 392.66 3268.90
   10:15:27.086.15-Aug-2021 3416.50 5184.83 54.33 4.00 392.86 3268.90
   10:15:27.286.15-Aug-2021 3416.50 5184.29 54.33 4.00 393.06 3268.90
   10:15:27.486.15-Aug-2021 3416.50 5184.29 54.33 4.00 393.26 3268.90
   10:15:27.686.15-Aug-2021 3416.50 5184.28 54.33 4.00 393.46 3268.90
   10:15:27.886.15-Aug-2021 3416.50 5184.65 54.33 4.00 393.66 3268.90
   10:15:28.086.15-Aug-2021 3416.50 5184.33 54.33 4.00 393.86 3268.90
   10:15:28.286.15-Aug-2021 3416.50 5184.75 54.33 4.00 394.06 3268.90
   10:15:28.486.15-Aug-2021 3416.50 5184.75 54.33 4.00 394.26 3268.90
   10:15:28.686.15-Aug-2021 3416.50 5184.12 54.33 4.00 394.46 3268.90
   10:15:28.886.15-Aug-2021 3416.50 5184.54 54.33 4.00 394.66 3268.90
   10:15:29.086.15-Aug-2021 3416.50 5184.51 54.33 4.00 394.86 3268.90
   10:15:29.286.15-Aug-2021 3416.50 5185.39 54.33 4.00 395.06 3268.90
   10:15:29.486.15-Aug-2021 3416.50 5185.39 54.33 4.00 395.26 3268.90
   10:15:29.686.15-Aug-2021 3416.50 5184.70 54.33 4.00 395.46 3268.90
   10:15:29.886.15-Aug-2021 3416.50 5184.49 54.33 4.00 395.66 3268.90
   10:15:30.086.15-Aug-2021 3416.50 5184.56 54.33 4.00 395.86 3268.90
   10:15:30.286.15-Aug-2021 3416.50 5184.40 54.33 4.00 396.06 3268.90
   10:15:30.486.15-Aug-2021 3416.50 5184.40 54.33 4.00 396.26 3268.90
   10:15:30.686.15-Aug-2021 3416.50 5184.16 54.33 4.00 396.46 3268.90
   10:15:30.886.15-Aug-2021 3416.50 5184.61 54.33 4.00 396.66 3268.90
   10:15:31.086.15-Aug-2021 3416.50 5184.67 54.33 4.00 396.86 3268.90
   10:15:31.286.15-Aug-2021 3416.50 5184.64 54.33 4.00 397.07 3268.90
   10:15:31.486.15-Aug-2021 3416.50 5184.64 54.33 4.00 397.27 3268.90
   10:15:31.686.15-Aug-2021 3416.50 5184.61 54.33 4.00 397.47 3268.90
   10:15:31.886.15-Aug-2021 3416.50 5184.57 54.33 4.00 397.67 3268.90
   10:15:32.086.15-Aug-2021 3416.50 5184.56 54.33 4.00 397.87 3268.90
   10:15:32.286.15-Aug-2021 3416.50 5185.48 54.33 4.00 398.07 3268.90
   10:15:32.486.15-Aug-2021 3416.50 5185.48 54.33 4.00 398.27 3268.90
   10:15:32.686.15-Aug-2021 3416.50 5184.56 54.33 4.00 398.47 3268.90
   10:15:32.886.15-Aug-2021 3416.50 5184.79 54.33 4.00 398.67 3268.90
   10:15:33.087.15-Aug-2021 3416.50 5185.31 54.33 4.00 398.87 3268.90
   10:15:33.287.15-Aug-2021 3416.50 5183.90 54.33 4.00 399.07 3268.90
   10:15:33.487.15-Aug-2021 3416.50 5183.90 54.33 4.00 399.27 3268.90
   10:15:33.687.15-Aug-2021 3416.50 5184.81 54.33 4.00 399.47 3268.90
   10:15:33.887.15-Aug-2021 3416.50 5185.27 54.33 4.00 399.67 3268.90
   10:15:34.087.15-Aug-2021 3416.50 5184.08 54.33 4.00 399.87 3268.90
   10:15:34.287.15-Aug-2021 3416.50 5184.48 54.33 4.00 400.07 3268.90
   10:15:34.487.15-Aug-2021 3416.50 5184.48 54.33 4.00 400.27 3268.90
   10:15:34.687.15-Aug-2021 3416.50 5184.89 54.32 4.00 400.47 3268.90
   10:15:34.887.15-Aug-2021 3416.50 5184.66 54.33 4.00 400.67 3268.90
   10:15:35.087.15-Aug-2021 3416.50 5184.54 54.32 4.00 400.87 3268.90
   10:15:35.287.15-Aug-2021 3416.50 5184.87 54.32 4.00 401.07 3268.90
   10:15:35.487.15-Aug-2021 3416.50 5184.87 54.32 4.00 401.27 3268.90
   10:15:35.687.15-Aug-2021 3416.50 5185.04 54.32 4.00 401.47 3268.90
   10:15:35.887.15-Aug-2021 3416.50 5184.71 54.32 4.00 401.67 3268.90
   10:15:36.087.15-Aug-2021 3416.50 5184.53 54.32 4.00 401.87 3268.90
   10:15:36.287.15-Aug-2021 3416.50 5184.55 54.32 4.00 402.07 3268.90
   10:15:36.487.15-Aug-2021 3416.50 5184.55 54.32 4.00 402.27 3268.90
   10:15:36.687.15-Aug-2021 3416.50 5185.02 54.32 4.00 402.47 3268.90
   10:15:36.887.15-Aug-2021 3416.50 5184.52 54.32 4.00 402.67 3268.90
   10:15:37.087.15-Aug-2021 3416.50 5184.71 54.32 4.00 402.87 3268.90
   10:15:37.287.15-Aug-2021 3416.50 5184.42 54.32 4.00 403.07 3268.90
   10:15:37.487.15-Aug-2021 3416.50 5184.42 54.32 4.00 403.27 3268.90
   10:15:37.687.15-Aug-2021 3416.50 5184.54 54.32 4.00 403.47 3268.90
   10:15:37.887.15-Aug-2021 3416.50 5185.13 54.32 4.00 403.67 3268.90
   10:15:38.087.15-Aug-2021 3416.50 5184.60 54.32 4.00 403.87 3268.90
   10:15:38.287.15-Aug-2021 3416.50 5184.68 54.32 4.00 404.07 3268.90
   10:15:38.487.15-Aug-2021 3416.50 5184.68 54.32 4.00 404.27 3268.90
   10:15:38.687.15-Aug-2021 3416.50 5184.83 54.32 4.00 404.47 3268.90
   10:15:38.887.15-Aug-2021 3416.50 5184.54 54.32 4.00 404.67 3268.90
   10:15:39.087.15-Aug-2021 3416.50 5184.62 54.32 4.00 404.87 3268.90
   10:15:39.288.15-Aug-2021 3416.50 5184.66 54.32 4.00 405.07 3268.90
   10:15:39.488.15-Aug-2021 3416.50 5184.66 54.32 4.00 405.27 3268.90
   10:15:39.688.15-Aug-2021 3416.50 5185.40 54.32 4.00 405.47 3268.90
   10:15:39.888.15-Aug-2021 3416.50 5184.16 54.32 4.00 405.67 3268.90
   10:15:40.088.15-Aug-2021 3416.50 5184.62 54.32 4.00 405.87 3268.90
   10:15:40.288.15-Aug-2021 3416.50 5184.63 54.32 4.00 406.07 3268.90
   10:15:40.488.15-Aug-2021 3416.50 5184.63 54.32 4.00 406.27 3268.90
   10:15:40.688.15-Aug-2021 3416.50 5183.92 54.32 4.00 406.47 3268.90
   10:15:40.888.15-Aug-2021 3416.50 5184.70 54.32 4.00 406.67 3268.90
   10:15:41.088.15-Aug-2021 3416.50 5184.68 54.32 4.00 406.87 3268.90
   10:15:41.288.15-Aug-2021 3416.50 5185.44 54.32 4.00 407.07 3268.90
   10:15:41.488.15-Aug-2021 3416.50 5185.44 54.32 4.00 407.27 3268.90
   10:15:41.688.15-Aug-2021 3416.50 5184.68 54.32 4.00 407.47 3268.90
   10:15:41.888.15-Aug-2021 3416.50 5184.62 54.32 4.00 407.67 3268.90
   10:15:42.088.15-Aug-2021 3416.50 5185.56 54.32 4.00 407.87 3268.90
   10:15:42.288.15-Aug-2021 3416.50 5183.99 54.32 4.00 408.07 3268.90
   10:15:42.488.15-Aug-2021 3416.50 5183.99 54.32 4.00 408.27 3268.90
   10:15:42.688.15-Aug-2021 3416.50 5184.79 54.32 4.00 408.47 3268.90
   10:15:42.888.15-Aug-2021 3416.50 5184.43 54.32 4.00 408.67 3268.90
   10:15:43.088.15-Aug-2021 3416.50 5185.33 54.32 4.00 408.87 3268.90
   10:15:43.288.15-Aug-2021 3416.50 5184.30 54.32 4.00 409.07 3268.90
   10:15:43.488.15-Aug-2021 3416.50 5184.30 54.32 4.00 409.27 3268.90
   10:15:43.688.15-Aug-2021 3416.50 5184.76 54.32 4.00 409.47 3268.90
   10:15:43.888.15-Aug-2021 3416.50 5185.01 54.32 4.00 409.67 3268.90
   10:15:44.088.15-Aug-2021 3416.50 5184.47 54.32 4.00 409.87 3268.90
   10:15:44.288.15-Aug-2021 3416.50 5184.71 54.32 4.00 410.07 3268.90
   10:15:44.488.15-Aug-2021 3416.50 5184.71 54.32 4.00 410.27 3268.90
   10:15:44.688.15-Aug-2021 3416.50 5184.31 54.32 4.00 410.47 3268.90
   10:15:44.888.15-Aug-2021 3416.50 5184.83 54.32 4.00 410.67 3268.90
   10:15:45.088.15-Aug-2021 3416.50 5185.03 54.32 4.00 410.87 3268.90
   10:15:45.289.15-Aug-2021 3416.50 5184.47 54.32 4.00 411.07 3268.90
   10:15:45.489.15-Aug-2021 3416.50 5184.47 54.32 4.00 411.27 3268.90
   10:15:45.689.15-Aug-2021 3416.50 5184.99 54.32 4.00 411.47 3268.90
   10:15:45.889.15-Aug-2021 3416.50 5184.31 54.32 4.00 411.67 3268.90
   10:15:46.089.15-Aug-2021 3416.50 5184.99 54.32 4.00 411.87 3268.90
   10:15:46.289.15-Aug-2021 3416.50 5184.55 54.32 4.00 412.07 3268.90
   10:15:46.489.15-Aug-2021 3416.50 5184.55 54.32 4.00 412.27 3268.90
   10:15:46.689.15-Aug-2021 3416.50 5184.66 54.32 4.00 412.47 3268.90
   10:15:46.889.15-Aug-2021 3416.50 5184.84 54.32 4.00 412.67 3268.90
   10:15:47.089.15-Aug-2021 3416.50 5185.00 54.32 4.00 412.87 3268.90
   10:15:47.289.15-Aug-2021 3416.50 5184.52 54.32 4.00 413.07 3268.90
   10:15:47.489.15-Aug-2021 3416.50 5184.52 54.32 4.00 413.27 3268.90
   10:15:47.689.15-Aug-2021 3416.50 5184.66 54.32 4.00 413.47 3268.90
   10:15:47.889.15-Aug-2021 3416.50 5185.15 54.32 4.00 413.67 3268.90
   10:15:48.089.15-Aug-2021 3416.50 5184.35 54.32 4.00 413.87 3268.90
