~Version Information
 VERS.                  2.0:   CWLS log ASCII Standard -VERSION 2.0
 WRAP.                   NO:   One line per depth step
~Well Information Block
#MNEM.UNIT     VALUE/NAME     DESCRIPTION
#---------     -----------    ---------------------------
 STRT.S             06:52:24 15-Aug-21: START TIME 06:52:24 15-Aug-21
 STOP.S             06:59:28 15-Aug-21: STOP TIME  06:59:28 15-Aug-21
 STEP.S                   0.00: STEP TIME
 NULL.                 -999.25: NULL VALUE
 DFWT.                        :  DIST FWL TEXT
 DFST.                        :  DIST FSL TEXT
 DMF .             Drill Floor:  DRILL MEAS FROM
 STIM.      17.18.56 20-Jun-21:  START TIME
 DATE.      17.18.56 20-Aug-21:  END TIME
 SPUD.               20-Jun-21:  SPUD DATE
 NREF.                    Grid:  NORTH REFERENCE
 HPTY.       Minimum Curvature:  HOLE POS TYPE
 DMOD.             Drill Model:  DRILL MOD DESC
 SVYD.                  Survey:  SURVEY DESC
 ILTD.               Lithology:  INTERP LTH DESC
 FTOP.          Formation Tops:  FORM TOPS DESC
 SON .        AZ-XX-0907056190:  JOB NUMBER
 PDAT.       Caspian Sea Level:  PERMANENT DATUM
 WTYP.                Deviated:  WELL TYPE
 MDS .        Operator Entered:  MAG DATA SOURCE
 COMP.     BP Exploration (Caspian Sea) Ltd.:  COMPANY
 UWI .            /AZE20000092:  UNIQUE WELL IDENTIFIER
 API .            /AZE20000092:  API NUMBER
 BASE.              Azerbaijan:  LOGGING EQUIPMENT BASE LOCATION
 REGN.                   EESSA:  REGION
 PROV.                    baku:  PROVINCE
 STAT.                    baku:  STATE NAME
 CTRY.              Azerbaijan:  COUNTRY NAME
 FLD .                     ACG:  FIELD NAME
 SRVC.          Turan Drilling:  CONTRACTOR
 MWDS.                    Baku:  MWD SHOP
 WELL.                     J26:  WELL NAME
 JOBN.        AZ-XX-0907056190:  JOB TICKET NUMB
 RIG .             West Chirag:  RIG NAME
 DOE .                     N/A:  DOE NUMBER
 DCON.         Sperry Drilling:  DIRECTNL CONTR
 UNIT.                     N/A:  LOGGING EQUIPMENT ID
 CNTY.                        :  COUNTY
 LOC .                        :  LOCATION
 LMF .             Drill Floor:  LOG MEASURED FROM
 TVDS.m                  43.00:  TVDSS CORRECTN
 LATI.deg                40.13:  LATITUDE
 LONG.deg                51.22:  LONGITUDE
 WHNS.m                  -7.12:  WELL HEAD N/S
 WHEW.m                  -9.46:  WELL HEAD E/W
 UTMX.m              519004.02:  UTM X
 UTMY.m             4443784.96:  UTM Y
 DFWL.m                   0.00:  DISTANCE FWL
 DFSL.m                   0.00:  DISTANCE FSL
 SDEP.m                 464.00:  START DEPTH
 TDD .m                3500.00:  TOTAL DEPTH (DRILLER)
 VSDR.deg               114.35:  VERT SEC DIRECT
 GVFD.g                   1.00:  GRAVITY FIELD
 MFLD.nT              50386.00:  MAGNETIC FIELD
 MDIP.deg                59.63:  MAGNETIC DIP
 MDEC.deg                 6.43:  MAGNETIC DECL
 GRDC.deg                 0.15:  GRID CORRECTION
 AZTC.deg                 6.29:  AZM TOTAL CORR
 EPD .m                   0.00:  ELEVATION
 EGL .m                   0.00:  GROUND ELEVATION
 WDMS.m                 169.80:  WD ELEV
 APD .m                  43.00:  DEPTH ABOVE PD
 VSEW.m                  -9.46:  VERT SEC E/W
 VSNS.m                  -7.12:  VERT SEC N/S
 AGAP.m                  43.00:  AIR GAP
 DEP .m                 356.16:  DEPTH
 EKB .m                  43.00:  KB ELEVATION
 EDF .m                  43.00:  DF ELEVATION
 TDL .m                 699.00:  TOTAL DEPTH (LOGGER)
 VSC .                       0:  VS TO CLOSURE
 MAGU.                 1853727:  MAGUTM CHECKSUM
~Parameter Information Block
#MNEM.UNIT       Value        Description
#---------     -----------    ---------------------------
 AV  .mps                 1.30:  Ann Velocity 
 AVMX.mps                 1.67:  Max Ann Veloc 
 AZIF.deg               280.40:  Azm, Final 
 BHAT.        Rotary Steerable:  BHA Type 
 BREV.rev            528970.00:  Rev Bit Total 
 BROT.°/30m               1.00:  Build Rotating 
 BS  .in                 12.25:  Bit Size 
 BSZ .in                 12.25:  Bit Size 
 BTPL.psig              738.00:  Bit Press Loss 
 CABU.                     Yes:  Customer Abuse 
 CGEO.        Elvin Suleymanov:  Customer Geo 
 COMM.                     ¬kS:  Run Comments 1 
 TCS .hr                 66.05:  Time Ciculation Ended 
 CV  .mps                 2.20:  Crit Velocity 
 CVMX.mps                 2.56:  Max Crit Veloc 
 DD1 .          Rashad Habibov:  Direct Drillr 1 
 DD2 .            Azer ravanov:  Direct Drillr 2 
 DD3 .           Teymur Agayev:  Direct Drillr 3 
 DDSV.               Geo-Pilot:  DD Service 
 DEFF.%                  90.00:  % Det Eff 
 DLRX.°/30m               2.95:  Dogleg Rot Max 
 DLSO.°/30m               1.00:  Dogleg Oriented 
 DLSX.°/30m               2.95:  Dogleg Str Max 
 DRET.      11.42.20 11-Aug-21:  Drill End Time 
 DRST.      23.03.20 08-Aug-21:  Drill Start Tim 
 DTIM.hr                 45.50:  Time Drilling 
 EDEP.m                3488.00:  End Depth 
 ENG1.         Marcelo Marcari:  Engineer 1 
 ENG2.         Dair Mahammadov:  Engineer 2 
 ENG3.       Davud Huseyn-zada:  Engineer 3 
 ENG4.         Yevgeniy Ulikov:  Engineer 4 
 ETIM.      17.45.20 17-Aug-21:  End Time 
 FLOI.gpm              1197.70:  Flow In 
 FLON.gpm              1100.00:  Flow In Min 
 FLOS.cptm                0.00:  Fluid Loss 
 FLOX.gpm              1200.00:  Flow In Max 
 DFT .        Mineral Oil Base:  Mud Type 
 FTRO.       Formation Presure:  FTWD Run Obj 
 HFLO.                      No:  High Flow 
 HPRE.                      No:  High Pressure 
 HTEM.                      No:  High Temp 
 HYDO.m                   1.80:  Hydro Offset 
 IFIN.deg                 9.87:  Inc, Final 
 IMAX.deg                19.96:  Inc Max 
 IMIN.deg                 3.82:  Inc Min 
 IMND.m                3257.42:  Inc Min Depth 
 IMXD.m                2945.53:  Inc Max Depth 
 JARR.                      No:  Jarring 
 LETM.      11.42.20 11-Aug-21:  Log End Time 
 LOST.hr                     0:  Lost Rig Time 
 LSTM.      23.03.20 08-Aug-21:  Log Start Time 
 MDCL.ppm             42500.00:  Mud Chlorides 
 MDES.     Inversion Oil/Synthetic:  Mud Desc 
 DFD .sg                  1.45:  Mud Density 
 MDMN.sg                  1.39:  Dens Mud Min 
 MDMX.sg                  1.57:  Dens Mud Max 
 MOIL.                   53.20:  Run Mud Oil % 
 MOWR.                   70:30:  Run Mud OWR 
 MSND.                       0:  Run Mud Sand % 
 MSOL.                   24.30:  Run Mud Solids% 
 DFV .spqt               79.00:  Mud Viscosity 
 MWOD.in                  8.00:  MWD Tool OD 
 MWSI.                      No:  Serv Intrp, MWD 
 OTIM.hr                253.06:  Time Operating 
 PCON.           Look Like New:  Pad Condition 
 PMAX.psia            11068.93:  Press Op, Max 
 PV  .cP                 36.00:  Mud PV 
 RUN .                    1000:  Run Number 
 ROPA.m/hr               15.34:  ROP Avg 
 ROPN.m/hr                4.00:  ROP Min 
 ROPX.m/hr               31.00:  ROP Max 
 RPMA.rpm               151.40:  RPM Surface Avg 
 RPMN.rpm               120.00:  RPM Surface Min 
 RPMX.rpm               160.00:  RPM Surface Max 
 RRUN.                    L505:  Rig Run Number 
 RTIM.hr                 10.00:  Time Reaming 
 SAZI.deg                88.92:  Azm, Start 
 SDEP.m                2789.00:  Start Depth 
 SIDD.                      No:  Serv Intrp, DD 
 SINC.deg                19.84:  Inc, Start 
 SPPA.psig             4421.39:  SPP Avg 
 SPPN.psig             4130.00:  SPP Min 
 SPPX.psig             4800.00:  SPP Max 
 STIM.      01.25.20 07-Aug-21:  Start Time 
 SVCS.                 DD, MWD:  Services 
 SVER.                    9.20:  Sperry Version 
 TDAT.m                 699.00:  Tot Depth Attmp 
 TDDF.                      No:  Trip for DD 
 TDLG.m                 699.00:  Tot Depth Loggd 
 TFF .                      No:  Trip for Fail 
 TQAA.f-kp               20.55:  Torque Abs Avg 
 TQAN.f-kp               15.00:  Torque Abs Min 
 TQAX.f-kp               24.00:  Torque Abs Max 
 TRRT.°/30m               0.50:  Turn Rotating 
 MRT .                    HCIM:  Maximum Recorded Temperature 
 TTMX.degC               82.35:  Max Tool Temp 
 VS01.                90654677:  Virtual Str1 SN 
 VS02.                90636294:  Virtual Str2 SN 
 VS03.                90653866:  Virtual Str3 SN 
 VS04.                90654674:  Virtual Str4 SN 
 WBMN.klb                10.00:  WOB Min 
 WITN.         Haytham Mostafa:  Customer Rep 
 WITN.           Rufat Babayev:  Customer Rep 2 
 WOBA.klb                22.43:  WOB Avg 
 WOBX.klb                35.00:  WOB Max 
 YP  .lhf2               32.00:  Yield Point 
~Curve Information Block
#MNEM.UNIT                 API CODE     Curve Description
#---------               -----------    ---------------------------
 TIME.HHMMSS            00 000 000 000:  GT Time & Date
 GTDEPTH.m              00 000 000 000:  GT Depth
 GTPQH.psia             00 000 000 000:  GT HR Quartz Pressure
 GTTQ.degC              00 000 000 000:  GT Quartz Temperature
 GTTN.NONE              00 000 000 000:  GT Test Number
 GTET.sec               00 000 000 000:  GT Elapsed Test Time
 GTTVD.m                00 000 000 000:  GT True Vertical Depth
#Other Information
#
#WARRANTY: Halliburton will use its best efforts to furnish customers with 
#accurate information and interpretations that are part of, and incident to, the services 
#provided.  However, Halliburton cannot and does not warrant the accuracy 
#or correctness of such information and interpretations.  Under no circumstances should any 
#such information or interpretation be relied upon as the sole basis for any drilling, 
#completion, production, or financial decision or any procedure involving any risk to the 
#safety of any drilling venture, drilling rig or its crew or any other third party.  The 
#Customer has full responsibility for all drilling, completion and production operation.  
#Halliburton makes no representations or warranties, either expressed or 
#implied, including, but not limited to, the implied warranties of merchantability or fitness 
#for a particular purpose, with respect to the services rendered.  In no event will 
#Halliburton be liable for failure to obtain any particular results or for 
#any damages, including, but not limited to, indirect, special or consequential damages, 
#resulting from the use of any information or interpretation provided by Halliburton.
#
~A           TIME           GTDEPTH  GTPQH  GTTQ  GTTN  GTET   GTTVD  
# ...
   06:56:37.711.15-Aug-2021 3437.50 5216.87 57.98 1.00 253.02 3289.56
   06:56:37.911.15-Aug-2021 3437.50 5216.87 57.98 1.00 253.22 3289.56
   06:56:38.111.15-Aug-2021 3437.50 5216.87 57.98 1.00 253.42 3289.56
   06:56:38.311.15-Aug-2021 3437.50 5217.06 57.98 1.00 253.62 3289.56
   06:56:38.511.15-Aug-2021 3437.50 5216.91 57.98 1.00 253.82 3289.56
   06:56:38.711.15-Aug-2021 3437.50 5217.49 57.98 1.00 254.02 3289.56
   06:56:38.912.15-Aug-2021 3437.50 5217.49 57.98 1.00 254.22 3289.56
   06:56:39.112.15-Aug-2021 3437.50 5216.75 57.98 1.00 254.42 3289.56
   06:56:39.312.15-Aug-2021 3437.50 5217.27 57.98 1.00 254.62 3289.56
   06:56:39.512.15-Aug-2021 3437.50 5216.86 57.98 1.00 254.82 3289.56
   06:56:39.712.15-Aug-2021 3437.50 5217.57 57.98 1.00 255.02 3289.56
   06:56:39.912.15-Aug-2021 3437.50 5217.57 57.98 1.00 255.22 3289.56
   06:56:40.112.15-Aug-2021 3437.50 5216.83 57.98 1.00 255.42 3289.56
   06:56:40.312.15-Aug-2021 3437.50 5217.16 57.98 1.00 255.62 3289.56
   06:56:40.512.15-Aug-2021 3437.50 5216.77 57.98 1.00 255.82 3289.56
   06:56:40.712.15-Aug-2021 3437.50 5217.16 57.98 1.00 256.02 3289.56
   06:56:40.912.15-Aug-2021 3437.50 5217.16 57.98 1.00 256.22 3289.56
   06:56:41.112.15-Aug-2021 3437.50 5217.09 57.98 1.00 256.42 3289.56
   06:56:41.312.15-Aug-2021 3437.50 5216.55 57.98 1.00 256.62 3289.56
   06:56:41.512.15-Aug-2021 3437.50 5217.33 57.98 1.00 256.82 3289.56
   06:56:41.712.15-Aug-2021 3437.50 5216.94 57.98 1.00 257.02 3289.56
   06:56:41.912.15-Aug-2021 3437.50 5216.94 57.98 1.00 257.22 3289.56
   06:56:42.112.15-Aug-2021 3437.50 5216.30 57.98 1.00 257.42 3289.56
   06:56:42.312.15-Aug-2021 3437.50 5217.24 57.98 1.00 257.62 3289.56
   06:56:42.512.15-Aug-2021 3437.50 5216.90 57.98 1.00 257.82 3289.56
   06:56:42.712.15-Aug-2021 3437.50 5217.26 57.98 1.00 258.02 3289.56
   06:56:42.912.15-Aug-2021 3437.50 5217.26 57.98 1.00 258.22 3289.56
   06:56:43.112.15-Aug-2021 3437.50 5216.77 57.98 1.00 258.42 3289.56
   06:56:43.312.15-Aug-2021 3437.50 5217.17 57.98 1.00 258.62 3289.56
   06:56:43.512.15-Aug-2021 3437.50 5217.07 57.98 1.00 258.82 3289.56
   06:56:43.712.15-Aug-2021 3437.50 5217.70 57.98 1.00 259.02 3289.56
   06:56:43.912.15-Aug-2021 3437.50 5217.70 57.98 1.00 259.22 3289.56
   06:56:44.112.15-Aug-2021 3437.50 5217.70 57.98 1.00 259.42 3289.56
   06:56:44.312.15-Aug-2021 3437.50 5217.16 57.98 1.00 259.62 3289.56
   06:56:44.512.15-Aug-2021 3437.50 5217.13 57.98 1.00 259.82 3289.56
   06:56:44.712.15-Aug-2021 3437.50 5217.09 57.98 1.00 260.02 3289.56
   06:56:44.912.15-Aug-2021 3437.50 5217.09 57.98 1.00 260.22 3289.56
   06:56:45.112.15-Aug-2021 3437.50 5216.85 57.98 1.00 260.42 3289.56
   06:56:45.312.15-Aug-2021 3437.50 5217.12 57.98 1.00 260.62 3289.56
   06:56:45.512.15-Aug-2021 3437.50 5216.99 57.98 1.00 260.82 3289.56
   06:56:45.712.15-Aug-2021 3437.50 5216.99 57.98 1.00 261.02 3289.56
   06:56:45.912.15-Aug-2021 3437.50 5216.99 57.98 1.00 261.22 3289.56
   06:56:46.112.15-Aug-2021 3437.50 5217.13 57.98 1.00 261.42 3289.56
   06:56:46.312.15-Aug-2021 3437.50 5217.27 57.98 1.00 261.62 3289.56
   06:56:46.512.15-Aug-2021 3437.50 5217.02 57.98 1.00 261.82 3289.56
   06:56:46.712.15-Aug-2021 3437.50 5217.54 57.98 1.00 262.02 3289.56
   06:56:46.912.15-Aug-2021 3437.50 5217.54 57.98 1.00 262.22 3289.56
   06:56:47.112.15-Aug-2021 3437.50 5217.08 57.98 1.00 262.42 3289.56
   06:56:47.312.15-Aug-2021 3437.50 5217.30 57.98 1.00 262.62 3289.56
   06:56:47.512.15-Aug-2021 3437.50 5217.66 57.98 1.00 262.82 3289.56
   06:56:47.712.15-Aug-2021 3437.50 5216.86 57.98 1.00 263.02 3289.56
   06:56:47.912.15-Aug-2021 3437.50 5216.86 57.98 1.00 263.22 3289.56
   06:56:48.112.15-Aug-2021 3437.50 5217.16 57.98 1.00 263.42 3289.56
   06:56:48.312.15-Aug-2021 3437.50 5217.01 57.98 1.00 263.62 3289.56
   06:56:48.512.15-Aug-2021 3437.50 5217.23 57.98 1.00 263.82 3289.56
   06:56:48.712.15-Aug-2021 3437.50 5217.35 57.98 1.00 264.02 3289.56
   06:56:48.912.15-Aug-2021 3437.50 5217.35 57.98 1.00 264.22 3289.56
   06:56:49.112.15-Aug-2021 3437.50 5216.91 57.98 1.00 264.42 3289.56
   06:56:49.312.15-Aug-2021 3437.50 5217.33 57.98 1.00 264.62 3289.56
   06:56:49.512.15-Aug-2021 3437.50 5217.34 57.98 1.00 264.82 3289.56
   06:56:49.712.15-Aug-2021 3437.50 5217.26 57.98 1.00 265.02 3289.56
   06:56:49.912.15-Aug-2021 3437.50 5217.26 57.98 1.00 265.22 3289.56
   06:56:50.112.15-Aug-2021 3437.50 5217.44 57.98 1.00 265.42 3289.56
   06:56:50.312.15-Aug-2021 3437.50 5216.93 57.98 1.00 265.62 3289.56
   06:56:50.512.15-Aug-2021 3437.50 5217.33 57.98 1.00 265.82 3289.56
   06:56:50.712.15-Aug-2021 3437.50 5217.24 57.98 1.00 266.02 3289.56
   06:56:50.912.15-Aug-2021 3437.50 5217.24 57.98 1.00 266.22 3289.56
   06:56:51.112.15-Aug-2021 3437.50 5217.28 57.98 1.00 266.42 3289.56
   06:56:51.312.15-Aug-2021 3437.50 5217.24 57.98 1.00 266.62 3289.56
   06:56:51.512.15-Aug-2021 3437.50 5217.75 57.98 1.00 266.82 3289.56
   06:56:51.712.15-Aug-2021 3437.50 5216.37 57.98 1.00 267.02 3289.56
   06:56:51.912.15-Aug-2021 3437.50 5216.37 57.98 1.00 267.22 3289.56
   06:56:52.112.15-Aug-2021 3437.50 5217.01 57.98 1.00 267.42 3289.56
   06:56:52.312.15-Aug-2021 3437.50 5217.84 57.98 1.00 267.62 3289.56
   06:56:52.512.15-Aug-2021 3437.50 5216.55 57.98 1.00 267.82 3289.56
   06:56:52.712.15-Aug-2021 3437.50 5217.39 57.98 1.00 268.02 3289.56
   06:56:52.912.15-Aug-2021 3437.50 5217.39 57.98 1.00 268.22 3289.56
   06:56:53.113.15-Aug-2021 3437.50 5217.19 57.98 1.00 268.42 3289.56
   06:56:53.313.15-Aug-2021 3437.50 5217.03 57.98 1.00 268.62 3289.56
   06:56:53.513.15-Aug-2021 3437.50 5217.10 57.98 1.00 268.82 3289.56
   06:56:53.713.15-Aug-2021 3437.50 5216.96 57.98 1.00 269.02 3289.56
   06:56:53.913.15-Aug-2021 3437.50 5216.96 57.98 1.00 269.22 3289.56
   06:56:54.113.15-Aug-2021 3437.50 5217.64 57.98 1.00 269.42 3289.56
   06:56:54.313.15-Aug-2021 3437.50 5216.86 57.98 1.00 269.62 3289.56
   06:56:54.513.15-Aug-2021 3437.50 5217.14 57.98 1.00 269.82 3289.56
   06:56:54.713.15-Aug-2021 3437.50 5216.99 57.98 1.00 270.02 3289.56
   06:56:54.913.15-Aug-2021 3437.50 5216.99 57.98 1.00 270.22 3289.56
   06:56:55.113.15-Aug-2021 3437.50 5216.86 57.98 1.00 270.42 3289.56
   06:56:55.313.15-Aug-2021 3437.50 5217.25 57.98 1.00 270.62 3289.56
   06:56:55.513.15-Aug-2021 3437.50 5217.03 57.98 1.00 270.82 3289.56
   06:56:55.713.15-Aug-2021 3437.50 5216.90 57.98 1.00 271.02 3289.56
   06:56:55.913.15-Aug-2021 3437.50 5216.90 57.98 1.00 271.22 3289.56
   06:56:56.113.15-Aug-2021 3437.50 5217.60 57.98 1.00 271.42 3289.56
   06:56:56.313.15-Aug-2021 3437.50 5216.83 57.98 1.00 271.62 3289.56
   06:56:56.513.15-Aug-2021 3437.50 5216.95 57.98 1.00 271.82 3289.56
   06:56:56.713.15-Aug-2021 3437.50 5217.04 57.98 1.00 272.02 3289.56
   06:56:56.913.15-Aug-2021 3437.50 5217.04 57.98 1.00 272.22 3289.56
   06:56:57.113.15-Aug-2021 3437.50 5216.90 57.98 1.00 272.42 3289.56
   06:56:57.313.15-Aug-2021 3437.50 5217.06 57.98 1.00 272.62 3289.56
   06:56:57.513.15-Aug-2021 3437.50 5217.18 57.98 1.00 272.82 3289.56
   06:56:57.713.15-Aug-2021 3437.50 5216.85 57.98 1.00 273.02 3289.56
   06:56:57.913.15-Aug-2021 3437.50 5216.85 57.98 1.00 273.22 3289.56
   06:56:58.113.15-Aug-2021 3437.50 5216.98 57.98 1.00 273.42 3289.56
   06:56:58.313.15-Aug-2021 3437.50 5216.85 57.98 1.00 273.62 3289.56
   06:56:58.513.15-Aug-2021 3437.50 5217.33 57.98 1.00 273.82 3289.56
   06:56:58.713.15-Aug-2021 3437.50 5217.38 57.98 1.00 274.02 3289.56
   06:56:58.913.15-Aug-2021 3437.50 5217.38 57.98 1.00 274.22 3289.56
   06:56:59.113.15-Aug-2021 3437.50 5216.53 57.98 1.00 274.42 3289.56
   06:56:59.313.15-Aug-2021 3437.50 5217.47 57.98 1.00 274.62 3289.56
   06:56:59.513.15-Aug-2021 3437.50 5217.32 57.98 1.00 274.82 3289.56
   06:56:59.713.15-Aug-2021 3437.50 5217.46 57.98 1.00 275.02 3289.56
   06:56:59.913.15-Aug-2021 3437.50 5217.46 57.98 1.00 275.22 3289.56
   06:57:00.113.15-Aug-2021 3437.50 5217.57 57.98 1.00 275.42 3289.56
   06:57:00.313.15-Aug-2021 3437.50 5216.88 57.98 1.00 275.62 3289.56
   06:57:00.513.15-Aug-2021 3437.50 5217.41 57.98 1.00 275.82 3289.56
