~Version Information
 VERS.                  2.0:   CWLS log ASCII Standard -VERSION 2.0
 WRAP.                   NO:   One line per depth step
~Well Information Block
#MNEM.UNIT     VALUE/NAME     DESCRIPTION
#---------     -----------    ---------------------------
 STRT.S             12:25:56 15-Aug-21: START TIME 12:25:56 15-Aug-21
 STOP.S             12:39:05 15-Aug-21: STOP TIME  12:39:05 15-Aug-21
 STEP.S                   0.00: STEP TIME
 NULL.                 -999.25: NULL VALUE
 DFWT.                        :  DIST FWL TEXT
 DFST.                        :  DIST FSL TEXT
 DMF .             Drill Floor:  DRILL MEAS FROM
 STIM.      17.18.56 20-Jun-21:  START TIME
 DATE.      17.18.56 20-Aug-21:  END TIME
 SPUD.               20-Jun-21:  SPUD DATE
 NREF.                    Grid:  NORTH REFERENCE
 HPTY.       Minimum Curvature:  HOLE POS TYPE
 DMOD.             Drill Model:  DRILL MOD DESC
 SVYD.                  Survey:  SURVEY DESC
 ILTD.               Lithology:  INTERP LTH DESC
 FTOP.          Formation Tops:  FORM TOPS DESC
 SON .        AZ-XX-0907056190:  JOB NUMBER
 PDAT.       Caspian Sea Level:  PERMANENT DATUM
 WTYP.                Deviated:  WELL TYPE
 MDS .        Operator Entered:  MAG DATA SOURCE
 COMP.     BP Exploration (Caspian Sea) Ltd.:  COMPANY
 UWI .            /AZE20000092:  UNIQUE WELL IDENTIFIER
 API .            /AZE20000092:  API NUMBER
 BASE.              Azerbaijan:  LOGGING EQUIPMENT BASE LOCATION
 REGN.                   EESSA:  REGION
 PROV.                    baku:  PROVINCE
 STAT.                    baku:  STATE NAME
 CTRY.              Azerbaijan:  COUNTRY NAME
 FLD .                     ACG:  FIELD NAME
 SRVC.          Turan Drilling:  CONTRACTOR
 MWDS.                    Baku:  MWD SHOP
 WELL.                     J26:  WELL NAME
 JOBN.        AZ-XX-0907056190:  JOB TICKET NUMB
 RIG .             West Chirag:  RIG NAME
 DOE .                     N/A:  DOE NUMBER
 DCON.         Sperry Drilling:  DIRECTNL CONTR
 UNIT.                     N/A:  LOGGING EQUIPMENT ID
 CNTY.                        :  COUNTY
 LOC .                        :  LOCATION
 LMF .             Drill Floor:  LOG MEASURED FROM
 TVDS.m                  43.00:  TVDSS CORRECTN
 LATI.deg                40.13:  LATITUDE
 LONG.deg                51.22:  LONGITUDE
 WHNS.m                  -7.12:  WELL HEAD N/S
 WHEW.m                  -9.46:  WELL HEAD E/W
 UTMX.m              519004.02:  UTM X
 UTMY.m             4443784.96:  UTM Y
 DFWL.m                   0.00:  DISTANCE FWL
 DFSL.m                   0.00:  DISTANCE FSL
 SDEP.m                 464.00:  START DEPTH
 TDD .m                3500.00:  TOTAL DEPTH (DRILLER)
 VSDR.deg               114.35:  VERT SEC DIRECT
 GVFD.g                   1.00:  GRAVITY FIELD
 MFLD.nT              50386.00:  MAGNETIC FIELD
 MDIP.deg                59.63:  MAGNETIC DIP
 MDEC.deg                 6.43:  MAGNETIC DECL
 GRDC.deg                 0.15:  GRID CORRECTION
 AZTC.deg                 6.29:  AZM TOTAL CORR
 EPD .m                   0.00:  ELEVATION
 EGL .m                   0.00:  GROUND ELEVATION
 WDMS.m                 169.80:  WD ELEV
 APD .m                  43.00:  DEPTH ABOVE PD
 VSEW.m                  -9.46:  VERT SEC E/W
 VSNS.m                  -7.12:  VERT SEC N/S
 AGAP.m                  43.00:  AIR GAP
 DEP .m                 356.16:  DEPTH
 EKB .m                  43.00:  KB ELEVATION
 EDF .m                  43.00:  DF ELEVATION
 TDL .m                 699.00:  TOTAL DEPTH (LOGGER)
 VSC .                       0:  VS TO CLOSURE
 MAGU.                 1853727:  MAGUTM CHECKSUM
~Parameter Information Block
#MNEM.UNIT       Value        Description
#---------     -----------    ---------------------------
 AV  .mps                 1.30:  Ann Velocity 
 AVMX.mps                 1.67:  Max Ann Veloc 
 AZIF.deg               280.40:  Azm, Final 
 BHAT.        Rotary Steerable:  BHA Type 
 BREV.rev            528970.00:  Rev Bit Total 
 BROT.°/30m               1.00:  Build Rotating 
 BS  .in                 12.25:  Bit Size 
 BSZ .in                 12.25:  Bit Size 
 BTPL.psig              738.00:  Bit Press Loss 
 CABU.                     Yes:  Customer Abuse 
 CGEO.        Elvin Suleymanov:  Customer Geo 
 COMM.                     ´3x:  Run Comments 1 
 TCS .hr                 66.05:  Time Ciculation Ended 
 CV  .mps                 2.20:  Crit Velocity 
 CVMX.mps                 2.56:  Max Crit Veloc 
 DD1 .          Rashad Habibov:  Direct Drillr 1 
 DD2 .            Azer ravanov:  Direct Drillr 2 
 DD3 .           Teymur Agayev:  Direct Drillr 3 
 DDSV.               Geo-Pilot:  DD Service 
 DEFF.%                  90.00:  % Det Eff 
 DLRX.°/30m               2.95:  Dogleg Rot Max 
 DLSO.°/30m               1.00:  Dogleg Oriented 
 DLSX.°/30m               2.95:  Dogleg Str Max 
 DRET.      11.42.20 11-Aug-21:  Drill End Time 
 DRST.      23.03.20 08-Aug-21:  Drill Start Tim 
 DTIM.hr                 45.50:  Time Drilling 
 EDEP.m                3488.00:  End Depth 
 ENG1.         Marcelo Marcari:  Engineer 1 
 ENG2.         Dair Mahammadov:  Engineer 2 
 ENG3.       Davud Huseyn-zada:  Engineer 3 
 ENG4.         Yevgeniy Ulikov:  Engineer 4 
 ETIM.      17.45.20 17-Aug-21:  End Time 
 FLOI.gpm              1197.70:  Flow In 
 FLON.gpm              1100.00:  Flow In Min 
 FLOS.cptm                0.00:  Fluid Loss 
 FLOX.gpm              1200.00:  Flow In Max 
 DFT .        Mineral Oil Base:  Mud Type 
 FTRO.       Formation Presure:  FTWD Run Obj 
 HFLO.                      No:  High Flow 
 HPRE.                      No:  High Pressure 
 HTEM.                      No:  High Temp 
 HYDO.m                   1.80:  Hydro Offset 
 IFIN.deg                 9.87:  Inc, Final 
 IMAX.deg                19.96:  Inc Max 
 IMIN.deg                 3.82:  Inc Min 
 IMND.m                3257.42:  Inc Min Depth 
 IMXD.m                2945.53:  Inc Max Depth 
 JARR.                      No:  Jarring 
 LETM.      11.42.20 11-Aug-21:  Log End Time 
 LOST.hr                     0:  Lost Rig Time 
 LSTM.      23.03.20 08-Aug-21:  Log Start Time 
 MDCL.ppm             42500.00:  Mud Chlorides 
 MDES.     Inversion Oil/Synthetic:  Mud Desc 
 DFD .sg                  1.45:  Mud Density 
 MDMN.sg                  1.39:  Dens Mud Min 
 MDMX.sg                  1.57:  Dens Mud Max 
 MOIL.                   53.20:  Run Mud Oil % 
 MOWR.                   70:30:  Run Mud OWR 
 MSND.                       0:  Run Mud Sand % 
 MSOL.                   24.30:  Run Mud Solids% 
 DFV .spqt               79.00:  Mud Viscosity 
 MWOD.in                  8.00:  MWD Tool OD 
 MWSI.                      No:  Serv Intrp, MWD 
 OTIM.hr                253.06:  Time Operating 
 PCON.           Look Like New:  Pad Condition 
 PMAX.psia            11068.93:  Press Op, Max 
 PV  .cP                 36.00:  Mud PV 
 RUN .                    1000:  Run Number 
 ROPA.m/hr               15.34:  ROP Avg 
 ROPN.m/hr                4.00:  ROP Min 
 ROPX.m/hr               31.00:  ROP Max 
 RPMA.rpm               151.40:  RPM Surface Avg 
 RPMN.rpm               120.00:  RPM Surface Min 
 RPMX.rpm               160.00:  RPM Surface Max 
 RRUN.                    L505:  Rig Run Number 
 RTIM.hr                 10.00:  Time Reaming 
 SAZI.deg                88.92:  Azm, Start 
 SDEP.m                2789.00:  Start Depth 
 SIDD.                      No:  Serv Intrp, DD 
 SINC.deg                19.84:  Inc, Start 
 SPPA.psig             4421.39:  SPP Avg 
 SPPN.psig             4130.00:  SPP Min 
 SPPX.psig             4800.00:  SPP Max 
 STIM.      01.25.20 07-Aug-21:  Start Time 
 SVCS.                 DD, MWD:  Services 
 SVER.                    9.20:  Sperry Version 
 TDAT.m                 699.00:  Tot Depth Attmp 
 TDDF.                      No:  Trip for DD 
 TDLG.m                 699.00:  Tot Depth Loggd 
 TFF .                      No:  Trip for Fail 
 TQAA.f-kp               20.55:  Torque Abs Avg 
 TQAN.f-kp               15.00:  Torque Abs Min 
 TQAX.f-kp               24.00:  Torque Abs Max 
 TRRT.°/30m               0.50:  Turn Rotating 
 MRT .                    HCIM:  Maximum Recorded Temperature 
 TTMX.degC               82.35:  Max Tool Temp 
 VS01.                90654677:  Virtual Str1 SN 
 VS02.                90636294:  Virtual Str2 SN 
 VS03.                90653866:  Virtual Str3 SN 
 VS04.                90654674:  Virtual Str4 SN 
 WBMN.klb                10.00:  WOB Min 
 WITN.         Haytham Mostafa:  Customer Rep 
 WITN.           Rufat Babayev:  Customer Rep 2 
 WOBA.klb                22.43:  WOB Avg 
 WOBX.klb                35.00:  WOB Max 
 YP  .lhf2               32.00:  Yield Point 
~Curve Information Block
#MNEM.UNIT                 API CODE     Curve Description
#---------               -----------    ---------------------------
 TIME.HHMMSS            00 000 000 000:  GT Time & Date
 GTDEPTH.m              00 000 000 000:  GT Depth
 GTPQH.psia             00 000 000 000:  GT HR Quartz Pressure
 GTTQ.degC              00 000 000 000:  GT Quartz Temperature
 GTTN.NONE              00 000 000 000:  GT Test Number
 GTET.sec               00 000 000 000:  GT Elapsed Test Time
 GTTVD.m                00 000 000 000:  GT True Vertical Depth
#Other Information
#
#WARRANTY: Halliburton will use its best efforts to furnish customers with 
#accurate information and interpretations that are part of, and incident to, the services 
#provided.  However, Halliburton cannot and does not warrant the accuracy 
#or correctness of such information and interpretations.  Under no circumstances should any 
#such information or interpretation be relied upon as the sole basis for any drilling, 
#completion, production, or financial decision or any procedure involving any risk to the 
#safety of any drilling venture, drilling rig or its crew or any other third party.  The 
#Customer has full responsibility for all drilling, completion and production operation.  
#Halliburton makes no representations or warranties, either expressed or 
#implied, including, but not limited to, the implied warranties of merchantability or fitness 
#for a particular purpose, with respect to the services rendered.  In no event will 
#Halliburton be liable for failure to obtain any particular results or for 
#any damages, including, but not limited to, indirect, special or consequential damages, 
#resulting from the use of any information or interpretation provided by Halliburton.
#
~A           TIME           GTDEPTH  GTPQH  GTTQ  GTTN  GTET   GTTVD  
# ...
   12:28:37.816.15-Aug-2021 3405.50 5243.93 52.45 6.00 160.90 3258.07
   12:28:38.015.15-Aug-2021 3405.50 5243.93 52.45 6.00 161.10 3258.07
   12:28:38.215.15-Aug-2021 3405.50 5247.77 52.45 6.00 161.30 3258.07
   12:28:38.415.15-Aug-2021 3405.50 5249.73 52.45 6.00 161.50 3258.07
   12:28:38.615.15-Aug-2021 3405.50 5251.50 52.45 6.00 161.70 3258.07
   12:28:38.815.15-Aug-2021 3405.50 5253.45 52.45 6.00 161.90 3258.07
   12:28:39.015.15-Aug-2021 3405.50 5253.45 52.45 6.00 162.10 3258.07
   12:28:39.215.15-Aug-2021 3405.50 5257.64 52.45 6.00 162.30 3258.07
   12:28:39.415.15-Aug-2021 3405.50 5259.64 52.45 6.00 162.50 3258.07
   12:28:39.615.15-Aug-2021 3405.50 5261.85 52.45 6.00 162.70 3258.07
   12:28:39.814.15-Aug-2021 3405.50 5263.82 52.45 6.00 162.90 3258.07
   12:28:40.014.15-Aug-2021 3405.50 5263.82 52.45 6.00 163.10 3258.07
   12:28:40.214.15-Aug-2021 3405.50 5267.53 52.45 6.00 163.30 3258.07
   12:28:40.414.15-Aug-2021 3405.50 5269.45 52.45 6.00 163.50 3258.07
   12:28:40.614.15-Aug-2021 3405.50 5271.68 52.45 6.00 163.70 3258.07
   12:28:40.814.15-Aug-2021 3405.50 5273.75 52.45 6.00 163.90 3258.07
   12:28:41.014.15-Aug-2021 3405.50 5273.75 52.45 6.00 164.10 3258.07
   12:28:41.214.15-Aug-2021 3405.50 5276.78 52.45 6.00 164.30 3258.07
   12:28:41.413.15-Aug-2021 3405.50 5278.73 52.45 6.00 164.50 3258.07
   12:28:41.613.15-Aug-2021 3405.50 5280.25 52.45 6.00 164.70 3258.07
   12:28:41.813.15-Aug-2021 3405.50 5282.12 52.45 6.00 164.90 3258.07
   12:28:42.013.15-Aug-2021 3405.50 5282.12 52.45 6.00 165.10 3258.07
   12:28:42.213.15-Aug-2021 3405.50 5285.89 52.45 6.00 165.30 3258.07
   12:28:42.413.15-Aug-2021 3405.50 5287.90 52.45 6.00 165.50 3258.07
   12:28:42.613.15-Aug-2021 3405.50 5289.84 52.45 6.00 165.70 3258.07
   12:28:42.813.15-Aug-2021 3405.50 5291.67 52.45 6.00 165.90 3258.07
   12:28:43.012.15-Aug-2021 3405.50 5291.67 52.45 6.00 166.10 3258.07
   12:28:43.212.15-Aug-2021 3405.50 5295.14 52.45 6.00 166.30 3258.07
   12:28:43.412.15-Aug-2021 3405.50 5297.39 52.45 6.00 166.50 3258.07
   12:28:43.612.15-Aug-2021 3405.50 5299.49 52.45 6.00 166.70 3258.07
   12:28:43.812.15-Aug-2021 3405.50 5301.15 52.45 6.00 166.90 3258.07
   12:28:44.012.15-Aug-2021 3405.50 5301.15 52.45 6.00 167.10 3258.07
   12:28:44.212.15-Aug-2021 3405.50 5305.03 52.45 6.00 167.30 3258.07
   12:28:44.412.15-Aug-2021 3405.50 5306.82 52.45 6.00 167.50 3258.07
   12:28:44.612.15-Aug-2021 3405.50 5308.22 52.45 6.00 167.70 3258.07
   12:28:44.811.15-Aug-2021 3405.50 5309.85 52.45 6.00 167.90 3258.07
   12:28:45.011.15-Aug-2021 3405.50 5309.85 52.45 6.00 168.10 3258.07
   12:28:45.211.15-Aug-2021 3405.50 5313.43 52.45 6.00 168.30 3258.07
   12:28:45.411.15-Aug-2021 3405.50 5315.18 52.45 6.00 168.50 3258.07
   12:28:45.611.15-Aug-2021 3405.50 5316.98 52.45 6.00 168.70 3258.07
   12:28:45.811.15-Aug-2021 3405.50 5318.76 52.45 6.00 168.90 3258.07
   12:28:46.011.15-Aug-2021 3405.50 5318.76 52.45 6.00 169.10 3258.07
   12:28:46.211.15-Aug-2021 3405.50 5322.29 52.45 6.00 169.30 3258.07
   12:28:46.410.15-Aug-2021 3405.50 5324.12 52.45 6.00 169.50 3258.07
   12:28:46.610.15-Aug-2021 3405.50 5325.97 52.45 6.00 169.70 3258.07
   12:28:46.810.15-Aug-2021 3405.50 5327.93 52.45 6.00 169.90 3258.07
   12:28:47.010.15-Aug-2021 3405.50 5327.93 52.45 6.00 170.10 3258.07
   12:28:47.210.15-Aug-2021 3405.50 5331.94 52.45 6.00 170.30 3258.07
   12:28:47.410.15-Aug-2021 3405.50 5333.50 52.45 6.00 170.50 3258.07
   12:28:47.610.15-Aug-2021 3405.50 5335.27 52.45 6.00 170.70 3258.07
   12:28:47.810.15-Aug-2021 3405.50 5337.05 52.45 6.00 170.90 3258.07
   12:28:48.009.15-Aug-2021 3405.50 5337.05 52.45 6.00 171.10 3258.07
   12:28:48.209.15-Aug-2021 3405.50 5340.70 52.45 6.00 171.30 3258.07
   12:28:48.409.15-Aug-2021 3405.50 5342.07 52.45 6.00 171.50 3258.07
   12:28:48.609.15-Aug-2021 3405.50 5343.72 52.45 6.00 171.70 3258.07
   12:28:48.809.15-Aug-2021 3405.50 5345.61 52.45 6.00 171.90 3258.07
   12:28:49.009.15-Aug-2021 3405.50 5345.61 52.45 6.00 172.10 3258.07
   12:28:49.209.15-Aug-2021 3405.50 5348.89 52.45 6.00 172.30 3258.07
   12:28:49.409.15-Aug-2021 3405.50 5350.60 52.45 6.00 172.50 3258.07
   12:28:49.609.15-Aug-2021 3405.50 5352.69 52.45 6.00 172.70 3258.07
   12:28:49.808.15-Aug-2021 3405.50 5354.28 52.45 6.00 172.90 3258.07
   12:28:50.008.15-Aug-2021 3405.50 5354.28 52.45 6.00 173.10 3258.07
   12:28:50.208.15-Aug-2021 3405.50 5357.58 52.45 6.00 173.30 3258.07
   12:28:50.408.15-Aug-2021 3405.50 5359.29 52.45 6.00 173.50 3258.07
   12:28:50.608.15-Aug-2021 3405.50 5361.05 52.45 6.00 173.70 3258.07
   12:28:50.808.15-Aug-2021 3405.50 5363.01 52.45 6.00 173.90 3258.07
   12:28:51.008.15-Aug-2021 3405.50 5363.01 52.45 6.00 174.10 3258.07
   12:28:51.208.15-Aug-2021 3405.50 5366.40 52.45 6.00 174.30 3258.07
   12:28:51.407.15-Aug-2021 3405.50 5368.17 52.45 6.00 174.50 3258.07
   12:28:51.607.15-Aug-2021 3405.50 5370.06 52.45 6.00 174.69 3258.07
   12:28:51.807.15-Aug-2021 3405.50 5371.72 52.45 6.00 174.89 3258.07
   12:28:52.007.15-Aug-2021 3405.50 5371.72 52.45 6.00 175.09 3258.07
   12:28:52.207.15-Aug-2021 3405.50 5374.83 52.45 6.00 175.29 3258.07
   12:28:52.407.15-Aug-2021 3405.50 5376.08 52.45 6.00 175.49 3258.07
   12:28:52.607.15-Aug-2021 3405.50 5377.60 52.45 6.00 175.69 3258.07
   12:28:52.807.15-Aug-2021 3405.50 5379.62 52.45 6.00 175.89 3258.07
   12:28:53.006.15-Aug-2021 3405.50 5379.62 52.45 6.00 176.09 3258.07
   12:28:53.206.15-Aug-2021 3405.50 5382.94 52.45 6.00 176.29 3258.07
   12:28:53.406.15-Aug-2021 3405.50 5384.62 52.45 6.00 176.49 3258.07
   12:28:53.606.15-Aug-2021 3405.50 5386.13 52.45 6.00 176.69 3258.07
   12:28:53.806.15-Aug-2021 3405.50 5387.76 52.45 6.00 176.89 3258.07
   12:28:54.006.15-Aug-2021 3405.50 5387.76 52.45 6.00 177.09 3258.07
   12:28:54.206.15-Aug-2021 3405.50 5391.39 52.45 6.00 177.29 3258.07
   12:28:54.406.15-Aug-2021 3405.50 5393.07 52.45 6.00 177.49 3258.07
   12:28:54.606.15-Aug-2021 3405.50 5395.08 52.45 6.00 177.69 3258.07
   12:28:54.805.15-Aug-2021 3405.50 5396.83 52.45 6.00 177.89 3258.07
   12:28:55.005.15-Aug-2021 3405.50 5396.83 52.45 6.00 178.09 3258.07
   12:28:55.205.15-Aug-2021 3405.50 5399.99 52.45 6.00 178.29 3258.07
   12:28:55.405.15-Aug-2021 3405.50 5401.52 52.45 6.00 178.49 3258.07
   12:28:55.605.15-Aug-2021 3405.50 5403.11 52.45 6.00 178.69 3258.07
   12:28:55.805.15-Aug-2021 3405.50 5404.83 52.45 6.00 178.89 3258.07
   12:28:56.005.15-Aug-2021 3405.50 5404.83 52.45 6.00 179.09 3258.07
   12:28:56.205.15-Aug-2021 3405.50 5408.46 52.45 6.00 179.29 3258.07
   12:28:56.404.15-Aug-2021 3405.50 5409.49 52.45 6.00 179.49 3258.07
   12:28:56.604.15-Aug-2021 3405.50 5410.86 52.45 6.00 179.69 3258.07
   12:28:56.804.15-Aug-2021 3405.50 5412.40 52.45 6.00 179.89 3258.07
   12:28:57.004.15-Aug-2021 3405.50 5412.40 52.45 6.00 180.09 3258.07
   12:28:57.204.15-Aug-2021 3405.50 5415.96 52.45 6.00 180.29 3258.07
   12:28:57.404.15-Aug-2021 3405.50 5417.37 52.45 6.00 180.49 3258.07
   12:28:57.604.15-Aug-2021 3405.50 5418.96 52.45 6.00 180.69 3258.07
   12:28:57.804.15-Aug-2021 3405.50 5420.77 52.45 6.00 180.89 3258.07
   12:28:58.003.15-Aug-2021 3405.50 5420.77 52.45 6.00 181.09 3258.07
   12:28:58.203.15-Aug-2021 3405.50 5423.86 52.45 6.00 181.29 3258.07
   12:28:58.403.15-Aug-2021 3405.50 5425.41 52.45 6.00 181.49 3258.07
   12:28:58.603.15-Aug-2021 3405.50 5427.01 52.45 6.00 181.69 3258.07
   12:28:58.803.15-Aug-2021 3405.50 5428.65 52.45 6.00 181.89 3258.07
   12:28:59.003.15-Aug-2021 3405.50 5428.65 52.45 6.00 182.09 3258.07
   12:28:59.203.15-Aug-2021 3405.50 5432.24 52.45 6.00 182.29 3258.07
   12:28:59.403.15-Aug-2021 3405.50 5433.61 52.45 6.00 182.49 3258.07
   12:28:59.603.15-Aug-2021 3405.50 5435.11 52.45 6.00 182.69 3258.07
   12:28:59.802.15-Aug-2021 3405.50 5436.76 52.45 6.00 182.89 3258.07
   12:29:00.002.15-Aug-2021 3405.50 5436.76 52.45 6.00 183.09 3258.07
   12:29:00.202.15-Aug-2021 3405.50 5439.87 52.45 6.00 183.29 3258.07
   12:29:00.402.15-Aug-2021 3405.50 5441.20 52.45 6.00 183.49 3258.07
   12:29:00.602.15-Aug-2021 3405.50 5442.65 52.45 6.00 183.69 3258.07
