~Version Information
 VERS.                  2.0:   CWLS log ASCII Standard -VERSION 2.0
 WRAP.                   NO:   One line per depth step
~Well Information Block
#MNEM.UNIT     VALUE/NAME     DESCRIPTION
#---------     -----------    ---------------------------
 STRT.S             06:52:24 15-Aug-21: START TIME 06:52:24 15-Aug-21
 STOP.S             06:59:28 15-Aug-21: STOP TIME  06:59:28 15-Aug-21
 STEP.S                   0.00: STEP TIME
 NULL.                 -999.25: NULL VALUE
 DFWT.                        :  DIST FWL TEXT
 DFST.                        :  DIST FSL TEXT
 DMF .             Drill Floor:  DRILL MEAS FROM
 STIM.      17.18.56 20-Jun-21:  START TIME
 DATE.      17.18.56 20-Aug-21:  END TIME
 SPUD.               20-Jun-21:  SPUD DATE
 NREF.                    Grid:  NORTH REFERENCE
 HPTY.       Minimum Curvature:  HOLE POS TYPE
 DMOD.             Drill Model:  DRILL MOD DESC
 SVYD.                  Survey:  SURVEY DESC
 ILTD.               Lithology:  INTERP LTH DESC
 FTOP.          Formation Tops:  FORM TOPS DESC
 SON .        AZ-XX-0907056190:  JOB NUMBER
 PDAT.       Caspian Sea Level:  PERMANENT DATUM
 WTYP.                Deviated:  WELL TYPE
 MDS .        Operator Entered:  MAG DATA SOURCE
 COMP.     BP Exploration (Caspian Sea) Ltd.:  COMPANY
 UWI .            /AZE20000092:  UNIQUE WELL IDENTIFIER
 API .            /AZE20000092:  API NUMBER
 BASE.              Azerbaijan:  LOGGING EQUIPMENT BASE LOCATION
 REGN.                   EESSA:  REGION
 PROV.                    baku:  PROVINCE
 STAT.                    baku:  STATE NAME
 CTRY.              Azerbaijan:  COUNTRY NAME
 FLD .                     ACG:  FIELD NAME
 SRVC.          Turan Drilling:  CONTRACTOR
 MWDS.                    Baku:  MWD SHOP
 WELL.                     J26:  WELL NAME
 JOBN.        AZ-XX-0907056190:  JOB TICKET NUMB
 RIG .             West Chirag:  RIG NAME
 DOE .                     N/A:  DOE NUMBER
 DCON.         Sperry Drilling:  DIRECTNL CONTR
 UNIT.                     N/A:  LOGGING EQUIPMENT ID
 CNTY.                        :  COUNTY
 LOC .                        :  LOCATION
 LMF .             Drill Floor:  LOG MEASURED FROM
 TVDS.m                  43.00:  TVDSS CORRECTN
 LATI.deg                40.13:  LATITUDE
 LONG.deg                51.22:  LONGITUDE
 WHNS.m                  -7.12:  WELL HEAD N/S
 WHEW.m                  -9.46:  WELL HEAD E/W
 UTMX.m              519004.02:  UTM X
 UTMY.m             4443784.96:  UTM Y
 DFWL.m                   0.00:  DISTANCE FWL
 DFSL.m                   0.00:  DISTANCE FSL
 SDEP.m                 464.00:  START DEPTH
 TDD .m                3500.00:  TOTAL DEPTH (DRILLER)
 VSDR.deg               114.35:  VERT SEC DIRECT
 GVFD.g                   1.00:  GRAVITY FIELD
 MFLD.nT              50386.00:  MAGNETIC FIELD
 MDIP.deg                59.63:  MAGNETIC DIP
 MDEC.deg                 6.43:  MAGNETIC DECL
 GRDC.deg                 0.15:  GRID CORRECTION
 AZTC.deg                 6.29:  AZM TOTAL CORR
 EPD .m                   0.00:  ELEVATION
 EGL .m                   0.00:  GROUND ELEVATION
 WDMS.m                 169.80:  WD ELEV
 APD .m                  43.00:  DEPTH ABOVE PD
 VSEW.m                  -9.46:  VERT SEC E/W
 VSNS.m                  -7.12:  VERT SEC N/S
 AGAP.m                  43.00:  AIR GAP
 DEP .m                 356.16:  DEPTH
 EKB .m                  43.00:  KB ELEVATION
 EDF .m                  43.00:  DF ELEVATION
 TDL .m                 699.00:  TOTAL DEPTH (LOGGER)
 VSC .                       0:  VS TO CLOSURE
 MAGU.                 1853727:  MAGUTM CHECKSUM
~Parameter Information Block
#MNEM.UNIT       Value        Description
#---------     -----------    ---------------------------
 AV  .mps                 1.30:  Ann Velocity 
 AVMX.mps                 1.67:  Max Ann Veloc 
 AZIF.deg               280.40:  Azm, Final 
 BHAT.        Rotary Steerable:  BHA Type 
 BREV.rev            528970.00:  Rev Bit Total 
 BROT.°/30m               1.00:  Build Rotating 
 BS  .in                 12.25:  Bit Size 
 BSZ .in                 12.25:  Bit Size 
 BTPL.psig              738.00:  Bit Press Loss 
 CABU.                     Yes:  Customer Abuse 
 CGEO.        Elvin Suleymanov:  Customer Geo 
 COMM.                     ¬kS:  Run Comments 1 
 TCS .hr                 66.05:  Time Ciculation Ended 
 CV  .mps                 2.20:  Crit Velocity 
 CVMX.mps                 2.56:  Max Crit Veloc 
 DD1 .          Rashad Habibov:  Direct Drillr 1 
 DD2 .            Azer ravanov:  Direct Drillr 2 
 DD3 .           Teymur Agayev:  Direct Drillr 3 
 DDSV.               Geo-Pilot:  DD Service 
 DEFF.%                  90.00:  % Det Eff 
 DLRX.°/30m               2.95:  Dogleg Rot Max 
 DLSO.°/30m               1.00:  Dogleg Oriented 
 DLSX.°/30m               2.95:  Dogleg Str Max 
 DRET.      11.42.20 11-Aug-21:  Drill End Time 
 DRST.      23.03.20 08-Aug-21:  Drill Start Tim 
 DTIM.hr                 45.50:  Time Drilling 
 EDEP.m                3488.00:  End Depth 
 ENG1.         Marcelo Marcari:  Engineer 1 
 ENG2.         Dair Mahammadov:  Engineer 2 
 ENG3.       Davud Huseyn-zada:  Engineer 3 
 ENG4.         Yevgeniy Ulikov:  Engineer 4 
 ETIM.      17.45.20 17-Aug-21:  End Time 
 FLOI.gpm              1197.70:  Flow In 
 FLON.gpm              1100.00:  Flow In Min 
 FLOS.cptm                0.00:  Fluid Loss 
 FLOX.gpm              1200.00:  Flow In Max 
 DFT .        Mineral Oil Base:  Mud Type 
 FTRO.       Formation Presure:  FTWD Run Obj 
 HFLO.                      No:  High Flow 
 HPRE.                      No:  High Pressure 
 HTEM.                      No:  High Temp 
 HYDO.m                   1.80:  Hydro Offset 
 IFIN.deg                 9.87:  Inc, Final 
 IMAX.deg                19.96:  Inc Max 
 IMIN.deg                 3.82:  Inc Min 
 IMND.m                3257.42:  Inc Min Depth 
 IMXD.m                2945.53:  Inc Max Depth 
 JARR.                      No:  Jarring 
 LETM.      11.42.20 11-Aug-21:  Log End Time 
 LOST.hr                     0:  Lost Rig Time 
 LSTM.      23.03.20 08-Aug-21:  Log Start Time 
 MDCL.ppm             42500.00:  Mud Chlorides 
 MDES.     Inversion Oil/Synthetic:  Mud Desc 
 DFD .sg                  1.45:  Mud Density 
 MDMN.sg                  1.39:  Dens Mud Min 
 MDMX.sg                  1.57:  Dens Mud Max 
 MOIL.                   53.20:  Run Mud Oil % 
 MOWR.                   70:30:  Run Mud OWR 
 MSND.                       0:  Run Mud Sand % 
 MSOL.                   24.30:  Run Mud Solids% 
 DFV .spqt               79.00:  Mud Viscosity 
 MWOD.in                  8.00:  MWD Tool OD 
 MWSI.                      No:  Serv Intrp, MWD 
 OTIM.hr                253.06:  Time Operating 
 PCON.           Look Like New:  Pad Condition 
 PMAX.psia            11068.93:  Press Op, Max 
 PV  .cP                 36.00:  Mud PV 
 RUN .                    1000:  Run Number 
 ROPA.m/hr               15.34:  ROP Avg 
 ROPN.m/hr                4.00:  ROP Min 
 ROPX.m/hr               31.00:  ROP Max 
 RPMA.rpm               151.40:  RPM Surface Avg 
 RPMN.rpm               120.00:  RPM Surface Min 
 RPMX.rpm               160.00:  RPM Surface Max 
 RRUN.                    L505:  Rig Run Number 
 RTIM.hr                 10.00:  Time Reaming 
 SAZI.deg                88.92:  Azm, Start 
 SDEP.m                2789.00:  Start Depth 
 SIDD.                      No:  Serv Intrp, DD 
 SINC.deg                19.84:  Inc, Start 
 SPPA.psig             4421.39:  SPP Avg 
 SPPN.psig             4130.00:  SPP Min 
 SPPX.psig             4800.00:  SPP Max 
 STIM.      01.25.20 07-Aug-21:  Start Time 
 SVCS.                 DD, MWD:  Services 
 SVER.                    9.20:  Sperry Version 
 TDAT.m                 699.00:  Tot Depth Attmp 
 TDDF.                      No:  Trip for DD 
 TDLG.m                 699.00:  Tot Depth Loggd 
 TFF .                      No:  Trip for Fail 
 TQAA.f-kp               20.55:  Torque Abs Avg 
 TQAN.f-kp               15.00:  Torque Abs Min 
 TQAX.f-kp               24.00:  Torque Abs Max 
 TRRT.°/30m               0.50:  Turn Rotating 
 MRT .                    HCIM:  Maximum Recorded Temperature 
 TTMX.degC               82.35:  Max Tool Temp 
 VS01.                90654677:  Virtual Str1 SN 
 VS02.                90636294:  Virtual Str2 SN 
 VS03.                90653866:  Virtual Str3 SN 
 VS04.                90654674:  Virtual Str4 SN 
 WBMN.klb                10.00:  WOB Min 
 WITN.         Haytham Mostafa:  Customer Rep 
 WITN.           Rufat Babayev:  Customer Rep 2 
 WOBA.klb                22.43:  WOB Avg 
 WOBX.klb                35.00:  WOB Max 
 YP  .lhf2               32.00:  Yield Point 
~Curve Information Block
#MNEM.UNIT                 API CODE     Curve Description
#---------               -----------    ---------------------------
 TIME.HHMMSS            00 000 000 000:  GT Time & Date
 GTDEPTH.m              00 000 000 000:  GT Depth
 GTPQH.psia             00 000 000 000:  GT HR Quartz Pressure
 GTTQ.degC              00 000 000 000:  GT Quartz Temperature
 GTTN.NONE              00 000 000 000:  GT Test Number
 GTET.sec               00 000 000 000:  GT Elapsed Test Time
 GTTVD.m                00 000 000 000:  GT True Vertical Depth
#Other Information
#
#WARRANTY: Halliburton will use its best efforts to furnish customers with 
#accurate information and interpretations that are part of, and incident to, the services 
#provided.  However, Halliburton cannot and does not warrant the accuracy 
#or correctness of such information and interpretations.  Under no circumstances should any 
#such information or interpretation be relied upon as the sole basis for any drilling, 
#completion, production, or financial decision or any procedure involving any risk to the 
#safety of any drilling venture, drilling rig or its crew or any other third party.  The 
#Customer has full responsibility for all drilling, completion and production operation.  
#Halliburton makes no representations or warranties, either expressed or 
#implied, including, but not limited to, the implied warranties of merchantability or fitness 
#for a particular purpose, with respect to the services rendered.  In no event will 
#Halliburton be liable for failure to obtain any particular results or for 
#any damages, including, but not limited to, indirect, special or consequential damages, 
#resulting from the use of any information or interpretation provided by Halliburton.
#
~A           TIME           GTDEPTH  GTPQH  GTTQ  GTTN  GTET   GTTVD  
# ...
   06:55:28.707.15-Aug-2021 3437.50 4966.09 57.96 1.00 184.01 3289.56
   06:55:28.907.15-Aug-2021 3437.50 4966.09 57.96 1.00 184.21 3289.56
   06:55:29.107.15-Aug-2021 3437.50 5120.18 57.96 1.00 184.41 3289.56
   06:55:29.307.15-Aug-2021 3437.50 5153.38 57.96 1.00 184.61 3289.56
   06:55:29.507.15-Aug-2021 3437.50 5173.23 57.96 1.00 184.81 3289.56
   06:55:29.707.15-Aug-2021 3437.50 5185.86 57.96 1.00 185.01 3289.56
   06:55:29.907.15-Aug-2021 3437.50 5185.86 57.96 1.00 185.21 3289.56
   06:55:30.107.15-Aug-2021 3437.50 5199.50 57.96 1.00 185.41 3289.56
   06:55:30.307.15-Aug-2021 3437.50 5202.27 57.96 1.00 185.61 3289.56
   06:55:30.507.15-Aug-2021 3437.50 5204.27 57.96 1.00 185.81 3289.56
   06:55:30.707.15-Aug-2021 3437.50 5206.47 57.96 1.00 186.01 3289.56
   06:55:30.907.15-Aug-2021 3437.50 5206.47 57.96 1.00 186.21 3289.56
   06:55:31.107.15-Aug-2021 3437.50 5208.44 57.96 1.00 186.41 3289.56
   06:55:31.307.15-Aug-2021 3437.50 5209.42 57.96 1.00 186.61 3289.56
   06:55:31.507.15-Aug-2021 3437.50 5209.85 57.96 1.00 186.81 3289.56
   06:55:31.707.15-Aug-2021 3437.50 5210.18 57.96 1.00 187.01 3289.56
   06:55:31.907.15-Aug-2021 3437.50 5210.18 57.96 1.00 187.21 3289.56
   06:55:32.107.15-Aug-2021 3437.50 5210.59 57.96 1.00 187.41 3289.56
   06:55:32.307.15-Aug-2021 3437.50 5211.36 57.96 1.00 187.61 3289.56
   06:55:32.507.15-Aug-2021 3437.50 5211.51 57.96 1.00 187.81 3289.56
   06:55:32.707.15-Aug-2021 3437.50 5211.78 57.96 1.00 188.01 3289.56
   06:55:32.907.15-Aug-2021 3437.50 5211.78 57.96 1.00 188.21 3289.56
   06:55:33.107.15-Aug-2021 3437.50 5212.31 57.96 1.00 188.41 3289.56
   06:55:33.307.15-Aug-2021 3437.50 5212.29 57.96 1.00 188.61 3289.56
   06:55:33.507.15-Aug-2021 3437.50 5212.41 57.96 1.00 188.81 3289.56
   06:55:33.707.15-Aug-2021 3437.50 5212.53 57.96 1.00 189.01 3289.56
   06:55:33.907.15-Aug-2021 3437.50 5212.53 57.96 1.00 189.21 3289.56
   06:55:34.107.15-Aug-2021 3437.50 5212.43 57.97 1.00 189.41 3289.56
   06:55:34.307.15-Aug-2021 3437.50 5212.39 57.97 1.00 189.61 3289.56
   06:55:34.507.15-Aug-2021 3437.50 5212.43 57.97 1.00 189.81 3289.56
   06:55:34.707.15-Aug-2021 3437.50 5212.91 57.97 1.00 190.01 3289.56
   06:55:34.907.15-Aug-2021 3437.50 5212.91 57.97 1.00 190.21 3289.56
   06:55:35.107.15-Aug-2021 3437.50 5212.92 57.97 1.00 190.41 3289.56
   06:55:35.307.15-Aug-2021 3437.50 5212.99 57.97 1.00 190.61 3289.56
   06:55:35.507.15-Aug-2021 3437.50 5212.97 57.97 1.00 190.81 3289.56
   06:55:35.707.15-Aug-2021 3437.50 5212.90 57.97 1.00 191.01 3289.56
   06:55:35.907.15-Aug-2021 3437.50 5212.90 57.97 1.00 191.21 3289.56
   06:55:36.107.15-Aug-2021 3437.50 5212.83 57.97 1.00 191.41 3289.56
   06:55:36.307.15-Aug-2021 3437.50 5212.84 57.97 1.00 191.61 3289.56
   06:55:36.507.15-Aug-2021 3437.50 5213.25 57.97 1.00 191.81 3289.56
   06:55:36.707.15-Aug-2021 3437.50 5213.34 57.97 1.00 192.01 3289.56
   06:55:36.907.15-Aug-2021 3437.50 5213.34 57.97 1.00 192.21 3289.56
   06:55:37.107.15-Aug-2021 3437.50 5213.38 57.97 1.00 192.41 3289.56
   06:55:37.307.15-Aug-2021 3437.50 5213.40 57.97 1.00 192.61 3289.56
   06:55:37.507.15-Aug-2021 3437.50 5213.39 57.97 1.00 192.81 3289.56
   06:55:37.707.15-Aug-2021 3437.50 5213.87 57.97 1.00 193.01 3289.56
   06:55:37.907.15-Aug-2021 3437.50 5213.87 57.97 1.00 193.21 3289.56
   06:55:38.107.15-Aug-2021 3437.50 5213.85 57.97 1.00 193.41 3289.56
   06:55:38.307.15-Aug-2021 3437.50 5213.88 57.97 1.00 193.61 3289.56
   06:55:38.507.15-Aug-2021 3437.50 5213.88 57.97 1.00 193.81 3289.56
   06:55:38.707.15-Aug-2021 3437.50 5213.91 57.97 1.00 194.01 3289.56
   06:55:38.907.15-Aug-2021 3437.50 5213.91 57.97 1.00 194.21 3289.56
   06:55:39.107.15-Aug-2021 3437.50 5214.05 57.97 1.00 194.41 3289.56
   06:55:39.307.15-Aug-2021 3437.50 5214.15 57.97 1.00 194.61 3289.56
   06:55:39.507.15-Aug-2021 3437.50 5214.23 57.97 1.00 194.81 3289.56
   06:55:39.707.15-Aug-2021 3437.50 5214.25 57.97 1.00 195.01 3289.56
   06:55:39.907.15-Aug-2021 3437.50 5214.25 57.97 1.00 195.21 3289.56
   06:55:40.107.15-Aug-2021 3437.50 5214.36 57.97 1.00 195.41 3289.56
   06:55:40.307.15-Aug-2021 3437.50 5214.31 57.97 1.00 195.61 3289.56
   06:55:40.507.15-Aug-2021 3437.50 5214.44 57.97 1.00 195.81 3289.56
   06:55:40.707.15-Aug-2021 3437.50 5214.39 57.98 1.00 196.01 3289.56
   06:55:40.907.15-Aug-2021 3437.50 5214.39 57.98 1.00 196.21 3289.56
   06:55:41.107.15-Aug-2021 3437.50 5214.53 57.98 1.00 196.41 3289.56
   06:55:41.307.15-Aug-2021 3437.50 5214.51 57.98 1.00 196.61 3289.56
   06:55:41.507.15-Aug-2021 3437.50 5214.64 57.98 1.00 196.81 3289.56
   06:55:41.707.15-Aug-2021 3437.50 5214.62 57.98 1.00 197.01 3289.56
   06:55:41.907.15-Aug-2021 3437.50 5214.62 57.98 1.00 197.21 3289.56
   06:55:42.107.15-Aug-2021 3437.50 5214.64 57.98 1.00 197.41 3289.56
   06:55:42.308.15-Aug-2021 3437.50 5215.04 57.98 1.00 197.61 3289.56
   06:55:42.508.15-Aug-2021 3437.50 5214.81 57.98 1.00 197.81 3289.56
   06:55:42.708.15-Aug-2021 3437.50 5214.94 57.98 1.00 198.01 3289.56
   06:55:42.908.15-Aug-2021 3437.50 5214.94 57.98 1.00 198.21 3289.56
   06:55:43.108.15-Aug-2021 3437.50 5214.88 57.98 1.00 198.41 3289.56
   06:55:43.308.15-Aug-2021 3437.50 5214.97 57.98 1.00 198.61 3289.56
   06:55:43.508.15-Aug-2021 3437.50 5214.77 57.98 1.00 198.81 3289.56
   06:55:43.708.15-Aug-2021 3437.50 5214.96 57.98 1.00 199.01 3289.56
   06:55:43.908.15-Aug-2021 3437.50 5214.96 57.98 1.00 199.21 3289.56
   06:55:44.108.15-Aug-2021 3437.50 5214.96 57.98 1.00 199.41 3289.56
   06:55:44.308.15-Aug-2021 3437.50 5215.03 57.98 1.00 199.61 3289.56
   06:55:44.508.15-Aug-2021 3437.50 5214.99 57.98 1.00 199.81 3289.56
   06:55:44.708.15-Aug-2021 3437.50 5214.97 57.98 1.00 200.01 3289.56
   06:55:44.908.15-Aug-2021 3437.50 5214.97 57.98 1.00 200.21 3289.56
   06:55:45.108.15-Aug-2021 3437.50 5215.15 57.98 1.00 200.41 3289.56
   06:55:45.308.15-Aug-2021 3437.50 5215.10 57.98 1.00 200.61 3289.56
   06:55:45.508.15-Aug-2021 3437.50 5215.15 57.98 1.00 200.81 3289.56
   06:55:45.708.15-Aug-2021 3437.50 5215.16 57.98 1.00 201.01 3289.56
   06:55:45.908.15-Aug-2021 3437.50 5215.16 57.98 1.00 201.21 3289.56
   06:55:46.108.15-Aug-2021 3437.50 5215.33 57.98 1.00 201.41 3289.56
   06:55:46.308.15-Aug-2021 3437.50 5215.11 57.98 1.00 201.61 3289.56
   06:55:46.508.15-Aug-2021 3437.50 5215.36 57.98 1.00 201.81 3289.56
   06:55:46.708.15-Aug-2021 3437.50 5215.33 57.98 1.00 202.01 3289.56
   06:55:46.908.15-Aug-2021 3437.50 5215.33 57.98 1.00 202.21 3289.56
   06:55:47.108.15-Aug-2021 3437.50 5215.30 57.98 1.00 202.41 3289.56
   06:55:47.308.15-Aug-2021 3437.50 5215.55 57.98 1.00 202.61 3289.56
   06:55:47.508.15-Aug-2021 3437.50 5215.40 57.98 1.00 202.81 3289.56
   06:55:47.708.15-Aug-2021 3437.50 5215.46 57.98 1.00 203.01 3289.56
   06:55:47.908.15-Aug-2021 3437.50 5215.46 57.98 1.00 203.21 3289.56
   06:55:48.108.15-Aug-2021 3437.50 5215.47 57.98 1.00 203.41 3289.56
   06:55:48.308.15-Aug-2021 3437.50 5215.45 57.98 1.00 203.61 3289.56
   06:55:48.508.15-Aug-2021 3437.50 5215.49 57.98 1.00 203.81 3289.56
   06:55:48.708.15-Aug-2021 3437.50 5215.68 57.98 1.00 204.01 3289.56
   06:55:48.908.15-Aug-2021 3437.50 5215.68 57.98 1.00 204.21 3289.56
   06:55:49.108.15-Aug-2021 3437.50 5215.82 57.98 1.00 204.41 3289.56
   06:55:49.308.15-Aug-2021 3437.50 5215.65 57.98 1.00 204.61 3289.56
   06:55:49.508.15-Aug-2021 3437.50 5215.63 57.98 1.00 204.81 3289.56
   06:55:49.708.15-Aug-2021 3437.50 5215.85 57.98 1.00 205.01 3289.56
   06:55:49.908.15-Aug-2021 3437.50 5215.85 57.98 1.00 205.21 3289.56
   06:55:50.108.15-Aug-2021 3437.50 5215.85 57.98 1.00 205.41 3289.56
   06:55:50.308.15-Aug-2021 3437.50 5215.42 57.98 1.00 205.61 3289.56
   06:55:50.508.15-Aug-2021 3437.50 5216.01 57.98 1.00 205.81 3289.56
   06:55:50.708.15-Aug-2021 3437.50 5215.77 57.98 1.00 206.01 3289.56
   06:55:50.908.15-Aug-2021 3437.50 5215.77 57.98 1.00 206.21 3289.56
   06:55:51.108.15-Aug-2021 3437.50 5216.00 57.98 1.00 206.41 3289.56
   06:55:51.308.15-Aug-2021 3437.50 5215.81 57.98 1.00 206.61 3289.56
   06:55:51.508.15-Aug-2021 3437.50 5215.87 57.98 1.00 206.81 3289.56
