~Version Information
 VERS.                  2.0:   CWLS log ASCII Standard -VERSION 2.0
 WRAP.                   NO:   One line per depth step
~Well Information Block
#MNEM.UNIT     VALUE/NAME     DESCRIPTION
#---------     -----------    ---------------------------
 STRT.S             09:29:08 15-Aug-21: START TIME 09:29:08 15-Aug-21
 STOP.S             09:37:37 15-Aug-21: STOP TIME  09:37:37 15-Aug-21
 STEP.S                   0.00: STEP TIME
 NULL.                 -999.25: NULL VALUE
 DFWT.                        :  DIST FWL TEXT
 DFST.                        :  DIST FSL TEXT
 DMF .             Drill Floor:  DRILL MEAS FROM
 STIM.      17.18.56 20-Jun-21:  START TIME
 DATE.      17.18.56 20-Aug-21:  END TIME
 SPUD.               20-Jun-21:  SPUD DATE
 NREF.                    Grid:  NORTH REFERENCE
 HPTY.       Minimum Curvature:  HOLE POS TYPE
 DMOD.             Drill Model:  DRILL MOD DESC
 SVYD.                  Survey:  SURVEY DESC
 ILTD.               Lithology:  INTERP LTH DESC
 FTOP.          Formation Tops:  FORM TOPS DESC
 SON .        AZ-XX-0907056190:  JOB NUMBER
 PDAT.       Caspian Sea Level:  PERMANENT DATUM
 WTYP.                Deviated:  WELL TYPE
 MDS .        Operator Entered:  MAG DATA SOURCE
 COMP.     BP Exploration (Caspian Sea) Ltd.:  COMPANY
 UWI .            /AZE20000092:  UNIQUE WELL IDENTIFIER
 API .            /AZE20000092:  API NUMBER
 BASE.              Azerbaijan:  LOGGING EQUIPMENT BASE LOCATION
 REGN.                   EESSA:  REGION
 PROV.                    baku:  PROVINCE
 STAT.                    baku:  STATE NAME
 CTRY.              Azerbaijan:  COUNTRY NAME
 FLD .                     ACG:  FIELD NAME
 SRVC.          Turan Drilling:  CONTRACTOR
 MWDS.                    Baku:  MWD SHOP
 WELL.                     J26:  WELL NAME
 JOBN.        AZ-XX-0907056190:  JOB TICKET NUMB
 RIG .             West Chirag:  RIG NAME
 DOE .                     N/A:  DOE NUMBER
 DCON.         Sperry Drilling:  DIRECTNL CONTR
 UNIT.                     N/A:  LOGGING EQUIPMENT ID
 CNTY.                        :  COUNTY
 LOC .                        :  LOCATION
 LMF .             Drill Floor:  LOG MEASURED FROM
 TVDS.m                  43.00:  TVDSS CORRECTN
 LATI.deg                40.13:  LATITUDE
 LONG.deg                51.22:  LONGITUDE
 WHNS.m                  -7.12:  WELL HEAD N/S
 WHEW.m                  -9.46:  WELL HEAD E/W
 UTMX.m              519004.02:  UTM X
 UTMY.m             4443784.96:  UTM Y
 DFWL.m                   0.00:  DISTANCE FWL
 DFSL.m                   0.00:  DISTANCE FSL
 SDEP.m                 464.00:  START DEPTH
 TDD .m                3500.00:  TOTAL DEPTH (DRILLER)
 VSDR.deg               114.35:  VERT SEC DIRECT
 GVFD.g                   1.00:  GRAVITY FIELD
 MFLD.nT              50386.00:  MAGNETIC FIELD
 MDIP.deg                59.63:  MAGNETIC DIP
 MDEC.deg                 6.43:  MAGNETIC DECL
 GRDC.deg                 0.15:  GRID CORRECTION
 AZTC.deg                 6.29:  AZM TOTAL CORR
 EPD .m                   0.00:  ELEVATION
 EGL .m                   0.00:  GROUND ELEVATION
 WDMS.m                 169.80:  WD ELEV
 APD .m                  43.00:  DEPTH ABOVE PD
 VSEW.m                  -9.46:  VERT SEC E/W
 VSNS.m                  -7.12:  VERT SEC N/S
 AGAP.m                  43.00:  AIR GAP
 DEP .m                 356.16:  DEPTH
 EKB .m                  43.00:  KB ELEVATION
 EDF .m                  43.00:  DF ELEVATION
 TDL .m                 699.00:  TOTAL DEPTH (LOGGER)
 VSC .                       0:  VS TO CLOSURE
 MAGU.                 1853727:  MAGUTM CHECKSUM
~Parameter Information Block
#MNEM.UNIT       Value        Description
#---------     -----------    ---------------------------
 AV  .mps                 1.30:  Ann Velocity 
 AVMX.mps                 1.67:  Max Ann Veloc 
 AZIF.deg               280.40:  Azm, Final 
 BHAT.        Rotary Steerable:  BHA Type 
 BREV.rev            528970.00:  Rev Bit Total 
 BROT.°/30m               1.00:  Build Rotating 
 BS  .in                 12.25:  Bit Size 
 BSZ .in                 12.25:  Bit Size 
 BTPL.psig              738.00:  Bit Press Loss 
 CABU.                     Yes:  Customer Abuse 
 CGEO.        Elvin Suleymanov:  Customer Geo 
 COMM.                     œR:  Run Comments 1 
 TCS .hr                 66.05:  Time Ciculation Ended 
 CV  .mps                 2.20:  Crit Velocity 
 CVMX.mps                 2.56:  Max Crit Veloc 
 DD1 .          Rashad Habibov:  Direct Drillr 1 
 DD2 .            Azer ravanov:  Direct Drillr 2 
 DD3 .           Teymur Agayev:  Direct Drillr 3 
 DDSV.               Geo-Pilot:  DD Service 
 DEFF.%                  90.00:  % Det Eff 
 DLRX.°/30m               2.95:  Dogleg Rot Max 
 DLSO.°/30m               1.00:  Dogleg Oriented 
 DLSX.°/30m               2.95:  Dogleg Str Max 
 DRET.      11.42.20 11-Aug-21:  Drill End Time 
 DRST.      23.03.20 08-Aug-21:  Drill Start Tim 
 DTIM.hr                 45.50:  Time Drilling 
 EDEP.m                3488.00:  End Depth 
 ENG1.         Marcelo Marcari:  Engineer 1 
 ENG2.         Dair Mahammadov:  Engineer 2 
 ENG3.       Davud Huseyn-zada:  Engineer 3 
 ENG4.         Yevgeniy Ulikov:  Engineer 4 
 ETIM.      17.45.20 17-Aug-21:  End Time 
 FLOI.gpm              1197.70:  Flow In 
 FLON.gpm              1100.00:  Flow In Min 
 FLOS.cptm                0.00:  Fluid Loss 
 FLOX.gpm              1200.00:  Flow In Max 
 DFT .        Mineral Oil Base:  Mud Type 
 FTRO.       Formation Presure:  FTWD Run Obj 
 HFLO.                      No:  High Flow 
 HPRE.                      No:  High Pressure 
 HTEM.                      No:  High Temp 
 HYDO.m                   1.80:  Hydro Offset 
 IFIN.deg                 9.87:  Inc, Final 
 IMAX.deg                19.96:  Inc Max 
 IMIN.deg                 3.82:  Inc Min 
 IMND.m                3257.42:  Inc Min Depth 
 IMXD.m                2945.53:  Inc Max Depth 
 JARR.                      No:  Jarring 
 LETM.      11.42.20 11-Aug-21:  Log End Time 
 LOST.hr                     0:  Lost Rig Time 
 LSTM.      23.03.20 08-Aug-21:  Log Start Time 
 MDCL.ppm             42500.00:  Mud Chlorides 
 MDES.     Inversion Oil/Synthetic:  Mud Desc 
 DFD .sg                  1.45:  Mud Density 
 MDMN.sg                  1.39:  Dens Mud Min 
 MDMX.sg                  1.57:  Dens Mud Max 
 MOIL.                   53.20:  Run Mud Oil % 
 MOWR.                   70:30:  Run Mud OWR 
 MSND.                       0:  Run Mud Sand % 
 MSOL.                   24.30:  Run Mud Solids% 
 DFV .spqt               79.00:  Mud Viscosity 
 MWOD.in                  8.00:  MWD Tool OD 
 MWSI.                      No:  Serv Intrp, MWD 
 OTIM.hr                253.06:  Time Operating 
 PCON.           Look Like New:  Pad Condition 
 PMAX.psia            11068.93:  Press Op, Max 
 PV  .cP                 36.00:  Mud PV 
 RUN .                    1000:  Run Number 
 ROPA.m/hr               15.34:  ROP Avg 
 ROPN.m/hr                4.00:  ROP Min 
 ROPX.m/hr               31.00:  ROP Max 
 RPMA.rpm               151.40:  RPM Surface Avg 
 RPMN.rpm               120.00:  RPM Surface Min 
 RPMX.rpm               160.00:  RPM Surface Max 
 RRUN.                    L505:  Rig Run Number 
 RTIM.hr                 10.00:  Time Reaming 
 SAZI.deg                88.92:  Azm, Start 
 SDEP.m                2789.00:  Start Depth 
 SIDD.                      No:  Serv Intrp, DD 
 SINC.deg                19.84:  Inc, Start 
 SPPA.psig             4421.39:  SPP Avg 
 SPPN.psig             4130.00:  SPP Min 
 SPPX.psig             4800.00:  SPP Max 
 STIM.      01.25.20 07-Aug-21:  Start Time 
 SVCS.                 DD, MWD:  Services 
 SVER.                    9.20:  Sperry Version 
 TDAT.m                 699.00:  Tot Depth Attmp 
 TDDF.                      No:  Trip for DD 
 TDLG.m                 699.00:  Tot Depth Loggd 
 TFF .                      No:  Trip for Fail 
 TQAA.f-kp               20.55:  Torque Abs Avg 
 TQAN.f-kp               15.00:  Torque Abs Min 
 TQAX.f-kp               24.00:  Torque Abs Max 
 TRRT.°/30m               0.50:  Turn Rotating 
 MRT .                    HCIM:  Maximum Recorded Temperature 
 TTMX.degC               82.35:  Max Tool Temp 
 VS01.                90654677:  Virtual Str1 SN 
 VS02.                90636294:  Virtual Str2 SN 
 VS03.                90653866:  Virtual Str3 SN 
 VS04.                90654674:  Virtual Str4 SN 
 WBMN.klb                10.00:  WOB Min 
 WITN.         Haytham Mostafa:  Customer Rep 
 WITN.           Rufat Babayev:  Customer Rep 2 
 WOBA.klb                22.43:  WOB Avg 
 WOBX.klb                35.00:  WOB Max 
 YP  .lhf2               32.00:  Yield Point 
~Curve Information Block
#MNEM.UNIT                 API CODE     Curve Description
#---------               -----------    ---------------------------
 TIME.HHMMSS            00 000 000 000:  GT Time & Date
 GTDEPTH.m              00 000 000 000:  GT Depth
 GTPQH.psia             00 000 000 000:  GT HR Quartz Pressure
 GTTQ.degC              00 000 000 000:  GT Quartz Temperature
 GTTN.NONE              00 000 000 000:  GT Test Number
 GTET.sec               00 000 000 000:  GT Elapsed Test Time
 GTTVD.m                00 000 000 000:  GT True Vertical Depth
#Other Information
#
#WARRANTY: Halliburton will use its best efforts to furnish customers with 
#accurate information and interpretations that are part of, and incident to, the services 
#provided.  However, Halliburton cannot and does not warrant the accuracy 
#or correctness of such information and interpretations.  Under no circumstances should any 
#such information or interpretation be relied upon as the sole basis for any drilling, 
#completion, production, or financial decision or any procedure involving any risk to the 
#safety of any drilling venture, drilling rig or its crew or any other third party.  The 
#Customer has full responsibility for all drilling, completion and production operation.  
#Halliburton makes no representations or warranties, either expressed or 
#implied, including, but not limited to, the implied warranties of merchantability or fitness 
#for a particular purpose, with respect to the services rendered.  In no event will 
#Halliburton be liable for failure to obtain any particular results or for 
#any damages, including, but not limited to, indirect, special or consequential damages, 
#resulting from the use of any information or interpretation provided by Halliburton.
#
~A           TIME           GTDEPTH  GTPQH  GTTQ  GTTN  GTET   GTTVD  
# ...
   09:34:53.887.15-Aug-2021 3421.80 1692.72 54.97 3.00 345.06 3274.11
   09:34:54.087.15-Aug-2021 3421.80 1692.72 54.97 3.00 345.26 3274.11
   09:34:54.287.15-Aug-2021 3421.80 1692.72 54.97 3.00 345.46 3274.11
   09:34:54.487.15-Aug-2021 3421.80 1690.12 54.97 3.00 345.66 3274.11
   09:34:54.687.15-Aug-2021 3421.80 1685.23 54.96 3.00 345.86 3274.11
   09:34:54.887.15-Aug-2021 3421.80 1685.04 54.96 3.00 346.06 3274.11
   09:34:55.087.15-Aug-2021 3421.80 1685.04 54.96 3.00 346.26 3274.11
   09:34:55.287.15-Aug-2021 3421.80 1684.31 54.96 3.00 346.46 3274.11
   09:34:55.487.15-Aug-2021 3421.80 1685.83 54.96 3.00 346.66 3274.11
   09:34:55.687.15-Aug-2021 3421.80 1684.20 54.95 3.00 346.86 3274.11
   09:34:55.887.15-Aug-2021 3421.80 1684.98 54.95 3.00 347.06 3274.11
   09:34:56.088.15-Aug-2021 3421.80 1684.98 54.95 3.00 347.26 3274.11
   09:34:56.288.15-Aug-2021 3421.80 1698.88 54.95 3.00 347.46 3274.11
   09:34:56.488.15-Aug-2021 3421.80 1699.94 54.95 3.00 347.66 3274.11
   09:34:56.688.15-Aug-2021 3421.80 1695.71 54.95 3.00 347.86 3274.11
   09:34:56.888.15-Aug-2021 3421.80 1691.36 54.95 3.00 348.06 3274.11
   09:34:57.088.15-Aug-2021 3421.80 1691.36 54.95 3.00 348.26 3274.11
   09:34:57.288.15-Aug-2021 3421.80 1700.51 54.95 3.00 348.46 3274.11
   09:34:57.488.15-Aug-2021 3421.80 1736.18 54.94 3.00 348.66 3274.11
   09:34:57.688.15-Aug-2021 3421.80 1821.60 54.94 3.00 348.86 3274.11
   09:34:57.888.15-Aug-2021 3421.80 1899.52 54.94 3.00 349.06 3274.11
   09:34:58.088.15-Aug-2021 3421.80 1899.52 54.94 3.00 349.26 3274.11
   09:34:58.288.15-Aug-2021 3421.80 2039.84 54.94 3.00 349.46 3274.11
   09:34:58.488.15-Aug-2021 3421.80 2104.19 54.94 3.00 349.66 3274.11
   09:34:58.688.15-Aug-2021 3421.80 2165.68 54.94 3.00 349.86 3274.11
   09:34:58.888.15-Aug-2021 3421.80 2224.58 54.94 3.00 350.06 3274.11
   09:34:59.088.15-Aug-2021 3421.80 2224.58 54.94 3.00 350.26 3274.11
   09:34:59.288.15-Aug-2021 3421.80 2336.02 54.94 3.00 350.46 3274.11
   09:34:59.488.15-Aug-2021 3421.80 2388.96 54.94 3.00 350.66 3274.11
   09:34:59.688.15-Aug-2021 3421.80 2439.36 54.94 3.00 350.86 3274.11
   09:34:59.888.15-Aug-2021 3421.80 2488.81 54.94 3.00 351.06 3274.11
   09:35:00.088.15-Aug-2021 3421.80 2488.81 54.94 3.00 351.26 3274.11
   09:35:00.288.15-Aug-2021 3421.80 2584.57 54.94 3.00 351.46 3274.11
   09:35:00.488.15-Aug-2021 3421.80 2630.16 54.94 3.00 351.66 3274.11
   09:35:00.688.15-Aug-2021 3421.80 2674.53 54.94 3.00 351.86 3274.11
   09:35:00.888.15-Aug-2021 3421.80 2717.82 54.94 3.00 352.06 3274.11
   09:35:01.088.15-Aug-2021 3421.80 2717.82 54.94 3.00 352.26 3274.11
   09:35:01.288.15-Aug-2021 3421.80 2801.36 54.94 3.00 352.46 3274.11
   09:35:01.488.15-Aug-2021 3421.80 2841.26 54.94 3.00 352.66 3274.11
   09:35:01.688.15-Aug-2021 3421.80 2880.06 54.94 3.00 352.86 3274.11
   09:35:01.888.15-Aug-2021 3421.80 2918.71 54.94 3.00 353.06 3274.11
   09:35:02.089.15-Aug-2021 3421.80 2918.71 54.94 3.00 353.26 3274.11
   09:35:02.289.15-Aug-2021 3421.80 2956.24 54.94 3.00 353.46 3274.11
   09:35:02.489.15-Aug-2021 3421.80 3028.81 54.94 3.00 353.66 3274.11
   09:35:02.689.15-Aug-2021 3421.80 3063.66 54.94 3.00 353.86 3274.11
   09:35:02.889.15-Aug-2021 3421.80 3098.25 54.94 3.00 354.06 3274.11
   09:35:03.089.15-Aug-2021 3421.80 3098.25 54.94 3.00 354.26 3274.11
   09:35:03.289.15-Aug-2021 3421.80 3164.67 54.94 3.00 354.46 3274.11
   09:35:03.489.15-Aug-2021 3421.80 3197.37 54.94 3.00 354.66 3274.11
   09:35:03.689.15-Aug-2021 3421.80 3228.18 54.95 3.00 354.86 3274.11
   09:35:03.889.15-Aug-2021 3421.80 3259.10 54.95 3.00 355.06 3274.11
   09:35:04.089.15-Aug-2021 3421.80 3259.10 54.95 3.00 355.26 3274.11
   09:35:04.289.15-Aug-2021 3421.80 3319.01 54.95 3.00 355.46 3274.11
   09:35:04.489.15-Aug-2021 3421.80 3348.35 54.95 3.00 355.66 3274.11
   09:35:04.689.15-Aug-2021 3421.80 3377.14 54.95 3.00 355.86 3274.11
   09:35:04.889.15-Aug-2021 3421.80 3404.19 54.95 3.00 356.06 3274.11
   09:35:05.089.15-Aug-2021 3421.80 3404.19 54.95 3.00 356.26 3274.11
   09:35:05.289.15-Aug-2021 3421.80 3458.33 54.95 3.00 356.46 3274.11
   09:35:05.489.15-Aug-2021 3421.80 3484.69 54.96 3.00 356.66 3274.11
   09:35:05.689.15-Aug-2021 3421.80 3510.43 54.96 3.00 356.86 3274.11
   09:35:05.889.15-Aug-2021 3421.80 3535.32 54.96 3.00 357.06 3274.11
   09:35:06.089.15-Aug-2021 3421.80 3535.32 54.96 3.00 357.26 3274.11
   09:35:06.289.15-Aug-2021 3421.80 3560.31 54.96 3.00 357.46 3274.11
   09:35:06.489.15-Aug-2021 3421.80 3608.33 54.96 3.00 357.66 3274.11
   09:35:06.689.15-Aug-2021 3421.80 3631.46 54.96 3.00 357.86 3274.11
   09:35:06.889.15-Aug-2021 3421.80 3654.83 54.96 3.00 358.06 3274.11
   09:35:07.089.15-Aug-2021 3421.80 3654.83 54.96 3.00 358.26 3274.11
   09:35:07.289.15-Aug-2021 3421.80 3699.70 54.96 3.00 358.46 3274.11
   09:35:07.489.15-Aug-2021 3421.80 3721.67 54.97 3.00 358.66 3274.11
   09:35:07.689.15-Aug-2021 3421.80 3743.30 54.97 3.00 358.86 3274.11
   09:35:07.889.15-Aug-2021 3421.80 3763.52 54.97 3.00 359.06 3274.11
   09:35:08.089.15-Aug-2021 3421.80 3763.52 54.97 3.00 359.26 3274.11
   09:35:08.290.15-Aug-2021 3421.80 3804.36 54.97 3.00 359.46 3274.11
   09:35:08.490.15-Aug-2021 3421.80 3824.39 54.97 3.00 359.66 3274.11
   09:35:08.690.15-Aug-2021 3421.80 3844.07 54.97 3.00 359.86 3274.11
   09:35:08.890.15-Aug-2021 3421.80 3863.52 54.97 3.00 360.06 3274.11
   09:35:09.090.15-Aug-2021 3421.80 3863.52 54.97 3.00 360.26 3274.11
   09:35:09.290.15-Aug-2021 3421.80 3900.84 54.97 3.00 360.46 3274.11
   09:35:09.490.15-Aug-2021 3421.80 3919.44 54.98 3.00 360.66 3274.11
   09:35:09.690.15-Aug-2021 3421.80 3936.11 54.98 3.00 360.86 3274.11
   09:35:09.890.15-Aug-2021 3421.80 3953.66 54.98 3.00 361.06 3274.11
   09:35:10.090.15-Aug-2021 3421.80 3953.66 54.98 3.00 361.26 3274.11
   09:35:10.290.15-Aug-2021 3421.80 3971.20 54.98 3.00 361.46 3274.11
   09:35:10.490.15-Aug-2021 3421.80 4004.91 54.98 3.00 361.66 3274.11
   09:35:10.690.15-Aug-2021 3421.80 4021.99 54.98 3.00 361.86 3274.11
   09:35:10.890.15-Aug-2021 3421.80 4037.00 54.98 3.00 362.06 3274.11
   09:35:11.090.15-Aug-2021 3421.80 4037.00 54.98 3.00 362.26 3274.11
   09:35:11.290.15-Aug-2021 3421.80 4068.77 54.98 3.00 362.46 3274.11
   09:35:11.490.15-Aug-2021 3421.80 4084.14 54.99 3.00 362.66 3274.11
   09:35:11.690.15-Aug-2021 3421.80 4099.22 54.99 3.00 362.86 3274.11
   09:35:11.890.15-Aug-2021 3421.80 4114.16 54.99 3.00 363.06 3274.11
   09:35:12.090.15-Aug-2021 3421.80 4114.16 54.99 3.00 363.26 3274.11
   09:35:12.290.15-Aug-2021 3421.80 4142.95 54.99 3.00 363.46 3274.11
   09:35:12.490.15-Aug-2021 3421.80 4156.89 54.99 3.00 363.66 3274.11
   09:35:12.690.15-Aug-2021 3421.80 4170.93 54.99 3.00 363.86 3274.11
   09:35:12.890.15-Aug-2021 3421.80 4184.40 54.99 3.00 364.06 3274.11
   09:35:13.090.15-Aug-2021 3421.80 4184.40 54.99 3.00 364.26 3274.11
   09:35:13.290.15-Aug-2021 3421.80 4211.32 54.99 3.00 364.46 3274.11
   09:35:13.490.15-Aug-2021 3421.80 4224.43 54.99 3.00 364.66 3274.11
   09:35:13.690.15-Aug-2021 3421.80 4237.12 54.99 3.00 364.86 3274.11
   09:35:13.890.15-Aug-2021 3421.80 4249.48 54.99 3.00 365.06 3274.11
   09:35:14.090.15-Aug-2021 3421.80 4249.48 54.99 3.00 365.26 3274.11
   09:35:14.291.15-Aug-2021 3421.80 4274.63 55.00 3.00 365.46 3274.11
   09:35:14.491.15-Aug-2021 3421.80 4286.28 55.00 3.00 365.66 3274.11
   09:35:14.691.15-Aug-2021 3421.80 4297.78 55.00 3.00 365.86 3274.11
   09:35:14.891.15-Aug-2021 3421.80 4309.92 55.00 3.00 366.06 3274.11
   09:35:15.091.15-Aug-2021 3421.80 4309.92 55.00 3.00 366.26 3274.11
   09:35:15.291.15-Aug-2021 3421.80 4332.93 55.00 3.00 366.46 3274.11
   09:35:15.491.15-Aug-2021 3421.80 4344.20 55.00 3.00 366.66 3274.11
   09:35:15.691.15-Aug-2021 3421.80 4355.31 55.00 3.00 366.86 3274.11
   09:35:15.891.15-Aug-2021 3421.80 4366.58 55.00 3.00 367.06 3274.11
   09:35:16.091.15-Aug-2021 3421.80 4366.58 55.00 3.00 367.26 3274.11
   09:35:16.291.15-Aug-2021 3421.80 4386.72 55.00 3.00 367.46 3274.11
   09:35:16.491.15-Aug-2021 3421.80 4397.23 55.00 3.00 367.66 3274.11
   09:35:16.691.15-Aug-2021 3421.80 4407.56 55.00 3.00 367.86 3274.11
