~Version Information
 VERS.                  2.0:   CWLS log ASCII Standard -VERSION 2.0
 WRAP.                   NO:   One line per depth step
~Well Information Block
#MNEM.UNIT     VALUE/NAME     DESCRIPTION
#---------     -----------    ---------------------------
 STRT.S             11:47:36 15-Aug-21: START TIME 11:47:36 15-Aug-21
 STOP.S             11:55:59 15-Aug-21: STOP TIME  11:55:59 15-Aug-21
 STEP.S                   0.00: STEP TIME
 NULL.                 -999.25: NULL VALUE
 DFWT.                        :  DIST FWL TEXT
 DFST.                        :  DIST FSL TEXT
 DMF .             Drill Floor:  DRILL MEAS FROM
 STIM.      17.18.56 20-Jun-21:  START TIME
 DATE.      17.18.56 20-Aug-21:  END TIME
 SPUD.               20-Jun-21:  SPUD DATE
 NREF.                    Grid:  NORTH REFERENCE
 HPTY.       Minimum Curvature:  HOLE POS TYPE
 DMOD.             Drill Model:  DRILL MOD DESC
 SVYD.                  Survey:  SURVEY DESC
 ILTD.               Lithology:  INTERP LTH DESC
 FTOP.          Formation Tops:  FORM TOPS DESC
 SON .        AZ-XX-0907056190:  JOB NUMBER
 PDAT.       Caspian Sea Level:  PERMANENT DATUM
 WTYP.                Deviated:  WELL TYPE
 MDS .        Operator Entered:  MAG DATA SOURCE
 COMP.     BP Exploration (Caspian Sea) Ltd.:  COMPANY
 UWI .            /AZE20000092:  UNIQUE WELL IDENTIFIER
 API .            /AZE20000092:  API NUMBER
 BASE.              Azerbaijan:  LOGGING EQUIPMENT BASE LOCATION
 REGN.                   EESSA:  REGION
 PROV.                    baku:  PROVINCE
 STAT.                    baku:  STATE NAME
 CTRY.              Azerbaijan:  COUNTRY NAME
 FLD .                     ACG:  FIELD NAME
 SRVC.          Turan Drilling:  CONTRACTOR
 MWDS.                    Baku:  MWD SHOP
 WELL.                     J26:  WELL NAME
 JOBN.        AZ-XX-0907056190:  JOB TICKET NUMB
 RIG .             West Chirag:  RIG NAME
 DOE .                     N/A:  DOE NUMBER
 DCON.         Sperry Drilling:  DIRECTNL CONTR
 UNIT.                     N/A:  LOGGING EQUIPMENT ID
 CNTY.                        :  COUNTY
 LOC .                        :  LOCATION
 LMF .             Drill Floor:  LOG MEASURED FROM
 TVDS.m                  43.00:  TVDSS CORRECTN
 LATI.deg                40.13:  LATITUDE
 LONG.deg                51.22:  LONGITUDE
 WHNS.m                  -7.12:  WELL HEAD N/S
 WHEW.m                  -9.46:  WELL HEAD E/W
 UTMX.m              519004.02:  UTM X
 UTMY.m             4443784.96:  UTM Y
 DFWL.m                   0.00:  DISTANCE FWL
 DFSL.m                   0.00:  DISTANCE FSL
 SDEP.m                 464.00:  START DEPTH
 TDD .m                3500.00:  TOTAL DEPTH (DRILLER)
 VSDR.deg               114.35:  VERT SEC DIRECT
 GVFD.g                   1.00:  GRAVITY FIELD
 MFLD.nT              50386.00:  MAGNETIC FIELD
 MDIP.deg                59.63:  MAGNETIC DIP
 MDEC.deg                 6.43:  MAGNETIC DECL
 GRDC.deg                 0.15:  GRID CORRECTION
 AZTC.deg                 6.29:  AZM TOTAL CORR
 EPD .m                   0.00:  ELEVATION
 EGL .m                   0.00:  GROUND ELEVATION
 WDMS.m                 169.80:  WD ELEV
 APD .m                  43.00:  DEPTH ABOVE PD
 VSEW.m                  -9.46:  VERT SEC E/W
 VSNS.m                  -7.12:  VERT SEC N/S
 AGAP.m                  43.00:  AIR GAP
 DEP .m                 356.16:  DEPTH
 EKB .m                  43.00:  KB ELEVATION
 EDF .m                  43.00:  DF ELEVATION
 TDL .m                 699.00:  TOTAL DEPTH (LOGGER)
 VSC .                       0:  VS TO CLOSURE
 MAGU.                 1853727:  MAGUTM CHECKSUM
~Parameter Information Block
#MNEM.UNIT       Value        Description
#---------     -----------    ---------------------------
 AV  .mps                 1.30:  Ann Velocity 
 AVMX.mps                 1.67:  Max Ann Veloc 
 AZIF.deg               280.40:  Azm, Final 
 BHAT.        Rotary Steerable:  BHA Type 
 BREV.rev            528970.00:  Rev Bit Total 
 BROT.°/30m               1.00:  Build Rotating 
 BS  .in                 12.25:  Bit Size 
 BSZ .in                 12.25:  Bit Size 
 BTPL.psig              738.00:  Bit Press Loss 
 CABU.                     Yes:  Customer Abuse 
 CGEO.        Elvin Suleymanov:  Customer Geo 
 COMM.                     lþe:  Run Comments 1 
 TCS .hr                 66.05:  Time Ciculation Ended 
 CV  .mps                 2.20:  Crit Velocity 
 CVMX.mps                 2.56:  Max Crit Veloc 
 DD1 .          Rashad Habibov:  Direct Drillr 1 
 DD2 .            Azer ravanov:  Direct Drillr 2 
 DD3 .           Teymur Agayev:  Direct Drillr 3 
 DDSV.               Geo-Pilot:  DD Service 
 DEFF.%                  90.00:  % Det Eff 
 DLRX.°/30m               2.95:  Dogleg Rot Max 
 DLSO.°/30m               1.00:  Dogleg Oriented 
 DLSX.°/30m               2.95:  Dogleg Str Max 
 DRET.      11.42.20 11-Aug-21:  Drill End Time 
 DRST.      23.03.20 08-Aug-21:  Drill Start Tim 
 DTIM.hr                 45.50:  Time Drilling 
 EDEP.m                3488.00:  End Depth 
 ENG1.         Marcelo Marcari:  Engineer 1 
 ENG2.         Dair Mahammadov:  Engineer 2 
 ENG3.       Davud Huseyn-zada:  Engineer 3 
 ENG4.         Yevgeniy Ulikov:  Engineer 4 
 ETIM.      17.45.20 17-Aug-21:  End Time 
 FLOI.gpm              1197.70:  Flow In 
 FLON.gpm              1100.00:  Flow In Min 
 FLOS.cptm                0.00:  Fluid Loss 
 FLOX.gpm              1200.00:  Flow In Max 
 DFT .        Mineral Oil Base:  Mud Type 
 FTRO.       Formation Presure:  FTWD Run Obj 
 HFLO.                      No:  High Flow 
 HPRE.                      No:  High Pressure 
 HTEM.                      No:  High Temp 
 HYDO.m                   1.80:  Hydro Offset 
 IFIN.deg                 9.87:  Inc, Final 
 IMAX.deg                19.96:  Inc Max 
 IMIN.deg                 3.82:  Inc Min 
 IMND.m                3257.42:  Inc Min Depth 
 IMXD.m                2945.53:  Inc Max Depth 
 JARR.                      No:  Jarring 
 LETM.      11.42.20 11-Aug-21:  Log End Time 
 LOST.hr                     0:  Lost Rig Time 
 LSTM.      23.03.20 08-Aug-21:  Log Start Time 
 MDCL.ppm             42500.00:  Mud Chlorides 
 MDES.     Inversion Oil/Synthetic:  Mud Desc 
 DFD .sg                  1.45:  Mud Density 
 MDMN.sg                  1.39:  Dens Mud Min 
 MDMX.sg                  1.57:  Dens Mud Max 
 MOIL.                   53.20:  Run Mud Oil % 
 MOWR.                   70:30:  Run Mud OWR 
 MSND.                       0:  Run Mud Sand % 
 MSOL.                   24.30:  Run Mud Solids% 
 DFV .spqt               79.00:  Mud Viscosity 
 MWOD.in                  8.00:  MWD Tool OD 
 MWSI.                      No:  Serv Intrp, MWD 
 OTIM.hr                253.06:  Time Operating 
 PCON.           Look Like New:  Pad Condition 
 PMAX.psia            11068.93:  Press Op, Max 
 PV  .cP                 36.00:  Mud PV 
 RUN .                    1000:  Run Number 
 ROPA.m/hr               15.34:  ROP Avg 
 ROPN.m/hr                4.00:  ROP Min 
 ROPX.m/hr               31.00:  ROP Max 
 RPMA.rpm               151.40:  RPM Surface Avg 
 RPMN.rpm               120.00:  RPM Surface Min 
 RPMX.rpm               160.00:  RPM Surface Max 
 RRUN.                    L505:  Rig Run Number 
 RTIM.hr                 10.00:  Time Reaming 
 SAZI.deg                88.92:  Azm, Start 
 SDEP.m                2789.00:  Start Depth 
 SIDD.                      No:  Serv Intrp, DD 
 SINC.deg                19.84:  Inc, Start 
 SPPA.psig             4421.39:  SPP Avg 
 SPPN.psig             4130.00:  SPP Min 
 SPPX.psig             4800.00:  SPP Max 
 STIM.      01.25.20 07-Aug-21:  Start Time 
 SVCS.                 DD, MWD:  Services 
 SVER.                    9.20:  Sperry Version 
 TDAT.m                 699.00:  Tot Depth Attmp 
 TDDF.                      No:  Trip for DD 
 TDLG.m                 699.00:  Tot Depth Loggd 
 TFF .                      No:  Trip for Fail 
 TQAA.f-kp               20.55:  Torque Abs Avg 
 TQAN.f-kp               15.00:  Torque Abs Min 
 TQAX.f-kp               24.00:  Torque Abs Max 
 TRRT.°/30m               0.50:  Turn Rotating 
 MRT .                    HCIM:  Maximum Recorded Temperature 
 TTMX.degC               82.35:  Max Tool Temp 
 VS01.                90654677:  Virtual Str1 SN 
 VS02.                90636294:  Virtual Str2 SN 
 VS03.                90653866:  Virtual Str3 SN 
 VS04.                90654674:  Virtual Str4 SN 
 WBMN.klb                10.00:  WOB Min 
 WITN.         Haytham Mostafa:  Customer Rep 
 WITN.           Rufat Babayev:  Customer Rep 2 
 WOBA.klb                22.43:  WOB Avg 
 WOBX.klb                35.00:  WOB Max 
 YP  .lhf2               32.00:  Yield Point 
~Curve Information Block
#MNEM.UNIT                 API CODE     Curve Description
#---------               -----------    ---------------------------
 TIME.HHMMSS            00 000 000 000:  GT Time & Date
 GTDEPTH.m              00 000 000 000:  GT Depth
 GTPQH.psia             00 000 000 000:  GT HR Quartz Pressure
 GTTQ.degC              00 000 000 000:  GT Quartz Temperature
 GTTN.NONE              00 000 000 000:  GT Test Number
 GTET.sec               00 000 000 000:  GT Elapsed Test Time
 GTTVD.m                00 000 000 000:  GT True Vertical Depth
#Other Information
#
#WARRANTY: Halliburton will use its best efforts to furnish customers with 
#accurate information and interpretations that are part of, and incident to, the services 
#provided.  However, Halliburton cannot and does not warrant the accuracy 
#or correctness of such information and interpretations.  Under no circumstances should any 
#such information or interpretation be relied upon as the sole basis for any drilling, 
#completion, production, or financial decision or any procedure involving any risk to the 
#safety of any drilling venture, drilling rig or its crew or any other third party.  The 
#Customer has full responsibility for all drilling, completion and production operation.  
#Halliburton makes no representations or warranties, either expressed or 
#implied, including, but not limited to, the implied warranties of merchantability or fitness 
#for a particular purpose, with respect to the services rendered.  In no event will 
#Halliburton be liable for failure to obtain any particular results or for 
#any damages, including, but not limited to, indirect, special or consequential damages, 
#resulting from the use of any information or interpretation provided by Halliburton.
#
~A           TIME           GTDEPTH  GTPQH  GTTQ  GTTN  GTET   GTTVD  
# ...
   11:48:45.255.15-Aug-2021 3405.50 3501.28 54.10 5.00  68.96 3258.07
   11:48:45.455.15-Aug-2021 3405.50 3501.28 54.10 5.00  69.16 3258.07
   11:48:45.655.15-Aug-2021 3405.50 3398.80 54.09 5.00  69.36 3258.07
   11:48:45.855.15-Aug-2021 3405.50 3306.84 54.09 5.00  69.56 3258.07
   11:48:46.055.15-Aug-2021 3405.50 3231.87 54.08 5.00  69.76 3258.07
   11:48:46.255.15-Aug-2021 3405.50 3164.29 54.08 5.00  69.96 3258.07
   11:48:46.454.15-Aug-2021 3405.50 3164.29 54.08 5.00  70.16 3258.07
   11:48:46.654.15-Aug-2021 3405.50 3239.14 54.07 5.00  70.36 3258.07
   11:48:46.854.15-Aug-2021 3405.50 3330.67 54.07 5.00  70.56 3258.07
   11:48:47.054.15-Aug-2021 3405.50 3409.05 54.07 5.00  70.76 3258.07
   11:48:47.254.15-Aug-2021 3405.50 3472.72 54.06 5.00  70.96 3258.07
   11:48:47.454.15-Aug-2021 3405.50 3472.72 54.06 5.00  71.16 3258.07
   11:48:47.654.15-Aug-2021 3405.50 3577.83 54.06 5.00  71.36 3258.07
   11:48:47.854.15-Aug-2021 3405.50 3621.58 54.05 5.00  71.56 3258.07
   11:48:48.053.15-Aug-2021 3405.50 3659.45 54.05 5.00  71.76 3258.07
   11:48:48.253.15-Aug-2021 3405.50 3693.28 54.05 5.00  71.96 3258.07
   11:48:48.453.15-Aug-2021 3405.50 3693.28 54.05 5.00  72.16 3258.07
   11:48:48.653.15-Aug-2021 3405.50 3750.47 54.04 5.00  72.36 3258.07
   11:48:48.853.15-Aug-2021 3405.50 3776.57 54.04 5.00  72.56 3258.07
   11:48:49.053.15-Aug-2021 3405.50 3799.05 54.04 5.00  72.76 3258.07
   11:48:49.253.15-Aug-2021 3405.50 3819.59 54.03 5.00  72.96 3258.07
   11:48:49.453.15-Aug-2021 3405.50 3819.59 54.03 5.00  73.16 3258.07
   11:48:49.652.15-Aug-2021 3405.50 3857.35 54.03 5.00  73.36 3258.07
   11:48:49.852.15-Aug-2021 3405.50 3875.54 54.03 5.00  73.56 3258.07
   11:48:50.052.15-Aug-2021 3405.50 3893.36 54.02 5.00  73.76 3258.07
   11:48:50.252.15-Aug-2021 3405.50 3910.25 54.02 5.00  73.96 3258.07
   11:48:50.452.15-Aug-2021 3405.50 3910.25 54.02 5.00  74.16 3258.07
   11:48:50.652.15-Aug-2021 3405.50 3939.55 54.02 5.00  74.36 3258.07
   11:48:50.852.15-Aug-2021 3405.50 3954.81 54.02 5.00  74.56 3258.07
   11:48:51.052.15-Aug-2021 3405.50 3969.05 54.02 5.00  74.76 3258.07
   11:48:51.251.15-Aug-2021 3405.50 3982.17 54.02 5.00  74.95 3258.07
   11:48:51.451.15-Aug-2021 3405.50 3982.17 54.02 5.00  75.15 3258.07
   11:48:51.651.15-Aug-2021 3405.50 4005.40 54.01 5.00  75.35 3258.07
   11:48:51.851.15-Aug-2021 3405.50 4016.50 54.01 5.00  75.55 3258.07
   11:48:52.051.15-Aug-2021 3405.50 4029.01 54.01 5.00  75.75 3258.07
   11:48:52.251.15-Aug-2021 3405.50 4042.34 54.01 5.00  75.95 3258.07
   11:48:52.451.15-Aug-2021 3405.50 4042.34 54.01 5.00  76.15 3258.07
   11:48:52.651.15-Aug-2021 3405.50 4063.43 54.01 5.00  76.35 3258.07
   11:48:52.851.15-Aug-2021 3405.50 4073.26 54.01 5.00  76.55 3258.07
   11:48:53.050.15-Aug-2021 3405.50 4082.75 54.01 5.00  76.75 3258.07
   11:48:53.250.15-Aug-2021 3405.50 4092.21 54.01 5.00  76.95 3258.07
   11:48:53.450.15-Aug-2021 3405.50 4092.21 54.01 5.00  77.15 3258.07
   11:48:53.650.15-Aug-2021 3405.50 4112.07 54.01 5.00  77.35 3258.07
   11:48:53.850.15-Aug-2021 3405.50 4123.90 54.01 5.00  77.55 3258.07
   11:48:54.050.15-Aug-2021 3405.50 4134.24 54.00 5.00  77.75 3258.07
   11:48:54.250.15-Aug-2021 3405.50 4144.23 54.00 5.00  77.95 3258.07
   11:48:54.450.15-Aug-2021 3405.50 4144.23 54.00 5.00  78.15 3258.07
   11:48:54.649.15-Aug-2021 3405.50 4163.36 54.00 5.00  78.35 3258.07
   11:48:54.849.15-Aug-2021 3405.50 4172.64 54.00 5.00  78.55 3258.07
   11:48:55.049.15-Aug-2021 3405.50 4182.44 54.00 5.00  78.75 3258.07
   11:48:55.249.15-Aug-2021 3405.50 4191.57 54.00 5.00  78.95 3258.07
   11:48:55.449.15-Aug-2021 3405.50 4191.57 54.00 5.00  79.15 3258.07
   11:48:55.649.15-Aug-2021 3405.50 4209.04 54.00 5.00  79.35 3258.07
   11:48:55.849.15-Aug-2021 3405.50 4218.09 54.00 5.00  79.55 3258.07
   11:48:56.049.15-Aug-2021 3405.50 4226.35 54.00 5.00  79.75 3258.07
   11:48:56.248.15-Aug-2021 3405.50 4235.19 54.00 5.00  79.95 3258.07
   11:48:56.448.15-Aug-2021 3405.50 4235.19 54.00 5.00  80.15 3258.07
   11:48:56.648.15-Aug-2021 3405.50 4251.10 54.00 5.00  80.35 3258.07
   11:48:56.848.15-Aug-2021 3405.50 4259.34 54.00 5.00  80.55 3258.07
   11:48:57.048.15-Aug-2021 3405.50 4267.71 54.00 5.00  80.75 3258.07
   11:48:57.248.15-Aug-2021 3405.50 4276.47 54.00 5.00  80.95 3258.07
   11:48:57.448.15-Aug-2021 3405.50 4276.47 54.00 5.00  81.15 3258.07
   11:48:57.648.15-Aug-2021 3405.50 4290.91 54.00 5.00  81.35 3258.07
   11:48:57.848.15-Aug-2021 3405.50 4298.73 54.00 5.00  81.55 3258.07
   11:48:58.047.15-Aug-2021 3405.50 4305.56 54.00 5.00  81.75 3258.07
   11:48:58.247.15-Aug-2021 3405.50 4313.34 54.00 5.00  81.95 3258.07
   11:48:58.447.15-Aug-2021 3405.50 4313.34 54.00 5.00  82.15 3258.07
   11:48:58.647.15-Aug-2021 3405.50 4327.19 54.00 5.00  82.35 3258.07
   11:48:58.847.15-Aug-2021 3405.50 4334.53 54.00 5.00  82.55 3258.07
   11:48:59.047.15-Aug-2021 3405.50 4342.34 54.00 5.00  82.75 3258.07
   11:48:59.247.15-Aug-2021 3405.50 4349.28 54.00 5.00  82.95 3258.07
   11:48:59.447.15-Aug-2021 3405.50 4349.28 54.00 5.00  83.15 3258.07
   11:48:59.646.15-Aug-2021 3405.50 4362.72 54.00 5.00  83.35 3258.07
   11:48:59.846.15-Aug-2021 3405.50 4369.13 54.01 5.00  83.55 3258.07
   11:49:00.046.15-Aug-2021 3405.50 4375.77 54.01 5.00  83.75 3258.07
   11:49:00.246.15-Aug-2021 3405.50 4381.82 54.01 5.00  83.95 3258.07
   11:49:00.446.15-Aug-2021 3405.50 4381.82 54.01 5.00  84.15 3258.07
   11:49:00.646.15-Aug-2021 3405.50 4392.96 54.01 5.00  84.35 3258.07
   11:49:00.846.15-Aug-2021 3405.50 4398.54 54.01 5.00  84.55 3258.07
   11:49:01.046.15-Aug-2021 3405.50 4404.36 54.01 5.00  84.75 3258.07
   11:49:01.245.15-Aug-2021 3405.50 4410.11 54.01 5.00  84.95 3258.07
   11:49:01.445.15-Aug-2021 3405.50 4410.11 54.01 5.00  85.15 3258.07
   11:49:01.645.15-Aug-2021 3405.50 4422.00 54.01 5.00  85.35 3258.07
   11:49:01.845.15-Aug-2021 3405.50 4428.32 54.01 5.00  85.55 3258.07
   11:49:02.045.15-Aug-2021 3405.50 4433.88 54.01 5.00  85.75 3258.07
   11:49:02.245.15-Aug-2021 3405.50 4440.51 54.01 5.00  85.95 3258.07
   11:49:02.445.15-Aug-2021 3405.50 4440.51 54.01 5.00  86.15 3258.07
   11:49:02.645.15-Aug-2021 3405.50 4452.23 54.01 5.00  86.35 3258.07
   11:49:02.845.15-Aug-2021 3405.50 4457.74 54.01 5.00  86.55 3258.07
   11:49:03.044.15-Aug-2021 3405.50 4462.92 54.01 5.00  86.75 3258.07
   11:49:03.244.15-Aug-2021 3405.50 4468.84 54.01 5.00  86.95 3258.07
   11:49:03.444.15-Aug-2021 3405.50 4468.84 54.01 5.00  87.15 3258.07
   11:49:03.644.15-Aug-2021 3405.50 4480.28 54.01 5.00  87.35 3258.07
   11:49:03.844.15-Aug-2021 3405.50 4485.70 54.01 5.00  87.55 3258.07
   11:49:04.044.15-Aug-2021 3405.50 4491.71 54.01 5.00  87.75 3258.07
   11:49:04.244.15-Aug-2021 3405.50 4497.15 54.01 5.00  87.95 3258.07
   11:49:04.444.15-Aug-2021 3405.50 4497.15 54.01 5.00  88.15 3258.07
   11:49:04.643.15-Aug-2021 3405.50 4508.10 54.01 5.00  88.35 3258.07
   11:49:04.843.15-Aug-2021 3405.50 4512.94 54.01 5.00  88.55 3258.07
   11:49:05.043.15-Aug-2021 3405.50 4518.86 54.01 5.00  88.75 3258.07
   11:49:05.243.15-Aug-2021 3405.50 4524.22 54.01 5.00  88.95 3258.07
   11:49:05.443.15-Aug-2021 3405.50 4524.22 54.01 5.00  89.15 3258.07
   11:49:05.643.15-Aug-2021 3405.50 4534.72 54.01 5.00  89.35 3258.07
   11:49:05.843.15-Aug-2021 3405.50 4539.81 54.01 5.00  89.55 3258.07
   11:49:06.043.15-Aug-2021 3405.50 4544.93 54.01 5.00  89.75 3258.07
   11:49:06.242.15-Aug-2021 3405.50 4550.59 54.01 5.00  89.95 3258.07
   11:49:06.442.15-Aug-2021 3405.50 4550.59 54.01 5.00  90.15 3258.07
   11:49:06.642.15-Aug-2021 3405.50 4560.92 54.01 5.00  90.35 3258.07
   11:49:06.842.15-Aug-2021 3405.50 4566.29 54.01 5.00  90.55 3258.07
   11:49:07.042.15-Aug-2021 3405.50 4572.05 54.01 5.00  90.75 3258.07
   11:49:07.242.15-Aug-2021 3405.50 4576.75 54.01 5.00  90.95 3258.07
   11:49:07.442.15-Aug-2021 3405.50 4576.75 54.01 5.00  91.15 3258.07
   11:49:07.642.15-Aug-2021 3405.50 4585.36 54.02 5.00  91.35 3258.07
   11:49:07.842.15-Aug-2021 3405.50 4589.70 54.02 5.00  91.54 3258.07
   11:49:08.041.15-Aug-2021 3405.50 4593.96 54.02 5.00  91.74 3258.07
