~Version Information
 VERS.                  2.0:   CWLS log ASCII Standard -VERSION 2.0
 WRAP.                   NO:   One line per depth step
~Well Information Block
#MNEM.UNIT     VALUE/NAME     DESCRIPTION
#---------     -----------    ---------------------------
 STRT.S             09:29:08 15-Aug-21: START TIME 09:29:08 15-Aug-21
 STOP.S             09:37:37 15-Aug-21: STOP TIME  09:37:37 15-Aug-21
 STEP.S                   0.00: STEP TIME
 NULL.                 -999.25: NULL VALUE
 DFWT.                        :  DIST FWL TEXT
 DFST.                        :  DIST FSL TEXT
 DMF .             Drill Floor:  DRILL MEAS FROM
 STIM.      17.18.56 20-Jun-21:  START TIME
 DATE.      17.18.56 20-Aug-21:  END TIME
 SPUD.               20-Jun-21:  SPUD DATE
 NREF.                    Grid:  NORTH REFERENCE
 HPTY.       Minimum Curvature:  HOLE POS TYPE
 DMOD.             Drill Model:  DRILL MOD DESC
 SVYD.                  Survey:  SURVEY DESC
 ILTD.               Lithology:  INTERP LTH DESC
 FTOP.          Formation Tops:  FORM TOPS DESC
 SON .        AZ-XX-0907056190:  JOB NUMBER
 PDAT.       Caspian Sea Level:  PERMANENT DATUM
 WTYP.                Deviated:  WELL TYPE
 MDS .        Operator Entered:  MAG DATA SOURCE
 COMP.     BP Exploration (Caspian Sea) Ltd.:  COMPANY
 UWI .            /AZE20000092:  UNIQUE WELL IDENTIFIER
 API .            /AZE20000092:  API NUMBER
 BASE.              Azerbaijan:  LOGGING EQUIPMENT BASE LOCATION
 REGN.                   EESSA:  REGION
 PROV.                    baku:  PROVINCE
 STAT.                    baku:  STATE NAME
 CTRY.              Azerbaijan:  COUNTRY NAME
 FLD .                     ACG:  FIELD NAME
 SRVC.          Turan Drilling:  CONTRACTOR
 MWDS.                    Baku:  MWD SHOP
 WELL.                     J26:  WELL NAME
 JOBN.        AZ-XX-0907056190:  JOB TICKET NUMB
 RIG .             West Chirag:  RIG NAME
 DOE .                     N/A:  DOE NUMBER
 DCON.         Sperry Drilling:  DIRECTNL CONTR
 UNIT.                     N/A:  LOGGING EQUIPMENT ID
 CNTY.                        :  COUNTY
 LOC .                        :  LOCATION
 LMF .             Drill Floor:  LOG MEASURED FROM
 TVDS.m                  43.00:  TVDSS CORRECTN
 LATI.deg                40.13:  LATITUDE
 LONG.deg                51.22:  LONGITUDE
 WHNS.m                  -7.12:  WELL HEAD N/S
 WHEW.m                  -9.46:  WELL HEAD E/W
 UTMX.m              519004.02:  UTM X
 UTMY.m             4443784.96:  UTM Y
 DFWL.m                   0.00:  DISTANCE FWL
 DFSL.m                   0.00:  DISTANCE FSL
 SDEP.m                 464.00:  START DEPTH
 TDD .m                3500.00:  TOTAL DEPTH (DRILLER)
 VSDR.deg               114.35:  VERT SEC DIRECT
 GVFD.g                   1.00:  GRAVITY FIELD
 MFLD.nT              50386.00:  MAGNETIC FIELD
 MDIP.deg                59.63:  MAGNETIC DIP
 MDEC.deg                 6.43:  MAGNETIC DECL
 GRDC.deg                 0.15:  GRID CORRECTION
 AZTC.deg                 6.29:  AZM TOTAL CORR
 EPD .m                   0.00:  ELEVATION
 EGL .m                   0.00:  GROUND ELEVATION
 WDMS.m                 169.80:  WD ELEV
 APD .m                  43.00:  DEPTH ABOVE PD
 VSEW.m                  -9.46:  VERT SEC E/W
 VSNS.m                  -7.12:  VERT SEC N/S
 AGAP.m                  43.00:  AIR GAP
 DEP .m                 356.16:  DEPTH
 EKB .m                  43.00:  KB ELEVATION
 EDF .m                  43.00:  DF ELEVATION
 TDL .m                 699.00:  TOTAL DEPTH (LOGGER)
 VSC .                       0:  VS TO CLOSURE
 MAGU.                 1853727:  MAGUTM CHECKSUM
~Parameter Information Block
#MNEM.UNIT       Value        Description
#---------     -----------    ---------------------------
 AV  .mps                 1.30:  Ann Velocity 
 AVMX.mps                 1.67:  Max Ann Veloc 
 AZIF.deg               280.40:  Azm, Final 
 BHAT.        Rotary Steerable:  BHA Type 
 BREV.rev            528970.00:  Rev Bit Total 
 BROT.°/30m               1.00:  Build Rotating 
 BS  .in                 12.25:  Bit Size 
 BSZ .in                 12.25:  Bit Size 
 BTPL.psig              738.00:  Bit Press Loss 
 CABU.                     Yes:  Customer Abuse 
 CGEO.        Elvin Suleymanov:  Customer Geo 
 COMM.                     œR:  Run Comments 1 
 TCS .hr                 66.05:  Time Ciculation Ended 
 CV  .mps                 2.20:  Crit Velocity 
 CVMX.mps                 2.56:  Max Crit Veloc 
 DD1 .          Rashad Habibov:  Direct Drillr 1 
 DD2 .            Azer ravanov:  Direct Drillr 2 
 DD3 .           Teymur Agayev:  Direct Drillr 3 
 DDSV.               Geo-Pilot:  DD Service 
 DEFF.%                  90.00:  % Det Eff 
 DLRX.°/30m               2.95:  Dogleg Rot Max 
 DLSO.°/30m               1.00:  Dogleg Oriented 
 DLSX.°/30m               2.95:  Dogleg Str Max 
 DRET.      11.42.20 11-Aug-21:  Drill End Time 
 DRST.      23.03.20 08-Aug-21:  Drill Start Tim 
 DTIM.hr                 45.50:  Time Drilling 
 EDEP.m                3488.00:  End Depth 
 ENG1.         Marcelo Marcari:  Engineer 1 
 ENG2.         Dair Mahammadov:  Engineer 2 
 ENG3.       Davud Huseyn-zada:  Engineer 3 
 ENG4.         Yevgeniy Ulikov:  Engineer 4 
 ETIM.      17.45.20 17-Aug-21:  End Time 
 FLOI.gpm              1197.70:  Flow In 
 FLON.gpm              1100.00:  Flow In Min 
 FLOS.cptm                0.00:  Fluid Loss 
 FLOX.gpm              1200.00:  Flow In Max 
 DFT .        Mineral Oil Base:  Mud Type 
 FTRO.       Formation Presure:  FTWD Run Obj 
 HFLO.                      No:  High Flow 
 HPRE.                      No:  High Pressure 
 HTEM.                      No:  High Temp 
 HYDO.m                   1.80:  Hydro Offset 
 IFIN.deg                 9.87:  Inc, Final 
 IMAX.deg                19.96:  Inc Max 
 IMIN.deg                 3.82:  Inc Min 
 IMND.m                3257.42:  Inc Min Depth 
 IMXD.m                2945.53:  Inc Max Depth 
 JARR.                      No:  Jarring 
 LETM.      11.42.20 11-Aug-21:  Log End Time 
 LOST.hr                     0:  Lost Rig Time 
 LSTM.      23.03.20 08-Aug-21:  Log Start Time 
 MDCL.ppm             42500.00:  Mud Chlorides 
 MDES.     Inversion Oil/Synthetic:  Mud Desc 
 DFD .sg                  1.45:  Mud Density 
 MDMN.sg                  1.39:  Dens Mud Min 
 MDMX.sg                  1.57:  Dens Mud Max 
 MOIL.                   53.20:  Run Mud Oil % 
 MOWR.                   70:30:  Run Mud OWR 
 MSND.                       0:  Run Mud Sand % 
 MSOL.                   24.30:  Run Mud Solids% 
 DFV .spqt               79.00:  Mud Viscosity 
 MWOD.in                  8.00:  MWD Tool OD 
 MWSI.                      No:  Serv Intrp, MWD 
 OTIM.hr                253.06:  Time Operating 
 PCON.           Look Like New:  Pad Condition 
 PMAX.psia            11068.93:  Press Op, Max 
 PV  .cP                 36.00:  Mud PV 
 RUN .                    1000:  Run Number 
 ROPA.m/hr               15.34:  ROP Avg 
 ROPN.m/hr                4.00:  ROP Min 
 ROPX.m/hr               31.00:  ROP Max 
 RPMA.rpm               151.40:  RPM Surface Avg 
 RPMN.rpm               120.00:  RPM Surface Min 
 RPMX.rpm               160.00:  RPM Surface Max 
 RRUN.                    L505:  Rig Run Number 
 RTIM.hr                 10.00:  Time Reaming 
 SAZI.deg                88.92:  Azm, Start 
 SDEP.m                2789.00:  Start Depth 
 SIDD.                      No:  Serv Intrp, DD 
 SINC.deg                19.84:  Inc, Start 
 SPPA.psig             4421.39:  SPP Avg 
 SPPN.psig             4130.00:  SPP Min 
 SPPX.psig             4800.00:  SPP Max 
 STIM.      01.25.20 07-Aug-21:  Start Time 
 SVCS.                 DD, MWD:  Services 
 SVER.                    9.20:  Sperry Version 
 TDAT.m                 699.00:  Tot Depth Attmp 
 TDDF.                      No:  Trip for DD 
 TDLG.m                 699.00:  Tot Depth Loggd 
 TFF .                      No:  Trip for Fail 
 TQAA.f-kp               20.55:  Torque Abs Avg 
 TQAN.f-kp               15.00:  Torque Abs Min 
 TQAX.f-kp               24.00:  Torque Abs Max 
 TRRT.°/30m               0.50:  Turn Rotating 
 MRT .                    HCIM:  Maximum Recorded Temperature 
 TTMX.degC               82.35:  Max Tool Temp 
 VS01.                90654677:  Virtual Str1 SN 
 VS02.                90636294:  Virtual Str2 SN 
 VS03.                90653866:  Virtual Str3 SN 
 VS04.                90654674:  Virtual Str4 SN 
 WBMN.klb                10.00:  WOB Min 
 WITN.         Haytham Mostafa:  Customer Rep 
 WITN.           Rufat Babayev:  Customer Rep 2 
 WOBA.klb                22.43:  WOB Avg 
 WOBX.klb                35.00:  WOB Max 
 YP  .lhf2               32.00:  Yield Point 
~Curve Information Block
#MNEM.UNIT                 API CODE     Curve Description
#---------               -----------    ---------------------------
 TIME.HHMMSS            00 000 000 000:  GT Time & Date
 GTDEPTH.m              00 000 000 000:  GT Depth
 GTPQH.psia             00 000 000 000:  GT HR Quartz Pressure
 GTTQ.degC              00 000 000 000:  GT Quartz Temperature
 GTTN.NONE              00 000 000 000:  GT Test Number
 GTET.sec               00 000 000 000:  GT Elapsed Test Time
 GTTVD.m                00 000 000 000:  GT True Vertical Depth
#Other Information
#
#WARRANTY: Halliburton will use its best efforts to furnish customers with 
#accurate information and interpretations that are part of, and incident to, the services 
#provided.  However, Halliburton cannot and does not warrant the accuracy 
#or correctness of such information and interpretations.  Under no circumstances should any 
#such information or interpretation be relied upon as the sole basis for any drilling, 
#completion, production, or financial decision or any procedure involving any risk to the 
#safety of any drilling venture, drilling rig or its crew or any other third party.  The 
#Customer has full responsibility for all drilling, completion and production operation.  
#Halliburton makes no representations or warranties, either expressed or 
#implied, including, but not limited to, the implied warranties of merchantability or fitness 
#for a particular purpose, with respect to the services rendered.  In no event will 
#Halliburton be liable for failure to obtain any particular results or for 
#any damages, including, but not limited to, indirect, special or consequential damages, 
#resulting from the use of any information or interpretation provided by Halliburton.
#
~A           TIME           GTDEPTH  GTPQH  GTTQ  GTTN  GTET   GTTVD  
# ...
   09:32:58.868.15-Aug-2021 3421.80 3972.64 55.05 3.00 230.04 3274.11
   09:32:59.068.15-Aug-2021 3421.80 3972.64 55.05 3.00 230.24 3274.11
   09:32:59.268.15-Aug-2021 3421.80 3995.46 55.05 3.00 230.44 3274.11
   09:32:59.468.15-Aug-2021 3421.80 4007.64 55.05 3.00 230.64 3274.11
   09:32:59.668.15-Aug-2021 3421.80 4018.09 55.05 3.00 230.84 3274.11
   09:32:59.869.15-Aug-2021 3421.80 4029.03 55.05 3.00 231.04 3274.11
   09:33:00.069.15-Aug-2021 3421.80 4029.03 55.05 3.00 231.24 3274.11
   09:33:00.269.15-Aug-2021 3421.80 4051.11 55.05 3.00 231.44 3274.11
   09:33:00.469.15-Aug-2021 3421.80 4061.91 55.05 3.00 231.64 3274.11
   09:33:00.669.15-Aug-2021 3421.80 4072.68 55.05 3.00 231.84 3274.11
   09:33:00.869.15-Aug-2021 3421.80 4083.15 55.05 3.00 232.04 3274.11
   09:33:01.069.15-Aug-2021 3421.80 4083.15 55.05 3.00 232.24 3274.11
   09:33:01.269.15-Aug-2021 3421.80 4103.52 55.05 3.00 232.44 3274.11
   09:33:01.469.15-Aug-2021 3421.80 4113.90 55.05 3.00 232.64 3274.11
   09:33:01.669.15-Aug-2021 3421.80 4124.07 55.05 3.00 232.84 3274.11
   09:33:01.869.15-Aug-2021 3421.80 4134.20 55.05 3.00 233.04 3274.11
   09:33:02.069.15-Aug-2021 3421.80 4134.20 55.05 3.00 233.24 3274.11
   09:33:02.269.15-Aug-2021 3421.80 4143.24 55.05 3.00 233.44 3274.11
   09:33:02.469.15-Aug-2021 3421.80 4163.13 55.05 3.00 233.64 3274.11
   09:33:02.669.15-Aug-2021 3421.80 4173.22 55.06 3.00 233.84 3274.11
   09:33:02.869.15-Aug-2021 3421.80 4181.85 55.06 3.00 234.04 3274.11
   09:33:03.069.15-Aug-2021 3421.80 4181.85 55.06 3.00 234.24 3274.11
   09:33:03.269.15-Aug-2021 3421.80 4200.85 55.06 3.00 234.44 3274.11
   09:33:03.469.15-Aug-2021 3421.80 4210.02 55.06 3.00 234.64 3274.11
   09:33:03.669.15-Aug-2021 3421.80 4219.04 55.06 3.00 234.84 3274.11
   09:33:03.869.15-Aug-2021 3421.80 4227.90 55.06 3.00 235.04 3274.11
   09:33:04.069.15-Aug-2021 3421.80 4227.90 55.06 3.00 235.24 3274.11
   09:33:04.269.15-Aug-2021 3421.80 4245.72 55.06 3.00 235.44 3274.11
   09:33:04.469.15-Aug-2021 3421.80 4254.29 55.06 3.00 235.64 3274.11
   09:33:04.669.15-Aug-2021 3421.80 4263.05 55.06 3.00 235.84 3274.11
   09:33:04.869.15-Aug-2021 3421.80 4271.81 55.06 3.00 236.04 3274.11
   09:33:05.069.15-Aug-2021 3421.80 4271.81 55.06 3.00 236.24 3274.11
   09:33:05.269.15-Aug-2021 3421.80 4288.50 55.06 3.00 236.44 3274.11
   09:33:05.469.15-Aug-2021 3421.80 4296.54 55.06 3.00 236.64 3274.11
   09:33:05.669.15-Aug-2021 3421.80 4305.31 55.06 3.00 236.84 3274.11
   09:33:05.869.15-Aug-2021 3421.80 4313.11 55.06 3.00 237.04 3274.11
   09:33:06.070.15-Aug-2021 3421.80 4313.11 55.06 3.00 237.24 3274.11
   09:33:06.270.15-Aug-2021 3421.80 4321.15 55.06 3.00 237.44 3274.11
   09:33:06.470.15-Aug-2021 3421.80 4336.50 55.06 3.00 237.64 3274.11
   09:33:06.670.15-Aug-2021 3421.80 4344.61 55.06 3.00 237.84 3274.11
   09:33:06.870.15-Aug-2021 3421.80 4352.52 55.06 3.00 238.04 3274.11
   09:33:07.070.15-Aug-2021 3421.80 4352.52 55.06 3.00 238.24 3274.11
   09:33:07.270.15-Aug-2021 3421.80 4367.37 55.06 3.00 238.44 3274.11
   09:33:07.470.15-Aug-2021 3421.80 4374.86 55.06 3.00 238.64 3274.11
   09:33:07.670.15-Aug-2021 3421.80 4382.41 55.06 3.00 238.84 3274.11
   09:33:07.870.15-Aug-2021 3421.80 4389.57 55.06 3.00 239.04 3274.11
   09:33:08.070.15-Aug-2021 3421.80 4389.57 55.06 3.00 239.24 3274.11
   09:33:08.270.15-Aug-2021 3421.80 4403.91 55.06 3.00 239.44 3274.11
   09:33:08.470.15-Aug-2021 3421.80 4410.87 55.06 3.00 239.64 3274.11
   09:33:08.670.15-Aug-2021 3421.80 4418.25 55.06 3.00 239.84 3274.11
   09:33:08.870.15-Aug-2021 3421.80 4425.15 55.06 3.00 240.04 3274.11
   09:33:09.070.15-Aug-2021 3421.80 4425.15 55.06 3.00 240.24 3274.11
   09:33:09.270.15-Aug-2021 3421.80 4438.92 55.07 3.00 240.44 3274.11
   09:33:09.470.15-Aug-2021 3421.80 4445.64 55.07 3.00 240.64 3274.11
   09:33:09.670.15-Aug-2021 3421.80 4452.85 55.07 3.00 240.84 3274.11
   09:33:09.870.15-Aug-2021 3421.80 4458.99 55.07 3.00 241.04 3274.11
   09:33:10.070.15-Aug-2021 3421.80 4458.99 55.07 3.00 241.24 3274.11
   09:33:10.270.15-Aug-2021 3421.80 4472.08 55.07 3.00 241.44 3274.11
   09:33:10.470.15-Aug-2021 3421.80 4478.45 55.07 3.00 241.64 3274.11
   09:33:10.670.15-Aug-2021 3421.80 4484.98 55.07 3.00 241.84 3274.11
   09:33:10.870.15-Aug-2021 3421.80 4490.92 55.07 3.00 242.04 3274.11
   09:33:11.070.15-Aug-2021 3421.80 4490.92 55.07 3.00 242.24 3274.11
   09:33:11.270.15-Aug-2021 3421.80 4503.77 55.07 3.00 242.44 3274.11
   09:33:11.470.15-Aug-2021 3421.80 4509.92 55.07 3.00 242.64 3274.11
   09:33:11.670.15-Aug-2021 3421.80 4515.74 55.07 3.00 242.84 3274.11
   09:33:11.870.15-Aug-2021 3421.80 4522.08 55.07 3.00 243.04 3274.11
   09:33:12.071.15-Aug-2021 3421.80 4522.08 55.07 3.00 243.24 3274.11
   09:33:12.271.15-Aug-2021 3421.80 4534.20 55.07 3.00 243.44 3274.11
   09:33:12.471.15-Aug-2021 3421.80 4539.32 55.07 3.00 243.64 3274.11
   09:33:12.671.15-Aug-2021 3421.80 4545.23 55.07 3.00 243.84 3274.11
   09:33:12.871.15-Aug-2021 3421.80 4551.27 55.07 3.00 244.04 3274.11
   09:33:13.071.15-Aug-2021 3421.80 4551.27 55.07 3.00 244.24 3274.11
   09:33:13.271.15-Aug-2021 3421.80 4562.67 55.07 3.00 244.44 3274.11
   09:33:13.471.15-Aug-2021 3421.80 4568.18 55.07 3.00 244.64 3274.11
   09:33:13.671.15-Aug-2021 3421.80 4573.64 55.07 3.00 244.84 3274.11
   09:33:13.871.15-Aug-2021 3421.80 4579.17 55.07 3.00 245.04 3274.11
   09:33:14.071.15-Aug-2021 3421.80 4579.17 55.07 3.00 245.24 3274.11
   09:33:14.271.15-Aug-2021 3421.80 4579.17 55.07 3.00 245.44 3274.11
   09:33:14.471.15-Aug-2021 3421.80 4595.30 55.07 3.00 245.64 3274.11
   09:33:14.671.15-Aug-2021 3421.80 4600.60 55.07 3.00 245.84 3274.11
   09:33:14.871.15-Aug-2021 3421.80 4605.66 55.07 3.00 246.04 3274.11
   09:33:15.071.15-Aug-2021 3421.80 4605.66 55.07 3.00 246.24 3274.11
   09:33:15.271.15-Aug-2021 3421.80 4616.33 55.07 3.00 246.44 3274.11
   09:33:15.471.15-Aug-2021 3421.80 4622.15 55.07 3.00 246.64 3274.11
   09:33:15.671.15-Aug-2021 3421.80 4626.60 55.07 3.00 246.84 3274.11
   09:33:15.871.15-Aug-2021 3421.80 4631.23 55.07 3.00 247.04 3274.11
   09:33:16.071.15-Aug-2021 3421.80 4631.23 55.07 3.00 247.24 3274.11
   09:33:16.271.15-Aug-2021 3421.80 4641.19 55.07 3.00 247.44 3274.11
   09:33:16.471.15-Aug-2021 3421.80 4646.53 55.07 3.00 247.64 3274.11
   09:33:16.671.15-Aug-2021 3421.80 4650.92 55.07 3.00 247.84 3274.11
   09:33:16.871.15-Aug-2021 3421.80 4655.72 55.07 3.00 248.04 3274.11
   09:33:17.071.15-Aug-2021 3421.80 4655.72 55.07 3.00 248.24 3274.11
   09:33:17.271.15-Aug-2021 3421.80 4664.86 55.07 3.00 248.44 3274.11
   09:33:17.471.15-Aug-2021 3421.80 4670.07 55.07 3.00 248.64 3274.11
   09:33:17.671.15-Aug-2021 3421.80 4674.40 55.07 3.00 248.84 3274.11
   09:33:17.871.15-Aug-2021 3421.80 4679.13 55.07 3.00 249.04 3274.11
   09:33:18.071.15-Aug-2021 3421.80 4679.13 55.07 3.00 249.24 3274.11
   09:33:18.272.15-Aug-2021 3421.80 4683.68 55.07 3.00 249.44 3274.11
   09:33:18.472.15-Aug-2021 3421.80 4692.89 55.07 3.00 249.64 3274.11
   09:33:18.672.15-Aug-2021 3421.80 4696.89 55.07 3.00 249.84 3274.11
   09:33:18.872.15-Aug-2021 3421.80 4701.22 55.07 3.00 250.04 3274.11
   09:33:19.072.15-Aug-2021 3421.80 4701.22 55.07 3.00 250.24 3274.11
   09:33:19.272.15-Aug-2021 3421.80 4710.30 55.07 3.00 250.44 3274.11
   09:33:19.472.15-Aug-2021 3421.80 4714.35 55.07 3.00 250.64 3274.11
   09:33:19.672.15-Aug-2021 3421.80 4718.48 55.07 3.00 250.84 3274.11
   09:33:19.872.15-Aug-2021 3421.80 4722.58 55.07 3.00 251.04 3274.11
   09:33:20.072.15-Aug-2021 3421.80 4722.58 55.07 3.00 251.24 3274.11
   09:33:20.272.15-Aug-2021 3421.80 4730.78 55.07 3.00 251.44 3274.11
   09:33:20.472.15-Aug-2021 3421.80 4735.03 55.07 3.00 251.64 3274.11
   09:33:20.672.15-Aug-2021 3421.80 4739.72 55.07 3.00 251.84 3274.11
   09:33:20.872.15-Aug-2021 3421.80 4743.13 55.07 3.00 252.04 3274.11
   09:33:21.072.15-Aug-2021 3421.80 4743.13 55.07 3.00 252.24 3274.11
   09:33:21.272.15-Aug-2021 3421.80 4750.81 55.07 3.00 252.44 3274.11
   09:33:21.472.15-Aug-2021 3421.80 4754.54 55.07 3.00 252.64 3274.11
   09:33:21.672.15-Aug-2021 3421.80 4758.56 55.07 3.00 252.84 3274.11
