~Version Information
 VERS.                  2.0:   CWLS log ASCII Standard -VERSION 2.0
 WRAP.                   NO:   One line per depth step
~Well Information Block
#MNEM.UNIT     VALUE/NAME     DESCRIPTION
#---------     -----------    ---------------------------
 STRT.S             06:52:24 15-Aug-21: START TIME 06:52:24 15-Aug-21
 STOP.S             06:59:28 15-Aug-21: STOP TIME  06:59:28 15-Aug-21
 STEP.S                   0.00: STEP TIME
 NULL.                 -999.25: NULL VALUE
 DFWT.                        :  DIST FWL TEXT
 DFST.                        :  DIST FSL TEXT
 DMF .             Drill Floor:  DRILL MEAS FROM
 STIM.      17.18.56 20-Jun-21:  START TIME
 DATE.      17.18.56 20-Aug-21:  END TIME
 SPUD.               20-Jun-21:  SPUD DATE
 NREF.                    Grid:  NORTH REFERENCE
 HPTY.       Minimum Curvature:  HOLE POS TYPE
 DMOD.             Drill Model:  DRILL MOD DESC
 SVYD.                  Survey:  SURVEY DESC
 ILTD.               Lithology:  INTERP LTH DESC
 FTOP.          Formation Tops:  FORM TOPS DESC
 SON .        AZ-XX-0907056190:  JOB NUMBER
 PDAT.       Caspian Sea Level:  PERMANENT DATUM
 WTYP.                Deviated:  WELL TYPE
 MDS .        Operator Entered:  MAG DATA SOURCE
 COMP.     BP Exploration (Caspian Sea) Ltd.:  COMPANY
 UWI .            /AZE20000092:  UNIQUE WELL IDENTIFIER
 API .            /AZE20000092:  API NUMBER
 BASE.              Azerbaijan:  LOGGING EQUIPMENT BASE LOCATION
 REGN.                   EESSA:  REGION
 PROV.                    baku:  PROVINCE
 STAT.                    baku:  STATE NAME
 CTRY.              Azerbaijan:  COUNTRY NAME
 FLD .                     ACG:  FIELD NAME
 SRVC.          Turan Drilling:  CONTRACTOR
 MWDS.                    Baku:  MWD SHOP
 WELL.                     J26:  WELL NAME
 JOBN.        AZ-XX-0907056190:  JOB TICKET NUMB
 RIG .             West Chirag:  RIG NAME
 DOE .                     N/A:  DOE NUMBER
 DCON.         Sperry Drilling:  DIRECTNL CONTR
 UNIT.                     N/A:  LOGGING EQUIPMENT ID
 CNTY.                        :  COUNTY
 LOC .                        :  LOCATION
 LMF .             Drill Floor:  LOG MEASURED FROM
 TVDS.m                  43.00:  TVDSS CORRECTN
 LATI.deg                40.13:  LATITUDE
 LONG.deg                51.22:  LONGITUDE
 WHNS.m                  -7.12:  WELL HEAD N/S
 WHEW.m                  -9.46:  WELL HEAD E/W
 UTMX.m              519004.02:  UTM X
 UTMY.m             4443784.96:  UTM Y
 DFWL.m                   0.00:  DISTANCE FWL
 DFSL.m                   0.00:  DISTANCE FSL
 SDEP.m                 464.00:  START DEPTH
 TDD .m                3500.00:  TOTAL DEPTH (DRILLER)
 VSDR.deg               114.35:  VERT SEC DIRECT
 GVFD.g                   1.00:  GRAVITY FIELD
 MFLD.nT              50386.00:  MAGNETIC FIELD
 MDIP.deg                59.63:  MAGNETIC DIP
 MDEC.deg                 6.43:  MAGNETIC DECL
 GRDC.deg                 0.15:  GRID CORRECTION
 AZTC.deg                 6.29:  AZM TOTAL CORR
 EPD .m                   0.00:  ELEVATION
 EGL .m                   0.00:  GROUND ELEVATION
 WDMS.m                 169.80:  WD ELEV
 APD .m                  43.00:  DEPTH ABOVE PD
 VSEW.m                  -9.46:  VERT SEC E/W
 VSNS.m                  -7.12:  VERT SEC N/S
 AGAP.m                  43.00:  AIR GAP
 DEP .m                 356.16:  DEPTH
 EKB .m                  43.00:  KB ELEVATION
 EDF .m                  43.00:  DF ELEVATION
 TDL .m                 699.00:  TOTAL DEPTH (LOGGER)
 VSC .                       0:  VS TO CLOSURE
 MAGU.                 1853727:  MAGUTM CHECKSUM
~Parameter Information Block
#MNEM.UNIT       Value        Description
#---------     -----------    ---------------------------
 AV  .mps                 1.30:  Ann Velocity 
 AVMX.mps                 1.67:  Max Ann Veloc 
 AZIF.deg               280.40:  Azm, Final 
 BHAT.        Rotary Steerable:  BHA Type 
 BREV.rev            528970.00:  Rev Bit Total 
 BROT.°/30m               1.00:  Build Rotating 
 BS  .in                 12.25:  Bit Size 
 BSZ .in                 12.25:  Bit Size 
 BTPL.psig              738.00:  Bit Press Loss 
 CABU.                     Yes:  Customer Abuse 
 CGEO.        Elvin Suleymanov:  Customer Geo 
 COMM.                     ¬kS:  Run Comments 1 
 TCS .hr                 66.05:  Time Ciculation Ended 
 CV  .mps                 2.20:  Crit Velocity 
 CVMX.mps                 2.56:  Max Crit Veloc 
 DD1 .          Rashad Habibov:  Direct Drillr 1 
 DD2 .            Azer ravanov:  Direct Drillr 2 
 DD3 .           Teymur Agayev:  Direct Drillr 3 
 DDSV.               Geo-Pilot:  DD Service 
 DEFF.%                  90.00:  % Det Eff 
 DLRX.°/30m               2.95:  Dogleg Rot Max 
 DLSO.°/30m               1.00:  Dogleg Oriented 
 DLSX.°/30m               2.95:  Dogleg Str Max 
 DRET.      11.42.20 11-Aug-21:  Drill End Time 
 DRST.      23.03.20 08-Aug-21:  Drill Start Tim 
 DTIM.hr                 45.50:  Time Drilling 
 EDEP.m                3488.00:  End Depth 
 ENG1.         Marcelo Marcari:  Engineer 1 
 ENG2.         Dair Mahammadov:  Engineer 2 
 ENG3.       Davud Huseyn-zada:  Engineer 3 
 ENG4.         Yevgeniy Ulikov:  Engineer 4 
 ETIM.      17.45.20 17-Aug-21:  End Time 
 FLOI.gpm              1197.70:  Flow In 
 FLON.gpm              1100.00:  Flow In Min 
 FLOS.cptm                0.00:  Fluid Loss 
 FLOX.gpm              1200.00:  Flow In Max 
 DFT .        Mineral Oil Base:  Mud Type 
 FTRO.       Formation Presure:  FTWD Run Obj 
 HFLO.                      No:  High Flow 
 HPRE.                      No:  High Pressure 
 HTEM.                      No:  High Temp 
 HYDO.m                   1.80:  Hydro Offset 
 IFIN.deg                 9.87:  Inc, Final 
 IMAX.deg                19.96:  Inc Max 
 IMIN.deg                 3.82:  Inc Min 
 IMND.m                3257.42:  Inc Min Depth 
 IMXD.m                2945.53:  Inc Max Depth 
 JARR.                      No:  Jarring 
 LETM.      11.42.20 11-Aug-21:  Log End Time 
 LOST.hr                     0:  Lost Rig Time 
 LSTM.      23.03.20 08-Aug-21:  Log Start Time 
 MDCL.ppm             42500.00:  Mud Chlorides 
 MDES.     Inversion Oil/Synthetic:  Mud Desc 
 DFD .sg                  1.45:  Mud Density 
 MDMN.sg                  1.39:  Dens Mud Min 
 MDMX.sg                  1.57:  Dens Mud Max 
 MOIL.                   53.20:  Run Mud Oil % 
 MOWR.                   70:30:  Run Mud OWR 
 MSND.                       0:  Run Mud Sand % 
 MSOL.                   24.30:  Run Mud Solids% 
 DFV .spqt               79.00:  Mud Viscosity 
 MWOD.in                  8.00:  MWD Tool OD 
 MWSI.                      No:  Serv Intrp, MWD 
 OTIM.hr                253.06:  Time Operating 
 PCON.           Look Like New:  Pad Condition 
 PMAX.psia            11068.93:  Press Op, Max 
 PV  .cP                 36.00:  Mud PV 
 RUN .                    1000:  Run Number 
 ROPA.m/hr               15.34:  ROP Avg 
 ROPN.m/hr                4.00:  ROP Min 
 ROPX.m/hr               31.00:  ROP Max 
 RPMA.rpm               151.40:  RPM Surface Avg 
 RPMN.rpm               120.00:  RPM Surface Min 
 RPMX.rpm               160.00:  RPM Surface Max 
 RRUN.                    L505:  Rig Run Number 
 RTIM.hr                 10.00:  Time Reaming 
 SAZI.deg                88.92:  Azm, Start 
 SDEP.m                2789.00:  Start Depth 
 SIDD.                      No:  Serv Intrp, DD 
 SINC.deg                19.84:  Inc, Start 
 SPPA.psig             4421.39:  SPP Avg 
 SPPN.psig             4130.00:  SPP Min 
 SPPX.psig             4800.00:  SPP Max 
 STIM.      01.25.20 07-Aug-21:  Start Time 
 SVCS.                 DD, MWD:  Services 
 SVER.                    9.20:  Sperry Version 
 TDAT.m                 699.00:  Tot Depth Attmp 
 TDDF.                      No:  Trip for DD 
 TDLG.m                 699.00:  Tot Depth Loggd 
 TFF .                      No:  Trip for Fail 
 TQAA.f-kp               20.55:  Torque Abs Avg 
 TQAN.f-kp               15.00:  Torque Abs Min 
 TQAX.f-kp               24.00:  Torque Abs Max 
 TRRT.°/30m               0.50:  Turn Rotating 
 MRT .                    HCIM:  Maximum Recorded Temperature 
 TTMX.degC               82.35:  Max Tool Temp 
 VS01.                90654677:  Virtual Str1 SN 
 VS02.                90636294:  Virtual Str2 SN 
 VS03.                90653866:  Virtual Str3 SN 
 VS04.                90654674:  Virtual Str4 SN 
 WBMN.klb                10.00:  WOB Min 
 WITN.         Haytham Mostafa:  Customer Rep 
 WITN.           Rufat Babayev:  Customer Rep 2 
 WOBA.klb                22.43:  WOB Avg 
 WOBX.klb                35.00:  WOB Max 
 YP  .lhf2               32.00:  Yield Point 
~Curve Information Block
#MNEM.UNIT                 API CODE     Curve Description
#---------               -----------    ---------------------------
 TIME.HHMMSS            00 000 000 000:  GT Time & Date
 GTDEPTH.m              00 000 000 000:  GT Depth
 GTPQH.psia             00 000 000 000:  GT HR Quartz Pressure
 GTTQ.degC              00 000 000 000:  GT Quartz Temperature
 GTTN.NONE              00 000 000 000:  GT Test Number
 GTET.sec               00 000 000 000:  GT Elapsed Test Time
 GTTVD.m                00 000 000 000:  GT True Vertical Depth
#Other Information
#
#WARRANTY: Halliburton will use its best efforts to furnish customers with 
#accurate information and interpretations that are part of, and incident to, the services 
#provided.  However, Halliburton cannot and does not warrant the accuracy 
#or correctness of such information and interpretations.  Under no circumstances should any 
#such information or interpretation be relied upon as the sole basis for any drilling, 
#completion, production, or financial decision or any procedure involving any risk to the 
#safety of any drilling venture, drilling rig or its crew or any other third party.  The 
#Customer has full responsibility for all drilling, completion and production operation.  
#Halliburton makes no representations or warranties, either expressed or 
#implied, including, but not limited to, the implied warranties of merchantability or fitness 
#for a particular purpose, with respect to the services rendered.  In no event will 
#Halliburton be liable for failure to obtain any particular results or for 
#any damages, including, but not limited to, indirect, special or consequential damages, 
#resulting from the use of any information or interpretation provided by Halliburton.
#
~A           TIME           GTDEPTH  GTPQH  GTTQ  GTTN  GTET   GTTVD  
   06:52:24.694.15-Aug-2021 3437.50 7520.93 58.02 1.00   0.00 3289.56
   06:52:24.894.15-Aug-2021 3437.50 7520.88 58.02 1.00   0.20 3289.56
   06:52:25.094.15-Aug-2021 3437.50 7523.82 58.02 1.00   0.40 3289.56
   06:52:25.294.15-Aug-2021 3437.50 7522.61 58.02 1.00   0.60 3289.56
   06:52:25.494.15-Aug-2021 3437.50 7522.64 58.02 1.00   0.80 3289.56
   06:52:25.694.15-Aug-2021 3437.50 7522.74 58.02 1.00   1.00 3289.56
   06:52:25.894.15-Aug-2021 3437.50 7522.74 58.02 1.00   1.20 3289.56
   06:52:26.094.15-Aug-2021 3437.50 7520.53 58.02 1.00   1.40 3289.56
   06:52:26.294.15-Aug-2021 3437.50 7520.71 58.02 1.00   1.60 3289.56
   06:52:26.494.15-Aug-2021 3437.50 7523.19 58.02 1.00   1.80 3289.56
   06:52:26.694.15-Aug-2021 3437.50 7523.15 58.02 1.00   2.00 3289.56
   06:52:26.894.15-Aug-2021 3437.50 7523.15 58.02 1.00   2.20 3289.56
   06:52:27.094.15-Aug-2021 3437.50 7521.86 58.02 1.00   2.40 3289.56
   06:52:27.294.15-Aug-2021 3437.50 7519.00 58.02 1.00   2.60 3289.56
   06:52:27.494.15-Aug-2021 3437.50 7519.56 58.02 1.00   2.80 3289.56
   06:52:27.694.15-Aug-2021 3437.50 7520.16 58.02 1.00   3.00 3289.56
   06:52:27.894.15-Aug-2021 3437.50 7520.16 58.02 1.00   3.20 3289.56
   06:52:28.094.15-Aug-2021 3437.50 7515.54 58.02 1.00   3.40 3289.56
   06:52:28.294.15-Aug-2021 3437.50 7513.00 58.02 1.00   3.60 3289.56
   06:52:28.494.15-Aug-2021 3437.50 7515.22 58.02 1.00   3.80 3289.56
   06:52:28.694.15-Aug-2021 3437.50 7512.58 58.02 1.00   4.00 3289.56
   06:52:28.894.15-Aug-2021 3437.50 7512.58 58.02 1.00   4.20 3289.56
   06:52:29.094.15-Aug-2021 3437.50 7510.89 58.02 1.00   4.40 3289.56
   06:52:29.294.15-Aug-2021 3437.50 7509.81 58.02 1.00   4.60 3289.56
   06:52:29.494.15-Aug-2021 3437.50 7508.78 58.02 1.00   4.80 3289.56
   06:52:29.694.15-Aug-2021 3437.50 7507.76 58.02 1.00   5.00 3289.56
   06:52:29.894.15-Aug-2021 3437.50 7507.76 58.02 1.00   5.20 3289.56
   06:52:30.094.15-Aug-2021 3437.50 7512.43 58.02 1.00   5.40 3289.56
   06:52:30.294.15-Aug-2021 3437.50 7509.46 58.02 1.00   5.60 3289.56
   06:52:30.494.15-Aug-2021 3437.50 7508.20 58.02 1.00   5.80 3289.56
   06:52:30.694.15-Aug-2021 3437.50 7509.18 58.02 1.00   6.00 3289.56
   06:52:30.894.15-Aug-2021 3437.50 7509.18 58.02 1.00   6.20 3289.56
   06:52:31.094.15-Aug-2021 3437.50 7510.29 58.02 1.00   6.40 3289.56
   06:52:31.294.15-Aug-2021 3437.50 7509.66 58.02 1.00   6.60 3289.56
   06:52:31.494.15-Aug-2021 3437.50 7513.39 58.02 1.00   6.80 3289.56
   06:52:31.694.15-Aug-2021 3437.50 7510.50 58.02 1.00   7.00 3289.56
   06:52:31.894.15-Aug-2021 3437.50 7510.50 58.02 1.00   7.20 3289.56
   06:52:32.094.15-Aug-2021 3437.50 7508.60 58.02 1.00   7.40 3289.56
   06:52:32.294.15-Aug-2021 3437.50 7509.10 58.02 1.00   7.60 3289.56
   06:52:32.494.15-Aug-2021 3437.50 7513.20 58.02 1.00   7.80 3289.56
   06:52:32.694.15-Aug-2021 3437.50 7509.19 58.02 1.00   8.00 3289.56
   06:52:32.894.15-Aug-2021 3437.50 7509.19 58.02 1.00   8.20 3289.56
   06:52:33.094.15-Aug-2021 3437.50 7510.68 58.02 1.00   8.40 3289.56
   06:52:33.294.15-Aug-2021 3437.50 7511.98 58.02 1.00   8.60 3289.56
   06:52:33.494.15-Aug-2021 3437.50 7510.23 58.02 1.00   8.80 3289.56
   06:52:33.694.15-Aug-2021 3437.50 7509.41 58.02 1.00   9.00 3289.56
   06:52:33.894.15-Aug-2021 3437.50 7509.41 58.02 1.00   9.20 3289.56
   06:52:34.094.15-Aug-2021 3437.50 7508.98 58.02 1.00   9.40 3289.56
   06:52:34.294.15-Aug-2021 3437.50 7509.11 58.02 1.00   9.60 3289.56
   06:52:34.494.15-Aug-2021 3437.50 7510.05 58.02 1.00   9.80 3289.56
   06:52:34.694.15-Aug-2021 3437.50 7510.26 58.02 1.00  10.00 3289.56
   06:52:34.894.15-Aug-2021 3437.50 7510.26 58.02 1.00  10.20 3289.56
   06:52:35.094.15-Aug-2021 3437.50 7512.35 58.02 1.00  10.40 3289.56
   06:52:35.294.15-Aug-2021 3437.50 7509.44 58.02 1.00  10.60 3289.56
   06:52:35.494.15-Aug-2021 3437.50 7509.38 58.02 1.00  10.80 3289.56
   06:52:35.694.15-Aug-2021 3437.50 7511.04 58.02 1.00  11.00 3289.56
   06:52:35.894.15-Aug-2021 3437.50 7511.04 58.02 1.00  11.20 3289.56
   06:52:36.094.15-Aug-2021 3437.50 7514.66 58.02 1.00  11.40 3289.56
   06:52:36.294.15-Aug-2021 3437.50 7512.89 58.02 1.00  11.60 3289.56
   06:52:36.494.15-Aug-2021 3437.50 7513.98 58.02 1.00  11.80 3289.56
   06:52:36.694.15-Aug-2021 3437.50 7514.56 58.02 1.00  12.00 3289.56
   06:52:36.894.15-Aug-2021 3437.50 7514.56 58.02 1.00  12.20 3289.56
   06:52:37.094.15-Aug-2021 3437.50 7513.04 58.02 1.00  12.40 3289.56
   06:52:37.294.15-Aug-2021 3437.50 7513.26 58.02 1.00  12.60 3289.56
   06:52:37.494.15-Aug-2021 3437.50 7515.28 58.02 1.00  12.80 3289.56
   06:52:37.694.15-Aug-2021 3437.50 7515.27 58.02 1.00  13.00 3289.56
   06:52:37.894.15-Aug-2021 3437.50 7515.27 58.02 1.00  13.20 3289.56
   06:52:38.094.15-Aug-2021 3437.50 7515.87 58.02 1.00  13.40 3289.56
   06:52:38.294.15-Aug-2021 3437.50 7516.48 58.02 1.00  13.60 3289.56
   06:52:38.495.15-Aug-2021 3437.50 7513.23 58.02 1.00  13.80 3289.56
   06:52:38.695.15-Aug-2021 3437.50 7513.10 58.02 1.00  14.00 3289.56
   06:52:38.895.15-Aug-2021 3437.50 7513.10 58.02 1.00  14.20 3289.56
   06:52:39.095.15-Aug-2021 3437.50 7517.17 58.02 1.00  14.40 3289.56
   06:52:39.295.15-Aug-2021 3437.50 7514.47 58.02 1.00  14.60 3289.56
   06:52:39.495.15-Aug-2021 3437.50 7513.60 58.02 1.00  14.80 3289.56
   06:52:39.695.15-Aug-2021 3437.50 7516.76 58.02 1.00  15.00 3289.56
   06:52:39.895.15-Aug-2021 3437.50 7516.76 58.02 1.00  15.20 3289.56
   06:52:40.095.15-Aug-2021 3437.50 7515.07 58.02 1.00  15.40 3289.56
   06:52:40.295.15-Aug-2021 3437.50 7512.84 58.02 1.00  15.60 3289.56
   06:52:40.495.15-Aug-2021 3437.50 7516.02 58.02 1.00  15.80 3289.56
   06:52:40.695.15-Aug-2021 3437.50 7514.90 58.02 1.00  16.00 3289.56
   06:52:40.895.15-Aug-2021 3437.50 7514.90 58.02 1.00  16.20 3289.56
   06:52:41.095.15-Aug-2021 3437.50 7514.44 58.02 1.00  16.40 3289.56
   06:52:41.295.15-Aug-2021 3437.50 7514.54 58.02 1.00  16.60 3289.56
   06:52:41.495.15-Aug-2021 3437.50 7515.94 58.02 1.00  16.80 3289.56
   06:52:41.695.15-Aug-2021 3437.50 7516.13 58.02 1.00  17.00 3289.56
   06:52:41.895.15-Aug-2021 3437.50 7516.13 58.02 1.00  17.20 3289.56
   06:52:42.095.15-Aug-2021 3437.50 7514.59 58.02 1.00  17.40 3289.56
   06:52:42.295.15-Aug-2021 3437.50 7513.07 58.02 1.00  17.60 3289.56
   06:52:42.495.15-Aug-2021 3437.50 7514.90 58.02 1.00  17.80 3289.56
   06:52:42.695.15-Aug-2021 3437.50 7515.80 58.02 1.00  18.00 3289.56
   06:52:42.895.15-Aug-2021 3437.50 7515.80 58.02 1.00  18.20 3289.56
   06:52:43.095.15-Aug-2021 3437.50 7513.48 58.02 1.00  18.40 3289.56
   06:52:43.295.15-Aug-2021 3437.50 7512.80 58.02 1.00  18.60 3289.56
   06:52:43.495.15-Aug-2021 3437.50 7514.51 58.02 1.00  18.80 3289.56
   06:52:43.695.15-Aug-2021 3437.50 7514.08 58.02 1.00  19.00 3289.56
   06:52:43.895.15-Aug-2021 3437.50 7514.08 58.02 1.00  19.20 3289.56
   06:52:44.095.15-Aug-2021 3437.50 7514.31 58.02 1.00  19.40 3289.56
   06:52:44.295.15-Aug-2021 3437.50 7513.66 58.02 1.00  19.60 3289.56
   06:52:44.495.15-Aug-2021 3437.50 7513.64 58.02 1.00  19.80 3289.56
   06:52:44.695.15-Aug-2021 3437.50 7513.09 58.02 1.00  20.00 3289.56
   06:52:44.895.15-Aug-2021 3437.50 7513.09 58.02 1.00  20.20 3289.56
   06:52:45.095.15-Aug-2021 3437.50 7513.38 58.02 1.00  20.40 3289.56
   06:52:45.295.15-Aug-2021 3437.50 7511.25 58.02 1.00  20.60 3289.56
   06:52:45.495.15-Aug-2021 3437.50 7510.88 58.02 1.00  20.80 3289.56
   06:52:45.695.15-Aug-2021 3437.50 7512.58 58.02 1.00  21.00 3289.56
   06:52:45.895.15-Aug-2021 3437.50 7512.58 58.02 1.00  21.20 3289.56
   06:52:46.095.15-Aug-2021 3437.50 7513.35 58.02 1.00  21.40 3289.56
   06:52:46.295.15-Aug-2021 3437.50 7513.59 58.02 1.00  21.60 3289.56
   06:52:46.495.15-Aug-2021 3437.50 7511.92 58.02 1.00  21.80 3289.56
   06:52:46.695.15-Aug-2021 3437.50 7514.31 58.02 1.00  22.00 3289.56
   06:52:46.895.15-Aug-2021 3437.50 7514.31 58.02 1.00  22.20 3289.56
   06:52:47.095.15-Aug-2021 3437.50 7512.20 58.02 1.00  22.40 3289.56
   06:52:47.295.15-Aug-2021 3437.50 7512.32 58.02 1.00  22.60 3289.56
   06:52:47.495.15-Aug-2021 3437.50 7514.55 58.02 1.00  22.80 3289.56
