~Version Information
 VERS.                  2.0:   CWLS log ASCII Standard -VERSION 2.0
 WRAP.                   NO:   One line per depth step
~Well Information Block
#MNEM.UNIT     VALUE/NAME     DESCRIPTION
#---------     -----------    ---------------------------
 STRT.S             10:08:54 15-Aug-21: START TIME 10:08:54 15-Aug-21
 STOP.S             10:17:25 15-Aug-21: STOP TIME  10:17:25 15-Aug-21
 STEP.S                   0.00: STEP TIME
 NULL.                 -999.25: NULL VALUE
 DFWT.                        :  DIST FWL TEXT
 DFST.                        :  DIST FSL TEXT
 DMF .             Drill Floor:  DRILL MEAS FROM
 STIM.      17.18.56 20-Jun-21:  START TIME
 DATE.      17.18.56 20-Aug-21:  END TIME
 SPUD.               20-Jun-21:  SPUD DATE
 NREF.                    Grid:  NORTH REFERENCE
 HPTY.       Minimum Curvature:  HOLE POS TYPE
 DMOD.             Drill Model:  DRILL MOD DESC
 SVYD.                  Survey:  SURVEY DESC
 ILTD.               Lithology:  INTERP LTH DESC
 FTOP.          Formation Tops:  FORM TOPS DESC
 SON .        AZ-XX-0907056190:  JOB NUMBER
 PDAT.       Caspian Sea Level:  PERMANENT DATUM
 WTYP.                Deviated:  WELL TYPE
 MDS .        Operator Entered:  MAG DATA SOURCE
 COMP.     BP Exploration (Caspian Sea) Ltd.:  COMPANY
 UWI .            /AZE20000092:  UNIQUE WELL IDENTIFIER
 API .            /AZE20000092:  API NUMBER
 BASE.              Azerbaijan:  LOGGING EQUIPMENT BASE LOCATION
 REGN.                   EESSA:  REGION
 PROV.                    baku:  PROVINCE
 STAT.                    baku:  STATE NAME
 CTRY.              Azerbaijan:  COUNTRY NAME
 FLD .                     ACG:  FIELD NAME
 SRVC.          Turan Drilling:  CONTRACTOR
 MWDS.                    Baku:  MWD SHOP
 WELL.                     J26:  WELL NAME
 JOBN.        AZ-XX-0907056190:  JOB TICKET NUMB
 RIG .             West Chirag:  RIG NAME
 DOE .                     N/A:  DOE NUMBER
 DCON.         Sperry Drilling:  DIRECTNL CONTR
 UNIT.                     N/A:  LOGGING EQUIPMENT ID
 CNTY.                        :  COUNTY
 LOC .                        :  LOCATION
 LMF .             Drill Floor:  LOG MEASURED FROM
 TVDS.m                  43.00:  TVDSS CORRECTN
 LATI.deg                40.13:  LATITUDE
 LONG.deg                51.22:  LONGITUDE
 WHNS.m                  -7.12:  WELL HEAD N/S
 WHEW.m                  -9.46:  WELL HEAD E/W
 UTMX.m              519004.02:  UTM X
 UTMY.m             4443784.96:  UTM Y
 DFWL.m                   0.00:  DISTANCE FWL
 DFSL.m                   0.00:  DISTANCE FSL
 SDEP.m                 464.00:  START DEPTH
 TDD .m                3500.00:  TOTAL DEPTH (DRILLER)
 VSDR.deg               114.35:  VERT SEC DIRECT
 GVFD.g                   1.00:  GRAVITY FIELD
 MFLD.nT              50386.00:  MAGNETIC FIELD
 MDIP.deg                59.63:  MAGNETIC DIP
 MDEC.deg                 6.43:  MAGNETIC DECL
 GRDC.deg                 0.15:  GRID CORRECTION
 AZTC.deg                 6.29:  AZM TOTAL CORR
 EPD .m                   0.00:  ELEVATION
 EGL .m                   0.00:  GROUND ELEVATION
 WDMS.m                 169.80:  WD ELEV
 APD .m                  43.00:  DEPTH ABOVE PD
 VSEW.m                  -9.46:  VERT SEC E/W
 VSNS.m                  -7.12:  VERT SEC N/S
 AGAP.m                  43.00:  AIR GAP
 DEP .m                 356.16:  DEPTH
 EKB .m                  43.00:  KB ELEVATION
 EDF .m                  43.00:  DF ELEVATION
 TDL .m                 699.00:  TOTAL DEPTH (LOGGER)
 VSC .                       0:  VS TO CLOSURE
 MAGU.                 1853727:  MAGUTM CHECKSUM
~Parameter Information Block
#MNEM.UNIT       Value        Description
#---------     -----------    ---------------------------
 AV  .mps                 1.30:  Ann Velocity 
 AVMX.mps                 1.67:  Max Ann Veloc 
 AZIF.deg               280.40:  Azm, Final 
 BHAT.        Rotary Steerable:  BHA Type 
 BREV.rev            528970.00:  Rev Bit Total 
 BROT.°/30m               1.00:  Build Rotating 
 BS  .in                 12.25:  Bit Size 
 BSZ .in                 12.25:  Bit Size 
 BTPL.psig              738.00:  Bit Press Loss 
 CABU.                     Yes:  Customer Abuse 
 CGEO.        Elvin Suleymanov:  Customer Geo 
 COMM.                     ´½}:  Run Comments 1 
 TCS .hr                 66.05:  Time Ciculation Ended 
 CV  .mps                 2.20:  Crit Velocity 
 CVMX.mps                 2.56:  Max Crit Veloc 
 DD1 .          Rashad Habibov:  Direct Drillr 1 
 DD2 .            Azer ravanov:  Direct Drillr 2 
 DD3 .           Teymur Agayev:  Direct Drillr 3 
 DDSV.               Geo-Pilot:  DD Service 
 DEFF.%                  90.00:  % Det Eff 
 DLRX.°/30m               2.95:  Dogleg Rot Max 
 DLSO.°/30m               1.00:  Dogleg Oriented 
 DLSX.°/30m               2.95:  Dogleg Str Max 
 DRET.      11.42.20 11-Aug-21:  Drill End Time 
 DRST.      23.03.20 08-Aug-21:  Drill Start Tim 
 DTIM.hr                 45.50:  Time Drilling 
 EDEP.m                3488.00:  End Depth 
 ENG1.         Marcelo Marcari:  Engineer 1 
 ENG2.         Dair Mahammadov:  Engineer 2 
 ENG3.       Davud Huseyn-zada:  Engineer 3 
 ENG4.         Yevgeniy Ulikov:  Engineer 4 
 ETIM.      17.45.20 17-Aug-21:  End Time 
 FLOI.gpm              1197.70:  Flow In 
 FLON.gpm              1100.00:  Flow In Min 
 FLOS.cptm                0.00:  Fluid Loss 
 FLOX.gpm              1200.00:  Flow In Max 
 DFT .        Mineral Oil Base:  Mud Type 
 FTRO.       Formation Presure:  FTWD Run Obj 
 HFLO.                      No:  High Flow 
 HPRE.                      No:  High Pressure 
 HTEM.                      No:  High Temp 
 HYDO.m                   1.80:  Hydro Offset 
 IFIN.deg                 9.87:  Inc, Final 
 IMAX.deg                19.96:  Inc Max 
 IMIN.deg                 3.82:  Inc Min 
 IMND.m                3257.42:  Inc Min Depth 
 IMXD.m                2945.53:  Inc Max Depth 
 JARR.                      No:  Jarring 
 LETM.      11.42.20 11-Aug-21:  Log End Time 
 LOST.hr                     0:  Lost Rig Time 
 LSTM.      23.03.20 08-Aug-21:  Log Start Time 
 MDCL.ppm             42500.00:  Mud Chlorides 
 MDES.     Inversion Oil/Synthetic:  Mud Desc 
 DFD .sg                  1.45:  Mud Density 
 MDMN.sg                  1.39:  Dens Mud Min 
 MDMX.sg                  1.57:  Dens Mud Max 
 MOIL.                   53.20:  Run Mud Oil % 
 MOWR.                   70:30:  Run Mud OWR 
 MSND.                       0:  Run Mud Sand % 
 MSOL.                   24.30:  Run Mud Solids% 
 DFV .spqt               79.00:  Mud Viscosity 
 MWOD.in                  8.00:  MWD Tool OD 
 MWSI.                      No:  Serv Intrp, MWD 
 OTIM.hr                253.06:  Time Operating 
 PCON.           Look Like New:  Pad Condition 
 PMAX.psia            11068.93:  Press Op, Max 
 PV  .cP                 36.00:  Mud PV 
 RUN .                    1000:  Run Number 
 ROPA.m/hr               15.34:  ROP Avg 
 ROPN.m/hr                4.00:  ROP Min 
 ROPX.m/hr               31.00:  ROP Max 
 RPMA.rpm               151.40:  RPM Surface Avg 
 RPMN.rpm               120.00:  RPM Surface Min 
 RPMX.rpm               160.00:  RPM Surface Max 
 RRUN.                    L505:  Rig Run Number 
 RTIM.hr                 10.00:  Time Reaming 
 SAZI.deg                88.92:  Azm, Start 
 SDEP.m                2789.00:  Start Depth 
 SIDD.                      No:  Serv Intrp, DD 
 SINC.deg                19.84:  Inc, Start 
 SPPA.psig             4421.39:  SPP Avg 
 SPPN.psig             4130.00:  SPP Min 
 SPPX.psig             4800.00:  SPP Max 
 STIM.      01.25.20 07-Aug-21:  Start Time 
 SVCS.                 DD, MWD:  Services 
 SVER.                    9.20:  Sperry Version 
 TDAT.m                 699.00:  Tot Depth Attmp 
 TDDF.                      No:  Trip for DD 
 TDLG.m                 699.00:  Tot Depth Loggd 
 TFF .                      No:  Trip for Fail 
 TQAA.f-kp               20.55:  Torque Abs Avg 
 TQAN.f-kp               15.00:  Torque Abs Min 
 TQAX.f-kp               24.00:  Torque Abs Max 
 TRRT.°/30m               0.50:  Turn Rotating 
 MRT .                    HCIM:  Maximum Recorded Temperature 
 TTMX.degC               82.35:  Max Tool Temp 
 VS01.                90654677:  Virtual Str1 SN 
 VS02.                90636294:  Virtual Str2 SN 
 VS03.                90653866:  Virtual Str3 SN 
 VS04.                90654674:  Virtual Str4 SN 
 WBMN.klb                10.00:  WOB Min 
 WITN.         Haytham Mostafa:  Customer Rep 
 WITN.           Rufat Babayev:  Customer Rep 2 
 WOBA.klb                22.43:  WOB Avg 
 WOBX.klb                35.00:  WOB Max 
 YP  .lhf2               32.00:  Yield Point 
~Curve Information Block
#MNEM.UNIT                 API CODE     Curve Description
#---------               -----------    ---------------------------
 TIME.HHMMSS            00 000 000 000:  GT Time & Date
 GTDEPTH.m              00 000 000 000:  GT Depth
 GTPQH.psia             00 000 000 000:  GT HR Quartz Pressure
 GTTQ.degC              00 000 000 000:  GT Quartz Temperature
 GTTN.NONE              00 000 000 000:  GT Test Number
 GTET.sec               00 000 000 000:  GT Elapsed Test Time
 GTTVD.m                00 000 000 000:  GT True Vertical Depth
#Other Information
#
#WARRANTY: Halliburton will use its best efforts to furnish customers with 
#accurate information and interpretations that are part of, and incident to, the services 
#provided.  However, Halliburton cannot and does not warrant the accuracy 
#or correctness of such information and interpretations.  Under no circumstances should any 
#such information or interpretation be relied upon as the sole basis for any drilling, 
#completion, production, or financial decision or any procedure involving any risk to the 
#safety of any drilling venture, drilling rig or its crew or any other third party.  The 
#Customer has full responsibility for all drilling, completion and production operation.  
#Halliburton makes no representations or warranties, either expressed or 
#implied, including, but not limited to, the implied warranties of merchantability or fitness 
#for a particular purpose, with respect to the services rendered.  In no event will 
#Halliburton be liable for failure to obtain any particular results or for 
#any damages, including, but not limited to, indirect, special or consequential damages, 
#resulting from the use of any information or interpretation provided by Halliburton.
#
~A           TIME           GTDEPTH  GTPQH  GTTQ  GTTN  GTET   GTTVD  
# ...
   10:13:07.263.15-Aug-2021 3416.50 5185.17 54.37 4.00 253.04 3268.90
   10:13:07.463.15-Aug-2021 3416.50 5185.17 54.37 4.00 253.24 3268.90
   10:13:07.663.15-Aug-2021 3416.50 5184.83 54.37 4.00 253.44 3268.90
   10:13:07.863.15-Aug-2021 3416.50 5185.11 54.37 4.00 253.64 3268.90
   10:13:08.063.15-Aug-2021 3416.50 5184.44 54.37 4.00 253.84 3268.90
   10:13:08.263.15-Aug-2021 3416.50 5185.07 54.37 4.00 254.04 3268.90
   10:13:08.463.15-Aug-2021 3416.50 5185.07 54.37 4.00 254.24 3268.90
   10:13:08.663.15-Aug-2021 3416.50 5185.26 54.37 4.00 254.44 3268.90
   10:13:08.863.15-Aug-2021 3416.50 5184.88 54.37 4.00 254.64 3268.90
   10:13:09.063.15-Aug-2021 3416.50 5185.21 54.37 4.00 254.84 3268.90
   10:13:09.263.15-Aug-2021 3416.50 5184.45 54.37 4.00 255.04 3268.90
   10:13:09.463.15-Aug-2021 3416.50 5184.45 54.37 4.00 255.24 3268.90
   10:13:09.663.15-Aug-2021 3416.50 5184.74 54.37 4.00 255.44 3268.90
   10:13:09.863.15-Aug-2021 3416.50 5184.85 54.37 4.00 255.64 3268.90
   10:13:10.063.15-Aug-2021 3416.50 5184.84 54.37 4.00 255.84 3268.90
   10:13:10.263.15-Aug-2021 3416.50 5185.05 54.37 4.00 256.04 3268.90
   10:13:10.463.15-Aug-2021 3416.50 5185.05 54.37 4.00 256.24 3268.90
   10:13:10.663.15-Aug-2021 3416.50 5184.67 54.37 4.00 256.44 3268.90
   10:13:10.863.15-Aug-2021 3416.50 5184.93 54.37 4.00 256.64 3268.90
   10:13:11.063.15-Aug-2021 3416.50 5184.81 54.37 4.00 256.84 3268.90
   10:13:11.263.15-Aug-2021 3416.50 5185.38 54.37 4.00 257.04 3268.90
   10:13:11.463.15-Aug-2021 3416.50 5185.38 54.37 4.00 257.24 3268.90
   10:13:11.663.15-Aug-2021 3416.50 5184.98 54.37 4.00 257.44 3268.90
   10:13:11.863.15-Aug-2021 3416.50 5184.87 54.37 4.00 257.64 3268.90
   10:13:12.063.15-Aug-2021 3416.50 5185.45 54.37 4.00 257.84 3268.90
   10:13:12.263.15-Aug-2021 3416.50 5184.44 54.37 4.00 258.04 3268.90
   10:13:12.463.15-Aug-2021 3416.50 5184.44 54.37 4.00 258.24 3268.90
   10:13:12.664.15-Aug-2021 3416.50 5184.98 54.37 4.00 258.44 3268.90
   10:13:12.864.15-Aug-2021 3416.50 5185.96 54.37 4.00 258.64 3268.90
   10:13:13.064.15-Aug-2021 3416.50 5184.21 54.37 4.00 258.84 3268.90
   10:13:13.264.15-Aug-2021 3416.50 5184.94 54.37 4.00 259.04 3268.90
   10:13:13.464.15-Aug-2021 3416.50 5184.94 54.37 4.00 259.24 3268.90
   10:13:13.664.15-Aug-2021 3416.50 5184.94 54.37 4.00 259.44 3268.90
   10:13:13.864.15-Aug-2021 3416.50 5185.77 54.37 4.00 259.64 3268.90
   10:13:14.064.15-Aug-2021 3416.50 5184.18 54.37 4.00 259.84 3268.90
   10:13:14.264.15-Aug-2021 3416.50 5184.87 54.37 4.00 260.04 3268.90
   10:13:14.464.15-Aug-2021 3416.50 5184.87 54.37 4.00 260.24 3268.90
   10:13:14.664.15-Aug-2021 3416.50 5185.71 54.37 4.00 260.44 3268.90
   10:13:14.864.15-Aug-2021 3416.50 5184.24 54.37 4.00 260.64 3268.90
   10:13:15.064.15-Aug-2021 3416.50 5184.97 54.37 4.00 260.84 3268.90
   10:13:15.264.15-Aug-2021 3416.50 5185.07 54.37 4.00 261.04 3268.90
   10:13:15.464.15-Aug-2021 3416.50 5185.07 54.37 4.00 261.24 3268.90
   10:13:15.664.15-Aug-2021 3416.50 5184.99 54.37 4.00 261.44 3268.90
   10:13:15.864.15-Aug-2021 3416.50 5185.83 54.37 4.00 261.64 3268.90
   10:13:16.064.15-Aug-2021 3416.50 5184.19 54.37 4.00 261.84 3268.90
   10:13:16.264.15-Aug-2021 3416.50 5184.93 54.37 4.00 262.04 3268.90
   10:13:16.464.15-Aug-2021 3416.50 5184.93 54.37 4.00 262.24 3268.90
   10:13:16.664.15-Aug-2021 3416.50 5184.66 54.37 4.00 262.44 3268.90
   10:13:16.864.15-Aug-2021 3416.50 5185.10 54.37 4.00 262.64 3268.90
   10:13:17.064.15-Aug-2021 3416.50 5184.89 54.37 4.00 262.84 3268.90
   10:13:17.264.15-Aug-2021 3416.50 5184.89 54.37 4.00 263.04 3268.90
   10:13:17.464.15-Aug-2021 3416.50 5184.89 54.37 4.00 263.24 3268.90
   10:13:17.664.15-Aug-2021 3416.50 5185.63 54.37 4.00 263.44 3268.90
   10:13:17.864.15-Aug-2021 3416.50 5184.45 54.37 4.00 263.64 3268.90
   10:13:18.064.15-Aug-2021 3416.50 5184.89 54.36 4.00 263.84 3268.90
   10:13:18.264.15-Aug-2021 3416.50 5185.18 54.37 4.00 264.04 3268.90
   10:13:18.464.15-Aug-2021 3416.50 5185.18 54.37 4.00 264.24 3268.90
   10:13:18.665.15-Aug-2021 3416.50 5184.67 54.36 4.00 264.44 3268.90
   10:13:18.865.15-Aug-2021 3416.50 5184.71 54.36 4.00 264.64 3268.90
   10:13:19.065.15-Aug-2021 3416.50 5185.26 54.36 4.00 264.84 3268.90
   10:13:19.265.15-Aug-2021 3416.50 5185.16 54.36 4.00 265.04 3268.90
   10:13:19.465.15-Aug-2021 3416.50 5185.16 54.36 4.00 265.24 3268.90
   10:13:19.665.15-Aug-2021 3416.50 5184.63 54.36 4.00 265.44 3268.90
   10:13:19.865.15-Aug-2021 3416.50 5185.27 54.36 4.00 265.64 3268.90
   10:13:20.065.15-Aug-2021 3416.50 5184.65 54.36 4.00 265.84 3268.90
   10:13:20.265.15-Aug-2021 3416.50 5185.77 54.36 4.00 266.04 3268.90
   10:13:20.465.15-Aug-2021 3416.50 5185.77 54.36 4.00 266.24 3268.90
   10:13:20.665.15-Aug-2021 3416.50 5184.61 54.36 4.00 266.44 3268.90
   10:13:20.865.15-Aug-2021 3416.50 5184.69 54.36 4.00 266.64 3268.90
   10:13:21.065.15-Aug-2021 3416.50 5185.16 54.36 4.00 266.84 3268.90
   10:13:21.265.15-Aug-2021 3416.50 5185.54 54.36 4.00 267.04 3268.90
   10:13:21.465.15-Aug-2021 3416.50 5185.54 54.36 4.00 267.24 3268.90
   10:13:21.665.15-Aug-2021 3416.50 5184.94 54.36 4.00 267.44 3268.90
   10:13:21.865.15-Aug-2021 3416.50 5184.90 54.36 4.00 267.64 3268.90
   10:13:22.065.15-Aug-2021 3416.50 5185.88 54.36 4.00 267.84 3268.90
   10:13:22.265.15-Aug-2021 3416.50 5184.29 54.36 4.00 268.04 3268.90
   10:13:22.465.15-Aug-2021 3416.50 5184.29 54.36 4.00 268.24 3268.90
   10:13:22.665.15-Aug-2021 3416.50 5184.88 54.36 4.00 268.44 3268.90
   10:13:22.865.15-Aug-2021 3416.50 5184.93 54.36 4.00 268.64 3268.90
   10:13:23.065.15-Aug-2021 3416.50 5184.79 54.36 4.00 268.84 3268.90
   10:13:23.265.15-Aug-2021 3416.50 5185.96 54.36 4.00 269.04 3268.90
   10:13:23.465.15-Aug-2021 3416.50 5185.96 54.36 4.00 269.24 3268.90
   10:13:23.665.15-Aug-2021 3416.50 5184.97 54.36 4.00 269.44 3268.90
   10:13:23.865.15-Aug-2021 3416.50 5185.07 54.36 4.00 269.64 3268.90
   10:13:24.065.15-Aug-2021 3416.50 5185.01 54.36 4.00 269.84 3268.90
   10:13:24.265.15-Aug-2021 3416.50 5184.93 54.36 4.00 270.04 3268.90
   10:13:24.465.15-Aug-2021 3416.50 5184.93 54.36 4.00 270.24 3268.90
   10:13:24.665.15-Aug-2021 3416.50 5185.00 54.36 4.00 270.44 3268.90
   10:13:24.866.15-Aug-2021 3416.50 5184.93 54.36 4.00 270.64 3268.90
   10:13:25.066.15-Aug-2021 3416.50 5185.95 54.36 4.00 270.84 3268.90
   10:13:25.266.15-Aug-2021 3416.50 5184.15 54.36 4.00 271.04 3268.90
   10:13:25.466.15-Aug-2021 3416.50 5184.15 54.36 4.00 271.24 3268.90
   10:13:25.666.15-Aug-2021 3416.50 5185.20 54.36 4.00 271.44 3268.90
   10:13:25.866.15-Aug-2021 3416.50 5185.77 54.36 4.00 271.64 3268.90
   10:13:26.066.15-Aug-2021 3416.50 5184.20 54.36 4.00 271.84 3268.90
   10:13:26.266.15-Aug-2021 3416.50 5184.94 54.36 4.00 272.04 3268.90
   10:13:26.466.15-Aug-2021 3416.50 5184.94 54.36 4.00 272.24 3268.90
   10:13:26.666.15-Aug-2021 3416.50 5185.64 54.36 4.00 272.44 3268.90
   10:13:26.866.15-Aug-2021 3416.50 5184.35 54.36 4.00 272.64 3268.90
   10:13:27.066.15-Aug-2021 3416.50 5184.86 54.36 4.00 272.84 3268.90
   10:13:27.266.15-Aug-2021 3416.50 5185.18 54.36 4.00 273.04 3268.90
   10:13:27.466.15-Aug-2021 3416.50 5185.18 54.36 4.00 273.24 3268.90
   10:13:27.666.15-Aug-2021 3416.50 5184.93 54.36 4.00 273.44 3268.90
   10:13:27.866.15-Aug-2021 3416.50 5184.89 54.36 4.00 273.64 3268.90
   10:13:28.066.15-Aug-2021 3416.50 5185.29 54.36 4.00 273.84 3268.90
   10:13:28.266.15-Aug-2021 3416.50 5184.50 54.36 4.00 274.04 3268.90
   10:13:28.466.15-Aug-2021 3416.50 5184.50 54.36 4.00 274.24 3268.90
   10:13:28.666.15-Aug-2021 3416.50 5185.46 54.36 4.00 274.44 3268.90
   10:13:28.866.15-Aug-2021 3416.50 5184.88 54.36 4.00 274.64 3268.90
   10:13:29.066.15-Aug-2021 3416.50 5184.95 54.36 4.00 274.84 3268.90
   10:13:29.266.15-Aug-2021 3416.50 5184.98 54.36 4.00 275.05 3268.90
   10:13:29.466.15-Aug-2021 3416.50 5184.98 54.36 4.00 275.25 3268.90
   10:13:29.666.15-Aug-2021 3416.50 5184.79 54.36 4.00 275.45 3268.90
   10:13:29.866.15-Aug-2021 3416.50 5185.07 54.36 4.00 275.65 3268.90
   10:13:30.066.15-Aug-2021 3416.50 5184.79 54.36 4.00 275.85 3268.90
