~Version Information
 VERS.                  2.0:   CWLS log ASCII Standard -VERSION 2.0
 WRAP.                   NO:   One line per depth step
~Well Information Block
#MNEM.UNIT     VALUE/NAME     DESCRIPTION
#---------     -----------    ---------------------------
 STRT.S             10:08:54 15-Aug-21: START TIME 10:08:54 15-Aug-21
 STOP.S             10:17:25 15-Aug-21: STOP TIME  10:17:25 15-Aug-21
 STEP.S                   0.00: STEP TIME
 NULL.                 -999.25: NULL VALUE
 DFWT.                        :  DIST FWL TEXT
 DFST.                        :  DIST FSL TEXT
 DMF .             Drill Floor:  DRILL MEAS FROM
 STIM.      17.18.56 20-Jun-21:  START TIME
 DATE.      17.18.56 20-Aug-21:  END TIME
 SPUD.               20-Jun-21:  SPUD DATE
 NREF.                    Grid:  NORTH REFERENCE
 HPTY.       Minimum Curvature:  HOLE POS TYPE
 DMOD.             Drill Model:  DRILL MOD DESC
 SVYD.                  Survey:  SURVEY DESC
 ILTD.               Lithology:  INTERP LTH DESC
 FTOP.          Formation Tops:  FORM TOPS DESC
 SON .        AZ-XX-0907056190:  JOB NUMBER
 PDAT.       Caspian Sea Level:  PERMANENT DATUM
 WTYP.                Deviated:  WELL TYPE
 MDS .        Operator Entered:  MAG DATA SOURCE
 COMP.     BP Exploration (Caspian Sea) Ltd.:  COMPANY
 UWI .            /AZE20000092:  UNIQUE WELL IDENTIFIER
 API .            /AZE20000092:  API NUMBER
 BASE.              Azerbaijan:  LOGGING EQUIPMENT BASE LOCATION
 REGN.                   EESSA:  REGION
 PROV.                    baku:  PROVINCE
 STAT.                    baku:  STATE NAME
 CTRY.              Azerbaijan:  COUNTRY NAME
 FLD .                     ACG:  FIELD NAME
 SRVC.          Turan Drilling:  CONTRACTOR
 MWDS.                    Baku:  MWD SHOP
 WELL.                     J26:  WELL NAME
 JOBN.        AZ-XX-0907056190:  JOB TICKET NUMB
 RIG .             West Chirag:  RIG NAME
 DOE .                     N/A:  DOE NUMBER
 DCON.         Sperry Drilling:  DIRECTNL CONTR
 UNIT.                     N/A:  LOGGING EQUIPMENT ID
 CNTY.                        :  COUNTY
 LOC .                        :  LOCATION
 LMF .             Drill Floor:  LOG MEASURED FROM
 TVDS.m                  43.00:  TVDSS CORRECTN
 LATI.deg                40.13:  LATITUDE
 LONG.deg                51.22:  LONGITUDE
 WHNS.m                  -7.12:  WELL HEAD N/S
 WHEW.m                  -9.46:  WELL HEAD E/W
 UTMX.m              519004.02:  UTM X
 UTMY.m             4443784.96:  UTM Y
 DFWL.m                   0.00:  DISTANCE FWL
 DFSL.m                   0.00:  DISTANCE FSL
 SDEP.m                 464.00:  START DEPTH
 TDD .m                3500.00:  TOTAL DEPTH (DRILLER)
 VSDR.deg               114.35:  VERT SEC DIRECT
 GVFD.g                   1.00:  GRAVITY FIELD
 MFLD.nT              50386.00:  MAGNETIC FIELD
 MDIP.deg                59.63:  MAGNETIC DIP
 MDEC.deg                 6.43:  MAGNETIC DECL
 GRDC.deg                 0.15:  GRID CORRECTION
 AZTC.deg                 6.29:  AZM TOTAL CORR
 EPD .m                   0.00:  ELEVATION
 EGL .m                   0.00:  GROUND ELEVATION
 WDMS.m                 169.80:  WD ELEV
 APD .m                  43.00:  DEPTH ABOVE PD
 VSEW.m                  -9.46:  VERT SEC E/W
 VSNS.m                  -7.12:  VERT SEC N/S
 AGAP.m                  43.00:  AIR GAP
 DEP .m                 356.16:  DEPTH
 EKB .m                  43.00:  KB ELEVATION
 EDF .m                  43.00:  DF ELEVATION
 TDL .m                 699.00:  TOTAL DEPTH (LOGGER)
 VSC .                       0:  VS TO CLOSURE
 MAGU.                 1853727:  MAGUTM CHECKSUM
~Parameter Information Block
#MNEM.UNIT       Value        Description
#---------     -----------    ---------------------------
 AV  .mps                 1.30:  Ann Velocity 
 AVMX.mps                 1.67:  Max Ann Veloc 
 AZIF.deg               280.40:  Azm, Final 
 BHAT.        Rotary Steerable:  BHA Type 
 BREV.rev            528970.00:  Rev Bit Total 
 BROT.°/30m               1.00:  Build Rotating 
 BS  .in                 12.25:  Bit Size 
 BSZ .in                 12.25:  Bit Size 
 BTPL.psig              738.00:  Bit Press Loss 
 CABU.                     Yes:  Customer Abuse 
 CGEO.        Elvin Suleymanov:  Customer Geo 
 COMM.                     ´½}:  Run Comments 1 
 TCS .hr                 66.05:  Time Ciculation Ended 
 CV  .mps                 2.20:  Crit Velocity 
 CVMX.mps                 2.56:  Max Crit Veloc 
 DD1 .          Rashad Habibov:  Direct Drillr 1 
 DD2 .            Azer ravanov:  Direct Drillr 2 
 DD3 .           Teymur Agayev:  Direct Drillr 3 
 DDSV.               Geo-Pilot:  DD Service 
 DEFF.%                  90.00:  % Det Eff 
 DLRX.°/30m               2.95:  Dogleg Rot Max 
 DLSO.°/30m               1.00:  Dogleg Oriented 
 DLSX.°/30m               2.95:  Dogleg Str Max 
 DRET.      11.42.20 11-Aug-21:  Drill End Time 
 DRST.      23.03.20 08-Aug-21:  Drill Start Tim 
 DTIM.hr                 45.50:  Time Drilling 
 EDEP.m                3488.00:  End Depth 
 ENG1.         Marcelo Marcari:  Engineer 1 
 ENG2.         Dair Mahammadov:  Engineer 2 
 ENG3.       Davud Huseyn-zada:  Engineer 3 
 ENG4.         Yevgeniy Ulikov:  Engineer 4 
 ETIM.      17.45.20 17-Aug-21:  End Time 
 FLOI.gpm              1197.70:  Flow In 
 FLON.gpm              1100.00:  Flow In Min 
 FLOS.cptm                0.00:  Fluid Loss 
 FLOX.gpm              1200.00:  Flow In Max 
 DFT .        Mineral Oil Base:  Mud Type 
 FTRO.       Formation Presure:  FTWD Run Obj 
 HFLO.                      No:  High Flow 
 HPRE.                      No:  High Pressure 
 HTEM.                      No:  High Temp 
 HYDO.m                   1.80:  Hydro Offset 
 IFIN.deg                 9.87:  Inc, Final 
 IMAX.deg                19.96:  Inc Max 
 IMIN.deg                 3.82:  Inc Min 
 IMND.m                3257.42:  Inc Min Depth 
 IMXD.m                2945.53:  Inc Max Depth 
 JARR.                      No:  Jarring 
 LETM.      11.42.20 11-Aug-21:  Log End Time 
 LOST.hr                     0:  Lost Rig Time 
 LSTM.      23.03.20 08-Aug-21:  Log Start Time 
 MDCL.ppm             42500.00:  Mud Chlorides 
 MDES.     Inversion Oil/Synthetic:  Mud Desc 
 DFD .sg                  1.45:  Mud Density 
 MDMN.sg                  1.39:  Dens Mud Min 
 MDMX.sg                  1.57:  Dens Mud Max 
 MOIL.                   53.20:  Run Mud Oil % 
 MOWR.                   70:30:  Run Mud OWR 
 MSND.                       0:  Run Mud Sand % 
 MSOL.                   24.30:  Run Mud Solids% 
 DFV .spqt               79.00:  Mud Viscosity 
 MWOD.in                  8.00:  MWD Tool OD 
 MWSI.                      No:  Serv Intrp, MWD 
 OTIM.hr                253.06:  Time Operating 
 PCON.           Look Like New:  Pad Condition 
 PMAX.psia            11068.93:  Press Op, Max 
 PV  .cP                 36.00:  Mud PV 
 RUN .                    1000:  Run Number 
 ROPA.m/hr               15.34:  ROP Avg 
 ROPN.m/hr                4.00:  ROP Min 
 ROPX.m/hr               31.00:  ROP Max 
 RPMA.rpm               151.40:  RPM Surface Avg 
 RPMN.rpm               120.00:  RPM Surface Min 
 RPMX.rpm               160.00:  RPM Surface Max 
 RRUN.                    L505:  Rig Run Number 
 RTIM.hr                 10.00:  Time Reaming 
 SAZI.deg                88.92:  Azm, Start 
 SDEP.m                2789.00:  Start Depth 
 SIDD.                      No:  Serv Intrp, DD 
 SINC.deg                19.84:  Inc, Start 
 SPPA.psig             4421.39:  SPP Avg 
 SPPN.psig             4130.00:  SPP Min 
 SPPX.psig             4800.00:  SPP Max 
 STIM.      01.25.20 07-Aug-21:  Start Time 
 SVCS.                 DD, MWD:  Services 
 SVER.                    9.20:  Sperry Version 
 TDAT.m                 699.00:  Tot Depth Attmp 
 TDDF.                      No:  Trip for DD 
 TDLG.m                 699.00:  Tot Depth Loggd 
 TFF .                      No:  Trip for Fail 
 TQAA.f-kp               20.55:  Torque Abs Avg 
 TQAN.f-kp               15.00:  Torque Abs Min 
 TQAX.f-kp               24.00:  Torque Abs Max 
 TRRT.°/30m               0.50:  Turn Rotating 
 MRT .                    HCIM:  Maximum Recorded Temperature 
 TTMX.degC               82.35:  Max Tool Temp 
 VS01.                90654677:  Virtual Str1 SN 
 VS02.                90636294:  Virtual Str2 SN 
 VS03.                90653866:  Virtual Str3 SN 
 VS04.                90654674:  Virtual Str4 SN 
 WBMN.klb                10.00:  WOB Min 
 WITN.         Haytham Mostafa:  Customer Rep 
 WITN.           Rufat Babayev:  Customer Rep 2 
 WOBA.klb                22.43:  WOB Avg 
 WOBX.klb                35.00:  WOB Max 
 YP  .lhf2               32.00:  Yield Point 
~Curve Information Block
#MNEM.UNIT                 API CODE     Curve Description
#---------               -----------    ---------------------------
 TIME.HHMMSS            00 000 000 000:  GT Time & Date
 GTDEPTH.m              00 000 000 000:  GT Depth
 GTPQH.psia             00 000 000 000:  GT HR Quartz Pressure
 GTTQ.degC              00 000 000 000:  GT Quartz Temperature
 GTTN.NONE              00 000 000 000:  GT Test Number
 GTET.sec               00 000 000 000:  GT Elapsed Test Time
 GTTVD.m                00 000 000 000:  GT True Vertical Depth
#Other Information
#
#WARRANTY: Halliburton will use its best efforts to furnish customers with 
#accurate information and interpretations that are part of, and incident to, the services 
#provided.  However, Halliburton cannot and does not warrant the accuracy 
#or correctness of such information and interpretations.  Under no circumstances should any 
#such information or interpretation be relied upon as the sole basis for any drilling, 
#completion, production, or financial decision or any procedure involving any risk to the 
#safety of any drilling venture, drilling rig or its crew or any other third party.  The 
#Customer has full responsibility for all drilling, completion and production operation.  
#Halliburton makes no representations or warranties, either expressed or 
#implied, including, but not limited to, the implied warranties of merchantability or fitness 
#for a particular purpose, with respect to the services rendered.  In no event will 
#Halliburton be liable for failure to obtain any particular results or for 
#any damages, including, but not limited to, indirect, special or consequential damages, 
#resulting from the use of any information or interpretation provided by Halliburton.
#
~A           TIME           GTDEPTH  GTPQH  GTTQ  GTTN  GTET   GTTVD  
# ...
   10:10:26.236.15-Aug-2021 3416.50 5185.67 54.38 4.00  92.02 3268.90
   10:10:26.436.15-Aug-2021 3416.50 5185.67 54.38 4.00  92.22 3268.90
   10:10:26.636.15-Aug-2021 3416.50 5186.05 54.38 4.00  92.42 3268.90
   10:10:26.836.15-Aug-2021 3416.50 5185.60 54.38 4.00  92.62 3268.90
   10:10:27.036.15-Aug-2021 3416.50 5186.14 54.38 4.00  92.82 3268.90
   10:10:27.236.15-Aug-2021 3416.50 5185.68 54.38 4.00  93.02 3268.90
   10:10:27.436.15-Aug-2021 3416.50 5185.68 54.38 4.00  93.22 3268.90
   10:10:27.637.15-Aug-2021 3416.50 5185.42 54.38 4.00  93.42 3268.90
   10:10:27.837.15-Aug-2021 3416.50 5186.03 54.38 4.00  93.62 3268.90
   10:10:28.037.15-Aug-2021 3416.50 5185.59 54.38 4.00  93.82 3268.90
   10:10:28.237.15-Aug-2021 3416.50 5187.21 54.38 4.00  94.02 3268.90
   10:10:28.437.15-Aug-2021 3416.50 5187.21 54.38 4.00  94.22 3268.90
   10:10:28.637.15-Aug-2021 3416.50 5185.80 54.38 4.00  94.42 3268.90
   10:10:28.837.15-Aug-2021 3416.50 5185.96 54.38 4.00  94.62 3268.90
   10:10:29.037.15-Aug-2021 3416.50 5185.82 54.38 4.00  94.82 3268.90
   10:10:29.237.15-Aug-2021 3416.50 5186.69 54.38 4.00  95.02 3268.90
   10:10:29.437.15-Aug-2021 3416.50 5186.69 54.38 4.00  95.22 3268.90
   10:10:29.637.15-Aug-2021 3416.50 5185.75 54.38 4.00  95.42 3268.90
   10:10:29.837.15-Aug-2021 3416.50 5186.12 54.38 4.00  95.62 3268.90
   10:10:30.037.15-Aug-2021 3416.50 5186.82 54.38 4.00  95.82 3268.90
   10:10:30.237.15-Aug-2021 3416.50 5185.14 54.38 4.00  96.02 3268.90
   10:10:30.437.15-Aug-2021 3416.50 5185.14 54.38 4.00  96.22 3268.90
   10:10:30.637.15-Aug-2021 3416.50 5185.95 54.38 4.00  96.42 3268.90
   10:10:30.837.15-Aug-2021 3416.50 5186.54 54.38 4.00  96.62 3268.90
   10:10:31.037.15-Aug-2021 3416.50 5185.18 54.38 4.00  96.82 3268.90
   10:10:31.237.15-Aug-2021 3416.50 5185.87 54.38 4.00  97.02 3268.90
   10:10:31.437.15-Aug-2021 3416.50 5185.87 54.38 4.00  97.22 3268.90
   10:10:31.637.15-Aug-2021 3416.50 5185.55 54.38 4.00  97.42 3268.90
   10:10:31.837.15-Aug-2021 3416.50 5186.05 54.39 4.00  97.62 3268.90
   10:10:32.037.15-Aug-2021 3416.50 5185.72 54.39 4.00  97.82 3268.90
   10:10:32.237.15-Aug-2021 3416.50 5185.81 54.39 4.00  98.02 3268.90
   10:10:32.437.15-Aug-2021 3416.50 5185.81 54.39 4.00  98.22 3268.90
   10:10:32.637.15-Aug-2021 3416.50 5186.43 54.39 4.00  98.42 3268.90
   10:10:32.837.15-Aug-2021 3416.50 5185.57 54.39 4.00  98.62 3268.90
   10:10:33.037.15-Aug-2021 3416.50 5185.97 54.39 4.00  98.82 3268.90
   10:10:33.237.15-Aug-2021 3416.50 5186.22 54.39 4.00  99.02 3268.90
   10:10:33.437.15-Aug-2021 3416.50 5186.22 54.39 4.00  99.22 3268.90
   10:10:33.637.15-Aug-2021 3416.50 5186.55 54.39 4.00  99.42 3268.90
   10:10:33.838.15-Aug-2021 3416.50 5185.52 54.39 4.00  99.62 3268.90
   10:10:34.038.15-Aug-2021 3416.50 5185.82 54.39 4.00  99.82 3268.90
   10:10:34.238.15-Aug-2021 3416.50 5186.18 54.39 4.00 100.02 3268.90
   10:10:34.438.15-Aug-2021 3416.50 5186.18 54.39 4.00 100.22 3268.90
   10:10:34.638.15-Aug-2021 3416.50 5185.65 54.39 4.00 100.42 3268.90
   10:10:34.838.15-Aug-2021 3416.50 5185.71 54.39 4.00 100.62 3268.90
   10:10:35.038.15-Aug-2021 3416.50 5186.15 54.39 4.00 100.82 3268.90
   10:10:35.238.15-Aug-2021 3416.50 5185.31 54.39 4.00 101.02 3268.90
   10:10:35.438.15-Aug-2021 3416.50 5185.31 54.39 4.00 101.22 3268.90
   10:10:35.638.15-Aug-2021 3416.50 5185.48 54.39 4.00 101.42 3268.90
   10:10:35.838.15-Aug-2021 3416.50 5186.11 54.39 4.00 101.62 3268.90
   10:10:36.038.15-Aug-2021 3416.50 5185.47 54.39 4.00 101.82 3268.90
   10:10:36.238.15-Aug-2021 3416.50 5185.84 54.39 4.00 102.02 3268.90
   10:10:36.438.15-Aug-2021 3416.50 5185.84 54.39 4.00 102.22 3268.90
   10:10:36.638.15-Aug-2021 3416.50 5185.31 54.39 4.00 102.42 3268.90
   10:10:36.838.15-Aug-2021 3416.50 5185.79 54.39 4.00 102.62 3268.90
   10:10:37.038.15-Aug-2021 3416.50 5185.64 54.39 4.00 102.82 3268.90
   10:10:37.238.15-Aug-2021 3416.50 5186.85 54.39 4.00 103.02 3268.90
   10:10:37.438.15-Aug-2021 3416.50 5186.85 54.39 4.00 103.22 3268.90
   10:10:37.638.15-Aug-2021 3416.50 5185.78 54.39 4.00 103.42 3268.90
   10:10:37.838.15-Aug-2021 3416.50 5185.69 54.39 4.00 103.62 3268.90
   10:10:38.038.15-Aug-2021 3416.50 5186.82 54.39 4.00 103.82 3268.90
   10:10:38.238.15-Aug-2021 3416.50 5185.11 54.39 4.00 104.02 3268.90
   10:10:38.438.15-Aug-2021 3416.50 5185.11 54.39 4.00 104.22 3268.90
   10:10:38.638.15-Aug-2021 3416.50 5185.81 54.39 4.00 104.42 3268.90
   10:10:38.838.15-Aug-2021 3416.50 5185.74 54.39 4.00 104.62 3268.90
   10:10:39.038.15-Aug-2021 3416.50 5185.71 54.39 4.00 104.82 3268.90
   10:10:39.238.15-Aug-2021 3416.50 5185.80 54.39 4.00 105.02 3268.90
   10:10:39.438.15-Aug-2021 3416.50 5185.80 54.39 4.00 105.22 3268.90
   10:10:39.638.15-Aug-2021 3416.50 5185.58 54.39 4.00 105.42 3268.90
   10:10:39.839.15-Aug-2021 3416.50 5186.85 54.39 4.00 105.62 3268.90
   10:10:40.039.15-Aug-2021 3416.50 5185.09 54.39 4.00 105.82 3268.90
   10:10:40.239.15-Aug-2021 3416.50 5185.89 54.39 4.00 106.02 3268.90
   10:10:40.439.15-Aug-2021 3416.50 5185.89 54.39 4.00 106.22 3268.90
   10:10:40.639.15-Aug-2021 3416.50 5185.50 54.39 4.00 106.42 3268.90
   10:10:40.839.15-Aug-2021 3416.50 5186.83 54.39 4.00 106.62 3268.90
   10:10:41.039.15-Aug-2021 3416.50 5185.19 54.39 4.00 106.82 3268.90
   10:10:41.239.15-Aug-2021 3416.50 5185.74 54.39 4.00 107.02 3268.90
   10:10:41.439.15-Aug-2021 3416.50 5185.74 54.39 4.00 107.22 3268.90
   10:10:41.639.15-Aug-2021 3416.50 5186.67 54.39 4.00 107.42 3268.90
   10:10:41.839.15-Aug-2021 3416.50 5185.08 54.39 4.00 107.62 3268.90
   10:10:42.039.15-Aug-2021 3416.50 5185.82 54.39 4.00 107.82 3268.90
   10:10:42.239.15-Aug-2021 3416.50 5185.96 54.39 4.00 108.02 3268.90
   10:10:42.439.15-Aug-2021 3416.50 5185.96 54.39 4.00 108.22 3268.90
   10:10:42.639.15-Aug-2021 3416.50 5185.74 54.39 4.00 108.42 3268.90
   10:10:42.839.15-Aug-2021 3416.50 5185.81 54.39 4.00 108.62 3268.90
   10:10:43.039.15-Aug-2021 3416.50 5186.21 54.39 4.00 108.82 3268.90
   10:10:43.239.15-Aug-2021 3416.50 5185.15 54.39 4.00 109.02 3268.90
   10:10:43.439.15-Aug-2021 3416.50 5185.15 54.39 4.00 109.22 3268.90
   10:10:43.639.15-Aug-2021 3416.50 5186.05 54.39 4.00 109.42 3268.90
   10:10:43.839.15-Aug-2021 3416.50 5185.70 54.39 4.00 109.62 3268.90
   10:10:44.039.15-Aug-2021 3416.50 5185.84 54.39 4.00 109.82 3268.90
   10:10:44.239.15-Aug-2021 3416.50 5185.62 54.39 4.00 110.02 3268.90
   10:10:44.439.15-Aug-2021 3416.50 5185.62 54.39 4.00 110.22 3268.90
   10:10:44.639.15-Aug-2021 3416.50 5185.53 54.39 4.00 110.42 3268.90
   10:10:44.839.15-Aug-2021 3416.50 5185.85 54.39 4.00 110.62 3268.90
   10:10:45.039.15-Aug-2021 3416.50 5185.55 54.39 4.00 110.82 3268.90
   10:10:45.239.15-Aug-2021 3416.50 5186.45 54.39 4.00 111.02 3268.90
   10:10:45.439.15-Aug-2021 3416.50 5186.45 54.39 4.00 111.22 3268.90
   10:10:45.639.15-Aug-2021 3416.50 5186.05 54.39 4.00 111.42 3268.90
   10:10:45.839.15-Aug-2021 3416.50 5185.50 54.39 4.00 111.62 3268.90
   10:10:46.040.15-Aug-2021 3416.50 5185.94 54.39 4.00 111.82 3268.90
   10:10:46.240.15-Aug-2021 3416.50 5185.61 54.39 4.00 112.02 3268.90
   10:10:46.440.15-Aug-2021 3416.50 5185.61 54.39 4.00 112.22 3268.90
   10:10:46.640.15-Aug-2021 3416.50 5185.70 54.39 4.00 112.42 3268.90
   10:10:46.840.15-Aug-2021 3416.50 5185.56 54.39 4.00 112.62 3268.90
   10:10:47.040.15-Aug-2021 3416.50 5186.81 54.39 4.00 112.82 3268.90
   10:10:47.240.15-Aug-2021 3416.50 5185.36 54.39 4.00 113.02 3268.90
   10:10:47.440.15-Aug-2021 3416.50 5185.36 54.39 4.00 113.22 3268.90
   10:10:47.640.15-Aug-2021 3416.50 5185.74 54.39 4.00 113.42 3268.90
   10:10:47.840.15-Aug-2021 3416.50 5185.66 54.39 4.00 113.62 3268.90
   10:10:48.040.15-Aug-2021 3416.50 5186.67 54.39 4.00 113.82 3268.90
   10:10:48.240.15-Aug-2021 3416.50 5185.34 54.39 4.00 114.02 3268.90
   10:10:48.440.15-Aug-2021 3416.50 5185.34 54.39 4.00 114.22 3268.90
   10:10:48.640.15-Aug-2021 3416.50 5185.76 54.39 4.00 114.42 3268.90
   10:10:48.840.15-Aug-2021 3416.50 5186.84 54.39 4.00 114.62 3268.90
   10:10:49.040.15-Aug-2021 3416.50 5185.05 54.39 4.00 114.82 3268.90
