~Version Information
 VERS.                  2.0:   CWLS log ASCII Standard -VERSION 2.0
 WRAP.                   NO:   One line per depth step
~Well Information Block
#MNEM.UNIT     VALUE/NAME     DESCRIPTION
#---------     -----------    ---------------------------
 STRT.S             10:08:54 15-Aug-21: START TIME 10:08:54 15-Aug-21
 STOP.S             10:17:25 15-Aug-21: STOP TIME  10:17:25 15-Aug-21
 STEP.S                   0.00: STEP TIME
 NULL.                 -999.25: NULL VALUE
 DFWT.                        :  DIST FWL TEXT
 DFST.                        :  DIST FSL TEXT
 DMF .             Drill Floor:  DRILL MEAS FROM
 STIM.      17.18.56 20-Jun-21:  START TIME
 DATE.      17.18.56 20-Aug-21:  END TIME
 SPUD.               20-Jun-21:  SPUD DATE
 NREF.                    Grid:  NORTH REFERENCE
 HPTY.       Minimum Curvature:  HOLE POS TYPE
 DMOD.             Drill Model:  DRILL MOD DESC
 SVYD.                  Survey:  SURVEY DESC
 ILTD.               Lithology:  INTERP LTH DESC
 FTOP.          Formation Tops:  FORM TOPS DESC
 SON .        AZ-XX-0907056190:  JOB NUMBER
 PDAT.       Caspian Sea Level:  PERMANENT DATUM
 WTYP.                Deviated:  WELL TYPE
 MDS .        Operator Entered:  MAG DATA SOURCE
 COMP.     BP Exploration (Caspian Sea) Ltd.:  COMPANY
 UWI .            /AZE20000092:  UNIQUE WELL IDENTIFIER
 API .            /AZE20000092:  API NUMBER
 BASE.              Azerbaijan:  LOGGING EQUIPMENT BASE LOCATION
 REGN.                   EESSA:  REGION
 PROV.                    baku:  PROVINCE
 STAT.                    baku:  STATE NAME
 CTRY.              Azerbaijan:  COUNTRY NAME
 FLD .                     ACG:  FIELD NAME
 SRVC.          Turan Drilling:  CONTRACTOR
 MWDS.                    Baku:  MWD SHOP
 WELL.                     J26:  WELL NAME
 JOBN.        AZ-XX-0907056190:  JOB TICKET NUMB
 RIG .             West Chirag:  RIG NAME
 DOE .                     N/A:  DOE NUMBER
 DCON.         Sperry Drilling:  DIRECTNL CONTR
 UNIT.                     N/A:  LOGGING EQUIPMENT ID
 CNTY.                        :  COUNTY
 LOC .                        :  LOCATION
 LMF .             Drill Floor:  LOG MEASURED FROM
 TVDS.m                  43.00:  TVDSS CORRECTN
 LATI.deg                40.13:  LATITUDE
 LONG.deg                51.22:  LONGITUDE
 WHNS.m                  -7.12:  WELL HEAD N/S
 WHEW.m                  -9.46:  WELL HEAD E/W
 UTMX.m              519004.02:  UTM X
 UTMY.m             4443784.96:  UTM Y
 DFWL.m                   0.00:  DISTANCE FWL
 DFSL.m                   0.00:  DISTANCE FSL
 SDEP.m                 464.00:  START DEPTH
 TDD .m                3500.00:  TOTAL DEPTH (DRILLER)
 VSDR.deg               114.35:  VERT SEC DIRECT
 GVFD.g                   1.00:  GRAVITY FIELD
 MFLD.nT              50386.00:  MAGNETIC FIELD
 MDIP.deg                59.63:  MAGNETIC DIP
 MDEC.deg                 6.43:  MAGNETIC DECL
 GRDC.deg                 0.15:  GRID CORRECTION
 AZTC.deg                 6.29:  AZM TOTAL CORR
 EPD .m                   0.00:  ELEVATION
 EGL .m                   0.00:  GROUND ELEVATION
 WDMS.m                 169.80:  WD ELEV
 APD .m                  43.00:  DEPTH ABOVE PD
 VSEW.m                  -9.46:  VERT SEC E/W
 VSNS.m                  -7.12:  VERT SEC N/S
 AGAP.m                  43.00:  AIR GAP
 DEP .m                 356.16:  DEPTH
 EKB .m                  43.00:  KB ELEVATION
 EDF .m                  43.00:  DF ELEVATION
 TDL .m                 699.00:  TOTAL DEPTH (LOGGER)
 VSC .                       0:  VS TO CLOSURE
 MAGU.                 1853727:  MAGUTM CHECKSUM
~Parameter Information Block
#MNEM.UNIT       Value        Description
#---------     -----------    ---------------------------
 AV  .mps                 1.30:  Ann Velocity 
 AVMX.mps                 1.67:  Max Ann Veloc 
 AZIF.deg               280.40:  Azm, Final 
 BHAT.        Rotary Steerable:  BHA Type 
 BREV.rev            528970.00:  Rev Bit Total 
 BROT.°/30m               1.00:  Build Rotating 
 BS  .in                 12.25:  Bit Size 
 BSZ .in                 12.25:  Bit Size 
 BTPL.psig              738.00:  Bit Press Loss 
 CABU.                     Yes:  Customer Abuse 
 CGEO.        Elvin Suleymanov:  Customer Geo 
 COMM.                     ´½}:  Run Comments 1 
 TCS .hr                 66.05:  Time Ciculation Ended 
 CV  .mps                 2.20:  Crit Velocity 
 CVMX.mps                 2.56:  Max Crit Veloc 
 DD1 .          Rashad Habibov:  Direct Drillr 1 
 DD2 .            Azer ravanov:  Direct Drillr 2 
 DD3 .           Teymur Agayev:  Direct Drillr 3 
 DDSV.               Geo-Pilot:  DD Service 
 DEFF.%                  90.00:  % Det Eff 
 DLRX.°/30m               2.95:  Dogleg Rot Max 
 DLSO.°/30m               1.00:  Dogleg Oriented 
 DLSX.°/30m               2.95:  Dogleg Str Max 
 DRET.      11.42.20 11-Aug-21:  Drill End Time 
 DRST.      23.03.20 08-Aug-21:  Drill Start Tim 
 DTIM.hr                 45.50:  Time Drilling 
 EDEP.m                3488.00:  End Depth 
 ENG1.         Marcelo Marcari:  Engineer 1 
 ENG2.         Dair Mahammadov:  Engineer 2 
 ENG3.       Davud Huseyn-zada:  Engineer 3 
 ENG4.         Yevgeniy Ulikov:  Engineer 4 
 ETIM.      17.45.20 17-Aug-21:  End Time 
 FLOI.gpm              1197.70:  Flow In 
 FLON.gpm              1100.00:  Flow In Min 
 FLOS.cptm                0.00:  Fluid Loss 
 FLOX.gpm              1200.00:  Flow In Max 
 DFT .        Mineral Oil Base:  Mud Type 
 FTRO.       Formation Presure:  FTWD Run Obj 
 HFLO.                      No:  High Flow 
 HPRE.                      No:  High Pressure 
 HTEM.                      No:  High Temp 
 HYDO.m                   1.80:  Hydro Offset 
 IFIN.deg                 9.87:  Inc, Final 
 IMAX.deg                19.96:  Inc Max 
 IMIN.deg                 3.82:  Inc Min 
 IMND.m                3257.42:  Inc Min Depth 
 IMXD.m                2945.53:  Inc Max Depth 
 JARR.                      No:  Jarring 
 LETM.      11.42.20 11-Aug-21:  Log End Time 
 LOST.hr                     0:  Lost Rig Time 
 LSTM.      23.03.20 08-Aug-21:  Log Start Time 
 MDCL.ppm             42500.00:  Mud Chlorides 
 MDES.     Inversion Oil/Synthetic:  Mud Desc 
 DFD .sg                  1.45:  Mud Density 
 MDMN.sg                  1.39:  Dens Mud Min 
 MDMX.sg                  1.57:  Dens Mud Max 
 MOIL.                   53.20:  Run Mud Oil % 
 MOWR.                   70:30:  Run Mud OWR 
 MSND.                       0:  Run Mud Sand % 
 MSOL.                   24.30:  Run Mud Solids% 
 DFV .spqt               79.00:  Mud Viscosity 
 MWOD.in                  8.00:  MWD Tool OD 
 MWSI.                      No:  Serv Intrp, MWD 
 OTIM.hr                253.06:  Time Operating 
 PCON.           Look Like New:  Pad Condition 
 PMAX.psia            11068.93:  Press Op, Max 
 PV  .cP                 36.00:  Mud PV 
 RUN .                    1000:  Run Number 
 ROPA.m/hr               15.34:  ROP Avg 
 ROPN.m/hr                4.00:  ROP Min 
 ROPX.m/hr               31.00:  ROP Max 
 RPMA.rpm               151.40:  RPM Surface Avg 
 RPMN.rpm               120.00:  RPM Surface Min 
 RPMX.rpm               160.00:  RPM Surface Max 
 RRUN.                    L505:  Rig Run Number 
 RTIM.hr                 10.00:  Time Reaming 
 SAZI.deg                88.92:  Azm, Start 
 SDEP.m                2789.00:  Start Depth 
 SIDD.                      No:  Serv Intrp, DD 
 SINC.deg                19.84:  Inc, Start 
 SPPA.psig             4421.39:  SPP Avg 
 SPPN.psig             4130.00:  SPP Min 
 SPPX.psig             4800.00:  SPP Max 
 STIM.      01.25.20 07-Aug-21:  Start Time 
 SVCS.                 DD, MWD:  Services 
 SVER.                    9.20:  Sperry Version 
 TDAT.m                 699.00:  Tot Depth Attmp 
 TDDF.                      No:  Trip for DD 
 TDLG.m                 699.00:  Tot Depth Loggd 
 TFF .                      No:  Trip for Fail 
 TQAA.f-kp               20.55:  Torque Abs Avg 
 TQAN.f-kp               15.00:  Torque Abs Min 
 TQAX.f-kp               24.00:  Torque Abs Max 
 TRRT.°/30m               0.50:  Turn Rotating 
 MRT .                    HCIM:  Maximum Recorded Temperature 
 TTMX.degC               82.35:  Max Tool Temp 
 VS01.                90654677:  Virtual Str1 SN 
 VS02.                90636294:  Virtual Str2 SN 
 VS03.                90653866:  Virtual Str3 SN 
 VS04.                90654674:  Virtual Str4 SN 
 WBMN.klb                10.00:  WOB Min 
 WITN.         Haytham Mostafa:  Customer Rep 
 WITN.           Rufat Babayev:  Customer Rep 2 
 WOBA.klb                22.43:  WOB Avg 
 WOBX.klb                35.00:  WOB Max 
 YP  .lhf2               32.00:  Yield Point 
~Curve Information Block
#MNEM.UNIT                 API CODE     Curve Description
#---------               -----------    ---------------------------
 TIME.HHMMSS            00 000 000 000:  GT Time & Date
 GTDEPTH.m              00 000 000 000:  GT Depth
 GTPQH.psia             00 000 000 000:  GT HR Quartz Pressure
 GTTQ.degC              00 000 000 000:  GT Quartz Temperature
 GTTN.NONE              00 000 000 000:  GT Test Number
 GTET.sec               00 000 000 000:  GT Elapsed Test Time
 GTTVD.m                00 000 000 000:  GT True Vertical Depth
#Other Information
#
#WARRANTY: Halliburton will use its best efforts to furnish customers with 
#accurate information and interpretations that are part of, and incident to, the services 
#provided.  However, Halliburton cannot and does not warrant the accuracy 
#or correctness of such information and interpretations.  Under no circumstances should any 
#such information or interpretation be relied upon as the sole basis for any drilling, 
#completion, production, or financial decision or any procedure involving any risk to the 
#safety of any drilling venture, drilling rig or its crew or any other third party.  The 
#Customer has full responsibility for all drilling, completion and production operation.  
#Halliburton makes no representations or warranties, either expressed or 
#implied, including, but not limited to, the implied warranties of merchantability or fitness 
#for a particular purpose, with respect to the services rendered.  In no event will 
#Halliburton be liable for failure to obtain any particular results or for 
#any damages, including, but not limited to, indirect, special or consequential damages, 
#resulting from the use of any information or interpretation provided by Halliburton.
#
~A           TIME           GTDEPTH  GTPQH  GTTQ  GTTN  GTET   GTTVD  
# ...
   10:16:57.300.15-Aug-2021 3416.50 7481.43 54.34 4.00 483.08 3268.90
   10:16:57.500.15-Aug-2021 3416.50 7481.43 54.34 4.00 483.28 3268.90
   10:16:57.700.15-Aug-2021 3416.50 7479.92 54.34 4.00 483.48 3268.90
   10:16:57.900.15-Aug-2021 3416.50 7478.57 54.34 4.00 483.68 3268.90
   10:16:58.100.15-Aug-2021 3416.50 7479.49 54.34 4.00 483.88 3268.90
   10:16:58.300.15-Aug-2021 3416.50 7482.33 54.34 4.00 484.08 3268.90
   10:16:58.500.15-Aug-2021 3416.50 7482.33 54.34 4.00 484.28 3268.90
   10:16:58.701.15-Aug-2021 3416.50 7480.22 54.34 4.00 484.48 3268.90
   10:16:58.901.15-Aug-2021 3416.50 7480.43 54.34 4.00 484.68 3268.90
   10:16:59.101.15-Aug-2021 3416.50 7480.43 54.34 4.00 484.88 3268.90
   10:16:59.301.15-Aug-2021 3416.50 7480.70 54.34 4.00 485.08 3268.90
   10:16:59.501.15-Aug-2021 3416.50 7480.70 54.34 4.00 485.28 3268.90
   10:16:59.701.15-Aug-2021 3416.50 7479.32 54.35 4.00 485.48 3268.90
   10:16:59.901.15-Aug-2021 3416.50 7479.79 54.35 4.00 485.68 3268.90
   10:17:00.101.15-Aug-2021 3416.50 7482.18 54.35 4.00 485.88 3268.90
   10:17:00.301.15-Aug-2021 3416.50 7481.28 54.35 4.00 486.08 3268.90
   10:17:00.501.15-Aug-2021 3416.50 7481.28 54.35 4.00 486.28 3268.90
   10:17:00.701.15-Aug-2021 3416.50 7480.48 54.35 4.00 486.48 3268.90
   10:17:00.901.15-Aug-2021 3416.50 7481.08 54.35 4.00 486.68 3268.90
   10:17:01.101.15-Aug-2021 3416.50 7480.97 54.35 4.00 486.88 3268.90
   10:17:01.301.15-Aug-2021 3416.50 7480.46 54.35 4.00 487.08 3268.90
   10:17:01.501.15-Aug-2021 3416.50 7480.46 54.35 4.00 487.28 3268.90
   10:17:01.701.15-Aug-2021 3416.50 7481.46 54.35 4.00 487.48 3268.90
   10:17:01.901.15-Aug-2021 3416.50 7480.38 54.35 4.00 487.68 3268.90
   10:17:02.101.15-Aug-2021 3416.50 7478.80 54.35 4.00 487.88 3268.90
   10:17:02.301.15-Aug-2021 3416.50 7479.66 54.35 4.00 488.08 3268.90
   10:17:02.501.15-Aug-2021 3416.50 7479.66 54.35 4.00 488.28 3268.90
   10:17:02.701.15-Aug-2021 3416.50 7480.80 54.35 4.00 488.48 3268.90
   10:17:02.901.15-Aug-2021 3416.50 7480.47 54.35 4.00 488.68 3268.90
   10:17:03.101.15-Aug-2021 3416.50 7478.74 54.35 4.00 488.88 3268.90
   10:17:03.301.15-Aug-2021 3416.50 7480.08 54.35 4.00 489.08 3268.90
   10:17:03.501.15-Aug-2021 3416.50 7480.08 54.35 4.00 489.28 3268.90
   10:17:03.701.15-Aug-2021 3416.50 7480.27 54.35 4.00 489.48 3268.90
   10:17:03.901.15-Aug-2021 3416.50 7480.10 54.35 4.00 489.68 3268.90
   10:17:04.101.15-Aug-2021 3416.50 7479.16 54.35 4.00 489.88 3268.90
   10:17:04.301.15-Aug-2021 3416.50 7480.83 54.35 4.00 490.08 3268.90
   10:17:04.501.15-Aug-2021 3416.50 7480.83 54.35 4.00 490.28 3268.90
   10:17:04.702.15-Aug-2021 3416.50 7482.62 54.35 4.00 490.48 3268.90
   10:17:04.902.15-Aug-2021 3416.50 7481.77 54.35 4.00 490.68 3268.90
   10:17:05.102.15-Aug-2021 3416.50 7478.98 54.35 4.00 490.88 3268.90
   10:17:05.302.15-Aug-2021 3416.50 7479.79 54.35 4.00 491.08 3268.90
   10:17:05.502.15-Aug-2021 3416.50 7479.79 54.35 4.00 491.28 3268.90
   10:17:05.702.15-Aug-2021 3416.50 7481.62 54.35 4.00 491.48 3268.90
   10:17:05.902.15-Aug-2021 3416.50 7480.85 54.35 4.00 491.68 3268.90
   10:17:06.102.15-Aug-2021 3416.50 7480.73 54.35 4.00 491.88 3268.90
   10:17:06.302.15-Aug-2021 3416.50 7480.94 54.35 4.00 492.08 3268.90
   10:17:06.502.15-Aug-2021 3416.50 7480.94 54.35 4.00 492.28 3268.90
   10:17:06.702.15-Aug-2021 3416.50 7480.66 54.35 4.00 492.48 3268.90
   10:17:06.902.15-Aug-2021 3416.50 7480.35 54.35 4.00 492.68 3268.90
   10:17:07.102.15-Aug-2021 3416.50 7480.06 54.35 4.00 492.88 3268.90
   10:17:07.302.15-Aug-2021 3416.50 7480.77 54.35 4.00 493.08 3268.90
   10:17:07.502.15-Aug-2021 3416.50 7480.77 54.35 4.00 493.28 3268.90
   10:17:07.702.15-Aug-2021 3416.50 7481.70 54.35 4.00 493.48 3268.90
   10:17:07.902.15-Aug-2021 3416.50 7479.79 54.35 4.00 493.68 3268.90
   10:17:08.102.15-Aug-2021 3416.50 7478.47 54.35 4.00 493.88 3268.90
   10:17:08.302.15-Aug-2021 3416.50 7480.26 54.35 4.00 494.08 3268.90
   10:17:08.502.15-Aug-2021 3416.50 7480.26 54.35 4.00 494.28 3268.90
   10:17:08.702.15-Aug-2021 3416.50 7480.94 54.35 4.00 494.48 3268.90
   10:17:08.902.15-Aug-2021 3416.50 7482.76 54.35 4.00 494.68 3268.90
   10:17:09.102.15-Aug-2021 3416.50 7481.47 54.35 4.00 494.88 3268.90
   10:17:09.302.15-Aug-2021 3416.50 7479.61 54.35 4.00 495.08 3268.90
   10:17:09.502.15-Aug-2021 3416.50 7479.61 54.35 4.00 495.28 3268.90
   10:17:09.702.15-Aug-2021 3416.50 7479.58 54.35 4.00 495.48 3268.90
   10:17:09.902.15-Aug-2021 3416.50 7482.90 54.35 4.00 495.68 3268.90
   10:17:10.102.15-Aug-2021 3416.50 7482.18 54.35 4.00 495.88 3268.90
   10:17:10.302.15-Aug-2021 3416.50 7480.50 54.35 4.00 496.08 3268.90
   10:17:10.502.15-Aug-2021 3416.50 7480.50 54.35 4.00 496.28 3268.90
   10:17:10.702.15-Aug-2021 3416.50 7479.55 54.35 4.00 496.48 3268.90
   10:17:10.903.15-Aug-2021 3416.50 7480.92 54.35 4.00 496.68 3268.90
   10:17:11.103.15-Aug-2021 3416.50 7481.31 54.35 4.00 496.88 3268.90
   10:17:11.303.15-Aug-2021 3416.50 7483.71 54.35 4.00 497.08 3268.90
   10:17:11.503.15-Aug-2021 3416.50 7483.71 54.35 4.00 497.28 3268.90
   10:17:11.703.15-Aug-2021 3416.50 7478.52 54.35 4.00 497.48 3268.90
   10:17:11.903.15-Aug-2021 3416.50 7480.25 54.35 4.00 497.68 3268.90
   10:17:12.103.15-Aug-2021 3416.50 7481.40 54.35 4.00 497.88 3268.90
   10:17:12.303.15-Aug-2021 3416.50 7481.81 54.35 4.00 498.08 3268.90
   10:17:12.503.15-Aug-2021 3416.50 7481.81 54.35 4.00 498.28 3268.90
   10:17:12.703.15-Aug-2021 3416.50 7480.06 54.35 4.00 498.48 3268.90
   10:17:12.903.15-Aug-2021 3416.50 7481.25 54.35 4.00 498.68 3268.90
   10:17:13.103.15-Aug-2021 3416.50 7480.89 54.35 4.00 498.88 3268.90
   10:17:13.303.15-Aug-2021 3416.50 7480.13 54.35 4.00 499.08 3268.90
   10:17:13.503.15-Aug-2021 3416.50 7480.13 54.35 4.00 499.28 3268.90
   10:17:13.703.15-Aug-2021 3416.50 7479.38 54.35 4.00 499.48 3268.90
   10:17:13.903.15-Aug-2021 3416.50 7479.45 54.35 4.00 499.68 3268.90
   10:17:14.103.15-Aug-2021 3416.50 7478.69 54.34 4.00 499.88 3268.90
   10:17:14.303.15-Aug-2021 3416.50 7483.59 54.35 4.00 500.08 3268.90
   10:17:14.503.15-Aug-2021 3416.50 7483.59 54.35 4.00 500.28 3268.90
   10:17:14.703.15-Aug-2021 3416.50 7480.64 54.34 4.00 500.48 3268.90
   10:17:14.903.15-Aug-2021 3416.50 7481.10 54.34 4.00 500.68 3268.90
   10:17:15.103.15-Aug-2021 3416.50 7480.99 54.34 4.00 500.88 3268.90
   10:17:15.303.15-Aug-2021 3416.50 7480.74 54.34 4.00 501.08 3268.90
   10:17:15.503.15-Aug-2021 3416.50 7480.74 54.34 4.00 501.28 3268.90
   10:17:15.703.15-Aug-2021 3416.50 7482.19 54.34 4.00 501.48 3268.90
   10:17:15.903.15-Aug-2021 3416.50 7478.45 54.34 4.00 501.68 3268.90
   10:17:16.103.15-Aug-2021 3416.50 7479.49 54.34 4.00 501.88 3268.90
   10:17:16.303.15-Aug-2021 3416.50 7481.16 54.34 4.00 502.08 3268.90
   10:17:16.503.15-Aug-2021 3416.50 7481.16 54.34 4.00 502.28 3268.90
   10:17:16.703.15-Aug-2021 3416.50 7479.06 54.34 4.00 502.48 3268.90
   10:17:16.904.15-Aug-2021 3416.50 7479.08 54.34 4.00 502.68 3268.90
   10:17:17.104.15-Aug-2021 3416.50 7480.92 54.34 4.00 502.88 3268.90
   10:17:17.304.15-Aug-2021 3416.50 7481.46 54.34 4.00 503.08 3268.90
   10:17:17.504.15-Aug-2021 3416.50 7481.46 54.34 4.00 503.28 3268.90
   10:17:17.704.15-Aug-2021 3416.50 7481.09 54.34 4.00 503.48 3268.90
   10:17:17.904.15-Aug-2021 3416.50 7481.67 54.34 4.00 503.68 3268.90
   10:17:18.104.15-Aug-2021 3416.50 7479.93 54.34 4.00 503.88 3268.90
   10:17:18.304.15-Aug-2021 3416.50 7479.68 54.34 4.00 504.08 3268.90
   10:17:18.504.15-Aug-2021 3416.50 7479.68 54.34 4.00 504.28 3268.90
   10:17:18.704.15-Aug-2021 3416.50 7481.27 54.34 4.00 504.48 3268.90
   10:17:18.904.15-Aug-2021 3416.50 7485.09 54.34 4.00 504.68 3268.90
   10:17:19.104.15-Aug-2021 3416.50 7481.68 54.34 4.00 504.88 3268.90
   10:17:19.304.15-Aug-2021 3416.50 7479.80 54.34 4.00 505.08 3268.90
   10:17:19.504.15-Aug-2021 3416.50 7479.80 54.34 4.00 505.28 3268.90
   10:17:19.704.15-Aug-2021 3416.50 7481.87 54.34 4.00 505.48 3268.90
   10:17:19.904.15-Aug-2021 3416.50 7482.05 54.34 4.00 505.68 3268.90
   10:17:20.104.15-Aug-2021 3416.50 7481.98 54.34 4.00 505.88 3268.90
