~Version Information
 VERS.                  2.0:   CWLS log ASCII Standard -VERSION 2.0
 WRAP.                   NO:   One line per depth step
~Well Information Block
#MNEM.UNIT     VALUE/NAME     DESCRIPTION
#---------     -----------    ---------------------------
 STRT.S             06:52:24 15-Aug-21: START TIME 06:52:24 15-Aug-21
 STOP.S             06:59:28 15-Aug-21: STOP TIME  06:59:28 15-Aug-21
 STEP.S                   0.00: STEP TIME
 NULL.                 -999.25: NULL VALUE
 DFWT.                        :  DIST FWL TEXT
 DFST.                        :  DIST FSL TEXT
 DMF .             Drill Floor:  DRILL MEAS FROM
 STIM.      17.18.56 20-Jun-21:  START TIME
 DATE.      17.18.56 20-Aug-21:  END TIME
 SPUD.               20-Jun-21:  SPUD DATE
 NREF.                    Grid:  NORTH REFERENCE
 HPTY.       Minimum Curvature:  HOLE POS TYPE
 DMOD.             Drill Model:  DRILL MOD DESC
 SVYD.                  Survey:  SURVEY DESC
 ILTD.               Lithology:  INTERP LTH DESC
 FTOP.          Formation Tops:  FORM TOPS DESC
 SON .        AZ-XX-0907056190:  JOB NUMBER
 PDAT.       Caspian Sea Level:  PERMANENT DATUM
 WTYP.                Deviated:  WELL TYPE
 MDS .        Operator Entered:  MAG DATA SOURCE
 COMP.     BP Exploration (Caspian Sea) Ltd.:  COMPANY
 UWI .            /AZE20000092:  UNIQUE WELL IDENTIFIER
 API .            /AZE20000092:  API NUMBER
 BASE.              Azerbaijan:  LOGGING EQUIPMENT BASE LOCATION
 REGN.                   EESSA:  REGION
 PROV.                    baku:  PROVINCE
 STAT.                    baku:  STATE NAME
 CTRY.              Azerbaijan:  COUNTRY NAME
 FLD .                     ACG:  FIELD NAME
 SRVC.          Turan Drilling:  CONTRACTOR
 MWDS.                    Baku:  MWD SHOP
 WELL.                     J26:  WELL NAME
 JOBN.        AZ-XX-0907056190:  JOB TICKET NUMB
 RIG .             West Chirag:  RIG NAME
 DOE .                     N/A:  DOE NUMBER
 DCON.         Sperry Drilling:  DIRECTNL CONTR
 UNIT.                     N/A:  LOGGING EQUIPMENT ID
 CNTY.                        :  COUNTY
 LOC .                        :  LOCATION
 LMF .             Drill Floor:  LOG MEASURED FROM
 TVDS.m                  43.00:  TVDSS CORRECTN
 LATI.deg                40.13:  LATITUDE
 LONG.deg                51.22:  LONGITUDE
 WHNS.m                  -7.12:  WELL HEAD N/S
 WHEW.m                  -9.46:  WELL HEAD E/W
 UTMX.m              519004.02:  UTM X
 UTMY.m             4443784.96:  UTM Y
 DFWL.m                   0.00:  DISTANCE FWL
 DFSL.m                   0.00:  DISTANCE FSL
 SDEP.m                 464.00:  START DEPTH
 TDD .m                3500.00:  TOTAL DEPTH (DRILLER)
 VSDR.deg               114.35:  VERT SEC DIRECT
 GVFD.g                   1.00:  GRAVITY FIELD
 MFLD.nT              50386.00:  MAGNETIC FIELD
 MDIP.deg                59.63:  MAGNETIC DIP
 MDEC.deg                 6.43:  MAGNETIC DECL
 GRDC.deg                 0.15:  GRID CORRECTION
 AZTC.deg                 6.29:  AZM TOTAL CORR
 EPD .m                   0.00:  ELEVATION
 EGL .m                   0.00:  GROUND ELEVATION
 WDMS.m                 169.80:  WD ELEV
 APD .m                  43.00:  DEPTH ABOVE PD
 VSEW.m                  -9.46:  VERT SEC E/W
 VSNS.m                  -7.12:  VERT SEC N/S
 AGAP.m                  43.00:  AIR GAP
 DEP .m                 356.16:  DEPTH
 EKB .m                  43.00:  KB ELEVATION
 EDF .m                  43.00:  DF ELEVATION
 TDL .m                 699.00:  TOTAL DEPTH (LOGGER)
 VSC .                       0:  VS TO CLOSURE
 MAGU.                 1853727:  MAGUTM CHECKSUM
~Parameter Information Block
#MNEM.UNIT       Value        Description
#---------     -----------    ---------------------------
 AV  .mps                 1.30:  Ann Velocity 
 AVMX.mps                 1.67:  Max Ann Veloc 
 AZIF.deg               280.40:  Azm, Final 
 BHAT.        Rotary Steerable:  BHA Type 
 BREV.rev            528970.00:  Rev Bit Total 
 BROT.°/30m               1.00:  Build Rotating 
 BS  .in                 12.25:  Bit Size 
 BSZ .in                 12.25:  Bit Size 
 BTPL.psig              738.00:  Bit Press Loss 
 CABU.                     Yes:  Customer Abuse 
 CGEO.        Elvin Suleymanov:  Customer Geo 
 COMM.                     ¬kS:  Run Comments 1 
 TCS .hr                 66.05:  Time Ciculation Ended 
 CV  .mps                 2.20:  Crit Velocity 
 CVMX.mps                 2.56:  Max Crit Veloc 
 DD1 .          Rashad Habibov:  Direct Drillr 1 
 DD2 .            Azer ravanov:  Direct Drillr 2 
 DD3 .           Teymur Agayev:  Direct Drillr 3 
 DDSV.               Geo-Pilot:  DD Service 
 DEFF.%                  90.00:  % Det Eff 
 DLRX.°/30m               2.95:  Dogleg Rot Max 
 DLSO.°/30m               1.00:  Dogleg Oriented 
 DLSX.°/30m               2.95:  Dogleg Str Max 
 DRET.      11.42.20 11-Aug-21:  Drill End Time 
 DRST.      23.03.20 08-Aug-21:  Drill Start Tim 
 DTIM.hr                 45.50:  Time Drilling 
 EDEP.m                3488.00:  End Depth 
 ENG1.         Marcelo Marcari:  Engineer 1 
 ENG2.         Dair Mahammadov:  Engineer 2 
 ENG3.       Davud Huseyn-zada:  Engineer 3 
 ENG4.         Yevgeniy Ulikov:  Engineer 4 
 ETIM.      17.45.20 17-Aug-21:  End Time 
 FLOI.gpm              1197.70:  Flow In 
 FLON.gpm              1100.00:  Flow In Min 
 FLOS.cptm                0.00:  Fluid Loss 
 FLOX.gpm              1200.00:  Flow In Max 
 DFT .        Mineral Oil Base:  Mud Type 
 FTRO.       Formation Presure:  FTWD Run Obj 
 HFLO.                      No:  High Flow 
 HPRE.                      No:  High Pressure 
 HTEM.                      No:  High Temp 
 HYDO.m                   1.80:  Hydro Offset 
 IFIN.deg                 9.87:  Inc, Final 
 IMAX.deg                19.96:  Inc Max 
 IMIN.deg                 3.82:  Inc Min 
 IMND.m                3257.42:  Inc Min Depth 
 IMXD.m                2945.53:  Inc Max Depth 
 JARR.                      No:  Jarring 
 LETM.      11.42.20 11-Aug-21:  Log End Time 
 LOST.hr                     0:  Lost Rig Time 
 LSTM.      23.03.20 08-Aug-21:  Log Start Time 
 MDCL.ppm             42500.00:  Mud Chlorides 
 MDES.     Inversion Oil/Synthetic:  Mud Desc 
 DFD .sg                  1.45:  Mud Density 
 MDMN.sg                  1.39:  Dens Mud Min 
 MDMX.sg                  1.57:  Dens Mud Max 
 MOIL.                   53.20:  Run Mud Oil % 
 MOWR.                   70:30:  Run Mud OWR 
 MSND.                       0:  Run Mud Sand % 
 MSOL.                   24.30:  Run Mud Solids% 
 DFV .spqt               79.00:  Mud Viscosity 
 MWOD.in                  8.00:  MWD Tool OD 
 MWSI.                      No:  Serv Intrp, MWD 
 OTIM.hr                253.06:  Time Operating 
 PCON.           Look Like New:  Pad Condition 
 PMAX.psia            11068.93:  Press Op, Max 
 PV  .cP                 36.00:  Mud PV 
 RUN .                    1000:  Run Number 
 ROPA.m/hr               15.34:  ROP Avg 
 ROPN.m/hr                4.00:  ROP Min 
 ROPX.m/hr               31.00:  ROP Max 
 RPMA.rpm               151.40:  RPM Surface Avg 
 RPMN.rpm               120.00:  RPM Surface Min 
 RPMX.rpm               160.00:  RPM Surface Max 
 RRUN.                    L505:  Rig Run Number 
 RTIM.hr                 10.00:  Time Reaming 
 SAZI.deg                88.92:  Azm, Start 
 SDEP.m                2789.00:  Start Depth 
 SIDD.                      No:  Serv Intrp, DD 
 SINC.deg                19.84:  Inc, Start 
 SPPA.psig             4421.39:  SPP Avg 
 SPPN.psig             4130.00:  SPP Min 
 SPPX.psig             4800.00:  SPP Max 
 STIM.      01.25.20 07-Aug-21:  Start Time 
 SVCS.                 DD, MWD:  Services 
 SVER.                    9.20:  Sperry Version 
 TDAT.m                 699.00:  Tot Depth Attmp 
 TDDF.                      No:  Trip for DD 
 TDLG.m                 699.00:  Tot Depth Loggd 
 TFF .                      No:  Trip for Fail 
 TQAA.f-kp               20.55:  Torque Abs Avg 
 TQAN.f-kp               15.00:  Torque Abs Min 
 TQAX.f-kp               24.00:  Torque Abs Max 
 TRRT.°/30m               0.50:  Turn Rotating 
 MRT .                    HCIM:  Maximum Recorded Temperature 
 TTMX.degC               82.35:  Max Tool Temp 
 VS01.                90654677:  Virtual Str1 SN 
 VS02.                90636294:  Virtual Str2 SN 
 VS03.                90653866:  Virtual Str3 SN 
 VS04.                90654674:  Virtual Str4 SN 
 WBMN.klb                10.00:  WOB Min 
 WITN.         Haytham Mostafa:  Customer Rep 
 WITN.           Rufat Babayev:  Customer Rep 2 
 WOBA.klb                22.43:  WOB Avg 
 WOBX.klb                35.00:  WOB Max 
 YP  .lhf2               32.00:  Yield Point 
~Curve Information Block
#MNEM.UNIT                 API CODE     Curve Description
#---------               -----------    ---------------------------
 TIME.HHMMSS            00 000 000 000:  GT Time & Date
 GTDEPTH.m              00 000 000 000:  GT Depth
 GTPQH.psia             00 000 000 000:  GT HR Quartz Pressure
 GTTQ.degC              00 000 000 000:  GT Quartz Temperature
 GTTN.NONE              00 000 000 000:  GT Test Number
 GTET.sec               00 000 000 000:  GT Elapsed Test Time
 GTTVD.m                00 000 000 000:  GT True Vertical Depth
#Other Information
#
#WARRANTY: Halliburton will use its best efforts to furnish customers with 
#accurate information and interpretations that are part of, and incident to, the services 
#provided.  However, Halliburton cannot and does not warrant the accuracy 
#or correctness of such information and interpretations.  Under no circumstances should any 
#such information or interpretation be relied upon as the sole basis for any drilling, 
#completion, production, or financial decision or any procedure involving any risk to the 
#safety of any drilling venture, drilling rig or its crew or any other third party.  The 
#Customer has full responsibility for all drilling, completion and production operation.  
#Halliburton makes no representations or warranties, either expressed or 
#implied, including, but not limited to, the implied warranties of merchantability or fitness 
#for a particular purpose, with respect to the services rendered.  In no event will 
#Halliburton be liable for failure to obtain any particular results or for 
#any damages, including, but not limited to, indirect, special or consequential damages, 
#resulting from the use of any information or interpretation provided by Halliburton.
#
~A           TIME           GTDEPTH  GTPQH  GTTQ  GTTN  GTET   GTTVD  
# ...
   06:53:10.697.15-Aug-2021 3437.50 7511.91 58.01 1.00  46.00 3289.56
   06:53:10.897.15-Aug-2021 3437.50 7511.91 58.01 1.00  46.20 3289.56
   06:53:11.097.15-Aug-2021 3437.50 7513.23 58.01 1.00  46.40 3289.56
   06:53:11.297.15-Aug-2021 3437.50 7512.62 58.01 1.00  46.60 3289.56
   06:53:11.497.15-Aug-2021 3437.50 7511.30 58.01 1.00  46.80 3289.56
   06:53:11.697.15-Aug-2021 3437.50 7512.35 58.01 1.00  47.00 3289.56
   06:53:11.897.15-Aug-2021 3437.50 7512.35 58.01 1.00  47.20 3289.56
   06:53:12.097.15-Aug-2021 3437.50 7512.67 58.01 1.00  47.40 3289.56
   06:53:12.297.15-Aug-2021 3437.50 7512.00 58.01 1.00  47.60 3289.56
   06:53:12.497.15-Aug-2021 3437.50 7510.30 58.01 1.00  47.80 3289.56
   06:53:12.697.15-Aug-2021 3437.50 7511.96 58.01 1.00  48.00 3289.56
   06:53:12.897.15-Aug-2021 3437.50 7511.96 58.01 1.00  48.20 3289.56
   06:53:13.097.15-Aug-2021 3437.50 7512.92 58.01 1.00  48.40 3289.56
   06:53:13.297.15-Aug-2021 3437.50 7509.81 58.01 1.00  48.60 3289.56
   06:53:13.497.15-Aug-2021 3437.50 7511.50 58.01 1.00  48.80 3289.56
   06:53:13.697.15-Aug-2021 3437.50 7511.91 58.01 1.00  49.00 3289.56
   06:53:13.897.15-Aug-2021 3437.50 7511.91 58.01 1.00  49.20 3289.56
   06:53:14.097.15-Aug-2021 3437.50 7513.24 58.01 1.00  49.40 3289.56
   06:53:14.297.15-Aug-2021 3437.50 7512.50 58.01 1.00  49.60 3289.56
   06:53:14.497.15-Aug-2021 3437.50 7511.50 58.01 1.00  49.80 3289.56
   06:53:14.697.15-Aug-2021 3437.50 7510.60 58.01 1.00  50.00 3289.56
   06:53:14.897.15-Aug-2021 3437.50 7510.60 58.01 1.00  50.20 3289.56
   06:53:15.097.15-Aug-2021 3437.50 7511.83 58.01 1.00  50.40 3289.56
   06:53:15.297.15-Aug-2021 3437.50 7513.46 58.01 1.00  50.60 3289.56
   06:53:15.497.15-Aug-2021 3437.50 7511.86 58.01 1.00  50.80 3289.56
   06:53:15.697.15-Aug-2021 3437.50 7511.34 58.01 1.00  51.00 3289.56
   06:53:15.897.15-Aug-2021 3437.50 7511.34 58.01 1.00  51.20 3289.56
   06:53:16.097.15-Aug-2021 3437.50 7514.07 58.01 1.00  51.40 3289.56
   06:53:16.297.15-Aug-2021 3437.50 7513.31 58.01 1.00  51.60 3289.56
   06:53:16.497.15-Aug-2021 3437.50 7511.53 58.01 1.00  51.80 3289.56
   06:53:16.697.15-Aug-2021 3437.50 7510.91 58.01 1.00  52.00 3289.56
   06:53:16.897.15-Aug-2021 3437.50 7510.91 58.01 1.00  52.20 3289.56
   06:53:17.097.15-Aug-2021 3437.50 7512.16 58.01 1.00  52.40 3289.56
   06:53:17.297.15-Aug-2021 3437.50 7511.77 58.01 1.00  52.60 3289.56
   06:53:17.497.15-Aug-2021 3437.50 7512.72 58.01 1.00  52.80 3289.56
   06:53:17.697.15-Aug-2021 3437.50 7512.64 58.01 1.00  53.00 3289.56
   06:53:17.897.15-Aug-2021 3437.50 7512.64 58.01 1.00  53.20 3289.56
   06:53:18.097.15-Aug-2021 3437.50 7512.79 58.01 1.00  53.40 3289.56
   06:53:18.297.15-Aug-2021 3437.50 7512.11 58.01 1.00  53.60 3289.56
   06:53:18.497.15-Aug-2021 3437.50 7509.75 58.01 1.00  53.80 3289.56
   06:53:18.697.15-Aug-2021 3437.50 7511.24 58.01 1.00  54.00 3289.56
   06:53:18.897.15-Aug-2021 3437.50 7511.24 58.01 1.00  54.20 3289.56
   06:53:19.097.15-Aug-2021 3437.50 7512.91 58.01 1.00  54.40 3289.56
   06:53:19.297.15-Aug-2021 3437.50 7513.29 58.01 1.00  54.60 3289.56
   06:53:19.497.15-Aug-2021 3437.50 7512.41 58.01 1.00  54.80 3289.56
   06:53:19.697.15-Aug-2021 3437.50 7511.33 58.01 1.00  55.00 3289.56
   06:53:19.897.15-Aug-2021 3437.50 7511.33 58.01 1.00  55.20 3289.56
   06:53:20.097.15-Aug-2021 3437.50 7511.52 58.01 1.00  55.40 3289.56
   06:53:20.297.15-Aug-2021 3437.50 7512.41 58.01 1.00  55.60 3289.56
   06:53:20.497.15-Aug-2021 3437.50 7513.23 58.01 1.00  55.80 3289.56
   06:53:20.697.15-Aug-2021 3437.50 7511.48 58.01 1.00  56.00 3289.56
   06:53:20.898.15-Aug-2021 3437.50 7511.48 58.01 1.00  56.20 3289.56
   06:53:21.098.15-Aug-2021 3437.50 7511.07 58.01 1.00  56.40 3289.56
   06:53:21.298.15-Aug-2021 3437.50 7514.63 58.01 1.00  56.60 3289.56
   06:53:21.498.15-Aug-2021 3437.50 7512.57 58.01 1.00  56.80 3289.56
   06:53:21.698.15-Aug-2021 3437.50 7511.65 58.01 1.00  57.00 3289.56
   06:53:21.898.15-Aug-2021 3437.50 7511.65 58.01 1.00  57.20 3289.56
   06:53:22.098.15-Aug-2021 3437.50 7510.76 58.01 1.00  57.40 3289.56
   06:53:22.298.15-Aug-2021 3437.50 7514.62 58.01 1.00  57.60 3289.56
   06:53:22.498.15-Aug-2021 3437.50 7513.88 58.01 1.00  57.80 3289.56
   06:53:22.698.15-Aug-2021 3437.50 7514.86 58.01 1.00  58.00 3289.56
   06:53:22.898.15-Aug-2021 3437.50 7514.86 58.01 1.00  58.20 3289.56
   06:53:23.098.15-Aug-2021 3437.50 7511.62 58.01 1.00  58.40 3289.56
   06:53:23.298.15-Aug-2021 3437.50 7516.14 58.01 1.00  58.60 3289.56
   06:53:23.498.15-Aug-2021 3437.50 7529.00 58.01 1.00  58.80 3289.56
   06:53:23.698.15-Aug-2021 3437.50 7549.65 58.01 1.00  59.00 3289.56
   06:53:23.898.15-Aug-2021 3437.50 7549.65 58.01 1.00  59.20 3289.56
   06:53:24.098.15-Aug-2021 3437.50 7586.67 58.01 1.00  59.40 3289.56
   06:53:24.298.15-Aug-2021 3437.50 7607.85 58.01 1.00  59.60 3289.56
   06:53:24.498.15-Aug-2021 3437.50 7634.91 58.01 1.00  59.80 3289.56
   06:53:24.698.15-Aug-2021 3437.50 7660.33 58.01 1.00  60.00 3289.56
   06:53:24.898.15-Aug-2021 3437.50 7660.33 58.01 1.00  60.20 3289.56
   06:53:25.098.15-Aug-2021 3437.50 7711.81 58.01 1.00  60.40 3289.56
   06:53:25.298.15-Aug-2021 3437.50 7740.90 58.01 1.00  60.60 3289.56
   06:53:25.498.15-Aug-2021 3437.50 7773.09 58.01 1.00  60.80 3289.56
   06:53:25.698.15-Aug-2021 3437.50 7797.32 58.01 1.00  61.00 3289.56
   06:53:25.898.15-Aug-2021 3437.50 7797.32 58.01 1.00  61.20 3289.56
   06:53:26.098.15-Aug-2021 3437.50 7863.40 58.01 1.00  61.40 3289.56
   06:53:26.298.15-Aug-2021 3437.50 7890.76 58.01 1.00  61.60 3289.56
   06:53:26.498.15-Aug-2021 3437.50 7910.04 58.01 1.00  61.80 3289.56
   06:53:26.698.15-Aug-2021 3437.50 7923.71 58.01 1.00  62.00 3289.56
   06:53:26.898.15-Aug-2021 3437.50 7923.71 58.01 1.00  62.20 3289.56
   06:53:27.098.15-Aug-2021 3437.50 7951.82 58.01 1.00  62.40 3289.56
   06:53:27.298.15-Aug-2021 3437.50 7976.49 58.01 1.00  62.60 3289.56
   06:53:27.498.15-Aug-2021 3437.50 8000.18 58.01 1.00  62.80 3289.56
   06:53:27.698.15-Aug-2021 3437.50 8014.69 58.01 1.00  63.00 3289.56
   06:53:27.898.15-Aug-2021 3437.50 8014.69 58.01 1.00  63.20 3289.56
   06:53:28.098.15-Aug-2021 3437.50 8049.89 58.01 1.00  63.40 3289.56
   06:53:28.298.15-Aug-2021 3437.50 8065.06 58.01 1.00  63.60 3289.56
   06:53:28.498.15-Aug-2021 3437.50 8078.98 58.01 1.00  63.80 3289.56
   06:53:28.698.15-Aug-2021 3437.50 8093.95 58.01 1.00  64.00 3289.56
   06:53:28.898.15-Aug-2021 3437.50 8093.95 58.01 1.00  64.20 3289.56
   06:53:29.098.15-Aug-2021 3437.50 8110.87 58.01 1.00  64.40 3289.56
   06:53:29.298.15-Aug-2021 3437.50 8120.03 58.01 1.00  64.60 3289.56
   06:53:29.498.15-Aug-2021 3437.50 8126.25 58.01 1.00  64.80 3289.56
   06:53:29.698.15-Aug-2021 3437.50 8140.66 58.01 1.00  65.00 3289.56
   06:53:29.898.15-Aug-2021 3437.50 8140.66 58.01 1.00  65.20 3289.56
   06:53:30.098.15-Aug-2021 3437.50 8175.61 58.01 1.00  65.40 3289.56
   06:53:30.298.15-Aug-2021 3437.50 8181.51 58.01 1.00  65.60 3289.56
   06:53:30.498.15-Aug-2021 3437.50 8187.96 58.01 1.00  65.80 3289.56
   06:53:30.698.15-Aug-2021 3437.50 8195.63 58.01 1.00  66.00 3289.56
   06:53:30.898.15-Aug-2021 3437.50 8195.63 58.01 1.00  66.20 3289.56
   06:53:31.098.15-Aug-2021 3437.50 8223.90 58.02 1.00  66.40 3289.56
   06:53:31.298.15-Aug-2021 3437.50 8223.90 58.02 1.00  66.60 3289.56
   06:53:31.498.15-Aug-2021 3437.50 8236.94 58.02 1.00  66.80 3289.56
   06:53:31.698.15-Aug-2021 3437.50 8241.02 58.02 1.00  67.00 3289.56
   06:53:31.898.15-Aug-2021 3437.50 8241.02 58.02 1.00  67.20 3289.56
   06:53:32.098.15-Aug-2021 3437.50 7512.71 58.02 1.00  67.40 3289.56
   06:53:32.298.15-Aug-2021 3437.50 7402.28 58.02 1.00  67.60 3289.56
   06:53:32.498.15-Aug-2021 3437.50 7271.90 58.02 1.00  67.80 3289.56
   06:53:32.698.15-Aug-2021 3437.50 7110.79 58.02 1.00  68.00 3289.56
   06:53:32.898.15-Aug-2021 3437.50 7110.79 58.02 1.00  68.20 3289.56
   06:53:33.098.15-Aug-2021 3437.50 6455.15 58.02 1.00  68.40 3289.56
   06:53:33.298.15-Aug-2021 3437.50 6000.44 58.02 1.00  68.60 3289.56
   06:53:33.498.15-Aug-2021 3437.50 5517.13 58.02 1.00  68.80 3289.56
