~Version Information
 VERS.                  2.0:   CWLS log ASCII Standard -VERSION 2.0
 WRAP.                   NO:   One line per depth step
~Well Information Block
#MNEM.UNIT     VALUE/NAME     DESCRIPTION
#---------     -----------    ---------------------------
 STRT.S             06:52:24 15-Aug-21: START TIME 06:52:24 15-Aug-21
 STOP.S             06:59:28 15-Aug-21: STOP TIME  06:59:28 15-Aug-21
 STEP.S                   0.00: STEP TIME
 NULL.                 -999.25: NULL VALUE
 DFWT.                        :  DIST FWL TEXT
 DFST.                        :  DIST FSL TEXT
 DMF .             Drill Floor:  DRILL MEAS FROM
 STIM.      17.18.56 20-Jun-21:  START TIME
 DATE.      17.18.56 20-Aug-21:  END TIME
 SPUD.               20-Jun-21:  SPUD DATE
 NREF.                    Grid:  NORTH REFERENCE
 HPTY.       Minimum Curvature:  HOLE POS TYPE
 DMOD.             Drill Model:  DRILL MOD DESC
 SVYD.                  Survey:  SURVEY DESC
 ILTD.               Lithology:  INTERP LTH DESC
 FTOP.          Formation Tops:  FORM TOPS DESC
 SON .        AZ-XX-0907056190:  JOB NUMBER
 PDAT.       Caspian Sea Level:  PERMANENT DATUM
 WTYP.                Deviated:  WELL TYPE
 MDS .        Operator Entered:  MAG DATA SOURCE
 COMP.     BP Exploration (Caspian Sea) Ltd.:  COMPANY
 UWI .            /AZE20000092:  UNIQUE WELL IDENTIFIER
 API .            /AZE20000092:  API NUMBER
 BASE.              Azerbaijan:  LOGGING EQUIPMENT BASE LOCATION
 REGN.                   EESSA:  REGION
 PROV.                    baku:  PROVINCE
 STAT.                    baku:  STATE NAME
 CTRY.              Azerbaijan:  COUNTRY NAME
 FLD .                     ACG:  FIELD NAME
 SRVC.          Turan Drilling:  CONTRACTOR
 MWDS.                    Baku:  MWD SHOP
 WELL.                     J26:  WELL NAME
 JOBN.        AZ-XX-0907056190:  JOB TICKET NUMB
 RIG .             West Chirag:  RIG NAME
 DOE .                     N/A:  DOE NUMBER
 DCON.         Sperry Drilling:  DIRECTNL CONTR
 UNIT.                     N/A:  LOGGING EQUIPMENT ID
 CNTY.                        :  COUNTY
 LOC .                        :  LOCATION
 LMF .             Drill Floor:  LOG MEASURED FROM
 TVDS.m                  43.00:  TVDSS CORRECTN
 LATI.deg                40.13:  LATITUDE
 LONG.deg                51.22:  LONGITUDE
 WHNS.m                  -7.12:  WELL HEAD N/S
 WHEW.m                  -9.46:  WELL HEAD E/W
 UTMX.m              519004.02:  UTM X
 UTMY.m             4443784.96:  UTM Y
 DFWL.m                   0.00:  DISTANCE FWL
 DFSL.m                   0.00:  DISTANCE FSL
 SDEP.m                 464.00:  START DEPTH
 TDD .m                3500.00:  TOTAL DEPTH (DRILLER)
 VSDR.deg               114.35:  VERT SEC DIRECT
 GVFD.g                   1.00:  GRAVITY FIELD
 MFLD.nT              50386.00:  MAGNETIC FIELD
 MDIP.deg                59.63:  MAGNETIC DIP
 MDEC.deg                 6.43:  MAGNETIC DECL
 GRDC.deg                 0.15:  GRID CORRECTION
 AZTC.deg                 6.29:  AZM TOTAL CORR
 EPD .m                   0.00:  ELEVATION
 EGL .m                   0.00:  GROUND ELEVATION
 WDMS.m                 169.80:  WD ELEV
 APD .m                  43.00:  DEPTH ABOVE PD
 VSEW.m                  -9.46:  VERT SEC E/W
 VSNS.m                  -7.12:  VERT SEC N/S
 AGAP.m                  43.00:  AIR GAP
 DEP .m                 356.16:  DEPTH
 EKB .m                  43.00:  KB ELEVATION
 EDF .m                  43.00:  DF ELEVATION
 TDL .m                 699.00:  TOTAL DEPTH (LOGGER)
 VSC .                       0:  VS TO CLOSURE
 MAGU.                 1853727:  MAGUTM CHECKSUM
~Parameter Information Block
#MNEM.UNIT       Value        Description
#---------     -----------    ---------------------------
 AV  .mps                 1.30:  Ann Velocity 
 AVMX.mps                 1.67:  Max Ann Veloc 
 AZIF.deg               280.40:  Azm, Final 
 BHAT.        Rotary Steerable:  BHA Type 
 BREV.rev            528970.00:  Rev Bit Total 
 BROT.°/30m               1.00:  Build Rotating 
 BS  .in                 12.25:  Bit Size 
 BSZ .in                 12.25:  Bit Size 
 BTPL.psig              738.00:  Bit Press Loss 
 CABU.                     Yes:  Customer Abuse 
 CGEO.        Elvin Suleymanov:  Customer Geo 
 COMM.                     ¬kS:  Run Comments 1 
 TCS .hr                 66.05:  Time Ciculation Ended 
 CV  .mps                 2.20:  Crit Velocity 
 CVMX.mps                 2.56:  Max Crit Veloc 
 DD1 .          Rashad Habibov:  Direct Drillr 1 
 DD2 .            Azer ravanov:  Direct Drillr 2 
 DD3 .           Teymur Agayev:  Direct Drillr 3 
 DDSV.               Geo-Pilot:  DD Service 
 DEFF.%                  90.00:  % Det Eff 
 DLRX.°/30m               2.95:  Dogleg Rot Max 
 DLSO.°/30m               1.00:  Dogleg Oriented 
 DLSX.°/30m               2.95:  Dogleg Str Max 
 DRET.      11.42.20 11-Aug-21:  Drill End Time 
 DRST.      23.03.20 08-Aug-21:  Drill Start Tim 
 DTIM.hr                 45.50:  Time Drilling 
 EDEP.m                3488.00:  End Depth 
 ENG1.         Marcelo Marcari:  Engineer 1 
 ENG2.         Dair Mahammadov:  Engineer 2 
 ENG3.       Davud Huseyn-zada:  Engineer 3 
 ENG4.         Yevgeniy Ulikov:  Engineer 4 
 ETIM.      17.45.20 17-Aug-21:  End Time 
 FLOI.gpm              1197.70:  Flow In 
 FLON.gpm              1100.00:  Flow In Min 
 FLOS.cptm                0.00:  Fluid Loss 
 FLOX.gpm              1200.00:  Flow In Max 
 DFT .        Mineral Oil Base:  Mud Type 
 FTRO.       Formation Presure:  FTWD Run Obj 
 HFLO.                      No:  High Flow 
 HPRE.                      No:  High Pressure 
 HTEM.                      No:  High Temp 
 HYDO.m                   1.80:  Hydro Offset 
 IFIN.deg                 9.87:  Inc, Final 
 IMAX.deg                19.96:  Inc Max 
 IMIN.deg                 3.82:  Inc Min 
 IMND.m                3257.42:  Inc Min Depth 
 IMXD.m                2945.53:  Inc Max Depth 
 JARR.                      No:  Jarring 
 LETM.      11.42.20 11-Aug-21:  Log End Time 
 LOST.hr                     0:  Lost Rig Time 
 LSTM.      23.03.20 08-Aug-21:  Log Start Time 
 MDCL.ppm             42500.00:  Mud Chlorides 
 MDES.     Inversion Oil/Synthetic:  Mud Desc 
 DFD .sg                  1.45:  Mud Density 
 MDMN.sg                  1.39:  Dens Mud Min 
 MDMX.sg                  1.57:  Dens Mud Max 
 MOIL.                   53.20:  Run Mud Oil % 
 MOWR.                   70:30:  Run Mud OWR 
 MSND.                       0:  Run Mud Sand % 
 MSOL.                   24.30:  Run Mud Solids% 
 DFV .spqt               79.00:  Mud Viscosity 
 MWOD.in                  8.00:  MWD Tool OD 
 MWSI.                      No:  Serv Intrp, MWD 
 OTIM.hr                253.06:  Time Operating 
 PCON.           Look Like New:  Pad Condition 
 PMAX.psia            11068.93:  Press Op, Max 
 PV  .cP                 36.00:  Mud PV 
 RUN .                    1000:  Run Number 
 ROPA.m/hr               15.34:  ROP Avg 
 ROPN.m/hr                4.00:  ROP Min 
 ROPX.m/hr               31.00:  ROP Max 
 RPMA.rpm               151.40:  RPM Surface Avg 
 RPMN.rpm               120.00:  RPM Surface Min 
 RPMX.rpm               160.00:  RPM Surface Max 
 RRUN.                    L505:  Rig Run Number 
 RTIM.hr                 10.00:  Time Reaming 
 SAZI.deg                88.92:  Azm, Start 
 SDEP.m                2789.00:  Start Depth 
 SIDD.                      No:  Serv Intrp, DD 
 SINC.deg                19.84:  Inc, Start 
 SPPA.psig             4421.39:  SPP Avg 
 SPPN.psig             4130.00:  SPP Min 
 SPPX.psig             4800.00:  SPP Max 
 STIM.      01.25.20 07-Aug-21:  Start Time 
 SVCS.                 DD, MWD:  Services 
 SVER.                    9.20:  Sperry Version 
 TDAT.m                 699.00:  Tot Depth Attmp 
 TDDF.                      No:  Trip for DD 
 TDLG.m                 699.00:  Tot Depth Loggd 
 TFF .                      No:  Trip for Fail 
 TQAA.f-kp               20.55:  Torque Abs Avg 
 TQAN.f-kp               15.00:  Torque Abs Min 
 TQAX.f-kp               24.00:  Torque Abs Max 
 TRRT.°/30m               0.50:  Turn Rotating 
 MRT .                    HCIM:  Maximum Recorded Temperature 
 TTMX.degC               82.35:  Max Tool Temp 
 VS01.                90654677:  Virtual Str1 SN 
 VS02.                90636294:  Virtual Str2 SN 
 VS03.                90653866:  Virtual Str3 SN 
 VS04.                90654674:  Virtual Str4 SN 
 WBMN.klb                10.00:  WOB Min 
 WITN.         Haytham Mostafa:  Customer Rep 
 WITN.           Rufat Babayev:  Customer Rep 2 
 WOBA.klb                22.43:  WOB Avg 
 WOBX.klb                35.00:  WOB Max 
 YP  .lhf2               32.00:  Yield Point 
~Curve Information Block
#MNEM.UNIT                 API CODE     Curve Description
#---------               -----------    ---------------------------
 TIME.HHMMSS            00 000 000 000:  GT Time & Date
 GTDEPTH.m              00 000 000 000:  GT Depth
 GTPQH.psia             00 000 000 000:  GT HR Quartz Pressure
 GTTQ.degC              00 000 000 000:  GT Quartz Temperature
 GTTN.NONE              00 000 000 000:  GT Test Number
 GTET.sec               00 000 000 000:  GT Elapsed Test Time
 GTTVD.m                00 000 000 000:  GT True Vertical Depth
#Other Information
#
#WARRANTY: Halliburton will use its best efforts to furnish customers with 
#accurate information and interpretations that are part of, and incident to, the services 
#provided.  However, Halliburton cannot and does not warrant the accuracy 
#or correctness of such information and interpretations.  Under no circumstances should any 
#such information or interpretation be relied upon as the sole basis for any drilling, 
#completion, production, or financial decision or any procedure involving any risk to the 
#safety of any drilling venture, drilling rig or its crew or any other third party.  The 
#Customer has full responsibility for all drilling, completion and production operation.  
#Halliburton makes no representations or warranties, either expressed or 
#implied, including, but not limited to, the implied warranties of merchantability or fitness 
#for a particular purpose, with respect to the services rendered.  In no event will 
#Halliburton be liable for failure to obtain any particular results or for 
#any damages, including, but not limited to, indirect, special or consequential damages, 
#resulting from the use of any information or interpretation provided by Halliburton.
#
~A           TIME           GTDEPTH  GTPQH  GTTQ  GTTN  GTET   GTTVD  
# ...
   06:54:42.703.15-Aug-2021 3437.50 5218.73 57.97 1.00 138.01 3289.56
   06:54:42.903.15-Aug-2021 3437.50 5218.73 57.97 1.00 138.21 3289.56
   06:54:43.103.15-Aug-2021 3437.50 5218.47 57.97 1.00 138.41 3289.56
   06:54:43.303.15-Aug-2021 3437.50 5218.72 57.97 1.00 138.61 3289.56
   06:54:43.503.15-Aug-2021 3437.50 5219.10 57.97 1.00 138.81 3289.56
   06:54:43.703.15-Aug-2021 3437.50 5218.59 57.97 1.00 139.01 3289.56
   06:54:43.903.15-Aug-2021 3437.50 5218.59 57.97 1.00 139.21 3289.56
   06:54:44.103.15-Aug-2021 3437.50 5218.59 57.97 1.00 139.41 3289.56
   06:54:44.303.15-Aug-2021 3437.50 5218.85 57.97 1.00 139.61 3289.56
   06:54:44.503.15-Aug-2021 3437.50 5218.88 57.97 1.00 139.81 3289.56
   06:54:44.703.15-Aug-2021 3437.50 5218.31 57.97 1.00 140.01 3289.56
   06:54:44.903.15-Aug-2021 3437.50 5218.31 57.97 1.00 140.21 3289.56
   06:54:45.103.15-Aug-2021 3437.50 5218.28 57.97 1.00 140.41 3289.56
   06:54:45.303.15-Aug-2021 3437.50 5218.87 57.97 1.00 140.61 3289.56
   06:54:45.503.15-Aug-2021 3437.50 5218.83 57.97 1.00 140.81 3289.56
   06:54:45.704.15-Aug-2021 3437.50 5218.39 57.97 1.00 141.01 3289.56
   06:54:45.904.15-Aug-2021 3437.50 5218.39 57.97 1.00 141.21 3289.56
   06:54:46.104.15-Aug-2021 3437.50 5218.44 57.97 1.00 141.41 3289.56
   06:54:46.304.15-Aug-2021 3437.50 5219.00 57.97 1.00 141.61 3289.56
   06:54:46.504.15-Aug-2021 3437.50 5218.16 57.97 1.00 141.81 3289.56
   06:54:46.704.15-Aug-2021 3437.50 5218.88 57.97 1.00 142.01 3289.56
   06:54:46.904.15-Aug-2021 3437.50 5218.88 57.97 1.00 142.21 3289.56
   06:54:47.104.15-Aug-2021 3437.50 5219.15 57.97 1.00 142.41 3289.56
   06:54:47.304.15-Aug-2021 3437.50 5218.18 57.97 1.00 142.61 3289.56
   06:54:47.504.15-Aug-2021 3437.50 5218.72 57.97 1.00 142.81 3289.56
   06:54:47.704.15-Aug-2021 3437.50 5218.43 57.97 1.00 143.01 3289.56
   06:54:47.904.15-Aug-2021 3437.50 5218.43 57.97 1.00 143.21 3289.56
   06:54:48.104.15-Aug-2021 3437.50 5218.35 57.97 1.00 143.41 3289.56
   06:54:48.304.15-Aug-2021 3437.50 5218.49 57.97 1.00 143.61 3289.56
   06:54:48.504.15-Aug-2021 3437.50 5218.62 57.97 1.00 143.81 3289.56
   06:54:48.704.15-Aug-2021 3437.50 5218.59 57.97 1.00 144.01 3289.56
   06:54:48.904.15-Aug-2021 3437.50 5218.59 57.97 1.00 144.21 3289.56
   06:54:49.104.15-Aug-2021 3437.50 5218.18 57.97 1.00 144.41 3289.56
   06:54:49.304.15-Aug-2021 3437.50 5218.46 57.97 1.00 144.61 3289.56
   06:54:49.504.15-Aug-2021 3437.50 5218.46 57.97 1.00 144.81 3289.56
   06:54:49.704.15-Aug-2021 3437.50 5218.51 57.97 1.00 145.01 3289.56
   06:54:49.904.15-Aug-2021 3437.50 5218.51 57.97 1.00 145.21 3289.56
   06:54:50.104.15-Aug-2021 3437.50 5218.98 57.97 1.00 145.41 3289.56
   06:54:50.304.15-Aug-2021 3437.50 5218.23 57.97 1.00 145.61 3289.56
   06:54:50.504.15-Aug-2021 3437.50 5218.37 57.97 1.00 145.81 3289.56
   06:54:50.704.15-Aug-2021 3437.50 5218.55 57.97 1.00 146.01 3289.56
   06:54:50.904.15-Aug-2021 3437.50 5218.55 57.97 1.00 146.21 3289.56
   06:54:51.104.15-Aug-2021 3437.50 5218.59 57.97 1.00 146.41 3289.56
   06:54:51.304.15-Aug-2021 3437.50 5218.75 57.97 1.00 146.61 3289.56
   06:54:51.504.15-Aug-2021 3437.50 5218.23 57.97 1.00 146.81 3289.56
   06:54:51.704.15-Aug-2021 3437.50 5218.52 57.97 1.00 147.01 3289.56
   06:54:51.904.15-Aug-2021 3437.50 5218.52 57.97 1.00 147.21 3289.56
   06:54:52.104.15-Aug-2021 3437.50 5218.72 57.97 1.00 147.41 3289.56
   06:54:52.304.15-Aug-2021 3437.50 5218.55 57.97 1.00 147.61 3289.56
   06:54:52.504.15-Aug-2021 3437.50 5218.02 57.97 1.00 147.81 3289.56
   06:54:52.704.15-Aug-2021 3437.50 5218.84 57.97 1.00 148.01 3289.56
   06:54:52.904.15-Aug-2021 3437.50 5218.84 57.97 1.00 148.21 3289.56
   06:54:53.104.15-Aug-2021 3437.50 5218.61 57.97 1.00 148.41 3289.56
   06:54:53.304.15-Aug-2021 3437.50 5218.47 57.97 1.00 148.61 3289.56
   06:54:53.504.15-Aug-2021 3437.50 5218.20 57.97 1.00 148.81 3289.56
   06:54:53.704.15-Aug-2021 3437.50 5218.60 57.97 1.00 149.01 3289.56
   06:54:53.904.15-Aug-2021 3437.50 5218.60 57.97 1.00 149.21 3289.56
   06:54:54.104.15-Aug-2021 3437.50 5218.91 57.97 1.00 149.41 3289.56
   06:54:54.304.15-Aug-2021 3437.50 5217.95 57.97 1.00 149.61 3289.56
   06:54:54.504.15-Aug-2021 3437.50 5218.70 57.97 1.00 149.81 3289.56
   06:54:54.704.15-Aug-2021 3437.50 5218.34 57.97 1.00 150.01 3289.56
   06:54:54.904.15-Aug-2021 3437.50 5218.34 57.97 1.00 150.21 3289.56
   06:54:55.104.15-Aug-2021 3437.50 5218.09 57.97 1.00 150.41 3289.56
   06:54:55.304.15-Aug-2021 3437.50 5218.65 57.97 1.00 150.61 3289.56
   06:54:55.504.15-Aug-2021 3437.50 5218.34 57.97 1.00 150.81 3289.56
   06:54:55.704.15-Aug-2021 3437.50 5218.43 57.97 1.00 151.01 3289.56
   06:54:55.904.15-Aug-2021 3437.50 5218.43 57.97 1.00 151.21 3289.56
   06:54:56.104.15-Aug-2021 3437.50 5218.45 57.97 1.00 151.41 3289.56
   06:54:56.304.15-Aug-2021 3437.50 5218.57 57.97 1.00 151.61 3289.56
   06:54:56.504.15-Aug-2021 3437.50 5218.52 57.97 1.00 151.81 3289.56
   06:54:56.704.15-Aug-2021 3437.50 5219.08 57.97 1.00 152.01 3289.56
   06:54:56.904.15-Aug-2021 3437.50 5219.08 57.97 1.00 152.21 3289.56
   06:54:57.104.15-Aug-2021 3437.50 5218.43 57.97 1.00 152.41 3289.56
   06:54:57.304.15-Aug-2021 3437.50 5218.40 57.97 1.00 152.61 3289.56
   06:54:57.504.15-Aug-2021 3437.50 5218.43 57.97 1.00 152.81 3289.56
   06:54:57.704.15-Aug-2021 3437.50 5218.64 57.97 1.00 153.01 3289.56
   06:54:57.904.15-Aug-2021 3437.50 5218.64 57.97 1.00 153.21 3289.56
   06:54:58.104.15-Aug-2021 3437.50 5218.18 57.97 1.00 153.41 3289.56
   06:54:58.304.15-Aug-2021 3437.50 5218.35 57.97 1.00 153.61 3289.56
   06:54:58.504.15-Aug-2021 3437.50 5218.45 57.97 1.00 153.81 3289.56
   06:54:58.704.15-Aug-2021 3437.50 5218.44 57.97 1.00 154.01 3289.56
   06:54:58.904.15-Aug-2021 3437.50 5218.44 57.97 1.00 154.21 3289.56
   06:54:59.104.15-Aug-2021 3437.50 5218.70 57.97 1.00 154.41 3289.56
   06:54:59.304.15-Aug-2021 3437.50 5218.19 57.97 1.00 154.61 3289.56
   06:54:59.504.15-Aug-2021 3437.50 5218.40 57.97 1.00 154.81 3289.56
   06:54:59.704.15-Aug-2021 3437.50 5218.62 57.97 1.00 155.01 3289.56
   06:54:59.905.15-Aug-2021 3437.50 5218.62 57.97 1.00 155.21 3289.56
   06:55:00.105.15-Aug-2021 3437.50 5218.48 57.97 1.00 155.41 3289.56
   06:55:00.305.15-Aug-2021 3437.50 5218.02 57.97 1.00 155.61 3289.56
   06:55:00.505.15-Aug-2021 3437.50 5218.71 57.97 1.00 155.81 3289.56
   06:55:00.705.15-Aug-2021 3437.50 5218.18 57.97 1.00 156.01 3289.56
   06:55:00.905.15-Aug-2021 3437.50 5218.18 57.97 1.00 156.21 3289.56
   06:55:01.105.15-Aug-2021 3437.50 5218.48 57.97 1.00 156.41 3289.56
   06:55:01.305.15-Aug-2021 3437.50 5218.19 57.97 1.00 156.61 3289.56
   06:55:01.505.15-Aug-2021 3437.50 5218.49 57.97 1.00 156.81 3289.56
   06:55:01.705.15-Aug-2021 3437.50 5218.30 57.97 1.00 157.01 3289.56
   06:55:01.905.15-Aug-2021 3437.50 5218.30 57.97 1.00 157.21 3289.56
   06:55:02.105.15-Aug-2021 3437.50 5217.91 57.97 1.00 157.41 3289.56
   06:55:02.305.15-Aug-2021 3437.50 5218.70 57.97 1.00 157.61 3289.56
   06:55:02.505.15-Aug-2021 3437.50 5218.21 57.97 1.00 157.81 3289.56
   06:55:02.705.15-Aug-2021 3437.50 5218.95 57.97 1.00 158.01 3289.56
   06:55:02.905.15-Aug-2021 3437.50 5218.95 57.97 1.00 158.21 3289.56
   06:55:03.105.15-Aug-2021 3437.50 5218.55 57.97 1.00 158.41 3289.56
   06:55:03.305.15-Aug-2021 3437.50 5218.30 57.97 1.00 158.61 3289.56
   06:55:03.505.15-Aug-2021 3437.50 5218.29 57.97 1.00 158.81 3289.56
   06:55:03.705.15-Aug-2021 3437.50 5218.18 57.97 1.00 159.01 3289.56
   06:55:03.905.15-Aug-2021 3437.50 5218.18 57.97 1.00 159.21 3289.56
   06:55:04.105.15-Aug-2021 3437.50 5218.46 57.97 1.00 159.41 3289.56
   06:55:04.305.15-Aug-2021 3437.50 5218.49 57.97 1.00 159.61 3289.56
   06:55:04.505.15-Aug-2021 3437.50 5218.93 57.97 1.00 159.81 3289.56
   06:55:04.705.15-Aug-2021 3437.50 5218.05 57.97 1.00 160.01 3289.56
   06:55:04.905.15-Aug-2021 3437.50 5218.05 57.97 1.00 160.21 3289.56
   06:55:05.105.15-Aug-2021 3437.50 5218.32 57.97 1.00 160.41 3289.56
   06:55:05.305.15-Aug-2021 3437.50 5218.42 57.97 1.00 160.61 3289.56
   06:55:05.505.15-Aug-2021 3437.50 5218.50 57.97 1.00 160.81 3289.56
