~Version Information
 VERS.                  2.0:   CWLS log ASCII Standard -VERSION 2.0
 WRAP.                   NO:   One line per depth step
~Well Information Block
#MNEM.UNIT     VALUE/NAME     DESCRIPTION
#---------     -----------    ---------------------------
 STRT.S             08:47:11 15-Aug-21: START TIME 08:47:11 15-Aug-21
 STOP.S             08:54:08 15-Aug-21: STOP TIME  08:54:08 15-Aug-21
 STEP.S                   0.00: STEP TIME
 NULL.                 -999.25: NULL VALUE
 DFWT.                        :  DIST FWL TEXT
 DFST.                        :  DIST FSL TEXT
 DMF .             Drill Floor:  DRILL MEAS FROM
 STIM.      17.18.56 20-Jun-21:  START TIME
 DATE.      17.18.56 20-Aug-21:  END TIME
 SPUD.               20-Jun-21:  SPUD DATE
 NREF.                    Grid:  NORTH REFERENCE
 HPTY.       Minimum Curvature:  HOLE POS TYPE
 DMOD.             Drill Model:  DRILL MOD DESC
 SVYD.                  Survey:  SURVEY DESC
 ILTD.               Lithology:  INTERP LTH DESC
 FTOP.          Formation Tops:  FORM TOPS DESC
 SON .        AZ-XX-0907056190:  JOB NUMBER
 PDAT.       Caspian Sea Level:  PERMANENT DATUM
 WTYP.                Deviated:  WELL TYPE
 MDS .        Operator Entered:  MAG DATA SOURCE
 COMP.     BP Exploration (Caspian Sea) Ltd.:  COMPANY
 UWI .            /AZE20000092:  UNIQUE WELL IDENTIFIER
 API .            /AZE20000092:  API NUMBER
 BASE.              Azerbaijan:  LOGGING EQUIPMENT BASE LOCATION
 REGN.                   EESSA:  REGION
 PROV.                    baku:  PROVINCE
 STAT.                    baku:  STATE NAME
 CTRY.              Azerbaijan:  COUNTRY NAME
 FLD .                     ACG:  FIELD NAME
 SRVC.          Turan Drilling:  CONTRACTOR
 MWDS.                    Baku:  MWD SHOP
 WELL.                     J26:  WELL NAME
 JOBN.        AZ-XX-0907056190:  JOB TICKET NUMB
 RIG .             West Chirag:  RIG NAME
 DOE .                     N/A:  DOE NUMBER
 DCON.         Sperry Drilling:  DIRECTNL CONTR
 UNIT.                     N/A:  LOGGING EQUIPMENT ID
 CNTY.                        :  COUNTY
 LOC .                        :  LOCATION
 LMF .             Drill Floor:  LOG MEASURED FROM
 TVDS.m                  43.00:  TVDSS CORRECTN
 LATI.deg                40.13:  LATITUDE
 LONG.deg                51.22:  LONGITUDE
 WHNS.m                  -7.12:  WELL HEAD N/S
 WHEW.m                  -9.46:  WELL HEAD E/W
 UTMX.m              519004.02:  UTM X
 UTMY.m             4443784.96:  UTM Y
 DFWL.m                   0.00:  DISTANCE FWL
 DFSL.m                   0.00:  DISTANCE FSL
 SDEP.m                 464.00:  START DEPTH
 TDD .m                3500.00:  TOTAL DEPTH (DRILLER)
 VSDR.deg               114.35:  VERT SEC DIRECT
 GVFD.g                   1.00:  GRAVITY FIELD
 MFLD.nT              50386.00:  MAGNETIC FIELD
 MDIP.deg                59.63:  MAGNETIC DIP
 MDEC.deg                 6.43:  MAGNETIC DECL
 GRDC.deg                 0.15:  GRID CORRECTION
 AZTC.deg                 6.29:  AZM TOTAL CORR
 EPD .m                   0.00:  ELEVATION
 EGL .m                   0.00:  GROUND ELEVATION
 WDMS.m                 169.80:  WD ELEV
 APD .m                  43.00:  DEPTH ABOVE PD
 VSEW.m                  -9.46:  VERT SEC E/W
 VSNS.m                  -7.12:  VERT SEC N/S
 AGAP.m                  43.00:  AIR GAP
 DEP .m                 356.16:  DEPTH
 EKB .m                  43.00:  KB ELEVATION
 EDF .m                  43.00:  DF ELEVATION
 TDL .m                 699.00:  TOTAL DEPTH (LOGGER)
 VSC .                       0:  VS TO CLOSURE
 MAGU.                 1853727:  MAGUTM CHECKSUM
~Parameter Information Block
#MNEM.UNIT       Value        Description
#---------     -----------    ---------------------------
 AV  .mps                 1.30:  Ann Velocity 
 AVMX.mps                 1.67:  Max Ann Veloc 
 AZIF.deg               280.40:  Azm, Final 
 BHAT.        Rotary Steerable:  BHA Type 
 BREV.rev            528970.00:  Rev Bit Total 
 BROT.°/30m               1.00:  Build Rotating 
 BS  .in                 12.25:  Bit Size 
 BSZ .in                 12.25:  Bit Size 
 BTPL.psig              738.00:  Bit Press Loss 
 CABU.                     Yes:  Customer Abuse 
 CGEO.        Elvin Suleymanov:  Customer Geo 
 COMM.                     äji:  Run Comments 1 
 TCS .hr                 66.05:  Time Ciculation Ended 
 CV  .mps                 2.20:  Crit Velocity 
 CVMX.mps                 2.56:  Max Crit Veloc 
 DD1 .          Rashad Habibov:  Direct Drillr 1 
 DD2 .            Azer ravanov:  Direct Drillr 2 
 DD3 .           Teymur Agayev:  Direct Drillr 3 
 DDSV.               Geo-Pilot:  DD Service 
 DEFF.%                  90.00:  % Det Eff 
 DLRX.°/30m               2.95:  Dogleg Rot Max 
 DLSO.°/30m               1.00:  Dogleg Oriented 
 DLSX.°/30m               2.95:  Dogleg Str Max 
 DRET.      11.42.20 11-Aug-21:  Drill End Time 
 DRST.      23.03.20 08-Aug-21:  Drill Start Tim 
 DTIM.hr                 45.50:  Time Drilling 
 EDEP.m                3488.00:  End Depth 
 ENG1.         Marcelo Marcari:  Engineer 1 
 ENG2.         Dair Mahammadov:  Engineer 2 
 ENG3.       Davud Huseyn-zada:  Engineer 3 
 ENG4.         Yevgeniy Ulikov:  Engineer 4 
 ETIM.      17.45.20 17-Aug-21:  End Time 
 FLOI.gpm              1197.70:  Flow In 
 FLON.gpm              1100.00:  Flow In Min 
 FLOS.cptm                0.00:  Fluid Loss 
 FLOX.gpm              1200.00:  Flow In Max 
 DFT .        Mineral Oil Base:  Mud Type 
 FTRO.       Formation Presure:  FTWD Run Obj 
 HFLO.                      No:  High Flow 
 HPRE.                      No:  High Pressure 
 HTEM.                      No:  High Temp 
 HYDO.m                   1.80:  Hydro Offset 
 IFIN.deg                 9.87:  Inc, Final 
 IMAX.deg                19.96:  Inc Max 
 IMIN.deg                 3.82:  Inc Min 
 IMND.m                3257.42:  Inc Min Depth 
 IMXD.m                2945.53:  Inc Max Depth 
 JARR.                      No:  Jarring 
 LETM.      11.42.20 11-Aug-21:  Log End Time 
 LOST.hr                     0:  Lost Rig Time 
 LSTM.      23.03.20 08-Aug-21:  Log Start Time 
 MDCL.ppm             42500.00:  Mud Chlorides 
 MDES.     Inversion Oil/Synthetic:  Mud Desc 
 DFD .sg                  1.45:  Mud Density 
 MDMN.sg                  1.39:  Dens Mud Min 
 MDMX.sg                  1.57:  Dens Mud Max 
 MOIL.                   53.20:  Run Mud Oil % 
 MOWR.                   70:30:  Run Mud OWR 
 MSND.                       0:  Run Mud Sand % 
 MSOL.                   24.30:  Run Mud Solids% 
 DFV .spqt               79.00:  Mud Viscosity 
 MWOD.in                  8.00:  MWD Tool OD 
 MWSI.                      No:  Serv Intrp, MWD 
 OTIM.hr                253.06:  Time Operating 
 PCON.           Look Like New:  Pad Condition 
 PMAX.psia            11068.93:  Press Op, Max 
 PV  .cP                 36.00:  Mud PV 
 RUN .                    1000:  Run Number 
 ROPA.m/hr               15.34:  ROP Avg 
 ROPN.m/hr                4.00:  ROP Min 
 ROPX.m/hr               31.00:  ROP Max 
 RPMA.rpm               151.40:  RPM Surface Avg 
 RPMN.rpm               120.00:  RPM Surface Min 
 RPMX.rpm               160.00:  RPM Surface Max 
 RRUN.                    L505:  Rig Run Number 
 RTIM.hr                 10.00:  Time Reaming 
 SAZI.deg                88.92:  Azm, Start 
 SDEP.m                2789.00:  Start Depth 
 SIDD.                      No:  Serv Intrp, DD 
 SINC.deg                19.84:  Inc, Start 
 SPPA.psig             4421.39:  SPP Avg 
 SPPN.psig             4130.00:  SPP Min 
 SPPX.psig             4800.00:  SPP Max 
 STIM.      01.25.20 07-Aug-21:  Start Time 
 SVCS.                 DD, MWD:  Services 
 SVER.                    9.20:  Sperry Version 
 TDAT.m                 699.00:  Tot Depth Attmp 
 TDDF.                      No:  Trip for DD 
 TDLG.m                 699.00:  Tot Depth Loggd 
 TFF .                      No:  Trip for Fail 
 TQAA.f-kp               20.55:  Torque Abs Avg 
 TQAN.f-kp               15.00:  Torque Abs Min 
 TQAX.f-kp               24.00:  Torque Abs Max 
 TRRT.°/30m               0.50:  Turn Rotating 
 MRT .                    HCIM:  Maximum Recorded Temperature 
 TTMX.degC               82.35:  Max Tool Temp 
 VS01.                90654677:  Virtual Str1 SN 
 VS02.                90636294:  Virtual Str2 SN 
 VS03.                90653866:  Virtual Str3 SN 
 VS04.                90654674:  Virtual Str4 SN 
 WBMN.klb                10.00:  WOB Min 
 WITN.         Haytham Mostafa:  Customer Rep 
 WITN.           Rufat Babayev:  Customer Rep 2 
 WOBA.klb                22.43:  WOB Avg 
 WOBX.klb                35.00:  WOB Max 
 YP  .lhf2               32.00:  Yield Point 
~Curve Information Block
#MNEM.UNIT                 API CODE     Curve Description
#---------               -----------    ---------------------------
 TIME.HHMMSS            00 000 000 000:  GT Time & Date
 GTDEPTH.m              00 000 000 000:  GT Depth
 GTPQH.psia             00 000 000 000:  GT HR Quartz Pressure
 GTTQ.degC              00 000 000 000:  GT Quartz Temperature
 GTTN.NONE              00 000 000 000:  GT Test Number
 GTET.sec               00 000 000 000:  GT Elapsed Test Time
 GTTVD.m                00 000 000 000:  GT True Vertical Depth
#Other Information
#
#WARRANTY: Halliburton will use its best efforts to furnish customers with 
#accurate information and interpretations that are part of, and incident to, the services 
#provided.  However, Halliburton cannot and does not warrant the accuracy 
#or correctness of such information and interpretations.  Under no circumstances should any 
#such information or interpretation be relied upon as the sole basis for any drilling, 
#completion, production, or financial decision or any procedure involving any risk to the 
#safety of any drilling venture, drilling rig or its crew or any other third party.  The 
#Customer has full responsibility for all drilling, completion and production operation.  
#Halliburton makes no representations or warranties, either expressed or 
#implied, including, but not limited to, the implied warranties of merchantability or fitness 
#for a particular purpose, with respect to the services rendered.  In no event will 
#Halliburton be liable for failure to obtain any particular results or for 
#any damages, including, but not limited to, indirect, special or consequential damages, 
#resulting from the use of any information or interpretation provided by Halliburton.
#
~A           TIME           GTDEPTH  GTPQH  GTTQ  GTTN  GTET   GTTVD  
# ...
   08:52:33.471.15-Aug-2021 3421.80 7416.97 56.17 2.00 322.05 3274.11
   08:52:33.671.15-Aug-2021 3421.80 7416.97 56.17 2.00 322.25 3274.11
   08:52:33.871.15-Aug-2021 3421.80 7416.97 56.17 2.00 322.45 3274.11
   08:52:34.071.15-Aug-2021 3421.80 7417.77 56.17 2.00 322.65 3274.11
   08:52:34.271.15-Aug-2021 3421.80 7417.91 56.17 2.00 322.85 3274.11
   08:52:34.471.15-Aug-2021 3421.80 7418.00 56.17 2.00 323.05 3274.11
   08:52:34.671.15-Aug-2021 3421.80 7418.00 56.17 2.00 323.25 3274.11
   08:52:34.871.15-Aug-2021 3421.80 7417.98 56.17 2.00 323.45 3274.11
   08:52:35.072.15-Aug-2021 3421.80 7417.88 56.17 2.00 323.65 3274.11
   08:52:35.272.15-Aug-2021 3421.80 7417.90 56.17 2.00 323.85 3274.11
   08:52:35.472.15-Aug-2021 3421.80 7417.93 56.17 2.00 324.05 3274.11
   08:52:35.672.15-Aug-2021 3421.80 7417.93 56.17 2.00 324.25 3274.11
   08:52:35.872.15-Aug-2021 3421.80 7418.53 56.17 2.00 324.45 3274.11
   08:52:36.072.15-Aug-2021 3421.80 7418.93 56.17 2.00 324.65 3274.11
   08:52:36.272.15-Aug-2021 3421.80 7419.16 56.17 2.00 324.85 3274.11
   08:52:36.472.15-Aug-2021 3421.80 7419.32 56.17 2.00 325.05 3274.11
   08:52:36.672.15-Aug-2021 3421.80 7419.32 56.17 2.00 325.25 3274.11
   08:52:36.872.15-Aug-2021 3421.80 7420.44 56.17 2.00 325.45 3274.11
   08:52:37.072.15-Aug-2021 3421.80 7420.55 56.17 2.00 325.65 3274.11
   08:52:37.272.15-Aug-2021 3421.80 7420.72 56.17 2.00 325.85 3274.11
   08:52:37.472.15-Aug-2021 3421.80 7420.74 56.16 2.00 326.05 3274.11
   08:52:37.672.15-Aug-2021 3421.80 7420.74 56.16 2.00 326.25 3274.11
   08:52:37.872.15-Aug-2021 3421.80 7420.56 56.16 2.00 326.45 3274.11
   08:52:38.072.15-Aug-2021 3421.80 7421.00 56.16 2.00 326.65 3274.11
   08:52:38.272.15-Aug-2021 3421.80 7421.32 56.16 2.00 326.85 3274.11
   08:52:38.472.15-Aug-2021 3421.80 7421.41 56.16 2.00 327.05 3274.11
   08:52:38.672.15-Aug-2021 3421.80 7421.41 56.16 2.00 327.25 3274.11
   08:52:38.872.15-Aug-2021 3421.80 7421.46 56.16 2.00 327.45 3274.11
   08:52:39.072.15-Aug-2021 3421.80 7421.93 56.16 2.00 327.65 3274.11
   08:52:39.272.15-Aug-2021 3421.80 7422.11 56.16 2.00 327.85 3274.11
   08:52:39.472.15-Aug-2021 3421.80 7422.19 56.16 2.00 328.05 3274.11
   08:52:39.672.15-Aug-2021 3421.80 7422.19 56.16 2.00 328.25 3274.11
   08:52:39.872.15-Aug-2021 3421.80 7422.13 56.16 2.00 328.45 3274.11
   08:52:40.072.15-Aug-2021 3421.80 7422.24 56.16 2.00 328.65 3274.11
   08:52:40.272.15-Aug-2021 3421.80 7422.80 56.16 2.00 328.85 3274.11
   08:52:40.472.15-Aug-2021 3421.80 7423.04 56.16 2.00 329.05 3274.11
   08:52:40.672.15-Aug-2021 3421.80 7423.04 56.16 2.00 329.25 3274.11
   08:52:40.872.15-Aug-2021 3421.80 7423.30 56.16 2.00 329.45 3274.11
   08:52:41.072.15-Aug-2021 3421.80 7423.76 56.16 2.00 329.65 3274.11
   08:52:41.273.15-Aug-2021 3421.80 7423.90 56.16 2.00 329.85 3274.11
   08:52:41.473.15-Aug-2021 3421.80 7423.97 56.16 2.00 330.05 3274.11
   08:52:41.673.15-Aug-2021 3421.80 7423.97 56.16 2.00 330.25 3274.11
   08:52:41.873.15-Aug-2021 3421.80 7423.92 56.16 2.00 330.45 3274.11
   08:52:42.073.15-Aug-2021 3421.80 7423.87 56.16 2.00 330.65 3274.11
   08:52:42.273.15-Aug-2021 3421.80 7423.90 56.16 2.00 330.85 3274.11
   08:52:42.473.15-Aug-2021 3421.80 7424.80 56.16 2.00 331.05 3274.11
   08:52:42.673.15-Aug-2021 3421.80 7424.80 56.16 2.00 331.25 3274.11
   08:52:42.873.15-Aug-2021 3421.80 7425.12 56.16 2.00 331.45 3274.11
   08:52:43.073.15-Aug-2021 3421.80 7425.21 56.16 2.00 331.65 3274.11
   08:52:43.273.15-Aug-2021 3421.80 7425.21 56.16 2.00 331.85 3274.11
   08:52:43.473.15-Aug-2021 3421.80 7425.17 56.16 2.00 332.05 3274.11
   08:52:43.673.15-Aug-2021 3421.80 7425.17 56.16 2.00 332.25 3274.11
   08:52:43.873.15-Aug-2021 3421.80 7425.06 56.15 2.00 332.45 3274.11
   08:52:44.073.15-Aug-2021 3421.80 7424.98 56.15 2.00 332.65 3274.11
   08:52:44.273.15-Aug-2021 3421.80 7425.58 56.15 2.00 332.85 3274.11
   08:52:44.473.15-Aug-2021 3421.80 7426.04 56.15 2.00 333.05 3274.11
   08:52:44.673.15-Aug-2021 3421.80 7426.04 56.15 2.00 333.25 3274.11
   08:52:44.873.15-Aug-2021 3421.80 7426.18 56.15 2.00 333.45 3274.11
   08:52:45.073.15-Aug-2021 3421.80 7426.12 56.15 2.00 333.65 3274.11
   08:52:45.273.15-Aug-2021 3421.80 7426.06 56.15 2.00 333.85 3274.11
   08:52:45.473.15-Aug-2021 3421.80 7426.00 56.15 2.00 334.05 3274.11
   08:52:45.673.15-Aug-2021 3421.80 7426.00 56.15 2.00 334.25 3274.11
   08:52:45.873.15-Aug-2021 3421.80 7426.68 56.15 2.00 334.45 3274.11
   08:52:46.073.15-Aug-2021 3421.80 7426.66 56.15 2.00 334.65 3274.11
   08:52:46.273.15-Aug-2021 3421.80 7426.71 56.15 2.00 334.85 3274.11
   08:52:46.473.15-Aug-2021 3421.80 7426.70 56.15 2.00 335.05 3274.11
   08:52:46.673.15-Aug-2021 3421.80 7426.70 56.15 2.00 335.25 3274.11
   08:52:46.873.15-Aug-2021 3421.80 7426.56 56.15 2.00 335.45 3274.11
   08:52:47.073.15-Aug-2021 3421.80 7426.65 56.15 2.00 335.65 3274.11
   08:52:47.274.15-Aug-2021 3421.80 7427.06 56.15 2.00 335.85 3274.11
   08:52:47.474.15-Aug-2021 3421.80 7427.29 56.15 2.00 336.06 3274.11
   08:52:47.674.15-Aug-2021 3421.80 7427.29 56.15 2.00 336.26 3274.11
   08:52:47.874.15-Aug-2021 3421.80 7427.35 56.15 2.00 336.46 3274.11
   08:52:48.074.15-Aug-2021 3421.80 7427.43 56.15 2.00 336.66 3274.11
   08:52:48.274.15-Aug-2021 3421.80 7427.70 56.15 2.00 336.86 3274.11
   08:52:48.474.15-Aug-2021 3421.80 7427.74 56.15 2.00 337.06 3274.11
   08:52:48.674.15-Aug-2021 3421.80 7427.74 56.15 2.00 337.26 3274.11
   08:52:48.874.15-Aug-2021 3421.80 7427.72 56.15 2.00 337.46 3274.11
   08:52:49.074.15-Aug-2021 3421.80 7427.57 56.15 2.00 337.66 3274.11
   08:52:49.274.15-Aug-2021 3421.80 7427.73 56.15 2.00 337.86 3274.11
   08:52:49.474.15-Aug-2021 3421.80 7427.83 56.15 2.00 338.06 3274.11
   08:52:49.674.15-Aug-2021 3421.80 7427.83 56.15 2.00 338.26 3274.11
   08:52:49.874.15-Aug-2021 3421.80 7427.81 56.15 2.00 338.46 3274.11
   08:52:50.074.15-Aug-2021 3421.80 7428.39 56.15 2.00 338.66 3274.11
   08:52:50.274.15-Aug-2021 3421.80 7428.82 56.14 2.00 338.86 3274.11
   08:52:50.474.15-Aug-2021 3421.80 7428.99 56.14 2.00 339.06 3274.11
   08:52:50.674.15-Aug-2021 3421.80 7428.99 56.14 2.00 339.26 3274.11
   08:52:50.874.15-Aug-2021 3421.80 7429.15 56.14 2.00 339.46 3274.11
   08:52:51.074.15-Aug-2021 3421.80 7429.19 56.14 2.00 339.66 3274.11
   08:52:51.274.15-Aug-2021 3421.80 7429.53 56.14 2.00 339.86 3274.11
   08:52:51.474.15-Aug-2021 3421.80 7429.72 56.14 2.00 340.06 3274.11
   08:52:51.674.15-Aug-2021 3421.80 7429.72 56.14 2.00 340.26 3274.11
   08:52:51.874.15-Aug-2021 3421.80 7429.84 56.14 2.00 340.46 3274.11
   08:52:52.074.15-Aug-2021 3421.80 7429.78 56.14 2.00 340.66 3274.11
   08:52:52.274.15-Aug-2021 3421.80 7429.70 56.14 2.00 340.86 3274.11
   08:52:52.474.15-Aug-2021 3421.80 7429.59 56.14 2.00 341.06 3274.11
   08:52:52.674.15-Aug-2021 3421.80 7429.59 56.14 2.00 341.26 3274.11
   08:52:52.874.15-Aug-2021 3421.80 7429.40 56.14 2.00 341.46 3274.11
   08:52:53.074.15-Aug-2021 3421.80 7429.93 56.14 2.00 341.66 3274.11
   08:52:53.274.15-Aug-2021 3421.80 7430.19 56.14 2.00 341.86 3274.11
   08:52:53.475.15-Aug-2021 3421.80 7430.29 56.14 2.00 342.06 3274.11
   08:52:53.675.15-Aug-2021 3421.80 7430.29 56.14 2.00 342.26 3274.11
   08:52:53.875.15-Aug-2021 3421.80 7430.29 56.14 2.00 342.46 3274.11
   08:52:54.075.15-Aug-2021 3421.80 7430.12 56.14 2.00 342.66 3274.11
   08:52:54.275.15-Aug-2021 3421.80 7430.50 56.14 2.00 342.86 3274.11
   08:52:54.475.15-Aug-2021 3421.80 7430.63 56.14 2.00 343.06 3274.11
   08:52:54.675.15-Aug-2021 3421.80 7430.63 56.14 2.00 343.26 3274.11
   08:52:54.875.15-Aug-2021 3421.80 7430.57 56.14 2.00 343.46 3274.11
   08:52:55.075.15-Aug-2021 3421.80 7430.95 56.14 2.00 343.66 3274.11
   08:52:55.275.15-Aug-2021 3421.80 7431.03 56.14 2.00 343.86 3274.11
   08:52:55.475.15-Aug-2021 3421.80 7431.12 56.14 2.00 344.06 3274.11
   08:52:55.675.15-Aug-2021 3421.80 7431.12 56.14 2.00 344.26 3274.11
   08:52:55.875.15-Aug-2021 3421.80 7431.05 56.14 2.00 344.46 3274.11
   08:52:56.075.15-Aug-2021 3421.80 7431.34 56.14 2.00 344.66 3274.11
   08:52:56.275.15-Aug-2021 3421.80 7431.37 56.14 2.00 344.86 3274.11
