~Version Information
 VERS.                  2.0:   CWLS log ASCII Standard -VERSION 2.0
 WRAP.                   NO:   One line per depth step
~Well Information Block
#MNEM.UNIT     VALUE/NAME     DESCRIPTION
#---------     -----------    ---------------------------
 STRT.S             12:25:56 15-Aug-21: START TIME 12:25:56 15-Aug-21
 STOP.S             12:39:05 15-Aug-21: STOP TIME  12:39:05 15-Aug-21
 STEP.S                   0.00: STEP TIME
 NULL.                 -999.25: NULL VALUE
 DFWT.                        :  DIST FWL TEXT
 DFST.                        :  DIST FSL TEXT
 DMF .             Drill Floor:  DRILL MEAS FROM
 STIM.      17.18.56 20-Jun-21:  START TIME
 DATE.      17.18.56 20-Aug-21:  END TIME
 SPUD.               20-Jun-21:  SPUD DATE
 NREF.                    Grid:  NORTH REFERENCE
 HPTY.       Minimum Curvature:  HOLE POS TYPE
 DMOD.             Drill Model:  DRILL MOD DESC
 SVYD.                  Survey:  SURVEY DESC
 ILTD.               Lithology:  INTERP LTH DESC
 FTOP.          Formation Tops:  FORM TOPS DESC
 SON .        AZ-XX-0907056190:  JOB NUMBER
 PDAT.       Caspian Sea Level:  PERMANENT DATUM
 WTYP.                Deviated:  WELL TYPE
 MDS .        Operator Entered:  MAG DATA SOURCE
 COMP.     BP Exploration (Caspian Sea) Ltd.:  COMPANY
 UWI .            /AZE20000092:  UNIQUE WELL IDENTIFIER
 API .            /AZE20000092:  API NUMBER
 BASE.              Azerbaijan:  LOGGING EQUIPMENT BASE LOCATION
 REGN.                   EESSA:  REGION
 PROV.                    baku:  PROVINCE
 STAT.                    baku:  STATE NAME
 CTRY.              Azerbaijan:  COUNTRY NAME
 FLD .                     ACG:  FIELD NAME
 SRVC.          Turan Drilling:  CONTRACTOR
 MWDS.                    Baku:  MWD SHOP
 WELL.                     J26:  WELL NAME
 JOBN.        AZ-XX-0907056190:  JOB TICKET NUMB
 RIG .             West Chirag:  RIG NAME
 DOE .                     N/A:  DOE NUMBER
 DCON.         Sperry Drilling:  DIRECTNL CONTR
 UNIT.                     N/A:  LOGGING EQUIPMENT ID
 CNTY.                        :  COUNTY
 LOC .                        :  LOCATION
 LMF .             Drill Floor:  LOG MEASURED FROM
 TVDS.m                  43.00:  TVDSS CORRECTN
 LATI.deg                40.13:  LATITUDE
 LONG.deg                51.22:  LONGITUDE
 WHNS.m                  -7.12:  WELL HEAD N/S
 WHEW.m                  -9.46:  WELL HEAD E/W
 UTMX.m              519004.02:  UTM X
 UTMY.m             4443784.96:  UTM Y
 DFWL.m                   0.00:  DISTANCE FWL
 DFSL.m                   0.00:  DISTANCE FSL
 SDEP.m                 464.00:  START DEPTH
 TDD .m                3500.00:  TOTAL DEPTH (DRILLER)
 VSDR.deg               114.35:  VERT SEC DIRECT
 GVFD.g                   1.00:  GRAVITY FIELD
 MFLD.nT              50386.00:  MAGNETIC FIELD
 MDIP.deg                59.63:  MAGNETIC DIP
 MDEC.deg                 6.43:  MAGNETIC DECL
 GRDC.deg                 0.15:  GRID CORRECTION
 AZTC.deg                 6.29:  AZM TOTAL CORR
 EPD .m                   0.00:  ELEVATION
 EGL .m                   0.00:  GROUND ELEVATION
 WDMS.m                 169.80:  WD ELEV
 APD .m                  43.00:  DEPTH ABOVE PD
 VSEW.m                  -9.46:  VERT SEC E/W
 VSNS.m                  -7.12:  VERT SEC N/S
 AGAP.m                  43.00:  AIR GAP
 DEP .m                 356.16:  DEPTH
 EKB .m                  43.00:  KB ELEVATION
 EDF .m                  43.00:  DF ELEVATION
 TDL .m                 699.00:  TOTAL DEPTH (LOGGER)
 VSC .                       0:  VS TO CLOSURE
 MAGU.                 1853727:  MAGUTM CHECKSUM
~Parameter Information Block
#MNEM.UNIT       Value        Description
#---------     -----------    ---------------------------
 AV  .mps                 1.30:  Ann Velocity 
 AVMX.mps                 1.67:  Max Ann Veloc 
 AZIF.deg               280.40:  Azm, Final 
 BHAT.        Rotary Steerable:  BHA Type 
 BREV.rev            528970.00:  Rev Bit Total 
 BROT.°/30m               1.00:  Build Rotating 
 BS  .in                 12.25:  Bit Size 
 BSZ .in                 12.25:  Bit Size 
 BTPL.psig              738.00:  Bit Press Loss 
 CABU.                     Yes:  Customer Abuse 
 CGEO.        Elvin Suleymanov:  Customer Geo 
 COMM.                     ´3x:  Run Comments 1 
 TCS .hr                 66.05:  Time Ciculation Ended 
 CV  .mps                 2.20:  Crit Velocity 
 CVMX.mps                 2.56:  Max Crit Veloc 
 DD1 .          Rashad Habibov:  Direct Drillr 1 
 DD2 .            Azer ravanov:  Direct Drillr 2 
 DD3 .           Teymur Agayev:  Direct Drillr 3 
 DDSV.               Geo-Pilot:  DD Service 
 DEFF.%                  90.00:  % Det Eff 
 DLRX.°/30m               2.95:  Dogleg Rot Max 
 DLSO.°/30m               1.00:  Dogleg Oriented 
 DLSX.°/30m               2.95:  Dogleg Str Max 
 DRET.      11.42.20 11-Aug-21:  Drill End Time 
 DRST.      23.03.20 08-Aug-21:  Drill Start Tim 
 DTIM.hr                 45.50:  Time Drilling 
 EDEP.m                3488.00:  End Depth 
 ENG1.         Marcelo Marcari:  Engineer 1 
 ENG2.         Dair Mahammadov:  Engineer 2 
 ENG3.       Davud Huseyn-zada:  Engineer 3 
 ENG4.         Yevgeniy Ulikov:  Engineer 4 
 ETIM.      17.45.20 17-Aug-21:  End Time 
 FLOI.gpm              1197.70:  Flow In 
 FLON.gpm              1100.00:  Flow In Min 
 FLOS.cptm                0.00:  Fluid Loss 
 FLOX.gpm              1200.00:  Flow In Max 
 DFT .        Mineral Oil Base:  Mud Type 
 FTRO.       Formation Presure:  FTWD Run Obj 
 HFLO.                      No:  High Flow 
 HPRE.                      No:  High Pressure 
 HTEM.                      No:  High Temp 
 HYDO.m                   1.80:  Hydro Offset 
 IFIN.deg                 9.87:  Inc, Final 
 IMAX.deg                19.96:  Inc Max 
 IMIN.deg                 3.82:  Inc Min 
 IMND.m                3257.42:  Inc Min Depth 
 IMXD.m                2945.53:  Inc Max Depth 
 JARR.                      No:  Jarring 
 LETM.      11.42.20 11-Aug-21:  Log End Time 
 LOST.hr                     0:  Lost Rig Time 
 LSTM.      23.03.20 08-Aug-21:  Log Start Time 
 MDCL.ppm             42500.00:  Mud Chlorides 
 MDES.     Inversion Oil/Synthetic:  Mud Desc 
 DFD .sg                  1.45:  Mud Density 
 MDMN.sg                  1.39:  Dens Mud Min 
 MDMX.sg                  1.57:  Dens Mud Max 
 MOIL.                   53.20:  Run Mud Oil % 
 MOWR.                   70:30:  Run Mud OWR 
 MSND.                       0:  Run Mud Sand % 
 MSOL.                   24.30:  Run Mud Solids% 
 DFV .spqt               79.00:  Mud Viscosity 
 MWOD.in                  8.00:  MWD Tool OD 
 MWSI.                      No:  Serv Intrp, MWD 
 OTIM.hr                253.06:  Time Operating 
 PCON.           Look Like New:  Pad Condition 
 PMAX.psia            11068.93:  Press Op, Max 
 PV  .cP                 36.00:  Mud PV 
 RUN .                    1000:  Run Number 
 ROPA.m/hr               15.34:  ROP Avg 
 ROPN.m/hr                4.00:  ROP Min 
 ROPX.m/hr               31.00:  ROP Max 
 RPMA.rpm               151.40:  RPM Surface Avg 
 RPMN.rpm               120.00:  RPM Surface Min 
 RPMX.rpm               160.00:  RPM Surface Max 
 RRUN.                    L505:  Rig Run Number 
 RTIM.hr                 10.00:  Time Reaming 
 SAZI.deg                88.92:  Azm, Start 
 SDEP.m                2789.00:  Start Depth 
 SIDD.                      No:  Serv Intrp, DD 
 SINC.deg                19.84:  Inc, Start 
 SPPA.psig             4421.39:  SPP Avg 
 SPPN.psig             4130.00:  SPP Min 
 SPPX.psig             4800.00:  SPP Max 
 STIM.      01.25.20 07-Aug-21:  Start Time 
 SVCS.                 DD, MWD:  Services 
 SVER.                    9.20:  Sperry Version 
 TDAT.m                 699.00:  Tot Depth Attmp 
 TDDF.                      No:  Trip for DD 
 TDLG.m                 699.00:  Tot Depth Loggd 
 TFF .                      No:  Trip for Fail 
 TQAA.f-kp               20.55:  Torque Abs Avg 
 TQAN.f-kp               15.00:  Torque Abs Min 
 TQAX.f-kp               24.00:  Torque Abs Max 
 TRRT.°/30m               0.50:  Turn Rotating 
 MRT .                    HCIM:  Maximum Recorded Temperature 
 TTMX.degC               82.35:  Max Tool Temp 
 VS01.                90654677:  Virtual Str1 SN 
 VS02.                90636294:  Virtual Str2 SN 
 VS03.                90653866:  Virtual Str3 SN 
 VS04.                90654674:  Virtual Str4 SN 
 WBMN.klb                10.00:  WOB Min 
 WITN.         Haytham Mostafa:  Customer Rep 
 WITN.           Rufat Babayev:  Customer Rep 2 
 WOBA.klb                22.43:  WOB Avg 
 WOBX.klb                35.00:  WOB Max 
 YP  .lhf2               32.00:  Yield Point 
~Curve Information Block
#MNEM.UNIT                 API CODE     Curve Description
#---------               -----------    ---------------------------
 TIME.HHMMSS            00 000 000 000:  GT Time & Date
 GTDEPTH.m              00 000 000 000:  GT Depth
 GTPQH.psia             00 000 000 000:  GT HR Quartz Pressure
 GTTQ.degC              00 000 000 000:  GT Quartz Temperature
 GTTN.NONE              00 000 000 000:  GT Test Number
 GTET.sec               00 000 000 000:  GT Elapsed Test Time
 GTTVD.m                00 000 000 000:  GT True Vertical Depth
#Other Information
#
#WARRANTY: Halliburton will use its best efforts to furnish customers with 
#accurate information and interpretations that are part of, and incident to, the services 
#provided.  However, Halliburton cannot and does not warrant the accuracy 
#or correctness of such information and interpretations.  Under no circumstances should any 
#such information or interpretation be relied upon as the sole basis for any drilling, 
#completion, production, or financial decision or any procedure involving any risk to the 
#safety of any drilling venture, drilling rig or its crew or any other third party.  The 
#Customer has full responsibility for all drilling, completion and production operation.  
#Halliburton makes no representations or warranties, either expressed or 
#implied, including, but not limited to, the implied warranties of merchantability or fitness 
#for a particular purpose, with respect to the services rendered.  In no event will 
#Halliburton be liable for failure to obtain any particular results or for 
#any damages, including, but not limited to, indirect, special or consequential damages, 
#resulting from the use of any information or interpretation provided by Halliburton.
#
~A           TIME           GTDEPTH  GTPQH  GTTQ  GTTN  GTET   GTTVD  
# ...
   12:30:55.733.15-Aug-2021 3405.50 1596.04 52.35 6.00 298.82 3258.07
   12:30:55.933.15-Aug-2021 3405.50 1596.04 52.35 6.00 299.02 3258.07
   12:30:56.132.15-Aug-2021 3405.50 1599.10 52.34 6.00 299.22 3258.07
   12:30:56.332.15-Aug-2021 3405.50 1599.35 52.34 6.00 299.42 3258.07
   12:30:56.532.15-Aug-2021 3405.50 1598.77 52.34 6.00 299.62 3258.07
   12:30:56.732.15-Aug-2021 3405.50 1600.88 52.34 6.00 299.82 3258.07
   12:30:56.932.15-Aug-2021 3405.50 1600.88 52.34 6.00 300.02 3258.07
   12:30:57.132.15-Aug-2021 3405.50 1600.64 52.33 6.00 300.22 3258.07
   12:30:57.332.15-Aug-2021 3405.50 1601.01 52.33 6.00 300.42 3258.07
   12:30:57.532.15-Aug-2021 3405.50 1599.94 52.33 6.00 300.62 3258.07
   12:30:57.731.15-Aug-2021 3405.50 1601.17 52.33 6.00 300.82 3258.07
   12:30:57.931.15-Aug-2021 3405.50 1601.17 52.33 6.00 301.02 3258.07
   12:30:58.131.15-Aug-2021 3405.50 1602.62 52.32 6.00 301.22 3258.07
   12:30:58.331.15-Aug-2021 3405.50 1602.28 52.32 6.00 301.42 3258.07
   12:30:58.531.15-Aug-2021 3405.50 1602.48 52.32 6.00 301.62 3258.07
   12:30:58.731.15-Aug-2021 3405.50 1602.82 52.32 6.00 301.82 3258.07
   12:30:58.931.15-Aug-2021 3405.50 1602.82 52.32 6.00 302.02 3258.07
   12:30:59.131.15-Aug-2021 3405.50 1626.41 52.31 6.00 302.22 3258.07
   12:30:59.330.15-Aug-2021 3405.50 1636.67 52.31 6.00 302.42 3258.07
   12:30:59.530.15-Aug-2021 3405.50 1646.96 52.31 6.00 302.62 3258.07
   12:30:59.730.15-Aug-2021 3405.50 1657.12 52.31 6.00 302.82 3258.07
   12:30:59.930.15-Aug-2021 3405.50 1657.12 52.31 6.00 303.02 3258.07
   12:31:00.130.15-Aug-2021 3405.50 1676.54 52.31 6.00 303.22 3258.07
   12:31:00.330.15-Aug-2021 3405.50 1686.04 52.31 6.00 303.42 3258.07
   12:31:00.530.15-Aug-2021 3405.50 1695.41 52.31 6.00 303.62 3258.07
   12:31:00.730.15-Aug-2021 3405.50 1704.64 52.31 6.00 303.82 3258.07
   12:31:00.930.15-Aug-2021 3405.50 1704.64 52.31 6.00 304.02 3258.07
   12:31:01.129.15-Aug-2021 3405.50 1722.61 52.30 6.00 304.22 3258.07
   12:31:01.329.15-Aug-2021 3405.50 1731.29 52.30 6.00 304.42 3258.07
   12:31:01.529.15-Aug-2021 3405.50 1740.09 52.30 6.00 304.62 3258.07
   12:31:01.729.15-Aug-2021 3405.50 1748.93 52.30 6.00 304.82 3258.07
   12:31:01.929.15-Aug-2021 3405.50 1748.93 52.30 6.00 305.02 3258.07
   12:31:02.129.15-Aug-2021 3405.50 1765.69 52.30 6.00 305.22 3258.07
   12:31:02.329.15-Aug-2021 3405.50 1774.15 52.30 6.00 305.42 3258.07
   12:31:02.529.15-Aug-2021 3405.50 1782.30 52.30 6.00 305.62 3258.07
   12:31:02.728.15-Aug-2021 3405.50 1790.43 52.30 6.00 305.82 3258.07
   12:31:02.928.15-Aug-2021 3405.50 1790.43 52.30 6.00 306.02 3258.07
   12:31:03.128.15-Aug-2021 3405.50 1806.19 52.30 6.00 306.22 3258.07
   12:31:03.328.15-Aug-2021 3405.50 1814.13 52.30 6.00 306.42 3258.07
   12:31:03.528.15-Aug-2021 3405.50 1821.86 52.30 6.00 306.62 3258.07
   12:31:03.728.15-Aug-2021 3405.50 1829.44 52.30 6.00 306.82 3258.07
   12:31:03.928.15-Aug-2021 3405.50 1829.44 52.30 6.00 307.02 3258.07
   12:31:04.128.15-Aug-2021 3405.50 1844.46 52.30 6.00 307.22 3258.07
   12:31:04.327.15-Aug-2021 3405.50 1852.01 52.30 6.00 307.42 3258.07
   12:31:04.527.15-Aug-2021 3405.50 1859.34 52.30 6.00 307.61 3258.07
   12:31:04.727.15-Aug-2021 3405.50 1866.55 52.30 6.00 307.81 3258.07
   12:31:04.927.15-Aug-2021 3405.50 1866.55 52.30 6.00 308.01 3258.07
   12:31:05.127.15-Aug-2021 3405.50 1880.94 52.30 6.00 308.21 3258.07
   12:31:05.327.15-Aug-2021 3405.50 1888.02 52.30 6.00 308.41 3258.07
   12:31:05.527.15-Aug-2021 3405.50 1894.97 52.30 6.00 308.61 3258.07
   12:31:05.727.15-Aug-2021 3405.50 1901.85 52.30 6.00 308.81 3258.07
   12:31:05.926.15-Aug-2021 3405.50 1901.85 52.30 6.00 309.01 3258.07
   12:31:06.126.15-Aug-2021 3405.50 1915.50 52.30 6.00 309.21 3258.07
   12:31:06.326.15-Aug-2021 3405.50 1922.26 52.30 6.00 309.41 3258.07
   12:31:06.526.15-Aug-2021 3405.50 1929.02 52.30 6.00 309.61 3258.07
   12:31:06.726.15-Aug-2021 3405.50 1935.56 52.30 6.00 309.81 3258.07
   12:31:06.926.15-Aug-2021 3405.50 1935.56 52.30 6.00 310.01 3258.07
   12:31:07.126.15-Aug-2021 3405.50 1948.50 52.30 6.00 310.21 3258.07
   12:31:07.326.15-Aug-2021 3405.50 1954.87 52.30 6.00 310.41 3258.07
   12:31:07.526.15-Aug-2021 3405.50 1960.93 52.30 6.00 310.61 3258.07
   12:31:07.725.15-Aug-2021 3405.50 1967.00 52.30 6.00 310.81 3258.07
   12:31:07.925.15-Aug-2021 3405.50 1967.00 52.30 6.00 311.01 3258.07
   12:31:08.125.15-Aug-2021 3405.50 1979.51 52.30 6.00 311.21 3258.07
   12:31:08.325.15-Aug-2021 3405.50 1985.70 52.30 6.00 311.41 3258.07
   12:31:08.525.15-Aug-2021 3405.50 1991.87 52.30 6.00 311.61 3258.07
   12:31:08.725.15-Aug-2021 3405.50 1997.93 52.31 6.00 311.81 3258.07
   12:31:08.925.15-Aug-2021 3405.50 1997.93 52.31 6.00 312.01 3258.07
   12:31:09.125.15-Aug-2021 3405.50 2009.66 52.31 6.00 312.21 3258.07
   12:31:09.324.15-Aug-2021 3405.50 2014.82 52.31 6.00 312.41 3258.07
   12:31:09.524.15-Aug-2021 3405.50 2020.54 52.31 6.00 312.61 3258.07
   12:31:09.724.15-Aug-2021 3405.50 2026.45 52.31 6.00 312.81 3258.07
   12:31:09.924.15-Aug-2021 3405.50 2026.45 52.31 6.00 313.01 3258.07
   12:31:10.124.15-Aug-2021 3405.50 2038.28 52.31 6.00 313.21 3258.07
   12:31:10.324.15-Aug-2021 3405.50 2044.04 52.31 6.00 313.41 3258.07
   12:31:10.524.15-Aug-2021 3405.50 2049.82 52.31 6.00 313.61 3258.07
   12:31:10.724.15-Aug-2021 3405.50 2055.48 52.31 6.00 313.81 3258.07
   12:31:10.923.15-Aug-2021 3405.50 2055.48 52.31 6.00 314.01 3258.07
   12:31:11.123.15-Aug-2021 3405.50 2065.93 52.31 6.00 314.21 3258.07
   12:31:11.323.15-Aug-2021 3405.50 2071.14 52.31 6.00 314.41 3258.07
   12:31:11.523.15-Aug-2021 3405.50 2076.62 52.31 6.00 314.61 3258.07
   12:31:11.723.15-Aug-2021 3405.50 2082.05 52.31 6.00 314.81 3258.07
   12:31:11.923.15-Aug-2021 3405.50 2082.05 52.31 6.00 315.01 3258.07
   12:31:12.123.15-Aug-2021 3405.50 2092.92 52.31 6.00 315.21 3258.07
   12:31:12.323.15-Aug-2021 3405.50 2098.36 52.31 6.00 315.41 3258.07
   12:31:12.523.15-Aug-2021 3405.50 2104.02 52.31 6.00 315.61 3258.07
   12:31:12.722.15-Aug-2021 3405.50 2109.02 52.31 6.00 315.81 3258.07
   12:31:12.922.15-Aug-2021 3405.50 2109.02 52.31 6.00 316.01 3258.07
   12:31:13.122.15-Aug-2021 3405.50 2119.52 52.31 6.00 316.21 3258.07
   12:31:13.322.15-Aug-2021 3405.50 2124.42 52.32 6.00 316.41 3258.07
   12:31:13.522.15-Aug-2021 3405.50 2128.91 52.32 6.00 316.61 3258.07
   12:31:13.722.15-Aug-2021 3405.50 2133.88 52.32 6.00 316.81 3258.07
   12:31:13.922.15-Aug-2021 3405.50 2133.88 52.32 6.00 317.01 3258.07
   12:31:14.122.15-Aug-2021 3405.50 2144.34 52.32 6.00 317.21 3258.07
   12:31:14.321.15-Aug-2021 3405.50 2149.30 52.32 6.00 317.41 3258.07
   12:31:14.521.15-Aug-2021 3405.50 2154.31 52.32 6.00 317.61 3258.07
   12:31:14.721.15-Aug-2021 3405.50 2159.51 52.32 6.00 317.81 3258.07
   12:31:14.921.15-Aug-2021 3405.50 2159.51 52.32 6.00 318.01 3258.07
   12:31:15.121.15-Aug-2021 3405.50 2169.44 52.32 6.00 318.21 3258.07
   12:31:15.321.15-Aug-2021 3405.50 2174.39 52.32 6.00 318.41 3258.07
   12:31:15.521.15-Aug-2021 3405.50 2179.29 52.32 6.00 318.61 3258.07
   12:31:15.721.15-Aug-2021 3405.50 2183.73 52.32 6.00 318.81 3258.07
   12:31:15.920.15-Aug-2021 3405.50 2183.73 52.32 6.00 319.01 3258.07
   12:31:16.120.15-Aug-2021 3405.50 2192.41 52.32 6.00 319.21 3258.07
   12:31:16.320.15-Aug-2021 3405.50 2197.36 52.32 6.00 319.41 3258.07
   12:31:16.520.15-Aug-2021 3405.50 2202.11 52.32 6.00 319.61 3258.07
   12:31:16.720.15-Aug-2021 3405.50 2206.80 52.32 6.00 319.81 3258.07
   12:31:16.920.15-Aug-2021 3405.50 2206.80 52.32 6.00 320.01 3258.07
   12:31:17.120.15-Aug-2021 3405.50 2216.38 52.32 6.00 320.21 3258.07
   12:31:17.320.15-Aug-2021 3405.50 2221.09 52.32 6.00 320.41 3258.07
   12:31:17.520.15-Aug-2021 3405.50 2226.06 52.32 6.00 320.61 3258.07
   12:31:17.719.15-Aug-2021 3405.50 2230.41 52.32 6.00 320.81 3258.07
   12:31:17.919.15-Aug-2021 3405.50 2230.41 52.32 6.00 321.01 3258.07
   12:31:18.119.15-Aug-2021 3405.50 2239.44 52.32 6.00 321.21 3258.07
   12:31:18.319.15-Aug-2021 3405.50 2243.78 52.33 6.00 321.41 3258.07
   12:31:18.519.15-Aug-2021 3405.50 2247.45 52.33 6.00 321.61 3258.07
