~Version Information
 VERS.                  2.0:   CWLS log ASCII Standard -VERSION 2.0
 WRAP.                   NO:   One line per depth step
~Well Information Block
#MNEM.UNIT     VALUE/NAME     DESCRIPTION
#---------     -----------    ---------------------------
 STRT.S             11:47:36 15-Aug-21: START TIME 11:47:36 15-Aug-21
 STOP.S             11:55:59 15-Aug-21: STOP TIME  11:55:59 15-Aug-21
 STEP.S                   0.00: STEP TIME
 NULL.                 -999.25: NULL VALUE
 DFWT.                        :  DIST FWL TEXT
 DFST.                        :  DIST FSL TEXT
 DMF .             Drill Floor:  DRILL MEAS FROM
 STIM.      17.18.56 20-Jun-21:  START TIME
 DATE.      17.18.56 20-Aug-21:  END TIME
 SPUD.               20-Jun-21:  SPUD DATE
 NREF.                    Grid:  NORTH REFERENCE
 HPTY.       Minimum Curvature:  HOLE POS TYPE
 DMOD.             Drill Model:  DRILL MOD DESC
 SVYD.                  Survey:  SURVEY DESC
 ILTD.               Lithology:  INTERP LTH DESC
 FTOP.          Formation Tops:  FORM TOPS DESC
 SON .        AZ-XX-0907056190:  JOB NUMBER
 PDAT.       Caspian Sea Level:  PERMANENT DATUM
 WTYP.                Deviated:  WELL TYPE
 MDS .        Operator Entered:  MAG DATA SOURCE
 COMP.     BP Exploration (Caspian Sea) Ltd.:  COMPANY
 UWI .            /AZE20000092:  UNIQUE WELL IDENTIFIER
 API .            /AZE20000092:  API NUMBER
 BASE.              Azerbaijan:  LOGGING EQUIPMENT BASE LOCATION
 REGN.                   EESSA:  REGION
 PROV.                    baku:  PROVINCE
 STAT.                    baku:  STATE NAME
 CTRY.              Azerbaijan:  COUNTRY NAME
 FLD .                     ACG:  FIELD NAME
 SRVC.          Turan Drilling:  CONTRACTOR
 MWDS.                    Baku:  MWD SHOP
 WELL.                     J26:  WELL NAME
 JOBN.        AZ-XX-0907056190:  JOB TICKET NUMB
 RIG .             West Chirag:  RIG NAME
 DOE .                     N/A:  DOE NUMBER
 DCON.         Sperry Drilling:  DIRECTNL CONTR
 UNIT.                     N/A:  LOGGING EQUIPMENT ID
 CNTY.                        :  COUNTY
 LOC .                        :  LOCATION
 LMF .             Drill Floor:  LOG MEASURED FROM
 TVDS.m                  43.00:  TVDSS CORRECTN
 LATI.deg                40.13:  LATITUDE
 LONG.deg                51.22:  LONGITUDE
 WHNS.m                  -7.12:  WELL HEAD N/S
 WHEW.m                  -9.46:  WELL HEAD E/W
 UTMX.m              519004.02:  UTM X
 UTMY.m             4443784.96:  UTM Y
 DFWL.m                   0.00:  DISTANCE FWL
 DFSL.m                   0.00:  DISTANCE FSL
 SDEP.m                 464.00:  START DEPTH
 TDD .m                3500.00:  TOTAL DEPTH (DRILLER)
 VSDR.deg               114.35:  VERT SEC DIRECT
 GVFD.g                   1.00:  GRAVITY FIELD
 MFLD.nT              50386.00:  MAGNETIC FIELD
 MDIP.deg                59.63:  MAGNETIC DIP
 MDEC.deg                 6.43:  MAGNETIC DECL
 GRDC.deg                 0.15:  GRID CORRECTION
 AZTC.deg                 6.29:  AZM TOTAL CORR
 EPD .m                   0.00:  ELEVATION
 EGL .m                   0.00:  GROUND ELEVATION
 WDMS.m                 169.80:  WD ELEV
 APD .m                  43.00:  DEPTH ABOVE PD
 VSEW.m                  -9.46:  VERT SEC E/W
 VSNS.m                  -7.12:  VERT SEC N/S
 AGAP.m                  43.00:  AIR GAP
 DEP .m                 356.16:  DEPTH
 EKB .m                  43.00:  KB ELEVATION
 EDF .m                  43.00:  DF ELEVATION
 TDL .m                 699.00:  TOTAL DEPTH (LOGGER)
 VSC .                       0:  VS TO CLOSURE
 MAGU.                 1853727:  MAGUTM CHECKSUM
~Parameter Information Block
#MNEM.UNIT       Value        Description
#---------     -----------    ---------------------------
 AV  .mps                 1.30:  Ann Velocity 
 AVMX.mps                 1.67:  Max Ann Veloc 
 AZIF.deg               280.40:  Azm, Final 
 BHAT.        Rotary Steerable:  BHA Type 
 BREV.rev            528970.00:  Rev Bit Total 
 BROT.°/30m               1.00:  Build Rotating 
 BS  .in                 12.25:  Bit Size 
 BSZ .in                 12.25:  Bit Size 
 BTPL.psig              738.00:  Bit Press Loss 
 CABU.                     Yes:  Customer Abuse 
 CGEO.        Elvin Suleymanov:  Customer Geo 
 COMM.                     lþe:  Run Comments 1 
 TCS .hr                 66.05:  Time Ciculation Ended 
 CV  .mps                 2.20:  Crit Velocity 
 CVMX.mps                 2.56:  Max Crit Veloc 
 DD1 .          Rashad Habibov:  Direct Drillr 1 
 DD2 .            Azer ravanov:  Direct Drillr 2 
 DD3 .           Teymur Agayev:  Direct Drillr 3 
 DDSV.               Geo-Pilot:  DD Service 
 DEFF.%                  90.00:  % Det Eff 
 DLRX.°/30m               2.95:  Dogleg Rot Max 
 DLSO.°/30m               1.00:  Dogleg Oriented 
 DLSX.°/30m               2.95:  Dogleg Str Max 
 DRET.      11.42.20 11-Aug-21:  Drill End Time 
 DRST.      23.03.20 08-Aug-21:  Drill Start Tim 
 DTIM.hr                 45.50:  Time Drilling 
 EDEP.m                3488.00:  End Depth 
 ENG1.         Marcelo Marcari:  Engineer 1 
 ENG2.         Dair Mahammadov:  Engineer 2 
 ENG3.       Davud Huseyn-zada:  Engineer 3 
 ENG4.         Yevgeniy Ulikov:  Engineer 4 
 ETIM.      17.45.20 17-Aug-21:  End Time 
 FLOI.gpm              1197.70:  Flow In 
 FLON.gpm              1100.00:  Flow In Min 
 FLOS.cptm                0.00:  Fluid Loss 
 FLOX.gpm              1200.00:  Flow In Max 
 DFT .        Mineral Oil Base:  Mud Type 
 FTRO.       Formation Presure:  FTWD Run Obj 
 HFLO.                      No:  High Flow 
 HPRE.                      No:  High Pressure 
 HTEM.                      No:  High Temp 
 HYDO.m                   1.80:  Hydro Offset 
 IFIN.deg                 9.87:  Inc, Final 
 IMAX.deg                19.96:  Inc Max 
 IMIN.deg                 3.82:  Inc Min 
 IMND.m                3257.42:  Inc Min Depth 
 IMXD.m                2945.53:  Inc Max Depth 
 JARR.                      No:  Jarring 
 LETM.      11.42.20 11-Aug-21:  Log End Time 
 LOST.hr                     0:  Lost Rig Time 
 LSTM.      23.03.20 08-Aug-21:  Log Start Time 
 MDCL.ppm             42500.00:  Mud Chlorides 
 MDES.     Inversion Oil/Synthetic:  Mud Desc 
 DFD .sg                  1.45:  Mud Density 
 MDMN.sg                  1.39:  Dens Mud Min 
 MDMX.sg                  1.57:  Dens Mud Max 
 MOIL.                   53.20:  Run Mud Oil % 
 MOWR.                   70:30:  Run Mud OWR 
 MSND.                       0:  Run Mud Sand % 
 MSOL.                   24.30:  Run Mud Solids% 
 DFV .spqt               79.00:  Mud Viscosity 
 MWOD.in                  8.00:  MWD Tool OD 
 MWSI.                      No:  Serv Intrp, MWD 
 OTIM.hr                253.06:  Time Operating 
 PCON.           Look Like New:  Pad Condition 
 PMAX.psia            11068.93:  Press Op, Max 
 PV  .cP                 36.00:  Mud PV 
 RUN .                    1000:  Run Number 
 ROPA.m/hr               15.34:  ROP Avg 
 ROPN.m/hr                4.00:  ROP Min 
 ROPX.m/hr               31.00:  ROP Max 
 RPMA.rpm               151.40:  RPM Surface Avg 
 RPMN.rpm               120.00:  RPM Surface Min 
 RPMX.rpm               160.00:  RPM Surface Max 
 RRUN.                    L505:  Rig Run Number 
 RTIM.hr                 10.00:  Time Reaming 
 SAZI.deg                88.92:  Azm, Start 
 SDEP.m                2789.00:  Start Depth 
 SIDD.                      No:  Serv Intrp, DD 
 SINC.deg                19.84:  Inc, Start 
 SPPA.psig             4421.39:  SPP Avg 
 SPPN.psig             4130.00:  SPP Min 
 SPPX.psig             4800.00:  SPP Max 
 STIM.      01.25.20 07-Aug-21:  Start Time 
 SVCS.                 DD, MWD:  Services 
 SVER.                    9.20:  Sperry Version 
 TDAT.m                 699.00:  Tot Depth Attmp 
 TDDF.                      No:  Trip for DD 
 TDLG.m                 699.00:  Tot Depth Loggd 
 TFF .                      No:  Trip for Fail 
 TQAA.f-kp               20.55:  Torque Abs Avg 
 TQAN.f-kp               15.00:  Torque Abs Min 
 TQAX.f-kp               24.00:  Torque Abs Max 
 TRRT.°/30m               0.50:  Turn Rotating 
 MRT .                    HCIM:  Maximum Recorded Temperature 
 TTMX.degC               82.35:  Max Tool Temp 
 VS01.                90654677:  Virtual Str1 SN 
 VS02.                90636294:  Virtual Str2 SN 
 VS03.                90653866:  Virtual Str3 SN 
 VS04.                90654674:  Virtual Str4 SN 
 WBMN.klb                10.00:  WOB Min 
 WITN.         Haytham Mostafa:  Customer Rep 
 WITN.           Rufat Babayev:  Customer Rep 2 
 WOBA.klb                22.43:  WOB Avg 
 WOBX.klb                35.00:  WOB Max 
 YP  .lhf2               32.00:  Yield Point 
~Curve Information Block
#MNEM.UNIT                 API CODE     Curve Description
#---------               -----------    ---------------------------
 TIME.HHMMSS            00 000 000 000:  GT Time & Date
 GTDEPTH.m              00 000 000 000:  GT Depth
 GTPQH.psia             00 000 000 000:  GT HR Quartz Pressure
 GTTQ.degC              00 000 000 000:  GT Quartz Temperature
 GTTN.NONE              00 000 000 000:  GT Test Number
 GTET.sec               00 000 000 000:  GT Elapsed Test Time
 GTTVD.m                00 000 000 000:  GT True Vertical Depth
#Other Information
#
#WARRANTY: Halliburton will use its best efforts to furnish customers with 
#accurate information and interpretations that are part of, and incident to, the services 
#provided.  However, Halliburton cannot and does not warrant the accuracy 
#or correctness of such information and interpretations.  Under no circumstances should any 
#such information or interpretation be relied upon as the sole basis for any drilling, 
#completion, production, or financial decision or any procedure involving any risk to the 
#safety of any drilling venture, drilling rig or its crew or any other third party.  The 
#Customer has full responsibility for all drilling, completion and production operation.  
#Halliburton makes no representations or warranties, either expressed or 
#implied, including, but not limited to, the implied warranties of merchantability or fitness 
#for a particular purpose, with respect to the services rendered.  In no event will 
#Halliburton be liable for failure to obtain any particular results or for 
#any damages, including, but not limited to, indirect, special or consequential damages, 
#resulting from the use of any information or interpretation provided by Halliburton.
#
~A           TIME           GTDEPTH  GTPQH  GTTQ  GTTN  GTET   GTTVD  
# ...
   11:49:08.241.15-Aug-2021 3405.50 4598.08 54.02 5.00  91.94 3258.07
   11:49:08.441.15-Aug-2021 3405.50 4598.08 54.02 5.00  92.14 3258.07
   11:49:08.641.15-Aug-2021 3405.50 4607.77 54.02 5.00  92.34 3258.07
   11:49:08.841.15-Aug-2021 3405.50 4613.62 54.02 5.00  92.54 3258.07
   11:49:09.041.15-Aug-2021 3405.50 4617.64 54.02 5.00  92.74 3258.07
   11:49:09.241.15-Aug-2021 3405.50 4621.66 54.02 5.00  92.94 3258.07
   11:49:09.441.15-Aug-2021 3405.50 4621.66 54.02 5.00  93.14 3258.07
   11:49:09.640.15-Aug-2021 3405.50 4630.55 54.02 5.00  93.34 3258.07
   11:49:09.840.15-Aug-2021 3405.50 4635.77 54.02 5.00  93.54 3258.07
   11:49:10.040.15-Aug-2021 3405.50 4641.53 54.02 5.00  93.74 3258.07
   11:49:10.240.15-Aug-2021 3405.50 4645.75 54.02 5.00  93.94 3258.07
   11:49:10.440.15-Aug-2021 3405.50 4645.75 54.02 5.00  94.14 3258.07
   11:49:10.640.15-Aug-2021 3405.50 4654.78 54.02 5.00  94.34 3258.07
   11:49:10.840.15-Aug-2021 3405.50 4659.43 54.02 5.00  94.54 3258.07
   11:49:11.040.15-Aug-2021 3405.50 4663.68 54.02 5.00  94.74 3258.07
   11:49:11.239.15-Aug-2021 3405.50 4668.19 54.02 5.00  94.94 3258.07
   11:49:11.439.15-Aug-2021 3405.50 4668.19 54.02 5.00  95.14 3258.07
   11:49:11.639.15-Aug-2021 3405.50 4676.98 54.02 5.00  95.34 3258.07
   11:49:11.839.15-Aug-2021 3405.50 4681.87 54.02 5.00  95.54 3258.07
   11:49:12.039.15-Aug-2021 3405.50 4686.74 54.02 5.00  95.74 3258.07
   11:49:12.239.15-Aug-2021 3405.50 4690.98 54.02 5.00  95.94 3258.07
   11:49:12.439.15-Aug-2021 3405.50 4690.98 54.02 5.00  96.14 3258.07
   11:49:12.639.15-Aug-2021 3405.50 4698.91 54.02 5.00  96.34 3258.07
   11:49:12.839.15-Aug-2021 3405.50 4703.71 54.02 5.00  96.54 3258.07
   11:49:13.038.15-Aug-2021 3405.50 4708.33 54.02 5.00  96.74 3258.07
   11:49:13.238.15-Aug-2021 3405.50 4712.32 54.02 5.00  96.94 3258.07
   11:49:13.438.15-Aug-2021 3405.50 4712.32 54.02 5.00  97.14 3258.07
   11:49:13.638.15-Aug-2021 3405.50 4721.11 54.02 5.00  97.34 3258.07
   11:49:13.838.15-Aug-2021 3405.50 4725.27 54.02 5.00  97.54 3258.07
   11:49:14.038.15-Aug-2021 3405.50 4729.12 54.02 5.00  97.74 3258.07
   11:49:14.238.15-Aug-2021 3405.50 4732.60 54.02 5.00  97.94 3258.07
   11:49:14.438.15-Aug-2021 3405.50 4732.60 54.02 5.00  98.14 3258.07
   11:49:14.637.15-Aug-2021 3405.50 4739.41 54.02 5.00  98.34 3258.07
   11:49:14.837.15-Aug-2021 3405.50 4742.96 54.02 5.00  98.54 3258.07
   11:49:15.037.15-Aug-2021 3405.50 4747.09 54.02 5.00  98.74 3258.07
   11:49:15.237.15-Aug-2021 3405.50 4752.02 54.02 5.00  98.94 3258.07
   11:49:15.437.15-Aug-2021 3405.50 4752.02 54.02 5.00  99.14 3258.07
   11:49:15.637.15-Aug-2021 3405.50 4759.03 54.02 5.00  99.34 3258.07
   11:49:15.837.15-Aug-2021 3405.50 4762.59 54.02 5.00  99.54 3258.07
   11:49:16.037.15-Aug-2021 3405.50 4765.98 54.02 5.00  99.74 3258.07
   11:49:16.236.15-Aug-2021 3405.50 4769.37 54.02 5.00  99.94 3258.07
   11:49:16.436.15-Aug-2021 3405.50 4769.37 54.02 5.00 100.14 3258.07
   11:49:16.636.15-Aug-2021 3405.50 4775.62 54.02 5.00 100.34 3258.07
   11:49:16.836.15-Aug-2021 3405.50 4780.21 54.02 5.00 100.54 3258.07
   11:49:17.036.15-Aug-2021 3405.50 4785.10 54.02 5.00 100.74 3258.07
   11:49:17.236.15-Aug-2021 3405.50 4788.71 54.02 5.00 100.94 3258.07
   11:49:17.436.15-Aug-2021 3405.50 4788.71 54.02 5.00 101.14 3258.07
   11:49:17.636.15-Aug-2021 3405.50 4795.38 54.02 5.00 101.34 3258.07
   11:49:17.835.15-Aug-2021 3405.50 4799.77 54.02 5.00 101.54 3258.07
   11:49:18.035.15-Aug-2021 3405.50 4804.98 54.02 5.00 101.74 3258.07
   11:49:18.235.15-Aug-2021 3405.50 4808.74 54.02 5.00 101.94 3258.07
   11:49:18.435.15-Aug-2021 3405.50 4808.74 54.02 5.00 102.14 3258.07
   11:49:18.635.15-Aug-2021 3405.50 4815.68 54.02 5.00 102.34 3258.07
   11:49:18.835.15-Aug-2021 3405.50 4819.65 54.02 5.00 102.54 3258.07
   11:49:19.035.15-Aug-2021 3405.50 4824.34 54.02 5.00 102.74 3258.07
   11:49:19.235.15-Aug-2021 3405.50 4827.35 54.02 5.00 102.94 3258.07
   11:49:19.435.15-Aug-2021 3405.50 4827.35 54.02 5.00 103.14 3258.07
   11:49:19.634.15-Aug-2021 3405.50 4833.87 54.02 5.00 103.34 3258.07
   11:49:19.834.15-Aug-2021 3405.50 4837.37 54.02 5.00 103.54 3258.07
   11:49:20.034.15-Aug-2021 3405.50 4841.65 54.02 5.00 103.74 3258.07
   11:49:20.234.15-Aug-2021 3405.50 4846.76 54.02 5.00 103.94 3258.07
   11:49:20.434.15-Aug-2021 3405.50 4846.76 54.02 5.00 104.14 3258.07
   11:49:20.634.15-Aug-2021 3405.50 4853.60 54.02 5.00 104.34 3258.07
   11:49:20.834.15-Aug-2021 3405.50 4857.13 54.02 5.00 104.54 3258.07
   11:49:21.034.15-Aug-2021 3405.50 4861.08 54.02 5.00 104.74 3258.07
   11:49:21.233.15-Aug-2021 3405.50 4865.60 54.02 5.00 104.94 3258.07
   11:49:21.433.15-Aug-2021 3405.50 4865.60 54.02 5.00 105.14 3258.07
   11:49:21.633.15-Aug-2021 3405.50 4871.91 54.02 5.00 105.34 3258.07
   11:49:21.833.15-Aug-2021 3405.50 4875.81 54.02 5.00 105.54 3258.07
   11:49:22.033.15-Aug-2021 3405.50 4880.32 54.02 5.00 105.74 3258.07
   11:49:22.233.15-Aug-2021 3405.50 4883.88 54.02 5.00 105.94 3258.07
   11:49:22.433.15-Aug-2021 3405.50 4883.88 54.02 5.00 106.14 3258.07
   11:49:22.633.15-Aug-2021 3405.50 4890.28 54.02 5.00 106.34 3258.07
   11:49:22.832.15-Aug-2021 3405.50 4893.22 54.03 5.00 106.54 3258.07
   11:49:23.032.15-Aug-2021 3405.50 4896.95 54.02 5.00 106.74 3258.07
   11:49:23.232.15-Aug-2021 3405.50 4900.42 54.03 5.00 106.94 3258.07
   11:49:23.432.15-Aug-2021 3405.50 4900.42 54.03 5.00 107.14 3258.07
   11:49:23.632.15-Aug-2021 3405.50 4906.85 54.03 5.00 107.34 3258.07
   11:49:23.832.15-Aug-2021 3405.50 4909.83 54.03 5.00 107.54 3258.07
   11:49:24.032.15-Aug-2021 3405.50 4913.02 54.03 5.00 107.74 3258.07
   11:49:24.232.15-Aug-2021 3405.50 4916.02 54.03 5.00 107.94 3258.07
   11:49:24.432.15-Aug-2021 3405.50 4916.02 54.03 5.00 108.13 3258.07
   11:49:24.631.15-Aug-2021 3405.50 4921.59 54.03 5.00 108.33 3258.07
   11:49:24.831.15-Aug-2021 3405.50 4924.77 54.03 5.00 108.53 3258.07
   11:49:25.031.15-Aug-2021 3405.50 4928.93 54.03 5.00 108.73 3258.07
   11:49:25.231.15-Aug-2021 3405.50 4933.85 54.03 5.00 108.93 3258.07
   11:49:25.431.15-Aug-2021 3405.50 4933.85 54.03 5.00 109.13 3258.07
   11:49:25.631.15-Aug-2021 3405.50 4939.74 54.03 5.00 109.33 3258.07
   11:49:25.831.15-Aug-2021 3405.50 4942.53 54.03 5.00 109.53 3258.07
   11:49:26.031.15-Aug-2021 3405.50 4944.98 54.03 5.00 109.73 3258.07
   11:49:26.230.15-Aug-2021 3405.50 4947.99 54.03 5.00 109.93 3258.07
   11:49:26.430.15-Aug-2021 3405.50 4947.99 54.03 5.00 110.13 3258.07
   11:49:26.630.15-Aug-2021 3405.50 4955.75 54.03 5.00 110.33 3258.07
   11:49:26.830.15-Aug-2021 3405.50 4958.67 54.03 5.00 110.53 3258.07
   11:49:27.030.15-Aug-2021 3405.50 4961.59 54.03 5.00 110.73 3258.07
   11:49:27.230.15-Aug-2021 3405.50 4964.63 54.03 5.00 110.93 3258.07
   11:49:27.430.15-Aug-2021 3405.50 4964.63 54.03 5.00 111.13 3258.07
   11:49:27.630.15-Aug-2021 3405.50 4969.93 54.03 5.00 111.33 3258.07
   11:49:27.829.15-Aug-2021 3405.50 4973.43 54.03 5.00 111.53 3258.07
   11:49:28.029.15-Aug-2021 3405.50 4976.28 54.03 5.00 111.73 3258.07
   11:49:28.229.15-Aug-2021 3405.50 4979.95 54.03 5.00 111.93 3258.07
   11:49:28.429.15-Aug-2021 3405.50 4979.95 54.03 5.00 112.13 3258.07
   11:49:28.629.15-Aug-2021 3405.50 4985.09 54.03 5.00 112.33 3258.07
   11:49:28.829.15-Aug-2021 3405.50 4987.88 54.03 5.00 112.53 3258.07
   11:49:29.029.15-Aug-2021 3405.50 4990.58 54.03 5.00 112.73 3258.07
   11:49:29.229.15-Aug-2021 3405.50 4994.23 54.03 5.00 112.93 3258.07
   11:49:29.429.15-Aug-2021 3405.50 4994.23 54.03 5.00 113.13 3258.07
   11:49:29.628.15-Aug-2021 3405.50 5001.40 54.03 5.00 113.33 3258.07
   11:49:29.828.15-Aug-2021 3405.50 5004.19 54.03 5.00 113.53 3258.07
   11:49:30.028.15-Aug-2021 3405.50 5006.71 54.03 5.00 113.73 3258.07
   11:49:30.228.15-Aug-2021 3405.50 5010.58 54.03 5.00 113.93 3258.07
   11:49:30.428.15-Aug-2021 3405.50 5010.58 54.03 5.00 114.13 3258.07
   11:49:30.628.15-Aug-2021 3405.50 5017.58 54.03 5.00 114.33 3258.07
   11:49:30.828.15-Aug-2021 3405.50 5020.10 54.03 5.00 114.53 3258.07
   11:49:31.028.15-Aug-2021 3405.50 5023.55 54.03 5.00 114.73 3258.07
