~Version Information
 VERS.                  2.0:   CWLS log ASCII Standard -VERSION 2.0
 WRAP.                   NO:   One line per depth step
~Well Information Block
#MNEM.UNIT     VALUE/NAME     DESCRIPTION
#---------     -----------    ---------------------------
 STRT.S             10:08:54 15-Aug-21: START TIME 10:08:54 15-Aug-21
 STOP.S             10:17:25 15-Aug-21: STOP TIME  10:17:25 15-Aug-21
 STEP.S                   0.00: STEP TIME
 NULL.                 -999.25: NULL VALUE
 DFWT.                        :  DIST FWL TEXT
 DFST.                        :  DIST FSL TEXT
 DMF .             Drill Floor:  DRILL MEAS FROM
 STIM.      17.18.56 20-Jun-21:  START TIME
 DATE.      17.18.56 20-Aug-21:  END TIME
 SPUD.               20-Jun-21:  SPUD DATE
 NREF.                    Grid:  NORTH REFERENCE
 HPTY.       Minimum Curvature:  HOLE POS TYPE
 DMOD.             Drill Model:  DRILL MOD DESC
 SVYD.                  Survey:  SURVEY DESC
 ILTD.               Lithology:  INTERP LTH DESC
 FTOP.          Formation Tops:  FORM TOPS DESC
 SON .        AZ-XX-0907056190:  JOB NUMBER
 PDAT.       Caspian Sea Level:  PERMANENT DATUM
 WTYP.                Deviated:  WELL TYPE
 MDS .        Operator Entered:  MAG DATA SOURCE
 COMP.     BP Exploration (Caspian Sea) Ltd.:  COMPANY
 UWI .            /AZE20000092:  UNIQUE WELL IDENTIFIER
 API .            /AZE20000092:  API NUMBER
 BASE.              Azerbaijan:  LOGGING EQUIPMENT BASE LOCATION
 REGN.                   EESSA:  REGION
 PROV.                    baku:  PROVINCE
 STAT.                    baku:  STATE NAME
 CTRY.              Azerbaijan:  COUNTRY NAME
 FLD .                     ACG:  FIELD NAME
 SRVC.          Turan Drilling:  CONTRACTOR
 MWDS.                    Baku:  MWD SHOP
 WELL.                     J26:  WELL NAME
 JOBN.        AZ-XX-0907056190:  JOB TICKET NUMB
 RIG .             West Chirag:  RIG NAME
 DOE .                     N/A:  DOE NUMBER
 DCON.         Sperry Drilling:  DIRECTNL CONTR
 UNIT.                     N/A:  LOGGING EQUIPMENT ID
 CNTY.                        :  COUNTY
 LOC .                        :  LOCATION
 LMF .             Drill Floor:  LOG MEASURED FROM
 TVDS.m                  43.00:  TVDSS CORRECTN
 LATI.deg                40.13:  LATITUDE
 LONG.deg                51.22:  LONGITUDE
 WHNS.m                  -7.12:  WELL HEAD N/S
 WHEW.m                  -9.46:  WELL HEAD E/W
 UTMX.m              519004.02:  UTM X
 UTMY.m             4443784.96:  UTM Y
 DFWL.m                   0.00:  DISTANCE FWL
 DFSL.m                   0.00:  DISTANCE FSL
 SDEP.m                 464.00:  START DEPTH
 TDD .m                3500.00:  TOTAL DEPTH (DRILLER)
 VSDR.deg               114.35:  VERT SEC DIRECT
 GVFD.g                   1.00:  GRAVITY FIELD
 MFLD.nT              50386.00:  MAGNETIC FIELD
 MDIP.deg                59.63:  MAGNETIC DIP
 MDEC.deg                 6.43:  MAGNETIC DECL
 GRDC.deg                 0.15:  GRID CORRECTION
 AZTC.deg                 6.29:  AZM TOTAL CORR
 EPD .m                   0.00:  ELEVATION
 EGL .m                   0.00:  GROUND ELEVATION
 WDMS.m                 169.80:  WD ELEV
 APD .m                  43.00:  DEPTH ABOVE PD
 VSEW.m                  -9.46:  VERT SEC E/W
 VSNS.m                  -7.12:  VERT SEC N/S
 AGAP.m                  43.00:  AIR GAP
 DEP .m                 356.16:  DEPTH
 EKB .m                  43.00:  KB ELEVATION
 EDF .m                  43.00:  DF ELEVATION
 TDL .m                 699.00:  TOTAL DEPTH (LOGGER)
 VSC .                       0:  VS TO CLOSURE
 MAGU.                 1853727:  MAGUTM CHECKSUM
~Parameter Information Block
#MNEM.UNIT       Value        Description
#---------     -----------    ---------------------------
 AV  .mps                 1.30:  Ann Velocity 
 AVMX.mps                 1.67:  Max Ann Veloc 
 AZIF.deg               280.40:  Azm, Final 
 BHAT.        Rotary Steerable:  BHA Type 
 BREV.rev            528970.00:  Rev Bit Total 
 BROT.°/30m               1.00:  Build Rotating 
 BS  .in                 12.25:  Bit Size 
 BSZ .in                 12.25:  Bit Size 
 BTPL.psig              738.00:  Bit Press Loss 
 CABU.                     Yes:  Customer Abuse 
 CGEO.        Elvin Suleymanov:  Customer Geo 
 COMM.                     ´½}:  Run Comments 1 
 TCS .hr                 66.05:  Time Ciculation Ended 
 CV  .mps                 2.20:  Crit Velocity 
 CVMX.mps                 2.56:  Max Crit Veloc 
 DD1 .          Rashad Habibov:  Direct Drillr 1 
 DD2 .            Azer ravanov:  Direct Drillr 2 
 DD3 .           Teymur Agayev:  Direct Drillr 3 
 DDSV.               Geo-Pilot:  DD Service 
 DEFF.%                  90.00:  % Det Eff 
 DLRX.°/30m               2.95:  Dogleg Rot Max 
 DLSO.°/30m               1.00:  Dogleg Oriented 
 DLSX.°/30m               2.95:  Dogleg Str Max 
 DRET.      11.42.20 11-Aug-21:  Drill End Time 
 DRST.      23.03.20 08-Aug-21:  Drill Start Tim 
 DTIM.hr                 45.50:  Time Drilling 
 EDEP.m                3488.00:  End Depth 
 ENG1.         Marcelo Marcari:  Engineer 1 
 ENG2.         Dair Mahammadov:  Engineer 2 
 ENG3.       Davud Huseyn-zada:  Engineer 3 
 ENG4.         Yevgeniy Ulikov:  Engineer 4 
 ETIM.      17.45.20 17-Aug-21:  End Time 
 FLOI.gpm              1197.70:  Flow In 
 FLON.gpm              1100.00:  Flow In Min 
 FLOS.cptm                0.00:  Fluid Loss 
 FLOX.gpm              1200.00:  Flow In Max 
 DFT .        Mineral Oil Base:  Mud Type 
 FTRO.       Formation Presure:  FTWD Run Obj 
 HFLO.                      No:  High Flow 
 HPRE.                      No:  High Pressure 
 HTEM.                      No:  High Temp 
 HYDO.m                   1.80:  Hydro Offset 
 IFIN.deg                 9.87:  Inc, Final 
 IMAX.deg                19.96:  Inc Max 
 IMIN.deg                 3.82:  Inc Min 
 IMND.m                3257.42:  Inc Min Depth 
 IMXD.m                2945.53:  Inc Max Depth 
 JARR.                      No:  Jarring 
 LETM.      11.42.20 11-Aug-21:  Log End Time 
 LOST.hr                     0:  Lost Rig Time 
 LSTM.      23.03.20 08-Aug-21:  Log Start Time 
 MDCL.ppm             42500.00:  Mud Chlorides 
 MDES.     Inversion Oil/Synthetic:  Mud Desc 
 DFD .sg                  1.45:  Mud Density 
 MDMN.sg                  1.39:  Dens Mud Min 
 MDMX.sg                  1.57:  Dens Mud Max 
 MOIL.                   53.20:  Run Mud Oil % 
 MOWR.                   70:30:  Run Mud OWR 
 MSND.                       0:  Run Mud Sand % 
 MSOL.                   24.30:  Run Mud Solids% 
 DFV .spqt               79.00:  Mud Viscosity 
 MWOD.in                  8.00:  MWD Tool OD 
 MWSI.                      No:  Serv Intrp, MWD 
 OTIM.hr                253.06:  Time Operating 
 PCON.           Look Like New:  Pad Condition 
 PMAX.psia            11068.93:  Press Op, Max 
 PV  .cP                 36.00:  Mud PV 
 RUN .                    1000:  Run Number 
 ROPA.m/hr               15.34:  ROP Avg 
 ROPN.m/hr                4.00:  ROP Min 
 ROPX.m/hr               31.00:  ROP Max 
 RPMA.rpm               151.40:  RPM Surface Avg 
 RPMN.rpm               120.00:  RPM Surface Min 
 RPMX.rpm               160.00:  RPM Surface Max 
 RRUN.                    L505:  Rig Run Number 
 RTIM.hr                 10.00:  Time Reaming 
 SAZI.deg                88.92:  Azm, Start 
 SDEP.m                2789.00:  Start Depth 
 SIDD.                      No:  Serv Intrp, DD 
 SINC.deg                19.84:  Inc, Start 
 SPPA.psig             4421.39:  SPP Avg 
 SPPN.psig             4130.00:  SPP Min 
 SPPX.psig             4800.00:  SPP Max 
 STIM.      01.25.20 07-Aug-21:  Start Time 
 SVCS.                 DD, MWD:  Services 
 SVER.                    9.20:  Sperry Version 
 TDAT.m                 699.00:  Tot Depth Attmp 
 TDDF.                      No:  Trip for DD 
 TDLG.m                 699.00:  Tot Depth Loggd 
 TFF .                      No:  Trip for Fail 
 TQAA.f-kp               20.55:  Torque Abs Avg 
 TQAN.f-kp               15.00:  Torque Abs Min 
 TQAX.f-kp               24.00:  Torque Abs Max 
 TRRT.°/30m               0.50:  Turn Rotating 
 MRT .                    HCIM:  Maximum Recorded Temperature 
 TTMX.degC               82.35:  Max Tool Temp 
 VS01.                90654677:  Virtual Str1 SN 
 VS02.                90636294:  Virtual Str2 SN 
 VS03.                90653866:  Virtual Str3 SN 
 VS04.                90654674:  Virtual Str4 SN 
 WBMN.klb                10.00:  WOB Min 
 WITN.         Haytham Mostafa:  Customer Rep 
 WITN.           Rufat Babayev:  Customer Rep 2 
 WOBA.klb                22.43:  WOB Avg 
 WOBX.klb                35.00:  WOB Max 
 YP  .lhf2               32.00:  Yield Point 
~Curve Information Block
#MNEM.UNIT                 API CODE     Curve Description
#---------               -----------    ---------------------------
 TIME.HHMMSS            00 000 000 000:  GT Time & Date
 GTDEPTH.m              00 000 000 000:  GT Depth
 GTPQH.psia             00 000 000 000:  GT HR Quartz Pressure
 GTTQ.degC              00 000 000 000:  GT Quartz Temperature
 GTTN.NONE              00 000 000 000:  GT Test Number
 GTET.sec               00 000 000 000:  GT Elapsed Test Time
 GTTVD.m                00 000 000 000:  GT True Vertical Depth
#Other Information
#
#WARRANTY: Halliburton will use its best efforts to furnish customers with 
#accurate information and interpretations that are part of, and incident to, the services 
#provided.  However, Halliburton cannot and does not warrant the accuracy 
#or correctness of such information and interpretations.  Under no circumstances should any 
#such information or interpretation be relied upon as the sole basis for any drilling, 
#completion, production, or financial decision or any procedure involving any risk to the 
#safety of any drilling venture, drilling rig or its crew or any other third party.  The 
#Customer has full responsibility for all drilling, completion and production operation.  
#Halliburton makes no representations or warranties, either expressed or 
#implied, including, but not limited to, the implied warranties of merchantability or fitness 
#for a particular purpose, with respect to the services rendered.  In no event will 
#Halliburton be liable for failure to obtain any particular results or for 
#any damages, including, but not limited to, indirect, special or consequential damages, 
#resulting from the use of any information or interpretation provided by Halliburton.
#
~A           TIME           GTDEPTH  GTPQH  GTTQ  GTTN  GTET   GTTVD  
# ...
   10:09:17.225.15-Aug-2021 3416.50 7482.02 54.47 4.00  23.00 3268.90
   10:09:17.425.15-Aug-2021 3416.50 7482.02 54.47 4.00  23.20 3268.90
   10:09:17.625.15-Aug-2021 3416.50 7480.19 54.47 4.00  23.40 3268.90
   10:09:17.825.15-Aug-2021 3416.50 7482.38 54.47 4.00  23.60 3268.90
   10:09:18.025.15-Aug-2021 3416.50 7481.74 54.47 4.00  23.80 3268.90
   10:09:18.225.15-Aug-2021 3416.50 7483.85 54.47 4.00  24.00 3268.90
   10:09:18.425.15-Aug-2021 3416.50 7483.85 54.47 4.00  24.20 3268.90
   10:09:18.625.15-Aug-2021 3416.50 7481.51 54.47 4.00  24.40 3268.90
   10:09:18.825.15-Aug-2021 3416.50 7482.43 54.47 4.00  24.60 3268.90
   10:09:19.025.15-Aug-2021 3416.50 7481.45 54.47 4.00  24.80 3268.90
   10:09:19.225.15-Aug-2021 3416.50 7479.70 54.47 4.00  25.00 3268.90
   10:09:19.425.15-Aug-2021 3416.50 7479.70 54.47 4.00  25.20 3268.90
   10:09:19.625.15-Aug-2021 3416.50 7482.03 54.47 4.00  25.40 3268.90
   10:09:19.825.15-Aug-2021 3416.50 7485.59 54.47 4.00  25.60 3268.90
   10:09:20.025.15-Aug-2021 3416.50 7481.59 54.47 4.00  25.80 3268.90
   10:09:20.225.15-Aug-2021 3416.50 7481.65 54.47 4.00  26.00 3268.90
   10:09:20.426.15-Aug-2021 3416.50 7481.65 54.47 4.00  26.20 3268.90
   10:09:20.626.15-Aug-2021 3416.50 7480.36 54.47 4.00  26.40 3268.90
   10:09:20.826.15-Aug-2021 3416.50 7484.36 54.46 4.00  26.60 3268.90
   10:09:21.026.15-Aug-2021 3416.50 7482.64 54.46 4.00  26.80 3268.90
   10:09:21.226.15-Aug-2021 3416.50 7483.34 54.46 4.00  27.00 3268.90
   10:09:21.426.15-Aug-2021 3416.50 7483.34 54.46 4.00  27.20 3268.90
   10:09:21.626.15-Aug-2021 3416.50 7480.80 54.46 4.00  27.40 3268.90
   10:09:21.826.15-Aug-2021 3416.50 7481.33 54.46 4.00  27.60 3268.90
   10:09:22.026.15-Aug-2021 3416.50 7484.27 54.46 4.00  27.80 3268.90
   10:09:22.226.15-Aug-2021 3416.50 7484.00 54.46 4.00  28.00 3268.90
   10:09:22.426.15-Aug-2021 3416.50 7484.00 54.46 4.00  28.20 3268.90
   10:09:22.626.15-Aug-2021 3416.50 7480.60 54.46 4.00  28.40 3268.90
   10:09:22.826.15-Aug-2021 3416.50 7483.14 54.46 4.00  28.60 3268.90
   10:09:23.026.15-Aug-2021 3416.50 7483.55 54.46 4.00  28.80 3268.90
   10:09:23.226.15-Aug-2021 3416.50 7482.71 54.46 4.00  29.00 3268.90
   10:09:23.426.15-Aug-2021 3416.50 7482.71 54.46 4.00  29.20 3268.90
   10:09:23.626.15-Aug-2021 3416.50 7482.68 54.46 4.00  29.40 3268.90
   10:09:23.826.15-Aug-2021 3416.50 7485.63 54.46 4.00  29.60 3268.90
   10:09:24.026.15-Aug-2021 3416.50 7482.30 54.46 4.00  29.80 3268.90
   10:09:24.226.15-Aug-2021 3416.50 7481.85 54.46 4.00  30.00 3268.90
   10:09:24.426.15-Aug-2021 3416.50 7481.85 54.46 4.00  30.20 3268.90
   10:09:24.626.15-Aug-2021 3416.50 7481.97 54.46 4.00  30.40 3268.90
   10:09:24.826.15-Aug-2021 3416.50 7483.33 54.46 4.00  30.61 3268.90
   10:09:25.026.15-Aug-2021 3416.50 7482.93 54.46 4.00  30.81 3268.90
   10:09:25.226.15-Aug-2021 3416.50 7481.84 54.46 4.00  31.01 3268.90
   10:09:25.426.15-Aug-2021 3416.50 7481.84 54.46 4.00  31.21 3268.90
   10:09:25.626.15-Aug-2021 3416.50 7485.11 54.46 4.00  31.41 3268.90
   10:09:25.826.15-Aug-2021 3416.50 7483.27 54.46 4.00  31.61 3268.90
   10:09:26.026.15-Aug-2021 3416.50 7483.08 54.46 4.00  31.81 3268.90
   10:09:26.226.15-Aug-2021 3416.50 7483.01 54.46 4.00  32.01 3268.90
   10:09:26.426.15-Aug-2021 3416.50 7483.01 54.46 4.00  32.21 3268.90
   10:09:26.627.15-Aug-2021 3416.50 7481.46 54.46 4.00  32.41 3268.90
   10:09:26.827.15-Aug-2021 3416.50 7480.95 54.46 4.00  32.61 3268.90
   10:09:27.027.15-Aug-2021 3416.50 7484.65 54.46 4.00  32.81 3268.90
   10:09:27.227.15-Aug-2021 3416.50 7484.07 54.46 4.00  33.01 3268.90
   10:09:27.427.15-Aug-2021 3416.50 7484.07 54.46 4.00  33.21 3268.90
   10:09:27.627.15-Aug-2021 3416.50 7482.14 54.46 4.00  33.41 3268.90
   10:09:27.827.15-Aug-2021 3416.50 7481.97 54.46 4.00  33.61 3268.90
   10:09:28.027.15-Aug-2021 3416.50 7481.57 54.46 4.00  33.81 3268.90
   10:09:28.227.15-Aug-2021 3416.50 7482.82 54.46 4.00  34.01 3268.90
   10:09:28.427.15-Aug-2021 3416.50 7482.82 54.46 4.00  34.21 3268.90
   10:09:28.627.15-Aug-2021 3416.50 7484.84 54.46 4.00  34.41 3268.90
   10:09:28.827.15-Aug-2021 3416.50 7481.91 54.46 4.00  34.61 3268.90
   10:09:29.027.15-Aug-2021 3416.50 7480.82 54.46 4.00  34.81 3268.90
   10:09:29.227.15-Aug-2021 3416.50 7482.78 54.46 4.00  35.01 3268.90
   10:09:29.427.15-Aug-2021 3416.50 7482.78 54.46 4.00  35.21 3268.90
   10:09:29.627.15-Aug-2021 3416.50 7482.98 54.46 4.00  35.41 3268.90
   10:09:29.827.15-Aug-2021 3416.50 7482.10 54.46 4.00  35.61 3268.90
   10:09:30.027.15-Aug-2021 3416.50 7482.51 54.46 4.00  35.81 3268.90
   10:09:30.227.15-Aug-2021 3416.50 7483.74 54.46 4.00  36.01 3268.90
   10:09:30.427.15-Aug-2021 3416.50 7483.74 54.46 4.00  36.21 3268.90
   10:09:30.627.15-Aug-2021 3416.50 7483.54 54.46 4.00  36.41 3268.90
   10:09:30.827.15-Aug-2021 3416.50 7480.57 54.46 4.00  36.61 3268.90
   10:09:31.027.15-Aug-2021 3416.50 7481.35 54.46 4.00  36.81 3268.90
   10:09:31.227.15-Aug-2021 3416.50 7482.13 54.46 4.00  37.01 3268.90
   10:09:31.427.15-Aug-2021 3416.50 7482.13 54.46 4.00  37.21 3268.90
   10:09:31.627.15-Aug-2021 3416.50 7482.53 54.46 4.00  37.41 3268.90
   10:09:31.827.15-Aug-2021 3416.50 7482.36 54.46 4.00  37.61 3268.90
   10:09:32.027.15-Aug-2021 3416.50 7482.76 54.46 4.00  37.81 3268.90
   10:09:32.227.15-Aug-2021 3416.50 7483.79 54.46 4.00  38.01 3268.90
   10:09:32.427.15-Aug-2021 3416.50 7483.79 54.46 4.00  38.21 3268.90
   10:09:32.628.15-Aug-2021 3416.50 7480.48 54.46 4.00  38.41 3268.90
   10:09:32.828.15-Aug-2021 3416.50 7481.18 54.46 4.00  38.61 3268.90
   10:09:33.028.15-Aug-2021 3416.50 7483.99 54.46 4.00  38.81 3268.90
   10:09:33.228.15-Aug-2021 3416.50 7483.79 54.46 4.00  39.01 3268.90
   10:09:33.428.15-Aug-2021 3416.50 7483.79 54.46 4.00  39.21 3268.90
   10:09:33.628.15-Aug-2021 3416.50 7483.08 54.46 4.00  39.41 3268.90
   10:09:33.828.15-Aug-2021 3416.50 7481.58 54.46 4.00  39.61 3268.90
   10:09:34.028.15-Aug-2021 3416.50 7480.05 54.46 4.00  39.81 3268.90
   10:09:34.228.15-Aug-2021 3416.50 7480.81 54.46 4.00  40.01 3268.90
   10:09:34.428.15-Aug-2021 3416.50 7480.81 54.46 4.00  40.21 3268.90
   10:09:34.628.15-Aug-2021 3416.50 7482.94 54.46 4.00  40.41 3268.90
   10:09:34.828.15-Aug-2021 3416.50 7482.70 54.46 4.00  40.61 3268.90
   10:09:35.028.15-Aug-2021 3416.50 7482.60 54.46 4.00  40.81 3268.90
   10:09:35.228.15-Aug-2021 3416.50 7482.58 54.46 4.00  41.01 3268.90
   10:09:35.428.15-Aug-2021 3416.50 7482.58 54.46 4.00  41.21 3268.90
   10:09:35.628.15-Aug-2021 3416.50 7480.81 54.46 4.00  41.41 3268.90
   10:09:35.828.15-Aug-2021 3416.50 7481.78 54.46 4.00  41.61 3268.90
   10:09:36.028.15-Aug-2021 3416.50 7483.76 54.46 4.00  41.81 3268.90
   10:09:36.228.15-Aug-2021 3416.50 7482.90 54.46 4.00  42.01 3268.90
   10:09:36.428.15-Aug-2021 3416.50 7482.90 54.46 4.00  42.21 3268.90
   10:09:36.628.15-Aug-2021 3416.50 7481.60 54.46 4.00  42.41 3268.90
   10:09:36.828.15-Aug-2021 3416.50 7483.61 54.46 4.00  42.61 3268.90
   10:09:37.028.15-Aug-2021 3416.50 7483.13 54.46 4.00  42.81 3268.90
   10:09:37.228.15-Aug-2021 3416.50 7482.88 54.46 4.00  43.01 3268.90
   10:09:37.428.15-Aug-2021 3416.50 7482.88 54.46 4.00  43.21 3268.90
   10:09:37.628.15-Aug-2021 3416.50 7481.77 54.46 4.00  43.41 3268.90
   10:09:37.828.15-Aug-2021 3416.50 7481.53 54.46 4.00  43.61 3268.90
   10:09:38.028.15-Aug-2021 3416.50 7482.55 54.46 4.00  43.81 3268.90
   10:09:38.228.15-Aug-2021 3416.50 7483.39 54.46 4.00  44.01 3268.90
   10:09:38.428.15-Aug-2021 3416.50 7483.39 54.46 4.00  44.21 3268.90
   10:09:38.628.15-Aug-2021 3416.50 7481.60 54.46 4.00  44.41 3268.90
   10:09:38.829.15-Aug-2021 3416.50 7482.04 54.46 4.00  44.61 3268.90
   10:09:39.029.15-Aug-2021 3416.50 7482.50 54.46 4.00  44.81 3268.90
   10:09:39.229.15-Aug-2021 3416.50 7482.45 54.46 4.00  45.01 3268.90
   10:09:39.429.15-Aug-2021 3416.50 7482.45 54.46 4.00  45.21 3268.90
   10:09:39.629.15-Aug-2021 3416.50 7482.49 54.46 4.00  45.41 3268.90
   10:09:39.829.15-Aug-2021 3416.50 7483.02 54.46 4.00  45.61 3268.90
   10:09:40.029.15-Aug-2021 3416.50 7481.07 54.46 4.00  45.81 3268.90
