~Version Information
 VERS.                  2.0:   CWLS log ASCII Standard -VERSION 2.0
 WRAP.                   NO:   One line per depth step
~Well Information Block
#MNEM.UNIT     VALUE/NAME     DESCRIPTION
#---------     -----------    ---------------------------
 STRT.S             11:47:36 15-Aug-21: START TIME 11:47:36 15-Aug-21
 STOP.S             11:55:59 15-Aug-21: STOP TIME  11:55:59 15-Aug-21
 STEP.S                   0.00: STEP TIME
 NULL.                 -999.25: NULL VALUE
 DFWT.                        :  DIST FWL TEXT
 DFST.                        :  DIST FSL TEXT
 DMF .             Drill Floor:  DRILL MEAS FROM
 STIM.      17.18.56 20-Jun-21:  START TIME
 DATE.      17.18.56 20-Aug-21:  END TIME
 SPUD.               20-Jun-21:  SPUD DATE
 NREF.                    Grid:  NORTH REFERENCE
 HPTY.       Minimum Curvature:  HOLE POS TYPE
 DMOD.             Drill Model:  DRILL MOD DESC
 SVYD.                  Survey:  SURVEY DESC
 ILTD.               Lithology:  INTERP LTH DESC
 FTOP.          Formation Tops:  FORM TOPS DESC
 SON .        AZ-XX-0907056190:  JOB NUMBER
 PDAT.       Caspian Sea Level:  PERMANENT DATUM
 WTYP.                Deviated:  WELL TYPE
 MDS .        Operator Entered:  MAG DATA SOURCE
 COMP.     BP Exploration (Caspian Sea) Ltd.:  COMPANY
 UWI .            /AZE20000092:  UNIQUE WELL IDENTIFIER
 API .            /AZE20000092:  API NUMBER
 BASE.              Azerbaijan:  LOGGING EQUIPMENT BASE LOCATION
 REGN.                   EESSA:  REGION
 PROV.                    baku:  PROVINCE
 STAT.                    baku:  STATE NAME
 CTRY.              Azerbaijan:  COUNTRY NAME
 FLD .                     ACG:  FIELD NAME
 SRVC.          Turan Drilling:  CONTRACTOR
 MWDS.                    Baku:  MWD SHOP
 WELL.                     J26:  WELL NAME
 JOBN.        AZ-XX-0907056190:  JOB TICKET NUMB
 RIG .             West Chirag:  RIG NAME
 DOE .                     N/A:  DOE NUMBER
 DCON.         Sperry Drilling:  DIRECTNL CONTR
 UNIT.                     N/A:  LOGGING EQUIPMENT ID
 CNTY.                        :  COUNTY
 LOC .                        :  LOCATION
 LMF .             Drill Floor:  LOG MEASURED FROM
 TVDS.m                  43.00:  TVDSS CORRECTN
 LATI.deg                40.13:  LATITUDE
 LONG.deg                51.22:  LONGITUDE
 WHNS.m                  -7.12:  WELL HEAD N/S
 WHEW.m                  -9.46:  WELL HEAD E/W
 UTMX.m              519004.02:  UTM X
 UTMY.m             4443784.96:  UTM Y
 DFWL.m                   0.00:  DISTANCE FWL
 DFSL.m                   0.00:  DISTANCE FSL
 SDEP.m                 464.00:  START DEPTH
 TDD .m                3500.00:  TOTAL DEPTH (DRILLER)
 VSDR.deg               114.35:  VERT SEC DIRECT
 GVFD.g                   1.00:  GRAVITY FIELD
 MFLD.nT              50386.00:  MAGNETIC FIELD
 MDIP.deg                59.63:  MAGNETIC DIP
 MDEC.deg                 6.43:  MAGNETIC DECL
 GRDC.deg                 0.15:  GRID CORRECTION
 AZTC.deg                 6.29:  AZM TOTAL CORR
 EPD .m                   0.00:  ELEVATION
 EGL .m                   0.00:  GROUND ELEVATION
 WDMS.m                 169.80:  WD ELEV
 APD .m                  43.00:  DEPTH ABOVE PD
 VSEW.m                  -9.46:  VERT SEC E/W
 VSNS.m                  -7.12:  VERT SEC N/S
 AGAP.m                  43.00:  AIR GAP
 DEP .m                 356.16:  DEPTH
 EKB .m                  43.00:  KB ELEVATION
 EDF .m                  43.00:  DF ELEVATION
 TDL .m                 699.00:  TOTAL DEPTH (LOGGER)
 VSC .                       0:  VS TO CLOSURE
 MAGU.                 1853727:  MAGUTM CHECKSUM
~Parameter Information Block
#MNEM.UNIT       Value        Description
#---------     -----------    ---------------------------
 AV  .mps                 1.30:  Ann Velocity 
 AVMX.mps                 1.67:  Max Ann Veloc 
 AZIF.deg               280.40:  Azm, Final 
 BHAT.        Rotary Steerable:  BHA Type 
 BREV.rev            528970.00:  Rev Bit Total 
 BROT.°/30m               1.00:  Build Rotating 
 BS  .in                 12.25:  Bit Size 
 BSZ .in                 12.25:  Bit Size 
 BTPL.psig              738.00:  Bit Press Loss 
 CABU.                     Yes:  Customer Abuse 
 CGEO.        Elvin Suleymanov:  Customer Geo 
 COMM.                     lþe:  Run Comments 1 
 TCS .hr                 66.05:  Time Ciculation Ended 
 CV  .mps                 2.20:  Crit Velocity 
 CVMX.mps                 2.56:  Max Crit Veloc 
 DD1 .          Rashad Habibov:  Direct Drillr 1 
 DD2 .            Azer ravanov:  Direct Drillr 2 
 DD3 .           Teymur Agayev:  Direct Drillr 3 
 DDSV.               Geo-Pilot:  DD Service 
 DEFF.%                  90.00:  % Det Eff 
 DLRX.°/30m               2.95:  Dogleg Rot Max 
 DLSO.°/30m               1.00:  Dogleg Oriented 
 DLSX.°/30m               2.95:  Dogleg Str Max 
 DRET.      11.42.20 11-Aug-21:  Drill End Time 
 DRST.      23.03.20 08-Aug-21:  Drill Start Tim 
 DTIM.hr                 45.50:  Time Drilling 
 EDEP.m                3488.00:  End Depth 
 ENG1.         Marcelo Marcari:  Engineer 1 
 ENG2.         Dair Mahammadov:  Engineer 2 
 ENG3.       Davud Huseyn-zada:  Engineer 3 
 ENG4.         Yevgeniy Ulikov:  Engineer 4 
 ETIM.      17.45.20 17-Aug-21:  End Time 
 FLOI.gpm              1197.70:  Flow In 
 FLON.gpm              1100.00:  Flow In Min 
 FLOS.cptm                0.00:  Fluid Loss 
 FLOX.gpm              1200.00:  Flow In Max 
 DFT .        Mineral Oil Base:  Mud Type 
 FTRO.       Formation Presure:  FTWD Run Obj 
 HFLO.                      No:  High Flow 
 HPRE.                      No:  High Pressure 
 HTEM.                      No:  High Temp 
 HYDO.m                   1.80:  Hydro Offset 
 IFIN.deg                 9.87:  Inc, Final 
 IMAX.deg                19.96:  Inc Max 
 IMIN.deg                 3.82:  Inc Min 
 IMND.m                3257.42:  Inc Min Depth 
 IMXD.m                2945.53:  Inc Max Depth 
 JARR.                      No:  Jarring 
 LETM.      11.42.20 11-Aug-21:  Log End Time 
 LOST.hr                     0:  Lost Rig Time 
 LSTM.      23.03.20 08-Aug-21:  Log Start Time 
 MDCL.ppm             42500.00:  Mud Chlorides 
 MDES.     Inversion Oil/Synthetic:  Mud Desc 
 DFD .sg                  1.45:  Mud Density 
 MDMN.sg                  1.39:  Dens Mud Min 
 MDMX.sg                  1.57:  Dens Mud Max 
 MOIL.                   53.20:  Run Mud Oil % 
 MOWR.                   70:30:  Run Mud OWR 
 MSND.                       0:  Run Mud Sand % 
 MSOL.                   24.30:  Run Mud Solids% 
 DFV .spqt               79.00:  Mud Viscosity 
 MWOD.in                  8.00:  MWD Tool OD 
 MWSI.                      No:  Serv Intrp, MWD 
 OTIM.hr                253.06:  Time Operating 
 PCON.           Look Like New:  Pad Condition 
 PMAX.psia            11068.93:  Press Op, Max 
 PV  .cP                 36.00:  Mud PV 
 RUN .                    1000:  Run Number 
 ROPA.m/hr               15.34:  ROP Avg 
 ROPN.m/hr                4.00:  ROP Min 
 ROPX.m/hr               31.00:  ROP Max 
 RPMA.rpm               151.40:  RPM Surface Avg 
 RPMN.rpm               120.00:  RPM Surface Min 
 RPMX.rpm               160.00:  RPM Surface Max 
 RRUN.                    L505:  Rig Run Number 
 RTIM.hr                 10.00:  Time Reaming 
 SAZI.deg                88.92:  Azm, Start 
 SDEP.m                2789.00:  Start Depth 
 SIDD.                      No:  Serv Intrp, DD 
 SINC.deg                19.84:  Inc, Start 
 SPPA.psig             4421.39:  SPP Avg 
 SPPN.psig             4130.00:  SPP Min 
 SPPX.psig             4800.00:  SPP Max 
 STIM.      01.25.20 07-Aug-21:  Start Time 
 SVCS.                 DD, MWD:  Services 
 SVER.                    9.20:  Sperry Version 
 TDAT.m                 699.00:  Tot Depth Attmp 
 TDDF.                      No:  Trip for DD 
 TDLG.m                 699.00:  Tot Depth Loggd 
 TFF .                      No:  Trip for Fail 
 TQAA.f-kp               20.55:  Torque Abs Avg 
 TQAN.f-kp               15.00:  Torque Abs Min 
 TQAX.f-kp               24.00:  Torque Abs Max 
 TRRT.°/30m               0.50:  Turn Rotating 
 MRT .                    HCIM:  Maximum Recorded Temperature 
 TTMX.degC               82.35:  Max Tool Temp 
 VS01.                90654677:  Virtual Str1 SN 
 VS02.                90636294:  Virtual Str2 SN 
 VS03.                90653866:  Virtual Str3 SN 
 VS04.                90654674:  Virtual Str4 SN 
 WBMN.klb                10.00:  WOB Min 
 WITN.         Haytham Mostafa:  Customer Rep 
 WITN.           Rufat Babayev:  Customer Rep 2 
 WOBA.klb                22.43:  WOB Avg 
 WOBX.klb                35.00:  WOB Max 
 YP  .lhf2               32.00:  Yield Point 
~Curve Information Block
#MNEM.UNIT                 API CODE     Curve Description
#---------               -----------    ---------------------------
 TIME.HHMMSS            00 000 000 000:  GT Time & Date
 GTDEPTH.m              00 000 000 000:  GT Depth
 GTPQH.psia             00 000 000 000:  GT HR Quartz Pressure
 GTTQ.degC              00 000 000 000:  GT Quartz Temperature
 GTTN.NONE              00 000 000 000:  GT Test Number
 GTET.sec               00 000 000 000:  GT Elapsed Test Time
 GTTVD.m                00 000 000 000:  GT True Vertical Depth
#Other Information
#
#WARRANTY: Halliburton will use its best efforts to furnish customers with 
#accurate information and interpretations that are part of, and incident to, the services 
#provided.  However, Halliburton cannot and does not warrant the accuracy 
#or correctness of such information and interpretations.  Under no circumstances should any 
#such information or interpretation be relied upon as the sole basis for any drilling, 
#completion, production, or financial decision or any procedure involving any risk to the 
#safety of any drilling venture, drilling rig or its crew or any other third party.  The 
#Customer has full responsibility for all drilling, completion and production operation.  
#Halliburton makes no representations or warranties, either expressed or 
#implied, including, but not limited to, the implied warranties of merchantability or fitness 
#for a particular purpose, with respect to the services rendered.  In no event will 
#Halliburton be liable for failure to obtain any particular results or for 
#any damages, including, but not limited to, indirect, special or consequential damages, 
#resulting from the use of any information or interpretation provided by Halliburton.
#
~A           TIME           GTDEPTH  GTPQH  GTTQ  GTTN  GTET   GTTVD  
# ...
   11:54:30.048.15-Aug-2021 3405.50 1872.47 53.75 5.00 413.75 3258.07
   11:54:30.248.15-Aug-2021 3405.50 1872.47 53.75 5.00 413.95 3258.07
   11:54:30.447.15-Aug-2021 3405.50 1873.56 53.75 5.00 414.15 3258.07
   11:54:30.647.15-Aug-2021 3405.50 1873.94 53.75 5.00 414.35 3258.07
   11:54:30.847.15-Aug-2021 3405.50 1874.24 53.75 5.00 414.55 3258.07
   11:54:31.047.15-Aug-2021 3405.50 1874.60 53.75 5.00 414.75 3258.07
   11:54:31.247.15-Aug-2021 3405.50 1874.60 53.75 5.00 414.95 3258.07
   11:54:31.447.15-Aug-2021 3405.50 1875.19 53.75 5.00 415.15 3258.07
   11:54:31.647.15-Aug-2021 3405.50 1875.64 53.75 5.00 415.35 3258.07
   11:54:31.847.15-Aug-2021 3405.50 1875.87 53.75 5.00 415.55 3258.07
   11:54:32.046.15-Aug-2021 3405.50 1876.23 53.75 5.00 415.75 3258.07
   11:54:32.246.15-Aug-2021 3405.50 1876.23 53.75 5.00 415.95 3258.07
   11:54:32.446.15-Aug-2021 3405.50 1877.20 53.75 5.00 416.15 3258.07
   11:54:32.646.15-Aug-2021 3405.50 1877.51 53.75 5.00 416.35 3258.07
   11:54:32.846.15-Aug-2021 3405.50 1877.78 53.75 5.00 416.55 3258.07
   11:54:33.046.15-Aug-2021 3405.50 1878.05 53.75 5.00 416.75 3258.07
   11:54:33.246.15-Aug-2021 3405.50 1878.05 53.75 5.00 416.95 3258.07
   11:54:33.446.15-Aug-2021 3405.50 1878.99 53.75 5.00 417.15 3258.07
   11:54:33.645.15-Aug-2021 3405.50 1879.54 53.75 5.00 417.35 3258.07
   11:54:33.845.15-Aug-2021 3405.50 1879.81 53.75 5.00 417.55 3258.07
   11:54:34.045.15-Aug-2021 3405.50 1880.08 53.75 5.00 417.75 3258.07
   11:54:34.245.15-Aug-2021 3405.50 1880.08 53.75 5.00 417.95 3258.07
   11:54:34.445.15-Aug-2021 3405.50 1880.74 53.75 5.00 418.15 3258.07
   11:54:34.645.15-Aug-2021 3405.50 1881.28 53.75 5.00 418.35 3258.07
   11:54:34.845.15-Aug-2021 3405.50 1881.78 53.75 5.00 418.55 3258.07
   11:54:35.045.15-Aug-2021 3405.50 1882.27 53.75 5.00 418.75 3258.07
   11:54:35.245.15-Aug-2021 3405.50 1882.27 53.75 5.00 418.95 3258.07
   11:54:35.444.15-Aug-2021 3405.50 1882.94 53.75 5.00 419.15 3258.07
   11:54:35.644.15-Aug-2021 3405.50 1883.39 53.75 5.00 419.35 3258.07
   11:54:35.844.15-Aug-2021 3405.50 1883.57 53.75 5.00 419.55 3258.07
   11:54:36.044.15-Aug-2021 3405.50 1883.82 53.75 5.00 419.75 3258.07
   11:54:36.244.15-Aug-2021 3405.50 1883.82 53.75 5.00 419.95 3258.07
   11:54:36.444.15-Aug-2021 3405.50 1884.55 53.75 5.00 420.15 3258.07
   11:54:36.644.15-Aug-2021 3405.50 1885.28 53.75 5.00 420.35 3258.07
   11:54:36.844.15-Aug-2021 3405.50 1885.71 53.75 5.00 420.55 3258.07
   11:54:37.043.15-Aug-2021 3405.50 1885.88 53.75 5.00 420.75 3258.07
   11:54:37.243.15-Aug-2021 3405.50 1885.88 53.75 5.00 420.95 3258.07
   11:54:37.443.15-Aug-2021 3405.50 1886.47 53.75 5.00 421.15 3258.07
   11:54:37.643.15-Aug-2021 3405.50 1886.89 53.75 5.00 421.35 3258.07
   11:54:37.843.15-Aug-2021 3405.50 1887.28 53.75 5.00 421.55 3258.07
   11:54:38.043.15-Aug-2021 3405.50 1887.76 53.75 5.00 421.75 3258.07
   11:54:38.243.15-Aug-2021 3405.50 1887.76 53.75 5.00 421.95 3258.07
   11:54:38.443.15-Aug-2021 3405.50 1888.79 53.75 5.00 422.15 3258.07
   11:54:38.642.15-Aug-2021 3405.50 1889.09 53.75 5.00 422.35 3258.07
   11:54:38.842.15-Aug-2021 3405.50 1889.42 53.75 5.00 422.55 3258.07
   11:54:39.042.15-Aug-2021 3405.50 1889.85 53.75 5.00 422.75 3258.07
   11:54:39.242.15-Aug-2021 3405.50 1889.85 53.75 5.00 422.95 3258.07
   11:54:39.442.15-Aug-2021 3405.50 1890.86 53.75 5.00 423.15 3258.07
   11:54:39.642.15-Aug-2021 3405.50 1891.21 53.75 5.00 423.35 3258.07
   11:54:39.842.15-Aug-2021 3405.50 1891.86 53.75 5.00 423.55 3258.07
   11:54:40.042.15-Aug-2021 3405.50 1892.06 53.75 5.00 423.75 3258.07
   11:54:40.242.15-Aug-2021 3405.50 1892.06 53.75 5.00 423.94 3258.07
   11:54:40.441.15-Aug-2021 3405.50 1892.86 53.75 5.00 424.14 3258.07
   11:54:40.641.15-Aug-2021 3405.50 1893.13 53.75 5.00 424.34 3258.07
   11:54:40.841.15-Aug-2021 3405.50 1893.95 53.75 5.00 424.54 3258.07
   11:54:41.041.15-Aug-2021 3405.50 1894.23 53.75 5.00 424.74 3258.07
   11:54:41.241.15-Aug-2021 3405.50 1894.23 53.75 5.00 424.94 3258.07
   11:54:41.441.15-Aug-2021 3405.50 1895.02 53.75 5.00 425.14 3258.07
   11:54:41.641.15-Aug-2021 3405.50 1895.33 53.74 5.00 425.34 3258.07
   11:54:41.841.15-Aug-2021 3405.50 1895.63 53.74 5.00 425.54 3258.07
   11:54:42.040.15-Aug-2021 3405.50 1896.12 53.74 5.00 425.74 3258.07
   11:54:42.240.15-Aug-2021 3405.50 1896.12 53.74 5.00 425.94 3258.07
   11:54:42.440.15-Aug-2021 3405.50 1897.17 53.74 5.00 426.14 3258.07
   11:54:42.640.15-Aug-2021 3405.50 1897.59 53.74 5.00 426.34 3258.07
   11:54:42.840.15-Aug-2021 3405.50 1898.20 53.74 5.00 426.54 3258.07
   11:54:43.040.15-Aug-2021 3405.50 1898.30 53.74 5.00 426.74 3258.07
   11:54:43.240.15-Aug-2021 3405.50 1898.30 53.74 5.00 426.94 3258.07
   11:54:43.440.15-Aug-2021 3405.50 1899.27 53.74 5.00 427.14 3258.07
   11:54:43.639.15-Aug-2021 3405.50 1899.87 53.74 5.00 427.34 3258.07
   11:54:43.839.15-Aug-2021 3405.50 1900.17 53.74 5.00 427.54 3258.07
   11:54:44.039.15-Aug-2021 3405.50 1900.56 53.74 5.00 427.74 3258.07
   11:54:44.239.15-Aug-2021 3405.50 1900.56 53.74 5.00 427.94 3258.07
   11:54:44.439.15-Aug-2021 3405.50 1901.53 53.74 5.00 428.14 3258.07
   11:54:44.639.15-Aug-2021 3405.50 1901.66 53.74 5.00 428.34 3258.07
   11:54:44.839.15-Aug-2021 3405.50 1902.45 53.74 5.00 428.54 3258.07
   11:54:45.039.15-Aug-2021 3405.50 1902.62 53.74 5.00 428.74 3258.07
   11:54:45.239.15-Aug-2021 3405.50 1902.62 53.74 5.00 428.94 3258.07
   11:54:45.438.15-Aug-2021 3405.50 1903.49 53.74 5.00 429.14 3258.07
   11:54:45.638.15-Aug-2021 3405.50 1903.87 53.74 5.00 429.34 3258.07
   11:54:45.838.15-Aug-2021 3405.50 1904.28 53.74 5.00 429.54 3258.07
   11:54:46.038.15-Aug-2021 3405.50 1904.65 53.74 5.00 429.74 3258.07
   11:54:46.238.15-Aug-2021 3405.50 1904.65 53.74 5.00 429.94 3258.07
   11:54:46.438.15-Aug-2021 3405.50 1905.28 53.74 5.00 430.14 3258.07
   11:54:46.638.15-Aug-2021 3405.50 1905.98 53.74 5.00 430.34 3258.07
   11:54:46.838.15-Aug-2021 3405.50 1906.43 53.74 5.00 430.54 3258.07
   11:54:47.037.15-Aug-2021 3405.50 1906.80 53.74 5.00 430.74 3258.07
   11:54:47.237.15-Aug-2021 3405.50 1906.80 53.74 5.00 430.94 3258.07
   11:54:47.437.15-Aug-2021 3405.50 1907.29 53.74 5.00 431.14 3258.07
   11:54:47.637.15-Aug-2021 3405.50 1907.87 53.74 5.00 431.34 3258.07
   11:54:47.837.15-Aug-2021 3405.50 1908.59 53.74 5.00 431.54 3258.07
   11:54:48.037.15-Aug-2021 3405.50 1908.86 53.74 5.00 431.74 3258.07
   11:54:48.237.15-Aug-2021 3405.50 1908.86 53.74 5.00 431.94 3258.07
   11:54:48.437.15-Aug-2021 3405.50 1909.61 53.74 5.00 432.14 3258.07
   11:54:48.636.15-Aug-2021 3405.50 1909.92 53.74 5.00 432.34 3258.07
   11:54:48.836.15-Aug-2021 3405.50 1910.14 53.74 5.00 432.54 3258.07
   11:54:49.036.15-Aug-2021 3405.50 1910.88 53.74 5.00 432.74 3258.07
   11:54:49.236.15-Aug-2021 3405.50 1910.88 53.74 5.00 432.94 3258.07
   11:54:49.436.15-Aug-2021 3405.50 1911.55 53.74 5.00 433.14 3258.07
   11:54:49.636.15-Aug-2021 3405.50 1911.79 53.74 5.00 433.34 3258.07
   11:54:49.836.15-Aug-2021 3405.50 1912.13 53.74 5.00 433.54 3258.07
   11:54:50.036.15-Aug-2021 3405.50 1912.50 53.74 5.00 433.74 3258.07
   11:54:50.236.15-Aug-2021 3405.50 1912.50 53.74 5.00 433.94 3258.07
   11:54:50.435.15-Aug-2021 3405.50 1913.56 53.74 5.00 434.14 3258.07
   11:54:50.635.15-Aug-2021 3405.50 1913.84 53.74 5.00 434.34 3258.07
   11:54:50.835.15-Aug-2021 3405.50 1914.29 53.74 5.00 434.54 3258.07
   11:54:51.035.15-Aug-2021 3405.50 1914.88 53.74 5.00 434.74 3258.07
   11:54:51.235.15-Aug-2021 3405.50 1914.88 53.74 5.00 434.94 3258.07
   11:54:51.435.15-Aug-2021 3405.50 1915.33 53.74 5.00 435.14 3258.07
   11:54:51.635.15-Aug-2021 3405.50 1915.81 53.74 5.00 435.34 3258.07
   11:54:51.835.15-Aug-2021 3405.50 1916.39 53.74 5.00 435.54 3258.07
   11:54:52.034.15-Aug-2021 3405.50 1916.66 53.74 5.00 435.74 3258.07
   11:54:52.234.15-Aug-2021 3405.50 1916.66 53.74 5.00 435.94 3258.07
   11:54:52.434.15-Aug-2021 3405.50 1917.51 53.74 5.00 436.14 3258.07
   11:54:52.634.15-Aug-2021 3405.50 1917.78 53.74 5.00 436.34 3258.07
   11:54:52.834.15-Aug-2021 3405.50 1918.11 53.74 5.00 436.54 3258.07
