~Version Information
 VERS.                  2.0:   CWLS log ASCII Standard -VERSION 2.0
 WRAP.                   NO:   One line per depth step
~Well Information Block
#MNEM.UNIT     VALUE/NAME     DESCRIPTION
#---------     -----------    ---------------------------
 STRT.S             12:25:56 15-Aug-21: START TIME 12:25:56 15-Aug-21
 STOP.S             12:39:05 15-Aug-21: STOP TIME  12:39:05 15-Aug-21
 STEP.S                   0.00: STEP TIME
 NULL.                 -999.25: NULL VALUE
 DFWT.                        :  DIST FWL TEXT
 DFST.                        :  DIST FSL TEXT
 DMF .             Drill Floor:  DRILL MEAS FROM
 STIM.      17.18.56 20-Jun-21:  START TIME
 DATE.      17.18.56 20-Aug-21:  END TIME
 SPUD.               20-Jun-21:  SPUD DATE
 NREF.                    Grid:  NORTH REFERENCE
 HPTY.       Minimum Curvature:  HOLE POS TYPE
 DMOD.             Drill Model:  DRILL MOD DESC
 SVYD.                  Survey:  SURVEY DESC
 ILTD.               Lithology:  INTERP LTH DESC
 FTOP.          Formation Tops:  FORM TOPS DESC
 SON .        AZ-XX-0907056190:  JOB NUMBER
 PDAT.       Caspian Sea Level:  PERMANENT DATUM
 WTYP.                Deviated:  WELL TYPE
 MDS .        Operator Entered:  MAG DATA SOURCE
 COMP.     BP Exploration (Caspian Sea) Ltd.:  COMPANY
 UWI .            /AZE20000092:  UNIQUE WELL IDENTIFIER
 API .            /AZE20000092:  API NUMBER
 BASE.              Azerbaijan:  LOGGING EQUIPMENT BASE LOCATION
 REGN.                   EESSA:  REGION
 PROV.                    baku:  PROVINCE
 STAT.                    baku:  STATE NAME
 CTRY.              Azerbaijan:  COUNTRY NAME
 FLD .                     ACG:  FIELD NAME
 SRVC.          Turan Drilling:  CONTRACTOR
 MWDS.                    Baku:  MWD SHOP
 WELL.                     J26:  WELL NAME
 JOBN.        AZ-XX-0907056190:  JOB TICKET NUMB
 RIG .             West Chirag:  RIG NAME
 DOE .                     N/A:  DOE NUMBER
 DCON.         Sperry Drilling:  DIRECTNL CONTR
 UNIT.                     N/A:  LOGGING EQUIPMENT ID
 CNTY.                        :  COUNTY
 LOC .                        :  LOCATION
 LMF .             Drill Floor:  LOG MEASURED FROM
 TVDS.m                  43.00:  TVDSS CORRECTN
 LATI.deg                40.13:  LATITUDE
 LONG.deg                51.22:  LONGITUDE
 WHNS.m                  -7.12:  WELL HEAD N/S
 WHEW.m                  -9.46:  WELL HEAD E/W
 UTMX.m              519004.02:  UTM X
 UTMY.m             4443784.96:  UTM Y
 DFWL.m                   0.00:  DISTANCE FWL
 DFSL.m                   0.00:  DISTANCE FSL
 SDEP.m                 464.00:  START DEPTH
 TDD .m                3500.00:  TOTAL DEPTH (DRILLER)
 VSDR.deg               114.35:  VERT SEC DIRECT
 GVFD.g                   1.00:  GRAVITY FIELD
 MFLD.nT              50386.00:  MAGNETIC FIELD
 MDIP.deg                59.63:  MAGNETIC DIP
 MDEC.deg                 6.43:  MAGNETIC DECL
 GRDC.deg                 0.15:  GRID CORRECTION
 AZTC.deg                 6.29:  AZM TOTAL CORR
 EPD .m                   0.00:  ELEVATION
 EGL .m                   0.00:  GROUND ELEVATION
 WDMS.m                 169.80:  WD ELEV
 APD .m                  43.00:  DEPTH ABOVE PD
 VSEW.m                  -9.46:  VERT SEC E/W
 VSNS.m                  -7.12:  VERT SEC N/S
 AGAP.m                  43.00:  AIR GAP
 DEP .m                 356.16:  DEPTH
 EKB .m                  43.00:  KB ELEVATION
 EDF .m                  43.00:  DF ELEVATION
 TDL .m                 699.00:  TOTAL DEPTH (LOGGER)
 VSC .                       0:  VS TO CLOSURE
 MAGU.                 1853727:  MAGUTM CHECKSUM
~Parameter Information Block
#MNEM.UNIT       Value        Description
#---------     -----------    ---------------------------
 AV  .mps                 1.30:  Ann Velocity 
 AVMX.mps                 1.67:  Max Ann Veloc 
 AZIF.deg               280.40:  Azm, Final 
 BHAT.        Rotary Steerable:  BHA Type 
 BREV.rev            528970.00:  Rev Bit Total 
 BROT.°/30m               1.00:  Build Rotating 
 BS  .in                 12.25:  Bit Size 
 BSZ .in                 12.25:  Bit Size 
 BTPL.psig              738.00:  Bit Press Loss 
 CABU.                     Yes:  Customer Abuse 
 CGEO.        Elvin Suleymanov:  Customer Geo 
 COMM.                     ´3x:  Run Comments 1 
 TCS .hr                 66.05:  Time Ciculation Ended 
 CV  .mps                 2.20:  Crit Velocity 
 CVMX.mps                 2.56:  Max Crit Veloc 
 DD1 .          Rashad Habibov:  Direct Drillr 1 
 DD2 .            Azer ravanov:  Direct Drillr 2 
 DD3 .           Teymur Agayev:  Direct Drillr 3 
 DDSV.               Geo-Pilot:  DD Service 
 DEFF.%                  90.00:  % Det Eff 
 DLRX.°/30m               2.95:  Dogleg Rot Max 
 DLSO.°/30m               1.00:  Dogleg Oriented 
 DLSX.°/30m               2.95:  Dogleg Str Max 
 DRET.      11.42.20 11-Aug-21:  Drill End Time 
 DRST.      23.03.20 08-Aug-21:  Drill Start Tim 
 DTIM.hr                 45.50:  Time Drilling 
 EDEP.m                3488.00:  End Depth 
 ENG1.         Marcelo Marcari:  Engineer 1 
 ENG2.         Dair Mahammadov:  Engineer 2 
 ENG3.       Davud Huseyn-zada:  Engineer 3 
 ENG4.         Yevgeniy Ulikov:  Engineer 4 
 ETIM.      17.45.20 17-Aug-21:  End Time 
 FLOI.gpm              1197.70:  Flow In 
 FLON.gpm              1100.00:  Flow In Min 
 FLOS.cptm                0.00:  Fluid Loss 
 FLOX.gpm              1200.00:  Flow In Max 
 DFT .        Mineral Oil Base:  Mud Type 
 FTRO.       Formation Presure:  FTWD Run Obj 
 HFLO.                      No:  High Flow 
 HPRE.                      No:  High Pressure 
 HTEM.                      No:  High Temp 
 HYDO.m                   1.80:  Hydro Offset 
 IFIN.deg                 9.87:  Inc, Final 
 IMAX.deg                19.96:  Inc Max 
 IMIN.deg                 3.82:  Inc Min 
 IMND.m                3257.42:  Inc Min Depth 
 IMXD.m                2945.53:  Inc Max Depth 
 JARR.                      No:  Jarring 
 LETM.      11.42.20 11-Aug-21:  Log End Time 
 LOST.hr                     0:  Lost Rig Time 
 LSTM.      23.03.20 08-Aug-21:  Log Start Time 
 MDCL.ppm             42500.00:  Mud Chlorides 
 MDES.     Inversion Oil/Synthetic:  Mud Desc 
 DFD .sg                  1.45:  Mud Density 
 MDMN.sg                  1.39:  Dens Mud Min 
 MDMX.sg                  1.57:  Dens Mud Max 
 MOIL.                   53.20:  Run Mud Oil % 
 MOWR.                   70:30:  Run Mud OWR 
 MSND.                       0:  Run Mud Sand % 
 MSOL.                   24.30:  Run Mud Solids% 
 DFV .spqt               79.00:  Mud Viscosity 
 MWOD.in                  8.00:  MWD Tool OD 
 MWSI.                      No:  Serv Intrp, MWD 
 OTIM.hr                253.06:  Time Operating 
 PCON.           Look Like New:  Pad Condition 
 PMAX.psia            11068.93:  Press Op, Max 
 PV  .cP                 36.00:  Mud PV 
 RUN .                    1000:  Run Number 
 ROPA.m/hr               15.34:  ROP Avg 
 ROPN.m/hr                4.00:  ROP Min 
 ROPX.m/hr               31.00:  ROP Max 
 RPMA.rpm               151.40:  RPM Surface Avg 
 RPMN.rpm               120.00:  RPM Surface Min 
 RPMX.rpm               160.00:  RPM Surface Max 
 RRUN.                    L505:  Rig Run Number 
 RTIM.hr                 10.00:  Time Reaming 
 SAZI.deg                88.92:  Azm, Start 
 SDEP.m                2789.00:  Start Depth 
 SIDD.                      No:  Serv Intrp, DD 
 SINC.deg                19.84:  Inc, Start 
 SPPA.psig             4421.39:  SPP Avg 
 SPPN.psig             4130.00:  SPP Min 
 SPPX.psig             4800.00:  SPP Max 
 STIM.      01.25.20 07-Aug-21:  Start Time 
 SVCS.                 DD, MWD:  Services 
 SVER.                    9.20:  Sperry Version 
 TDAT.m                 699.00:  Tot Depth Attmp 
 TDDF.                      No:  Trip for DD 
 TDLG.m                 699.00:  Tot Depth Loggd 
 TFF .                      No:  Trip for Fail 
 TQAA.f-kp               20.55:  Torque Abs Avg 
 TQAN.f-kp               15.00:  Torque Abs Min 
 TQAX.f-kp               24.00:  Torque Abs Max 
 TRRT.°/30m               0.50:  Turn Rotating 
 MRT .                    HCIM:  Maximum Recorded Temperature 
 TTMX.degC               82.35:  Max Tool Temp 
 VS01.                90654677:  Virtual Str1 SN 
 VS02.                90636294:  Virtual Str2 SN 
 VS03.                90653866:  Virtual Str3 SN 
 VS04.                90654674:  Virtual Str4 SN 
 WBMN.klb                10.00:  WOB Min 
 WITN.         Haytham Mostafa:  Customer Rep 
 WITN.           Rufat Babayev:  Customer Rep 2 
 WOBA.klb                22.43:  WOB Avg 
 WOBX.klb                35.00:  WOB Max 
 YP  .lhf2               32.00:  Yield Point 
~Curve Information Block
#MNEM.UNIT                 API CODE     Curve Description
#---------               -----------    ---------------------------
 TIME.HHMMSS            00 000 000 000:  GT Time & Date
 GTDEPTH.m              00 000 000 000:  GT Depth
 GTPQH.psia             00 000 000 000:  GT HR Quartz Pressure
 GTTQ.degC              00 000 000 000:  GT Quartz Temperature
 GTTN.NONE              00 000 000 000:  GT Test Number
 GTET.sec               00 000 000 000:  GT Elapsed Test Time
 GTTVD.m                00 000 000 000:  GT True Vertical Depth
#Other Information
#
#WARRANTY: Halliburton will use its best efforts to furnish customers with 
#accurate information and interpretations that are part of, and incident to, the services 
#provided.  However, Halliburton cannot and does not warrant the accuracy 
#or correctness of such information and interpretations.  Under no circumstances should any 
#such information or interpretation be relied upon as the sole basis for any drilling, 
#completion, production, or financial decision or any procedure involving any risk to the 
#safety of any drilling venture, drilling rig or its crew or any other third party.  The 
#Customer has full responsibility for all drilling, completion and production operation.  
#Halliburton makes no representations or warranties, either expressed or 
#implied, including, but not limited to, the implied warranties of merchantability or fitness 
#for a particular purpose, with respect to the services rendered.  In no event will 
#Halliburton be liable for failure to obtain any particular results or for 
#any damages, including, but not limited to, indirect, special or consequential damages, 
#resulting from the use of any information or interpretation provided by Halliburton.
#
~A           TIME           GTDEPTH  GTPQH  GTTQ  GTTN  GTET   GTTVD  
# ...
   12:26:42.885.15-Aug-2021 3405.50 7461.76 52.51 6.00  45.97 3258.07
   12:26:43.085.15-Aug-2021 3405.50 7461.76 52.51 6.00  46.17 3258.07
   12:26:43.285.15-Aug-2021 3405.50 7459.25 52.51 6.00  46.37 3258.07
   12:26:43.484.15-Aug-2021 3405.50 7459.92 52.51 6.00  46.57 3258.07
   12:26:43.684.15-Aug-2021 3405.50 7460.67 52.51 6.00  46.77 3258.07
   12:26:43.884.15-Aug-2021 3405.50 7460.99 52.51 6.00  46.97 3258.07
   12:26:44.084.15-Aug-2021 3405.50 7460.99 52.51 6.00  47.17 3258.07
   12:26:44.284.15-Aug-2021 3405.50 7461.18 52.51 6.00  47.37 3258.07
   12:26:44.484.15-Aug-2021 3405.50 7459.46 52.51 6.00  47.57 3258.07
   12:26:44.684.15-Aug-2021 3405.50 7460.31 52.51 6.00  47.77 3258.07
   12:26:44.884.15-Aug-2021 3405.50 7460.99 52.51 6.00  47.97 3258.07
   12:26:45.083.15-Aug-2021 3405.50 7460.99 52.51 6.00  48.17 3258.07
   12:26:45.283.15-Aug-2021 3405.50 7460.28 52.51 6.00  48.37 3258.07
   12:26:45.483.15-Aug-2021 3405.50 7461.18 52.51 6.00  48.57 3258.07
   12:26:45.683.15-Aug-2021 3405.50 7461.05 52.51 6.00  48.77 3258.07
   12:26:45.883.15-Aug-2021 3405.50 7460.97 52.51 6.00  48.97 3258.07
   12:26:46.083.15-Aug-2021 3405.50 7460.97 52.51 6.00  49.17 3258.07
   12:26:46.283.15-Aug-2021 3405.50 7459.41 52.51 6.00  49.37 3258.07
   12:26:46.483.15-Aug-2021 3405.50 7459.39 52.51 6.00  49.57 3258.07
   12:26:46.682.15-Aug-2021 3405.50 7463.12 52.51 6.00  49.77 3258.07
   12:26:46.882.15-Aug-2021 3405.50 7460.97 52.51 6.00  49.97 3258.07
   12:26:47.082.15-Aug-2021 3405.50 7460.97 52.51 6.00  50.17 3258.07
   12:26:47.282.15-Aug-2021 3405.50 7460.81 52.51 6.00  50.37 3258.07
   12:26:47.482.15-Aug-2021 3405.50 7460.18 52.51 6.00  50.57 3258.07
   12:26:47.682.15-Aug-2021 3405.50 7461.28 52.51 6.00  50.77 3258.07
   12:26:47.882.15-Aug-2021 3405.50 7459.38 52.51 6.00  50.97 3258.07
   12:26:48.082.15-Aug-2021 3405.50 7459.38 52.51 6.00  51.17 3258.07
   12:26:48.282.15-Aug-2021 3405.50 7461.82 52.51 6.00  51.37 3258.07
   12:26:48.481.15-Aug-2021 3405.50 7460.89 52.51 6.00  51.57 3258.07
   12:26:48.681.15-Aug-2021 3405.50 7458.92 52.51 6.00  51.77 3258.07
   12:26:48.881.15-Aug-2021 3405.50 7460.96 52.51 6.00  51.97 3258.07
   12:26:49.081.15-Aug-2021 3405.50 7460.96 52.51 6.00  52.17 3258.07
   12:26:49.281.15-Aug-2021 3405.50 7460.99 52.51 6.00  52.37 3258.07
   12:26:49.481.15-Aug-2021 3405.50 7460.27 52.51 6.00  52.57 3258.07
   12:26:49.681.15-Aug-2021 3405.50 7460.28 52.51 6.00  52.77 3258.07
   12:26:49.881.15-Aug-2021 3405.50 7460.11 52.51 6.00  52.97 3258.07
   12:26:50.080.15-Aug-2021 3405.50 7460.11 52.51 6.00  53.17 3258.07
   12:26:50.280.15-Aug-2021 3405.50 7461.54 52.51 6.00  53.37 3258.07
   12:26:50.480.15-Aug-2021 3405.50 7462.27 52.51 6.00  53.57 3258.07
   12:26:50.680.15-Aug-2021 3405.50 7461.96 52.51 6.00  53.77 3258.07
   12:26:50.880.15-Aug-2021 3405.50 7462.05 52.51 6.00  53.97 3258.07
   12:26:51.080.15-Aug-2021 3405.50 7462.05 52.51 6.00  54.17 3258.07
   12:26:51.280.15-Aug-2021 3405.50 7460.89 52.51 6.00  54.37 3258.07
   12:26:51.480.15-Aug-2021 3405.50 7459.83 52.51 6.00  54.57 3258.07
   12:26:51.679.15-Aug-2021 3405.50 7459.64 52.51 6.00  54.77 3258.07
   12:26:51.879.15-Aug-2021 3405.50 7461.76 52.51 6.00  54.97 3258.07
   12:26:52.079.15-Aug-2021 3405.50 7461.76 52.51 6.00  55.17 3258.07
   12:26:52.279.15-Aug-2021 3405.50 7460.57 52.51 6.00  55.37 3258.07
   12:26:52.479.15-Aug-2021 3405.50 7461.57 52.51 6.00  55.57 3258.07
   12:26:52.679.15-Aug-2021 3405.50 7461.62 52.51 6.00  55.77 3258.07
   12:26:52.879.15-Aug-2021 3405.50 7461.51 52.51 6.00  55.97 3258.07
   12:26:53.079.15-Aug-2021 3405.50 7461.51 52.51 6.00  56.17 3258.07
   12:26:53.279.15-Aug-2021 3405.50 7468.17 52.51 6.00  56.37 3258.07
   12:26:53.478.15-Aug-2021 3405.50 7600.91 52.51 6.00  56.57 3258.07
   12:26:53.678.15-Aug-2021 3405.50 7753.86 52.51 6.00  56.77 3258.07
   12:26:53.878.15-Aug-2021 3405.50 7886.80 52.51 6.00  56.97 3258.07
   12:26:54.078.15-Aug-2021 3405.50 7886.80 52.51 6.00  57.17 3258.07
   12:26:54.278.15-Aug-2021 3405.50 8029.52 52.51 6.00  57.37 3258.07
   12:26:54.478.15-Aug-2021 3405.50 8077.92 52.51 6.00  57.57 3258.07
   12:26:54.678.15-Aug-2021 3405.50 8116.40 52.51 6.00  57.77 3258.07
   12:26:54.878.15-Aug-2021 3405.50 8137.53 52.51 6.00  57.97 3258.07
   12:26:55.077.15-Aug-2021 3405.50 8137.53 52.51 6.00  58.17 3258.07
   12:26:55.277.15-Aug-2021 3405.50 8152.78 52.51 6.00  58.36 3258.07
   12:26:55.477.15-Aug-2021 3405.50 8166.39 52.51 6.00  58.56 3258.07
   12:26:55.677.15-Aug-2021 3405.50 8177.89 52.51 6.00  58.76 3258.07
   12:26:55.877.15-Aug-2021 3405.50 8185.42 52.51 6.00  58.96 3258.07
   12:26:56.077.15-Aug-2021 3405.50 8185.42 52.51 6.00  59.16 3258.07
   12:26:56.277.15-Aug-2021 3405.50 8205.22 52.51 6.00  59.36 3258.07
   12:26:56.477.15-Aug-2021 3405.50 8214.69 52.51 6.00  59.56 3258.07
   12:26:56.676.15-Aug-2021 3405.50 8222.59 52.51 6.00  59.76 3258.07
   12:26:56.876.15-Aug-2021 3405.50 8235.43 52.51 6.00  59.96 3258.07
   12:26:57.076.15-Aug-2021 3405.50 8235.43 52.51 6.00  60.16 3258.07
   12:26:57.276.15-Aug-2021 3405.50 8245.39 52.51 6.00  60.36 3258.07
   12:26:57.476.15-Aug-2021 3405.50 8250.23 52.51 6.00  60.56 3258.07
   12:26:57.676.15-Aug-2021 3405.50 8260.73 52.51 6.00  60.76 3258.07
   12:26:57.876.15-Aug-2021 3405.50 8263.78 52.51 6.00  60.96 3258.07
   12:26:58.076.15-Aug-2021 3405.50 8263.78 52.51 6.00  61.16 3258.07
   12:26:58.275.15-Aug-2021 3405.50 8275.32 52.51 6.00  61.36 3258.07
   12:26:58.475.15-Aug-2021 3405.50 8283.74 52.51 6.00  61.56 3258.07
   12:26:58.675.15-Aug-2021 3405.50 8286.70 52.51 6.00  61.76 3258.07
   12:26:58.875.15-Aug-2021 3405.50 8291.48 52.51 6.00  61.96 3258.07
   12:26:59.075.15-Aug-2021 3405.50 8291.48 52.51 6.00  62.16 3258.07
   12:26:59.275.15-Aug-2021 3405.50 8307.74 52.51 6.00  62.36 3258.07
   12:26:59.475.15-Aug-2021 3405.50 8311.90 52.51 6.00  62.56 3258.07
   12:26:59.675.15-Aug-2021 3405.50 8315.35 52.52 6.00  62.76 3258.07
   12:26:59.875.15-Aug-2021 3405.50 8318.56 52.52 6.00  62.96 3258.07
   12:27:00.074.15-Aug-2021 3405.50 8318.56 52.52 6.00  63.16 3258.07
   12:27:00.274.15-Aug-2021 3405.50 8322.85 52.52 6.00  63.36 3258.07
   12:27:00.474.15-Aug-2021 3405.50 8325.23 52.52 6.00  63.56 3258.07
   12:27:00.674.15-Aug-2021 3405.50 7414.84 52.52 6.00  63.76 3258.07
   12:27:00.874.15-Aug-2021 3405.50 7047.36 52.52 6.00  63.96 3258.07
   12:27:01.074.15-Aug-2021 3405.50 7047.36 52.52 6.00  64.16 3258.07
   12:27:01.274.15-Aug-2021 3405.50 6806.49 52.52 6.00  64.36 3258.07
   12:27:01.474.15-Aug-2021 3405.50 6657.92 52.52 6.00  64.56 3258.07
   12:27:01.673.15-Aug-2021 3405.50 6594.53 52.52 6.00  64.76 3258.07
   12:27:01.873.15-Aug-2021 3405.50 6380.43 52.52 6.00  64.96 3258.07
   12:27:02.073.15-Aug-2021 3405.50 6380.43 52.52 6.00  65.16 3258.07
   12:27:02.273.15-Aug-2021 3405.50 5352.74 52.52 6.00  65.36 3258.07
   12:27:02.473.15-Aug-2021 3405.50 4801.05 52.51 6.00  65.56 3258.07
   12:27:02.673.15-Aug-2021 3405.50 4285.40 52.51 6.00  65.76 3258.07
   12:27:02.873.15-Aug-2021 3405.50 3868.82 52.51 6.00  65.96 3258.07
   12:27:03.073.15-Aug-2021 3405.50 3868.82 52.51 6.00  66.16 3258.07
   12:27:03.272.15-Aug-2021 3405.50 3654.84 52.51 6.00  66.36 3258.07
   12:27:03.472.15-Aug-2021 3405.50 3626.72 52.51 6.00  66.56 3258.07
   12:27:03.672.15-Aug-2021 3405.50 3598.88 52.50 6.00  66.76 3258.07
   12:27:03.872.15-Aug-2021 3405.50 3571.48 52.50 6.00  66.96 3258.07
   12:27:04.072.15-Aug-2021 3405.50 3571.48 52.50 6.00  67.16 3258.07
   12:27:04.272.15-Aug-2021 3405.50 3530.82 52.50 6.00  67.36 3258.07
   12:27:04.472.15-Aug-2021 3405.50 3412.41 52.49 6.00  67.56 3258.07
   12:27:04.672.15-Aug-2021 3405.50 3293.88 52.49 6.00  67.76 3258.07
   12:27:04.872.15-Aug-2021 3405.50 3187.16 52.49 6.00  67.96 3258.07
   12:27:05.071.15-Aug-2021 3405.50 3187.16 52.49 6.00  68.16 3258.07
   12:27:05.271.15-Aug-2021 3405.50 2985.38 52.48 6.00  68.36 3258.07
   12:27:05.471.15-Aug-2021 3405.50 2891.34 52.48 6.00  68.56 3258.07
   12:27:05.671.15-Aug-2021 3405.50 2801.81 52.47 6.00  68.76 3258.07
