~Version Information
 VERS.                  2.0:   CWLS log ASCII Standard -VERSION 2.0
 WRAP.                   NO:   One line per depth step
~Well Information Block
#MNEM.UNIT     VALUE/NAME     DESCRIPTION
#---------     -----------    ---------------------------
 STRT.S             12:25:56 15-Aug-21: START TIME 12:25:56 15-Aug-21
 STOP.S             12:39:05 15-Aug-21: STOP TIME  12:39:05 15-Aug-21
 STEP.S                   0.00: STEP TIME
 NULL.                 -999.25: NULL VALUE
 DFWT.                        :  DIST FWL TEXT
 DFST.                        :  DIST FSL TEXT
 DMF .             Drill Floor:  DRILL MEAS FROM
 STIM.      17.18.56 20-Jun-21:  START TIME
 DATE.      17.18.56 20-Aug-21:  END TIME
 SPUD.               20-Jun-21:  SPUD DATE
 NREF.                    Grid:  NORTH REFERENCE
 HPTY.       Minimum Curvature:  HOLE POS TYPE
 DMOD.             Drill Model:  DRILL MOD DESC
 SVYD.                  Survey:  SURVEY DESC
 ILTD.               Lithology:  INTERP LTH DESC
 FTOP.          Formation Tops:  FORM TOPS DESC
 SON .        AZ-XX-0907056190:  JOB NUMBER
 PDAT.       Caspian Sea Level:  PERMANENT DATUM
 WTYP.                Deviated:  WELL TYPE
 MDS .        Operator Entered:  MAG DATA SOURCE
 COMP.     BP Exploration (Caspian Sea) Ltd.:  COMPANY
 UWI .            /AZE20000092:  UNIQUE WELL IDENTIFIER
 API .            /AZE20000092:  API NUMBER
 BASE.              Azerbaijan:  LOGGING EQUIPMENT BASE LOCATION
 REGN.                   EESSA:  REGION
 PROV.                    baku:  PROVINCE
 STAT.                    baku:  STATE NAME
 CTRY.              Azerbaijan:  COUNTRY NAME
 FLD .                     ACG:  FIELD NAME
 SRVC.          Turan Drilling:  CONTRACTOR
 MWDS.                    Baku:  MWD SHOP
 WELL.                     J26:  WELL NAME
 JOBN.        AZ-XX-0907056190:  JOB TICKET NUMB
 RIG .             West Chirag:  RIG NAME
 DOE .                     N/A:  DOE NUMBER
 DCON.         Sperry Drilling:  DIRECTNL CONTR
 UNIT.                     N/A:  LOGGING EQUIPMENT ID
 CNTY.                        :  COUNTY
 LOC .                        :  LOCATION
 LMF .             Drill Floor:  LOG MEASURED FROM
 TVDS.m                  43.00:  TVDSS CORRECTN
 LATI.deg                40.13:  LATITUDE
 LONG.deg                51.22:  LONGITUDE
 WHNS.m                  -7.12:  WELL HEAD N/S
 WHEW.m                  -9.46:  WELL HEAD E/W
 UTMX.m              519004.02:  UTM X
 UTMY.m             4443784.96:  UTM Y
 DFWL.m                   0.00:  DISTANCE FWL
 DFSL.m                   0.00:  DISTANCE FSL
 SDEP.m                 464.00:  START DEPTH
 TDD .m                3500.00:  TOTAL DEPTH (DRILLER)
 VSDR.deg               114.35:  VERT SEC DIRECT
 GVFD.g                   1.00:  GRAVITY FIELD
 MFLD.nT              50386.00:  MAGNETIC FIELD
 MDIP.deg                59.63:  MAGNETIC DIP
 MDEC.deg                 6.43:  MAGNETIC DECL
 GRDC.deg                 0.15:  GRID CORRECTION
 AZTC.deg                 6.29:  AZM TOTAL CORR
 EPD .m                   0.00:  ELEVATION
 EGL .m                   0.00:  GROUND ELEVATION
 WDMS.m                 169.80:  WD ELEV
 APD .m                  43.00:  DEPTH ABOVE PD
 VSEW.m                  -9.46:  VERT SEC E/W
 VSNS.m                  -7.12:  VERT SEC N/S
 AGAP.m                  43.00:  AIR GAP
 DEP .m                 356.16:  DEPTH
 EKB .m                  43.00:  KB ELEVATION
 EDF .m                  43.00:  DF ELEVATION
 TDL .m                 699.00:  TOTAL DEPTH (LOGGER)
 VSC .                       0:  VS TO CLOSURE
 MAGU.                 1853727:  MAGUTM CHECKSUM
~Parameter Information Block
#MNEM.UNIT       Value        Description
#---------     -----------    ---------------------------
 AV  .mps                 1.30:  Ann Velocity 
 AVMX.mps                 1.67:  Max Ann Veloc 
 AZIF.deg               280.40:  Azm, Final 
 BHAT.        Rotary Steerable:  BHA Type 
 BREV.rev            528970.00:  Rev Bit Total 
 BROT.°/30m               1.00:  Build Rotating 
 BS  .in                 12.25:  Bit Size 
 BSZ .in                 12.25:  Bit Size 
 BTPL.psig              738.00:  Bit Press Loss 
 CABU.                     Yes:  Customer Abuse 
 CGEO.        Elvin Suleymanov:  Customer Geo 
 COMM.                     ´3x:  Run Comments 1 
 TCS .hr                 66.05:  Time Ciculation Ended 
 CV  .mps                 2.20:  Crit Velocity 
 CVMX.mps                 2.56:  Max Crit Veloc 
 DD1 .          Rashad Habibov:  Direct Drillr 1 
 DD2 .            Azer ravanov:  Direct Drillr 2 
 DD3 .           Teymur Agayev:  Direct Drillr 3 
 DDSV.               Geo-Pilot:  DD Service 
 DEFF.%                  90.00:  % Det Eff 
 DLRX.°/30m               2.95:  Dogleg Rot Max 
 DLSO.°/30m               1.00:  Dogleg Oriented 
 DLSX.°/30m               2.95:  Dogleg Str Max 
 DRET.      11.42.20 11-Aug-21:  Drill End Time 
 DRST.      23.03.20 08-Aug-21:  Drill Start Tim 
 DTIM.hr                 45.50:  Time Drilling 
 EDEP.m                3488.00:  End Depth 
 ENG1.         Marcelo Marcari:  Engineer 1 
 ENG2.         Dair Mahammadov:  Engineer 2 
 ENG3.       Davud Huseyn-zada:  Engineer 3 
 ENG4.         Yevgeniy Ulikov:  Engineer 4 
 ETIM.      17.45.20 17-Aug-21:  End Time 
 FLOI.gpm              1197.70:  Flow In 
 FLON.gpm              1100.00:  Flow In Min 
 FLOS.cptm                0.00:  Fluid Loss 
 FLOX.gpm              1200.00:  Flow In Max 
 DFT .        Mineral Oil Base:  Mud Type 
 FTRO.       Formation Presure:  FTWD Run Obj 
 HFLO.                      No:  High Flow 
 HPRE.                      No:  High Pressure 
 HTEM.                      No:  High Temp 
 HYDO.m                   1.80:  Hydro Offset 
 IFIN.deg                 9.87:  Inc, Final 
 IMAX.deg                19.96:  Inc Max 
 IMIN.deg                 3.82:  Inc Min 
 IMND.m                3257.42:  Inc Min Depth 
 IMXD.m                2945.53:  Inc Max Depth 
 JARR.                      No:  Jarring 
 LETM.      11.42.20 11-Aug-21:  Log End Time 
 LOST.hr                     0:  Lost Rig Time 
 LSTM.      23.03.20 08-Aug-21:  Log Start Time 
 MDCL.ppm             42500.00:  Mud Chlorides 
 MDES.     Inversion Oil/Synthetic:  Mud Desc 
 DFD .sg                  1.45:  Mud Density 
 MDMN.sg                  1.39:  Dens Mud Min 
 MDMX.sg                  1.57:  Dens Mud Max 
 MOIL.                   53.20:  Run Mud Oil % 
 MOWR.                   70:30:  Run Mud OWR 
 MSND.                       0:  Run Mud Sand % 
 MSOL.                   24.30:  Run Mud Solids% 
 DFV .spqt               79.00:  Mud Viscosity 
 MWOD.in                  8.00:  MWD Tool OD 
 MWSI.                      No:  Serv Intrp, MWD 
 OTIM.hr                253.06:  Time Operating 
 PCON.           Look Like New:  Pad Condition 
 PMAX.psia            11068.93:  Press Op, Max 
 PV  .cP                 36.00:  Mud PV 
 RUN .                    1000:  Run Number 
 ROPA.m/hr               15.34:  ROP Avg 
 ROPN.m/hr                4.00:  ROP Min 
 ROPX.m/hr               31.00:  ROP Max 
 RPMA.rpm               151.40:  RPM Surface Avg 
 RPMN.rpm               120.00:  RPM Surface Min 
 RPMX.rpm               160.00:  RPM Surface Max 
 RRUN.                    L505:  Rig Run Number 
 RTIM.hr                 10.00:  Time Reaming 
 SAZI.deg                88.92:  Azm, Start 
 SDEP.m                2789.00:  Start Depth 
 SIDD.                      No:  Serv Intrp, DD 
 SINC.deg                19.84:  Inc, Start 
 SPPA.psig             4421.39:  SPP Avg 
 SPPN.psig             4130.00:  SPP Min 
 SPPX.psig             4800.00:  SPP Max 
 STIM.      01.25.20 07-Aug-21:  Start Time 
 SVCS.                 DD, MWD:  Services 
 SVER.                    9.20:  Sperry Version 
 TDAT.m                 699.00:  Tot Depth Attmp 
 TDDF.                      No:  Trip for DD 
 TDLG.m                 699.00:  Tot Depth Loggd 
 TFF .                      No:  Trip for Fail 
 TQAA.f-kp               20.55:  Torque Abs Avg 
 TQAN.f-kp               15.00:  Torque Abs Min 
 TQAX.f-kp               24.00:  Torque Abs Max 
 TRRT.°/30m               0.50:  Turn Rotating 
 MRT .                    HCIM:  Maximum Recorded Temperature 
 TTMX.degC               82.35:  Max Tool Temp 
 VS01.                90654677:  Virtual Str1 SN 
 VS02.                90636294:  Virtual Str2 SN 
 VS03.                90653866:  Virtual Str3 SN 
 VS04.                90654674:  Virtual Str4 SN 
 WBMN.klb                10.00:  WOB Min 
 WITN.         Haytham Mostafa:  Customer Rep 
 WITN.           Rufat Babayev:  Customer Rep 2 
 WOBA.klb                22.43:  WOB Avg 
 WOBX.klb                35.00:  WOB Max 
 YP  .lhf2               32.00:  Yield Point 
~Curve Information Block
#MNEM.UNIT                 API CODE     Curve Description
#---------               -----------    ---------------------------
 TIME.HHMMSS            00 000 000 000:  GT Time & Date
 GTDEPTH.m              00 000 000 000:  GT Depth
 GTPQH.psia             00 000 000 000:  GT HR Quartz Pressure
 GTTQ.degC              00 000 000 000:  GT Quartz Temperature
 GTTN.NONE              00 000 000 000:  GT Test Number
 GTET.sec               00 000 000 000:  GT Elapsed Test Time
 GTTVD.m                00 000 000 000:  GT True Vertical Depth
#Other Information
#
#WARRANTY: Halliburton will use its best efforts to furnish customers with 
#accurate information and interpretations that are part of, and incident to, the services 
#provided.  However, Halliburton cannot and does not warrant the accuracy 
#or correctness of such information and interpretations.  Under no circumstances should any 
#such information or interpretation be relied upon as the sole basis for any drilling, 
#completion, production, or financial decision or any procedure involving any risk to the 
#safety of any drilling venture, drilling rig or its crew or any other third party.  The 
#Customer has full responsibility for all drilling, completion and production operation.  
#Halliburton makes no representations or warranties, either expressed or 
#implied, including, but not limited to, the implied warranties of merchantability or fitness 
#for a particular purpose, with respect to the services rendered.  In no event will 
#Halliburton be liable for failure to obtain any particular results or for 
#any damages, including, but not limited to, indirect, special or consequential damages, 
#resulting from the use of any information or interpretation provided by Halliburton.
#
~A           TIME           GTDEPTH  GTPQH  GTTQ  GTTN  GTET   GTTVD  
# ...
   12:35:08.581.15-Aug-2021 3405.50 1931.27 52.30 6.00 551.67 3258.07
   12:35:08.780.15-Aug-2021 3405.50 1931.27 52.30 6.00 551.87 3258.07
   12:35:08.980.15-Aug-2021 3405.50 1937.08 52.30 6.00 552.07 3258.07
   12:35:09.180.15-Aug-2021 3405.50 1940.08 52.30 6.00 552.27 3258.07
   12:35:09.380.15-Aug-2021 3405.50 1942.83 52.30 6.00 552.47 3258.07
   12:35:09.580.15-Aug-2021 3405.50 1945.46 52.30 6.00 552.67 3258.07
   12:35:09.780.15-Aug-2021 3405.50 1945.46 52.30 6.00 552.87 3258.07
   12:35:09.980.15-Aug-2021 3405.50 1951.39 52.30 6.00 553.07 3258.07
   12:35:10.180.15-Aug-2021 3405.50 1954.18 52.30 6.00 553.27 3258.07
   12:35:10.379.15-Aug-2021 3405.50 1956.97 52.30 6.00 553.47 3258.07
   12:35:10.579.15-Aug-2021 3405.50 1959.90 52.30 6.00 553.67 3258.07
   12:35:10.779.15-Aug-2021 3405.50 1959.90 52.30 6.00 553.87 3258.07
   12:35:10.979.15-Aug-2021 3405.50 1965.31 52.30 6.00 554.07 3258.07
   12:35:11.179.15-Aug-2021 3405.50 1968.20 52.30 6.00 554.27 3258.07
   12:35:11.379.15-Aug-2021 3405.50 1971.06 52.30 6.00 554.47 3258.07
   12:35:11.579.15-Aug-2021 3405.50 1973.72 52.30 6.00 554.67 3258.07
   12:35:11.779.15-Aug-2021 3405.50 1973.72 52.30 6.00 554.87 3258.07
   12:35:11.978.15-Aug-2021 3405.50 1978.56 52.30 6.00 555.07 3258.07
   12:35:12.178.15-Aug-2021 3405.50 1980.70 52.30 6.00 555.27 3258.07
   12:35:12.378.15-Aug-2021 3405.50 1983.31 52.30 6.00 555.47 3258.07
   12:35:12.578.15-Aug-2021 3405.50 1986.07 52.30 6.00 555.67 3258.07
   12:35:12.778.15-Aug-2021 3405.50 1986.07 52.30 6.00 555.87 3258.07
   12:35:12.978.15-Aug-2021 3405.50 1991.44 52.30 6.00 556.07 3258.07
   12:35:13.178.15-Aug-2021 3405.50 1994.18 52.30 6.00 556.27 3258.07
   12:35:13.378.15-Aug-2021 3405.50 1996.95 52.30 6.00 556.47 3258.07
   12:35:13.577.15-Aug-2021 3405.50 1999.66 52.30 6.00 556.67 3258.07
   12:35:13.777.15-Aug-2021 3405.50 1999.66 52.30 6.00 556.86 3258.07
   12:35:13.977.15-Aug-2021 3405.50 2004.89 52.30 6.00 557.06 3258.07
   12:35:14.177.15-Aug-2021 3405.50 2007.56 52.30 6.00 557.26 3258.07
   12:35:14.377.15-Aug-2021 3405.50 2010.19 52.30 6.00 557.46 3258.07
   12:35:14.577.15-Aug-2021 3405.50 2012.80 52.30 6.00 557.66 3258.07
   12:35:14.777.15-Aug-2021 3405.50 2012.80 52.30 6.00 557.86 3258.07
   12:35:14.977.15-Aug-2021 3405.50 2018.26 52.30 6.00 558.06 3258.07
   12:35:15.177.15-Aug-2021 3405.50 2020.72 52.30 6.00 558.26 3258.07
   12:35:15.376.15-Aug-2021 3405.50 2023.27 52.31 6.00 558.46 3258.07
   12:35:15.576.15-Aug-2021 3405.50 2025.95 52.31 6.00 558.66 3258.07
   12:35:15.776.15-Aug-2021 3405.50 2025.95 52.31 6.00 558.86 3258.07
   12:35:15.976.15-Aug-2021 3405.50 2030.97 52.31 6.00 559.06 3258.07
   12:35:16.176.15-Aug-2021 3405.50 2033.55 52.31 6.00 559.26 3258.07
   12:35:16.376.15-Aug-2021 3405.50 2036.19 52.31 6.00 559.46 3258.07
   12:35:16.576.15-Aug-2021 3405.50 2038.64 52.31 6.00 559.66 3258.07
   12:35:16.776.15-Aug-2021 3405.50 2038.64 52.31 6.00 559.86 3258.07
   12:35:16.975.15-Aug-2021 3405.50 2042.89 52.31 6.00 560.06 3258.07
   12:35:17.175.15-Aug-2021 3405.50 2045.17 52.31 6.00 560.26 3258.07
   12:35:17.375.15-Aug-2021 3405.50 2047.66 52.31 6.00 560.46 3258.07
   12:35:17.575.15-Aug-2021 3405.50 2050.24 52.31 6.00 560.66 3258.07
   12:35:17.775.15-Aug-2021 3405.50 2050.24 52.31 6.00 560.86 3258.07
   12:35:17.975.15-Aug-2021 3405.50 2055.05 52.31 6.00 561.06 3258.07
   12:35:18.175.15-Aug-2021 3405.50 2057.60 52.31 6.00 561.26 3258.07
   12:35:18.375.15-Aug-2021 3405.50 2060.28 52.31 6.00 561.46 3258.07
   12:35:18.574.15-Aug-2021 3405.50 2062.79 52.31 6.00 561.66 3258.07
   12:35:18.774.15-Aug-2021 3405.50 2062.79 52.31 6.00 561.86 3258.07
   12:35:18.974.15-Aug-2021 3405.50 2065.20 52.31 6.00 562.06 3258.07
   12:35:19.174.15-Aug-2021 3405.50 2070.28 52.31 6.00 562.26 3258.07
   12:35:19.374.15-Aug-2021 3405.50 2072.44 52.31 6.00 562.46 3258.07
   12:35:19.574.15-Aug-2021 3405.50 2074.89 52.31 6.00 562.66 3258.07
   12:35:19.774.15-Aug-2021 3405.50 2074.89 52.31 6.00 562.86 3258.07
   12:35:19.974.15-Aug-2021 3405.50 2079.83 52.31 6.00 563.06 3258.07
   12:35:20.174.15-Aug-2021 3405.50 2082.17 52.31 6.00 563.26 3258.07
   12:35:20.373.15-Aug-2021 3405.50 2084.64 52.31 6.00 563.46 3258.07
   12:35:20.573.15-Aug-2021 3405.50 2087.11 52.31 6.00 563.66 3258.07
   12:35:20.773.15-Aug-2021 3405.50 2087.11 52.31 6.00 563.86 3258.07
   12:35:20.973.15-Aug-2021 3405.50 2091.95 52.31 6.00 564.06 3258.07
   12:35:21.173.15-Aug-2021 3405.50 2094.29 52.31 6.00 564.26 3258.07
   12:35:21.373.15-Aug-2021 3405.50 2096.72 52.31 6.00 564.46 3258.07
   12:35:21.573.15-Aug-2021 3405.50 2098.71 52.31 6.00 564.66 3258.07
   12:35:21.773.15-Aug-2021 3405.50 2098.71 52.31 6.00 564.86 3258.07
   12:35:21.972.15-Aug-2021 3405.50 2102.45 52.31 6.00 565.06 3258.07
   12:35:22.172.15-Aug-2021 3405.50 2104.83 52.31 6.00 565.26 3258.07
   12:35:22.372.15-Aug-2021 3405.50 2107.28 52.31 6.00 565.46 3258.07
   12:35:22.572.15-Aug-2021 3405.50 2109.66 52.31 6.00 565.66 3258.07
   12:35:22.772.15-Aug-2021 3405.50 2109.66 52.31 6.00 565.86 3258.07
   12:35:22.972.15-Aug-2021 3405.50 2111.92 52.31 6.00 566.06 3258.07
   12:35:23.172.15-Aug-2021 3405.50 2116.63 52.31 6.00 566.26 3258.07
   12:35:23.372.15-Aug-2021 3405.50 2118.93 52.31 6.00 566.46 3258.07
   12:35:23.571.15-Aug-2021 3405.50 2121.27 52.31 6.00 566.66 3258.07
   12:35:23.771.15-Aug-2021 3405.50 2121.27 52.31 6.00 566.86 3258.07
   12:35:23.971.15-Aug-2021 3405.50 2125.96 52.31 6.00 567.06 3258.07
   12:35:24.171.15-Aug-2021 3405.50 2128.25 52.31 6.00 567.26 3258.07
   12:35:24.371.15-Aug-2021 3405.50 2130.62 52.31 6.00 567.46 3258.07
   12:35:24.571.15-Aug-2021 3405.50 2132.96 52.31 6.00 567.66 3258.07
   12:35:24.771.15-Aug-2021 3405.50 2132.96 52.31 6.00 567.86 3258.07
   12:35:24.971.15-Aug-2021 3405.50 2137.46 52.31 6.00 568.06 3258.07
   12:35:25.171.15-Aug-2021 3405.50 2139.73 52.31 6.00 568.26 3258.07
   12:35:25.370.15-Aug-2021 3405.50 2142.03 52.31 6.00 568.46 3258.07
   12:35:25.570.15-Aug-2021 3405.50 2144.55 52.31 6.00 568.66 3258.07
   12:35:25.770.15-Aug-2021 3405.50 2144.55 52.31 6.00 568.86 3258.07
   12:35:25.970.15-Aug-2021 3405.50 2148.79 52.31 6.00 569.06 3258.07
   12:35:26.170.15-Aug-2021 3405.50 2151.09 52.31 6.00 569.26 3258.07
   12:35:26.370.15-Aug-2021 3405.50 2153.35 52.31 6.00 569.46 3258.07
   12:35:26.570.15-Aug-2021 3405.50 2155.61 52.31 6.00 569.66 3258.07
   12:35:26.770.15-Aug-2021 3405.50 2155.61 52.31 6.00 569.86 3258.07
   12:35:26.969.15-Aug-2021 3405.50 2159.66 52.31 6.00 570.06 3258.07
   12:35:27.169.15-Aug-2021 3405.50 2161.05 52.31 6.00 570.26 3258.07
   12:35:27.369.15-Aug-2021 3405.50 2163.12 52.31 6.00 570.46 3258.07
   12:35:27.569.15-Aug-2021 3405.50 2165.31 52.31 6.00 570.66 3258.07
   12:35:27.769.15-Aug-2021 3405.50 2165.31 52.31 6.00 570.86 3258.07
   12:35:27.969.15-Aug-2021 3405.50 2169.88 52.31 6.00 571.06 3258.07
   12:35:28.169.15-Aug-2021 3405.50 2172.02 52.31 6.00 571.26 3258.07
   12:35:28.369.15-Aug-2021 3405.50 2174.18 52.31 6.00 571.46 3258.07
   12:35:28.568.15-Aug-2021 3405.50 2176.69 52.31 6.00 571.66 3258.07
   12:35:28.768.15-Aug-2021 3405.50 2176.69 52.31 6.00 571.86 3258.07
   12:35:28.968.15-Aug-2021 3405.50 2180.80 52.31 6.00 572.06 3258.07
   12:35:29.168.15-Aug-2021 3405.50 2182.98 52.31 6.00 572.26 3258.07
   12:35:29.368.15-Aug-2021 3405.50 2185.17 52.31 6.00 572.46 3258.07
   12:35:29.568.15-Aug-2021 3405.50 2187.45 52.31 6.00 572.66 3258.07
   12:35:29.768.15-Aug-2021 3405.50 2187.45 52.31 6.00 572.86 3258.07
   12:35:29.968.15-Aug-2021 3405.50 2191.79 52.32 6.00 573.06 3258.07
   12:35:30.168.15-Aug-2021 3405.50 2193.99 52.31 6.00 573.26 3258.07
   12:35:30.367.15-Aug-2021 3405.50 2196.11 52.32 6.00 573.45 3258.07
   12:35:30.567.15-Aug-2021 3405.50 2198.23 52.31 6.00 573.65 3258.07
   12:35:30.767.15-Aug-2021 3405.50 2198.23 52.31 6.00 573.85 3258.07
   12:35:30.967.15-Aug-2021 3405.50 2200.34 52.32 6.00 574.05 3258.07
   12:35:31.167.15-Aug-2021 3405.50 2204.68 52.32 6.00 574.25 3258.07
   12:35:31.367.15-Aug-2021 3405.50 2206.81 52.32 6.00 574.45 3258.07
