~Version Information
 VERS.                  2.0:   CWLS log ASCII Standard -VERSION 2.0
 WRAP.                   NO:   One line per depth step
~Well Information Block
#MNEM.UNIT     VALUE/NAME     DESCRIPTION
#---------     -----------    ---------------------------
 STRT.S             06:52:24 15-Aug-21: START TIME 06:52:24 15-Aug-21
 STOP.S             06:59:28 15-Aug-21: STOP TIME  06:59:28 15-Aug-21
 STEP.S                   0.00: STEP TIME
 NULL.                 -999.25: NULL VALUE
 DFWT.                        :  DIST FWL TEXT
 DFST.                        :  DIST FSL TEXT
 DMF .             Drill Floor:  DRILL MEAS FROM
 STIM.      17.18.56 20-Jun-21:  START TIME
 DATE.      17.18.56 20-Aug-21:  END TIME
 SPUD.               20-Jun-21:  SPUD DATE
 NREF.                    Grid:  NORTH REFERENCE
 HPTY.       Minimum Curvature:  HOLE POS TYPE
 DMOD.             Drill Model:  DRILL MOD DESC
 SVYD.                  Survey:  SURVEY DESC
 ILTD.               Lithology:  INTERP LTH DESC
 FTOP.          Formation Tops:  FORM TOPS DESC
 SON .        AZ-XX-0907056190:  JOB NUMBER
 PDAT.       Caspian Sea Level:  PERMANENT DATUM
 WTYP.                Deviated:  WELL TYPE
 MDS .        Operator Entered:  MAG DATA SOURCE
 COMP.     BP Exploration (Caspian Sea) Ltd.:  COMPANY
 UWI .            /AZE20000092:  UNIQUE WELL IDENTIFIER
 API .            /AZE20000092:  API NUMBER
 BASE.              Azerbaijan:  LOGGING EQUIPMENT BASE LOCATION
 REGN.                   EESSA:  REGION
 PROV.                    baku:  PROVINCE
 STAT.                    baku:  STATE NAME
 CTRY.              Azerbaijan:  COUNTRY NAME
 FLD .                     ACG:  FIELD NAME
 SRVC.          Turan Drilling:  CONTRACTOR
 MWDS.                    Baku:  MWD SHOP
 WELL.                     J26:  WELL NAME
 JOBN.        AZ-XX-0907056190:  JOB TICKET NUMB
 RIG .             West Chirag:  RIG NAME
 DOE .                     N/A:  DOE NUMBER
 DCON.         Sperry Drilling:  DIRECTNL CONTR
 UNIT.                     N/A:  LOGGING EQUIPMENT ID
 CNTY.                        :  COUNTY
 LOC .                        :  LOCATION
 LMF .             Drill Floor:  LOG MEASURED FROM
 TVDS.m                  43.00:  TVDSS CORRECTN
 LATI.deg                40.13:  LATITUDE
 LONG.deg                51.22:  LONGITUDE
 WHNS.m                  -7.12:  WELL HEAD N/S
 WHEW.m                  -9.46:  WELL HEAD E/W
 UTMX.m              519004.02:  UTM X
 UTMY.m             4443784.96:  UTM Y
 DFWL.m                   0.00:  DISTANCE FWL
 DFSL.m                   0.00:  DISTANCE FSL
 SDEP.m                 464.00:  START DEPTH
 TDD .m                3500.00:  TOTAL DEPTH (DRILLER)
 VSDR.deg               114.35:  VERT SEC DIRECT
 GVFD.g                   1.00:  GRAVITY FIELD
 MFLD.nT              50386.00:  MAGNETIC FIELD
 MDIP.deg                59.63:  MAGNETIC DIP
 MDEC.deg                 6.43:  MAGNETIC DECL
 GRDC.deg                 0.15:  GRID CORRECTION
 AZTC.deg                 6.29:  AZM TOTAL CORR
 EPD .m                   0.00:  ELEVATION
 EGL .m                   0.00:  GROUND ELEVATION
 WDMS.m                 169.80:  WD ELEV
 APD .m                  43.00:  DEPTH ABOVE PD
 VSEW.m                  -9.46:  VERT SEC E/W
 VSNS.m                  -7.12:  VERT SEC N/S
 AGAP.m                  43.00:  AIR GAP
 DEP .m                 356.16:  DEPTH
 EKB .m                  43.00:  KB ELEVATION
 EDF .m                  43.00:  DF ELEVATION
 TDL .m                 699.00:  TOTAL DEPTH (LOGGER)
 VSC .                       0:  VS TO CLOSURE
 MAGU.                 1853727:  MAGUTM CHECKSUM
~Parameter Information Block
#MNEM.UNIT       Value        Description
#---------     -----------    ---------------------------
 AV  .mps                 1.30:  Ann Velocity 
 AVMX.mps                 1.67:  Max Ann Veloc 
 AZIF.deg               280.40:  Azm, Final 
 BHAT.        Rotary Steerable:  BHA Type 
 BREV.rev            528970.00:  Rev Bit Total 
 BROT.°/30m               1.00:  Build Rotating 
 BS  .in                 12.25:  Bit Size 
 BSZ .in                 12.25:  Bit Size 
 BTPL.psig              738.00:  Bit Press Loss 
 CABU.                     Yes:  Customer Abuse 
 CGEO.        Elvin Suleymanov:  Customer Geo 
 COMM.                     ¬kS:  Run Comments 1 
 TCS .hr                 66.05:  Time Ciculation Ended 
 CV  .mps                 2.20:  Crit Velocity 
 CVMX.mps                 2.56:  Max Crit Veloc 
 DD1 .          Rashad Habibov:  Direct Drillr 1 
 DD2 .            Azer ravanov:  Direct Drillr 2 
 DD3 .           Teymur Agayev:  Direct Drillr 3 
 DDSV.               Geo-Pilot:  DD Service 
 DEFF.%                  90.00:  % Det Eff 
 DLRX.°/30m               2.95:  Dogleg Rot Max 
 DLSO.°/30m               1.00:  Dogleg Oriented 
 DLSX.°/30m               2.95:  Dogleg Str Max 
 DRET.      11.42.20 11-Aug-21:  Drill End Time 
 DRST.      23.03.20 08-Aug-21:  Drill Start Tim 
 DTIM.hr                 45.50:  Time Drilling 
 EDEP.m                3488.00:  End Depth 
 ENG1.         Marcelo Marcari:  Engineer 1 
 ENG2.         Dair Mahammadov:  Engineer 2 
 ENG3.       Davud Huseyn-zada:  Engineer 3 
 ENG4.         Yevgeniy Ulikov:  Engineer 4 
 ETIM.      17.45.20 17-Aug-21:  End Time 
 FLOI.gpm              1197.70:  Flow In 
 FLON.gpm              1100.00:  Flow In Min 
 FLOS.cptm                0.00:  Fluid Loss 
 FLOX.gpm              1200.00:  Flow In Max 
 DFT .        Mineral Oil Base:  Mud Type 
 FTRO.       Formation Presure:  FTWD Run Obj 
 HFLO.                      No:  High Flow 
 HPRE.                      No:  High Pressure 
 HTEM.                      No:  High Temp 
 HYDO.m                   1.80:  Hydro Offset 
 IFIN.deg                 9.87:  Inc, Final 
 IMAX.deg                19.96:  Inc Max 
 IMIN.deg                 3.82:  Inc Min 
 IMND.m                3257.42:  Inc Min Depth 
 IMXD.m                2945.53:  Inc Max Depth 
 JARR.                      No:  Jarring 
 LETM.      11.42.20 11-Aug-21:  Log End Time 
 LOST.hr                     0:  Lost Rig Time 
 LSTM.      23.03.20 08-Aug-21:  Log Start Time 
 MDCL.ppm             42500.00:  Mud Chlorides 
 MDES.     Inversion Oil/Synthetic:  Mud Desc 
 DFD .sg                  1.45:  Mud Density 
 MDMN.sg                  1.39:  Dens Mud Min 
 MDMX.sg                  1.57:  Dens Mud Max 
 MOIL.                   53.20:  Run Mud Oil % 
 MOWR.                   70:30:  Run Mud OWR 
 MSND.                       0:  Run Mud Sand % 
 MSOL.                   24.30:  Run Mud Solids% 
 DFV .spqt               79.00:  Mud Viscosity 
 MWOD.in                  8.00:  MWD Tool OD 
 MWSI.                      No:  Serv Intrp, MWD 
 OTIM.hr                253.06:  Time Operating 
 PCON.           Look Like New:  Pad Condition 
 PMAX.psia            11068.93:  Press Op, Max 
 PV  .cP                 36.00:  Mud PV 
 RUN .                    1000:  Run Number 
 ROPA.m/hr               15.34:  ROP Avg 
 ROPN.m/hr                4.00:  ROP Min 
 ROPX.m/hr               31.00:  ROP Max 
 RPMA.rpm               151.40:  RPM Surface Avg 
 RPMN.rpm               120.00:  RPM Surface Min 
 RPMX.rpm               160.00:  RPM Surface Max 
 RRUN.                    L505:  Rig Run Number 
 RTIM.hr                 10.00:  Time Reaming 
 SAZI.deg                88.92:  Azm, Start 
 SDEP.m                2789.00:  Start Depth 
 SIDD.                      No:  Serv Intrp, DD 
 SINC.deg                19.84:  Inc, Start 
 SPPA.psig             4421.39:  SPP Avg 
 SPPN.psig             4130.00:  SPP Min 
 SPPX.psig             4800.00:  SPP Max 
 STIM.      01.25.20 07-Aug-21:  Start Time 
 SVCS.                 DD, MWD:  Services 
 SVER.                    9.20:  Sperry Version 
 TDAT.m                 699.00:  Tot Depth Attmp 
 TDDF.                      No:  Trip for DD 
 TDLG.m                 699.00:  Tot Depth Loggd 
 TFF .                      No:  Trip for Fail 
 TQAA.f-kp               20.55:  Torque Abs Avg 
 TQAN.f-kp               15.00:  Torque Abs Min 
 TQAX.f-kp               24.00:  Torque Abs Max 
 TRRT.°/30m               0.50:  Turn Rotating 
 MRT .                    HCIM:  Maximum Recorded Temperature 
 TTMX.degC               82.35:  Max Tool Temp 
 VS01.                90654677:  Virtual Str1 SN 
 VS02.                90636294:  Virtual Str2 SN 
 VS03.                90653866:  Virtual Str3 SN 
 VS04.                90654674:  Virtual Str4 SN 
 WBMN.klb                10.00:  WOB Min 
 WITN.         Haytham Mostafa:  Customer Rep 
 WITN.           Rufat Babayev:  Customer Rep 2 
 WOBA.klb                22.43:  WOB Avg 
 WOBX.klb                35.00:  WOB Max 
 YP  .lhf2               32.00:  Yield Point 
~Curve Information Block
#MNEM.UNIT                 API CODE     Curve Description
#---------               -----------    ---------------------------
 TIME.HHMMSS            00 000 000 000:  GT Time & Date
 GTDEPTH.m              00 000 000 000:  GT Depth
 GTPQH.psia             00 000 000 000:  GT HR Quartz Pressure
 GTTQ.degC              00 000 000 000:  GT Quartz Temperature
 GTTN.NONE              00 000 000 000:  GT Test Number
 GTET.sec               00 000 000 000:  GT Elapsed Test Time
 GTTVD.m                00 000 000 000:  GT True Vertical Depth
#Other Information
#
#WARRANTY: Halliburton will use its best efforts to furnish customers with 
#accurate information and interpretations that are part of, and incident to, the services 
#provided.  However, Halliburton cannot and does not warrant the accuracy 
#or correctness of such information and interpretations.  Under no circumstances should any 
#such information or interpretation be relied upon as the sole basis for any drilling, 
#completion, production, or financial decision or any procedure involving any risk to the 
#safety of any drilling venture, drilling rig or its crew or any other third party.  The 
#Customer has full responsibility for all drilling, completion and production operation.  
#Halliburton makes no representations or warranties, either expressed or 
#implied, including, but not limited to, the implied warranties of merchantability or fitness 
#for a particular purpose, with respect to the services rendered.  In no event will 
#Halliburton be liable for failure to obtain any particular results or for 
#any damages, including, but not limited to, indirect, special or consequential damages, 
#resulting from the use of any information or interpretation provided by Halliburton.
#
~A           TIME           GTDEPTH  GTPQH  GTTQ  GTTN  GTET   GTTVD  
# ...
   06:57:00.713.15-Aug-2021 3437.50 5216.91 57.98 1.00 276.02 3289.56
   06:57:00.913.15-Aug-2021 3437.50 5216.91 57.98 1.00 276.22 3289.56
   06:57:01.113.15-Aug-2021 3437.50 5217.03 57.98 1.00 276.42 3289.56
   06:57:01.313.15-Aug-2021 3437.50 5217.31 57.98 1.00 276.62 3289.56
   06:57:01.513.15-Aug-2021 3437.50 5217.74 57.98 1.00 276.82 3289.56
   06:57:01.713.15-Aug-2021 3437.50 5216.67 57.98 1.00 277.02 3289.56
   06:57:01.913.15-Aug-2021 3437.50 5216.67 57.98 1.00 277.22 3289.56
   06:57:02.113.15-Aug-2021 3437.50 5217.14 57.98 1.00 277.42 3289.56
   06:57:02.313.15-Aug-2021 3437.50 5217.85 57.98 1.00 277.62 3289.56
   06:57:02.513.15-Aug-2021 3437.50 5216.67 57.98 1.00 277.82 3289.56
   06:57:02.713.15-Aug-2021 3437.50 5217.44 57.98 1.00 278.02 3289.56
   06:57:02.913.15-Aug-2021 3437.50 5217.44 57.98 1.00 278.22 3289.56
   06:57:03.113.15-Aug-2021 3437.50 5217.12 57.98 1.00 278.42 3289.56
   06:57:03.313.15-Aug-2021 3437.50 5217.04 57.98 1.00 278.62 3289.56
   06:57:03.513.15-Aug-2021 3437.50 5217.86 57.98 1.00 278.82 3289.56
   06:57:03.713.15-Aug-2021 3437.50 5216.61 57.98 1.00 279.02 3289.56
   06:57:03.913.15-Aug-2021 3437.50 5216.61 57.98 1.00 279.22 3289.56
   06:57:04.113.15-Aug-2021 3437.50 5217.08 57.98 1.00 279.42 3289.56
   06:57:04.313.15-Aug-2021 3437.50 5217.83 57.98 1.00 279.62 3289.56
   06:57:04.513.15-Aug-2021 3437.50 5216.86 57.98 1.00 279.82 3289.56
   06:57:04.713.15-Aug-2021 3437.50 5100.32 57.98 1.00 280.02 3289.56
   06:57:04.913.15-Aug-2021 3437.50 5100.32 57.98 1.00 280.22 3289.56
   06:57:05.113.15-Aug-2021 3437.50 4699.74 57.98 1.00 280.42 3289.56
   06:57:05.313.15-Aug-2021 3437.50 4632.44 57.98 1.00 280.62 3289.56
   06:57:05.513.15-Aug-2021 3437.50 4593.77 57.98 1.00 280.82 3289.56
   06:57:05.713.15-Aug-2021 3437.50 4574.04 57.98 1.00 281.02 3289.56
   06:57:05.913.15-Aug-2021 3437.50 4574.04 57.98 1.00 281.22 3289.56
   06:57:06.113.15-Aug-2021 3437.50 4557.13 57.98 1.00 281.42 3289.56
   06:57:06.313.15-Aug-2021 3437.50 4553.92 57.98 1.00 281.62 3289.56
   06:57:06.513.15-Aug-2021 3437.50 4554.11 57.98 1.00 281.82 3289.56
   06:57:06.713.15-Aug-2021 3437.50 4554.91 57.98 1.00 282.02 3289.56
   06:57:06.913.15-Aug-2021 3437.50 4554.91 57.98 1.00 282.22 3289.56
   06:57:07.114.15-Aug-2021 3437.50 4559.02 57.97 1.00 282.42 3289.56
   06:57:07.314.15-Aug-2021 3437.50 4559.38 57.97 1.00 282.62 3289.56
   06:57:07.514.15-Aug-2021 3437.50 4555.34 57.97 1.00 282.82 3289.56
   06:57:07.714.15-Aug-2021 3437.50 4551.61 57.97 1.00 283.02 3289.56
   06:57:07.914.15-Aug-2021 3437.50 4551.61 57.97 1.00 283.22 3289.56
   06:57:08.114.15-Aug-2021 3437.50 4546.66 57.97 1.00 283.42 3289.56
   06:57:08.314.15-Aug-2021 3437.50 4542.95 57.97 1.00 283.62 3289.56
   06:57:08.514.15-Aug-2021 3437.50 4540.41 57.97 1.00 283.82 3289.56
   06:57:08.714.15-Aug-2021 3437.50 4538.49 57.97 1.00 284.02 3289.56
   06:57:08.914.15-Aug-2021 3437.50 4538.49 57.97 1.00 284.22 3289.56
   06:57:09.114.15-Aug-2021 3437.50 4533.71 57.97 1.00 284.42 3289.56
   06:57:09.314.15-Aug-2021 3437.50 4534.28 57.97 1.00 284.62 3289.56
   06:57:09.514.15-Aug-2021 3437.50 4535.05 57.97 1.00 284.82 3289.56
   06:57:09.714.15-Aug-2021 3437.50 4532.89 57.97 1.00 285.02 3289.56
   06:57:09.914.15-Aug-2021 3437.50 4532.89 57.97 1.00 285.22 3289.56
   06:57:10.114.15-Aug-2021 3437.50 4531.18 57.97 1.00 285.42 3289.56
   06:57:10.314.15-Aug-2021 3437.50 4530.34 57.97 1.00 285.62 3289.56
   06:57:10.514.15-Aug-2021 3437.50 4529.52 57.97 1.00 285.82 3289.56
   06:57:10.714.15-Aug-2021 3437.50 4530.36 57.97 1.00 286.02 3289.56
   06:57:10.914.15-Aug-2021 3437.50 4530.36 57.97 1.00 286.22 3289.56
   06:57:11.114.15-Aug-2021 3437.50 4529.89 57.97 1.00 286.42 3289.56
   06:57:11.314.15-Aug-2021 3437.50 4531.04 57.97 1.00 286.62 3289.56
   06:57:11.514.15-Aug-2021 3437.50 4531.04 57.97 1.00 286.82 3289.56
   06:57:11.714.15-Aug-2021 3437.50 4531.21 57.96 1.00 287.02 3289.56
   06:57:11.914.15-Aug-2021 3437.50 4531.21 57.96 1.00 287.22 3289.56
   06:57:12.114.15-Aug-2021 3437.50 4526.83 57.96 1.00 287.42 3289.56
   06:57:12.314.15-Aug-2021 3437.50 4526.44 57.96 1.00 287.62 3289.56
   06:57:12.514.15-Aug-2021 3437.50 4528.49 57.96 1.00 287.82 3289.56
   06:57:12.714.15-Aug-2021 3437.50 4530.02 57.96 1.00 288.02 3289.56
   06:57:12.914.15-Aug-2021 3437.50 4530.02 57.96 1.00 288.22 3289.56
   06:57:13.114.15-Aug-2021 3437.50 4544.51 57.96 1.00 288.42 3289.56
   06:57:13.314.15-Aug-2021 3437.50 4773.38 57.96 1.00 288.62 3289.56
   06:57:13.514.15-Aug-2021 3437.50 4957.13 57.96 1.00 288.82 3289.56
   06:57:13.714.15-Aug-2021 3437.50 5055.60 57.96 1.00 289.02 3289.56
   06:57:13.914.15-Aug-2021 3437.50 5055.60 57.96 1.00 289.22 3289.56
   06:57:14.114.15-Aug-2021 3437.50 5148.58 57.96 1.00 289.42 3289.56
   06:57:14.314.15-Aug-2021 3437.50 5170.83 57.96 1.00 289.62 3289.56
   06:57:14.514.15-Aug-2021 3437.50 5183.35 57.96 1.00 289.82 3289.56
   06:57:14.714.15-Aug-2021 3437.50 5192.50 57.96 1.00 290.02 3289.56
   06:57:14.914.15-Aug-2021 3437.50 5192.50 57.96 1.00 290.22 3289.56
   06:57:15.114.15-Aug-2021 3437.50 5202.11 57.96 1.00 290.42 3289.56
   06:57:15.314.15-Aug-2021 3437.50 5204.94 57.96 1.00 290.62 3289.56
   06:57:15.514.15-Aug-2021 3437.50 5206.49 57.96 1.00 290.82 3289.56
   06:57:15.714.15-Aug-2021 3437.50 5207.89 57.96 1.00 291.02 3289.56
   06:57:15.914.15-Aug-2021 3437.50 5207.89 57.96 1.00 291.22 3289.56
   06:57:16.114.15-Aug-2021 3437.50 5210.33 57.96 1.00 291.42 3289.56
   06:57:16.314.15-Aug-2021 3437.50 5210.75 57.96 1.00 291.62 3289.56
   06:57:16.514.15-Aug-2021 3437.50 5211.06 57.96 1.00 291.82 3289.56
   06:57:16.714.15-Aug-2021 3437.50 5211.52 57.96 1.00 292.02 3289.56
   06:57:16.914.15-Aug-2021 3437.50 5211.52 57.96 1.00 292.22 3289.56
   06:57:17.114.15-Aug-2021 3437.50 5212.41 57.97 1.00 292.42 3289.56
   06:57:17.314.15-Aug-2021 3437.50 5212.42 57.97 1.00 292.62 3289.56
   06:57:17.514.15-Aug-2021 3437.50 5212.75 57.97 1.00 292.82 3289.56
   06:57:17.714.15-Aug-2021 3437.50 5212.50 57.97 1.00 293.02 3289.56
   06:57:17.914.15-Aug-2021 3437.50 5212.50 57.97 1.00 293.22 3289.56
   06:57:18.114.15-Aug-2021 3437.50 5212.67 57.97 1.00 293.42 3289.56
   06:57:18.314.15-Aug-2021 3437.50 5213.07 57.97 1.00 293.62 3289.56
   06:57:18.514.15-Aug-2021 3437.50 5213.30 57.97 1.00 293.82 3289.56
   06:57:18.714.15-Aug-2021 3437.50 5213.22 57.97 1.00 294.02 3289.56
   06:57:18.914.15-Aug-2021 3437.50 5213.22 57.97 1.00 294.22 3289.56
   06:57:19.114.15-Aug-2021 3437.50 5213.60 57.97 1.00 294.42 3289.56
   06:57:19.314.15-Aug-2021 3437.50 5213.73 57.97 1.00 294.62 3289.56
   06:57:19.514.15-Aug-2021 3437.50 5213.92 57.97 1.00 294.82 3289.56
   06:57:19.714.15-Aug-2021 3437.50 5213.83 57.97 1.00 295.02 3289.56
   06:57:19.914.15-Aug-2021 3437.50 5213.83 57.97 1.00 295.22 3289.56
   06:57:20.114.15-Aug-2021 3437.50 5214.06 57.97 1.00 295.42 3289.56
   06:57:20.314.15-Aug-2021 3437.50 5214.00 57.97 1.00 295.62 3289.56
   06:57:20.514.15-Aug-2021 3437.50 5214.34 57.97 1.00 295.82 3289.56
   06:57:20.714.15-Aug-2021 3437.50 5214.18 57.97 1.00 296.02 3289.56
   06:57:20.914.15-Aug-2021 3437.50 5214.18 57.97 1.00 296.22 3289.56
   06:57:21.114.15-Aug-2021 3437.50 5214.38 57.97 1.00 296.42 3289.56
   06:57:21.315.15-Aug-2021 3437.50 5214.84 57.97 1.00 296.62 3289.56
   06:57:21.515.15-Aug-2021 3437.50 5214.36 57.97 1.00 296.82 3289.56
   06:57:21.715.15-Aug-2021 3437.50 5214.69 57.97 1.00 297.02 3289.56
   06:57:21.915.15-Aug-2021 3437.50 5214.69 57.97 1.00 297.22 3289.56
   06:57:22.115.15-Aug-2021 3437.50 5214.68 57.98 1.00 297.42 3289.56
   06:57:22.315.15-Aug-2021 3437.50 5214.75 57.98 1.00 297.62 3289.56
   06:57:22.515.15-Aug-2021 3437.50 5214.87 57.98 1.00 297.82 3289.56
   06:57:22.715.15-Aug-2021 3437.50 5215.11 57.98 1.00 298.02 3289.56
   06:57:22.915.15-Aug-2021 3437.50 5215.11 57.98 1.00 298.22 3289.56
   06:57:23.115.15-Aug-2021 3437.50 5215.15 57.98 1.00 298.42 3289.56
   06:57:23.315.15-Aug-2021 3437.50 5214.92 57.98 1.00 298.62 3289.56
   06:57:23.515.15-Aug-2021 3437.50 5215.18 57.98 1.00 298.82 3289.56
