~Version Information
 VERS.                  2.0:   CWLS log ASCII Standard -VERSION 2.0
 WRAP.                   NO:   One line per depth step
~Well Information Block
#MNEM.UNIT     VALUE/NAME     DESCRIPTION
#---------     -----------    ---------------------------
 STRT.S             10:08:54 15-Aug-21: START TIME 10:08:54 15-Aug-21
 STOP.S             10:17:25 15-Aug-21: STOP TIME  10:17:25 15-Aug-21
 STEP.S                   0.00: STEP TIME
 NULL.                 -999.25: NULL VALUE
 DFWT.                        :  DIST FWL TEXT
 DFST.                        :  DIST FSL TEXT
 DMF .             Drill Floor:  DRILL MEAS FROM
 STIM.      17.18.56 20-Jun-21:  START TIME
 DATE.      17.18.56 20-Aug-21:  END TIME
 SPUD.               20-Jun-21:  SPUD DATE
 NREF.                    Grid:  NORTH REFERENCE
 HPTY.       Minimum Curvature:  HOLE POS TYPE
 DMOD.             Drill Model:  DRILL MOD DESC
 SVYD.                  Survey:  SURVEY DESC
 ILTD.               Lithology:  INTERP LTH DESC
 FTOP.          Formation Tops:  FORM TOPS DESC
 SON .        AZ-XX-0907056190:  JOB NUMBER
 PDAT.       Caspian Sea Level:  PERMANENT DATUM
 WTYP.                Deviated:  WELL TYPE
 MDS .        Operator Entered:  MAG DATA SOURCE
 COMP.     BP Exploration (Caspian Sea) Ltd.:  COMPANY
 UWI .            /AZE20000092:  UNIQUE WELL IDENTIFIER
 API .            /AZE20000092:  API NUMBER
 BASE.              Azerbaijan:  LOGGING EQUIPMENT BASE LOCATION
 REGN.                   EESSA:  REGION
 PROV.                    baku:  PROVINCE
 STAT.                    baku:  STATE NAME
 CTRY.              Azerbaijan:  COUNTRY NAME
 FLD .                     ACG:  FIELD NAME
 SRVC.          Turan Drilling:  CONTRACTOR
 MWDS.                    Baku:  MWD SHOP
 WELL.                     J26:  WELL NAME
 JOBN.        AZ-XX-0907056190:  JOB TICKET NUMB
 RIG .             West Chirag:  RIG NAME
 DOE .                     N/A:  DOE NUMBER
 DCON.         Sperry Drilling:  DIRECTNL CONTR
 UNIT.                     N/A:  LOGGING EQUIPMENT ID
 CNTY.                        :  COUNTY
 LOC .                        :  LOCATION
 LMF .             Drill Floor:  LOG MEASURED FROM
 TVDS.m                  43.00:  TVDSS CORRECTN
 LATI.deg                40.13:  LATITUDE
 LONG.deg                51.22:  LONGITUDE
 WHNS.m                  -7.12:  WELL HEAD N/S
 WHEW.m                  -9.46:  WELL HEAD E/W
 UTMX.m              519004.02:  UTM X
 UTMY.m             4443784.96:  UTM Y
 DFWL.m                   0.00:  DISTANCE FWL
 DFSL.m                   0.00:  DISTANCE FSL
 SDEP.m                 464.00:  START DEPTH
 TDD .m                3500.00:  TOTAL DEPTH (DRILLER)
 VSDR.deg               114.35:  VERT SEC DIRECT
 GVFD.g                   1.00:  GRAVITY FIELD
 MFLD.nT              50386.00:  MAGNETIC FIELD
 MDIP.deg                59.63:  MAGNETIC DIP
 MDEC.deg                 6.43:  MAGNETIC DECL
 GRDC.deg                 0.15:  GRID CORRECTION
 AZTC.deg                 6.29:  AZM TOTAL CORR
 EPD .m                   0.00:  ELEVATION
 EGL .m                   0.00:  GROUND ELEVATION
 WDMS.m                 169.80:  WD ELEV
 APD .m                  43.00:  DEPTH ABOVE PD
 VSEW.m                  -9.46:  VERT SEC E/W
 VSNS.m                  -7.12:  VERT SEC N/S
 AGAP.m                  43.00:  AIR GAP
 DEP .m                 356.16:  DEPTH
 EKB .m                  43.00:  KB ELEVATION
 EDF .m                  43.00:  DF ELEVATION
 TDL .m                 699.00:  TOTAL DEPTH (LOGGER)
 VSC .                       0:  VS TO CLOSURE
 MAGU.                 1853727:  MAGUTM CHECKSUM
~Parameter Information Block
#MNEM.UNIT       Value        Description
#---------     -----------    ---------------------------
 AV  .mps                 1.30:  Ann Velocity 
 AVMX.mps                 1.67:  Max Ann Veloc 
 AZIF.deg               280.40:  Azm, Final 
 BHAT.        Rotary Steerable:  BHA Type 
 BREV.rev            528970.00:  Rev Bit Total 
 BROT.°/30m               1.00:  Build Rotating 
 BS  .in                 12.25:  Bit Size 
 BSZ .in                 12.25:  Bit Size 
 BTPL.psig              738.00:  Bit Press Loss 
 CABU.                     Yes:  Customer Abuse 
 CGEO.        Elvin Suleymanov:  Customer Geo 
 COMM.                     ´½}:  Run Comments 1 
 TCS .hr                 66.05:  Time Ciculation Ended 
 CV  .mps                 2.20:  Crit Velocity 
 CVMX.mps                 2.56:  Max Crit Veloc 
 DD1 .          Rashad Habibov:  Direct Drillr 1 
 DD2 .            Azer ravanov:  Direct Drillr 2 
 DD3 .           Teymur Agayev:  Direct Drillr 3 
 DDSV.               Geo-Pilot:  DD Service 
 DEFF.%                  90.00:  % Det Eff 
 DLRX.°/30m               2.95:  Dogleg Rot Max 
 DLSO.°/30m               1.00:  Dogleg Oriented 
 DLSX.°/30m               2.95:  Dogleg Str Max 
 DRET.      11.42.20 11-Aug-21:  Drill End Time 
 DRST.      23.03.20 08-Aug-21:  Drill Start Tim 
 DTIM.hr                 45.50:  Time Drilling 
 EDEP.m                3488.00:  End Depth 
 ENG1.         Marcelo Marcari:  Engineer 1 
 ENG2.         Dair Mahammadov:  Engineer 2 
 ENG3.       Davud Huseyn-zada:  Engineer 3 
 ENG4.         Yevgeniy Ulikov:  Engineer 4 
 ETIM.      17.45.20 17-Aug-21:  End Time 
 FLOI.gpm              1197.70:  Flow In 
 FLON.gpm              1100.00:  Flow In Min 
 FLOS.cptm                0.00:  Fluid Loss 
 FLOX.gpm              1200.00:  Flow In Max 
 DFT .        Mineral Oil Base:  Mud Type 
 FTRO.       Formation Presure:  FTWD Run Obj 
 HFLO.                      No:  High Flow 
 HPRE.                      No:  High Pressure 
 HTEM.                      No:  High Temp 
 HYDO.m                   1.80:  Hydro Offset 
 IFIN.deg                 9.87:  Inc, Final 
 IMAX.deg                19.96:  Inc Max 
 IMIN.deg                 3.82:  Inc Min 
 IMND.m                3257.42:  Inc Min Depth 
 IMXD.m                2945.53:  Inc Max Depth 
 JARR.                      No:  Jarring 
 LETM.      11.42.20 11-Aug-21:  Log End Time 
 LOST.hr                     0:  Lost Rig Time 
 LSTM.      23.03.20 08-Aug-21:  Log Start Time 
 MDCL.ppm             42500.00:  Mud Chlorides 
 MDES.     Inversion Oil/Synthetic:  Mud Desc 
 DFD .sg                  1.45:  Mud Density 
 MDMN.sg                  1.39:  Dens Mud Min 
 MDMX.sg                  1.57:  Dens Mud Max 
 MOIL.                   53.20:  Run Mud Oil % 
 MOWR.                   70:30:  Run Mud OWR 
 MSND.                       0:  Run Mud Sand % 
 MSOL.                   24.30:  Run Mud Solids% 
 DFV .spqt               79.00:  Mud Viscosity 
 MWOD.in                  8.00:  MWD Tool OD 
 MWSI.                      No:  Serv Intrp, MWD 
 OTIM.hr                253.06:  Time Operating 
 PCON.           Look Like New:  Pad Condition 
 PMAX.psia            11068.93:  Press Op, Max 
 PV  .cP                 36.00:  Mud PV 
 RUN .                    1000:  Run Number 
 ROPA.m/hr               15.34:  ROP Avg 
 ROPN.m/hr                4.00:  ROP Min 
 ROPX.m/hr               31.00:  ROP Max 
 RPMA.rpm               151.40:  RPM Surface Avg 
 RPMN.rpm               120.00:  RPM Surface Min 
 RPMX.rpm               160.00:  RPM Surface Max 
 RRUN.                    L505:  Rig Run Number 
 RTIM.hr                 10.00:  Time Reaming 
 SAZI.deg                88.92:  Azm, Start 
 SDEP.m                2789.00:  Start Depth 
 SIDD.                      No:  Serv Intrp, DD 
 SINC.deg                19.84:  Inc, Start 
 SPPA.psig             4421.39:  SPP Avg 
 SPPN.psig             4130.00:  SPP Min 
 SPPX.psig             4800.00:  SPP Max 
 STIM.      01.25.20 07-Aug-21:  Start Time 
 SVCS.                 DD, MWD:  Services 
 SVER.                    9.20:  Sperry Version 
 TDAT.m                 699.00:  Tot Depth Attmp 
 TDDF.                      No:  Trip for DD 
 TDLG.m                 699.00:  Tot Depth Loggd 
 TFF .                      No:  Trip for Fail 
 TQAA.f-kp               20.55:  Torque Abs Avg 
 TQAN.f-kp               15.00:  Torque Abs Min 
 TQAX.f-kp               24.00:  Torque Abs Max 
 TRRT.°/30m               0.50:  Turn Rotating 
 MRT .                    HCIM:  Maximum Recorded Temperature 
 TTMX.degC               82.35:  Max Tool Temp 
 VS01.                90654677:  Virtual Str1 SN 
 VS02.                90636294:  Virtual Str2 SN 
 VS03.                90653866:  Virtual Str3 SN 
 VS04.                90654674:  Virtual Str4 SN 
 WBMN.klb                10.00:  WOB Min 
 WITN.         Haytham Mostafa:  Customer Rep 
 WITN.           Rufat Babayev:  Customer Rep 2 
 WOBA.klb                22.43:  WOB Avg 
 WOBX.klb                35.00:  WOB Max 
 YP  .lhf2               32.00:  Yield Point 
~Curve Information Block
#MNEM.UNIT                 API CODE     Curve Description
#---------               -----------    ---------------------------
 TIME.HHMMSS            00 000 000 000:  GT Time & Date
 GTDEPTH.m              00 000 000 000:  GT Depth
 GTPQH.psia             00 000 000 000:  GT HR Quartz Pressure
 GTTQ.degC              00 000 000 000:  GT Quartz Temperature
 GTTN.NONE              00 000 000 000:  GT Test Number
 GTET.sec               00 000 000 000:  GT Elapsed Test Time
 GTTVD.m                00 000 000 000:  GT True Vertical Depth
#Other Information
#
#WARRANTY: Halliburton will use its best efforts to furnish customers with 
#accurate information and interpretations that are part of, and incident to, the services 
#provided.  However, Halliburton cannot and does not warrant the accuracy 
#or correctness of such information and interpretations.  Under no circumstances should any 
#such information or interpretation be relied upon as the sole basis for any drilling, 
#completion, production, or financial decision or any procedure involving any risk to the 
#safety of any drilling venture, drilling rig or its crew or any other third party.  The 
#Customer has full responsibility for all drilling, completion and production operation.  
#Halliburton makes no representations or warranties, either expressed or 
#implied, including, but not limited to, the implied warranties of merchantability or fitness 
#for a particular purpose, with respect to the services rendered.  In no event will 
#Halliburton be liable for failure to obtain any particular results or for 
#any damages, including, but not limited to, indirect, special or consequential damages, 
#resulting from the use of any information or interpretation provided by Halliburton.
#
~A           TIME           GTDEPTH  GTPQH  GTTQ  GTTN  GTET   GTTVD  
# ...
   10:14:16.274.15-Aug-2021 3416.50 5185.26 54.35 4.00 322.05 3268.90
   10:14:16.474.15-Aug-2021 3416.50 5185.26 54.35 4.00 322.25 3268.90
   10:14:16.674.15-Aug-2021 3416.50 5185.05 54.35 4.00 322.45 3268.90
   10:14:16.874.15-Aug-2021 3416.50 5185.46 54.35 4.00 322.65 3268.90
   10:14:17.074.15-Aug-2021 3416.50 5185.21 54.35 4.00 322.85 3268.90
   10:14:17.274.15-Aug-2021 3416.50 5185.03 54.35 4.00 323.05 3268.90
   10:14:17.474.15-Aug-2021 3416.50 5185.03 54.35 4.00 323.25 3268.90
   10:14:17.674.15-Aug-2021 3416.50 5185.57 54.35 4.00 323.45 3268.90
   10:14:17.874.15-Aug-2021 3416.50 5184.68 54.35 4.00 323.65 3268.90
   10:14:18.074.15-Aug-2021 3416.50 5185.74 54.35 4.00 323.85 3268.90
   10:14:18.274.15-Aug-2021 3416.50 5184.77 54.35 4.00 324.05 3268.90
   10:14:18.474.15-Aug-2021 3416.50 5184.77 54.35 4.00 324.25 3268.90
   10:14:18.674.15-Aug-2021 3416.50 5184.99 54.35 4.00 324.45 3268.90
   10:14:18.874.15-Aug-2021 3416.50 5185.19 54.35 4.00 324.65 3268.90
   10:14:19.074.15-Aug-2021 3416.50 5185.57 54.35 4.00 324.85 3268.90
   10:14:19.274.15-Aug-2021 3416.50 5184.71 54.35 4.00 325.05 3268.90
   10:14:19.474.15-Aug-2021 3416.50 5184.71 54.35 4.00 325.25 3268.90
   10:14:19.674.15-Aug-2021 3416.50 5185.03 54.35 4.00 325.45 3268.90
   10:14:19.875.15-Aug-2021 3416.50 5185.88 54.35 4.00 325.65 3268.90
   10:14:20.075.15-Aug-2021 3416.50 5184.48 54.35 4.00 325.85 3268.90
   10:14:20.275.15-Aug-2021 3416.50 5185.30 54.35 4.00 326.05 3268.90
   10:14:20.475.15-Aug-2021 3416.50 5185.30 54.35 4.00 326.25 3268.90
   10:14:20.675.15-Aug-2021 3416.50 5185.12 54.35 4.00 326.45 3268.90
   10:14:20.875.15-Aug-2021 3416.50 5184.98 54.35 4.00 326.65 3268.90
   10:14:21.075.15-Aug-2021 3416.50 5186.12 54.35 4.00 326.85 3268.90
   10:14:21.275.15-Aug-2021 3416.50 5184.58 54.35 4.00 327.05 3268.90
   10:14:21.475.15-Aug-2021 3416.50 5184.58 54.35 4.00 327.25 3268.90
   10:14:21.675.15-Aug-2021 3416.50 5185.23 54.35 4.00 327.45 3268.90
   10:14:21.875.15-Aug-2021 3416.50 5185.21 54.35 4.00 327.65 3268.90
   10:14:22.075.15-Aug-2021 3416.50 5185.08 54.35 4.00 327.85 3268.90
   10:14:22.275.15-Aug-2021 3416.50 5185.15 54.35 4.00 328.05 3268.90
   10:14:22.475.15-Aug-2021 3416.50 5185.15 54.35 4.00 328.25 3268.90
   10:14:22.675.15-Aug-2021 3416.50 5185.09 54.35 4.00 328.45 3268.90
   10:14:22.875.15-Aug-2021 3416.50 5186.10 54.35 4.00 328.65 3268.90
   10:14:23.075.15-Aug-2021 3416.50 5184.32 54.35 4.00 328.85 3268.90
   10:14:23.275.15-Aug-2021 3416.50 5185.08 54.35 4.00 329.05 3268.90
   10:14:23.475.15-Aug-2021 3416.50 5185.08 54.35 4.00 329.25 3268.90
   10:14:23.675.15-Aug-2021 3416.50 5185.09 54.35 4.00 329.45 3268.90
   10:14:23.875.15-Aug-2021 3416.50 5185.98 54.35 4.00 329.65 3268.90
   10:14:24.075.15-Aug-2021 3416.50 5184.36 54.35 4.00 329.85 3268.90
   10:14:24.275.15-Aug-2021 3416.50 5185.13 54.35 4.00 330.05 3268.90
   10:14:24.475.15-Aug-2021 3416.50 5185.13 54.35 4.00 330.25 3268.90
   10:14:24.675.15-Aug-2021 3416.50 5185.87 54.35 4.00 330.45 3268.90
   10:14:24.875.15-Aug-2021 3416.50 5184.37 54.35 4.00 330.65 3268.90
   10:14:25.075.15-Aug-2021 3416.50 5185.14 54.35 4.00 330.85 3268.90
   10:14:25.275.15-Aug-2021 3416.50 5185.47 54.35 4.00 331.05 3268.90
   10:14:25.475.15-Aug-2021 3416.50 5185.47 54.35 4.00 331.25 3268.90
   10:14:25.675.15-Aug-2021 3416.50 5184.96 54.35 4.00 331.45 3268.90
   10:14:25.876.15-Aug-2021 3416.50 5184.95 54.35 4.00 331.65 3268.90
   10:14:26.076.15-Aug-2021 3416.50 5185.40 54.35 4.00 331.85 3268.90
   10:14:26.276.15-Aug-2021 3416.50 5184.81 54.35 4.00 332.05 3268.90
   10:14:26.476.15-Aug-2021 3416.50 5184.81 54.35 4.00 332.25 3268.90
   10:14:26.676.15-Aug-2021 3416.50 5185.17 54.35 4.00 332.45 3268.90
   10:14:26.876.15-Aug-2021 3416.50 5185.02 54.35 4.00 332.65 3268.90
   10:14:27.076.15-Aug-2021 3416.50 5185.17 54.35 4.00 332.85 3268.90
   10:14:27.276.15-Aug-2021 3416.50 5185.20 54.35 4.00 333.05 3268.90
   10:14:27.476.15-Aug-2021 3416.50 5185.20 54.35 4.00 333.25 3268.90
   10:14:27.676.15-Aug-2021 3416.50 5184.90 54.35 4.00 333.45 3268.90
   10:14:27.876.15-Aug-2021 3416.50 5185.13 54.35 4.00 333.65 3268.90
   10:14:28.076.15-Aug-2021 3416.50 5184.99 54.35 4.00 333.85 3268.90
   10:14:28.276.15-Aug-2021 3416.50 5185.64 54.34 4.00 334.05 3268.90
   10:14:28.476.15-Aug-2021 3416.50 5185.64 54.34 4.00 334.25 3268.90
   10:14:28.676.15-Aug-2021 3416.50 5185.38 54.34 4.00 334.45 3268.90
   10:14:28.876.15-Aug-2021 3416.50 5185.03 54.34 4.00 334.65 3268.90
   10:14:29.076.15-Aug-2021 3416.50 5185.28 54.34 4.00 334.85 3268.90
   10:14:29.276.15-Aug-2021 3416.50 5185.04 54.34 4.00 335.05 3268.90
   10:14:29.476.15-Aug-2021 3416.50 5185.04 54.34 4.00 335.25 3268.90
   10:14:29.676.15-Aug-2021 3416.50 5185.12 54.34 4.00 335.45 3268.90
   10:14:29.876.15-Aug-2021 3416.50 5184.98 54.34 4.00 335.65 3268.90
   10:14:30.076.15-Aug-2021 3416.50 5185.93 54.34 4.00 335.85 3268.90
   10:14:30.276.15-Aug-2021 3416.50 5184.65 54.34 4.00 336.06 3268.90
   10:14:30.476.15-Aug-2021 3416.50 5184.65 54.34 4.00 336.26 3268.90
   10:14:30.676.15-Aug-2021 3416.50 5185.11 54.34 4.00 336.46 3268.90
   10:14:30.876.15-Aug-2021 3416.50 5184.46 54.34 4.00 336.66 3268.90
   10:14:31.076.15-Aug-2021 3416.50 5134.87 54.34 4.00 336.86 3268.90
   10:14:31.276.15-Aug-2021 3416.50 4990.17 54.34 4.00 337.06 3268.90
   10:14:31.476.15-Aug-2021 3416.50 4990.17 54.34 4.00 337.26 3268.90
   10:14:31.676.15-Aug-2021 3416.50 4880.21 54.34 4.00 337.46 3268.90
   10:14:31.876.15-Aug-2021 3416.50 4860.46 54.34 4.00 337.66 3268.90
   10:14:32.077.15-Aug-2021 3416.50 4847.94 54.34 4.00 337.86 3268.90
   10:14:32.277.15-Aug-2021 3416.50 4840.49 54.34 4.00 338.06 3268.90
   10:14:32.477.15-Aug-2021 3416.50 4840.49 54.34 4.00 338.26 3268.90
   10:14:32.677.15-Aug-2021 3416.50 4833.59 54.34 4.00 338.46 3268.90
   10:14:32.877.15-Aug-2021 3416.50 4830.52 54.34 4.00 338.66 3268.90
   10:14:33.077.15-Aug-2021 3416.50 4831.91 54.34 4.00 338.86 3268.90
   10:14:33.277.15-Aug-2021 3416.50 4830.04 54.34 4.00 339.06 3268.90
   10:14:33.477.15-Aug-2021 3416.50 4830.04 54.34 4.00 339.26 3268.90
   10:14:33.677.15-Aug-2021 3416.50 4832.48 54.34 4.00 339.46 3268.90
   10:14:33.877.15-Aug-2021 3416.50 4828.91 54.34 4.00 339.66 3268.90
   10:14:34.077.15-Aug-2021 3416.50 4828.32 54.34 4.00 339.86 3268.90
   10:14:34.277.15-Aug-2021 3416.50 4826.31 54.34 4.00 340.06 3268.90
   10:14:34.477.15-Aug-2021 3416.50 4826.31 54.34 4.00 340.26 3268.90
   10:14:34.677.15-Aug-2021 3416.50 4825.81 54.34 4.00 340.46 3268.90
   10:14:34.877.15-Aug-2021 3416.50 4829.50 54.34 4.00 340.66 3268.90
   10:14:35.077.15-Aug-2021 3416.50 4830.16 54.34 4.00 340.86 3268.90
   10:14:35.277.15-Aug-2021 3416.50 4829.68 54.34 4.00 341.06 3268.90
   10:14:35.477.15-Aug-2021 3416.50 4829.68 54.34 4.00 341.26 3268.90
   10:14:35.677.15-Aug-2021 3416.50 4826.38 54.34 4.00 341.46 3268.90
   10:14:35.877.15-Aug-2021 3416.50 4828.19 54.34 4.00 341.66 3268.90
   10:14:36.077.15-Aug-2021 3416.50 4828.13 54.34 4.00 341.86 3268.90
   10:14:36.277.15-Aug-2021 3416.50 4827.47 54.34 4.00 342.06 3268.90
   10:14:36.477.15-Aug-2021 3416.50 4827.47 54.34 4.00 342.26 3268.90
   10:14:36.677.15-Aug-2021 3416.50 4827.61 54.34 4.00 342.46 3268.90
   10:14:36.877.15-Aug-2021 3416.50 4827.20 54.34 4.00 342.66 3268.90
   10:14:37.077.15-Aug-2021 3416.50 4828.33 54.34 4.00 342.86 3268.90
   10:14:37.277.15-Aug-2021 3416.50 4828.76 54.34 4.00 343.06 3268.90
   10:14:37.477.15-Aug-2021 3416.50 4828.76 54.34 4.00 343.26 3268.90
   10:14:37.677.15-Aug-2021 3416.50 4826.82 54.34 4.00 343.46 3268.90
   10:14:37.877.15-Aug-2021 3416.50 4825.86 54.34 4.00 343.66 3268.90
   10:14:38.078.15-Aug-2021 3416.50 4826.12 54.34 4.00 343.86 3268.90
   10:14:38.278.15-Aug-2021 3416.50 4828.55 54.33 4.00 344.06 3268.90
   10:14:38.478.15-Aug-2021 3416.50 4828.55 54.33 4.00 344.26 3268.90
   10:14:38.678.15-Aug-2021 3416.50 4830.72 54.33 4.00 344.46 3268.90
   10:14:38.878.15-Aug-2021 3416.50 4830.15 54.33 4.00 344.66 3268.90
   10:14:39.078.15-Aug-2021 3416.50 4830.73 54.33 4.00 344.86 3268.90
