~Version Information
 VERS.                  2.0:   CWLS log ASCII Standard -VERSION 2.0
 WRAP.                   NO:   One line per depth step
~Well Information Block
#MNEM.UNIT     VALUE/NAME     DESCRIPTION
#---------     -----------    ---------------------------
 STRT.S             12:25:56 15-Aug-21: START TIME 12:25:56 15-Aug-21
 STOP.S             12:39:05 15-Aug-21: STOP TIME  12:39:05 15-Aug-21
 STEP.S                   0.00: STEP TIME
 NULL.                 -999.25: NULL VALUE
 DFWT.                        :  DIST FWL TEXT
 DFST.                        :  DIST FSL TEXT
 DMF .             Drill Floor:  DRILL MEAS FROM
 STIM.      17.18.56 20-Jun-21:  START TIME
 DATE.      17.18.56 20-Aug-21:  END TIME
 SPUD.               20-Jun-21:  SPUD DATE
 NREF.                    Grid:  NORTH REFERENCE
 HPTY.       Minimum Curvature:  HOLE POS TYPE
 DMOD.             Drill Model:  DRILL MOD DESC
 SVYD.                  Survey:  SURVEY DESC
 ILTD.               Lithology:  INTERP LTH DESC
 FTOP.          Formation Tops:  FORM TOPS DESC
 SON .        AZ-XX-0907056190:  JOB NUMBER
 PDAT.       Caspian Sea Level:  PERMANENT DATUM
 WTYP.                Deviated:  WELL TYPE
 MDS .        Operator Entered:  MAG DATA SOURCE
 COMP.     BP Exploration (Caspian Sea) Ltd.:  COMPANY
 UWI .            /AZE20000092:  UNIQUE WELL IDENTIFIER
 API .            /AZE20000092:  API NUMBER
 BASE.              Azerbaijan:  LOGGING EQUIPMENT BASE LOCATION
 REGN.                   EESSA:  REGION
 PROV.                    baku:  PROVINCE
 STAT.                    baku:  STATE NAME
 CTRY.              Azerbaijan:  COUNTRY NAME
 FLD .                     ACG:  FIELD NAME
 SRVC.          Turan Drilling:  CONTRACTOR
 MWDS.                    Baku:  MWD SHOP
 WELL.                     J26:  WELL NAME
 JOBN.        AZ-XX-0907056190:  JOB TICKET NUMB
 RIG .             West Chirag:  RIG NAME
 DOE .                     N/A:  DOE NUMBER
 DCON.         Sperry Drilling:  DIRECTNL CONTR
 UNIT.                     N/A:  LOGGING EQUIPMENT ID
 CNTY.                        :  COUNTY
 LOC .                        :  LOCATION
 LMF .             Drill Floor:  LOG MEASURED FROM
 TVDS.m                  43.00:  TVDSS CORRECTN
 LATI.deg                40.13:  LATITUDE
 LONG.deg                51.22:  LONGITUDE
 WHNS.m                  -7.12:  WELL HEAD N/S
 WHEW.m                  -9.46:  WELL HEAD E/W
 UTMX.m              519004.02:  UTM X
 UTMY.m             4443784.96:  UTM Y
 DFWL.m                   0.00:  DISTANCE FWL
 DFSL.m                   0.00:  DISTANCE FSL
 SDEP.m                 464.00:  START DEPTH
 TDD .m                3500.00:  TOTAL DEPTH (DRILLER)
 VSDR.deg               114.35:  VERT SEC DIRECT
 GVFD.g                   1.00:  GRAVITY FIELD
 MFLD.nT              50386.00:  MAGNETIC FIELD
 MDIP.deg                59.63:  MAGNETIC DIP
 MDEC.deg                 6.43:  MAGNETIC DECL
 GRDC.deg                 0.15:  GRID CORRECTION
 AZTC.deg                 6.29:  AZM TOTAL CORR
 EPD .m                   0.00:  ELEVATION
 EGL .m                   0.00:  GROUND ELEVATION
 WDMS.m                 169.80:  WD ELEV
 APD .m                  43.00:  DEPTH ABOVE PD
 VSEW.m                  -9.46:  VERT SEC E/W
 VSNS.m                  -7.12:  VERT SEC N/S
 AGAP.m                  43.00:  AIR GAP
 DEP .m                 356.16:  DEPTH
 EKB .m                  43.00:  KB ELEVATION
 EDF .m                  43.00:  DF ELEVATION
 TDL .m                 699.00:  TOTAL DEPTH (LOGGER)
 VSC .                       0:  VS TO CLOSURE
 MAGU.                 1853727:  MAGUTM CHECKSUM
~Parameter Information Block
#MNEM.UNIT       Value        Description
#---------     -----------    ---------------------------
 AV  .mps                 1.30:  Ann Velocity 
 AVMX.mps                 1.67:  Max Ann Veloc 
 AZIF.deg               280.40:  Azm, Final 
 BHAT.        Rotary Steerable:  BHA Type 
 BREV.rev            528970.00:  Rev Bit Total 
 BROT.°/30m               1.00:  Build Rotating 
 BS  .in                 12.25:  Bit Size 
 BSZ .in                 12.25:  Bit Size 
 BTPL.psig              738.00:  Bit Press Loss 
 CABU.                     Yes:  Customer Abuse 
 CGEO.        Elvin Suleymanov:  Customer Geo 
 COMM.                     ´3x:  Run Comments 1 
 TCS .hr                 66.05:  Time Ciculation Ended 
 CV  .mps                 2.20:  Crit Velocity 
 CVMX.mps                 2.56:  Max Crit Veloc 
 DD1 .          Rashad Habibov:  Direct Drillr 1 
 DD2 .            Azer ravanov:  Direct Drillr 2 
 DD3 .           Teymur Agayev:  Direct Drillr 3 
 DDSV.               Geo-Pilot:  DD Service 
 DEFF.%                  90.00:  % Det Eff 
 DLRX.°/30m               2.95:  Dogleg Rot Max 
 DLSO.°/30m               1.00:  Dogleg Oriented 
 DLSX.°/30m               2.95:  Dogleg Str Max 
 DRET.      11.42.20 11-Aug-21:  Drill End Time 
 DRST.      23.03.20 08-Aug-21:  Drill Start Tim 
 DTIM.hr                 45.50:  Time Drilling 
 EDEP.m                3488.00:  End Depth 
 ENG1.         Marcelo Marcari:  Engineer 1 
 ENG2.         Dair Mahammadov:  Engineer 2 
 ENG3.       Davud Huseyn-zada:  Engineer 3 
 ENG4.         Yevgeniy Ulikov:  Engineer 4 
 ETIM.      17.45.20 17-Aug-21:  End Time 
 FLOI.gpm              1197.70:  Flow In 
 FLON.gpm              1100.00:  Flow In Min 
 FLOS.cptm                0.00:  Fluid Loss 
 FLOX.gpm              1200.00:  Flow In Max 
 DFT .        Mineral Oil Base:  Mud Type 
 FTRO.       Formation Presure:  FTWD Run Obj 
 HFLO.                      No:  High Flow 
 HPRE.                      No:  High Pressure 
 HTEM.                      No:  High Temp 
 HYDO.m                   1.80:  Hydro Offset 
 IFIN.deg                 9.87:  Inc, Final 
 IMAX.deg                19.96:  Inc Max 
 IMIN.deg                 3.82:  Inc Min 
 IMND.m                3257.42:  Inc Min Depth 
 IMXD.m                2945.53:  Inc Max Depth 
 JARR.                      No:  Jarring 
 LETM.      11.42.20 11-Aug-21:  Log End Time 
 LOST.hr                     0:  Lost Rig Time 
 LSTM.      23.03.20 08-Aug-21:  Log Start Time 
 MDCL.ppm             42500.00:  Mud Chlorides 
 MDES.     Inversion Oil/Synthetic:  Mud Desc 
 DFD .sg                  1.45:  Mud Density 
 MDMN.sg                  1.39:  Dens Mud Min 
 MDMX.sg                  1.57:  Dens Mud Max 
 MOIL.                   53.20:  Run Mud Oil % 
 MOWR.                   70:30:  Run Mud OWR 
 MSND.                       0:  Run Mud Sand % 
 MSOL.                   24.30:  Run Mud Solids% 
 DFV .spqt               79.00:  Mud Viscosity 
 MWOD.in                  8.00:  MWD Tool OD 
 MWSI.                      No:  Serv Intrp, MWD 
 OTIM.hr                253.06:  Time Operating 
 PCON.           Look Like New:  Pad Condition 
 PMAX.psia            11068.93:  Press Op, Max 
 PV  .cP                 36.00:  Mud PV 
 RUN .                    1000:  Run Number 
 ROPA.m/hr               15.34:  ROP Avg 
 ROPN.m/hr                4.00:  ROP Min 
 ROPX.m/hr               31.00:  ROP Max 
 RPMA.rpm               151.40:  RPM Surface Avg 
 RPMN.rpm               120.00:  RPM Surface Min 
 RPMX.rpm               160.00:  RPM Surface Max 
 RRUN.                    L505:  Rig Run Number 
 RTIM.hr                 10.00:  Time Reaming 
 SAZI.deg                88.92:  Azm, Start 
 SDEP.m                2789.00:  Start Depth 
 SIDD.                      No:  Serv Intrp, DD 
 SINC.deg                19.84:  Inc, Start 
 SPPA.psig             4421.39:  SPP Avg 
 SPPN.psig             4130.00:  SPP Min 
 SPPX.psig             4800.00:  SPP Max 
 STIM.      01.25.20 07-Aug-21:  Start Time 
 SVCS.                 DD, MWD:  Services 
 SVER.                    9.20:  Sperry Version 
 TDAT.m                 699.00:  Tot Depth Attmp 
 TDDF.                      No:  Trip for DD 
 TDLG.m                 699.00:  Tot Depth Loggd 
 TFF .                      No:  Trip for Fail 
 TQAA.f-kp               20.55:  Torque Abs Avg 
 TQAN.f-kp               15.00:  Torque Abs Min 
 TQAX.f-kp               24.00:  Torque Abs Max 
 TRRT.°/30m               0.50:  Turn Rotating 
 MRT .                    HCIM:  Maximum Recorded Temperature 
 TTMX.degC               82.35:  Max Tool Temp 
 VS01.                90654677:  Virtual Str1 SN 
 VS02.                90636294:  Virtual Str2 SN 
 VS03.                90653866:  Virtual Str3 SN 
 VS04.                90654674:  Virtual Str4 SN 
 WBMN.klb                10.00:  WOB Min 
 WITN.         Haytham Mostafa:  Customer Rep 
 WITN.           Rufat Babayev:  Customer Rep 2 
 WOBA.klb                22.43:  WOB Avg 
 WOBX.klb                35.00:  WOB Max 
 YP  .lhf2               32.00:  Yield Point 
~Curve Information Block
#MNEM.UNIT                 API CODE     Curve Description
#---------               -----------    ---------------------------
 TIME.HHMMSS            00 000 000 000:  GT Time & Date
 GTDEPTH.m              00 000 000 000:  GT Depth
 GTPQH.psia             00 000 000 000:  GT HR Quartz Pressure
 GTTQ.degC              00 000 000 000:  GT Quartz Temperature
 GTTN.NONE              00 000 000 000:  GT Test Number
 GTET.sec               00 000 000 000:  GT Elapsed Test Time
 GTTVD.m                00 000 000 000:  GT True Vertical Depth
#Other Information
#
#WARRANTY: Halliburton will use its best efforts to furnish customers with 
#accurate information and interpretations that are part of, and incident to, the services 
#provided.  However, Halliburton cannot and does not warrant the accuracy 
#or correctness of such information and interpretations.  Under no circumstances should any 
#such information or interpretation be relied upon as the sole basis for any drilling, 
#completion, production, or financial decision or any procedure involving any risk to the 
#safety of any drilling venture, drilling rig or its crew or any other third party.  The 
#Customer has full responsibility for all drilling, completion and production operation.  
#Halliburton makes no representations or warranties, either expressed or 
#implied, including, but not limited to, the implied warranties of merchantability or fitness 
#for a particular purpose, with respect to the services rendered.  In no event will 
#Halliburton be liable for failure to obtain any particular results or for 
#any damages, including, but not limited to, indirect, special or consequential damages, 
#resulting from the use of any information or interpretation provided by Halliburton.
#
~A           TIME           GTDEPTH  GTPQH  GTTQ  GTTN  GTET   GTTVD  
# ...
   12:27:28.857.15-Aug-2021 3405.50 4054.60 52.41 6.00  91.94 3258.07
   12:27:29.057.15-Aug-2021 3405.50 4054.60 52.41 6.00  92.14 3258.07
   12:27:29.257.15-Aug-2021 3405.50 4067.71 52.41 6.00  92.34 3258.07
   12:27:29.457.15-Aug-2021 3405.50 4073.81 52.41 6.00  92.54 3258.07
   12:27:29.657.15-Aug-2021 3405.50 4073.81 52.41 6.00  92.74 3258.07
   12:27:29.856.15-Aug-2021 3405.50 4087.13 52.41 6.00  92.94 3258.07
   12:27:30.056.15-Aug-2021 3405.50 4087.13 52.41 6.00  93.14 3258.07
   12:27:30.256.15-Aug-2021 3405.50 4098.38 52.41 6.00  93.34 3258.07
   12:27:30.456.15-Aug-2021 3405.50 4104.27 52.41 6.00  93.54 3258.07
   12:27:30.656.15-Aug-2021 3405.50 4110.53 52.41 6.00  93.74 3258.07
   12:27:30.856.15-Aug-2021 3405.50 4117.14 52.41 6.00  93.94 3258.07
   12:27:31.056.15-Aug-2021 3405.50 4117.14 52.41 6.00  94.14 3258.07
   12:27:31.256.15-Aug-2021 3405.50 4128.98 52.41 6.00  94.34 3258.07
   12:27:31.456.15-Aug-2021 3405.50 4135.12 52.41 6.00  94.54 3258.07
   12:27:31.655.15-Aug-2021 3405.50 4141.03 52.41 6.00  94.74 3258.07
   12:27:31.855.15-Aug-2021 3405.50 4146.30 52.41 6.00  94.94 3258.07
   12:27:32.055.15-Aug-2021 3405.50 4146.30 52.41 6.00  95.14 3258.07
   12:27:32.255.15-Aug-2021 3405.50 4158.21 52.41 6.00  95.34 3258.07
   12:27:32.455.15-Aug-2021 3405.50 4164.22 52.42 6.00  95.54 3258.07
   12:27:32.655.15-Aug-2021 3405.50 4170.32 52.42 6.00  95.74 3258.07
   12:27:32.855.15-Aug-2021 3405.50 4175.87 52.42 6.00  95.94 3258.07
   12:27:33.055.15-Aug-2021 3405.50 4175.87 52.42 6.00  96.14 3258.07
   12:27:33.254.15-Aug-2021 3405.50 4187.36 52.42 6.00  96.34 3258.07
   12:27:33.454.15-Aug-2021 3405.50 4192.54 52.42 6.00  96.54 3258.07
   12:27:33.654.15-Aug-2021 3405.50 4198.04 52.42 6.00  96.74 3258.07
   12:27:33.854.15-Aug-2021 3405.50 4203.74 52.42 6.00  96.94 3258.07
   12:27:34.054.15-Aug-2021 3405.50 4203.74 52.42 6.00  97.14 3258.07
   12:27:34.254.15-Aug-2021 3405.50 4215.18 52.42 6.00  97.34 3258.07
   12:27:34.454.15-Aug-2021 3405.50 4220.69 52.42 6.00  97.54 3258.07
   12:27:34.654.15-Aug-2021 3405.50 4226.41 52.42 6.00  97.74 3258.07
   12:27:34.853.15-Aug-2021 3405.50 4231.93 52.42 6.00  97.94 3258.07
   12:27:35.053.15-Aug-2021 3405.50 4231.93 52.42 6.00  98.14 3258.07
   12:27:35.253.15-Aug-2021 3405.50 4241.70 52.42 6.00  98.34 3258.07
   12:27:35.453.15-Aug-2021 3405.50 4247.17 52.42 6.00  98.54 3258.07
   12:27:35.653.15-Aug-2021 3405.50 4252.76 52.42 6.00  98.74 3258.07
   12:27:35.853.15-Aug-2021 3405.50 4258.22 52.42 6.00  98.94 3258.07
   12:27:36.053.15-Aug-2021 3405.50 4258.22 52.42 6.00  99.14 3258.07
   12:27:36.253.15-Aug-2021 3405.50 4269.03 52.42 6.00  99.34 3258.07
   12:27:36.453.15-Aug-2021 3405.50 4274.76 52.42 6.00  99.54 3258.07
   12:27:36.652.15-Aug-2021 3405.50 4279.68 52.42 6.00  99.74 3258.07
   12:27:36.852.15-Aug-2021 3405.50 4284.18 52.42 6.00  99.94 3258.07
   12:27:37.052.15-Aug-2021 3405.50 4284.18 52.42 6.00 100.14 3258.07
   12:27:37.252.15-Aug-2021 3405.50 4294.76 52.42 6.00 100.34 3258.07
   12:27:37.452.15-Aug-2021 3405.50 4300.36 52.42 6.00 100.54 3258.07
   12:27:37.652.15-Aug-2021 3405.50 4305.11 52.42 6.00 100.74 3258.07
   12:27:37.852.15-Aug-2021 3405.50 4310.19 52.42 6.00 100.94 3258.07
   12:27:38.052.15-Aug-2021 3405.50 4310.19 52.42 6.00 101.14 3258.07
   12:27:38.251.15-Aug-2021 3405.50 4320.96 52.42 6.00 101.34 3258.07
   12:27:38.451.15-Aug-2021 3405.50 4325.34 52.42 6.00 101.54 3258.07
   12:27:38.651.15-Aug-2021 3405.50 4329.94 52.42 6.00 101.74 3258.07
   12:27:38.851.15-Aug-2021 3405.50 4335.00 52.43 6.00 101.94 3258.07
   12:27:39.051.15-Aug-2021 3405.50 4335.00 52.43 6.00 102.14 3258.07
   12:27:39.251.15-Aug-2021 3405.50 4345.13 52.43 6.00 102.34 3258.07
   12:27:39.451.15-Aug-2021 3405.50 4350.17 52.43 6.00 102.54 3258.07
   12:27:39.651.15-Aug-2021 3405.50 4355.42 52.43 6.00 102.74 3258.07
   12:27:39.850.15-Aug-2021 3405.50 4360.18 52.43 6.00 102.94 3258.07
   12:27:40.050.15-Aug-2021 3405.50 4360.18 52.43 6.00 103.14 3258.07
   12:27:40.250.15-Aug-2021 3405.50 4369.45 52.43 6.00 103.34 3258.07
   12:27:40.450.15-Aug-2021 3405.50 4374.18 52.43 6.00 103.54 3258.07
   12:27:40.650.15-Aug-2021 3405.50 4378.97 52.43 6.00 103.74 3258.07
   12:27:40.850.15-Aug-2021 3405.50 4383.79 52.43 6.00 103.94 3258.07
   12:27:41.050.15-Aug-2021 3405.50 4383.79 52.43 6.00 104.14 3258.07
   12:27:41.250.15-Aug-2021 3405.50 4393.56 52.43 6.00 104.34 3258.07
   12:27:41.450.15-Aug-2021 3405.50 4398.43 52.43 6.00 104.54 3258.07
   12:27:41.649.15-Aug-2021 3405.50 4403.14 52.43 6.00 104.74 3258.07
   12:27:41.849.15-Aug-2021 3405.50 4407.32 52.43 6.00 104.94 3258.07
   12:27:42.049.15-Aug-2021 3405.50 4407.32 52.43 6.00 105.14 3258.07
   12:27:42.249.15-Aug-2021 3405.50 4411.68 52.43 6.00 105.34 3258.07
   12:27:42.449.15-Aug-2021 3405.50 4421.04 52.43 6.00 105.54 3258.07
   12:27:42.649.15-Aug-2021 3405.50 4425.78 52.43 6.00 105.74 3258.07
   12:27:42.849.15-Aug-2021 3405.50 4430.50 52.43 6.00 105.94 3258.07
   12:27:43.049.15-Aug-2021 3405.50 4430.50 52.43 6.00 106.14 3258.07
   12:27:43.248.15-Aug-2021 3405.50 4439.62 52.43 6.00 106.34 3258.07
   12:27:43.448.15-Aug-2021 3405.50 4444.11 52.43 6.00 106.54 3258.07
   12:27:43.648.15-Aug-2021 3405.50 4448.58 52.43 6.00 106.74 3258.07
   12:27:43.848.15-Aug-2021 3405.50 4452.63 52.43 6.00 106.94 3258.07
   12:27:44.048.15-Aug-2021 3405.50 4452.63 52.43 6.00 107.14 3258.07
   12:27:44.248.15-Aug-2021 3405.50 4461.34 52.43 6.00 107.34 3258.07
   12:27:44.448.15-Aug-2021 3405.50 4465.66 52.43 6.00 107.54 3258.07
   12:27:44.648.15-Aug-2021 3405.50 4470.23 52.43 6.00 107.74 3258.07
   12:27:44.847.15-Aug-2021 3405.50 4475.01 52.43 6.00 107.94 3258.07
   12:27:45.047.15-Aug-2021 3405.50 4475.01 52.43 6.00 108.13 3258.07
   12:27:45.247.15-Aug-2021 3405.50 4483.36 52.43 6.00 108.33 3258.07
   12:27:45.447.15-Aug-2021 3405.50 4487.89 52.43 6.00 108.53 3258.07
   12:27:45.647.15-Aug-2021 3405.50 4492.07 52.43 6.00 108.73 3258.07
   12:27:45.847.15-Aug-2021 3405.50 4496.12 52.43 6.00 108.93 3258.07
   12:27:46.047.15-Aug-2021 3405.50 4496.12 52.43 6.00 109.13 3258.07
   12:27:46.247.15-Aug-2021 3405.50 4504.46 52.43 6.00 109.33 3258.07
   12:27:46.447.15-Aug-2021 3405.50 4508.81 52.43 6.00 109.53 3258.07
   12:27:46.646.15-Aug-2021 3405.50 4513.40 52.43 6.00 109.73 3258.07
   12:27:46.846.15-Aug-2021 3405.50 4517.55 52.43 6.00 109.93 3258.07
   12:27:47.046.15-Aug-2021 3405.50 4517.55 52.43 6.00 110.13 3258.07
   12:27:47.246.15-Aug-2021 3405.50 4526.19 52.43 6.00 110.33 3258.07
   12:27:47.446.15-Aug-2021 3405.50 4530.40 52.43 6.00 110.53 3258.07
   12:27:47.646.15-Aug-2021 3405.50 4534.79 52.43 6.00 110.73 3258.07
   12:27:47.846.15-Aug-2021 3405.50 4537.96 52.43 6.00 110.93 3258.07
   12:27:48.046.15-Aug-2021 3405.50 4537.96 52.43 6.00 111.13 3258.07
   12:27:48.245.15-Aug-2021 3405.50 4546.03 52.44 6.00 111.33 3258.07
   12:27:48.445.15-Aug-2021 3405.50 4550.20 52.44 6.00 111.53 3258.07
   12:27:48.645.15-Aug-2021 3405.50 4554.41 52.44 6.00 111.73 3258.07
   12:27:48.845.15-Aug-2021 3405.50 4558.71 52.44 6.00 111.93 3258.07
   12:27:49.045.15-Aug-2021 3405.50 4558.71 52.44 6.00 112.13 3258.07
   12:27:49.245.15-Aug-2021 3405.50 4567.04 52.44 6.00 112.33 3258.07
   12:27:49.445.15-Aug-2021 3405.50 4571.34 52.44 6.00 112.53 3258.07
   12:27:49.645.15-Aug-2021 3405.50 4575.06 52.44 6.00 112.73 3258.07
   12:27:49.844.15-Aug-2021 3405.50 4578.35 52.44 6.00 112.93 3258.07
   12:27:50.044.15-Aug-2021 3405.50 4578.35 52.44 6.00 113.13 3258.07
   12:27:50.244.15-Aug-2021 3405.50 4582.17 52.44 6.00 113.33 3258.07
   12:27:50.444.15-Aug-2021 3405.50 4590.64 52.44 6.00 113.53 3258.07
   12:27:50.644.15-Aug-2021 3405.50 4594.48 52.44 6.00 113.73 3258.07
   12:27:50.844.15-Aug-2021 3405.50 4598.26 52.44 6.00 113.93 3258.07
   12:27:51.044.15-Aug-2021 3405.50 4598.26 52.44 6.00 114.13 3258.07
   12:27:51.244.15-Aug-2021 3405.50 4606.33 52.44 6.00 114.33 3258.07
   12:27:51.444.15-Aug-2021 3405.50 4610.26 52.44 6.00 114.53 3258.07
   12:27:51.643.15-Aug-2021 3405.50 4614.10 52.44 6.00 114.73 3258.07
