~Version Information
 VERS.                  2.0:   CWLS log ASCII Standard -VERSION 2.0
 WRAP.                   NO:   One line per depth step
~Well Information Block
#MNEM.UNIT     VALUE/NAME     DESCRIPTION
#---------     -----------    ---------------------------
 STRT.S             08:47:11 15-Aug-21: START TIME 08:47:11 15-Aug-21
 STOP.S             08:54:08 15-Aug-21: STOP TIME  08:54:08 15-Aug-21
 STEP.S                   0.00: STEP TIME
 NULL.                 -999.25: NULL VALUE
 DFWT.                        :  DIST FWL TEXT
 DFST.                        :  DIST FSL TEXT
 DMF .             Drill Floor:  DRILL MEAS FROM
 STIM.      17.18.56 20-Jun-21:  START TIME
 DATE.      17.18.56 20-Aug-21:  END TIME
 SPUD.               20-Jun-21:  SPUD DATE
 NREF.                    Grid:  NORTH REFERENCE
 HPTY.       Minimum Curvature:  HOLE POS TYPE
 DMOD.             Drill Model:  DRILL MOD DESC
 SVYD.                  Survey:  SURVEY DESC
 ILTD.               Lithology:  INTERP LTH DESC
 FTOP.          Formation Tops:  FORM TOPS DESC
 SON .        AZ-XX-0907056190:  JOB NUMBER
 PDAT.       Caspian Sea Level:  PERMANENT DATUM
 WTYP.                Deviated:  WELL TYPE
 MDS .        Operator Entered:  MAG DATA SOURCE
 COMP.     BP Exploration (Caspian Sea) Ltd.:  COMPANY
 UWI .            /AZE20000092:  UNIQUE WELL IDENTIFIER
 API .            /AZE20000092:  API NUMBER
 BASE.              Azerbaijan:  LOGGING EQUIPMENT BASE LOCATION
 REGN.                   EESSA:  REGION
 PROV.                    baku:  PROVINCE
 STAT.                    baku:  STATE NAME
 CTRY.              Azerbaijan:  COUNTRY NAME
 FLD .                     ACG:  FIELD NAME
 SRVC.          Turan Drilling:  CONTRACTOR
 MWDS.                    Baku:  MWD SHOP
 WELL.                     J26:  WELL NAME
 JOBN.        AZ-XX-0907056190:  JOB TICKET NUMB
 RIG .             West Chirag:  RIG NAME
 DOE .                     N/A:  DOE NUMBER
 DCON.         Sperry Drilling:  DIRECTNL CONTR
 UNIT.                     N/A:  LOGGING EQUIPMENT ID
 CNTY.                        :  COUNTY
 LOC .                        :  LOCATION
 LMF .             Drill Floor:  LOG MEASURED FROM
 TVDS.m                  43.00:  TVDSS CORRECTN
 LATI.deg                40.13:  LATITUDE
 LONG.deg                51.22:  LONGITUDE
 WHNS.m                  -7.12:  WELL HEAD N/S
 WHEW.m                  -9.46:  WELL HEAD E/W
 UTMX.m              519004.02:  UTM X
 UTMY.m             4443784.96:  UTM Y
 DFWL.m                   0.00:  DISTANCE FWL
 DFSL.m                   0.00:  DISTANCE FSL
 SDEP.m                 464.00:  START DEPTH
 TDD .m                3500.00:  TOTAL DEPTH (DRILLER)
 VSDR.deg               114.35:  VERT SEC DIRECT
 GVFD.g                   1.00:  GRAVITY FIELD
 MFLD.nT              50386.00:  MAGNETIC FIELD
 MDIP.deg                59.63:  MAGNETIC DIP
 MDEC.deg                 6.43:  MAGNETIC DECL
 GRDC.deg                 0.15:  GRID CORRECTION
 AZTC.deg                 6.29:  AZM TOTAL CORR
 EPD .m                   0.00:  ELEVATION
 EGL .m                   0.00:  GROUND ELEVATION
 WDMS.m                 169.80:  WD ELEV
 APD .m                  43.00:  DEPTH ABOVE PD
 VSEW.m                  -9.46:  VERT SEC E/W
 VSNS.m                  -7.12:  VERT SEC N/S
 AGAP.m                  43.00:  AIR GAP
 DEP .m                 356.16:  DEPTH
 EKB .m                  43.00:  KB ELEVATION
 EDF .m                  43.00:  DF ELEVATION
 TDL .m                 699.00:  TOTAL DEPTH (LOGGER)
 VSC .                       0:  VS TO CLOSURE
 MAGU.                 1853727:  MAGUTM CHECKSUM
~Parameter Information Block
#MNEM.UNIT       Value        Description
#---------     -----------    ---------------------------
 AV  .mps                 1.30:  Ann Velocity 
 AVMX.mps                 1.67:  Max Ann Veloc 
 AZIF.deg               280.40:  Azm, Final 
 BHAT.        Rotary Steerable:  BHA Type 
 BREV.rev            528970.00:  Rev Bit Total 
 BROT.°/30m               1.00:  Build Rotating 
 BS  .in                 12.25:  Bit Size 
 BSZ .in                 12.25:  Bit Size 
 BTPL.psig              738.00:  Bit Press Loss 
 CABU.                     Yes:  Customer Abuse 
 CGEO.        Elvin Suleymanov:  Customer Geo 
 COMM.                     äji:  Run Comments 1 
 TCS .hr                 66.05:  Time Ciculation Ended 
 CV  .mps                 2.20:  Crit Velocity 
 CVMX.mps                 2.56:  Max Crit Veloc 
 DD1 .          Rashad Habibov:  Direct Drillr 1 
 DD2 .            Azer ravanov:  Direct Drillr 2 
 DD3 .           Teymur Agayev:  Direct Drillr 3 
 DDSV.               Geo-Pilot:  DD Service 
 DEFF.%                  90.00:  % Det Eff 
 DLRX.°/30m               2.95:  Dogleg Rot Max 
 DLSO.°/30m               1.00:  Dogleg Oriented 
 DLSX.°/30m               2.95:  Dogleg Str Max 
 DRET.      11.42.20 11-Aug-21:  Drill End Time 
 DRST.      23.03.20 08-Aug-21:  Drill Start Tim 
 DTIM.hr                 45.50:  Time Drilling 
 EDEP.m                3488.00:  End Depth 
 ENG1.         Marcelo Marcari:  Engineer 1 
 ENG2.         Dair Mahammadov:  Engineer 2 
 ENG3.       Davud Huseyn-zada:  Engineer 3 
 ENG4.         Yevgeniy Ulikov:  Engineer 4 
 ETIM.      17.45.20 17-Aug-21:  End Time 
 FLOI.gpm              1197.70:  Flow In 
 FLON.gpm              1100.00:  Flow In Min 
 FLOS.cptm                0.00:  Fluid Loss 
 FLOX.gpm              1200.00:  Flow In Max 
 DFT .        Mineral Oil Base:  Mud Type 
 FTRO.       Formation Presure:  FTWD Run Obj 
 HFLO.                      No:  High Flow 
 HPRE.                      No:  High Pressure 
 HTEM.                      No:  High Temp 
 HYDO.m                   1.80:  Hydro Offset 
 IFIN.deg                 9.87:  Inc, Final 
 IMAX.deg                19.96:  Inc Max 
 IMIN.deg                 3.82:  Inc Min 
 IMND.m                3257.42:  Inc Min Depth 
 IMXD.m                2945.53:  Inc Max Depth 
 JARR.                      No:  Jarring 
 LETM.      11.42.20 11-Aug-21:  Log End Time 
 LOST.hr                     0:  Lost Rig Time 
 LSTM.      23.03.20 08-Aug-21:  Log Start Time 
 MDCL.ppm             42500.00:  Mud Chlorides 
 MDES.     Inversion Oil/Synthetic:  Mud Desc 
 DFD .sg                  1.45:  Mud Density 
 MDMN.sg                  1.39:  Dens Mud Min 
 MDMX.sg                  1.57:  Dens Mud Max 
 MOIL.                   53.20:  Run Mud Oil % 
 MOWR.                   70:30:  Run Mud OWR 
 MSND.                       0:  Run Mud Sand % 
 MSOL.                   24.30:  Run Mud Solids% 
 DFV .spqt               79.00:  Mud Viscosity 
 MWOD.in                  8.00:  MWD Tool OD 
 MWSI.                      No:  Serv Intrp, MWD 
 OTIM.hr                253.06:  Time Operating 
 PCON.           Look Like New:  Pad Condition 
 PMAX.psia            11068.93:  Press Op, Max 
 PV  .cP                 36.00:  Mud PV 
 RUN .                    1000:  Run Number 
 ROPA.m/hr               15.34:  ROP Avg 
 ROPN.m/hr                4.00:  ROP Min 
 ROPX.m/hr               31.00:  ROP Max 
 RPMA.rpm               151.40:  RPM Surface Avg 
 RPMN.rpm               120.00:  RPM Surface Min 
 RPMX.rpm               160.00:  RPM Surface Max 
 RRUN.                    L505:  Rig Run Number 
 RTIM.hr                 10.00:  Time Reaming 
 SAZI.deg                88.92:  Azm, Start 
 SDEP.m                2789.00:  Start Depth 
 SIDD.                      No:  Serv Intrp, DD 
 SINC.deg                19.84:  Inc, Start 
 SPPA.psig             4421.39:  SPP Avg 
 SPPN.psig             4130.00:  SPP Min 
 SPPX.psig             4800.00:  SPP Max 
 STIM.      01.25.20 07-Aug-21:  Start Time 
 SVCS.                 DD, MWD:  Services 
 SVER.                    9.20:  Sperry Version 
 TDAT.m                 699.00:  Tot Depth Attmp 
 TDDF.                      No:  Trip for DD 
 TDLG.m                 699.00:  Tot Depth Loggd 
 TFF .                      No:  Trip for Fail 
 TQAA.f-kp               20.55:  Torque Abs Avg 
 TQAN.f-kp               15.00:  Torque Abs Min 
 TQAX.f-kp               24.00:  Torque Abs Max 
 TRRT.°/30m               0.50:  Turn Rotating 
 MRT .                    HCIM:  Maximum Recorded Temperature 
 TTMX.degC               82.35:  Max Tool Temp 
 VS01.                90654677:  Virtual Str1 SN 
 VS02.                90636294:  Virtual Str2 SN 
 VS03.                90653866:  Virtual Str3 SN 
 VS04.                90654674:  Virtual Str4 SN 
 WBMN.klb                10.00:  WOB Min 
 WITN.         Haytham Mostafa:  Customer Rep 
 WITN.           Rufat Babayev:  Customer Rep 2 
 WOBA.klb                22.43:  WOB Avg 
 WOBX.klb                35.00:  WOB Max 
 YP  .lhf2               32.00:  Yield Point 
~Curve Information Block
#MNEM.UNIT                 API CODE     Curve Description
#---------               -----------    ---------------------------
 TIME.HHMMSS            00 000 000 000:  GT Time & Date
 GTDEPTH.m              00 000 000 000:  GT Depth
 GTPQH.psia             00 000 000 000:  GT HR Quartz Pressure
 GTTQ.degC              00 000 000 000:  GT Quartz Temperature
 GTTN.NONE              00 000 000 000:  GT Test Number
 GTET.sec               00 000 000 000:  GT Elapsed Test Time
 GTTVD.m                00 000 000 000:  GT True Vertical Depth
#Other Information
#
#WARRANTY: Halliburton will use its best efforts to furnish customers with 
#accurate information and interpretations that are part of, and incident to, the services 
#provided.  However, Halliburton cannot and does not warrant the accuracy 
#or correctness of such information and interpretations.  Under no circumstances should any 
#such information or interpretation be relied upon as the sole basis for any drilling, 
#completion, production, or financial decision or any procedure involving any risk to the 
#safety of any drilling venture, drilling rig or its crew or any other third party.  The 
#Customer has full responsibility for all drilling, completion and production operation.  
#Halliburton makes no representations or warranties, either expressed or 
#implied, including, but not limited to, the implied warranties of merchantability or fitness 
#for a particular purpose, with respect to the services rendered.  In no event will 
#Halliburton be liable for failure to obtain any particular results or for 
#any damages, including, but not limited to, indirect, special or consequential damages, 
#resulting from the use of any information or interpretation provided by Halliburton.
#
~A           TIME           GTDEPTH  GTPQH  GTTQ  GTTN  GTET   GTTVD  
# ...
   08:47:57.426.15-Aug-2021 3421.80 7483.87 56.40 2.00  46.01 3274.11
   08:47:57.626.15-Aug-2021 3421.80 7483.87 56.40 2.00  46.21 3274.11
   08:47:57.826.15-Aug-2021 3421.80 7486.59 56.40 2.00  46.41 3274.11
   08:47:58.026.15-Aug-2021 3421.80 7487.41 56.40 2.00  46.61 3274.11
   08:47:58.226.15-Aug-2021 3421.80 7485.39 56.40 2.00  46.81 3274.11
   08:47:58.426.15-Aug-2021 3421.80 7484.13 56.40 2.00  47.01 3274.11
   08:47:58.626.15-Aug-2021 3421.80 7484.13 56.40 2.00  47.21 3274.11
   08:47:58.826.15-Aug-2021 3421.80 7486.64 56.40 2.00  47.41 3274.11
   08:47:59.026.15-Aug-2021 3421.80 7486.32 56.40 2.00  47.61 3274.11
   08:47:59.226.15-Aug-2021 3421.80 7485.24 56.40 2.00  47.81 3274.11
   08:47:59.426.15-Aug-2021 3421.80 7483.25 56.40 2.00  48.01 3274.11
   08:47:59.626.15-Aug-2021 3421.80 7483.25 56.40 2.00  48.21 3274.11
   08:47:59.826.15-Aug-2021 3421.80 7484.26 56.40 2.00  48.41 3274.11
   08:48:00.026.15-Aug-2021 3421.80 7485.26 56.40 2.00  48.61 3274.11
   08:48:00.227.15-Aug-2021 3421.80 7485.35 56.40 2.00  48.81 3274.11
   08:48:00.427.15-Aug-2021 3421.80 7485.99 56.40 2.00  49.01 3274.11
   08:48:00.627.15-Aug-2021 3421.80 7485.99 56.40 2.00  49.21 3274.11
   08:48:00.827.15-Aug-2021 3421.80 7486.57 56.40 2.00  49.41 3274.11
   08:48:01.027.15-Aug-2021 3421.80 7485.91 56.40 2.00  49.61 3274.11
   08:48:01.227.15-Aug-2021 3421.80 7483.79 56.40 2.00  49.81 3274.11
   08:48:01.427.15-Aug-2021 3421.80 7483.75 56.40 2.00  50.01 3274.11
   08:48:01.627.15-Aug-2021 3421.80 7483.75 56.40 2.00  50.21 3274.11
   08:48:01.827.15-Aug-2021 3421.80 7485.62 56.40 2.00  50.41 3274.11
   08:48:02.027.15-Aug-2021 3421.80 7484.86 56.40 2.00  50.61 3274.11
   08:48:02.227.15-Aug-2021 3421.80 7484.46 56.40 2.00  50.81 3274.11
   08:48:02.427.15-Aug-2021 3421.80 7484.11 56.40 2.00  51.01 3274.11
   08:48:02.627.15-Aug-2021 3421.80 7484.11 56.40 2.00  51.21 3274.11
   08:48:02.827.15-Aug-2021 3421.80 7485.78 56.40 2.00  51.41 3274.11
   08:48:03.027.15-Aug-2021 3421.80 7485.09 56.40 2.00  51.61 3274.11
   08:48:03.227.15-Aug-2021 3421.80 7485.86 56.40 2.00  51.81 3274.11
   08:48:03.427.15-Aug-2021 3421.80 7486.63 56.40 2.00  52.01 3274.11
   08:48:03.627.15-Aug-2021 3421.80 7486.63 56.40 2.00  52.21 3274.11
   08:48:03.827.15-Aug-2021 3421.80 7483.53 56.40 2.00  52.41 3274.11
   08:48:04.027.15-Aug-2021 3421.80 7485.51 56.40 2.00  52.61 3274.11
   08:48:04.227.15-Aug-2021 3421.80 7486.35 56.40 2.00  52.81 3274.11
   08:48:04.427.15-Aug-2021 3421.80 7484.94 56.40 2.00  53.01 3274.11
   08:48:04.627.15-Aug-2021 3421.80 7484.94 56.40 2.00  53.21 3274.11
   08:48:04.827.15-Aug-2021 3421.80 7484.52 56.40 2.00  53.41 3274.11
   08:48:05.027.15-Aug-2021 3421.80 7486.15 56.39 2.00  53.61 3274.11
   08:48:05.227.15-Aug-2021 3421.80 7486.20 56.39 2.00  53.81 3274.11
   08:48:05.427.15-Aug-2021 3421.80 7485.26 56.39 2.00  54.01 3274.11
   08:48:05.627.15-Aug-2021 3421.80 7485.26 56.39 2.00  54.21 3274.11
   08:48:05.827.15-Aug-2021 3421.80 7483.59 56.39 2.00  54.41 3274.11
   08:48:06.027.15-Aug-2021 3421.80 7485.34 56.39 2.00  54.61 3274.11
   08:48:06.228.15-Aug-2021 3421.80 7486.21 56.39 2.00  54.81 3274.11
   08:48:06.428.15-Aug-2021 3421.80 7485.07 56.39 2.00  55.01 3274.11
   08:48:06.628.15-Aug-2021 3421.80 7485.07 56.39 2.00  55.21 3274.11
   08:48:06.828.15-Aug-2021 3421.80 7484.11 56.39 2.00  55.41 3274.11
   08:48:07.028.15-Aug-2021 3421.80 7486.92 56.39 2.00  55.61 3274.11
   08:48:07.228.15-Aug-2021 3421.80 7486.32 56.39 2.00  55.81 3274.11
   08:48:07.428.15-Aug-2021 3421.80 7484.92 56.39 2.00  56.01 3274.11
   08:48:07.628.15-Aug-2021 3421.80 7484.92 56.39 2.00  56.21 3274.11
   08:48:07.828.15-Aug-2021 3421.80 7486.26 56.39 2.00  56.41 3274.11
   08:48:08.028.15-Aug-2021 3421.80 7484.17 56.39 2.00  56.61 3274.11
   08:48:08.228.15-Aug-2021 3421.80 7485.87 56.39 2.00  56.81 3274.11
   08:48:08.428.15-Aug-2021 3421.80 7486.21 56.39 2.00  57.01 3274.11
   08:48:08.628.15-Aug-2021 3421.80 7486.21 56.39 2.00  57.21 3274.11
   08:48:08.828.15-Aug-2021 3421.80 7485.99 56.39 2.00  57.41 3274.11
   08:48:09.028.15-Aug-2021 3421.80 7487.23 56.39 2.00  57.61 3274.11
   08:48:09.228.15-Aug-2021 3421.80 7487.08 56.39 2.00  57.81 3274.11
   08:48:09.428.15-Aug-2021 3421.80 7484.70 56.39 2.00  58.01 3274.11
   08:48:09.628.15-Aug-2021 3421.80 7484.70 56.39 2.00  58.21 3274.11
   08:48:09.828.15-Aug-2021 3421.80 7485.38 56.39 2.00  58.41 3274.11
   08:48:10.028.15-Aug-2021 3421.80 7488.04 56.39 2.00  58.61 3274.11
   08:48:10.228.15-Aug-2021 3421.80 7520.25 56.39 2.00  58.81 3274.11
   08:48:10.428.15-Aug-2021 3421.80 7613.41 56.39 2.00  59.01 3274.11
   08:48:10.628.15-Aug-2021 3421.80 7613.41 56.39 2.00  59.21 3274.11
   08:48:10.828.15-Aug-2021 3421.80 7698.30 56.39 2.00  59.41 3274.11
   08:48:11.028.15-Aug-2021 3421.80 7746.62 56.39 2.00  59.61 3274.11
   08:48:11.228.15-Aug-2021 3421.80 7801.60 56.39 2.00  59.81 3274.11
   08:48:11.428.15-Aug-2021 3421.80 7851.75 56.39 2.00  60.01 3274.11
   08:48:11.628.15-Aug-2021 3421.80 7851.75 56.39 2.00  60.21 3274.11
   08:48:11.828.15-Aug-2021 3421.80 7918.60 56.39 2.00  60.41 3274.11
   08:48:12.028.15-Aug-2021 3421.80 7925.76 56.39 2.00  60.61 3274.11
   08:48:12.228.15-Aug-2021 3421.80 7950.04 56.39 2.00  60.81 3274.11
   08:48:12.429.15-Aug-2021 3421.80 7971.06 56.39 2.00  61.01 3274.11
   08:48:12.629.15-Aug-2021 3421.80 7971.06 56.39 2.00  61.21 3274.11
   08:48:12.829.15-Aug-2021 3421.80 7995.56 56.39 2.00  61.41 3274.11
   08:48:13.029.15-Aug-2021 3421.80 8006.46 56.39 2.00  61.61 3274.11
   08:48:13.229.15-Aug-2021 3421.80 8021.18 56.39 2.00  61.81 3274.11
   08:48:13.429.15-Aug-2021 3421.80 8033.07 56.39 2.00  62.01 3274.11
   08:48:13.629.15-Aug-2021 3421.80 8033.07 56.39 2.00  62.21 3274.11
   08:48:13.829.15-Aug-2021 3421.80 8033.07 56.39 2.00  62.41 3274.11
   08:48:14.029.15-Aug-2021 3421.80 8065.07 56.39 2.00  62.61 3274.11
   08:48:14.229.15-Aug-2021 3421.80 8078.77 56.39 2.00  62.81 3274.11
   08:48:14.429.15-Aug-2021 3421.80 8092.59 56.39 2.00  63.01 3274.11
   08:48:14.629.15-Aug-2021 3421.80 8092.59 56.39 2.00  63.21 3274.11
   08:48:14.829.15-Aug-2021 3421.80 8115.36 56.39 2.00  63.41 3274.11
   08:48:15.029.15-Aug-2021 3421.80 8125.46 56.39 2.00  63.61 3274.11
   08:48:15.229.15-Aug-2021 3421.80 8131.44 56.39 2.00  63.81 3274.11
   08:48:15.429.15-Aug-2021 3421.80 8141.81 56.39 2.00  64.01 3274.11
   08:48:15.629.15-Aug-2021 3421.80 8141.81 56.39 2.00  64.21 3274.11
   08:48:15.829.15-Aug-2021 3421.80 8164.53 56.39 2.00  64.41 3274.11
   08:48:16.029.15-Aug-2021 3421.80 8172.37 56.39 2.00  64.61 3274.11
   08:48:16.229.15-Aug-2021 3421.80 8183.43 56.39 2.00  64.81 3274.11
   08:48:16.429.15-Aug-2021 3421.80 8193.84 56.39 2.00  65.01 3274.11
   08:48:16.629.15-Aug-2021 3421.80 8193.84 56.39 2.00  65.21 3274.11
   08:48:16.829.15-Aug-2021 3421.80 8206.90 56.39 2.00  65.41 3274.11
   08:48:17.029.15-Aug-2021 3421.80 8213.49 56.39 2.00  65.61 3274.11
   08:48:17.229.15-Aug-2021 3421.80 8223.14 56.39 2.00  65.81 3274.11
   08:48:17.429.15-Aug-2021 3421.80 8234.69 56.39 2.00  66.01 3274.11
   08:48:17.629.15-Aug-2021 3421.80 8234.69 56.39 2.00  66.21 3274.11
   08:48:17.829.15-Aug-2021 3421.80 7480.28 56.39 2.00  66.41 3274.11
   08:48:18.029.15-Aug-2021 3421.80 7380.61 56.39 2.00  66.61 3274.11
   08:48:18.229.15-Aug-2021 3421.80 7283.77 56.39 2.00  66.81 3274.11
   08:48:18.429.15-Aug-2021 3421.80 7051.46 56.39 2.00  67.01 3274.11
   08:48:18.630.15-Aug-2021 3421.80 7051.46 56.39 2.00  67.21 3274.11
   08:48:18.830.15-Aug-2021 3421.80 6083.20 56.39 2.00  67.41 3274.11
   08:48:19.030.15-Aug-2021 3421.80 5503.16 56.39 2.00  67.61 3274.11
   08:48:19.230.15-Aug-2021 3421.80 4964.84 56.39 2.00  67.81 3274.11
   08:48:19.430.15-Aug-2021 3421.80 4511.96 56.39 2.00  68.01 3274.11
   08:48:19.630.15-Aug-2021 3421.80 4511.96 56.39 2.00  68.21 3274.11
   08:48:19.830.15-Aug-2021 3421.80 3943.18 56.39 2.00  68.41 3274.11
   08:48:20.030.15-Aug-2021 3421.80 3796.26 56.38 2.00  68.61 3274.11
   08:48:20.230.15-Aug-2021 3421.80 3647.95 56.38 2.00  68.81 3274.11
