~Version Information
 VERS.                  2.0:   CWLS log ASCII Standard -VERSION 2.0
 WRAP.                   NO:   One line per depth step
~Well Information Block
#MNEM.UNIT     VALUE/NAME     DESCRIPTION
#---------     -----------    ---------------------------
 STRT.S             03:10:10 03-Feb-20: START TIME 03:10:10 03-Feb-20
 STOP.S             03:17:58 03-Feb-20: STOP TIME  03:17:58 03-Feb-20
 STEP.S                   0.00: STEP TIME
 NULL.                 -999.25: NULL VALUE
 DFWT.                        :  DIST FWL TEXT
 DFST.                        :  DIST FSL TEXT
 DMF .             Drill Floor:  DRILL MEAS FROM
 STIM.      09.30.00 26-Dec-19:  START TIME
 DATE.      08.00.00 20-Jan-20:  END TIME
 SPUD.               23-Nov-19:  SPUD DATE
 NREF.                    Grid:  NORTH REFERENCE
 HPTY.       Minimum Curvature:  HOLE POS TYPE
 DMOD.             Drill Model:  DRILL MOD DESC
 SVYD.                  Survey:  SURVEY DESC
 ILTD.               Lithology:  INTERP LTH DESC
 FTOP.          Formation Tops:  FORM TOPS DESC
 SON .        AZ-XX-0906192647:  JOB NUMBER
 WTYP.                Deviated:  WELL TYPE
 COMP.     BP Exploration (Caspian Sea) Ltd:  COMPANY
 BASE.              Azerbaijan:  LOGGING EQUIPMENT BASE LOCATION
 REGN.                 Eurasia:  REGION
 FLD .                     ACG:  FIELD NAME
 SRVC.              KCA Deutag:  CONTRACTOR
 MWDS.                    Baku:  MWD SHOP
 WELL.     A10 (Slot 20) - SCP:  WELL NAME
 JOBN.        AZ-XX-0906192647:  JOB TICKET NUMB
 RIG .                 Chirag1:  RIG NAME
 DCON.     Halliburton Sperry Drilling:  DIRECTNL CONTR
 UNIT.                     N/A:  LOGGING EQUIPMENT ID
 PDAT.          Mean Sea Level:  PERMANENT DATUM
 MDS .        Operator Entered:  MAG DATA SOURCE
 CTRY.              Azerbaijan:  COUNTRY NAME
 UWI .            /AZE00000090:  UNIQUE WELL IDENTIFIER
 API .            /AZE00000090:  API NUMBER
 CNTY.                        :  COUNTY
 PROV.                        :  PROVINCE
 STAT.                        :  STATE
 LOC .                        :  LOCATION
 LMF .             Drill Floor:  LOG MEASURED FROM
 TVDS.m                  36.60:  TVDSS CORRECTN
 LATI.deg                40.08:  LATITUDE
 LONG.deg                51.24:  LONGITUDE
 WHNS.m                  -7.94:  WELL HEAD N/S
 WHEW.m                   1.56:  WELL HEAD E/W
 UTMX.m              520429.26:  UTM X
 UTMY.m             4438973.87:  UTM Y
 DFWL.m                   0.00:  DISTANCE FWL
 DFSL.m                   0.00:  DISTANCE FSL
 SDEP.m                1455.00:  START DEPTH
 TDD .m                4047.51:  TOTAL DEPTH (DRILLER)
 VSDR.deg               112.75:  VERT SEC DIRECT
 GVFD.g                   1.00:  GRAVITY FIELD
 MFLD.nT              50261.00:  MAGNETIC FIELD
 MDIP.deg                59.52:  MAGNETIC DIP
 MDEC.deg                 6.42:  MAGNETIC DECL
 GRDC.deg                 0.17:  GRID CORRECTION
 AZTC.deg                 6.25:  AZM TOTAL CORR
 EPD .m                   0.00:  ELEVATION
 EGL .m                   0.00:  GROUND ELEVATION
 WDMS.m                 121.00:  WD ELEV
 APD .m                  36.60:  DEPTH ABOVE PD
 AGAP.m                  36.60:  AIR GAP
 VSEW.m                   1.56:  VERT SEC E/W
 VSNS.m                  -7.94:  VERT SEC N/S
 DEP .m                1140.01:  DEPTH
 EKB .m                  36.60:  KB ELEVATION
 EDF .m                  36.60:  DF ELEVATION
 VSC .                       0:  VS TO CLOSURE
 MAGU.                 1849206:  MAGUTM CHECKSUM
~Parameter Information Block
#MNEM.UNIT       Value        Description
#---------     -----------    ---------------------------
 AV  .mps                 1.70:  Ann Velocity 
 AVMX.mps                 2.30:  Max Ann Veloc 
 AZIF.deg               137.03:  Azm, Final 
 BHAT.                   Other:  BHA Type 
 BROT.°/30m               0.80:  Build Rotating 
 BS  .in                  8.00:  Bit Size 
 BTPL.psig              161.00:  Bit Press Loss 
 CABU.                      No:  Customer Abuse 
 TCS .hr                  9.59:  Time Ciculation Ended 
 CV  .mps                 3.76:  Crit Velocity 
 CVMX.mps                 4.26:  Max Crit Veloc 
 DD1 .         Intigam Rahimov:  Direct Drillr 1 
 DD2 .          Rashad Gojayev:  Direct Drillr 2 
 DDSV.                   Other:  DD Service 
 DEFF.%                 100.00:  % Det Eff 
 DLRX.°/30m               1.44:  Dogleg Rot Max 
 DLSO.°/30m               0.00:  Dogleg Oriented 
 DLSX.°/30m               0.00:  Dogleg Str Max 
 DRET.      03.31.12 02-Feb-20:  Drill End Time 
 DRST.      03.31.12 02-Feb-20:  Drill Start Tim 
 DTIM.hr                  1.99:  Time Drilling 
 EDEP.m                4047.51:  End Depth 
 ENG1.           Eldar Hajiyev:  Engineer 1 
 ENG2.          Rasim Hashimov:  Engineer 2 
 ENG3.          Rustam Safarov:  Engineer 3 
 ETIM.      03.31.12 02-Feb-20:  End Time 
 FLOI.gpm               300.00:  Flow In 
 FLON.gpm               250.00:  Flow In Min 
 FLOS.cptm                0.00:  Fluid Loss 
 FLOX.gpm               330.00:  Flow In Max 
 HFLO.                      No:  High Flow 
 HPRE.                      No:  High Pressure 
 HTEM.                      No:  High Temp 
 HYDO.m                   2.50:  Hydro Offset 
 IFIN.deg                39.54:  Inc, Final 
 IMAX.deg                41.14:  Inc Max 
 IMIN.deg                39.81:  Inc Min 
 IMND.m                4005.21:  Inc Min Depth 
 IMXD.m                3948.42:  Inc Max Depth 
 JARR.                      No:  Jarring 
 LETM.      03.31.12 02-Feb-20:  Log End Time 
 LOST.hr                     0:  Lost Rig Time 
 LSTM.      03.31.12 02-Feb-20:  Log Start Time 
 MDCL.ppm             35000.00:  Mud Chlorides 
 MDES.     Inversion Oil/Synthetic:  Mud Desc 
 DFD .sg                  1.32:  Mud Density 
 MDMN.sg                  1.32:  Dens Mud Min 
 MDMX.sg                  1.32:  Dens Mud Max 
 MOIL.                      59:  Run Mud Oil % 
 MOWR.                   71:29:  Run Mud OWR 
 MSND.                       0:  Run Mud Sand % 
 MSOL.                      17:  Run Mud Solids% 
 DFV .spqt               86.00:  Mud Viscosity 
 MWOD.in                  4.75:  MWD Tool OD 
 MWSI.                      No:  Serv Intrp, MWD 
 OTIM.hr                 46.72:  Time Operating 
 PCON.           Look Like New:  Pad Condition 
 PMAX.psia             3300.00:  Press Op, Max 
 PV  .cP                 30.00:  Mud PV 
 RUN .                     400:  Run Number 
 ROPA.m/hr               35.00:  ROP Avg 
 ROPN.m/hr               25.00:  ROP Min 
 ROPX.m/hr               40.00:  ROP Max 
 RPMA.rpm                80.00:  RPM Surface Avg 
 RPMN.rpm                60.00:  RPM Surface Min 
 RPMX.rpm               100.00:  RPM Surface Max 
 RRUN.                     400:  Rig Run Number 
 RTIM.hr                  1.99:  Time Reaming 
 SAZI.deg               133.93:  Azm, Start 
 SDEP.m                4047.51:  Start Depth 
 SIDD.                      No:  Serv Intrp, DD 
 SINC.deg                40.28:  Inc, Start 
 SPPA.psig             3250.00:  SPP Avg 
 SPPN.psig             3200.00:  SPP Min 
 SPPX.psig             3300.00:  SPP Max 
 STIM.      03.31.12 02-Feb-20:  Start Time 
 SVCS.                 DD, MWD:  Services 
 SVER.                    9.20:  Sperry Version 
 TDAT.m                  47.00:  Tot Depth Attmp 
 TDDF.                      No:  Trip for DD 
 TFF .                      No:  Trip for Fail 
 TQAA.f-kp                0.00:  Torque Abs Avg 
 TQAN.f-kp                0.00:  Torque Abs Min 
 TQAX.f-kp                0.00:  Torque Abs Max 
 TRRT.°/30m               0.70:  Turn Rotating 
 MRT .                    HCIM:  Maximum Recorded Temperature 
 TTMX.degC               70.59:  Max Tool Temp 
 VS01.             90598770F11:  Virtual Str1 SN 
 VS02.             90598769F11:  Virtual Str2 SN 
 VS03.            90515978Z1W1:  Virtual Str3 SN 
 VS04.          90584144R12X14:  Virtual Str4 SN 
 WBMN.klb                 0.00:  WOB Min 
 WITN.            Peter Wilson:  Customer Rep 
 WOBA.klb                 0.00:  WOB Avg 
 WOBX.klb                 0.00:  WOB Max 
 YP  .lhf2               29.00:  Yield Point 
~Curve Information Block
#MNEM.UNIT                 API CODE     Curve Description
#---------               -----------    ---------------------------
 TIME.HHMMSS            00 000 000 000:  GT Time & Date
 GTDEPTH.m              00 000 000 000:  GT Depth
 GTPQH.psia             00 000 000 000:  GT HR Quartz Pressure
 GTTQ.degC              00 000 000 000:  GT Quartz Temperature
 GTTN.NONE              00 000 000 000:  GT Test Number
 GTET.sec               00 000 000 000:  GT Elapsed Test Time
 GTTVD.m                00 000 000 000:  GT True Vertical Depth
#Other Information
#
#WARRANTY: Halliburton will use its best efforts to furnish customers with 
#accurate information and interpretations that are part of, and incident to, the services 
#provided.  However, Halliburton cannot and does not warrant the accuracy 
#or correctness of such information and interpretations.  Under no circumstances should any 
#such information or interpretation be relied upon as the sole basis for any drilling, 
#completion, production, or financial decision or any procedure involving any risk to the 
#safety of any drilling venture, drilling rig or its crew or any other third party.  The 
#Customer has full responsibility for all drilling, completion and production operation.  
#Halliburton makes no representations or warranties, either expressed or 
#implied, including, but not limited to, the implied warranties of merchantability or fitness 
#for a particular purpose, with respect to the services rendered.  In no event will 
#Halliburton be liable for failure to obtain any particular results or for 
#any damages, including, but not limited to, indirect, special or consequential damages, 
#resulting from the use of any information or interpretation provided by Halliburton.
#
~A           TIME           GTDEPTH  GTPQH  GTTQ  GTTN  GTET   GTTVD  
# ...
   03:12:05.048.03-Feb-2020 4017.01 3135.53 63.10 2.00 115.02 3025.96
   03:12:05.248.03-Feb-2020 4017.01 3135.53 63.10 2.00 115.22 3025.96
   03:12:05.448.03-Feb-2020 4017.01 3135.19 63.10 2.00 115.42 3025.96
   03:12:05.648.03-Feb-2020 4017.01 3135.35 63.10 2.00 115.62 3025.96
   03:12:05.848.03-Feb-2020 4017.01 3135.47 63.10 2.00 115.82 3025.96
   03:12:06.048.03-Feb-2020 4017.01 3135.44 63.10 2.00 116.02 3025.96
   03:12:06.248.03-Feb-2020 4017.01 3135.44 63.10 2.00 116.22 3025.96
   03:12:06.448.03-Feb-2020 4017.01 3135.39 63.10 2.00 116.42 3025.96
   03:12:06.648.03-Feb-2020 4017.01 3135.44 63.10 2.00 116.62 3025.96
   03:12:06.848.03-Feb-2020 4017.01 3135.41 63.10 2.00 116.82 3025.96
   03:12:07.048.03-Feb-2020 4017.01 3135.44 63.10 2.00 117.02 3025.96
   03:12:07.248.03-Feb-2020 4017.01 3135.44 63.10 2.00 117.22 3025.96
   03:12:07.448.03-Feb-2020 4017.01 3135.43 63.10 2.00 117.42 3025.96
   03:12:07.648.03-Feb-2020 4017.01 3135.44 63.10 2.00 117.62 3025.96
   03:12:07.848.03-Feb-2020 4017.01 3134.99 63.10 2.00 117.82 3025.96
   03:12:08.048.03-Feb-2020 4017.01 3135.71 63.10 2.00 118.02 3025.96
   03:12:08.248.03-Feb-2020 4017.01 3135.71 63.10 2.00 118.22 3025.96
   03:12:08.448.03-Feb-2020 4017.01 3135.67 63.10 2.00 118.42 3025.96
   03:12:08.648.03-Feb-2020 4017.01 3135.37 63.10 2.00 118.62 3025.96
   03:12:08.848.03-Feb-2020 4017.01 3135.48 63.09 2.00 118.82 3025.96
   03:12:09.048.03-Feb-2020 4017.01 3135.01 63.09 2.00 119.02 3025.96
   03:12:09.248.03-Feb-2020 4017.01 3135.01 63.09 2.00 119.22 3025.96
   03:12:09.449.03-Feb-2020 4017.01 3135.38 63.09 2.00 119.43 3025.96
   03:12:09.649.03-Feb-2020 4017.01 3135.52 63.09 2.00 119.63 3025.96
   03:12:09.849.03-Feb-2020 4017.01 3135.44 63.09 2.00 119.83 3025.96
   03:12:10.049.03-Feb-2020 4017.01 3135.48 63.09 2.00 120.03 3025.96
   03:12:10.249.03-Feb-2020 4017.01 3135.48 63.09 2.00 120.23 3025.96
   03:12:10.449.03-Feb-2020 4017.01 3135.32 63.09 2.00 120.43 3025.96
   03:12:10.649.03-Feb-2020 4017.01 3135.50 63.09 2.00 120.63 3025.96
   03:12:10.849.03-Feb-2020 4017.01 3135.55 63.09 2.00 120.83 3025.96
   03:12:11.049.03-Feb-2020 4017.01 3135.03 63.09 2.00 121.03 3025.96
   03:12:11.249.03-Feb-2020 4017.01 3135.03 63.09 2.00 121.23 3025.96
   03:12:11.449.03-Feb-2020 4017.01 3135.39 63.09 2.00 121.43 3025.96
   03:12:11.649.03-Feb-2020 4017.01 3135.42 63.09 2.00 121.63 3025.96
   03:12:11.849.03-Feb-2020 4017.01 3135.44 63.09 2.00 121.83 3025.96
   03:12:12.049.03-Feb-2020 4017.01 3135.51 63.09 2.00 122.03 3025.96
   03:12:12.249.03-Feb-2020 4017.01 3135.51 63.09 2.00 122.23 3025.96
   03:12:12.449.03-Feb-2020 4017.01 3135.46 63.09 2.00 122.43 3025.96
   03:12:12.649.03-Feb-2020 4017.01 3135.44 63.09 2.00 122.63 3025.96
   03:12:12.849.03-Feb-2020 4017.01 3135.37 63.09 2.00 122.83 3025.96
   03:12:13.049.03-Feb-2020 4017.01 3135.46 63.09 2.00 123.03 3025.96
   03:12:13.249.03-Feb-2020 4017.01 3135.46 63.09 2.00 123.23 3025.96
   03:12:13.449.03-Feb-2020 4017.01 3135.41 63.09 2.00 123.43 3025.96
   03:12:13.649.03-Feb-2020 4017.01 3135.45 63.09 2.00 123.63 3025.96
   03:12:13.849.03-Feb-2020 4017.01 3135.44 63.09 2.00 123.83 3025.96
   03:12:14.049.03-Feb-2020 4017.01 3135.50 63.09 2.00 124.03 3025.96
   03:12:14.250.03-Feb-2020 4017.01 3135.50 63.09 2.00 124.23 3025.96
   03:12:14.450.03-Feb-2020 4017.01 3135.51 63.09 2.00 124.43 3025.96
   03:12:14.650.03-Feb-2020 4017.01 3135.18 63.09 2.00 124.63 3025.96
   03:12:14.850.03-Feb-2020 4017.01 3135.60 63.09 2.00 124.83 3025.96
   03:12:15.050.03-Feb-2020 4017.01 3135.35 63.09 2.00 125.03 3025.96
   03:12:15.250.03-Feb-2020 4017.01 3135.35 63.09 2.00 125.23 3025.96
   03:12:15.450.03-Feb-2020 4017.01 3135.41 63.09 2.00 125.43 3025.96
   03:12:15.650.03-Feb-2020 4017.01 3135.42 63.09 2.00 125.63 3025.96
   03:12:15.850.03-Feb-2020 4017.01 3135.44 63.09 2.00 125.83 3025.96
   03:12:16.050.03-Feb-2020 4017.01 3135.51 63.09 2.00 126.03 3025.96
   03:12:16.250.03-Feb-2020 4017.01 3135.51 63.09 2.00 126.23 3025.96
   03:12:16.450.03-Feb-2020 4017.01 3135.48 63.09 2.00 126.43 3025.96
   03:12:16.650.03-Feb-2020 4017.01 3135.50 63.09 2.00 126.63 3025.96
   03:12:16.850.03-Feb-2020 4017.01 3134.97 63.09 2.00 126.83 3025.96
   03:12:17.050.03-Feb-2020 4017.01 3135.59 63.09 2.00 127.03 3025.96
   03:12:17.250.03-Feb-2020 4017.01 3135.59 63.09 2.00 127.23 3025.96
   03:12:17.450.03-Feb-2020 4017.01 3135.55 63.09 2.00 127.43 3025.96
   03:12:17.650.03-Feb-2020 4017.01 3135.47 63.09 2.00 127.63 3025.96
   03:12:17.850.03-Feb-2020 4017.01 3135.47 63.09 2.00 127.83 3025.96
   03:12:18.050.03-Feb-2020 4017.01 3135.20 63.09 2.00 128.03 3025.96
   03:12:18.250.03-Feb-2020 4017.01 3135.20 63.09 2.00 128.23 3025.96
   03:12:18.450.03-Feb-2020 4017.01 3135.53 63.09 2.00 128.43 3025.96
   03:12:18.650.03-Feb-2020 4017.01 3135.43 63.09 2.00 128.63 3025.96
   03:12:18.851.03-Feb-2020 4017.01 3135.51 63.09 2.00 128.83 3025.96
   03:12:19.051.03-Feb-2020 4017.01 3135.23 63.09 2.00 129.03 3025.96
   03:12:19.251.03-Feb-2020 4017.01 3135.23 63.09 2.00 129.23 3025.96
   03:12:19.451.03-Feb-2020 4017.01 3135.20 63.09 2.00 129.43 3025.96
   03:12:19.651.03-Feb-2020 4017.01 3135.57 63.09 2.00 129.63 3025.96
   03:12:19.851.03-Feb-2020 4017.01 3135.50 63.09 2.00 129.83 3025.96
   03:12:20.051.03-Feb-2020 4017.01 3135.28 63.09 2.00 130.03 3025.96
   03:12:20.251.03-Feb-2020 4017.01 3135.28 63.09 2.00 130.23 3025.96
   03:12:20.451.03-Feb-2020 4017.01 3135.52 63.09 2.00 130.43 3025.96
   03:12:20.651.03-Feb-2020 4017.01 3135.39 63.09 2.00 130.63 3025.96
   03:12:20.851.03-Feb-2020 4017.01 3135.48 63.09 2.00 130.83 3025.96
   03:12:21.051.03-Feb-2020 4017.01 3135.46 63.09 2.00 131.03 3025.96
   03:12:21.251.03-Feb-2020 4017.01 3135.46 63.09 2.00 131.23 3025.96
   03:12:21.451.03-Feb-2020 4017.01 3135.41 63.09 2.00 131.43 3025.96
   03:12:21.651.03-Feb-2020 4017.01 3135.44 63.09 2.00 131.63 3025.96
   03:12:21.851.03-Feb-2020 4017.01 3135.39 63.09 2.00 131.83 3025.96
   03:12:22.051.03-Feb-2020 4017.01 3135.47 63.09 2.00 132.03 3025.96
   03:12:22.251.03-Feb-2020 4017.01 3135.47 63.09 2.00 132.23 3025.96
   03:12:22.451.03-Feb-2020 4017.01 3135.44 63.09 2.00 132.43 3025.96
   03:12:22.651.03-Feb-2020 4017.01 3135.41 63.08 2.00 132.63 3025.96
   03:12:22.851.03-Feb-2020 4017.01 3135.50 63.08 2.00 132.83 3025.96
   03:12:23.051.03-Feb-2020 4017.01 3135.52 63.08 2.00 133.03 3025.96
   03:12:23.251.03-Feb-2020 4017.01 3135.52 63.08 2.00 133.23 3025.96
   03:12:23.451.03-Feb-2020 4017.01 3135.81 63.08 2.00 133.43 3025.96
   03:12:23.652.03-Feb-2020 4017.01 3135.24 63.08 2.00 133.63 3025.96
   03:12:23.852.03-Feb-2020 4017.01 3135.58 63.08 2.00 133.83 3025.96
   03:12:24.052.03-Feb-2020 4017.01 3135.42 63.08 2.00 134.03 3025.96
   03:12:24.252.03-Feb-2020 4017.01 3135.42 63.08 2.00 134.23 3025.96
   03:12:24.452.03-Feb-2020 4017.01 3135.42 63.08 2.00 134.43 3025.96
   03:12:24.652.03-Feb-2020 4017.01 3135.47 63.08 2.00 134.63 3025.96
   03:12:24.852.03-Feb-2020 4017.01 3135.44 63.08 2.00 134.83 3025.96
   03:12:25.052.03-Feb-2020 4017.01 3135.49 63.08 2.00 135.03 3025.96
   03:12:25.252.03-Feb-2020 4017.01 3135.49 63.08 2.00 135.23 3025.96
   03:12:25.452.03-Feb-2020 4017.01 3135.46 63.08 2.00 135.43 3025.96
   03:12:25.652.03-Feb-2020 4017.01 3135.49 63.08 2.00 135.63 3025.96
   03:12:25.852.03-Feb-2020 4017.01 3135.21 63.08 2.00 135.83 3025.96
   03:12:26.052.03-Feb-2020 4017.01 3135.31 63.08 2.00 136.03 3025.96
   03:12:26.252.03-Feb-2020 4017.01 3135.31 63.08 2.00 136.23 3025.96
   03:12:26.452.03-Feb-2020 4017.01 3135.49 63.08 2.00 136.43 3025.96
   03:12:26.652.03-Feb-2020 4017.01 3135.47 63.08 2.00 136.63 3025.96
   03:12:26.852.03-Feb-2020 4017.01 3135.23 63.08 2.00 136.83 3025.96
   03:12:27.052.03-Feb-2020 4017.01 3135.62 63.08 2.00 137.03 3025.96
   03:12:27.252.03-Feb-2020 4017.01 3135.62 63.08 2.00 137.23 3025.96
   03:12:27.452.03-Feb-2020 4017.01 3135.61 63.08 2.00 137.43 3025.96
   03:12:27.652.03-Feb-2020 4017.01 3135.43 63.08 2.00 137.63 3025.96
   03:12:27.852.03-Feb-2020 4017.01 3135.48 63.08 2.00 137.83 3025.96
