~Version Information
 VERS.                  2.0:   CWLS log ASCII Standard -VERSION 2.0
 WRAP.                   NO:   One line per depth step
~Well Information Block
#MNEM.UNIT     VALUE/NAME     DESCRIPTION
#---------     -----------    ---------------------------
 STRT.S             08:07:30 03-Feb-20: START TIME 08:07:30 03-Feb-20
 STOP.S             08:15:16 03-Feb-20: STOP TIME  08:15:16 03-Feb-20
 STEP.S                   0.00: STEP TIME
 NULL.                 -999.25: NULL VALUE
 DFWT.                        :  DIST FWL TEXT
 DFST.                        :  DIST FSL TEXT
 DMF .             Drill Floor:  DRILL MEAS FROM
 STIM.      09.30.00 26-Dec-19:  START TIME
 DATE.      08.00.00 20-Jan-20:  END TIME
 SPUD.               23-Nov-19:  SPUD DATE
 NREF.                    Grid:  NORTH REFERENCE
 HPTY.       Minimum Curvature:  HOLE POS TYPE
 DMOD.             Drill Model:  DRILL MOD DESC
 SVYD.                  Survey:  SURVEY DESC
 ILTD.               Lithology:  INTERP LTH DESC
 FTOP.          Formation Tops:  FORM TOPS DESC
 SON .        AZ-XX-0906192647:  JOB NUMBER
 WTYP.                Deviated:  WELL TYPE
 COMP.     BP Exploration (Caspian Sea) Ltd:  COMPANY
 BASE.              Azerbaijan:  LOGGING EQUIPMENT BASE LOCATION
 REGN.                 Eurasia:  REGION
 FLD .                     ACG:  FIELD NAME
 SRVC.              KCA Deutag:  CONTRACTOR
 MWDS.                    Baku:  MWD SHOP
 WELL.     A10 (Slot 20) - SCP:  WELL NAME
 JOBN.        AZ-XX-0906192647:  JOB TICKET NUMB
 RIG .                 Chirag1:  RIG NAME
 DCON.     Halliburton Sperry Drilling:  DIRECTNL CONTR
 UNIT.                     N/A:  LOGGING EQUIPMENT ID
 PDAT.          Mean Sea Level:  PERMANENT DATUM
 MDS .        Operator Entered:  MAG DATA SOURCE
 CTRY.              Azerbaijan:  COUNTRY NAME
 UWI .            /AZE00000090:  UNIQUE WELL IDENTIFIER
 API .            /AZE00000090:  API NUMBER
 CNTY.                        :  COUNTY
 PROV.                        :  PROVINCE
 STAT.                        :  STATE
 LOC .                        :  LOCATION
 LMF .             Drill Floor:  LOG MEASURED FROM
 TVDS.m                  36.60:  TVDSS CORRECTN
 LATI.deg                40.08:  LATITUDE
 LONG.deg                51.24:  LONGITUDE
 WHNS.m                  -7.94:  WELL HEAD N/S
 WHEW.m                   1.56:  WELL HEAD E/W
 UTMX.m              520429.26:  UTM X
 UTMY.m             4438973.87:  UTM Y
 DFWL.m                   0.00:  DISTANCE FWL
 DFSL.m                   0.00:  DISTANCE FSL
 SDEP.m                1455.00:  START DEPTH
 TDD .m                4047.51:  TOTAL DEPTH (DRILLER)
 VSDR.deg               112.75:  VERT SEC DIRECT
 GVFD.g                   1.00:  GRAVITY FIELD
 MFLD.nT              50261.00:  MAGNETIC FIELD
 MDIP.deg                59.52:  MAGNETIC DIP
 MDEC.deg                 6.42:  MAGNETIC DECL
 GRDC.deg                 0.17:  GRID CORRECTION
 AZTC.deg                 6.25:  AZM TOTAL CORR
 EPD .m                   0.00:  ELEVATION
 EGL .m                   0.00:  GROUND ELEVATION
 WDMS.m                 121.00:  WD ELEV
 APD .m                  36.60:  DEPTH ABOVE PD
 AGAP.m                  36.60:  AIR GAP
 VSEW.m                   1.56:  VERT SEC E/W
 VSNS.m                  -7.94:  VERT SEC N/S
 DEP .m                1140.01:  DEPTH
 EKB .m                  36.60:  KB ELEVATION
 EDF .m                  36.60:  DF ELEVATION
 VSC .                       0:  VS TO CLOSURE
 MAGU.                 1849206:  MAGUTM CHECKSUM
~Parameter Information Block
#MNEM.UNIT       Value        Description
#---------     -----------    ---------------------------
 AV  .mps                 1.70:  Ann Velocity 
 AVMX.mps                 2.30:  Max Ann Veloc 
 AZIF.deg               137.03:  Azm, Final 
 BHAT.                   Other:  BHA Type 
 BROT.ฐ/30m               0.80:  Build Rotating 
 BS  .in                  8.00:  Bit Size 
 BTPL.psig              161.00:  Bit Press Loss 
 CABU.                      No:  Customer Abuse 
 COMM.                     ิงZ:  Run Comments 1 
 TCS .hr                  9.59:  Time Ciculation Ended 
 CV  .mps                 3.76:  Crit Velocity 
 CVMX.mps                 4.26:  Max Crit Veloc 
 DD1 .         Intigam Rahimov:  Direct Drillr 1 
 DD2 .          Rashad Gojayev:  Direct Drillr 2 
 DDSV.                   Other:  DD Service 
 DEFF.%                 100.00:  % Det Eff 
 DLRX.ฐ/30m               1.44:  Dogleg Rot Max 
 DLSO.ฐ/30m               0.00:  Dogleg Oriented 
 DLSX.ฐ/30m               0.00:  Dogleg Str Max 
 DRET.      03.31.12 02-Feb-20:  Drill End Time 
 DRST.      03.31.12 02-Feb-20:  Drill Start Tim 
 DTIM.hr                  1.99:  Time Drilling 
 EDEP.m                4047.51:  End Depth 
 ENG1.           Eldar Hajiyev:  Engineer 1 
 ENG2.          Rasim Hashimov:  Engineer 2 
 ENG3.          Rustam Safarov:  Engineer 3 
 ETIM.      03.31.12 02-Feb-20:  End Time 
 FLOI.gpm               300.00:  Flow In 
 FLON.gpm               250.00:  Flow In Min 
 FLOS.cptm                0.00:  Fluid Loss 
 FLOX.gpm               330.00:  Flow In Max 
 HFLO.                      No:  High Flow 
 HPRE.                      No:  High Pressure 
 HTEM.                      No:  High Temp 
 HYDO.m                   2.50:  Hydro Offset 
 IFIN.deg                39.54:  Inc, Final 
 IMAX.deg                41.14:  Inc Max 
 IMIN.deg                39.81:  Inc Min 
 IMND.m                4005.21:  Inc Min Depth 
 IMXD.m                3948.42:  Inc Max Depth 
 JARR.                      No:  Jarring 
 LETM.      03.31.12 02-Feb-20:  Log End Time 
 LOST.hr                     0:  Lost Rig Time 
 LSTM.      03.31.12 02-Feb-20:  Log Start Time 
 MDCL.ppm             35000.00:  Mud Chlorides 
 MDES.     Inversion Oil/Synthetic:  Mud Desc 
 DFD .sg                  1.32:  Mud Density 
 MDMN.sg                  1.32:  Dens Mud Min 
 MDMX.sg                  1.32:  Dens Mud Max 
 MOIL.                      59:  Run Mud Oil % 
 MOWR.                   71:29:  Run Mud OWR 
 MSND.                       0:  Run Mud Sand % 
 MSOL.                      17:  Run Mud Solids% 
 DFV .spqt               86.00:  Mud Viscosity 
 MWOD.in                  4.75:  MWD Tool OD 
 MWSI.                      No:  Serv Intrp, MWD 
 OTIM.hr                 46.72:  Time Operating 
 PCON.           Look Like New:  Pad Condition 
 PMAX.psia             3300.00:  Press Op, Max 
 PV  .cP                 30.00:  Mud PV 
 RUN .                     400:  Run Number 
 ROPA.m/hr               35.00:  ROP Avg 
 ROPN.m/hr               25.00:  ROP Min 
 ROPX.m/hr               40.00:  ROP Max 
 RPMA.rpm                80.00:  RPM Surface Avg 
 RPMN.rpm                60.00:  RPM Surface Min 
 RPMX.rpm               100.00:  RPM Surface Max 
 RRUN.                     400:  Rig Run Number 
 RTIM.hr                  1.99:  Time Reaming 
 SAZI.deg               133.93:  Azm, Start 
 SDEP.m                4047.51:  Start Depth 
 SIDD.                      No:  Serv Intrp, DD 
 SINC.deg                40.28:  Inc, Start 
 SPPA.psig             3250.00:  SPP Avg 
 SPPN.psig             3200.00:  SPP Min 
 SPPX.psig             3300.00:  SPP Max 
 STIM.      03.31.12 02-Feb-20:  Start Time 
 SVCS.                 DD, MWD:  Services 
 SVER.                    9.20:  Sperry Version 
 TDAT.m                  47.00:  Tot Depth Attmp 
 TDDF.                      No:  Trip for DD 
 TFF .                      No:  Trip for Fail 
 TQAA.f-kp                0.00:  Torque Abs Avg 
 TQAN.f-kp                0.00:  Torque Abs Min 
 TQAX.f-kp                0.00:  Torque Abs Max 
 TRRT.ฐ/30m               0.70:  Turn Rotating 
 MRT .                    HCIM:  Maximum Recorded Temperature 
 TTMX.degC               70.59:  Max Tool Temp 
 VS01.             90598770F11:  Virtual Str1 SN 
 VS02.             90598769F11:  Virtual Str2 SN 
 VS03.            90515978Z1W1:  Virtual Str3 SN 
 VS04.          90584144R12X14:  Virtual Str4 SN 
 WBMN.klb                 0.00:  WOB Min 
 WITN.            Peter Wilson:  Customer Rep 
 WOBA.klb                 0.00:  WOB Avg 
 WOBX.klb                 0.00:  WOB Max 
 YP  .lhf2               29.00:  Yield Point 
~Curve Information Block
#MNEM.UNIT                 API CODE     Curve Description
#---------               -----------    ---------------------------
 TIME.HHMMSS            00 000 000 000:  GT Time & Date
 GTDEPTH.m              00 000 000 000:  GT Depth
 GTPQH.psia             00 000 000 000:  GT HR Quartz Pressure
 GTTQ.degC              00 000 000 000:  GT Quartz Temperature
 GTTN.NONE              00 000 000 000:  GT Test Number
 GTET.sec               00 000 000 000:  GT Elapsed Test Time
 GTTVD.m                00 000 000 000:  GT True Vertical Depth
#Other Information
#
#WARRANTY: Halliburton will use its best efforts to furnish customers with 
#accurate information and interpretations that are part of, and incident to, the services 
#provided.  However, Halliburton cannot and does not warrant the accuracy 
#or correctness of such information and interpretations.  Under no circumstances should any 
#such information or interpretation be relied upon as the sole basis for any drilling, 
#completion, production, or financial decision or any procedure involving any risk to the 
#safety of any drilling venture, drilling rig or its crew or any other third party.  The 
#Customer has full responsibility for all drilling, completion and production operation.  
#Halliburton makes no representations or warranties, either expressed or 
#implied, including, but not limited to, the implied warranties of merchantability or fitness 
#for a particular purpose, with respect to the services rendered.  In no event will 
#Halliburton be liable for failure to obtain any particular results or for 
#any damages, including, but not limited to, indirect, special or consequential damages, 
#resulting from the use of any information or interpretation provided by Halliburton.
#
~A           TIME           GTDEPTH  GTPQH  GTTQ  GTTN   GTET   GTTVD  
# ...
   08:12:23.848.03-Feb-2020 4023.01 3158.87 65.65 10.00 293.81 3030.56
   08:12:24.048.03-Feb-2020 4023.01 3158.84 65.65 10.00 294.01 3030.56
   08:12:24.248.03-Feb-2020 4023.01 3158.84 65.65 10.00 294.21 3030.56
   08:12:24.448.03-Feb-2020 4023.01 3158.82 65.65 10.00 294.41 3030.56
   08:12:24.648.03-Feb-2020 4023.01 3158.44 65.65 10.00 294.61 3030.56
   08:12:24.848.03-Feb-2020 4023.01 3158.97 65.65 10.00 294.81 3030.56
   08:12:25.048.03-Feb-2020 4023.01 3158.73 65.65 10.00 295.01 3030.56
   08:12:25.248.03-Feb-2020 4023.01 3158.73 65.65 10.00 295.21 3030.56
   08:12:25.448.03-Feb-2020 4023.01 3158.85 65.65 10.00 295.41 3030.56
   08:12:25.648.03-Feb-2020 4023.01 3158.82 65.65 10.00 295.61 3030.56
   08:12:25.848.03-Feb-2020 4023.01 3158.83 65.65 10.00 295.81 3030.56
   08:12:26.048.03-Feb-2020 4023.01 3158.76 65.65 10.00 296.01 3030.56
   08:12:26.248.03-Feb-2020 4023.01 3158.76 65.65 10.00 296.21 3030.56
   08:12:26.448.03-Feb-2020 4023.01 3158.87 65.65 10.00 296.41 3030.56
   08:12:26.648.03-Feb-2020 4023.01 3158.87 65.65 10.00 296.61 3030.56
   08:12:26.848.03-Feb-2020 4023.01 3158.88 65.65 10.00 296.81 3030.56
   08:12:27.048.03-Feb-2020 4023.01 3158.87 65.65 10.00 297.01 3030.56
   08:12:27.248.03-Feb-2020 4023.01 3158.87 65.65 10.00 297.21 3030.56
   08:12:27.448.03-Feb-2020 4023.01 3158.84 65.65 10.00 297.41 3030.56
   08:12:27.648.03-Feb-2020 4023.01 3158.90 65.65 10.00 297.61 3030.56
   08:12:27.848.03-Feb-2020 4023.01 3158.67 65.65 10.00 297.81 3030.56
   08:12:28.048.03-Feb-2020 4023.01 3158.84 65.65 10.00 298.01 3030.56
   08:12:28.248.03-Feb-2020 4023.01 3158.84 65.65 10.00 298.21 3030.56
   08:12:28.448.03-Feb-2020 4023.01 3158.85 65.65 10.00 298.41 3030.56
   08:12:28.648.03-Feb-2020 4023.01 3158.78 65.65 10.00 298.61 3030.56
   08:12:28.848.03-Feb-2020 4023.01 3158.90 65.65 10.00 298.81 3030.56
   08:12:29.048.03-Feb-2020 4023.01 3158.88 65.64 10.00 299.01 3030.56
   08:12:29.248.03-Feb-2020 4023.01 3158.88 65.64 10.00 299.21 3030.56
   08:12:29.448.03-Feb-2020 4023.01 3158.90 65.64 10.00 299.41 3030.56
   08:12:29.648.03-Feb-2020 4023.01 3143.02 65.64 10.00 299.61 3030.56
   08:12:29.848.03-Feb-2020 4023.01 2809.35 65.64 10.00 299.81 3030.56
   08:12:30.048.03-Feb-2020 4023.01 2384.27 65.64 10.00 300.01 3030.56
   08:12:30.248.03-Feb-2020 4023.01 2384.27 65.64 10.00 300.21 3030.56
   08:12:30.448.03-Feb-2020 4023.01 1758.23 65.64 10.00 300.41 3030.56
   08:12:30.648.03-Feb-2020 4023.01 1489.35 65.64 10.00 300.61 3030.56
   08:12:30.848.03-Feb-2020 4023.01 1238.22 65.64 10.00 300.81 3030.56
   08:12:31.048.03-Feb-2020 4023.01 1039.56 65.64 10.00 301.01 3030.56
   08:12:31.248.03-Feb-2020 4023.01 1039.56 65.64 10.00 301.21 3030.56
   08:12:31.448.03-Feb-2020 4023.01  761.01 65.64 10.00 301.41 3030.56
   08:12:31.648.03-Feb-2020 4023.01  653.99 65.64 10.00 301.61 3030.56
   08:12:31.848.03-Feb-2020 4023.01  557.88 65.64 10.00 301.81 3030.56
   08:12:32.048.03-Feb-2020 4023.01  467.76 65.64 10.00 302.01 3030.56
   08:12:32.248.03-Feb-2020 4023.01  467.76 65.64 10.00 302.21 3030.56
   08:12:32.448.03-Feb-2020 4023.01  350.25 65.64 10.00 302.41 3030.56
   08:12:32.648.03-Feb-2020 4023.01  340.46 65.64 10.00 302.61 3030.56
   08:12:32.848.03-Feb-2020 4023.01  336.56 65.64 10.00 302.81 3030.56
   08:12:33.048.03-Feb-2020 4023.01  336.90 65.64 10.00 303.01 3030.56
   08:12:33.248.03-Feb-2020 4023.01  336.90 65.64 10.00 303.21 3030.56
   08:12:33.448.03-Feb-2020 4023.01  331.73 65.64 10.00 303.41 3030.56
   08:12:33.648.03-Feb-2020 4023.01  330.38 65.64 10.00 303.61 3030.56
   08:12:33.848.03-Feb-2020 4023.01  331.69 65.63 10.00 303.81 3030.56
   08:12:34.048.03-Feb-2020 4023.01  329.03 65.63 10.00 304.01 3030.56
   08:12:34.248.03-Feb-2020 4023.01  329.03 65.63 10.00 304.21 3030.56
   08:12:34.448.03-Feb-2020 4023.01  329.91 65.63 10.00 304.41 3030.56
   08:12:34.648.03-Feb-2020 4023.01  335.50 65.63 10.00 304.61 3030.56
   08:12:34.848.03-Feb-2020 4023.01  339.49 65.63 10.00 304.81 3030.56
   08:12:35.048.03-Feb-2020 4023.01  341.69 65.63 10.00 305.01 3030.56
   08:12:35.248.03-Feb-2020 4023.01  341.69 65.63 10.00 305.21 3030.56
   08:12:35.448.03-Feb-2020 4023.01  343.58 65.63 10.00 305.41 3030.56
   08:12:35.648.03-Feb-2020 4023.01  355.15 65.63 10.00 305.61 3030.56
   08:12:35.848.03-Feb-2020 4023.01  379.63 65.62 10.00 305.81 3030.56
   08:12:36.048.03-Feb-2020 4023.01  390.35 65.62 10.00 306.01 3030.56
   08:12:36.248.03-Feb-2020 4023.01  390.35 65.62 10.00 306.21 3030.56
   08:12:36.448.03-Feb-2020 4023.01  408.19 65.62 10.00 306.41 3030.56
   08:12:36.648.03-Feb-2020 4023.01  434.17 65.62 10.00 306.61 3030.56
   08:12:36.848.03-Feb-2020 4023.01  430.53 65.62 10.00 306.81 3030.56
   08:12:37.048.03-Feb-2020 4023.01  427.75 65.62 10.00 307.01 3030.56
   08:12:37.248.03-Feb-2020 4023.01  427.75 65.62 10.00 307.21 3030.56
   08:12:37.448.03-Feb-2020 4023.01  395.83 65.62 10.00 307.41 3030.56
   08:12:37.648.03-Feb-2020 4023.01  378.14 65.62 10.00 307.61 3030.56
   08:12:37.848.03-Feb-2020 4023.01  363.92 65.61 10.00 307.81 3030.56
   08:12:38.048.03-Feb-2020 4023.01  355.41 65.61 10.00 308.01 3030.56
   08:12:38.248.03-Feb-2020 4023.01  355.41 65.61 10.00 308.21 3030.56
   08:12:38.448.03-Feb-2020 4023.01  339.33 65.61 10.00 308.41 3030.56
   08:12:38.648.03-Feb-2020 4023.01  333.74 65.61 10.00 308.61 3030.56
   08:12:38.848.03-Feb-2020 4023.01  329.80 65.61 10.00 308.81 3030.56
   08:12:39.048.03-Feb-2020 4023.01  327.79 65.61 10.00 309.01 3030.56
   08:12:39.248.03-Feb-2020 4023.01  327.79 65.61 10.00 309.21 3030.56
   08:12:39.448.03-Feb-2020 4023.01  324.75 65.61 10.00 309.41 3030.56
   08:12:39.648.03-Feb-2020 4023.01  323.64 65.61 10.00 309.61 3030.56
   08:12:39.848.03-Feb-2020 4023.01  337.09 65.61 10.00 309.81 3030.56
   08:12:40.048.03-Feb-2020 4023.01  441.82 65.61 10.00 310.01 3030.56
   08:12:40.248.03-Feb-2020 4023.01  441.82 65.61 10.00 310.21 3030.56
   08:12:40.448.03-Feb-2020 4023.01  686.04 65.60 10.00 310.41 3030.56
   08:12:40.648.03-Feb-2020 4023.01  803.12 65.60 10.00 310.61 3030.56
   08:12:40.848.03-Feb-2020 4023.01  916.22 65.60 10.00 310.81 3030.56
   08:12:41.048.03-Feb-2020 4023.01 1025.66 65.60 10.00 311.01 3030.56
   08:12:41.248.03-Feb-2020 4023.01 1025.66 65.60 10.00 311.21 3030.56
   08:12:41.448.03-Feb-2020 4023.01 1231.18 65.60 10.00 311.41 3030.56
   08:12:41.648.03-Feb-2020 4023.01 1327.09 65.60 10.00 311.61 3030.56
   08:12:41.848.03-Feb-2020 4023.01 1418.50 65.60 10.00 311.81 3030.56
   08:12:42.048.03-Feb-2020 4023.01 1505.69 65.60 10.00 312.01 3030.56
   08:12:42.248.03-Feb-2020 4023.01 1505.69 65.60 10.00 312.21 3030.56
   08:12:42.448.03-Feb-2020 4023.01 1672.26 65.60 10.00 312.41 3030.56
   08:12:42.648.03-Feb-2020 4023.01 1746.74 65.60 10.00 312.61 3030.56
   08:12:42.848.03-Feb-2020 4023.01 1813.97 65.60 10.00 312.81 3030.56
   08:12:43.048.03-Feb-2020 4023.01 1881.76 65.60 10.00 313.01 3030.56
   08:12:43.248.03-Feb-2020 4023.01 1881.76 65.60 10.00 313.21 3030.56
   08:12:43.448.03-Feb-2020 4023.01 2007.49 65.60 10.00 313.41 3030.56
   08:12:43.648.03-Feb-2020 4023.01 2064.97 65.60 10.00 313.61 3030.56
   08:12:43.848.03-Feb-2020 4023.01 2120.88 65.60 10.00 313.81 3030.56
   08:12:44.048.03-Feb-2020 4023.01 2172.96 65.60 10.00 314.01 3030.56
   08:12:44.248.03-Feb-2020 4023.01 2172.96 65.60 10.00 314.21 3030.56
   08:12:44.448.03-Feb-2020 4023.01 2270.05 65.60 10.00 314.41 3030.56
   08:12:44.648.03-Feb-2020 4023.01 2314.83 65.60 10.00 314.61 3030.56
   08:12:44.848.03-Feb-2020 4023.01 2357.29 65.60 10.00 314.81 3030.56
   08:12:45.048.03-Feb-2020 4023.01 2397.56 65.60 10.00 315.01 3030.56
   08:12:45.248.03-Feb-2020 4023.01 2397.56 65.60 10.00 315.21 3030.56
   08:12:45.448.03-Feb-2020 4023.01 2472.20 65.60 10.00 315.41 3030.56
   08:12:45.648.03-Feb-2020 4023.01 2506.63 65.60 10.00 315.61 3030.56
   08:12:45.848.03-Feb-2020 4023.01 2539.23 65.60 10.00 315.81 3030.56
   08:12:46.048.03-Feb-2020 4023.01 2570.11 65.60 10.00 316.01 3030.56
   08:12:46.249.03-Feb-2020 4023.01 2570.11 65.60 10.00 316.21 3030.56
