~Version Information
 VERS.                  2.0:   CWLS log ASCII Standard -VERSION 2.0
 WRAP.                   NO:   One line per depth step
~Well Information Block
#MNEM.UNIT     VALUE/NAME     DESCRIPTION
#---------     -----------    ---------------------------
 STRT.S             03:10:10 03-Feb-20: START TIME 03:10:10 03-Feb-20
 STOP.S             03:17:58 03-Feb-20: STOP TIME  03:17:58 03-Feb-20
 STEP.S                   0.00: STEP TIME
 NULL.                 -999.25: NULL VALUE
 DFWT.                        :  DIST FWL TEXT
 DFST.                        :  DIST FSL TEXT
 DMF .             Drill Floor:  DRILL MEAS FROM
 STIM.      09.30.00 26-Dec-19:  START TIME
 DATE.      08.00.00 20-Jan-20:  END TIME
 SPUD.               23-Nov-19:  SPUD DATE
 NREF.                    Grid:  NORTH REFERENCE
 HPTY.       Minimum Curvature:  HOLE POS TYPE
 DMOD.             Drill Model:  DRILL MOD DESC
 SVYD.                  Survey:  SURVEY DESC
 ILTD.               Lithology:  INTERP LTH DESC
 FTOP.          Formation Tops:  FORM TOPS DESC
 SON .        AZ-XX-0906192647:  JOB NUMBER
 WTYP.                Deviated:  WELL TYPE
 COMP.     BP Exploration (Caspian Sea) Ltd:  COMPANY
 BASE.              Azerbaijan:  LOGGING EQUIPMENT BASE LOCATION
 REGN.                 Eurasia:  REGION
 FLD .                     ACG:  FIELD NAME
 SRVC.              KCA Deutag:  CONTRACTOR
 MWDS.                    Baku:  MWD SHOP
 WELL.     A10 (Slot 20) - SCP:  WELL NAME
 JOBN.        AZ-XX-0906192647:  JOB TICKET NUMB
 RIG .                 Chirag1:  RIG NAME
 DCON.     Halliburton Sperry Drilling:  DIRECTNL CONTR
 UNIT.                     N/A:  LOGGING EQUIPMENT ID
 PDAT.          Mean Sea Level:  PERMANENT DATUM
 MDS .        Operator Entered:  MAG DATA SOURCE
 CTRY.              Azerbaijan:  COUNTRY NAME
 UWI .            /AZE00000090:  UNIQUE WELL IDENTIFIER
 API .            /AZE00000090:  API NUMBER
 CNTY.                        :  COUNTY
 PROV.                        :  PROVINCE
 STAT.                        :  STATE
 LOC .                        :  LOCATION
 LMF .             Drill Floor:  LOG MEASURED FROM
 TVDS.m                  36.60:  TVDSS CORRECTN
 LATI.deg                40.08:  LATITUDE
 LONG.deg                51.24:  LONGITUDE
 WHNS.m                  -7.94:  WELL HEAD N/S
 WHEW.m                   1.56:  WELL HEAD E/W
 UTMX.m              520429.26:  UTM X
 UTMY.m             4438973.87:  UTM Y
 DFWL.m                   0.00:  DISTANCE FWL
 DFSL.m                   0.00:  DISTANCE FSL
 SDEP.m                1455.00:  START DEPTH
 TDD .m                4047.51:  TOTAL DEPTH (DRILLER)
 VSDR.deg               112.75:  VERT SEC DIRECT
 GVFD.g                   1.00:  GRAVITY FIELD
 MFLD.nT              50261.00:  MAGNETIC FIELD
 MDIP.deg                59.52:  MAGNETIC DIP
 MDEC.deg                 6.42:  MAGNETIC DECL
 GRDC.deg                 0.17:  GRID CORRECTION
 AZTC.deg                 6.25:  AZM TOTAL CORR
 EPD .m                   0.00:  ELEVATION
 EGL .m                   0.00:  GROUND ELEVATION
 WDMS.m                 121.00:  WD ELEV
 APD .m                  36.60:  DEPTH ABOVE PD
 AGAP.m                  36.60:  AIR GAP
 VSEW.m                   1.56:  VERT SEC E/W
 VSNS.m                  -7.94:  VERT SEC N/S
 DEP .m                1140.01:  DEPTH
 EKB .m                  36.60:  KB ELEVATION
 EDF .m                  36.60:  DF ELEVATION
 VSC .                       0:  VS TO CLOSURE
 MAGU.                 1849206:  MAGUTM CHECKSUM
~Parameter Information Block
#MNEM.UNIT       Value        Description
#---------     -----------    ---------------------------
 AV  .mps                 1.70:  Ann Velocity 
 AVMX.mps                 2.30:  Max Ann Veloc 
 AZIF.deg               137.03:  Azm, Final 
 BHAT.                   Other:  BHA Type 
 BROT.°/30m               0.80:  Build Rotating 
 BS  .in                  8.00:  Bit Size 
 BTPL.psig              161.00:  Bit Press Loss 
 CABU.                      No:  Customer Abuse 
 TCS .hr                  9.59:  Time Ciculation Ended 
 CV  .mps                 3.76:  Crit Velocity 
 CVMX.mps                 4.26:  Max Crit Veloc 
 DD1 .         Intigam Rahimov:  Direct Drillr 1 
 DD2 .          Rashad Gojayev:  Direct Drillr 2 
 DDSV.                   Other:  DD Service 
 DEFF.%                 100.00:  % Det Eff 
 DLRX.°/30m               1.44:  Dogleg Rot Max 
 DLSO.°/30m               0.00:  Dogleg Oriented 
 DLSX.°/30m               0.00:  Dogleg Str Max 
 DRET.      03.31.12 02-Feb-20:  Drill End Time 
 DRST.      03.31.12 02-Feb-20:  Drill Start Tim 
 DTIM.hr                  1.99:  Time Drilling 
 EDEP.m                4047.51:  End Depth 
 ENG1.           Eldar Hajiyev:  Engineer 1 
 ENG2.          Rasim Hashimov:  Engineer 2 
 ENG3.          Rustam Safarov:  Engineer 3 
 ETIM.      03.31.12 02-Feb-20:  End Time 
 FLOI.gpm               300.00:  Flow In 
 FLON.gpm               250.00:  Flow In Min 
 FLOS.cptm                0.00:  Fluid Loss 
 FLOX.gpm               330.00:  Flow In Max 
 HFLO.                      No:  High Flow 
 HPRE.                      No:  High Pressure 
 HTEM.                      No:  High Temp 
 HYDO.m                   2.50:  Hydro Offset 
 IFIN.deg                39.54:  Inc, Final 
 IMAX.deg                41.14:  Inc Max 
 IMIN.deg                39.81:  Inc Min 
 IMND.m                4005.21:  Inc Min Depth 
 IMXD.m                3948.42:  Inc Max Depth 
 JARR.                      No:  Jarring 
 LETM.      03.31.12 02-Feb-20:  Log End Time 
 LOST.hr                     0:  Lost Rig Time 
 LSTM.      03.31.12 02-Feb-20:  Log Start Time 
 MDCL.ppm             35000.00:  Mud Chlorides 
 MDES.     Inversion Oil/Synthetic:  Mud Desc 
 DFD .sg                  1.32:  Mud Density 
 MDMN.sg                  1.32:  Dens Mud Min 
 MDMX.sg                  1.32:  Dens Mud Max 
 MOIL.                      59:  Run Mud Oil % 
 MOWR.                   71:29:  Run Mud OWR 
 MSND.                       0:  Run Mud Sand % 
 MSOL.                      17:  Run Mud Solids% 
 DFV .spqt               86.00:  Mud Viscosity 
 MWOD.in                  4.75:  MWD Tool OD 
 MWSI.                      No:  Serv Intrp, MWD 
 OTIM.hr                 46.72:  Time Operating 
 PCON.           Look Like New:  Pad Condition 
 PMAX.psia             3300.00:  Press Op, Max 
 PV  .cP                 30.00:  Mud PV 
 RUN .                     400:  Run Number 
 ROPA.m/hr               35.00:  ROP Avg 
 ROPN.m/hr               25.00:  ROP Min 
 ROPX.m/hr               40.00:  ROP Max 
 RPMA.rpm                80.00:  RPM Surface Avg 
 RPMN.rpm                60.00:  RPM Surface Min 
 RPMX.rpm               100.00:  RPM Surface Max 
 RRUN.                     400:  Rig Run Number 
 RTIM.hr                  1.99:  Time Reaming 
 SAZI.deg               133.93:  Azm, Start 
 SDEP.m                4047.51:  Start Depth 
 SIDD.                      No:  Serv Intrp, DD 
 SINC.deg                40.28:  Inc, Start 
 SPPA.psig             3250.00:  SPP Avg 
 SPPN.psig             3200.00:  SPP Min 
 SPPX.psig             3300.00:  SPP Max 
 STIM.      03.31.12 02-Feb-20:  Start Time 
 SVCS.                 DD, MWD:  Services 
 SVER.                    9.20:  Sperry Version 
 TDAT.m                  47.00:  Tot Depth Attmp 
 TDDF.                      No:  Trip for DD 
 TFF .                      No:  Trip for Fail 
 TQAA.f-kp                0.00:  Torque Abs Avg 
 TQAN.f-kp                0.00:  Torque Abs Min 
 TQAX.f-kp                0.00:  Torque Abs Max 
 TRRT.°/30m               0.70:  Turn Rotating 
 MRT .                    HCIM:  Maximum Recorded Temperature 
 TTMX.degC               70.59:  Max Tool Temp 
 VS01.             90598770F11:  Virtual Str1 SN 
 VS02.             90598769F11:  Virtual Str2 SN 
 VS03.            90515978Z1W1:  Virtual Str3 SN 
 VS04.          90584144R12X14:  Virtual Str4 SN 
 WBMN.klb                 0.00:  WOB Min 
 WITN.            Peter Wilson:  Customer Rep 
 WOBA.klb                 0.00:  WOB Avg 
 WOBX.klb                 0.00:  WOB Max 
 YP  .lhf2               29.00:  Yield Point 
~Curve Information Block
#MNEM.UNIT                 API CODE     Curve Description
#---------               -----------    ---------------------------
 TIME.HHMMSS            00 000 000 000:  GT Time & Date
 GTDEPTH.m              00 000 000 000:  GT Depth
 GTPQH.psia             00 000 000 000:  GT HR Quartz Pressure
 GTTQ.degC              00 000 000 000:  GT Quartz Temperature
 GTTN.NONE              00 000 000 000:  GT Test Number
 GTET.sec               00 000 000 000:  GT Elapsed Test Time
 GTTVD.m                00 000 000 000:  GT True Vertical Depth
#Other Information
#
#WARRANTY: Halliburton will use its best efforts to furnish customers with 
#accurate information and interpretations that are part of, and incident to, the services 
#provided.  However, Halliburton cannot and does not warrant the accuracy 
#or correctness of such information and interpretations.  Under no circumstances should any 
#such information or interpretation be relied upon as the sole basis for any drilling, 
#completion, production, or financial decision or any procedure involving any risk to the 
#safety of any drilling venture, drilling rig or its crew or any other third party.  The 
#Customer has full responsibility for all drilling, completion and production operation.  
#Halliburton makes no representations or warranties, either expressed or 
#implied, including, but not limited to, the implied warranties of merchantability or fitness 
#for a particular purpose, with respect to the services rendered.  In no event will 
#Halliburton be liable for failure to obtain any particular results or for 
#any damages, including, but not limited to, indirect, special or consequential damages, 
#resulting from the use of any information or interpretation provided by Halliburton.
#
~A           TIME           GTDEPTH  GTPQH  GTTQ  GTTN  GTET   GTTVD  
# ...
   03:13:14.062.03-Feb-2020 4017.01 3134.42 63.05 2.00 184.04 3025.96
   03:13:14.262.03-Feb-2020 4017.01 3134.42 63.05 2.00 184.24 3025.96
   03:13:14.462.03-Feb-2020 4017.01 3134.36 63.05 2.00 184.44 3025.96
   03:13:14.662.03-Feb-2020 4017.01 3134.72 63.05 2.00 184.64 3025.96
   03:13:14.862.03-Feb-2020 4017.01 3134.49 63.05 2.00 184.84 3025.96
   03:13:15.062.03-Feb-2020 4017.01 3134.63 63.05 2.00 185.04 3025.96
   03:13:15.262.03-Feb-2020 4017.01 3134.63 63.05 2.00 185.24 3025.96
   03:13:15.462.03-Feb-2020 4017.01 3134.56 63.05 2.00 185.44 3025.96
   03:13:15.662.03-Feb-2020 4017.01 3134.61 63.05 2.00 185.64 3025.96
   03:13:15.862.03-Feb-2020 4017.01 3134.59 63.05 2.00 185.84 3025.96
   03:13:16.062.03-Feb-2020 4017.01 3134.55 63.05 2.00 186.04 3025.96
   03:13:16.263.03-Feb-2020 4017.01 3134.55 63.05 2.00 186.24 3025.96
   03:13:16.463.03-Feb-2020 4017.01 3134.61 63.05 2.00 186.44 3025.96
   03:13:16.663.03-Feb-2020 4017.01 3134.59 63.05 2.00 186.64 3025.96
   03:13:16.863.03-Feb-2020 4017.01 3134.60 63.05 2.00 186.84 3025.96
   03:13:17.063.03-Feb-2020 4017.01 3134.69 63.05 2.00 187.04 3025.96
   03:13:17.263.03-Feb-2020 4017.01 3134.69 63.05 2.00 187.24 3025.96
   03:13:17.463.03-Feb-2020 4017.01 3134.24 63.05 2.00 187.44 3025.96
   03:13:17.663.03-Feb-2020 4017.01 3134.79 63.05 2.00 187.64 3025.96
   03:13:17.863.03-Feb-2020 4017.01 3134.59 63.05 2.00 187.84 3025.96
   03:13:18.063.03-Feb-2020 4017.01 3134.73 63.05 2.00 188.04 3025.96
   03:13:18.263.03-Feb-2020 4017.01 3134.73 63.05 2.00 188.24 3025.96
   03:13:18.463.03-Feb-2020 4017.01 3134.66 63.05 2.00 188.44 3025.96
   03:13:18.663.03-Feb-2020 4017.01 3134.67 63.05 2.00 188.64 3025.96
   03:13:18.863.03-Feb-2020 4017.01 3134.65 63.05 2.00 188.84 3025.96
   03:13:19.063.03-Feb-2020 4017.01 3134.64 63.05 2.00 189.04 3025.96
   03:13:19.263.03-Feb-2020 4017.01 3134.64 63.05 2.00 189.24 3025.96
   03:13:19.463.03-Feb-2020 4017.01 3134.68 63.05 2.00 189.44 3025.96
   03:13:19.663.03-Feb-2020 4017.01 3134.71 63.05 2.00 189.64 3025.96
   03:13:19.863.03-Feb-2020 4017.01 3134.51 63.05 2.00 189.84 3025.96
   03:13:20.063.03-Feb-2020 4017.01 3134.72 63.05 2.00 190.04 3025.96
   03:13:20.263.03-Feb-2020 4017.01 3134.72 63.05 2.00 190.24 3025.96
   03:13:20.463.03-Feb-2020 4017.01 3134.94 63.05 2.00 190.44 3025.96
   03:13:20.663.03-Feb-2020 4017.01 3134.68 63.05 2.00 190.64 3025.96
   03:13:20.863.03-Feb-2020 4017.01 3134.78 63.05 2.00 190.84 3025.96
   03:13:21.064.03-Feb-2020 4017.01 3134.26 63.05 2.00 191.04 3025.96
   03:13:21.264.03-Feb-2020 4017.01 3134.26 63.05 2.00 191.24 3025.96
   03:13:21.464.03-Feb-2020 4017.01 3134.59 63.05 2.00 191.44 3025.96
   03:13:21.664.03-Feb-2020 4017.01 3134.87 63.05 2.00 191.64 3025.96
   03:13:21.864.03-Feb-2020 4017.01 3134.71 63.05 2.00 191.84 3025.96
   03:13:22.064.03-Feb-2020 4017.01 3134.80 63.05 2.00 192.04 3025.96
   03:13:22.264.03-Feb-2020 4017.01 3134.80 63.05 2.00 192.24 3025.96
   03:13:22.464.03-Feb-2020 4017.01 3134.67 63.05 2.00 192.44 3025.96
   03:13:22.664.03-Feb-2020 4017.01 3134.84 63.05 2.00 192.64 3025.96
   03:13:22.864.03-Feb-2020 4017.01 3134.82 63.05 2.00 192.84 3025.96
   03:13:23.064.03-Feb-2020 4017.01 3134.63 63.05 2.00 193.04 3025.96
   03:13:23.264.03-Feb-2020 4017.01 3134.63 63.05 2.00 193.24 3025.96
   03:13:23.464.03-Feb-2020 4017.01 3134.56 63.05 2.00 193.44 3025.96
   03:13:23.664.03-Feb-2020 4017.01 3134.90 63.05 2.00 193.64 3025.96
   03:13:23.864.03-Feb-2020 4017.01 3134.71 63.05 2.00 193.84 3025.96
   03:13:24.064.03-Feb-2020 4017.01 3134.90 63.05 2.00 194.04 3025.96
   03:13:24.264.03-Feb-2020 4017.01 3134.90 63.05 2.00 194.24 3025.96
   03:13:24.464.03-Feb-2020 4017.01 3134.83 63.05 2.00 194.44 3025.96
   03:13:24.664.03-Feb-2020 4017.01 3134.77 63.05 2.00 194.64 3025.96
   03:13:24.864.03-Feb-2020 4017.01 3134.75 63.05 2.00 194.84 3025.96
   03:13:25.064.03-Feb-2020 4017.01 3134.81 63.05 2.00 195.04 3025.96
   03:13:25.264.03-Feb-2020 4017.01 3134.81 63.05 2.00 195.24 3025.96
   03:13:25.464.03-Feb-2020 4017.01 3134.79 63.05 2.00 195.44 3025.96
   03:13:25.664.03-Feb-2020 4017.01 3134.82 63.05 2.00 195.64 3025.96
   03:13:25.865.03-Feb-2020 4017.01 3134.76 63.05 2.00 195.84 3025.96
   03:13:26.065.03-Feb-2020 4017.01 3134.88 63.05 2.00 196.04 3025.96
   03:13:26.265.03-Feb-2020 4017.01 3134.88 63.05 2.00 196.24 3025.96
   03:13:26.465.03-Feb-2020 4017.01 3134.39 63.05 2.00 196.44 3025.96
   03:13:26.665.03-Feb-2020 4017.01 3134.98 63.05 2.00 196.64 3025.96
   03:13:26.865.03-Feb-2020 4017.01 3134.80 63.05 2.00 196.84 3025.96
   03:13:27.065.03-Feb-2020 4017.01 3134.87 63.05 2.00 197.04 3025.96
   03:13:27.265.03-Feb-2020 4017.01 3134.87 63.05 2.00 197.24 3025.96
   03:13:27.465.03-Feb-2020 4017.01 3134.83 63.05 2.00 197.44 3025.96
   03:13:27.665.03-Feb-2020 4017.01 3134.81 63.05 2.00 197.64 3025.96
   03:13:27.865.03-Feb-2020 4017.01 3134.85 63.05 2.00 197.84 3025.96
   03:13:28.065.03-Feb-2020 4017.01 3134.85 63.05 2.00 198.04 3025.96
   03:13:28.265.03-Feb-2020 4017.01 3134.85 63.05 2.00 198.24 3025.96
   03:13:28.465.03-Feb-2020 4017.01 3134.88 63.05 2.00 198.44 3025.96
   03:13:28.665.03-Feb-2020 4017.01 3134.83 63.05 2.00 198.64 3025.96
   03:13:28.865.03-Feb-2020 4017.01 3134.63 63.05 2.00 198.84 3025.96
   03:13:29.065.03-Feb-2020 4017.01 3134.94 63.05 2.00 199.04 3025.96
   03:13:29.265.03-Feb-2020 4017.01 3134.94 63.05 2.00 199.24 3025.96
   03:13:29.465.03-Feb-2020 4017.01 3135.08 63.05 2.00 199.44 3025.96
   03:13:29.665.03-Feb-2020 4017.01 3134.85 63.04 2.00 199.64 3025.96
   03:13:29.865.03-Feb-2020 4017.01 3134.88 63.04 2.00 199.84 3025.96
   03:13:30.065.03-Feb-2020 4017.01 3134.39 63.04 2.00 200.04 3025.96
   03:13:30.265.03-Feb-2020 4017.01 3134.39 63.04 2.00 200.24 3025.96
   03:13:30.466.03-Feb-2020 4017.01 3134.71 63.04 2.00 200.44 3025.96
   03:13:30.666.03-Feb-2020 4017.01 3135.00 63.04 2.00 200.64 3025.96
   03:13:30.866.03-Feb-2020 4017.01 3134.88 63.04 2.00 200.84 3025.96
   03:13:31.066.03-Feb-2020 4017.01 3134.91 63.04 2.00 201.04 3025.96
   03:13:31.266.03-Feb-2020 4017.01 3134.91 63.04 2.00 201.24 3025.96
   03:13:31.466.03-Feb-2020 4017.01 3134.84 63.04 2.00 201.44 3025.96
   03:13:31.666.03-Feb-2020 4017.01 3134.94 63.04 2.00 201.64 3025.96
   03:13:31.866.03-Feb-2020 4017.01 3134.96 63.04 2.00 201.84 3025.96
   03:13:32.066.03-Feb-2020 4017.01 3134.77 63.04 2.00 202.04 3025.96
   03:13:32.266.03-Feb-2020 4017.01 3134.77 63.04 2.00 202.24 3025.96
   03:13:32.466.03-Feb-2020 4017.01 3134.70 63.04 2.00 202.44 3025.96
   03:13:32.666.03-Feb-2020 4017.01 3135.03 63.04 2.00 202.64 3025.96
   03:13:32.866.03-Feb-2020 4017.01 3134.81 63.04 2.00 202.84 3025.96
   03:13:33.066.03-Feb-2020 4017.01 3135.04 63.04 2.00 203.04 3025.96
   03:13:33.266.03-Feb-2020 4017.01 3135.04 63.04 2.00 203.24 3025.96
   03:13:33.466.03-Feb-2020 4017.01 3134.92 63.04 2.00 203.44 3025.96
   03:13:33.666.03-Feb-2020 4017.01 3134.93 63.04 2.00 203.64 3025.96
   03:13:33.866.03-Feb-2020 4017.01 3134.85 63.04 2.00 203.84 3025.96
   03:13:34.066.03-Feb-2020 4017.01 3134.93 63.04 2.00 204.04 3025.96
   03:13:34.266.03-Feb-2020 4017.01 3134.93 63.04 2.00 204.24 3025.96
   03:13:34.466.03-Feb-2020 4017.01 3134.90 63.04 2.00 204.44 3025.96
   03:13:34.666.03-Feb-2020 4017.01 3134.93 63.04 2.00 204.64 3025.96
   03:13:34.866.03-Feb-2020 4017.01 3134.89 63.04 2.00 204.84 3025.96
   03:13:35.066.03-Feb-2020 4017.01 3134.99 63.04 2.00 205.04 3025.96
   03:13:35.267.03-Feb-2020 4017.01 3134.99 63.04 2.00 205.24 3025.96
   03:13:35.467.03-Feb-2020 4017.01 3134.52 63.04 2.00 205.44 3025.96
   03:13:35.667.03-Feb-2020 4017.01 3135.05 63.04 2.00 205.64 3025.96
   03:13:35.867.03-Feb-2020 4017.01 3134.90 63.04 2.00 205.84 3025.96
   03:13:36.067.03-Feb-2020 4017.01 3135.03 63.04 2.00 206.04 3025.96
   03:13:36.267.03-Feb-2020 4017.01 3135.03 63.04 2.00 206.24 3025.96
   03:13:36.467.03-Feb-2020 4017.01 3134.92 63.04 2.00 206.44 3025.96
   03:13:36.667.03-Feb-2020 4017.01 3134.95 63.04 2.00 206.64 3025.96
   03:13:36.867.03-Feb-2020 4017.01 3134.90 63.04 2.00 206.84 3025.96
