~Version Information
 VERS.                  2.0:   CWLS log ASCII Standard -VERSION 2.0
 WRAP.                   NO:   One line per depth step
~Well Information Block
#MNEM.UNIT     VALUE/NAME     DESCRIPTION
#---------     -----------    ---------------------------
 STRT.S             05:26:39 03-Feb-20: START TIME 05:26:39 03-Feb-20
 STOP.S             05:34:31 03-Feb-20: STOP TIME  05:34:31 03-Feb-20
 STEP.S                   0.00: STEP TIME
 NULL.                 -999.25: NULL VALUE
 DFWT.                        :  DIST FWL TEXT
 DFST.                        :  DIST FSL TEXT
 DMF .             Drill Floor:  DRILL MEAS FROM
 STIM.      09.30.00 26-Dec-19:  START TIME
 DATE.      08.00.00 20-Jan-20:  END TIME
 SPUD.               23-Nov-19:  SPUD DATE
 NREF.                    Grid:  NORTH REFERENCE
 HPTY.       Minimum Curvature:  HOLE POS TYPE
 DMOD.             Drill Model:  DRILL MOD DESC
 SVYD.                  Survey:  SURVEY DESC
 ILTD.               Lithology:  INTERP LTH DESC
 FTOP.          Formation Tops:  FORM TOPS DESC
 SON .        AZ-XX-0906192647:  JOB NUMBER
 WTYP.                Deviated:  WELL TYPE
 COMP.     BP Exploration (Caspian Sea) Ltd:  COMPANY
 BASE.              Azerbaijan:  LOGGING EQUIPMENT BASE LOCATION
 REGN.                 Eurasia:  REGION
 FLD .                     ACG:  FIELD NAME
 SRVC.              KCA Deutag:  CONTRACTOR
 MWDS.                    Baku:  MWD SHOP
 WELL.     A10 (Slot 20) - SCP:  WELL NAME
 JOBN.        AZ-XX-0906192647:  JOB TICKET NUMB
 RIG .                 Chirag1:  RIG NAME
 DCON.     Halliburton Sperry Drilling:  DIRECTNL CONTR
 UNIT.                     N/A:  LOGGING EQUIPMENT ID
 PDAT.          Mean Sea Level:  PERMANENT DATUM
 MDS .        Operator Entered:  MAG DATA SOURCE
 CTRY.              Azerbaijan:  COUNTRY NAME
 UWI .            /AZE00000090:  UNIQUE WELL IDENTIFIER
 API .            /AZE00000090:  API NUMBER
 CNTY.                        :  COUNTY
 PROV.                        :  PROVINCE
 STAT.                        :  STATE
 LOC .                        :  LOCATION
 LMF .             Drill Floor:  LOG MEASURED FROM
 TVDS.m                  36.60:  TVDSS CORRECTN
 LATI.deg                40.08:  LATITUDE
 LONG.deg                51.24:  LONGITUDE
 WHNS.m                  -7.94:  WELL HEAD N/S
 WHEW.m                   1.56:  WELL HEAD E/W
 UTMX.m              520429.26:  UTM X
 UTMY.m             4438973.87:  UTM Y
 DFWL.m                   0.00:  DISTANCE FWL
 DFSL.m                   0.00:  DISTANCE FSL
 SDEP.m                1455.00:  START DEPTH
 TDD .m                4047.51:  TOTAL DEPTH (DRILLER)
 VSDR.deg               112.75:  VERT SEC DIRECT
 GVFD.g                   1.00:  GRAVITY FIELD
 MFLD.nT              50261.00:  MAGNETIC FIELD
 MDIP.deg                59.52:  MAGNETIC DIP
 MDEC.deg                 6.42:  MAGNETIC DECL
 GRDC.deg                 0.17:  GRID CORRECTION
 AZTC.deg                 6.25:  AZM TOTAL CORR
 EPD .m                   0.00:  ELEVATION
 EGL .m                   0.00:  GROUND ELEVATION
 WDMS.m                 121.00:  WD ELEV
 APD .m                  36.60:  DEPTH ABOVE PD
 AGAP.m                  36.60:  AIR GAP
 VSEW.m                   1.56:  VERT SEC E/W
 VSNS.m                  -7.94:  VERT SEC N/S
 DEP .m                1140.01:  DEPTH
 EKB .m                  36.60:  KB ELEVATION
 EDF .m                  36.60:  DF ELEVATION
 VSC .                       0:  VS TO CLOSURE
 MAGU.                 1849206:  MAGUTM CHECKSUM
~Parameter Information Block
#MNEM.UNIT       Value        Description
#---------     -----------    ---------------------------
 AV  .mps                 1.70:  Ann Velocity 
 AVMX.mps                 2.30:  Max Ann Veloc 
 AZIF.deg               137.03:  Azm, Final 
 BHAT.                   Other:  BHA Type 
 BROT.°/30m               0.80:  Build Rotating 
 BS  .in                  8.00:  Bit Size 
 BTPL.psig              161.00:  Bit Press Loss 
 CABU.                      No:  Customer Abuse 
 COMM.                     ¬]P:  Run Comments 1 
 TCS .hr                  9.59:  Time Ciculation Ended 
 CV  .mps                 3.76:  Crit Velocity 
 CVMX.mps                 4.26:  Max Crit Veloc 
 DD1 .         Intigam Rahimov:  Direct Drillr 1 
 DD2 .          Rashad Gojayev:  Direct Drillr 2 
 DDSV.                   Other:  DD Service 
 DEFF.%                 100.00:  % Det Eff 
 DLRX.°/30m               1.44:  Dogleg Rot Max 
 DLSO.°/30m               0.00:  Dogleg Oriented 
 DLSX.°/30m               0.00:  Dogleg Str Max 
 DRET.      03.31.12 02-Feb-20:  Drill End Time 
 DRST.      03.31.12 02-Feb-20:  Drill Start Tim 
 DTIM.hr                  1.99:  Time Drilling 
 EDEP.m                4047.51:  End Depth 
 ENG1.           Eldar Hajiyev:  Engineer 1 
 ENG2.          Rasim Hashimov:  Engineer 2 
 ENG3.          Rustam Safarov:  Engineer 3 
 ETIM.      03.31.12 02-Feb-20:  End Time 
 FLOI.gpm               300.00:  Flow In 
 FLON.gpm               250.00:  Flow In Min 
 FLOS.cptm                0.00:  Fluid Loss 
 FLOX.gpm               330.00:  Flow In Max 
 HFLO.                      No:  High Flow 
 HPRE.                      No:  High Pressure 
 HTEM.                      No:  High Temp 
 HYDO.m                   2.50:  Hydro Offset 
 IFIN.deg                39.54:  Inc, Final 
 IMAX.deg                41.14:  Inc Max 
 IMIN.deg                39.81:  Inc Min 
 IMND.m                4005.21:  Inc Min Depth 
 IMXD.m                3948.42:  Inc Max Depth 
 JARR.                      No:  Jarring 
 LETM.      03.31.12 02-Feb-20:  Log End Time 
 LOST.hr                     0:  Lost Rig Time 
 LSTM.      03.31.12 02-Feb-20:  Log Start Time 
 MDCL.ppm             35000.00:  Mud Chlorides 
 MDES.     Inversion Oil/Synthetic:  Mud Desc 
 DFD .sg                  1.32:  Mud Density 
 MDMN.sg                  1.32:  Dens Mud Min 
 MDMX.sg                  1.32:  Dens Mud Max 
 MOIL.                      59:  Run Mud Oil % 
 MOWR.                   71:29:  Run Mud OWR 
 MSND.                       0:  Run Mud Sand % 
 MSOL.                      17:  Run Mud Solids% 
 DFV .spqt               86.00:  Mud Viscosity 
 MWOD.in                  4.75:  MWD Tool OD 
 MWSI.                      No:  Serv Intrp, MWD 
 OTIM.hr                 46.72:  Time Operating 
 PCON.           Look Like New:  Pad Condition 
 PMAX.psia             3300.00:  Press Op, Max 
 PV  .cP                 30.00:  Mud PV 
 RUN .                     400:  Run Number 
 ROPA.m/hr               35.00:  ROP Avg 
 ROPN.m/hr               25.00:  ROP Min 
 ROPX.m/hr               40.00:  ROP Max 
 RPMA.rpm                80.00:  RPM Surface Avg 
 RPMN.rpm                60.00:  RPM Surface Min 
 RPMX.rpm               100.00:  RPM Surface Max 
 RRUN.                     400:  Rig Run Number 
 RTIM.hr                  1.99:  Time Reaming 
 SAZI.deg               133.93:  Azm, Start 
 SDEP.m                4047.51:  Start Depth 
 SIDD.                      No:  Serv Intrp, DD 
 SINC.deg                40.28:  Inc, Start 
 SPPA.psig             3250.00:  SPP Avg 
 SPPN.psig             3200.00:  SPP Min 
 SPPX.psig             3300.00:  SPP Max 
 STIM.      03.31.12 02-Feb-20:  Start Time 
 SVCS.                 DD, MWD:  Services 
 SVER.                    9.20:  Sperry Version 
 TDAT.m                  47.00:  Tot Depth Attmp 
 TDDF.                      No:  Trip for DD 
 TFF .                      No:  Trip for Fail 
 TQAA.f-kp                0.00:  Torque Abs Avg 
 TQAN.f-kp                0.00:  Torque Abs Min 
 TQAX.f-kp                0.00:  Torque Abs Max 
 TRRT.°/30m               0.70:  Turn Rotating 
 MRT .                    HCIM:  Maximum Recorded Temperature 
 TTMX.degC               70.59:  Max Tool Temp 
 VS01.             90598770F11:  Virtual Str1 SN 
 VS02.             90598769F11:  Virtual Str2 SN 
 VS03.            90515978Z1W1:  Virtual Str3 SN 
 VS04.          90584144R12X14:  Virtual Str4 SN 
 WBMN.klb                 0.00:  WOB Min 
 WITN.            Peter Wilson:  Customer Rep 
 WOBA.klb                 0.00:  WOB Avg 
 WOBX.klb                 0.00:  WOB Max 
 YP  .lhf2               29.00:  Yield Point 
~Curve Information Block
#MNEM.UNIT                 API CODE     Curve Description
#---------               -----------    ---------------------------
 TIME.HHMMSS            00 000 000 000:  GT Time & Date
 GTDEPTH.m              00 000 000 000:  GT Depth
 GTPQH.psia             00 000 000 000:  GT HR Quartz Pressure
 GTTQ.degC              00 000 000 000:  GT Quartz Temperature
 GTTN.NONE              00 000 000 000:  GT Test Number
 GTET.sec               00 000 000 000:  GT Elapsed Test Time
 GTTVD.m                00 000 000 000:  GT True Vertical Depth
#Other Information
#
#WARRANTY: Halliburton will use its best efforts to furnish customers with 
#accurate information and interpretations that are part of, and incident to, the services 
#provided.  However, Halliburton cannot and does not warrant the accuracy 
#or correctness of such information and interpretations.  Under no circumstances should any 
#such information or interpretation be relied upon as the sole basis for any drilling, 
#completion, production, or financial decision or any procedure involving any risk to the 
#safety of any drilling venture, drilling rig or its crew or any other third party.  The 
#Customer has full responsibility for all drilling, completion and production operation.  
#Halliburton makes no representations or warranties, either expressed or 
#implied, including, but not limited to, the implied warranties of merchantability or fitness 
#for a particular purpose, with respect to the services rendered.  In no event will 
#Halliburton be liable for failure to obtain any particular results or for 
#any damages, including, but not limited to, indirect, special or consequential damages, 
#resulting from the use of any information or interpretation provided by Halliburton.
#
~A           TIME           GTDEPTH  GTPQH  GTTQ  GTTN  GTET   GTTVD  
   05:26:39.000.03-Feb-2020 4009.51 6063.61 64.82 5.00   0.00 3020.21
   05:26:39.200.03-Feb-2020 4009.51 6063.61 64.82 5.00   0.20 3020.21
   05:26:39.400.03-Feb-2020 4009.51 6059.73 64.82 5.00   0.40 3020.21
   05:26:39.600.03-Feb-2020 4009.51 6056.05 64.82 5.00   0.60 3020.21
   05:26:39.800.03-Feb-2020 4009.51 6061.83 64.82 5.00   0.80 3020.21
   05:26:40.000.03-Feb-2020 4009.51 6060.22 64.82 5.00   1.00 3020.21
   05:26:40.200.03-Feb-2020 4009.51 6060.22 64.82 5.00   1.20 3020.21
   05:26:40.400.03-Feb-2020 4009.51 6059.75 64.82 5.00   1.40 3020.21
   05:26:40.600.03-Feb-2020 4009.51 6055.21 64.82 5.00   1.60 3020.21
   05:26:40.800.03-Feb-2020 4009.51 6061.83 64.82 5.00   1.80 3020.21
   05:26:41.000.03-Feb-2020 4009.51 6063.61 64.82 5.00   2.00 3020.21
   05:26:41.200.03-Feb-2020 4009.51 6051.77 64.82 5.00   2.20 3020.21
   05:26:41.400.03-Feb-2020 4009.51 6059.84 64.82 5.00   2.40 3020.21
   05:26:41.600.03-Feb-2020 4009.51 6064.92 64.82 5.00   2.60 3020.21
   05:26:41.800.03-Feb-2020 4009.51 6063.49 64.82 5.00   2.80 3020.21
   05:26:42.000.03-Feb-2020 4009.51 6064.17 64.82 5.00   3.00 3020.21
   05:26:42.200.03-Feb-2020 4009.51 6064.17 64.82 5.00   3.20 3020.21
   05:26:42.400.03-Feb-2020 4009.51 6067.76 64.81 5.00   3.40 3020.21
   05:26:42.600.03-Feb-2020 4009.51 6058.76 64.81 5.00   3.60 3020.21
   05:26:42.800.03-Feb-2020 4009.51 6067.50 64.81 5.00   3.80 3020.21
   05:26:43.000.03-Feb-2020 4009.51 6064.13 64.81 5.00   4.00 3020.21
   05:26:43.200.03-Feb-2020 4009.51 6064.13 64.81 5.00   4.20 3020.21
   05:26:43.400.03-Feb-2020 4009.51 6068.93 64.81 5.00   4.40 3020.21
   05:26:43.600.03-Feb-2020 4009.51 6066.51 64.81 5.00   4.60 3020.21
   05:26:43.800.03-Feb-2020 4009.51 6060.93 64.81 5.00   4.80 3020.21
   05:26:44.000.03-Feb-2020 4009.51 6066.23 64.81 5.00   5.00 3020.21
   05:26:44.200.03-Feb-2020 4009.51 6066.23 64.81 5.00   5.20 3020.21
   05:26:44.400.03-Feb-2020 4009.51 6066.15 64.81 5.00   5.40 3020.21
   05:26:44.600.03-Feb-2020 4009.51 6054.50 64.81 5.00   5.60 3020.21
   05:26:44.800.03-Feb-2020 4009.51 6065.04 64.81 5.00   5.80 3020.21
   05:26:45.000.03-Feb-2020 4009.51 6060.17 64.81 5.00   6.00 3020.21
   05:26:45.200.03-Feb-2020 4009.51 6060.17 64.81 5.00   6.20 3020.21
   05:26:45.400.03-Feb-2020 4009.51 6061.44 64.81 5.00   6.40 3020.21
   05:26:45.600.03-Feb-2020 4009.51 6064.25 64.81 5.00   6.60 3020.21
   05:26:45.800.03-Feb-2020 4009.51 6053.01 64.81 5.00   6.80 3020.21
   05:26:46.000.03-Feb-2020 4009.51 6063.35 64.81 5.00   7.00 3020.21
   05:26:46.200.03-Feb-2020 4009.51 6063.35 64.81 5.00   7.20 3020.21
   05:26:46.400.03-Feb-2020 4009.51 6062.29 64.81 5.00   7.40 3020.21
   05:26:46.600.03-Feb-2020 4009.51 6062.25 64.81 5.00   7.60 3020.21
   05:26:46.800.03-Feb-2020 4009.51 6065.05 64.81 5.00   7.80 3020.21
   05:26:47.000.03-Feb-2020 4009.51 6063.65 64.81 5.00   8.00 3020.21
   05:26:47.200.03-Feb-2020 4009.51 6063.65 64.81 5.00   8.20 3020.21
   05:26:47.400.03-Feb-2020 4009.51 6063.96 64.81 5.00   8.40 3020.21
   05:26:47.600.03-Feb-2020 4009.51 6067.57 64.81 5.00   8.60 3020.21
   05:26:47.800.03-Feb-2020 4009.51 6067.87 64.81 5.00   8.80 3020.21
   05:26:48.000.03-Feb-2020 4009.51 6067.49 64.80 5.00   9.00 3020.21
   05:26:48.200.03-Feb-2020 4009.51 6067.49 64.80 5.00   9.20 3020.21
   05:26:48.400.03-Feb-2020 4009.51 6068.65 64.80 5.00   9.40 3020.21
   05:26:48.600.03-Feb-2020 4009.51 6067.22 64.80 5.00   9.60 3020.21
   05:26:48.800.03-Feb-2020 4009.51 6069.90 64.80 5.00   9.80 3020.21
   05:26:49.000.03-Feb-2020 4009.51 6064.20 64.80 5.00  10.00 3020.21
   05:26:49.200.03-Feb-2020 4009.51 6064.20 64.80 5.00  10.20 3020.21
   05:26:49.400.03-Feb-2020 4009.51 6064.59 64.80 5.00  10.40 3020.21
   05:26:49.600.03-Feb-2020 4009.51 6069.61 64.80 5.00  10.60 3020.21
   05:26:49.800.03-Feb-2020 4009.51 6068.44 64.80 5.00  10.80 3020.21
   05:26:50.000.03-Feb-2020 4009.51 6069.29 64.80 5.00  11.00 3020.21
   05:26:50.200.03-Feb-2020 4009.51 6069.29 64.80 5.00  11.20 3020.21
   05:26:50.400.03-Feb-2020 4009.51 6068.25 64.80 5.00  11.40 3020.21
   05:26:50.600.03-Feb-2020 4009.51 6068.19 64.80 5.00  11.60 3020.21
   05:26:50.800.03-Feb-2020 4009.51 6069.21 64.80 5.00  11.80 3020.21
   05:26:51.000.03-Feb-2020 4009.51 6069.23 64.80 5.00  12.00 3020.21
   05:26:51.200.03-Feb-2020 4009.51 6069.23 64.80 5.00  12.20 3020.21
   05:26:51.400.03-Feb-2020 4009.51 6068.24 64.80 5.00  12.40 3020.21
   05:26:51.600.03-Feb-2020 4009.51 6068.10 64.80 5.00  12.60 3020.21
   05:26:51.800.03-Feb-2020 4009.51 6067.67 64.80 5.00  12.80 3020.21
   05:26:52.000.03-Feb-2020 4009.51 6069.37 64.80 5.00  13.00 3020.21
   05:26:52.200.03-Feb-2020 4009.51 6069.37 64.80 5.00  13.20 3020.21
   05:26:52.400.03-Feb-2020 4009.51 6069.37 64.80 5.00  13.40 3020.21
   05:26:52.600.03-Feb-2020 4009.51 6068.43 64.80 5.00  13.60 3020.21
   05:26:52.800.03-Feb-2020 4009.51 6066.78 64.80 5.00  13.80 3020.21
   05:26:53.000.03-Feb-2020 4009.51 6062.76 64.80 5.00  14.00 3020.21
   05:26:53.200.03-Feb-2020 4009.51 6062.76 64.80 5.00  14.20 3020.21
   05:26:53.400.03-Feb-2020 4009.51 6067.27 64.80 5.00  14.40 3020.21
   05:26:53.600.03-Feb-2020 4009.51 6068.53 64.80 5.00  14.60 3020.21
   05:26:53.800.03-Feb-2020 4009.51 6061.92 64.80 5.00  14.80 3020.21
   05:26:54.000.03-Feb-2020 4009.51 6066.63 64.79 5.00  15.00 3020.21
   05:26:54.200.03-Feb-2020 4009.51 6066.63 64.79 5.00  15.20 3020.21
   05:26:54.400.03-Feb-2020 4009.51 6069.20 64.79 5.00  15.40 3020.21
   05:26:54.600.03-Feb-2020 4009.51 6062.08 64.79 5.00  15.60 3020.21
   05:26:54.800.03-Feb-2020 4009.51 6067.89 64.79 5.00  15.80 3020.21
   05:26:55.000.03-Feb-2020 4009.51 6064.33 64.79 5.00  16.00 3020.21
   05:26:55.200.03-Feb-2020 4009.51 6064.33 64.79 5.00  16.20 3020.21
   05:26:55.400.03-Feb-2020 4009.51 6065.95 64.79 5.00  16.40 3020.21
   05:26:55.600.03-Feb-2020 4009.51 6061.14 64.79 5.00  16.60 3020.21
   05:26:55.800.03-Feb-2020 4009.51 6065.67 64.79 5.00  16.80 3020.21
   05:26:56.000.03-Feb-2020 4009.51 6069.32 64.79 5.00  17.00 3020.21
   05:26:56.200.03-Feb-2020 4009.51 6069.32 64.79 5.00  17.20 3020.21
   05:26:56.400.03-Feb-2020 4009.51 6066.55 64.79 5.00  17.40 3020.21
   05:26:56.600.03-Feb-2020 4009.51 6043.70 64.79 5.00  17.60 3020.21
   05:26:56.800.03-Feb-2020 4009.51 6061.74 64.79 5.00  17.80 3020.21
   05:26:57.000.03-Feb-2020 4009.51 6083.36 64.79 5.00  18.00 3020.21
   05:26:57.200.03-Feb-2020 4009.51 6083.36 64.79 5.00  18.20 3020.21
   05:26:57.400.03-Feb-2020 4009.51 6086.70 64.79 5.00  18.40 3020.21
   05:26:57.600.03-Feb-2020 4009.51 6084.87 64.79 5.00  18.60 3020.21
   05:26:57.800.03-Feb-2020 4009.51 6085.98 64.79 5.00  18.80 3020.21
   05:26:58.000.03-Feb-2020 4009.51 6108.73 64.79 5.00  19.00 3020.21
   05:26:58.200.03-Feb-2020 4009.51 6108.73 64.79 5.00  19.20 3020.21
   05:26:58.400.03-Feb-2020 4009.51 6164.50 64.79 5.00  19.40 3020.21
   05:26:58.600.03-Feb-2020 4009.51 6179.85 64.79 5.00  19.60 3020.21
   05:26:58.800.03-Feb-2020 4009.51 6166.83 64.79 5.00  19.80 3020.21
   05:26:59.000.03-Feb-2020 4009.51 6154.06 64.79 5.00  20.00 3020.21
   05:26:59.200.03-Feb-2020 4009.51 6154.06 64.79 5.00  20.20 3020.21
   05:26:59.400.03-Feb-2020 4009.51 6126.24 64.79 5.00  20.40 3020.21
   05:26:59.600.03-Feb-2020 4009.51 6135.34 64.79 5.00  20.60 3020.21
   05:26:59.800.03-Feb-2020 4009.51 6183.56 64.79 5.00  20.80 3020.21
   05:27:00.000.03-Feb-2020 4009.51 6199.08 64.79 5.00  21.00 3020.21
   05:27:00.200.03-Feb-2020 4009.51 6199.08 64.79 5.00  21.20 3020.21
   05:27:00.400.03-Feb-2020 4009.51 6249.24 64.78 5.00  21.40 3020.21
   05:27:00.600.03-Feb-2020 4009.51 6294.15 64.78 5.00  21.60 3020.21
   05:27:00.800.03-Feb-2020 4009.51 6371.04 64.78 5.00  21.80 3020.21
   05:27:01.000.03-Feb-2020 4009.51 6506.01 64.78 5.00  22.00 3020.21
   05:27:01.200.03-Feb-2020 4009.51 6506.01 64.78 5.00  22.20 3020.21
   05:27:01.400.03-Feb-2020 4009.51 6794.29 64.78 5.00  22.40 3020.21
   05:27:01.600.03-Feb-2020 4009.51 6791.52 64.78 5.00  22.60 3020.21
   05:27:01.800.03-Feb-2020 4009.51 6604.62 64.78 5.00  22.80 3020.21
