~Version Information
 VERS.                  2.0:   CWLS log ASCII Standard -VERSION 2.0
 WRAP.                   NO:   One line per depth step
~Well Information Block
#MNEM.UNIT     VALUE/NAME     DESCRIPTION
#---------     -----------    ---------------------------
 STRT.S             06:17:54 03-Feb-20: START TIME 06:17:54 03-Feb-20
 STOP.S             06:25:43 03-Feb-20: STOP TIME  06:25:43 03-Feb-20
 STEP.S                   0.00: STEP TIME
 NULL.                 -999.25: NULL VALUE
 DFWT.                        :  DIST FWL TEXT
 DFST.                        :  DIST FSL TEXT
 DMF .             Drill Floor:  DRILL MEAS FROM
 STIM.      09.30.00 26-Dec-19:  START TIME
 DATE.      08.00.00 20-Jan-20:  END TIME
 SPUD.               23-Nov-19:  SPUD DATE
 NREF.                    Grid:  NORTH REFERENCE
 HPTY.       Minimum Curvature:  HOLE POS TYPE
 DMOD.             Drill Model:  DRILL MOD DESC
 SVYD.                  Survey:  SURVEY DESC
 ILTD.               Lithology:  INTERP LTH DESC
 FTOP.          Formation Tops:  FORM TOPS DESC
 SON .        AZ-XX-0906192647:  JOB NUMBER
 WTYP.                Deviated:  WELL TYPE
 COMP.     BP Exploration (Caspian Sea) Ltd:  COMPANY
 BASE.              Azerbaijan:  LOGGING EQUIPMENT BASE LOCATION
 REGN.                 Eurasia:  REGION
 FLD .                     ACG:  FIELD NAME
 SRVC.              KCA Deutag:  CONTRACTOR
 MWDS.                    Baku:  MWD SHOP
 WELL.     A10 (Slot 20) - SCP:  WELL NAME
 JOBN.        AZ-XX-0906192647:  JOB TICKET NUMB
 RIG .                 Chirag1:  RIG NAME
 DCON.     Halliburton Sperry Drilling:  DIRECTNL CONTR
 UNIT.                     N/A:  LOGGING EQUIPMENT ID
 PDAT.          Mean Sea Level:  PERMANENT DATUM
 MDS .        Operator Entered:  MAG DATA SOURCE
 CTRY.              Azerbaijan:  COUNTRY NAME
 UWI .            /AZE00000090:  UNIQUE WELL IDENTIFIER
 API .            /AZE00000090:  API NUMBER
 CNTY.                        :  COUNTY
 PROV.                        :  PROVINCE
 STAT.                        :  STATE
 LOC .                        :  LOCATION
 LMF .             Drill Floor:  LOG MEASURED FROM
 TVDS.m                  36.60:  TVDSS CORRECTN
 LATI.deg                40.08:  LATITUDE
 LONG.deg                51.24:  LONGITUDE
 WHNS.m                  -7.94:  WELL HEAD N/S
 WHEW.m                   1.56:  WELL HEAD E/W
 UTMX.m              520429.26:  UTM X
 UTMY.m             4438973.87:  UTM Y
 DFWL.m                   0.00:  DISTANCE FWL
 DFSL.m                   0.00:  DISTANCE FSL
 SDEP.m                1455.00:  START DEPTH
 TDD .m                4047.51:  TOTAL DEPTH (DRILLER)
 VSDR.deg               112.75:  VERT SEC DIRECT
 GVFD.g                   1.00:  GRAVITY FIELD
 MFLD.nT              50261.00:  MAGNETIC FIELD
 MDIP.deg                59.52:  MAGNETIC DIP
 MDEC.deg                 6.42:  MAGNETIC DECL
 GRDC.deg                 0.17:  GRID CORRECTION
 AZTC.deg                 6.25:  AZM TOTAL CORR
 EPD .m                   0.00:  ELEVATION
 EGL .m                   0.00:  GROUND ELEVATION
 WDMS.m                 121.00:  WD ELEV
 APD .m                  36.60:  DEPTH ABOVE PD
 AGAP.m                  36.60:  AIR GAP
 VSEW.m                   1.56:  VERT SEC E/W
 VSNS.m                  -7.94:  VERT SEC N/S
 DEP .m                1140.01:  DEPTH
 EKB .m                  36.60:  KB ELEVATION
 EDF .m                  36.60:  DF ELEVATION
 VSC .                       0:  VS TO CLOSURE
 MAGU.                 1849206:  MAGUTM CHECKSUM
~Parameter Information Block
#MNEM.UNIT       Value        Description
#---------     -----------    ---------------------------
 AV  .mps                 1.70:  Ann Velocity 
 AVMX.mps                 2.30:  Max Ann Veloc 
 AZIF.deg               137.03:  Azm, Final 
 BHAT.                   Other:  BHA Type 
 BROT.°/30m               0.80:  Build Rotating 
 BS  .in                  8.00:  Bit Size 
 BTPL.psig              161.00:  Bit Press Loss 
 CABU.                      No:  Customer Abuse 
 COMM.                     4•z:  Run Comments 1 
 TCS .hr                  9.59:  Time Ciculation Ended 
 CV  .mps                 3.76:  Crit Velocity 
 CVMX.mps                 4.26:  Max Crit Veloc 
 DD1 .         Intigam Rahimov:  Direct Drillr 1 
 DD2 .          Rashad Gojayev:  Direct Drillr 2 
 DDSV.                   Other:  DD Service 
 DEFF.%                 100.00:  % Det Eff 
 DLRX.°/30m               1.44:  Dogleg Rot Max 
 DLSO.°/30m               0.00:  Dogleg Oriented 
 DLSX.°/30m               0.00:  Dogleg Str Max 
 DRET.      03.31.12 02-Feb-20:  Drill End Time 
 DRST.      03.31.12 02-Feb-20:  Drill Start Tim 
 DTIM.hr                  1.99:  Time Drilling 
 EDEP.m                4047.51:  End Depth 
 ENG1.           Eldar Hajiyev:  Engineer 1 
 ENG2.          Rasim Hashimov:  Engineer 2 
 ENG3.          Rustam Safarov:  Engineer 3 
 ETIM.      03.31.12 02-Feb-20:  End Time 
 FLOI.gpm               300.00:  Flow In 
 FLON.gpm               250.00:  Flow In Min 
 FLOS.cptm                0.00:  Fluid Loss 
 FLOX.gpm               330.00:  Flow In Max 
 HFLO.                      No:  High Flow 
 HPRE.                      No:  High Pressure 
 HTEM.                      No:  High Temp 
 HYDO.m                   2.50:  Hydro Offset 
 IFIN.deg                39.54:  Inc, Final 
 IMAX.deg                41.14:  Inc Max 
 IMIN.deg                39.81:  Inc Min 
 IMND.m                4005.21:  Inc Min Depth 
 IMXD.m                3948.42:  Inc Max Depth 
 JARR.                      No:  Jarring 
 LETM.      03.31.12 02-Feb-20:  Log End Time 
 LOST.hr                     0:  Lost Rig Time 
 LSTM.      03.31.12 02-Feb-20:  Log Start Time 
 MDCL.ppm             35000.00:  Mud Chlorides 
 MDES.     Inversion Oil/Synthetic:  Mud Desc 
 DFD .sg                  1.32:  Mud Density 
 MDMN.sg                  1.32:  Dens Mud Min 
 MDMX.sg                  1.32:  Dens Mud Max 
 MOIL.                      59:  Run Mud Oil % 
 MOWR.                   71:29:  Run Mud OWR 
 MSND.                       0:  Run Mud Sand % 
 MSOL.                      17:  Run Mud Solids% 
 DFV .spqt               86.00:  Mud Viscosity 
 MWOD.in                  4.75:  MWD Tool OD 
 MWSI.                      No:  Serv Intrp, MWD 
 OTIM.hr                 46.72:  Time Operating 
 PCON.           Look Like New:  Pad Condition 
 PMAX.psia             3300.00:  Press Op, Max 
 PV  .cP                 30.00:  Mud PV 
 RUN .                     400:  Run Number 
 ROPA.m/hr               35.00:  ROP Avg 
 ROPN.m/hr               25.00:  ROP Min 
 ROPX.m/hr               40.00:  ROP Max 
 RPMA.rpm                80.00:  RPM Surface Avg 
 RPMN.rpm                60.00:  RPM Surface Min 
 RPMX.rpm               100.00:  RPM Surface Max 
 RRUN.                     400:  Rig Run Number 
 RTIM.hr                  1.99:  Time Reaming 
 SAZI.deg               133.93:  Azm, Start 
 SDEP.m                4047.51:  Start Depth 
 SIDD.                      No:  Serv Intrp, DD 
 SINC.deg                40.28:  Inc, Start 
 SPPA.psig             3250.00:  SPP Avg 
 SPPN.psig             3200.00:  SPP Min 
 SPPX.psig             3300.00:  SPP Max 
 STIM.      03.31.12 02-Feb-20:  Start Time 
 SVCS.                 DD, MWD:  Services 
 SVER.                    9.20:  Sperry Version 
 TDAT.m                  47.00:  Tot Depth Attmp 
 TDDF.                      No:  Trip for DD 
 TFF .                      No:  Trip for Fail 
 TQAA.f-kp                0.00:  Torque Abs Avg 
 TQAN.f-kp                0.00:  Torque Abs Min 
 TQAX.f-kp                0.00:  Torque Abs Max 
 TRRT.°/30m               0.70:  Turn Rotating 
 MRT .                    HCIM:  Maximum Recorded Temperature 
 TTMX.degC               70.59:  Max Tool Temp 
 VS01.             90598770F11:  Virtual Str1 SN 
 VS02.             90598769F11:  Virtual Str2 SN 
 VS03.            90515978Z1W1:  Virtual Str3 SN 
 VS04.          90584144R12X14:  Virtual Str4 SN 
 WBMN.klb                 0.00:  WOB Min 
 WITN.            Peter Wilson:  Customer Rep 
 WOBA.klb                 0.00:  WOB Avg 
 WOBX.klb                 0.00:  WOB Max 
 YP  .lhf2               29.00:  Yield Point 
~Curve Information Block
#MNEM.UNIT                 API CODE     Curve Description
#---------               -----------    ---------------------------
 TIME.HHMMSS            00 000 000 000:  GT Time & Date
 GTDEPTH.m              00 000 000 000:  GT Depth
 GTPQH.psia             00 000 000 000:  GT HR Quartz Pressure
 GTTQ.degC              00 000 000 000:  GT Quartz Temperature
 GTTN.NONE              00 000 000 000:  GT Test Number
 GTET.sec               00 000 000 000:  GT Elapsed Test Time
 GTTVD.m                00 000 000 000:  GT True Vertical Depth
#Other Information
#
#WARRANTY: Halliburton will use its best efforts to furnish customers with 
#accurate information and interpretations that are part of, and incident to, the services 
#provided.  However, Halliburton cannot and does not warrant the accuracy 
#or correctness of such information and interpretations.  Under no circumstances should any 
#such information or interpretation be relied upon as the sole basis for any drilling, 
#completion, production, or financial decision or any procedure involving any risk to the 
#safety of any drilling venture, drilling rig or its crew or any other third party.  The 
#Customer has full responsibility for all drilling, completion and production operation.  
#Halliburton makes no representations or warranties, either expressed or 
#implied, including, but not limited to, the implied warranties of merchantability or fitness 
#for a particular purpose, with respect to the services rendered.  In no event will 
#Halliburton be liable for failure to obtain any particular results or for 
#any damages, including, but not limited to, indirect, special or consequential damages, 
#resulting from the use of any information or interpretation provided by Halliburton.
#
~A           TIME           GTDEPTH  GTPQH  GTTQ  GTTN  GTET   GTTVD  
# ...
   06:24:48.000.03-Feb-2020 4005.51  138.48 64.92 7.00 414.00 3017.14
   06:24:48.200.03-Feb-2020 4005.51  138.48 64.92 7.00 414.20 3017.14
   06:24:48.400.03-Feb-2020 4005.51  138.50 64.92 7.00 414.40 3017.14
   06:24:48.600.03-Feb-2020 4005.51  138.50 64.92 7.00 414.60 3017.14
   06:24:48.800.03-Feb-2020 4005.51  138.51 64.92 7.00 414.80 3017.14
   06:24:49.000.03-Feb-2020 4005.51  138.51 64.92 7.00 415.00 3017.14
   06:24:49.200.03-Feb-2020 4005.51  138.51 64.92 7.00 415.20 3017.14
   06:24:49.400.03-Feb-2020 4005.51  138.52 64.92 7.00 415.40 3017.14
   06:24:49.600.03-Feb-2020 4005.51  138.52 64.92 7.00 415.60 3017.14
   06:24:49.800.03-Feb-2020 4005.51  138.55 64.92 7.00 415.80 3017.14
   06:24:50.000.03-Feb-2020 4005.51  138.55 64.92 7.00 416.00 3017.14
   06:24:50.200.03-Feb-2020 4005.51  138.55 64.92 7.00 416.20 3017.14
   06:24:50.400.03-Feb-2020 4005.51  138.57 64.92 7.00 416.40 3017.14
   06:24:50.600.03-Feb-2020 4005.51  138.57 64.92 7.00 416.60 3017.14
   06:24:50.800.03-Feb-2020 4005.51  138.58 64.92 7.00 416.80 3017.14
   06:24:51.000.03-Feb-2020 4005.51  138.59 64.92 7.00 417.00 3017.14
   06:24:51.200.03-Feb-2020 4005.51  138.59 64.92 7.00 417.20 3017.14
   06:24:51.400.03-Feb-2020 4005.51  138.61 64.92 7.00 417.40 3017.14
   06:24:51.600.03-Feb-2020 4005.51  138.61 64.92 7.00 417.60 3017.14
   06:24:51.800.03-Feb-2020 4005.51  138.61 64.92 7.00 417.80 3017.14
   06:24:52.000.03-Feb-2020 4005.51  138.62 64.92 7.00 418.00 3017.14
   06:24:52.200.03-Feb-2020 4005.51  138.62 64.92 7.00 418.20 3017.14
   06:24:52.400.03-Feb-2020 4005.51  138.64 64.92 7.00 418.40 3017.14
   06:24:52.600.03-Feb-2020 4005.51  138.65 64.92 7.00 418.60 3017.14
   06:24:52.800.03-Feb-2020 4005.51  138.66 64.92 7.00 418.80 3017.14
   06:24:53.000.03-Feb-2020 4005.51  138.66 64.92 7.00 419.00 3017.14
   06:24:53.200.03-Feb-2020 4005.51  138.66 64.92 7.00 419.20 3017.14
   06:24:53.400.03-Feb-2020 4005.51  138.66 64.92 7.00 419.40 3017.14
   06:24:53.600.03-Feb-2020 4005.51  138.68 64.92 7.00 419.60 3017.14
   06:24:53.800.03-Feb-2020 4005.51  138.69 64.92 7.00 419.80 3017.14
   06:24:54.000.03-Feb-2020 4005.51  138.69 64.92 7.00 420.00 3017.14
   06:24:54.200.03-Feb-2020 4005.51  138.69 64.92 7.00 420.20 3017.14
   06:24:54.400.03-Feb-2020 4005.51  138.71 64.92 7.00 420.40 3017.14
   06:24:54.600.03-Feb-2020 4005.51  138.72 64.92 7.00 420.60 3017.14
   06:24:54.800.03-Feb-2020 4005.51  138.73 64.92 7.00 420.80 3017.14
   06:24:55.000.03-Feb-2020 4005.51  138.73 64.92 7.00 421.00 3017.14
   06:24:55.200.03-Feb-2020 4005.51  138.73 64.92 7.00 421.20 3017.14
   06:24:55.400.03-Feb-2020 4005.51  138.75 64.92 7.00 421.40 3017.14
   06:24:55.600.03-Feb-2020 4005.51  138.75 64.92 7.00 421.60 3017.14
   06:24:55.800.03-Feb-2020 4005.51  138.77 64.92 7.00 421.80 3017.14
   06:24:56.000.03-Feb-2020 4005.51  138.77 64.92 7.00 422.00 3017.14
   06:24:56.200.03-Feb-2020 4005.51  138.78 64.92 7.00 422.20 3017.14
   06:24:56.400.03-Feb-2020 4005.51  138.78 64.92 7.00 422.40 3017.14
   06:24:56.600.03-Feb-2020 4005.51  138.79 64.92 7.00 422.60 3017.14
   06:24:56.800.03-Feb-2020 4005.51  138.80 64.92 7.00 422.80 3017.14
   06:24:57.000.03-Feb-2020 4005.51  138.80 64.91 7.00 423.00 3017.14
   06:24:57.200.03-Feb-2020 4005.51  138.80 64.92 7.00 423.20 3017.14
   06:24:57.400.03-Feb-2020 4005.51  138.81 64.91 7.00 423.40 3017.14
   06:24:57.600.03-Feb-2020 4005.51  138.82 64.91 7.00 423.60 3017.14
   06:24:57.800.03-Feb-2020 4005.51  138.83 64.91 7.00 423.80 3017.14
   06:24:58.000.03-Feb-2020 4005.51  138.84 64.91 7.00 424.00 3017.14
   06:24:58.200.03-Feb-2020 4005.51  138.84 64.91 7.00 424.20 3017.14
   06:24:58.400.03-Feb-2020 4005.51  138.86 64.91 7.00 424.40 3017.14
   06:24:58.600.03-Feb-2020 4005.51  138.86 64.91 7.00 424.60 3017.14
   06:24:58.800.03-Feb-2020 4005.51  138.87 64.91 7.00 424.80 3017.14
   06:24:59.000.03-Feb-2020 4005.51  138.88 64.91 7.00 425.00 3017.14
   06:24:59.200.03-Feb-2020 4005.51  138.88 64.91 7.00 425.20 3017.14
   06:24:59.400.03-Feb-2020 4005.51  138.89 64.91 7.00 425.40 3017.14
   06:24:59.600.03-Feb-2020 4005.51  138.89 64.91 7.00 425.60 3017.14
   06:24:59.800.03-Feb-2020 4005.51  138.90 64.91 7.00 425.80 3017.14
   06:25:00.000.03-Feb-2020 4005.51  138.91 64.91 7.00 426.00 3017.14
   06:25:00.200.03-Feb-2020 4005.51  138.92 64.91 7.00 426.20 3017.14
   06:25:00.400.03-Feb-2020 4005.51  138.93 64.91 7.00 426.40 3017.14
   06:25:00.600.03-Feb-2020 4005.51  138.93 64.91 7.00 426.60 3017.14
   06:25:00.800.03-Feb-2020 4005.51  138.94 64.91 7.00 426.80 3017.14
   06:25:01.000.03-Feb-2020 4005.51  138.95 64.91 7.00 427.00 3017.14
   06:25:01.200.03-Feb-2020 4005.51  138.95 64.91 7.00 427.20 3017.14
   06:25:01.400.03-Feb-2020 4005.51  138.96 64.91 7.00 427.40 3017.14
   06:25:01.600.03-Feb-2020 4005.51  138.96 64.91 7.00 427.60 3017.14
   06:25:01.800.03-Feb-2020 4005.51  138.98 64.91 7.00 427.80 3017.14
   06:25:02.000.03-Feb-2020 4005.51  138.98 64.91 7.00 428.00 3017.14
   06:25:02.200.03-Feb-2020 4005.51  138.98 64.91 7.00 428.20 3017.14
   06:25:02.400.03-Feb-2020 4005.51  138.99 64.91 7.00 428.40 3017.14
   06:25:02.600.03-Feb-2020 4005.51  138.99 64.91 7.00 428.60 3017.14
   06:25:02.800.03-Feb-2020 4005.51  139.01 64.91 7.00 428.80 3017.14
   06:25:03.000.03-Feb-2020 4005.51  139.02 64.91 7.00 429.00 3017.14
   06:25:03.200.03-Feb-2020 4005.51  139.02 64.91 7.00 429.20 3017.14
   06:25:03.400.03-Feb-2020 4005.51  139.02 64.91 7.00 429.40 3017.14
   06:25:03.600.03-Feb-2020 4005.51  139.03 64.91 7.00 429.60 3017.14
   06:25:03.800.03-Feb-2020 4005.51  139.04 64.91 7.00 429.80 3017.14
   06:25:04.000.03-Feb-2020 4005.51  139.05 64.91 7.00 430.00 3017.14
   06:25:04.200.03-Feb-2020 4005.51  139.06 64.91 7.00 430.20 3017.14
   06:25:04.400.03-Feb-2020 4005.51  139.06 64.91 7.00 430.40 3017.14
   06:25:04.600.03-Feb-2020 4005.51  139.07 64.91 7.00 430.60 3017.14
   06:25:04.800.03-Feb-2020 4005.51  139.07 64.91 7.00 430.80 3017.14
   06:25:05.000.03-Feb-2020 4005.51  139.08 64.91 7.00 431.00 3017.14
   06:25:05.200.03-Feb-2020 4005.51  139.09 64.91 7.00 431.20 3017.14
   06:25:05.400.03-Feb-2020 4005.51  139.09 64.91 7.00 431.40 3017.14
   06:25:05.600.03-Feb-2020 4005.51  139.10 64.91 7.00 431.60 3017.14
   06:25:05.800.03-Feb-2020 4005.51  139.10 64.91 7.00 431.80 3017.14
   06:25:06.000.03-Feb-2020 4005.51  139.12 64.91 7.00 432.00 3017.14
   06:25:06.200.03-Feb-2020 4005.51  139.12 64.91 7.00 432.20 3017.14
   06:25:06.400.03-Feb-2020 4005.51  139.13 64.91 7.00 432.40 3017.14
   06:25:06.600.03-Feb-2020 4005.51  139.12 64.91 7.00 432.60 3017.14
   06:25:06.800.03-Feb-2020 4005.51  139.14 64.91 7.00 432.80 3017.14
   06:25:07.000.03-Feb-2020 4005.51  139.15 64.91 7.00 433.00 3017.14
   06:25:07.200.03-Feb-2020 4005.51  139.15 64.91 7.00 433.20 3017.14
   06:25:07.400.03-Feb-2020 4005.51  139.16 64.91 7.00 433.40 3017.14
   06:25:07.600.03-Feb-2020 4005.51  139.16 64.91 7.00 433.60 3017.14
   06:25:07.800.03-Feb-2020 4005.51  139.16 64.91 7.00 433.80 3017.14
   06:25:08.000.03-Feb-2020 4005.51  139.17 64.91 7.00 434.00 3017.14
   06:25:08.200.03-Feb-2020 4005.51  139.17 64.91 7.00 434.20 3017.14
   06:25:08.400.03-Feb-2020 4005.51  139.19 64.91 7.00 434.40 3017.14
   06:25:08.600.03-Feb-2020 4005.51  139.20 64.91 7.00 434.60 3017.14
   06:25:08.800.03-Feb-2020 4005.51  139.20 64.91 7.00 434.80 3017.14
   06:25:09.000.03-Feb-2020 4005.51  139.21 64.91 7.00 435.00 3017.14
   06:25:09.200.03-Feb-2020 4005.51  139.22 64.91 7.00 435.20 3017.14
   06:25:09.400.03-Feb-2020 4005.51  139.23 64.91 7.00 435.40 3017.14
   06:25:09.600.03-Feb-2020 4005.51  139.24 64.91 7.00 435.60 3017.14
   06:25:09.800.03-Feb-2020 4005.51  139.24 64.91 7.00 435.80 3017.14
   06:25:10.000.03-Feb-2020 4005.51  139.25 64.91 7.00 436.00 3017.14
   06:25:10.200.03-Feb-2020 4005.51  139.25 64.91 7.00 436.20 3017.14
   06:25:10.400.03-Feb-2020 4005.51  139.25 64.91 7.00 436.40 3017.14
   06:25:10.600.03-Feb-2020 4005.51  139.26 64.91 7.00 436.60 3017.14
   06:25:10.800.03-Feb-2020 4005.51  139.26 64.91 7.00 436.80 3017.14
