~Version Information
 VERS.                  2.0:   CWLS log ASCII Standard -VERSION 2.0
 WRAP.                   NO:   One line per depth step
~Well Information Block
#MNEM.UNIT     VALUE/NAME     DESCRIPTION
#---------     -----------    ---------------------------
 STRT.S             05:26:39 03-Feb-20: START TIME 05:26:39 03-Feb-20
 STOP.S             05:34:31 03-Feb-20: STOP TIME  05:34:31 03-Feb-20
 STEP.S                   0.00: STEP TIME
 NULL.                 -999.25: NULL VALUE
 DFWT.                        :  DIST FWL TEXT
 DFST.                        :  DIST FSL TEXT
 DMF .             Drill Floor:  DRILL MEAS FROM
 STIM.      09.30.00 26-Dec-19:  START TIME
 DATE.      08.00.00 20-Jan-20:  END TIME
 SPUD.               23-Nov-19:  SPUD DATE
 NREF.                    Grid:  NORTH REFERENCE
 HPTY.       Minimum Curvature:  HOLE POS TYPE
 DMOD.             Drill Model:  DRILL MOD DESC
 SVYD.                  Survey:  SURVEY DESC
 ILTD.               Lithology:  INTERP LTH DESC
 FTOP.          Formation Tops:  FORM TOPS DESC
 SON .        AZ-XX-0906192647:  JOB NUMBER
 WTYP.                Deviated:  WELL TYPE
 COMP.     BP Exploration (Caspian Sea) Ltd:  COMPANY
 BASE.              Azerbaijan:  LOGGING EQUIPMENT BASE LOCATION
 REGN.                 Eurasia:  REGION
 FLD .                     ACG:  FIELD NAME
 SRVC.              KCA Deutag:  CONTRACTOR
 MWDS.                    Baku:  MWD SHOP
 WELL.     A10 (Slot 20) - SCP:  WELL NAME
 JOBN.        AZ-XX-0906192647:  JOB TICKET NUMB
 RIG .                 Chirag1:  RIG NAME
 DCON.     Halliburton Sperry Drilling:  DIRECTNL CONTR
 UNIT.                     N/A:  LOGGING EQUIPMENT ID
 PDAT.          Mean Sea Level:  PERMANENT DATUM
 MDS .        Operator Entered:  MAG DATA SOURCE
 CTRY.              Azerbaijan:  COUNTRY NAME
 UWI .            /AZE00000090:  UNIQUE WELL IDENTIFIER
 API .            /AZE00000090:  API NUMBER
 CNTY.                        :  COUNTY
 PROV.                        :  PROVINCE
 STAT.                        :  STATE
 LOC .                        :  LOCATION
 LMF .             Drill Floor:  LOG MEASURED FROM
 TVDS.m                  36.60:  TVDSS CORRECTN
 LATI.deg                40.08:  LATITUDE
 LONG.deg                51.24:  LONGITUDE
 WHNS.m                  -7.94:  WELL HEAD N/S
 WHEW.m                   1.56:  WELL HEAD E/W
 UTMX.m              520429.26:  UTM X
 UTMY.m             4438973.87:  UTM Y
 DFWL.m                   0.00:  DISTANCE FWL
 DFSL.m                   0.00:  DISTANCE FSL
 SDEP.m                1455.00:  START DEPTH
 TDD .m                4047.51:  TOTAL DEPTH (DRILLER)
 VSDR.deg               112.75:  VERT SEC DIRECT
 GVFD.g                   1.00:  GRAVITY FIELD
 MFLD.nT              50261.00:  MAGNETIC FIELD
 MDIP.deg                59.52:  MAGNETIC DIP
 MDEC.deg                 6.42:  MAGNETIC DECL
 GRDC.deg                 0.17:  GRID CORRECTION
 AZTC.deg                 6.25:  AZM TOTAL CORR
 EPD .m                   0.00:  ELEVATION
 EGL .m                   0.00:  GROUND ELEVATION
 WDMS.m                 121.00:  WD ELEV
 APD .m                  36.60:  DEPTH ABOVE PD
 AGAP.m                  36.60:  AIR GAP
 VSEW.m                   1.56:  VERT SEC E/W
 VSNS.m                  -7.94:  VERT SEC N/S
 DEP .m                1140.01:  DEPTH
 EKB .m                  36.60:  KB ELEVATION
 EDF .m                  36.60:  DF ELEVATION
 VSC .                       0:  VS TO CLOSURE
 MAGU.                 1849206:  MAGUTM CHECKSUM
~Parameter Information Block
#MNEM.UNIT       Value        Description
#---------     -----------    ---------------------------
 AV  .mps                 1.70:  Ann Velocity 
 AVMX.mps                 2.30:  Max Ann Veloc 
 AZIF.deg               137.03:  Azm, Final 
 BHAT.                   Other:  BHA Type 
 BROT.°/30m               0.80:  Build Rotating 
 BS  .in                  8.00:  Bit Size 
 BTPL.psig              161.00:  Bit Press Loss 
 CABU.                      No:  Customer Abuse 
 COMM.                     ¬]P:  Run Comments 1 
 TCS .hr                  9.59:  Time Ciculation Ended 
 CV  .mps                 3.76:  Crit Velocity 
 CVMX.mps                 4.26:  Max Crit Veloc 
 DD1 .         Intigam Rahimov:  Direct Drillr 1 
 DD2 .          Rashad Gojayev:  Direct Drillr 2 
 DDSV.                   Other:  DD Service 
 DEFF.%                 100.00:  % Det Eff 
 DLRX.°/30m               1.44:  Dogleg Rot Max 
 DLSO.°/30m               0.00:  Dogleg Oriented 
 DLSX.°/30m               0.00:  Dogleg Str Max 
 DRET.      03.31.12 02-Feb-20:  Drill End Time 
 DRST.      03.31.12 02-Feb-20:  Drill Start Tim 
 DTIM.hr                  1.99:  Time Drilling 
 EDEP.m                4047.51:  End Depth 
 ENG1.           Eldar Hajiyev:  Engineer 1 
 ENG2.          Rasim Hashimov:  Engineer 2 
 ENG3.          Rustam Safarov:  Engineer 3 
 ETIM.      03.31.12 02-Feb-20:  End Time 
 FLOI.gpm               300.00:  Flow In 
 FLON.gpm               250.00:  Flow In Min 
 FLOS.cptm                0.00:  Fluid Loss 
 FLOX.gpm               330.00:  Flow In Max 
 HFLO.                      No:  High Flow 
 HPRE.                      No:  High Pressure 
 HTEM.                      No:  High Temp 
 HYDO.m                   2.50:  Hydro Offset 
 IFIN.deg                39.54:  Inc, Final 
 IMAX.deg                41.14:  Inc Max 
 IMIN.deg                39.81:  Inc Min 
 IMND.m                4005.21:  Inc Min Depth 
 IMXD.m                3948.42:  Inc Max Depth 
 JARR.                      No:  Jarring 
 LETM.      03.31.12 02-Feb-20:  Log End Time 
 LOST.hr                     0:  Lost Rig Time 
 LSTM.      03.31.12 02-Feb-20:  Log Start Time 
 MDCL.ppm             35000.00:  Mud Chlorides 
 MDES.     Inversion Oil/Synthetic:  Mud Desc 
 DFD .sg                  1.32:  Mud Density 
 MDMN.sg                  1.32:  Dens Mud Min 
 MDMX.sg                  1.32:  Dens Mud Max 
 MOIL.                      59:  Run Mud Oil % 
 MOWR.                   71:29:  Run Mud OWR 
 MSND.                       0:  Run Mud Sand % 
 MSOL.                      17:  Run Mud Solids% 
 DFV .spqt               86.00:  Mud Viscosity 
 MWOD.in                  4.75:  MWD Tool OD 
 MWSI.                      No:  Serv Intrp, MWD 
 OTIM.hr                 46.72:  Time Operating 
 PCON.           Look Like New:  Pad Condition 
 PMAX.psia             3300.00:  Press Op, Max 
 PV  .cP                 30.00:  Mud PV 
 RUN .                     400:  Run Number 
 ROPA.m/hr               35.00:  ROP Avg 
 ROPN.m/hr               25.00:  ROP Min 
 ROPX.m/hr               40.00:  ROP Max 
 RPMA.rpm                80.00:  RPM Surface Avg 
 RPMN.rpm                60.00:  RPM Surface Min 
 RPMX.rpm               100.00:  RPM Surface Max 
 RRUN.                     400:  Rig Run Number 
 RTIM.hr                  1.99:  Time Reaming 
 SAZI.deg               133.93:  Azm, Start 
 SDEP.m                4047.51:  Start Depth 
 SIDD.                      No:  Serv Intrp, DD 
 SINC.deg                40.28:  Inc, Start 
 SPPA.psig             3250.00:  SPP Avg 
 SPPN.psig             3200.00:  SPP Min 
 SPPX.psig             3300.00:  SPP Max 
 STIM.      03.31.12 02-Feb-20:  Start Time 
 SVCS.                 DD, MWD:  Services 
 SVER.                    9.20:  Sperry Version 
 TDAT.m                  47.00:  Tot Depth Attmp 
 TDDF.                      No:  Trip for DD 
 TFF .                      No:  Trip for Fail 
 TQAA.f-kp                0.00:  Torque Abs Avg 
 TQAN.f-kp                0.00:  Torque Abs Min 
 TQAX.f-kp                0.00:  Torque Abs Max 
 TRRT.°/30m               0.70:  Turn Rotating 
 MRT .                    HCIM:  Maximum Recorded Temperature 
 TTMX.degC               70.59:  Max Tool Temp 
 VS01.             90598770F11:  Virtual Str1 SN 
 VS02.             90598769F11:  Virtual Str2 SN 
 VS03.            90515978Z1W1:  Virtual Str3 SN 
 VS04.          90584144R12X14:  Virtual Str4 SN 
 WBMN.klb                 0.00:  WOB Min 
 WITN.            Peter Wilson:  Customer Rep 
 WOBA.klb                 0.00:  WOB Avg 
 WOBX.klb                 0.00:  WOB Max 
 YP  .lhf2               29.00:  Yield Point 
~Curve Information Block
#MNEM.UNIT                 API CODE     Curve Description
#---------               -----------    ---------------------------
 TIME.HHMMSS            00 000 000 000:  GT Time & Date
 GTDEPTH.m              00 000 000 000:  GT Depth
 GTPQH.psia             00 000 000 000:  GT HR Quartz Pressure
 GTTQ.degC              00 000 000 000:  GT Quartz Temperature
 GTTN.NONE              00 000 000 000:  GT Test Number
 GTET.sec               00 000 000 000:  GT Elapsed Test Time
 GTTVD.m                00 000 000 000:  GT True Vertical Depth
#Other Information
#
#WARRANTY: Halliburton will use its best efforts to furnish customers with 
#accurate information and interpretations that are part of, and incident to, the services 
#provided.  However, Halliburton cannot and does not warrant the accuracy 
#or correctness of such information and interpretations.  Under no circumstances should any 
#such information or interpretation be relied upon as the sole basis for any drilling, 
#completion, production, or financial decision or any procedure involving any risk to the 
#safety of any drilling venture, drilling rig or its crew or any other third party.  The 
#Customer has full responsibility for all drilling, completion and production operation.  
#Halliburton makes no representations or warranties, either expressed or 
#implied, including, but not limited to, the implied warranties of merchantability or fitness 
#for a particular purpose, with respect to the services rendered.  In no event will 
#Halliburton be liable for failure to obtain any particular results or for 
#any damages, including, but not limited to, indirect, special or consequential damages, 
#resulting from the use of any information or interpretation provided by Halliburton.
#
~A           TIME           GTDEPTH  GTPQH  GTTQ  GTTN  GTET   GTTVD  
# ...
   05:31:38.000.03-Feb-2020 4009.51 3111.38 64.55 5.00 299.00 3020.21
   05:31:38.200.03-Feb-2020 4009.51 3111.38 64.55 5.00 299.20 3020.21
   05:31:38.400.03-Feb-2020 4009.51 3111.03 64.55 5.00 299.40 3020.21
   05:31:38.600.03-Feb-2020 4009.51 3111.33 64.55 5.00 299.60 3020.21
   05:31:38.800.03-Feb-2020 4009.51 3111.05 64.55 5.00 299.80 3020.21
   05:31:39.000.03-Feb-2020 4009.51 3111.34 64.55 5.00 300.00 3020.21
   05:31:39.200.03-Feb-2020 4009.51 3111.34 64.55 5.00 300.20 3020.21
   05:31:39.400.03-Feb-2020 4009.51 3111.37 64.55 5.00 300.40 3020.21
   05:31:39.600.03-Feb-2020 4009.51 3111.36 64.55 5.00 300.60 3020.21
   05:31:39.800.03-Feb-2020 4009.51 3111.34 64.55 5.00 300.80 3020.21
   05:31:40.000.03-Feb-2020 4009.51 3111.36 64.55 5.00 301.00 3020.21
   05:31:40.200.03-Feb-2020 4009.51 3111.36 64.55 5.00 301.20 3020.21
   05:31:40.400.03-Feb-2020 4009.51 3111.45 64.55 5.00 301.40 3020.21
   05:31:40.600.03-Feb-2020 4009.51 3111.46 64.55 5.00 301.60 3020.21
   05:31:40.800.03-Feb-2020 4009.51 3111.41 64.55 5.00 301.80 3020.21
   05:31:41.000.03-Feb-2020 4009.51 3111.08 64.55 5.00 302.00 3020.21
   05:31:41.200.03-Feb-2020 4009.51 3111.08 64.55 5.00 302.20 3020.21
   05:31:41.400.03-Feb-2020 4009.51 3111.39 64.55 5.00 302.40 3020.21
   05:31:41.600.03-Feb-2020 4009.51 3111.54 64.55 5.00 302.60 3020.21
   05:31:41.800.03-Feb-2020 4009.51 3111.49 64.55 5.00 302.80 3020.21
   05:31:42.000.03-Feb-2020 4009.51 3111.11 64.55 5.00 303.00 3020.21
   05:31:42.200.03-Feb-2020 4009.51 3111.11 64.55 5.00 303.20 3020.21
   05:31:42.400.03-Feb-2020 4009.51 3111.33 64.55 5.00 303.40 3020.21
   05:31:42.600.03-Feb-2020 4009.51 3111.57 64.55 5.00 303.60 3020.21
   05:31:42.800.03-Feb-2020 4009.51 3111.50 64.55 5.00 303.80 3020.21
   05:31:43.000.03-Feb-2020 4009.51 3111.11 64.55 5.00 304.00 3020.21
   05:31:43.200.03-Feb-2020 4009.51 3111.11 64.55 5.00 304.20 3020.21
   05:31:43.400.03-Feb-2020 4009.51 3111.47 64.55 5.00 304.40 3020.21
   05:31:43.600.03-Feb-2020 4009.51 3111.51 64.55 5.00 304.60 3020.21
   05:31:43.800.03-Feb-2020 4009.51 3111.12 64.55 5.00 304.80 3020.21
   05:31:44.000.03-Feb-2020 4009.51 3111.53 64.55 5.00 305.00 3020.21
   05:31:44.200.03-Feb-2020 4009.51 3111.53 64.55 5.00 305.20 3020.21
   05:31:44.400.03-Feb-2020 4009.51 2684.98 64.55 5.00 305.40 3020.21
   05:31:44.600.03-Feb-2020 4009.51 2279.72 64.55 5.00 305.60 3020.21
   05:31:44.800.03-Feb-2020 4009.51 1957.39 64.55 5.00 305.80 3020.21
   05:31:45.000.03-Feb-2020 4009.51 1671.53 64.55 5.00 306.00 3020.21
   05:31:45.200.03-Feb-2020 4009.51 1671.53 64.55 5.00 306.20 3020.21
   05:31:45.400.03-Feb-2020 4009.51 1148.87 64.54 5.00 306.40 3020.21
   05:31:45.600.03-Feb-2020 4009.51  915.62 64.54 5.00 306.60 3020.21
   05:31:45.800.03-Feb-2020 4009.51  705.73 64.54 5.00 306.80 3020.21
   05:31:46.000.03-Feb-2020 4009.51  526.64 64.54 5.00 307.00 3020.21
   05:31:46.200.03-Feb-2020 4009.51  526.64 64.54 5.00 307.20 3020.21
   05:31:46.400.03-Feb-2020 4009.51  331.82 64.54 5.00 307.40 3020.21
   05:31:46.600.03-Feb-2020 4009.51  302.76 64.54 5.00 307.60 3020.21
   05:31:46.800.03-Feb-2020 4009.51  290.22 64.54 5.00 307.80 3020.21
   05:31:47.000.03-Feb-2020 4009.51  280.77 64.54 5.00 308.00 3020.21
   05:31:47.200.03-Feb-2020 4009.51  280.77 64.54 5.00 308.20 3020.21
   05:31:47.400.03-Feb-2020 4009.51  267.44 64.54 5.00 308.40 3020.21
   05:31:47.600.03-Feb-2020 4009.51  264.49 64.54 5.00 308.60 3020.21
   05:31:47.800.03-Feb-2020 4009.51  261.82 64.54 5.00 308.80 3020.21
   05:31:48.000.03-Feb-2020 4009.51  258.66 64.54 5.00 309.00 3020.21
   05:31:48.200.03-Feb-2020 4009.51  258.66 64.54 5.00 309.20 3020.21
   05:31:48.400.03-Feb-2020 4009.51  254.10 64.54 5.00 309.40 3020.21
   05:31:48.600.03-Feb-2020 4009.51  252.30 64.54 5.00 309.60 3020.21
   05:31:48.800.03-Feb-2020 4009.51  250.12 64.54 5.00 309.80 3020.21
   05:31:49.000.03-Feb-2020 4009.51  248.00 64.53 5.00 310.00 3020.21
   05:31:49.200.03-Feb-2020 4009.51  248.00 64.53 5.00 310.20 3020.21
   05:31:49.400.03-Feb-2020 4009.51  243.99 64.53 5.00 310.40 3020.21
   05:31:49.600.03-Feb-2020 4009.51  240.58 64.53 5.00 310.60 3020.21
   05:31:49.800.03-Feb-2020 4009.51  239.01 64.53 5.00 310.80 3020.21
   05:31:50.000.03-Feb-2020 4009.51  237.91 64.53 5.00 311.00 3020.21
   05:31:50.200.03-Feb-2020 4009.51  237.91 64.53 5.00 311.20 3020.21
   05:31:50.400.03-Feb-2020 4009.51  236.95 64.53 5.00 311.40 3020.21
   05:31:50.600.03-Feb-2020 4009.51  233.82 64.53 5.00 311.60 3020.21
   05:31:50.800.03-Feb-2020 4009.51  232.01 64.53 5.00 311.80 3020.21
   05:31:51.000.03-Feb-2020 4009.51  230.95 64.52 5.00 312.00 3020.21
   05:31:51.200.03-Feb-2020 4009.51  230.95 64.52 5.00 312.20 3020.21
   05:31:51.400.03-Feb-2020 4009.51  230.41 64.52 5.00 312.40 3020.21
   05:31:51.600.03-Feb-2020 4009.51  228.94 64.52 5.00 312.60 3020.21
   05:31:51.800.03-Feb-2020 4009.51  229.25 64.52 5.00 312.80 3020.21
   05:31:52.000.03-Feb-2020 4009.51  229.40 64.52 5.00 313.00 3020.21
   05:31:52.200.03-Feb-2020 4009.51  229.40 64.52 5.00 313.20 3020.21
   05:31:52.400.03-Feb-2020 4009.51  229.81 64.52 5.00 313.40 3020.21
   05:31:52.600.03-Feb-2020 4009.51  229.91 64.52 5.00 313.60 3020.21
   05:31:52.800.03-Feb-2020 4009.51  230.32 64.52 5.00 313.80 3020.21
   05:31:53.000.03-Feb-2020 4009.51  231.40 64.52 5.00 314.00 3020.21
   05:31:53.200.03-Feb-2020 4009.51  231.40 64.52 5.00 314.20 3020.21
   05:31:53.400.03-Feb-2020 4009.51  233.68 64.51 5.00 314.40 3020.21
   05:31:53.600.03-Feb-2020 4009.51  234.82 64.51 5.00 314.60 3020.21
   05:31:53.800.03-Feb-2020 4009.51  236.23 64.51 5.00 314.80 3020.21
   05:31:54.000.03-Feb-2020 4009.51  237.04 64.51 5.00 315.00 3020.21
   05:31:54.200.03-Feb-2020 4009.51  237.04 64.51 5.00 315.20 3020.21
   05:31:54.400.03-Feb-2020 4009.51  242.90 64.51 5.00 315.40 3020.21
   05:31:54.600.03-Feb-2020 4009.51  256.41 64.51 5.00 315.60 3020.21
   05:31:54.800.03-Feb-2020 4009.51  270.53 64.51 5.00 315.80 3020.21
   05:31:55.000.03-Feb-2020 4009.51  284.98 64.51 5.00 316.00 3020.21
   05:31:55.200.03-Feb-2020 4009.51  284.98 64.51 5.00 316.20 3020.21
   05:31:55.400.03-Feb-2020 4009.51  316.22 64.51 5.00 316.40 3020.21
   05:31:55.600.03-Feb-2020 4009.51  333.17 64.51 5.00 316.60 3020.21
   05:31:55.800.03-Feb-2020 4009.51  350.74 64.51 5.00 316.80 3020.21
   05:31:56.000.03-Feb-2020 4009.51  368.70 64.50 5.00 317.00 3020.21
   05:31:56.200.03-Feb-2020 4009.51  368.70 64.50 5.00 317.20 3020.21
   05:31:56.400.03-Feb-2020 4009.51  407.04 64.50 5.00 317.40 3020.21
   05:31:56.600.03-Feb-2020 4009.51  427.08 64.50 5.00 317.60 3020.21
   05:31:56.800.03-Feb-2020 4009.51  448.10 64.50 5.00 317.80 3020.21
   05:31:57.000.03-Feb-2020 4009.51  469.41 64.50 5.00 318.00 3020.21
   05:31:57.200.03-Feb-2020 4009.51  469.41 64.50 5.00 318.20 3020.21
   05:31:57.400.03-Feb-2020 4009.51  514.29 64.50 5.00 318.40 3020.21
   05:31:57.600.03-Feb-2020 4009.51  537.94 64.50 5.00 318.60 3020.21
   05:31:57.800.03-Feb-2020 4009.51  561.91 64.50 5.00 318.80 3020.21
   05:31:58.000.03-Feb-2020 4009.51  586.25 64.50 5.00 319.00 3020.21
   05:31:58.200.03-Feb-2020 4009.51  586.25 64.50 5.00 319.20 3020.21
   05:31:58.400.03-Feb-2020 4009.51  636.41 64.50 5.00 319.40 3020.21
   05:31:58.600.03-Feb-2020 4009.51  662.44 64.50 5.00 319.60 3020.21
   05:31:58.800.03-Feb-2020 4009.51  688.75 64.50 5.00 319.80 3020.21
   05:31:59.000.03-Feb-2020 4009.51  714.65 64.50 5.00 320.00 3020.21
   05:31:59.200.03-Feb-2020 4009.51  714.65 64.50 5.00 320.20 3020.21
   05:31:59.400.03-Feb-2020 4009.51  768.40 64.50 5.00 320.40 3020.21
   05:31:59.600.03-Feb-2020 4009.51  795.50 64.50 5.00 320.60 3020.21
   05:31:59.800.03-Feb-2020 4009.51  822.39 64.50 5.00 320.80 3020.21
   05:32:00.000.03-Feb-2020 4009.51  848.98 64.50 5.00 321.00 3020.21
   05:32:00.200.03-Feb-2020 4009.51  848.98 64.50 5.00 321.20 3020.21
   05:32:00.400.03-Feb-2020 4009.51  903.37 64.50 5.00 321.40 3020.21
   05:32:00.600.03-Feb-2020 4009.51  930.67 64.50 5.00 321.60 3020.21
   05:32:00.800.03-Feb-2020 4009.51  957.44 64.50 5.00 321.80 3020.21
