~Version Information
 VERS.                  2.0:   CWLS log ASCII Standard -VERSION 2.0
 WRAP.                   NO:   One line per depth step
~Well Information Block
#MNEM.UNIT     VALUE/NAME     DESCRIPTION
#---------     -----------    ---------------------------
 STRT.S             08:33:17 03-Feb-20: START TIME 08:33:17 03-Feb-20
 STOP.S             08:41:10 03-Feb-20: STOP TIME  08:41:10 03-Feb-20
 STEP.S                   0.00: STEP TIME
 NULL.                 -999.25: NULL VALUE
 DFWT.                        :  DIST FWL TEXT
 DFST.                        :  DIST FSL TEXT
 DMF .             Drill Floor:  DRILL MEAS FROM
 STIM.      09.30.00 26-Dec-19:  START TIME
 DATE.      08.00.00 20-Jan-20:  END TIME
 SPUD.               23-Nov-19:  SPUD DATE
 NREF.                    Grid:  NORTH REFERENCE
 HPTY.       Minimum Curvature:  HOLE POS TYPE
 DMOD.             Drill Model:  DRILL MOD DESC
 SVYD.                  Survey:  SURVEY DESC
 ILTD.               Lithology:  INTERP LTH DESC
 FTOP.          Formation Tops:  FORM TOPS DESC
 SON .        AZ-XX-0906192647:  JOB NUMBER
 WTYP.                Deviated:  WELL TYPE
 COMP.     BP Exploration (Caspian Sea) Ltd:  COMPANY
 BASE.              Azerbaijan:  LOGGING EQUIPMENT BASE LOCATION
 REGN.                 Eurasia:  REGION
 FLD .                     ACG:  FIELD NAME
 SRVC.              KCA Deutag:  CONTRACTOR
 MWDS.                    Baku:  MWD SHOP
 WELL.     A10 (Slot 20) - SCP:  WELL NAME
 JOBN.        AZ-XX-0906192647:  JOB TICKET NUMB
 RIG .                 Chirag1:  RIG NAME
 DCON.     Halliburton Sperry Drilling:  DIRECTNL CONTR
 UNIT.                     N/A:  LOGGING EQUIPMENT ID
 PDAT.          Mean Sea Level:  PERMANENT DATUM
 MDS .        Operator Entered:  MAG DATA SOURCE
 CTRY.              Azerbaijan:  COUNTRY NAME
 UWI .            /AZE00000090:  UNIQUE WELL IDENTIFIER
 API .            /AZE00000090:  API NUMBER
 CNTY.                        :  COUNTY
 PROV.                        :  PROVINCE
 STAT.                        :  STATE
 LOC .                        :  LOCATION
 LMF .             Drill Floor:  LOG MEASURED FROM
 TVDS.m                  36.60:  TVDSS CORRECTN
 LATI.deg                40.08:  LATITUDE
 LONG.deg                51.24:  LONGITUDE
 WHNS.m                  -7.94:  WELL HEAD N/S
 WHEW.m                   1.56:  WELL HEAD E/W
 UTMX.m              520429.26:  UTM X
 UTMY.m             4438973.87:  UTM Y
 DFWL.m                   0.00:  DISTANCE FWL
 DFSL.m                   0.00:  DISTANCE FSL
 SDEP.m                1455.00:  START DEPTH
 TDD .m                4047.51:  TOTAL DEPTH (DRILLER)
 VSDR.deg               112.75:  VERT SEC DIRECT
 GVFD.g                   1.00:  GRAVITY FIELD
 MFLD.nT              50261.00:  MAGNETIC FIELD
 MDIP.deg                59.52:  MAGNETIC DIP
 MDEC.deg                 6.42:  MAGNETIC DECL
 GRDC.deg                 0.17:  GRID CORRECTION
 AZTC.deg                 6.25:  AZM TOTAL CORR
 EPD .m                   0.00:  ELEVATION
 EGL .m                   0.00:  GROUND ELEVATION
 WDMS.m                 121.00:  WD ELEV
 APD .m                  36.60:  DEPTH ABOVE PD
 AGAP.m                  36.60:  AIR GAP
 VSEW.m                   1.56:  VERT SEC E/W
 VSNS.m                  -7.94:  VERT SEC N/S
 DEP .m                1140.01:  DEPTH
 EKB .m                  36.60:  KB ELEVATION
 EDF .m                  36.60:  DF ELEVATION
 VSC .                       0:  VS TO CLOSURE
 MAGU.                 1849206:  MAGUTM CHECKSUM
~Parameter Information Block
#MNEM.UNIT       Value        Description
#---------     -----------    ---------------------------
 AV  .mps                 1.70:  Ann Velocity 
 AVMX.mps                 2.30:  Max Ann Veloc 
 AZIF.deg               137.03:  Azm, Final 
 BHAT.                   Other:  BHA Type 
 BROT.°/30m               0.80:  Build Rotating 
 BS  .in                  8.00:  Bit Size 
 BTPL.psig              161.00:  Bit Press Loss 
 CABU.                      No:  Customer Abuse 
 COMM.                     äör:  Run Comments 1 
 TCS .hr                  9.59:  Time Ciculation Ended 
 CV  .mps                 3.76:  Crit Velocity 
 CVMX.mps                 4.26:  Max Crit Veloc 
 DD1 .         Intigam Rahimov:  Direct Drillr 1 
 DD2 .          Rashad Gojayev:  Direct Drillr 2 
 DDSV.                   Other:  DD Service 
 DEFF.%                 100.00:  % Det Eff 
 DLRX.°/30m               1.44:  Dogleg Rot Max 
 DLSO.°/30m               0.00:  Dogleg Oriented 
 DLSX.°/30m               0.00:  Dogleg Str Max 
 DRET.      03.31.12 02-Feb-20:  Drill End Time 
 DRST.      03.31.12 02-Feb-20:  Drill Start Tim 
 DTIM.hr                  1.99:  Time Drilling 
 EDEP.m                4047.51:  End Depth 
 ENG1.           Eldar Hajiyev:  Engineer 1 
 ENG2.          Rasim Hashimov:  Engineer 2 
 ENG3.          Rustam Safarov:  Engineer 3 
 ETIM.      03.31.12 02-Feb-20:  End Time 
 FLOI.gpm               300.00:  Flow In 
 FLON.gpm               250.00:  Flow In Min 
 FLOS.cptm                0.00:  Fluid Loss 
 FLOX.gpm               330.00:  Flow In Max 
 HFLO.                      No:  High Flow 
 HPRE.                      No:  High Pressure 
 HTEM.                      No:  High Temp 
 HYDO.m                   2.50:  Hydro Offset 
 IFIN.deg                39.54:  Inc, Final 
 IMAX.deg                41.14:  Inc Max 
 IMIN.deg                39.81:  Inc Min 
 IMND.m                4005.21:  Inc Min Depth 
 IMXD.m                3948.42:  Inc Max Depth 
 JARR.                      No:  Jarring 
 LETM.      03.31.12 02-Feb-20:  Log End Time 
 LOST.hr                     0:  Lost Rig Time 
 LSTM.      03.31.12 02-Feb-20:  Log Start Time 
 MDCL.ppm             35000.00:  Mud Chlorides 
 MDES.     Inversion Oil/Synthetic:  Mud Desc 
 DFD .sg                  1.32:  Mud Density 
 MDMN.sg                  1.32:  Dens Mud Min 
 MDMX.sg                  1.32:  Dens Mud Max 
 MOIL.                      59:  Run Mud Oil % 
 MOWR.                   71:29:  Run Mud OWR 
 MSND.                       0:  Run Mud Sand % 
 MSOL.                      17:  Run Mud Solids% 
 DFV .spqt               86.00:  Mud Viscosity 
 MWOD.in                  4.75:  MWD Tool OD 
 MWSI.                      No:  Serv Intrp, MWD 
 OTIM.hr                 46.72:  Time Operating 
 PCON.           Look Like New:  Pad Condition 
 PMAX.psia             3300.00:  Press Op, Max 
 PV  .cP                 30.00:  Mud PV 
 RUN .                     400:  Run Number 
 ROPA.m/hr               35.00:  ROP Avg 
 ROPN.m/hr               25.00:  ROP Min 
 ROPX.m/hr               40.00:  ROP Max 
 RPMA.rpm                80.00:  RPM Surface Avg 
 RPMN.rpm                60.00:  RPM Surface Min 
 RPMX.rpm               100.00:  RPM Surface Max 
 RRUN.                     400:  Rig Run Number 
 RTIM.hr                  1.99:  Time Reaming 
 SAZI.deg               133.93:  Azm, Start 
 SDEP.m                4047.51:  Start Depth 
 SIDD.                      No:  Serv Intrp, DD 
 SINC.deg                40.28:  Inc, Start 
 SPPA.psig             3250.00:  SPP Avg 
 SPPN.psig             3200.00:  SPP Min 
 SPPX.psig             3300.00:  SPP Max 
 STIM.      03.31.12 02-Feb-20:  Start Time 
 SVCS.                 DD, MWD:  Services 
 SVER.                    9.20:  Sperry Version 
 TDAT.m                  47.00:  Tot Depth Attmp 
 TDDF.                      No:  Trip for DD 
 TFF .                      No:  Trip for Fail 
 TQAA.f-kp                0.00:  Torque Abs Avg 
 TQAN.f-kp                0.00:  Torque Abs Min 
 TQAX.f-kp                0.00:  Torque Abs Max 
 TRRT.°/30m               0.70:  Turn Rotating 
 MRT .                    HCIM:  Maximum Recorded Temperature 
 TTMX.degC               70.59:  Max Tool Temp 
 VS01.             90598770F11:  Virtual Str1 SN 
 VS02.             90598769F11:  Virtual Str2 SN 
 VS03.            90515978Z1W1:  Virtual Str3 SN 
 VS04.          90584144R12X14:  Virtual Str4 SN 
 WBMN.klb                 0.00:  WOB Min 
 WITN.            Peter Wilson:  Customer Rep 
 WOBA.klb                 0.00:  WOB Avg 
 WOBX.klb                 0.00:  WOB Max 
 YP  .lhf2               29.00:  Yield Point 
~Curve Information Block
#MNEM.UNIT                 API CODE     Curve Description
#---------               -----------    ---------------------------
 TIME.HHMMSS            00 000 000 000:  GT Time & Date
 GTDEPTH.m              00 000 000 000:  GT Depth
 GTPQH.psia             00 000 000 000:  GT HR Quartz Pressure
 GTTQ.degC              00 000 000 000:  GT Quartz Temperature
 GTTN.NONE              00 000 000 000:  GT Test Number
 GTET.sec               00 000 000 000:  GT Elapsed Test Time
 GTTVD.m                00 000 000 000:  GT True Vertical Depth
#Other Information
#
#WARRANTY: Halliburton will use its best efforts to furnish customers with 
#accurate information and interpretations that are part of, and incident to, the services 
#provided.  However, Halliburton cannot and does not warrant the accuracy 
#or correctness of such information and interpretations.  Under no circumstances should any 
#such information or interpretation be relied upon as the sole basis for any drilling, 
#completion, production, or financial decision or any procedure involving any risk to the 
#safety of any drilling venture, drilling rig or its crew or any other third party.  The 
#Customer has full responsibility for all drilling, completion and production operation.  
#Halliburton makes no representations or warranties, either expressed or 
#implied, including, but not limited to, the implied warranties of merchantability or fitness 
#for a particular purpose, with respect to the services rendered.  In no event will 
#Halliburton be liable for failure to obtain any particular results or for 
#any damages, including, but not limited to, indirect, special or consequential damages, 
#resulting from the use of any information or interpretation provided by Halliburton.
#
~A           TIME           GTDEPTH  GTPQH  GTTQ  GTTN   GTET   GTTVD  
# ...
   08:35:10.086.03-Feb-2020 4013.71 3132.56 64.49 11.00 113.00 3023.43
   08:35:10.286.03-Feb-2020 4013.71 3132.56 64.49 11.00 113.20 3023.43
   08:35:10.486.03-Feb-2020 4013.71 3132.53 64.49 11.00 113.40 3023.43
   08:35:10.686.03-Feb-2020 4013.71 3132.44 64.49 11.00 113.60 3023.43
   08:35:10.886.03-Feb-2020 4013.71 3132.62 64.49 11.00 113.80 3023.43
   08:35:11.086.03-Feb-2020 4013.71 3132.45 64.49 11.00 114.00 3023.43
   08:35:11.286.03-Feb-2020 4013.71 3132.45 64.49 11.00 114.20 3023.43
   08:35:11.486.03-Feb-2020 4013.71 3132.53 64.49 11.00 114.40 3023.43
   08:35:11.686.03-Feb-2020 4013.71 3132.58 64.49 11.00 114.60 3023.43
   08:35:11.886.03-Feb-2020 4013.71 3132.32 64.49 11.00 114.80 3023.43
   08:35:12.086.03-Feb-2020 4013.71 3132.65 64.49 11.00 115.00 3023.43
   08:35:12.286.03-Feb-2020 4013.71 3132.65 64.49 11.00 115.20 3023.43
   08:35:12.486.03-Feb-2020 4013.71 3132.58 64.49 11.00 115.40 3023.43
   08:35:12.686.03-Feb-2020 4013.71 3132.59 64.49 11.00 115.60 3023.43
   08:35:12.886.03-Feb-2020 4013.71 3132.56 64.49 11.00 115.80 3023.43
   08:35:13.086.03-Feb-2020 4013.71 3132.45 64.49 11.00 116.00 3023.43
   08:35:13.286.03-Feb-2020 4013.71 3132.45 64.49 11.00 116.20 3023.43
   08:35:13.486.03-Feb-2020 4013.71 3132.54 64.49 11.00 116.40 3023.43
   08:35:13.686.03-Feb-2020 4013.71 3132.57 64.49 11.00 116.60 3023.43
   08:35:13.886.03-Feb-2020 4013.71 3132.58 64.49 11.00 116.80 3023.43
   08:35:14.086.03-Feb-2020 4013.71 3132.55 64.49 11.00 117.00 3023.43
   08:35:14.286.03-Feb-2020 4013.71 3132.55 64.49 11.00 117.20 3023.43
   08:35:14.486.03-Feb-2020 4013.71 3132.54 64.49 11.00 117.40 3023.43
   08:35:14.686.03-Feb-2020 4013.71 3132.56 64.49 11.00 117.60 3023.43
   08:35:14.886.03-Feb-2020 4013.71 3132.63 64.49 11.00 117.80 3023.43
   08:35:15.086.03-Feb-2020 4013.71 3132.57 64.49 11.00 118.00 3023.43
   08:35:15.286.03-Feb-2020 4013.71 3132.57 64.49 11.00 118.20 3023.43
   08:35:15.486.03-Feb-2020 4013.71 3132.61 64.49 11.00 118.40 3023.43
   08:35:15.686.03-Feb-2020 4013.71 3132.57 64.49 11.00 118.60 3023.43
   08:35:15.886.03-Feb-2020 4013.71 3132.63 64.49 11.00 118.80 3023.43
   08:35:16.086.03-Feb-2020 4013.71 3132.63 64.49 11.00 119.00 3023.43
   08:35:16.286.03-Feb-2020 4013.71 3132.63 64.49 11.00 119.20 3023.43
   08:35:16.486.03-Feb-2020 4013.71 3132.73 64.49 11.00 119.40 3023.43
   08:35:16.686.03-Feb-2020 4013.71 3132.46 64.49 11.00 119.60 3023.43
   08:35:16.886.03-Feb-2020 4013.71 3132.62 64.49 11.00 119.80 3023.43
   08:35:17.086.03-Feb-2020 4013.71 3132.55 64.49 11.00 120.00 3023.43
   08:35:17.286.03-Feb-2020 4013.71 3132.55 64.49 11.00 120.20 3023.43
   08:35:17.486.03-Feb-2020 4013.71 3132.58 64.49 11.00 120.40 3023.43
   08:35:17.686.03-Feb-2020 4013.71 3132.60 64.49 11.00 120.60 3023.43
   08:35:17.886.03-Feb-2020 4013.71 3132.59 64.49 11.00 120.80 3023.43
   08:35:18.086.03-Feb-2020 4013.71 3132.61 64.49 11.00 121.00 3023.43
   08:35:18.286.03-Feb-2020 4013.71 3132.61 64.49 11.00 121.20 3023.43
   08:35:18.486.03-Feb-2020 4013.71 3132.60 64.49 11.00 121.40 3023.43
   08:35:18.686.03-Feb-2020 4013.71 3132.61 64.49 11.00 121.60 3023.43
   08:35:18.886.03-Feb-2020 4013.71 3132.42 64.49 11.00 121.80 3023.43
   08:35:19.086.03-Feb-2020 4013.71 3132.58 64.49 11.00 122.00 3023.43
   08:35:19.286.03-Feb-2020 4013.71 3132.58 64.49 11.00 122.20 3023.43
   08:35:19.486.03-Feb-2020 4013.71 3132.62 64.49 11.00 122.40 3023.43
   08:35:19.686.03-Feb-2020 4013.71 3132.57 64.49 11.00 122.60 3023.43
   08:35:19.886.03-Feb-2020 4013.71 3132.38 64.49 11.00 122.80 3023.43
   08:35:20.086.03-Feb-2020 4013.71 3132.75 64.49 11.00 123.00 3023.43
   08:35:20.286.03-Feb-2020 4013.71 3132.75 64.49 11.00 123.20 3023.43
   08:35:20.486.03-Feb-2020 4013.71 3132.64 64.49 11.00 123.40 3023.43
   08:35:20.686.03-Feb-2020 4013.71 3132.56 64.49 11.00 123.60 3023.43
   08:35:20.886.03-Feb-2020 4013.71 3132.60 64.49 11.00 123.80 3023.43
   08:35:21.086.03-Feb-2020 4013.71 3132.40 64.49 11.00 124.00 3023.43
   08:35:21.286.03-Feb-2020 4013.71 3132.40 64.49 11.00 124.20 3023.43
   08:35:21.486.03-Feb-2020 4013.71 3132.57 64.49 11.00 124.40 3023.43
   08:35:21.686.03-Feb-2020 4013.71 3132.61 64.49 11.00 124.60 3023.43
   08:35:21.886.03-Feb-2020 4013.71 3132.64 64.49 11.00 124.80 3023.43
   08:35:22.086.03-Feb-2020 4013.71 3132.52 64.49 11.00 125.00 3023.43
   08:35:22.286.03-Feb-2020 4013.71 3132.52 64.49 11.00 125.20 3023.43
   08:35:22.486.03-Feb-2020 4013.71 3132.48 64.49 11.00 125.40 3023.43
   08:35:22.686.03-Feb-2020 4013.71 3132.57 64.48 11.00 125.60 3023.43
   08:35:22.886.03-Feb-2020 4013.71 3132.62 64.48 11.00 125.80 3023.43
   08:35:23.086.03-Feb-2020 4013.71 3132.61 64.48 11.00 126.00 3023.43
   08:35:23.286.03-Feb-2020 4013.71 3132.61 64.48 11.00 126.20 3023.43
   08:35:23.486.03-Feb-2020 4013.71 3132.60 64.48 11.00 126.40 3023.43
   08:35:23.686.03-Feb-2020 4013.71 3132.57 64.48 11.00 126.60 3023.43
   08:35:23.886.03-Feb-2020 4013.71 3132.59 64.48 11.00 126.80 3023.43
   08:35:24.086.03-Feb-2020 4013.71 3132.64 64.48 11.00 127.00 3023.43
   08:35:24.286.03-Feb-2020 4013.71 3132.64 64.48 11.00 127.20 3023.43
   08:35:24.486.03-Feb-2020 4013.71 3132.62 64.48 11.00 127.40 3023.43
   08:35:24.686.03-Feb-2020 4013.71 3132.64 64.48 11.00 127.60 3023.43
   08:35:24.886.03-Feb-2020 4013.71 3132.59 64.48 11.00 127.80 3023.43
   08:35:25.086.03-Feb-2020 4013.71 3132.64 64.48 11.00 128.00 3023.43
   08:35:25.286.03-Feb-2020 4013.71 3132.64 64.48 11.00 128.20 3023.43
   08:35:25.486.03-Feb-2020 4013.71 3132.34 64.48 11.00 128.40 3023.43
   08:35:25.686.03-Feb-2020 4013.71 3132.75 64.48 11.00 128.60 3023.43
   08:35:25.886.03-Feb-2020 4013.71 3132.55 64.48 11.00 128.80 3023.43
   08:35:26.086.03-Feb-2020 4013.71 3132.63 64.48 11.00 129.00 3023.43
   08:35:26.286.03-Feb-2020 4013.71 3132.63 64.48 11.00 129.20 3023.43
   08:35:26.486.03-Feb-2020 4013.71 3132.62 64.48 11.00 129.40 3023.43
   08:35:26.686.03-Feb-2020 4013.71 3132.58 64.48 11.00 129.60 3023.43
   08:35:26.886.03-Feb-2020 4013.71 3132.63 64.48 11.00 129.80 3023.43
   08:35:27.086.03-Feb-2020 4013.71 3132.64 64.48 11.00 130.00 3023.43
   08:35:27.286.03-Feb-2020 4013.71 3132.64 64.48 11.00 130.20 3023.43
   08:35:27.486.03-Feb-2020 4013.71 3132.64 64.48 11.00 130.40 3023.43
   08:35:27.686.03-Feb-2020 4013.71 3132.63 64.48 11.00 130.60 3023.43
   08:35:27.886.03-Feb-2020 4013.71 3132.57 64.48 11.00 130.80 3023.43
   08:35:28.086.03-Feb-2020 4013.71 3132.60 64.48 11.00 131.00 3023.43
   08:35:28.286.03-Feb-2020 4013.71 3132.60 64.48 11.00 131.20 3023.43
   08:35:28.486.03-Feb-2020 4013.71 3132.69 64.48 11.00 131.40 3023.43
   08:35:28.686.03-Feb-2020 4013.71 3132.63 64.48 11.00 131.60 3023.43
   08:35:28.886.03-Feb-2020 4013.71 3132.62 64.48 11.00 131.80 3023.43
   08:35:29.086.03-Feb-2020 4013.71 3132.32 64.48 11.00 132.00 3023.43
   08:35:29.286.03-Feb-2020 4013.71 3132.32 64.48 11.00 132.20 3023.43
   08:35:29.486.03-Feb-2020 4013.71 3132.55 64.48 11.00 132.40 3023.43
   08:35:29.686.03-Feb-2020 4013.71 3132.64 64.48 11.00 132.60 3023.43
   08:35:29.886.03-Feb-2020 4013.71 3132.60 64.48 11.00 132.80 3023.43
   08:35:30.086.03-Feb-2020 4013.71 3132.56 64.48 11.00 133.00 3023.43
   08:35:30.286.03-Feb-2020 4013.71 3132.56 64.48 11.00 133.20 3023.43
   08:35:30.486.03-Feb-2020 4013.71 3132.54 64.48 11.00 133.40 3023.43
   08:35:30.686.03-Feb-2020 4013.71 3132.62 64.48 11.00 133.60 3023.43
   08:35:30.886.03-Feb-2020 4013.71 3132.61 64.48 11.00 133.80 3023.43
   08:35:31.086.03-Feb-2020 4013.71 3132.67 64.48 11.00 134.00 3023.43
   08:35:31.286.03-Feb-2020 4013.71 3132.67 64.48 11.00 134.20 3023.43
   08:35:31.486.03-Feb-2020 4013.71 3132.75 64.48 11.00 134.40 3023.43
   08:35:31.686.03-Feb-2020 4013.71 3132.48 64.48 11.00 134.60 3023.43
   08:35:31.886.03-Feb-2020 4013.71 3132.63 64.48 11.00 134.80 3023.43
   08:35:32.086.03-Feb-2020 4013.71 3132.61 64.48 11.00 135.00 3023.43
   08:35:32.286.03-Feb-2020 4013.71 3132.61 64.48 11.00 135.20 3023.43
   08:35:32.486.03-Feb-2020 4013.71 3132.60 64.48 11.00 135.40 3023.43
