~Version Information
 VERS.                  2.0:   CWLS log ASCII Standard -VERSION 2.0
 WRAP.                   NO:   One line per depth step
~Well Information Block
#MNEM.UNIT     VALUE/NAME     DESCRIPTION
#---------     -----------    ---------------------------
 STRT.S             05:45:18 03-Feb-20: START TIME 05:45:18 03-Feb-20
 STOP.S             05:53:13 03-Feb-20: STOP TIME  05:53:13 03-Feb-20
 STEP.S                   0.00: STEP TIME
 NULL.                 -999.25: NULL VALUE
 DFWT.                        :  DIST FWL TEXT
 DFST.                        :  DIST FSL TEXT
 DMF .             Drill Floor:  DRILL MEAS FROM
 STIM.      09.30.00 26-Dec-19:  START TIME
 DATE.      08.00.00 20-Jan-20:  END TIME
 SPUD.               23-Nov-19:  SPUD DATE
 NREF.                    Grid:  NORTH REFERENCE
 HPTY.       Minimum Curvature:  HOLE POS TYPE
 DMOD.             Drill Model:  DRILL MOD DESC
 SVYD.                  Survey:  SURVEY DESC
 ILTD.               Lithology:  INTERP LTH DESC
 FTOP.          Formation Tops:  FORM TOPS DESC
 SON .        AZ-XX-0906192647:  JOB NUMBER
 WTYP.                Deviated:  WELL TYPE
 COMP.     BP Exploration (Caspian Sea) Ltd:  COMPANY
 BASE.              Azerbaijan:  LOGGING EQUIPMENT BASE LOCATION
 REGN.                 Eurasia:  REGION
 FLD .                     ACG:  FIELD NAME
 SRVC.              KCA Deutag:  CONTRACTOR
 MWDS.                    Baku:  MWD SHOP
 WELL.     A10 (Slot 20) - SCP:  WELL NAME
 JOBN.        AZ-XX-0906192647:  JOB TICKET NUMB
 RIG .                 Chirag1:  RIG NAME
 DCON.     Halliburton Sperry Drilling:  DIRECTNL CONTR
 UNIT.                     N/A:  LOGGING EQUIPMENT ID
 PDAT.          Mean Sea Level:  PERMANENT DATUM
 MDS .        Operator Entered:  MAG DATA SOURCE
 CTRY.              Azerbaijan:  COUNTRY NAME
 UWI .            /AZE00000090:  UNIQUE WELL IDENTIFIER
 API .            /AZE00000090:  API NUMBER
 CNTY.                        :  COUNTY
 PROV.                        :  PROVINCE
 STAT.                        :  STATE
 LOC .                        :  LOCATION
 LMF .             Drill Floor:  LOG MEASURED FROM
 TVDS.m                  36.60:  TVDSS CORRECTN
 LATI.deg                40.08:  LATITUDE
 LONG.deg                51.24:  LONGITUDE
 WHNS.m                  -7.94:  WELL HEAD N/S
 WHEW.m                   1.56:  WELL HEAD E/W
 UTMX.m              520429.26:  UTM X
 UTMY.m             4438973.87:  UTM Y
 DFWL.m                   0.00:  DISTANCE FWL
 DFSL.m                   0.00:  DISTANCE FSL
 SDEP.m                1455.00:  START DEPTH
 TDD .m                4047.51:  TOTAL DEPTH (DRILLER)
 VSDR.deg               112.75:  VERT SEC DIRECT
 GVFD.g                   1.00:  GRAVITY FIELD
 MFLD.nT              50261.00:  MAGNETIC FIELD
 MDIP.deg                59.52:  MAGNETIC DIP
 MDEC.deg                 6.42:  MAGNETIC DECL
 GRDC.deg                 0.17:  GRID CORRECTION
 AZTC.deg                 6.25:  AZM TOTAL CORR
 EPD .m                   0.00:  ELEVATION
 EGL .m                   0.00:  GROUND ELEVATION
 WDMS.m                 121.00:  WD ELEV
 APD .m                  36.60:  DEPTH ABOVE PD
 AGAP.m                  36.60:  AIR GAP
 VSEW.m                   1.56:  VERT SEC E/W
 VSNS.m                  -7.94:  VERT SEC N/S
 DEP .m                1140.01:  DEPTH
 EKB .m                  36.60:  KB ELEVATION
 EDF .m                  36.60:  DF ELEVATION
 VSC .                       0:  VS TO CLOSURE
 MAGU.                 1849206:  MAGUTM CHECKSUM
~Parameter Information Block
#MNEM.UNIT       Value        Description
#---------     -----------    ---------------------------
 AV  .mps                 1.70:  Ann Velocity 
 AVMX.mps                 2.30:  Max Ann Veloc 
 AZIF.deg               137.03:  Azm, Final 
 BHAT.                   Other:  BHA Type 
 BROT.°/30m               0.80:  Build Rotating 
 BS  .in                  8.00:  Bit Size 
 BTPL.psig              161.00:  Bit Press Loss 
 CABU.                      No:  Customer Abuse 
 TCS .hr                  9.59:  Time Ciculation Ended 
 CV  .mps                 3.76:  Crit Velocity 
 CVMX.mps                 4.26:  Max Crit Veloc 
 DD1 .         Intigam Rahimov:  Direct Drillr 1 
 DD2 .          Rashad Gojayev:  Direct Drillr 2 
 DDSV.                   Other:  DD Service 
 DEFF.%                 100.00:  % Det Eff 
 DLRX.°/30m               1.44:  Dogleg Rot Max 
 DLSO.°/30m               0.00:  Dogleg Oriented 
 DLSX.°/30m               0.00:  Dogleg Str Max 
 DRET.      03.31.12 02-Feb-20:  Drill End Time 
 DRST.      03.31.12 02-Feb-20:  Drill Start Tim 
 DTIM.hr                  1.99:  Time Drilling 
 EDEP.m                4047.51:  End Depth 
 ENG1.           Eldar Hajiyev:  Engineer 1 
 ENG2.          Rasim Hashimov:  Engineer 2 
 ENG3.          Rustam Safarov:  Engineer 3 
 ETIM.      03.31.12 02-Feb-20:  End Time 
 FLOI.gpm               300.00:  Flow In 
 FLON.gpm               250.00:  Flow In Min 
 FLOS.cptm                0.00:  Fluid Loss 
 FLOX.gpm               330.00:  Flow In Max 
 HFLO.                      No:  High Flow 
 HPRE.                      No:  High Pressure 
 HTEM.                      No:  High Temp 
 HYDO.m                   2.50:  Hydro Offset 
 IFIN.deg                39.54:  Inc, Final 
 IMAX.deg                41.14:  Inc Max 
 IMIN.deg                39.81:  Inc Min 
 IMND.m                4005.21:  Inc Min Depth 
 IMXD.m                3948.42:  Inc Max Depth 
 JARR.                      No:  Jarring 
 LETM.      03.31.12 02-Feb-20:  Log End Time 
 LOST.hr                     0:  Lost Rig Time 
 LSTM.      03.31.12 02-Feb-20:  Log Start Time 
 MDCL.ppm             35000.00:  Mud Chlorides 
 MDES.     Inversion Oil/Synthetic:  Mud Desc 
 DFD .sg                  1.32:  Mud Density 
 MDMN.sg                  1.32:  Dens Mud Min 
 MDMX.sg                  1.32:  Dens Mud Max 
 MOIL.                      59:  Run Mud Oil % 
 MOWR.                   71:29:  Run Mud OWR 
 MSND.                       0:  Run Mud Sand % 
 MSOL.                      17:  Run Mud Solids% 
 DFV .spqt               86.00:  Mud Viscosity 
 MWOD.in                  4.75:  MWD Tool OD 
 MWSI.                      No:  Serv Intrp, MWD 
 OTIM.hr                 46.72:  Time Operating 
 PCON.           Look Like New:  Pad Condition 
 PMAX.psia             3300.00:  Press Op, Max 
 PV  .cP                 30.00:  Mud PV 
 RUN .                     400:  Run Number 
 ROPA.m/hr               35.00:  ROP Avg 
 ROPN.m/hr               25.00:  ROP Min 
 ROPX.m/hr               40.00:  ROP Max 
 RPMA.rpm                80.00:  RPM Surface Avg 
 RPMN.rpm                60.00:  RPM Surface Min 
 RPMX.rpm               100.00:  RPM Surface Max 
 RRUN.                     400:  Rig Run Number 
 RTIM.hr                  1.99:  Time Reaming 
 SAZI.deg               133.93:  Azm, Start 
 SDEP.m                4047.51:  Start Depth 
 SIDD.                      No:  Serv Intrp, DD 
 SINC.deg                40.28:  Inc, Start 
 SPPA.psig             3250.00:  SPP Avg 
 SPPN.psig             3200.00:  SPP Min 
 SPPX.psig             3300.00:  SPP Max 
 STIM.      03.31.12 02-Feb-20:  Start Time 
 SVCS.                 DD, MWD:  Services 
 SVER.                    9.20:  Sperry Version 
 TDAT.m                  47.00:  Tot Depth Attmp 
 TDDF.                      No:  Trip for DD 
 TFF .                      No:  Trip for Fail 
 TQAA.f-kp                0.00:  Torque Abs Avg 
 TQAN.f-kp                0.00:  Torque Abs Min 
 TQAX.f-kp                0.00:  Torque Abs Max 
 TRRT.°/30m               0.70:  Turn Rotating 
 MRT .                    HCIM:  Maximum Recorded Temperature 
 TTMX.degC               70.59:  Max Tool Temp 
 VS01.             90598770F11:  Virtual Str1 SN 
 VS02.             90598769F11:  Virtual Str2 SN 
 VS03.            90515978Z1W1:  Virtual Str3 SN 
 VS04.          90584144R12X14:  Virtual Str4 SN 
 WBMN.klb                 0.00:  WOB Min 
 WITN.            Peter Wilson:  Customer Rep 
 WOBA.klb                 0.00:  WOB Avg 
 WOBX.klb                 0.00:  WOB Max 
 YP  .lhf2               29.00:  Yield Point 
~Curve Information Block
#MNEM.UNIT                 API CODE     Curve Description
#---------               -----------    ---------------------------
 TIME.HHMMSS            00 000 000 000:  GT Time & Date
 GTDEPTH.m              00 000 000 000:  GT Depth
 GTPQH.psia             00 000 000 000:  GT HR Quartz Pressure
 GTTQ.degC              00 000 000 000:  GT Quartz Temperature
 GTTN.NONE              00 000 000 000:  GT Test Number
 GTET.sec               00 000 000 000:  GT Elapsed Test Time
 GTTVD.m                00 000 000 000:  GT True Vertical Depth
#Other Information
#
#WARRANTY: Halliburton will use its best efforts to furnish customers with 
#accurate information and interpretations that are part of, and incident to, the services 
#provided.  However, Halliburton cannot and does not warrant the accuracy 
#or correctness of such information and interpretations.  Under no circumstances should any 
#such information or interpretation be relied upon as the sole basis for any drilling, 
#completion, production, or financial decision or any procedure involving any risk to the 
#safety of any drilling venture, drilling rig or its crew or any other third party.  The 
#Customer has full responsibility for all drilling, completion and production operation.  
#Halliburton makes no representations or warranties, either expressed or 
#implied, including, but not limited to, the implied warranties of merchantability or fitness 
#for a particular purpose, with respect to the services rendered.  In no event will 
#Halliburton be liable for failure to obtain any particular results or for 
#any damages, including, but not limited to, indirect, special or consequential damages, 
#resulting from the use of any information or interpretation provided by Halliburton.
#
~A           TIME           GTDEPTH  GTPQH  GTTQ  GTTN  GTET   GTTVD  
# ...
   05:48:22.000.03-Feb-2020 4005.21 6055.82 63.91 6.00 184.00 3016.91
   05:48:22.200.03-Feb-2020 4005.21 6055.82 63.91 6.00 184.20 3016.91
   05:48:22.400.03-Feb-2020 4005.21 6052.25 63.91 6.00 184.40 3016.91
   05:48:22.600.03-Feb-2020 4005.21 6048.80 63.91 6.00 184.60 3016.91
   05:48:22.800.03-Feb-2020 4005.21 6052.95 63.91 6.00 184.80 3016.91
   05:48:23.000.03-Feb-2020 4005.21 6050.11 63.91 6.00 185.00 3016.91
   05:48:23.200.03-Feb-2020 4005.21 6050.11 63.91 6.00 185.20 3016.91
   05:48:23.400.03-Feb-2020 4005.21 6054.40 63.91 6.00 185.40 3016.91
   05:48:23.600.03-Feb-2020 4005.21 6053.20 63.91 6.00 185.60 3016.91
   05:48:23.800.03-Feb-2020 4005.21 6052.30 63.91 6.00 185.80 3016.91
   05:48:24.000.03-Feb-2020 4005.21 6054.56 63.91 6.00 186.00 3016.91
   05:48:24.200.03-Feb-2020 4005.21 6054.56 63.91 6.00 186.20 3016.91
   05:48:24.400.03-Feb-2020 4005.21 6055.08 63.91 6.00 186.40 3016.91
   05:48:24.600.03-Feb-2020 4005.21 6055.12 63.91 6.00 186.60 3016.91
   05:48:24.800.03-Feb-2020 4005.21 6054.57 63.91 6.00 186.80 3016.91
   05:48:25.000.03-Feb-2020 4005.21 6053.23 63.91 6.00 187.00 3016.91
   05:48:25.200.03-Feb-2020 4005.21 6053.23 63.91 6.00 187.20 3016.91
   05:48:25.400.03-Feb-2020 4005.21 6051.47 63.91 6.00 187.40 3016.91
   05:48:25.600.03-Feb-2020 4005.21 6048.11 63.91 6.00 187.60 3016.91
   05:48:25.800.03-Feb-2020 4005.21 6049.67 63.91 6.00 187.80 3016.91
   05:48:26.000.03-Feb-2020 4005.21 6052.40 63.91 6.00 188.00 3016.91
   05:48:26.200.03-Feb-2020 4005.21 6052.40 63.91 6.00 188.20 3016.91
   05:48:26.400.03-Feb-2020 4005.21 6052.17 63.91 6.00 188.40 3016.91
   05:48:26.600.03-Feb-2020 4005.21 6052.08 63.91 6.00 188.60 3016.91
   05:48:26.800.03-Feb-2020 4005.21 6052.60 63.91 6.00 188.80 3016.91
   05:48:27.000.03-Feb-2020 4005.21 6052.39 63.91 6.00 189.00 3016.91
   05:48:27.200.03-Feb-2020 4005.21 6052.39 63.91 6.00 189.20 3016.91
   05:48:27.400.03-Feb-2020 4005.21 6054.16 63.91 6.00 189.40 3016.91
   05:48:27.600.03-Feb-2020 4005.21 6053.76 63.91 6.00 189.60 3016.91
   05:48:27.800.03-Feb-2020 4005.21 6053.19 63.91 6.00 189.80 3016.91
   05:48:28.000.03-Feb-2020 4005.21 6053.53 63.91 6.00 190.00 3016.91
   05:48:28.200.03-Feb-2020 4005.21 6053.53 63.91 6.00 190.20 3016.91
   05:48:28.400.03-Feb-2020 4005.21 6051.50 63.91 6.00 190.40 3016.91
   05:48:28.600.03-Feb-2020 4005.21 6050.31 63.91 6.00 190.60 3016.91
   05:48:28.800.03-Feb-2020 4005.21 6053.59 63.91 6.00 190.80 3016.91
   05:48:29.000.03-Feb-2020 4005.21 6052.90 63.91 6.00 191.00 3016.91
   05:48:29.200.03-Feb-2020 4005.21 6052.90 63.91 6.00 191.20 3016.91
   05:48:29.400.03-Feb-2020 4005.21 6054.91 63.91 6.00 191.40 3016.91
   05:48:29.600.03-Feb-2020 4005.21 6047.64 63.91 6.00 191.60 3016.91
   05:48:29.800.03-Feb-2020 4005.21 6052.42 63.91 6.00 191.80 3016.91
   05:48:30.000.03-Feb-2020 4005.21 6048.82 63.91 6.00 192.00 3016.91
   05:48:30.200.03-Feb-2020 4005.21 6048.82 63.91 6.00 192.20 3016.91
   05:48:30.400.03-Feb-2020 4005.21 6051.42 63.91 6.00 192.40 3016.91
   05:48:30.600.03-Feb-2020 4005.21 6044.34 63.91 6.00 192.60 3016.91
   05:48:30.800.03-Feb-2020 4005.21 6051.33 63.91 6.00 192.80 3016.91
   05:48:31.000.03-Feb-2020 4005.21 6049.50 63.91 6.00 193.00 3016.91
   05:48:31.200.03-Feb-2020 4005.21 6049.50 63.91 6.00 193.20 3016.91
   05:48:31.400.03-Feb-2020 4005.21 6054.93 63.91 6.00 193.40 3016.91
   05:48:31.600.03-Feb-2020 4005.21 6053.99 63.91 6.00 193.60 3016.91
   05:48:31.800.03-Feb-2020 4005.21 6052.93 63.91 6.00 193.80 3016.91
   05:48:32.000.03-Feb-2020 4005.21 6044.77 63.91 6.00 194.00 3016.91
   05:48:32.200.03-Feb-2020 4005.21 6044.77 63.91 6.00 194.20 3016.91
   05:48:32.400.03-Feb-2020 4005.21 6048.26 63.91 6.00 194.40 3016.91
   05:48:32.600.03-Feb-2020 4005.21 6053.73 63.91 6.00 194.60 3016.91
   05:48:32.800.03-Feb-2020 4005.21 6053.32 63.91 6.00 194.80 3016.91
   05:48:33.000.03-Feb-2020 4005.21 6052.97 63.91 6.00 195.00 3016.91
   05:48:33.200.03-Feb-2020 4005.21 6052.97 63.91 6.00 195.20 3016.91
   05:48:33.400.03-Feb-2020 4005.21 6052.17 63.91 6.00 195.40 3016.91
   05:48:33.600.03-Feb-2020 4005.21 6054.78 63.91 6.00 195.60 3016.91
   05:48:33.800.03-Feb-2020 4005.21 6054.57 63.91 6.00 195.80 3016.91
   05:48:34.000.03-Feb-2020 4005.21 6054.47 63.91 6.00 196.00 3016.91
   05:48:34.200.03-Feb-2020 4005.21 6054.47 63.91 6.00 196.20 3016.91
   05:48:34.400.03-Feb-2020 4005.21 6054.04 63.91 6.00 196.40 3016.91
   05:48:34.600.03-Feb-2020 4005.21 6052.78 63.91 6.00 196.60 3016.91
   05:48:34.800.03-Feb-2020 4005.21 6053.06 63.91 6.00 196.80 3016.91
   05:48:35.000.03-Feb-2020 4005.21 6054.30 63.91 6.00 197.00 3016.91
   05:48:35.200.03-Feb-2020 4005.21 6054.30 63.91 6.00 197.20 3016.91
   05:48:35.400.03-Feb-2020 4005.21 6053.86 63.91 6.00 197.40 3016.91
   05:48:35.600.03-Feb-2020 4005.21 6049.57 63.91 6.00 197.60 3016.91
   05:48:35.800.03-Feb-2020 4005.21 6052.57 63.91 6.00 197.80 3016.91
   05:48:36.000.03-Feb-2020 4005.21 6051.99 63.91 6.00 198.00 3016.91
   05:48:36.200.03-Feb-2020 4005.21 6051.99 63.91 6.00 198.20 3016.91
   05:48:36.400.03-Feb-2020 4005.21 6052.58 63.91 6.00 198.40 3016.91
   05:48:36.600.03-Feb-2020 4005.21 6053.77 63.91 6.00 198.60 3016.91
   05:48:36.800.03-Feb-2020 4005.21 6054.11 63.91 6.00 198.80 3016.91
   05:48:37.000.03-Feb-2020 4005.21 6054.11 63.91 6.00 199.00 3016.91
   05:48:37.200.03-Feb-2020 4005.21 6054.11 63.91 6.00 199.20 3016.91
   05:48:37.400.03-Feb-2020 4005.21 6052.86 63.91 6.00 199.40 3016.91
   05:48:37.600.03-Feb-2020 4005.21 6053.75 63.91 6.00 199.60 3016.91
   05:48:37.800.03-Feb-2020 4005.21 6052.71 63.91 6.00 199.80 3016.91
   05:48:38.000.03-Feb-2020 4005.21 6043.42 63.91 6.00 200.00 3016.91
   05:48:38.200.03-Feb-2020 4005.21 6043.42 63.91 6.00 200.20 3016.91
   05:48:38.400.03-Feb-2020 4005.21 6051.92 63.91 6.00 200.40 3016.91
   05:48:38.600.03-Feb-2020 4005.21 6053.55 63.91 6.00 200.60 3016.91
   05:48:38.800.03-Feb-2020 4005.21 6053.86 63.91 6.00 200.80 3016.91
   05:48:39.000.03-Feb-2020 4005.21 6055.39 63.91 6.00 201.00 3016.91
   05:48:39.200.03-Feb-2020 4005.21 6055.39 63.91 6.00 201.20 3016.91
   05:48:39.400.03-Feb-2020 4005.21 6054.04 63.91 6.00 201.40 3016.91
   05:48:39.600.03-Feb-2020 4005.21 6051.68 63.91 6.00 201.60 3016.91
   05:48:39.800.03-Feb-2020 4005.21 6050.23 63.91 6.00 201.80 3016.91
   05:48:40.000.03-Feb-2020 4005.21 6052.79 63.91 6.00 202.00 3016.91
   05:48:40.200.03-Feb-2020 4005.21 6052.79 63.91 6.00 202.20 3016.91
   05:48:40.400.03-Feb-2020 4005.21 6051.55 63.91 6.00 202.40 3016.91
   05:48:40.600.03-Feb-2020 4005.21 6048.24 63.91 6.00 202.60 3016.91
   05:48:40.800.03-Feb-2020 4005.21 6052.84 63.91 6.00 202.80 3016.91
   05:48:41.000.03-Feb-2020 4005.21 6054.32 63.91 6.00 203.00 3016.91
   05:48:41.200.03-Feb-2020 4005.21 6054.32 63.91 6.00 203.20 3016.91
   05:48:41.400.03-Feb-2020 4005.21 6053.80 63.91 6.00 203.40 3016.91
   05:48:41.600.03-Feb-2020 4005.21 6046.12 63.91 6.00 203.60 3016.91
   05:48:41.800.03-Feb-2020 4005.21 6051.52 63.91 6.00 203.80 3016.91
   05:48:42.000.03-Feb-2020 4005.21 6046.50 63.91 6.00 204.00 3016.91
   05:48:42.200.03-Feb-2020 4005.21 6046.50 63.91 6.00 204.20 3016.91
   05:48:42.400.03-Feb-2020 4005.21 6053.68 63.91 6.00 204.40 3016.91
   05:48:42.600.03-Feb-2020 4005.21 6053.40 63.91 6.00 204.60 3016.91
   05:48:42.800.03-Feb-2020 4005.21 6053.15 63.91 6.00 204.80 3016.91
   05:48:43.000.03-Feb-2020 4005.21 6051.89 63.91 6.00 205.00 3016.91
   05:48:43.200.03-Feb-2020 4005.21 6051.89 63.91 6.00 205.20 3016.91
   05:48:43.400.03-Feb-2020 4005.21 6054.90 63.91 6.00 205.40 3016.91
   05:48:43.600.03-Feb-2020 4005.21 6054.74 63.91 6.00 205.60 3016.91
   05:48:43.800.03-Feb-2020 4005.21 6054.63 63.91 6.00 205.80 3016.91
   05:48:44.000.03-Feb-2020 4005.21 6054.40 63.91 6.00 206.00 3016.91
   05:48:44.200.03-Feb-2020 4005.21 6054.40 63.91 6.00 206.20 3016.91
   05:48:44.400.03-Feb-2020 4005.21 6052.15 63.91 6.00 206.40 3016.91
   05:48:44.600.03-Feb-2020 4005.21 6054.41 63.91 6.00 206.60 3016.91
   05:48:44.800.03-Feb-2020 4005.21 6050.60 63.91 6.00 206.80 3016.91
