~Version Information
 VERS.                  2.0:   CWLS log ASCII Standard -VERSION 2.0
 WRAP.                   NO:   One line per depth step
~Well Information Block
#MNEM.UNIT     VALUE/NAME     DESCRIPTION
#---------     -----------    ---------------------------
 STRT.S             05:00:30 03-Feb-20: START TIME 05:00:30 03-Feb-20
 STOP.S             05:08:21 03-Feb-20: STOP TIME  05:08:21 03-Feb-20
 STEP.S                   0.00: STEP TIME
 NULL.                 -999.25: NULL VALUE
 DFWT.                        :  DIST FWL TEXT
 DFST.                        :  DIST FSL TEXT
 DMF .             Drill Floor:  DRILL MEAS FROM
 STIM.      09.30.00 26-Dec-19:  START TIME
 DATE.      08.00.00 20-Jan-20:  END TIME
 SPUD.               23-Nov-19:  SPUD DATE
 NREF.                    Grid:  NORTH REFERENCE
 HPTY.       Minimum Curvature:  HOLE POS TYPE
 DMOD.             Drill Model:  DRILL MOD DESC
 SVYD.                  Survey:  SURVEY DESC
 ILTD.               Lithology:  INTERP LTH DESC
 FTOP.          Formation Tops:  FORM TOPS DESC
 SON .        AZ-XX-0906192647:  JOB NUMBER
 WTYP.                Deviated:  WELL TYPE
 COMP.     BP Exploration (Caspian Sea) Ltd:  COMPANY
 BASE.              Azerbaijan:  LOGGING EQUIPMENT BASE LOCATION
 REGN.                 Eurasia:  REGION
 FLD .                     ACG:  FIELD NAME
 SRVC.              KCA Deutag:  CONTRACTOR
 MWDS.                    Baku:  MWD SHOP
 WELL.     A10 (Slot 20) - SCP:  WELL NAME
 JOBN.        AZ-XX-0906192647:  JOB TICKET NUMB
 RIG .                 Chirag1:  RIG NAME
 DCON.     Halliburton Sperry Drilling:  DIRECTNL CONTR
 UNIT.                     N/A:  LOGGING EQUIPMENT ID
 PDAT.          Mean Sea Level:  PERMANENT DATUM
 MDS .        Operator Entered:  MAG DATA SOURCE
 CTRY.              Azerbaijan:  COUNTRY NAME
 UWI .            /AZE00000090:  UNIQUE WELL IDENTIFIER
 API .            /AZE00000090:  API NUMBER
 CNTY.                        :  COUNTY
 PROV.                        :  PROVINCE
 STAT.                        :  STATE
 LOC .                        :  LOCATION
 LMF .             Drill Floor:  LOG MEASURED FROM
 TVDS.m                  36.60:  TVDSS CORRECTN
 LATI.deg                40.08:  LATITUDE
 LONG.deg                51.24:  LONGITUDE
 WHNS.m                  -7.94:  WELL HEAD N/S
 WHEW.m                   1.56:  WELL HEAD E/W
 UTMX.m              520429.26:  UTM X
 UTMY.m             4438973.87:  UTM Y
 DFWL.m                   0.00:  DISTANCE FWL
 DFSL.m                   0.00:  DISTANCE FSL
 SDEP.m                1455.00:  START DEPTH
 TDD .m                4047.51:  TOTAL DEPTH (DRILLER)
 VSDR.deg               112.75:  VERT SEC DIRECT
 GVFD.g                   1.00:  GRAVITY FIELD
 MFLD.nT              50261.00:  MAGNETIC FIELD
 MDIP.deg                59.52:  MAGNETIC DIP
 MDEC.deg                 6.42:  MAGNETIC DECL
 GRDC.deg                 0.17:  GRID CORRECTION
 AZTC.deg                 6.25:  AZM TOTAL CORR
 EPD .m                   0.00:  ELEVATION
 EGL .m                   0.00:  GROUND ELEVATION
 WDMS.m                 121.00:  WD ELEV
 APD .m                  36.60:  DEPTH ABOVE PD
 AGAP.m                  36.60:  AIR GAP
 VSEW.m                   1.56:  VERT SEC E/W
 VSNS.m                  -7.94:  VERT SEC N/S
 DEP .m                1140.01:  DEPTH
 EKB .m                  36.60:  KB ELEVATION
 EDF .m                  36.60:  DF ELEVATION
 VSC .                       0:  VS TO CLOSURE
 MAGU.                 1849206:  MAGUTM CHECKSUM
~Parameter Information Block
#MNEM.UNIT       Value        Description
#---------     -----------    ---------------------------
 AV  .mps                 1.70:  Ann Velocity 
 AVMX.mps                 2.30:  Max Ann Veloc 
 AZIF.deg               137.03:  Azm, Final 
 BHAT.                   Other:  BHA Type 
 BROT.°/30m               0.80:  Build Rotating 
 BS  .in                  8.00:  Bit Size 
 BTPL.psig              161.00:  Bit Press Loss 
 CABU.                      No:  Customer Abuse 
 COMM.                     ,¶W:  Run Comments 1 
 TCS .hr                  9.59:  Time Ciculation Ended 
 CV  .mps                 3.76:  Crit Velocity 
 CVMX.mps                 4.26:  Max Crit Veloc 
 DD1 .         Intigam Rahimov:  Direct Drillr 1 
 DD2 .          Rashad Gojayev:  Direct Drillr 2 
 DDSV.                   Other:  DD Service 
 DEFF.%                 100.00:  % Det Eff 
 DLRX.°/30m               1.44:  Dogleg Rot Max 
 DLSO.°/30m               0.00:  Dogleg Oriented 
 DLSX.°/30m               0.00:  Dogleg Str Max 
 DRET.      03.31.12 02-Feb-20:  Drill End Time 
 DRST.      03.31.12 02-Feb-20:  Drill Start Tim 
 DTIM.hr                  1.99:  Time Drilling 
 EDEP.m                4047.51:  End Depth 
 ENG1.           Eldar Hajiyev:  Engineer 1 
 ENG2.          Rasim Hashimov:  Engineer 2 
 ENG3.          Rustam Safarov:  Engineer 3 
 ETIM.      03.31.12 02-Feb-20:  End Time 
 FLOI.gpm               300.00:  Flow In 
 FLON.gpm               250.00:  Flow In Min 
 FLOS.cptm                0.00:  Fluid Loss 
 FLOX.gpm               330.00:  Flow In Max 
 HFLO.                      No:  High Flow 
 HPRE.                      No:  High Pressure 
 HTEM.                      No:  High Temp 
 HYDO.m                   2.50:  Hydro Offset 
 IFIN.deg                39.54:  Inc, Final 
 IMAX.deg                41.14:  Inc Max 
 IMIN.deg                39.81:  Inc Min 
 IMND.m                4005.21:  Inc Min Depth 
 IMXD.m                3948.42:  Inc Max Depth 
 JARR.                      No:  Jarring 
 LETM.      03.31.12 02-Feb-20:  Log End Time 
 LOST.hr                     0:  Lost Rig Time 
 LSTM.      03.31.12 02-Feb-20:  Log Start Time 
 MDCL.ppm             35000.00:  Mud Chlorides 
 MDES.     Inversion Oil/Synthetic:  Mud Desc 
 DFD .sg                  1.32:  Mud Density 
 MDMN.sg                  1.32:  Dens Mud Min 
 MDMX.sg                  1.32:  Dens Mud Max 
 MOIL.                      59:  Run Mud Oil % 
 MOWR.                   71:29:  Run Mud OWR 
 MSND.                       0:  Run Mud Sand % 
 MSOL.                      17:  Run Mud Solids% 
 DFV .spqt               86.00:  Mud Viscosity 
 MWOD.in                  4.75:  MWD Tool OD 
 MWSI.                      No:  Serv Intrp, MWD 
 OTIM.hr                 46.72:  Time Operating 
 PCON.           Look Like New:  Pad Condition 
 PMAX.psia             3300.00:  Press Op, Max 
 PV  .cP                 30.00:  Mud PV 
 RUN .                     400:  Run Number 
 ROPA.m/hr               35.00:  ROP Avg 
 ROPN.m/hr               25.00:  ROP Min 
 ROPX.m/hr               40.00:  ROP Max 
 RPMA.rpm                80.00:  RPM Surface Avg 
 RPMN.rpm                60.00:  RPM Surface Min 
 RPMX.rpm               100.00:  RPM Surface Max 
 RRUN.                     400:  Rig Run Number 
 RTIM.hr                  1.99:  Time Reaming 
 SAZI.deg               133.93:  Azm, Start 
 SDEP.m                4047.51:  Start Depth 
 SIDD.                      No:  Serv Intrp, DD 
 SINC.deg                40.28:  Inc, Start 
 SPPA.psig             3250.00:  SPP Avg 
 SPPN.psig             3200.00:  SPP Min 
 SPPX.psig             3300.00:  SPP Max 
 STIM.      03.31.12 02-Feb-20:  Start Time 
 SVCS.                 DD, MWD:  Services 
 SVER.                    9.20:  Sperry Version 
 TDAT.m                  47.00:  Tot Depth Attmp 
 TDDF.                      No:  Trip for DD 
 TFF .                      No:  Trip for Fail 
 TQAA.f-kp                0.00:  Torque Abs Avg 
 TQAN.f-kp                0.00:  Torque Abs Min 
 TQAX.f-kp                0.00:  Torque Abs Max 
 TRRT.°/30m               0.70:  Turn Rotating 
 MRT .                    HCIM:  Maximum Recorded Temperature 
 TTMX.degC               70.59:  Max Tool Temp 
 VS01.             90598770F11:  Virtual Str1 SN 
 VS02.             90598769F11:  Virtual Str2 SN 
 VS03.            90515978Z1W1:  Virtual Str3 SN 
 VS04.          90584144R12X14:  Virtual Str4 SN 
 WBMN.klb                 0.00:  WOB Min 
 WITN.            Peter Wilson:  Customer Rep 
 WOBA.klb                 0.00:  WOB Avg 
 WOBX.klb                 0.00:  WOB Max 
 YP  .lhf2               29.00:  Yield Point 
~Curve Information Block
#MNEM.UNIT                 API CODE     Curve Description
#---------               -----------    ---------------------------
 TIME.HHMMSS            00 000 000 000:  GT Time & Date
 GTDEPTH.m              00 000 000 000:  GT Depth
 GTPQH.psia             00 000 000 000:  GT HR Quartz Pressure
 GTTQ.degC              00 000 000 000:  GT Quartz Temperature
 GTTN.NONE              00 000 000 000:  GT Test Number
 GTET.sec               00 000 000 000:  GT Elapsed Test Time
 GTTVD.m                00 000 000 000:  GT True Vertical Depth
#Other Information
#
#WARRANTY: Halliburton will use its best efforts to furnish customers with 
#accurate information and interpretations that are part of, and incident to, the services 
#provided.  However, Halliburton cannot and does not warrant the accuracy 
#or correctness of such information and interpretations.  Under no circumstances should any 
#such information or interpretation be relied upon as the sole basis for any drilling, 
#completion, production, or financial decision or any procedure involving any risk to the 
#safety of any drilling venture, drilling rig or its crew or any other third party.  The 
#Customer has full responsibility for all drilling, completion and production operation.  
#Halliburton makes no representations or warranties, either expressed or 
#implied, including, but not limited to, the implied warranties of merchantability or fitness 
#for a particular purpose, with respect to the services rendered.  In no event will 
#Halliburton be liable for failure to obtain any particular results or for 
#any damages, including, but not limited to, indirect, special or consequential damages, 
#resulting from the use of any information or interpretation provided by Halliburton.
#
~A           TIME           GTDEPTH  GTPQH  GTTQ  GTTN  GTET   GTTVD  
# ...
   05:03:57.000.03-Feb-2020 4009.01 6080.28 65.96 4.00 207.00 3019.83
   05:03:57.200.03-Feb-2020 4009.01 6080.28 65.96 4.00 207.20 3019.83
   05:03:57.400.03-Feb-2020 4009.01 6083.50 65.96 4.00 207.40 3019.83
   05:03:57.600.03-Feb-2020 4009.01 6084.93 65.96 4.00 207.60 3019.83
   05:03:57.800.03-Feb-2020 4009.01 6075.87 65.96 4.00 207.80 3019.83
   05:03:58.000.03-Feb-2020 4009.01 6083.64 65.96 4.00 208.00 3019.83
   05:03:58.200.03-Feb-2020 4009.01 6083.64 65.96 4.00 208.20 3019.83
   05:03:58.400.03-Feb-2020 4009.01 6083.02 65.96 4.00 208.40 3019.83
   05:03:58.600.03-Feb-2020 4009.01 6081.97 65.96 4.00 208.60 3019.83
   05:03:58.800.03-Feb-2020 4009.01 6083.60 65.96 4.00 208.80 3019.83
   05:03:59.000.03-Feb-2020 4009.01 6079.32 65.96 4.00 209.00 3019.83
   05:03:59.200.03-Feb-2020 4009.01 6079.32 65.96 4.00 209.20 3019.83
   05:03:59.400.03-Feb-2020 4009.01 6077.85 65.96 4.00 209.40 3019.83
   05:03:59.600.03-Feb-2020 4009.01 6084.64 65.96 4.00 209.60 3019.83
   05:03:59.800.03-Feb-2020 4009.01 6083.99 65.96 4.00 209.80 3019.83
   05:04:00.000.03-Feb-2020 4009.01 6084.04 65.96 4.00 210.00 3019.83
   05:04:00.200.03-Feb-2020 4009.01 6084.04 65.96 4.00 210.20 3019.83
   05:04:00.400.03-Feb-2020 4009.01 6083.20 65.96 4.00 210.40 3019.83
   05:04:00.600.03-Feb-2020 4009.01 6070.55 65.96 4.00 210.60 3019.83
   05:04:00.800.03-Feb-2020 4009.01 6083.94 65.96 4.00 210.80 3019.83
   05:04:01.000.03-Feb-2020 4009.01 6079.65 65.96 4.00 211.00 3019.83
   05:04:01.200.03-Feb-2020 4009.01 6079.65 65.96 4.00 211.20 3019.83
   05:04:01.400.03-Feb-2020 4009.01 6082.29 65.96 4.00 211.40 3019.83
   05:04:01.600.03-Feb-2020 4009.01 6082.62 65.96 4.00 211.60 3019.83
   05:04:01.800.03-Feb-2020 4009.01 6081.57 65.96 4.00 211.80 3019.83
   05:04:02.000.03-Feb-2020 4009.01 6083.87 65.96 4.00 212.00 3019.83
   05:04:02.200.03-Feb-2020 4009.01 6083.87 65.96 4.00 212.20 3019.83
   05:04:02.400.03-Feb-2020 4009.01 6084.93 65.95 4.00 212.40 3019.83
   05:04:02.600.03-Feb-2020 4009.01 6084.78 65.95 4.00 212.60 3019.83
   05:04:02.800.03-Feb-2020 4009.01 6083.96 65.95 4.00 212.80 3019.83
   05:04:03.000.03-Feb-2020 4009.01 6084.19 65.95 4.00 213.00 3019.83
   05:04:03.200.03-Feb-2020 4009.01 6084.19 65.95 4.00 213.20 3019.83
   05:04:03.400.03-Feb-2020 4009.01 6081.51 65.95 4.00 213.40 3019.83
   05:04:03.600.03-Feb-2020 4009.01 6085.30 65.95 4.00 213.60 3019.83
   05:04:03.800.03-Feb-2020 4009.01 6075.74 65.95 4.00 213.80 3019.83
   05:04:04.000.03-Feb-2020 4009.01 6082.78 65.95 4.00 214.00 3019.83
   05:04:04.200.03-Feb-2020 4009.01 6082.78 65.95 4.00 214.20 3019.83
   05:04:04.400.03-Feb-2020 4009.01 6082.58 65.95 4.00 214.40 3019.83
   05:04:04.600.03-Feb-2020 4009.01 6081.22 65.95 4.00 214.60 3019.83
   05:04:04.800.03-Feb-2020 4009.01 6084.05 65.95 4.00 214.80 3019.83
   05:04:05.000.03-Feb-2020 4009.01 6084.30 65.95 4.00 215.00 3019.83
   05:04:05.200.03-Feb-2020 4009.01 6084.30 65.95 4.00 215.20 3019.83
   05:04:05.400.03-Feb-2020 4009.01 6084.08 65.95 4.00 215.40 3019.83
   05:04:05.600.03-Feb-2020 4009.01 6083.58 65.95 4.00 215.60 3019.83
   05:04:05.800.03-Feb-2020 4009.01 6083.46 65.95 4.00 215.80 3019.83
   05:04:06.000.03-Feb-2020 4009.01 6083.88 65.95 4.00 216.00 3019.83
   05:04:06.200.03-Feb-2020 4009.01 6083.88 65.95 4.00 216.20 3019.83
   05:04:06.400.03-Feb-2020 4009.01 6084.66 65.95 4.00 216.40 3019.83
   05:04:06.600.03-Feb-2020 4009.01 6072.64 65.95 4.00 216.60 3019.83
   05:04:06.800.03-Feb-2020 4009.01 6084.59 65.95 4.00 216.80 3019.83
   05:04:07.000.03-Feb-2020 4009.01 6080.81 65.95 4.00 217.00 3019.83
   05:04:07.200.03-Feb-2020 4009.01 6080.81 65.95 4.00 217.20 3019.83
   05:04:07.400.03-Feb-2020 4009.01 6083.35 65.95 4.00 217.40 3019.83
   05:04:07.600.03-Feb-2020 4009.01 6085.32 65.95 4.00 217.60 3019.83
   05:04:07.800.03-Feb-2020 4009.01 6075.88 65.95 4.00 217.80 3019.83
   05:04:08.000.03-Feb-2020 4009.01 6083.29 65.95 4.00 218.00 3019.83
   05:04:08.200.03-Feb-2020 4009.01 6083.29 65.95 4.00 218.20 3019.83
   05:04:08.400.03-Feb-2020 4009.01 6082.92 65.95 4.00 218.40 3019.83
   05:04:08.600.03-Feb-2020 4009.01 6081.72 65.95 4.00 218.60 3019.83
   05:04:08.800.03-Feb-2020 4009.01 6083.96 65.95 4.00 218.80 3019.83
   05:04:09.000.03-Feb-2020 4009.01 6079.02 65.95 4.00 219.00 3019.83
   05:04:09.200.03-Feb-2020 4009.01 6079.02 65.95 4.00 219.20 3019.83
   05:04:09.400.03-Feb-2020 4009.01 6077.98 65.94 4.00 219.40 3019.83
   05:04:09.600.03-Feb-2020 4009.01 6084.38 65.94 4.00 219.60 3019.83
   05:04:09.800.03-Feb-2020 4009.01 6083.81 65.94 4.00 219.80 3019.83
   05:04:10.000.03-Feb-2020 4009.01 6084.33 65.94 4.00 220.00 3019.83
   05:04:10.200.03-Feb-2020 4009.01 6084.33 65.94 4.00 220.20 3019.83
   05:04:10.400.03-Feb-2020 4009.01 6083.13 65.94 4.00 220.40 3019.83
   05:04:10.600.03-Feb-2020 4009.01 6070.49 65.94 4.00 220.60 3019.83
   05:04:10.800.03-Feb-2020 4009.01 6083.58 65.94 4.00 220.80 3019.83
   05:04:11.000.03-Feb-2020 4009.01 6079.71 65.94 4.00 221.00 3019.83
   05:04:11.200.03-Feb-2020 4009.01 6079.71 65.94 4.00 221.20 3019.83
   05:04:11.400.03-Feb-2020 4009.01 6081.96 65.94 4.00 221.40 3019.83
   05:04:11.600.03-Feb-2020 4009.01 6082.81 65.94 4.00 221.60 3019.83
   05:04:11.800.03-Feb-2020 4009.01 6081.81 65.94 4.00 221.80 3019.83
   05:04:12.000.03-Feb-2020 4009.01 6083.48 65.94 4.00 222.00 3019.83
   05:04:12.200.03-Feb-2020 4009.01 6083.48 65.94 4.00 222.20 3019.83
   05:04:12.400.03-Feb-2020 4009.01 6085.00 65.94 4.00 222.40 3019.83
   05:04:12.600.03-Feb-2020 4009.01 6084.60 65.94 4.00 222.60 3019.83
   05:04:12.800.03-Feb-2020 4009.01 6084.41 65.94 4.00 222.80 3019.83
   05:04:13.000.03-Feb-2020 4009.01 6084.18 65.94 4.00 223.00 3019.83
   05:04:13.200.03-Feb-2020 4009.01 6084.18 65.94 4.00 223.20 3019.83
   05:04:13.400.03-Feb-2020 4009.01 6081.69 65.94 4.00 223.40 3019.83
   05:04:13.600.03-Feb-2020 4009.01 6085.05 65.94 4.00 223.60 3019.83
   05:04:13.800.03-Feb-2020 4009.01 6075.28 65.94 4.00 223.80 3019.83
   05:04:14.000.03-Feb-2020 4009.01 6082.86 65.94 4.00 224.00 3019.83
   05:04:14.200.03-Feb-2020 4009.01 6082.86 65.94 4.00 224.20 3019.83
   05:04:14.400.03-Feb-2020 4009.01 6081.87 65.94 4.00 224.40 3019.83
   05:04:14.600.03-Feb-2020 4009.01 6080.81 65.94 4.00 224.60 3019.83
   05:04:14.800.03-Feb-2020 4009.01 6083.07 65.94 4.00 224.80 3019.83
   05:04:15.000.03-Feb-2020 4009.01 6083.45 65.94 4.00 225.00 3019.83
   05:04:15.200.03-Feb-2020 4009.01 6083.45 65.94 4.00 225.20 3019.83
   05:04:15.400.03-Feb-2020 4009.01 6083.15 65.94 4.00 225.40 3019.83
   05:04:15.600.03-Feb-2020 4009.01 6082.96 65.94 4.00 225.60 3019.83
   05:04:15.800.03-Feb-2020 4009.01 6083.13 65.94 4.00 225.80 3019.83
   05:04:16.000.03-Feb-2020 4009.01 6082.96 65.94 4.00 226.00 3019.83
   05:04:16.200.03-Feb-2020 4009.01 6082.96 65.94 4.00 226.20 3019.83
   05:04:16.400.03-Feb-2020 4009.01 6084.35 65.93 4.00 226.40 3019.83
   05:04:16.600.03-Feb-2020 4009.01 6071.59 65.93 4.00 226.60 3019.83
   05:04:16.800.03-Feb-2020 4009.01 6084.06 65.93 4.00 226.80 3019.83
   05:04:17.000.03-Feb-2020 4009.01 6080.44 65.93 4.00 227.00 3019.83
   05:04:17.200.03-Feb-2020 4009.01 6080.44 65.93 4.00 227.20 3019.83
   05:04:17.400.03-Feb-2020 4009.01 6083.17 65.93 4.00 227.40 3019.83
   05:04:17.600.03-Feb-2020 4009.01 6085.01 65.93 4.00 227.60 3019.83
   05:04:17.800.03-Feb-2020 4009.01 6075.17 65.93 4.00 227.80 3019.83
   05:04:18.000.03-Feb-2020 4009.01 6083.52 65.93 4.00 228.00 3019.83
   05:04:18.200.03-Feb-2020 4009.01 6083.52 65.93 4.00 228.20 3019.83
   05:04:18.400.03-Feb-2020 4009.01 6082.51 65.93 4.00 228.40 3019.83
   05:04:18.600.03-Feb-2020 4009.01 6081.96 65.93 4.00 228.60 3019.83
   05:04:18.800.03-Feb-2020 4009.01 6083.69 65.93 4.00 228.80 3019.83
   05:04:19.000.03-Feb-2020 4009.01 6078.61 65.93 4.00 229.00 3019.83
   05:04:19.200.03-Feb-2020 4009.01 6078.61 65.93 4.00 229.20 3019.83
   05:04:19.400.03-Feb-2020 4009.01 6077.89 65.93 4.00 229.40 3019.83
   05:04:19.600.03-Feb-2020 4009.01 6084.01 65.93 4.00 229.60 3019.83
   05:04:19.800.03-Feb-2020 4009.01 6084.09 65.93 4.00 229.80 3019.83
